latitude,longitude,time_millisecond,datetime_utc,altitude_m,ascent_m,speed_kph,distance_m,max_altitude_m,max_ascent_m,max_speed_kph,max_distance_m,rc_throttle,gimbal_pitch_degrees,battery_percent,flycState,message
0.34765261818761306,36.89998034240811,0,2018-04-04 13:21:32,1741.4386543260277,0.0,0.0,0.0,1741.4386543260277,0.0,0.0,0.0,364,0.0,99,Motors_Started,
0.34765263357365994,36.899980342504,100,2018-04-04 13:21:32,1741.4386543260277,0.0,0.0,0.00171106005475392,1741.4386543260277,0.0,0.0,0.00171106005475392,364,0.0,99,Motors_Started,
0.34765264308407895,36.8999803419538,200,2018-04-04 13:21:32,1741.4386543260277,0.0,0.0,0.0027691000886112004,1741.4386543260277,0.0,0.0,0.0027691000886112004,364,0.0,99,Motors_Started,
0.347652648361255,36.899980327649104,300,2018-04-04 13:21:32,1741.4386543260277,0.0,0.0,0.0037353801195321606,1741.4386543260277,0.0,0.0,0.0037353801195321606,364,0.0,99,Motors_Started,
0.347652651691118,36.899980299822104,400,2018-04-04 13:21:32,1741.4386543260277,0.0,0.0,0.006025680192821761,1741.4386543260277,0.0,0.0,0.006025680192821761,364,0.0,99,Motors_Started,
0.34765266990037796,36.8999802757349,500,2018-04-04 13:21:33,1741.4386543260277,0.0,0.0,0.009383160300261121,1741.4386543260277,0.0,0.0,0.009383160300261121,364,0.0,99,Motors_Started,
0.34765269928198606,36.8999802604979,600,2018-04-04 13:21:33,1741.4386543260277,0.0,0.0,0.012817800410169602,1741.4386543260277,0.0,0.0,0.012817800410169602,364,0.0,99,Motors_Started,Setting new Return-To-Home altitude to 30m (98 ft). Setting new Maximum Flight Altitude to 150m (492 ft)
0.34765272603345404,36.899980232044705,700,2018-04-04 13:21:33,1741.4386543260277,0.0,0.0,0.0171598005491136,1741.4386543260277,0.0,0.0,0.0171598005491136,364,0.0,99,Motors_Started,
0.34765274175893,36.8999801941959,800,2018-04-04 13:21:33,1741.4386543260277,0.0,0.0,0.021459000686688,1741.4386543260277,0.0,0.0,0.021459000686688,364,0.0,99,Motors_Started,
0.347652759134835,36.89998009030229,1000,2018-04-04 13:21:33,1741.4386543260277,0.0,0.0,0.032119301027817605,1741.4386543260277,0.0,0.0,0.032119301027817605,364,0.0,99,Motors_Started,
0.34765277995418603,36.899980044650604,1100,2018-04-04 13:21:33,1741.4386543260277,0.0,0.0,0.0376831012058592,1741.4386543260277,0.0,0.0,0.0376831012058592,493,0.0,99,Motors_Started,
0.34765280982392,36.8999800249365,1200,2018-04-04 13:21:33,1741.4386543260277,0.0,0.0,0.0412377013196064,1741.4386543260277,0.0,0.0,0.0412377013196064,683,0.0,99,Motors_Started,
0.347652838183781,36.8999800024124,1300,2018-04-04 13:21:33,1741.4386543260277,0.0,0.0,0.0450338014410816,1741.4386543260277,0.0,0.0,0.0450338014410816,914,0.0,99,Motors_Started,
0.347652854839201,36.8999799953784,1400,2018-04-04 13:21:33,1741.4386543260277,0.0,0.0,0.04671040149473281,1741.4386543260277,0.0,0.0,0.04671040149473281,1024,0.0,99,Motors_Started,
0.34765286561074704,36.899979972320004,1500,2018-04-04 13:21:34,1741.4386543260277,0.0,0.0,0.0495059015841888,1741.4386543260277,0.0,0.0,0.0495059015841888,1024,0.0,99,Assisted_Takeoff,
0.347652873508599,36.8999799448599,1600,2018-04-04 13:21:34,1741.4386543260277,0.0,0.0,0.05254150168132799,1741.4386543260277,0.0,0.0,0.05254150168132799,1024,0.0,99,Assisted_Takeoff,
0.34765287183496507,36.8999799097556,1700,2018-04-04 13:21:34,1741.4386543260277,0.0,0.0,0.055771601784691205,1741.4386543260277,0.0,0.0,0.055771601784691205,1024,0.0,99,Assisted_Takeoff,
0.34765287127406796,36.8999798624032,1800,2018-04-04 13:21:34,1741.4386543260277,0.0,0.0,0.060343901931004806,1741.4386543260277,0.0,0.0,0.060343901931004806,1024,0.0,99,Assisted_Takeoff,
0.34765286510654,36.89997982973279,1900,2018-04-04 13:21:34,1741.4386543260277,0.0,0.0,0.0632796020249472,1741.4386543260277,0.0,0.0,0.0632796020249472,1024,0.0,99,Assisted_Takeoff,
0.34765286090372993,36.899979805224795,2000,2018-04-04 13:21:34,1741.4386543260277,0.0,0.0,0.0655519020976608,1741.4386543260277,0.0,0.0,0.0655519020976608,1024,0.0,99,Assisted_Takeoff,
0.347652870509921,36.8999797750475,2100,2018-04-04 13:21:34,1741.4386543260277,0.0,0.0,0.0690511022096352,1741.4386543260277,0.0,0.0,0.0690511022096352,1024,0.0,99,Assisted_Takeoff,
0.347652894784423,36.8999797369318,2200,2018-04-04 13:21:34,1741.4386543260277,0.0,0.0,0.0740247023687904,1741.4386543260277,0.0,0.0,0.0740247023687904,1024,0.0,99,Assisted_Takeoff,
0.34765291724147995,36.8999797082861,2300,2018-04-04 13:21:34,1741.4386543260277,0.0,0.0,0.0779656024948992,1741.4386543260277,0.0,0.0,0.0779656024948992,1024,0.0,99,Assisted_Takeoff,
0.34765293079105,36.899979691012604,2400,2018-04-04 13:21:34,1741.4386543260277,0.0,0.0,0.08034760257112321,1741.4386543260277,0.0,0.0,0.08034760257112321,1050,0.0,99,Assisted_Takeoff,
0.347652940689343,36.8999796646764,2500,2018-04-04 13:21:35,1741.4386543260277,0.0,0.0,0.0834647026708704,1741.4386543260277,0.0,0.0,0.0834647026708704,1109,0.0,99,Assisted_Takeoff,
0.34765294711721895,36.8999796301852,2600,2018-04-04 13:21:35,1741.4386543260277,0.0,0.0,0.08724100279171201,1741.4386543260277,0.0,0.0,0.08724100279171201,1271,0.0,99,Assisted_Takeoff,
0.34765294933515994,36.899979604238,2700,2018-04-04 13:21:35,1741.4386543260277,0.0,0.0,0.08996940287902079,1741.4386543260277,0.0,0.0,0.08996940287902079,1271,0.0,99,Assisted_Takeoff,
0.347652951024569,36.8999795874346,2800,2018-04-04 13:21:35,1741.4386543260277,0.0,0.0,0.0917531029360992,1741.4386543260277,0.0,0.0,0.0917531029360992,1339,0.0,99,Assisted_Takeoff,
0.34765294793306895,36.8999795612494,2900,2018-04-04 13:21:35,1741.4386543260277,0.0,0.0,0.0942906030172992,1741.4386543260277,0.0,0.0,0.0942906030172992,1461,0.0,99,Assisted_Takeoff,
0.347652944540308,36.8999794777662,3100,2018-04-04 13:21:35,1741.4386543260277,0.0,0.0,0.10277300328873598,1741.4386543260277,0.0,0.0,0.10277300328873598,1482,0.0,99,Assisted_Takeoff,
0.347652909586979,36.8999794007438,3200,2018-04-04 13:21:35,1741.4386543260277,0.0,0.35999970196000003,0.109616003507712,1741.4386543260277,0.0,0.35999970196000003,0.109616003507712,1494,0.0,99,Assisted_Takeoff,
0.347652882533334,36.899979215653,3300,2018-04-04 13:21:35,1741.4386543260277,0.0,0.7199994039200001,0.12870200411846403,1741.4386543260277,0.0,0.7199994039200001,0.12870200411846403,1492,0.0,99,P-GPS,
0.34765290981770897,36.8999788963807,3400,2018-04-04 13:21:35,1741.4386543260277,0.0,1.07999910588,0.16404200524934404,1741.4386543260277,0.0,1.07999910588,0.16404200524934404,1499,0.0,99,P-GPS,
0.34765297209612506,36.899978518484104,3500,2018-04-04 13:21:36,1741.538654329228,0.10000000320000002,1.07999910588,0.20661100661155202,1741.538654329228,0.10000000320000002,1.07999910588,0.20661100661155202,1511,0.0,99,P-GPS,
0.347653044405552,36.8999781638888,3600,2018-04-04 13:21:36,1741.538654329228,0.10000000320000002,0.7199994039200001,0.24685300789929598,1741.538654329228,0.10000000320000002,1.07999910588,0.24685300789929598,1518,0.0,99,P-GPS,
0.347653152479172,36.8999778553889,3700,2018-04-04 13:21:36,1741.7386543356276,0.3000000096,0.7919993443119999,0.28287700905206403,1741.7386543356276,0.3000000096,1.07999910588,0.28287700905206403,1520,0.0,99,P-GPS,Home Point Recorded. RTH Altitude:  30m.
0.34765329293836994,36.8999775912719,3800,2018-04-04 13:21:36,1741.8386543388276,0.4000000128000001,0.7919993443119999,0.31500501008016,1741.8386543388276,0.4000000128000001,1.07999910588,0.31500501008016,1508,0.0,99,P-GPS,Obstacle Avoided. Revise Flight Route
0.347653483527588,36.8999773716399,3900,2018-04-04 13:21:36,1742.1386543484277,0.7000000224000001,0.503999582744,0.344092011010944,1742.1386543484277,0.7000000224000001,1.07999910588,0.344092011010944,1486,0.0,99,P-GPS,
0.34765367136738107,36.8999771851025,4000,2018-04-04 13:21:36,1742.338654354828,0.9000000288000001,0.35999970196000003,0.37012401184396804,1742.338654354828,0.9000000288000001,1.07999910588,0.37012401184396804,1455,0.0,99,P-GPS,
0.347653774117719,36.8999770539436,4100,2018-04-04 13:21:36,1742.638654364428,1.2000000384,0.35999970196000003,0.387626012404032,1742.638654364428,1.2000000384,1.07999910588,0.387626012404032,1445,0.0,99,P-GPS,
0.347653798818976,36.8999769578439,4200,2018-04-04 13:21:36,1742.9386543740277,1.5000000480000002,0.35999970196000003,0.39862001275583997,1742.9386543740277,1.5000000480000002,1.07999910588,0.39862001275583997,1444,0.0,99,P-GPS,
0.34765380137033997,36.8999769019204,4300,2018-04-04 13:21:36,1743.2386543836278,1.8000000576000001,0.0,0.40458901294684807,1743.2386543836278,1.8000000576000001,1.07999910588,0.40458901294684807,1446,0.0,99,P-GPS,
0.347653780871487,36.899976766451296,4500,2018-04-04 13:21:37,1743.8386544028278,2.4000000768,0.35999970196000003,0.41815301338089605,1743.8386544028278,2.4000000768,1.07999910588,0.41815301338089605,1446,0.0,99,P-GPS,
0.347653768310077,36.899976716035496,4600,2018-04-04 13:21:37,1744.138654412428,2.7000000863999998,0.0,0.4230640135380481,1744.138654412428,2.7000000863999998,1.07999910588,0.4230640135380481,1448,0.0,99,P-GPS,
0.347653762240867,36.899976700586706,4700,2018-04-04 13:21:37,1744.4386544220276,3.0000000960000004,0.0,0.4244990135839681,1744.4386544220276,3.0000000960000004,1.07999910588,0.4244990135839681,1446,0.0,99,P-GPS,
0.347653770286398,36.899976702324295,4800,2018-04-04 13:21:37,1744.7386544316278,3.3000001056,0.0,0.424584013586688,1744.7386544316278,3.3000001056,1.07999910588,0.424584013586688,1441,0.0,99,P-GPS,
0.34765377620925203,36.8999767094053,4900,2018-04-04 13:21:37,1744.938654438028,3.500000112,0.0,0.42403301356905604,1744.938654438028,3.500000112,1.07999910588,0.424584013586688,1442,0.0,99,P-GPS,
0.347653792553334,36.8999767209533,5000,2018-04-04 13:21:37,1745.2386544476276,3.8000001215999997,0.0,0.423367013547744,1745.2386544476276,3.8000001215999997,1.07999910588,0.424584013586688,1439,0.0,99,P-GPS,
0.347653798789867,36.89997674777779,5100,2018-04-04 13:21:37,1745.5386544572277,4.100000131200001,0.0,0.4207460134638721,1745.5386544572277,4.100000131200001,1.07999910588,0.424584013586688,1440,0.0,99,P-GPS,
0.34765379276055297,36.8999767966369,5200,2018-04-04 13:21:37,1745.7386544636279,4.3000001376,0.0,0.415376013292032,1745.7386544636279,4.3000001376,1.07999910588,0.424584013586688,1441,0.0,99,P-GPS,
0.34765375380532304,36.8999768750911,5300,2018-04-04 13:21:37,1746.0386544732276,4.6000001472,0.0,0.40573401298348805,1746.0386544732276,4.6000001472,1.07999910588,0.424584013586688,1440,0.0,99,P-GPS,
0.347653698975614,36.8999769659261,5400,2018-04-04 13:21:37,1746.2386544796277,4.8000001536,0.0,0.394246012615872,1746.2386544796277,4.8000001536,1.07999910588,0.424584013586688,1434,0.0,99,P-GPS,
0.34765363503252095,36.899977052865204,5500,2018-04-04 13:21:38,1746.5386544892278,5.1000001632,0.0,0.382889012252448,1746.5386544892278,5.1000001632,1.07999910588,0.424584013586688,1442,0.0,99,P-GPS,
0.347653586801674,36.899977136437705,5600,2018-04-04 13:21:38,1746.838654498828,5.4000001727999996,0.0,0.37243401191788805,1746.838654498828,5.4000001727999996,1.07999910588,0.424584013586688,1445,0.0,99,P-GPS,
0.347653567390825,36.8999772164588,5700,2018-04-04 13:21:38,1747.0386545052277,5.600000179200001,0.0,0.363292011625344,1747.0386545052277,5.600000179200001,1.07999910588,0.424584013586688,1442,0.0,99,P-GPS,
0.347653607246992,36.899977275741,5800,2018-04-04 13:21:38,1747.3386545148278,5.9000001888,0.0,0.35832401146636805,1747.3386545148278,5.9000001888,1.07999910588,0.424584013586688,1444,0.0,99,P-GPS,
0.34765368498117305,36.8999773218074,5900,2018-04-04 13:21:38,1747.638654524428,6.2000001984,0.0,0.356237011399584,1747.638654524428,6.2000001984,1.07999910588,0.424584013586688,1446,0.0,99,P-GPS,
0.347653775307298,36.8999773761509,6000,2018-04-04 13:21:38,1747.8386545308279,6.400000204800001,0.0,0.35407001133023996,1747.8386545308279,6.400000204800001,1.07999910588,0.424584013586688,1446,0.0,99,P-GPS,
0.347653855366286,36.899977428809294,6100,2018-04-04 13:21:38,1748.1386545404278,6.7000002144,0.0,0.35200501126416,1748.1386545404278,6.7000002144,1.07999910588,0.424584013586688,1448,0.0,99,P-GPS,
0.34765393026697494,36.899977467856004,6200,2018-04-04 13:21:38,1748.3386545468277,6.9000002208,0.0,0.35138801124441604,1748.3386545468277,6.9000002208,1.07999910588,0.424584013586688,1454,0.0,99,P-GPS,
0.34765401852395805,36.8999774852424,6300,2018-04-04 13:21:38,1748.6386545564278,7.200000230400001,0.0,0.353839011322848,1748.6386545564278,7.200000230400001,1.07999910588,0.424584013586688,1449,0.0,99,P-GPS,
0.34765409988102003,36.899977500337,6400,2018-04-04 13:21:38,1748.9386545660277,7.50000024,0.0,0.35642401140556795,1748.9386545660277,7.50000024,1.07999910588,0.424584013586688,1452,0.0,99,P-GPS,
0.34765412296584197,36.899977541049104,6500,2018-04-04 13:21:38,1749.1386545724279,7.7000002464,0.0,0.35362301131593604,1749.1386545724279,7.7000002464,1.07999910588,0.424584013586688,1457,0.0,99,P-GPS,
0.347654092060825,36.8999775954421,6600,2018-04-04 13:21:39,1749.4386545820278,8.000000256,0.0,0.346668011093376,1749.4386545820278,8.000000256,1.07999910588,0.424584013586688,1450,0.0,99,P-GPS,
0.347654027426865,36.8999776567063,6700,2018-04-04 13:21:39,1749.7386545916277,8.3000002656,0.0,0.337281010792992,1749.7386545916277,8.3000002656,1.07999910588,0.424584013586688,1449,0.0,99,P-GPS,
0.34765396952468897,36.899977736472,6800,2018-04-04 13:21:39,1750.0386546012278,8.6000002752,0.0,0.32643801044601606,1750.0386546012278,8.6000002752,1.07999910588,0.424584013586688,1450,0.0,99,P-GPS,
0.34765391727911604,36.8999778475954,6900,2018-04-04 13:21:39,1750.2386546076277,8.8000002816,0.0,0.312794010009408,1750.2386546076277,8.8000002816,1.07999910588,0.424584013586688,1450,0.0,99,P-GPS,
0.34765391171452,36.899977962324904,7000,2018-04-04 13:21:39,1750.5386546172276,9.1000002912,0.0,0.30123900963964806,1750.5386546172276,9.1000002912,1.07999910588,0.424584013586688,1451,0.0,99,P-GPS,
0.347653937216563,36.8999780618133,7100,2018-04-04 13:21:39,1750.7386546236278,9.3000002976,0.0,0.292976009375232,1750.7386546236278,9.3000002976,1.07999910588,0.424584013586688,1446,0.0,99,P-GPS,
0.347653962493475,36.8999781331419,7200,2018-04-04 13:21:39,1751.038654633228,9.6000003072,0.0,0.287588009202816,1751.038654633228,9.6000003072,1.07999910588,0.424584013586688,1444,0.0,99,P-GPS,
0.347653947992588,36.899978178755205,7300,2018-04-04 13:21:39,1751.3386546428278,9.900000316799998,0.0,0.28242000903744,1751.3386546428278,9.900000316799998,1.07999910588,0.424584013586688,1445,0.0,99,P-GPS,
0.347653920136628,36.899978194138896,7400,2018-04-04 13:21:39,1751.5386546492277,10.100000323200002,0.0,0.279346008939072,1751.5386546492277,10.100000323200002,1.07999910588,0.424584013586688,1447,0.0,99,P-GPS,
0.34765390428453996,36.8999781688401,7500,2018-04-04 13:21:40,1751.8386546588279,10.400000332800001,0.0,0.28085400898732804,1751.8386546588279,10.400000332800001,1.07999910588,0.424584013586688,1446,0.0,99,P-GPS,
0.347653903257806,36.8999781261257,7600,2018-04-04 13:21:40,1752.1386546684278,10.700000342400001,0.0,0.28489500911664006,1752.1386546684278,10.700000342400001,1.07999910588,0.424584013586688,1446,0.0,99,P-GPS,
0.34765390026920506,36.899978093737104,7700,2018-04-04 13:21:40,1752.338654674828,10.9000003488,0.0,0.287851009211232,1752.338654674828,10.9000003488,1.07999910588,0.424584013586688,1445,0.0,99,P-GPS,
0.34765392245064697,36.8999780664017,7800,2018-04-04 13:21:40,1752.6386546844278,11.200000358400002,0.0,0.29171500933488004,1752.6386546844278,11.200000358400002,1.07999910588,0.424584013586688,1445,0.0,99,P-GPS,
0.34765397556072,36.8999780124634,7900,2018-04-04 13:21:40,1752.9386546940277,11.500000367999998,0.0,0.299863009595616,1752.9386546940277,11.500000367999998,1.07999910588,0.424584013586688,1446,0.0,99,P-GPS,
0.3476540177592,36.899977950894396,8000,2018-04-04 13:21:40,1753.1386547004279,11.700000374400002,0.0,0.30814200986054396,1753.1386547004279,11.700000374400002,1.07999910588,0.424584013586688,1442,0.0,99,P-GPS,
0.34765401822920894,36.899977881696,8100,2018-04-04 13:21:40,1753.4386547100278,12.000000384000002,0.0,0.31483301007465603,1753.4386547100278,12.000000384000002,1.07999910588,0.424584013586688,1445,0.0,99,P-GPS,
0.347653993073414,36.8999778301406,8200,2018-04-04 13:21:40,1753.738654719628,12.300000393600001,0.0,0.318476010191232,1753.738654719628,12.300000393600001,1.07999910588,0.424584013586688,1445,0.0,99,P-GPS,
0.347653945702181,36.8999777896183,8300,2018-04-04 13:21:40,1754.0386547292278,12.600000403200003,0.0,0.31997201023910393,1754.0386547292278,12.600000403200003,1.07999910588,0.424584013586688,1442,0.0,99,P-GPS,
0.347653885243145,36.899977771809894,8400,2018-04-04 13:21:40,1754.2386547356277,12.800000409600003,0.0,0.31870101019843206,1754.2386547356277,12.800000409600003,1.07999910588,0.424584013586688,1443,0.0,99,P-GPS,
0.347653809209059,36.8999777600186,8500,2018-04-04 13:21:40,1754.5386547452279,13.100000419199999,0.0,0.316244010119808,1754.5386547452279,13.100000419199999,1.07999910588,0.424584013586688,1442,0.0,99,P-GPS,
0.347653730217719,36.8999777494306,8600,2018-04-04 13:21:41,1754.8386547548278,13.4000004288,0.0,0.3137490100399681,1754.8386547548278,13.4000004288,1.07999910588,0.424584013586688,1441,0.0,99,P-GPS,
0.34765365749425997,36.89997775355911,8700,2018-04-04 13:21:41,1755.0386547612277,13.600000435200002,0.0,0.31022400992716803,1755.0386547612277,13.600000435200002,1.07999910588,0.424584013586688,1435,0.0,99,P-GPS,
0.34765360940814005,36.899977775063704,8800,2018-04-04 13:21:41,1755.3386547708278,13.9000004448,0.0,0.30604000979328,1755.3386547708278,13.9000004448,1.07999910588,0.424584013586688,1429,0.0,99,P-GPS,
0.3476535436371189,36.8999778184467,8900,2018-04-04 13:21:41,1755.638654780428,14.200000454400003,0.0,0.29894800956633605,1755.638654780428,14.200000454400003,1.07999910588,0.424584013586688,1427,0.0,99,P-GPS,
0.34765344625616806,36.899977869432796,9000,2018-04-04 13:21:41,1755.8386547868279,14.400000460800001,0.0,0.290013009280416,1755.8386547868279,14.400000460800001,1.07999910588,0.424584013586688,1430,0.0,99,P-GPS,
0.347653293138261,36.899977923437206,9100,2018-04-04 13:21:41,1756.1386547964278,14.7000004704,0.0,0.27927500893679996,1756.1386547964278,14.7000004704,1.07999910588,0.424584013586688,1446,0.0,99,P-GPS,
0.347653106360925,36.8999779635551,9200,2018-04-04 13:21:41,1756.438654806028,15.00000048,0.35999970196000003,0.270051008641632,1756.438654806028,15.00000048,1.07999910588,0.424584013586688,1460,0.0,99,P-GPS,
0.34765290128181303,36.8999780022485,9300,2018-04-04 13:21:41,1756.7386548156276,15.3000004896,0.35999970196000003,0.26213300838825604,1756.7386548156276,15.3000004896,1.07999910588,0.424584013586688,1477,0.0,99,P-GPS,
0.347652717879529,36.8999780290904,9400,2018-04-04 13:21:41,1757.0386548252277,15.6000004992,0.0,0.25748900823964804,1757.0386548252277,15.6000004992,1.07999910588,0.424584013586688,1480,0.0,99,P-GPS,
0.34765256260088007,36.899978036056204,9500,2018-04-04 13:21:42,1757.3386548348278,15.900000508800002,0.0,0.2565500082096,1757.3386548348278,15.900000508800002,1.07999910588,0.424584013586688,1484,0.0,99,P-GPS,
0.34765245604100103,36.899978025264794,9600,2018-04-04 13:21:42,1757.638654844428,16.2000005184,0.0,0.258306008265792,1757.638654844428,16.2000005184,1.07999910588,0.424584013586688,1491,0.0,99,P-GPS,
0.347652373342712,36.8999780009025,9700,2018-04-04 13:21:42,1757.9386548540278,16.500000528,0.0,0.26180500837776,1757.9386548540278,16.500000528,1.07999910588,0.424584013586688,1495,0.0,99,P-GPS,
0.347652312446438,36.8999779633045,9800,2018-04-04 13:21:42,1758.2386548636277,16.8000005376,0.0,0.266742008535744,1758.2386548636277,16.8000005376,1.07999910588,0.424584013586688,1497,0.0,99,P-GPS,
0.347652243653839,36.899977897140005,9900,2018-04-04 13:21:42,1758.5386548732279,17.1000005472,0.0,0.27509500880304,1758.5386548732279,17.1000005472,1.07999910588,0.424584013586688,1498,0.0,99,P-GPS,
0.347652170547136,36.8999778056648,10000,2018-04-04 13:21:42,1758.9386548860277,17.50000056,0.35999970196000003,0.28645500916656,1758.9386548860277,17.50000056,1.07999910588,0.424584013586688,1498,0.0,99,P-GPS,
0.347652087043072,36.899977718945706,10100,2018-04-04 13:21:42,1759.2386548956279,17.8000005696,0.0,0.297659009525088,1759.2386548956279,17.8000005696,1.07999910588,0.424584013586688,1497,0.0,99,P-GPS,
0.34765199409189596,36.8999776625844,10200,2018-04-04 13:21:42,1759.5386549052278,18.100000579200003,0.0,0.305982009791424,1759.5386549052278,18.100000579200003,1.07999910588,0.424584013586688,1497,0.0,99,P-GPS,
0.347651871723795,36.8999776315972,10300,2018-04-04 13:21:42,1759.9386549180279,18.500000592000003,0.0,0.312674010005568,1759.9386549180279,18.500000592000003,1.07999910588,0.424584013586688,1497,0.0,99,P-GPS,
0.347651741937521,36.8999776210081,10400,2018-04-04 13:21:42,1760.238654927628,18.800000601600004,0.0,0.31793201017382394,1760.238654927628,18.800000601600004,1.07999910588,0.424584013586688,1497,0.0,99,P-GPS,
0.347651572383194,36.89997765133,10500,2018-04-04 13:21:43,1760.5386549372276,19.1000006112,0.0,0.32106301027401607,1760.5386549372276,19.1000006112,1.07999910588,0.424584013586688,1494,0.0,99,P-GPS,
0.34765139552395297,36.8999777422701,10600,2018-04-04 13:21:43,1760.9386549500277,19.500000624000002,0.35999970196000003,0.31951901022460805,1760.9386549500277,19.500000624000002,1.07999910588,0.424584013586688,1495,0.0,99,P-GPS,
0.34765118034570797,36.8999778969639,10700,2018-04-04 13:21:43,1761.2386549596276,19.800000633599996,0.503999582744,0.315468010094976,1761.2386549596276,19.800000633599996,1.07999910588,0.424584013586688,1498,0.0,99,P-GPS,
0.347650969586939,36.8999780650372,10800,2018-04-04 13:21:43,1761.5386549692278,20.1000006432,0.503999582744,0.312648010004736,1761.5386549692278,20.1000006432,1.07999910588,0.424584013586688,1496,0.0,99,P-GPS,
0.34765074074760804,36.8999782310236,10900,2018-04-04 13:21:43,1761.838654978828,20.4000006528,0.503999582744,0.31419501005424,1761.838654978828,20.4000006528,1.07999910588,0.424584013586688,1490,0.0,99,P-GPS,
0.34765053328099293,36.8999783679461,11000,2018-04-04 13:21:43,1762.138654988428,20.7000006624,0.503999582744,0.319322010218304,1762.138654988428,20.7000006624,1.07999910588,0.424584013586688,1495,0.0,99,P-GPS,
0.34765032113677397,36.899978481499,11100,2018-04-04 13:21:43,1762.4386549980277,21.000000672,0.503999582744,0.32875101052003197,1762.4386549980277,21.000000672,1.07999910588,0.424584013586688,1495,0.0,99,P-GPS,
0.347650143347737,36.8999785737507,11200,2018-04-04 13:21:43,1762.8386550108278,21.400000684800002,0.35999970196000003,0.33827301082473604,1762.8386550108278,21.400000684800002,1.07999910588,0.424584013586688,1480,0.0,99,P-GPS,
0.34764997953400606,36.899978635453,11300,2018-04-04 13:21:43,1763.1386550204277,21.700000694400003,0.0,0.349479011183328,1763.1386550204277,21.700000694400003,1.07999910588,0.424584013586688,1481,0.0,99,P-GPS,
0.347649874407055,36.8999786656247,11400,2018-04-04 13:21:43,1763.4386550300278,22.000000704000005,0.0,0.35759001144288005,1763.4386550300278,22.000000704000005,1.07999910588,0.424584013586688,1491,0.0,99,P-GPS,
0.347649806536359,36.8999787197749,11500,2018-04-04 13:21:44,1763.738655039628,22.3000007136,0.0,0.361004011552128,1763.738655039628,22.3000007136,1.07999910588,0.424584013586688,1492,0.0,99,P-GPS,
0.347649800042227,36.8999788058265,11600,2018-04-04 13:21:44,1764.1386550524278,22.700000726400003,0.0,0.356951011422432,1764.1386550524278,22.700000726400003,1.07999910588,0.424584013586688,1491,0.0,99,P-GPS,
0.34764979401993495,36.8999788771203,11700,2018-04-04 13:21:44,1764.438655062028,23.000000735999997,0.0,0.35381901132220805,1764.438655062028,23.000000735999997,1.07999910588,0.424584013586688,1493,0.0,99,P-GPS,
0.347649800670297,36.899978889703604,11800,2018-04-04 13:21:44,1764.838655074828,23.400000748800004,0.0,0.35251901128060803,1764.838655074828,23.400000748800004,1.07999910588,0.424584013586688,1496,0.0,99,P-GPS,
0.34764981032798803,36.8999788307779,11900,2018-04-04 13:21:44,1765.1386550844277,23.700000758399998,0.35999970196000003,0.35462401134796806,1765.1386550844277,23.700000758399998,1.07999910588,0.424584013586688,1497,0.0,99,P-GPS,
0.347649819554446,36.8999787347631,12000,2018-04-04 13:21:44,1765.4386550940278,24.000000768000003,0.35999970196000003,0.35891801148537605,1765.4386550940278,24.000000768000003,1.07999910588,0.424584013586688,1498,0.0,99,P-GPS,
0.347649763503404,36.8999786328656,12100,2018-04-04 13:21:44,1765.8386551068277,24.4000007808,0.35999970196000003,0.37002801184089607,1765.8386551068277,24.4000007808,1.07999910588,0.424584013586688,1497,0.0,99,P-GPS,
0.347649653884492,36.899978531790005,12200,2018-04-04 13:21:44,1766.2386551196278,24.8000007936,0.0,0.38627601236083203,1766.2386551196278,24.8000007936,1.07999910588,0.424584013586688,1496,0.0,99,P-GPS,
0.34764934074611104,36.899978426721894,12400,2018-04-04 13:21:44,1766.9386551420278,25.500000816,0.35999970196000003,0.42216401350924804,1766.9386551420278,25.500000816,1.07999910588,0.424584013586688,1496,0.0,99,P-GPS,
0.34764911521557396,36.8999784325356,12500,2018-04-04 13:21:45,1767.2386551516279,25.800000825599998,0.35999970196000003,0.443687014197984,1767.2386551516279,25.800000825599998,1.07999910588,0.443687014197984,1497,0.0,99,P-GPS,
0.34764890166448104,36.8999784385855,12600,2018-04-04 13:21:45,1767.538655161228,26.100000835200003,0.35999970196000003,0.4643700148598401,1767.538655161228,26.100000835200003,1.07999910588,0.4643700148598401,1497,0.0,99,P-GPS,
0.34764872277237696,36.8999784271858,12700,2018-04-04 13:21:45,1767.9386551740279,26.500000848000003,0.0,0.482719015447008,1767.9386551740279,26.500000848000003,1.07999910588,0.482719015447008,1492,0.0,99,P-GPS,
0.34764862028645693,36.899978399614795,12800,2018-04-04 13:21:45,1768.2386551836278,26.8000008576,0.0,0.49430501581776004,1768.2386551836278,26.8000008576,1.07999910588,0.49430501581776004,1489,0.0,99,P-GPS,
0.34764854795748906,36.899978344963294,12900,2018-04-04 13:21:45,1768.5386551932277,27.100000867200002,0.0,0.504199016134368,1768.5386551932277,27.100000867200002,1.07999910588,0.504199016134368,1485,0.0,99,P-GPS,
0.34764852484070896,36.899978251480704,13000,2018-04-04 13:21:45,1768.8386552028278,27.4000008768,0.35999970196000003,0.511153016356896,1768.8386552028278,27.4000008768,1.07999910588,0.511153016356896,1482,0.0,99,P-GPS,
0.347648547741924,36.8999781263433,13100,2018-04-04 13:21:45,1769.138655212428,27.700000886400005,0.35999970196000003,0.5153930164925761,1769.138655212428,27.700000886400005,1.07999910588,0.5153930164925761,1482,0.0,99,P-GPS,
0.347648596749539,36.8999780094183,13200,2018-04-04 13:21:45,1769.4386552220278,28.000000896,0.35999970196000003,0.517014016544448,1769.4386552220278,28.000000896,1.07999910588,0.517014016544448,1484,0.0,99,P-GPS,
0.347648639683261,36.8999779059055,13300,2018-04-04 13:21:45,1769.7386552316277,28.300000905599997,0.35999970196000003,0.5188070166018239,1769.7386552316277,28.300000905599997,1.07999910588,0.5188070166018239,1484,0.0,99,P-GPS,
0.34764867559146895,36.8999778239167,13400,2018-04-04 13:21:45,1770.0386552412278,28.600000915200003,0.35999970196000003,0.520257016648224,1770.0386552412278,28.600000915200003,1.07999910588,0.520257016648224,1483,0.0,99,P-GPS,
0.347648704679143,36.8999777131235,13500,2018-04-04 13:21:45,1770.4386552540277,29.000000928,0.35999970196000003,0.524304016777728,1770.4386552540277,29.000000928,1.07999910588,0.524304016777728,1482,0.0,99,P-GPS,
0.347648728238453,36.899977581379,13600,2018-04-04 13:21:46,1770.7386552636278,29.300000937600004,0.35999970196000003,0.5304740169751679,1770.7386552636278,29.300000937600004,1.07999910588,0.5304740169751679,1482,0.0,99,P-GPS,
0.34764873795904194,36.899977422727495,13700,2018-04-04 13:21:46,1771.038655273228,29.6000009472,0.35999970196000003,0.5400130172804161,1771.038655273228,29.6000009472,1.07999910588,0.5400130172804161,1479,0.0,99,P-GPS,
0.347648745565911,36.899977266871296,13800,2018-04-04 13:21:46,1771.3386552828279,29.900000956800003,0.35999970196000003,0.54994501759824,1771.3386552828279,29.900000956800003,1.07999910588,0.54994501759824,1478,0.0,99,P-GPS,
0.347648737430205,36.8999771183815,13900,2018-04-04 13:21:46,1771.6386552924278,30.200000966400005,0.35999970196000003,0.5610590179538879,1771.6386552924278,30.200000966400005,1.07999910588,0.5610590179538879,1479,0.0,99,P-GPS,
0.347648736199915,36.8999770024925,14000,2018-04-04 13:21:46,1771.9386553020277,30.500000976,0.35999970196000003,0.5694840182234879,1771.9386553020277,30.500000976,1.07999910588,0.5694840182234879,1479,0.0,99,P-GPS,
0.347648756358831,36.8999768524305,14100,2018-04-04 13:21:46,1772.2386553116278,30.8000009856,0.35999970196000003,0.57884001852288,1772.2386553116278,30.8000009856,1.07999910588,0.57884001852288,1479,0.0,99,P-GPS,
0.34764880523108105,36.899976669861005,14200,2018-04-04 13:21:46,1772.538655321228,31.100000995200002,0.35999970196000003,0.588718018838976,1772.538655321228,31.100000995200002,1.07999910588,0.588718018838976,1477,0.0,99,P-GPS,
0.34764883408487,36.8999764542037,14300,2018-04-04 13:21:46,1772.8386553308276,31.400001004800004,0.35999970196000003,0.603359019307488,1772.8386553308276,31.400001004800004,1.07999910588,0.603359019307488,1479,0.0,99,P-GPS,
0.34764884236896804,36.8999762496517,14400,2018-04-04 13:21:46,1773.1386553404277,31.7000010144,0.35999970196000003,0.6192380198156161,1773.1386553404277,31.7000010144,1.07999910588,0.6192380198156161,1479,0.0,99,P-GPS,
0.347648846277437,36.8999760364151,14500,2018-04-04 13:21:47,1773.5386553532278,32.1000010272,0.35999970196000003,0.6365830203706561,1773.5386553532278,32.1000010272,1.07999910588,0.6365830203706561,1480,0.0,99,P-GPS,
0.347648851111066,36.899975837382605,14600,2018-04-04 13:21:47,1773.8386553628277,32.4000010368,0.7199994039200001,0.653049020897568,1773.8386553628277,32.4000010368,1.07999910588,0.653049020897568,1480,0.0,99,P-GPS,
0.347648816822142,36.8999756093754,14700,2018-04-04 13:21:47,1774.2386553756278,32.800001049600006,0.35999970196000003,0.6750780216024961,1774.2386553756278,32.800001049600006,1.07999910588,0.6750780216024961,1480,0.0,99,P-GPS,
0.347648752153985,36.8999754046398,14800,2018-04-04 13:21:47,1774.538655385228,33.100001059200004,0.35999970196000003,0.6973860223163522,1774.538655385228,33.100001059200004,1.07999910588,0.6973860223163522,1480,0.0,99,P-GPS,
0.34764866180139803,36.8999752180167,14900,2018-04-04 13:21:47,1774.8386553948278,33.4000010688,0.503999582744,0.7199370230379841,1774.8386553948278,33.4000010688,1.07999910588,0.7199370230379841,1481,0.0,99,P-GPS,
0.347648552681605,36.899975068151704,15000,2018-04-04 13:21:47,1775.238655407628,33.800001081599994,0.35999970196000003,0.74054502369744,1775.238655407628,33.800001081599994,1.07999910588,0.74054502369744,1481,0.0,99,P-GPS,
0.34764847751181605,36.899974900844896,15100,2018-04-04 13:21:47,1775.538655417228,34.1000010912,0.35999970196000003,0.760399024332768,1775.538655417228,34.1000010912,1.07999910588,0.760399024332768,1481,0.0,99,P-GPS,
0.34764847394002696,36.89997454815379,15300,2018-04-04 13:21:47,1776.1386554364278,34.7000011104,0.35999970196000003,0.792198025350336,1776.1386554364278,34.7000011104,1.07999910588,0.792198025350336,1482,0.0,99,P-GPS,
0.34764852542735597,36.899974371777894,15400,2018-04-04 13:21:47,1776.4386554460277,35.00000112,0.35999970196000003,0.80498002575936,1776.4386554460277,35.00000112,1.07999910588,0.80498002575936,1481,0.0,99,P-GPS,
0.34764861524520196,36.8999741748299,15500,2018-04-04 13:21:48,1776.7386554556278,35.300001129600005,0.503999582744,0.817657026165024,1776.7386554556278,35.300001129600005,1.07999910588,0.817657026165024,1481,0.0,99,P-GPS,
0.34764874082449293,36.8999740011708,15600,2018-04-04 13:21:48,1777.0386554652277,35.6000011392,0.503999582744,0.826552026449664,1777.0386554652277,35.6000011392,1.07999910588,0.826552026449664,1482,0.0,99,P-GPS,
0.34764888537780203,36.8999738168966,15700,2018-04-04 13:21:48,1777.3386554748276,35.9000011488,0.35999970196000003,0.83600502675216,1777.3386554748276,35.9000011488,1.07999910588,0.83600502675216,1482,0.0,99,P-GPS,
0.347649018208961,36.899973675632204,15800,2018-04-04 13:21:48,1777.6386554844278,36.200001158400006,0.35999970196000003,0.842559026961888,1777.6386554844278,36.200001158400006,1.07999910588,0.842559026961888,1481,0.0,99,P-GPS,
0.3476491554129,36.8999735247121,15900,2018-04-04 13:21:48,1778.0386554972279,36.6000011712,0.35999970196000003,0.8503460272110721,1778.0386554972279,36.6000011712,1.07999910588,0.8503460272110721,1480,0.0,99,P-GPS,
0.34764927196409695,36.899973393905896,16000,2018-04-04 13:21:48,1778.3386555068278,36.900001180800004,0.0,0.8576370274443842,1778.3386555068278,36.900001180800004,1.07999910588,0.8576370274443842,1480,0.0,99,P-GPS,
0.34764936454866996,36.89997325725479,16100,2018-04-04 13:21:48,1778.5386555132277,37.1000011872,0.0,0.867006027744192,1778.5386555132277,37.1000011872,1.07999910588,0.867006027744192,1478,0.0,99,P-GPS,
0.34764942768201895,36.899973156276104,16200,2018-04-04 13:21:48,1778.9386555260278,37.5000012,0.0,0.8743510279792321,1778.9386555260278,37.5000012,1.07999910588,0.8743510279792321,1479,0.0,99,P-GPS,
0.34764951083383,36.899972965638796,16400,2018-04-04 13:21:48,1779.4386555420278,38.000001216,0.0,0.890138028484416,1779.4386555420278,38.000001216,1.07999910588,0.890138028484416,1475,0.0,99,P-GPS,
0.347649524347472,36.8999728737517,16500,2018-04-04 13:21:49,1779.7386555516277,38.3000012256,0.0,0.898987028767584,1779.7386555516277,38.3000012256,1.07999910588,0.898987028767584,1471,0.0,99,P-GPS,
0.347649530849849,36.899972815709994,16600,2018-04-04 13:21:49,1780.0386555612276,38.600001235200004,0.0,0.9046790289497281,1780.0386555612276,38.600001235200004,1.07999910588,0.9046790289497281,1467,0.0,99,P-GPS,
0.34764953743385196,36.8999727670544,16700,2018-04-04 13:21:49,1780.3386555708278,38.9000012448,0.0,0.909411029101152,1780.3386555708278,38.9000012448,1.07999910588,0.909411029101152,1466,0.0,99,P-GPS,
0.34764956595034896,36.899972749874394,16800,2018-04-04 13:21:49,1780.538655577228,39.100001251200005,0.0,0.909993029119776,1780.538655577228,39.100001251200005,1.07999910588,0.909993029119776,1467,0.0,99,P-GPS,
0.34764960288447605,36.8999727455278,16900,2018-04-04 13:21:49,1780.8386555868276,39.4000012608,0.0,0.9089190290854079,1780.8386555868276,39.4000012608,1.07999910588,0.909993029119776,1457,0.0,99,P-GPS,
0.34764964529709697,36.8999727901301,17000,2018-04-04 13:21:49,1781.0386555932278,39.60000126719999,0.0,0.9025720288823039,1781.0386555932278,39.60000126719999,1.07999910588,0.909993029119776,1457,0.0,99,P-GPS,
0.347649692778452,36.89997283552739,17100,2018-04-04 13:21:49,1781.3386556028279,39.900001276800005,0.0,0.8959460286702721,1781.3386556028279,39.900001276800005,1.07999910588,0.909993029119776,1459,0.0,99,P-GPS,
0.347649728113448,36.8999728884473,17200,2018-04-04 13:21:49,1781.5386556092278,40.10000128320001,0.0,0.8890370284491841,1781.5386556092278,40.10000128320001,1.07999910588,0.909993029119776,1466,0.0,99,P-GPS,
0.34764974471278803,36.899972934298,17300,2018-04-04 13:21:49,1781.8386556188277,40.400001292800006,0.0,0.8836160282757121,1781.8386556188277,40.400001292800006,1.07999910588,0.909993029119776,1471,0.0,99,P-GPS,
0.34764974778688396,36.899972983659204,17400,2018-04-04 13:21:49,1782.1386556284278,40.7000013024,0.0,0.878376028108032,1782.1386556284278,40.7000013024,1.07999910588,0.909993029119776,1474,0.0,99,P-GPS,
0.34764977089206106,36.8999730262199,17500,2018-04-04 13:21:50,1782.3386556348278,40.90000130880001,0.0,0.8730330279370562,1782.3386556348278,40.90000130880001,1.07999910588,0.909993029119776,1482,0.0,99,P-GPS,
0.347649814606623,36.899973082132604,17600,2018-04-04 13:21:50,1782.6386556444277,41.200001318400005,0.0,0.8654790276953281,1782.6386556444277,41.200001318400005,1.07999910588,0.909993029119776,1484,0.0,99,P-GPS,
0.347649857957736,36.8999731406822,17700,2018-04-04 13:21:50,1782.8386556508278,41.4000013248,0.0,0.8576710274454722,1782.8386556508278,41.4000013248,1.07999910588,0.909993029119776,1489,0.0,99,P-GPS,
0.347649887949094,36.899973228417004,17800,2018-04-04 13:21:50,1783.1386556604277,41.7000013344,0.0,0.8473670271157441,1783.1386556604277,41.7000013344,1.07999910588,0.909993029119776,1494,0.0,99,P-GPS,
0.34764990863715195,36.8999733082005,17900,2018-04-04 13:21:50,1783.4386556700279,42.000001344,0.35999970196000003,0.83826002682432,1783.4386556700279,42.000001344,1.07999910588,0.909993029119776,1484,0.0,99,P-GPS,
0.34764991953184904,36.8999734007802,18000,2018-04-04 13:21:50,1783.7386556796278,42.30000135360001,0.35999970196000003,0.8282220265031041,1783.7386556796278,42.30000135360001,1.07999910588,0.909993029119776,1479,0.0,99,P-GPS,
0.347649915761493,36.8999735088945,18100,2018-04-04 13:21:50,1784.0386556892279,42.60000136320001,0.35999970196000003,0.817182026149824,1784.0386556892279,42.60000136320001,1.07999910588,0.909993029119776,1482,0.0,99,P-GPS,
0.34764990262951695,36.899973619303495,18200,2018-04-04 13:21:50,1784.3386556988276,42.900001372800006,0.35999970196000003,0.8063230258023361,1784.3386556988276,42.900001372800006,1.07999910588,0.909993029119776,1481,0.0,99,P-GPS,
0.347649884803856,36.899973721242496,18300,2018-04-04 13:21:50,1784.6386557084277,43.200001382399996,0.35999970196000003,0.796577025490464,1784.6386557084277,43.200001382399996,1.07999910588,0.909993029119776,1479,0.0,99,P-GPS,
0.347649868227212,36.8999738415665,18400,2018-04-04 13:21:50,1784.9386557180278,43.500001391999994,0.35999970196000003,0.784942025118144,1784.9386557180278,43.500001391999994,1.07999910588,0.909993029119776,1479,0.0,99,P-GPS,
0.347649840133602,36.89997397649179,18500,2018-04-04 13:21:51,1785.138655724428,43.700001398400005,0.35999970196000003,0.77239002471648,1785.138655724428,43.700001398400005,1.07999910588,0.909993029119776,1480,0.0,99,P-GPS,
0.34764980189682104,36.8999741308817,18600,2018-04-04 13:21:51,1785.4386557340276,44.00000140800001,0.35999970196000003,0.7584320242698239,1785.4386557340276,44.00000140800001,1.07999910588,0.909993029119776,1480,0.0,99,P-GPS,
0.347649766458114,36.899974274158794,18700,2018-04-04 13:21:51,1785.7386557436278,44.30000141760001,0.35999970196000003,0.745617023859744,1785.7386557436278,44.30000141760001,1.07999910588,0.909993029119776,1481,0.0,99,P-GPS,
0.34764974447727504,36.8999743967754,18800,2018-04-04 13:21:51,1785.938655750028,44.500001424,0.35999970196000003,0.73436002349952,1785.938655750028,44.500001424,1.07999910588,0.909993029119776,1481,0.0,99,P-GPS,
0.34764972950159495,36.89997452354329,18900,2018-04-04 13:21:51,1786.2386557596276,44.80000143360001,0.35999970196000003,0.7224330231178562,1786.2386557596276,44.80000143360001,1.07999910588,0.909993029119776,1481,0.0,99,P-GPS,
0.34764973404200206,36.899974670647296,19000,2018-04-04 13:21:51,1786.5386557692277,45.10000144320001,0.35999970196000003,0.707589022642848,1786.5386557692277,45.10000144320001,1.07999910588,0.909993029119776,1481,0.0,99,P-GPS,
0.34764973304020397,36.899974824595,19100,2018-04-04 13:21:51,1786.7386557756279,45.3000014496,0.35999970196000003,0.6924240221575679,1786.7386557756279,45.3000014496,1.07999910588,0.909993029119776,1470,0.0,99,P-GPS,
0.347649711477875,36.8999749861125,19200,2018-04-04 13:21:51,1787.038655785228,45.6000014592,0.35999970196000003,0.6776990216863681,1787.038655785228,45.6000014592,1.07999910588,0.909993029119776,1470,0.0,99,P-GPS,
0.347649693213247,36.899975145713604,19300,2018-04-04 13:21:51,1787.2386557916277,45.800001465600005,0.35999970196000003,0.6631480212207361,1787.2386557916277,45.800001465600005,1.07999910588,0.909993029119776,1461,0.0,99,P-GPS,
0.34764968917999794,36.8999752973612,19400,2018-04-04 13:21:51,1787.5386558012278,46.1000014752,0.35999970196000003,0.64873002075936,1787.5386558012278,46.1000014752,1.07999910588,0.909993029119776,1461,0.0,99,P-GPS,
0.347649683675654,36.8999754352826,19500,2018-04-04 13:21:52,1787.7386558076278,46.3000014816,0.35999970196000003,0.635826020346432,1787.7386558076278,46.3000014816,1.07999910588,0.909993029119776,1464,0.0,99,P-GPS,
0.34764967310949496,36.8999755655374,19600,2018-04-04 13:21:52,1788.0386558172277,46.600001491200004,0.35999970196000003,0.62405501996976,1788.0386558172277,46.600001491200004,1.07999910588,0.909993029119776,1464,0.0,99,P-GPS,
0.34764964447982105,36.899975700418295,19700,2018-04-04 13:21:52,1788.2386558236278,46.80000149760001,0.35999970196000003,0.6130490196175681,1788.2386558236278,46.80000149760001,1.07999910588,0.909993029119776,1469,0.0,99,P-GPS,
0.34764960196114897,36.899975837495,19800,2018-04-04 13:21:52,1788.5386558332277,47.1000015072,0.35999970196000003,0.6028880192924161,1788.5386558332277,47.1000015072,1.07999910588,0.909993029119776,1474,0.0,99,P-GPS,
0.34764954428288297,36.8999759733967,19900,2018-04-04 13:21:52,1788.7386558396279,47.30000151360001,0.35999970196000003,0.5940580190098561,1788.7386558396279,47.30000151360001,1.07999910588,0.909993029119776,1471,0.0,99,P-GPS,
0.34764950778293996,36.899976112354004,20000,2018-04-04 13:21:52,1789.0386558492278,47.60000152320001,0.35999970196000003,0.5838830186842561,1789.0386558492278,47.60000152320001,1.07999910588,0.909993029119776,1471,0.0,99,P-GPS,
0.3476494811633761,36.8999762524557,20100,2018-04-04 13:21:52,1789.2386558556277,47.8000015296,0.35999970196000003,0.5732030183424961,1789.2386558556277,47.8000015296,1.07999910588,0.909993029119776,1470,0.0,99,P-GPS,
0.347649479650959,36.8999763976497,20200,2018-04-04 13:21:52,1789.5386558652278,48.1000015392,0.35999970196000003,0.5605820179386239,1789.5386558652278,48.1000015392,1.07999910588,0.909993029119776,1471,0.0,99,P-GPS,
0.34764947498282106,36.899976561730206,20300,2018-04-04 13:21:52,1789.8386558748277,48.4000015488,0.35999970196000003,0.5467530174960961,1789.8386558748277,48.4000015488,1.07999910588,0.909993029119776,1471,0.0,99,P-GPS,
0.3476494570180301,36.899976706267296,20400,2018-04-04 13:21:52,1790.1386558844279,48.70000155840001,0.35999970196000003,0.535801017145632,1790.1386558844279,48.70000155840001,1.07999910588,0.909993029119776,1477,0.0,99,P-GPS,
0.34764942502623,36.8999768278795,20500,2018-04-04 13:21:53,1790.4386558940278,49.00000156800001,0.0,0.5280560168977921,1790.4386558940278,49.00000156800001,1.07999910588,0.909993029119776,1477,0.0,99,P-GPS,
0.3476493897136261,36.8999769094144,20600,2018-04-04 13:21:53,1790.7386559036277,49.30000157760001,0.0,0.524063016770016,1790.7386559036277,49.30000157760001,1.07999910588,0.909993029119776,1477,0.0,98,P-GPS,
0.347649340563522,36.8999769583366,20700,2018-04-04 13:21:53,1791.0386559132278,49.6000015872,0.0,0.523902016764864,1791.0386559132278,49.6000015872,1.07999910588,0.909993029119776,1479,0.0,98,P-GPS,
0.347649307263877,36.89997699447721,20800,2018-04-04 13:21:53,1791.338655922828,49.900001596799996,0.0,0.523619016755808,1791.338655922828,49.900001596799996,1.07999910588,0.909993029119776,1479,0.0,98,P-GPS,
0.347649285167317,36.8999770282167,20900,2018-04-04 13:21:53,1791.6386559324278,50.200001606399994,0.0,0.522698016726336,1791.6386559324278,50.200001606399994,1.07999910588,0.909993029119776,1480,0.0,98,P-GPS,
0.34764927073462204,36.8999770341529,21000,2018-04-04 13:21:53,1792.038655945228,50.6000016192,0.0,0.523373016747936,1792.038655945228,50.6000016192,1.07999910588,0.909993029119776,1477,0.0,98,P-GPS,
0.347649271966336,36.8999770002314,21100,2018-04-04 13:21:53,1792.3386559548278,50.9000016288,0.0,0.5259350168299199,1792.3386559548278,50.9000016288,1.07999910588,0.909993029119776,1477,0.0,98,P-GPS,
0.34764928132419,36.899976975671294,21200,2018-04-04 13:21:53,1792.6386559644277,51.20000163840001,0.0,0.52713501686832,1792.6386559644277,51.20000163840001,1.07999910588,0.909993029119776,1479,0.0,98,P-GPS,
0.34764927808358603,36.899976971181395,21300,2018-04-04 13:21:53,1792.9386559740278,51.50000164800001,0.0,0.527743016887776,1792.9386559740278,51.50000164800001,1.07999910588,0.909993029119776,1479,0.0,98,P-GPS,
0.347649300146559,36.899977009311705,21400,2018-04-04 13:21:53,1793.238655983628,51.800001657600006,0.0,0.5230060167361921,1793.238655983628,51.800001657600006,1.07999910588,0.909993029119776,1479,0.0,98,P-GPS,
0.347649342607015,36.899977051522896,21500,2018-04-04 13:21:54,1793.5386559932278,52.1000016672,0.0,0.516348016523136,1793.5386559932278,52.1000016672,1.07999910588,0.909993029119776,1477,0.0,98,P-GPS,
0.347649386986592,36.8999770907083,21600,2018-04-04 13:21:54,1793.8386560028277,52.400001676799995,0.0,0.5097780163128961,1793.8386560028277,52.400001676799995,1.07999910588,0.909993029119776,1477,0.0,98,P-GPS,
0.34764940872632005,36.8999771012909,21700,2018-04-04 13:21:54,1794.1386560124279,52.7000016864,0.0,0.50724001623168,1794.1386560124279,52.7000016864,1.07999910588,0.909993029119776,1476,0.0,98,P-GPS,
0.34764941816417105,36.899977097246705,21800,2018-04-04 13:21:54,1794.4386560220278,53.000001696000005,0.0,0.5068220162183039,1794.4386560220278,53.000001696000005,1.07999910588,0.909993029119776,1475,0.0,98,P-GPS,
0.347649408915423,36.8999770683319,21900,2018-04-04 13:21:54,1794.738656031628,53.3000017056,0.0,0.5098360163147521,1794.738656031628,53.3000017056,1.07999910588,0.909993029119776,1470,0.0,98,P-GPS,
0.347649392969292,36.899977033829295,22000,2018-04-04 13:21:54,1795.0386560412276,53.6000017152,0.0,0.5138190164422081,1795.0386560412276,53.6000017152,1.07999910588,0.909993029119776,1470,0.0,98,P-GPS,
0.34764940127802096,36.899976970724296,22100,2018-04-04 13:21:54,1795.3386560508277,53.900001724800006,0.0,0.518229016583328,1795.3386560508277,53.900001724800006,1.07999910588,0.909993029119776,1470,0.0,98,P-GPS,
0.347649455815628,36.89997691165971,22200,2018-04-04 13:21:54,1795.6386560604278,54.200001734400004,0.0,0.518871016603872,1795.6386560604278,54.200001734400004,1.07999910588,0.909993029119776,1466,0.0,98,P-GPS,
0.347649529371425,36.899976844266604,22300,2018-04-04 13:21:54,1795.938656070028,54.500001744,0.0,0.518956016606592,1795.938656070028,54.500001744,1.07999910588,0.909993029119776,1466,0.0,98,P-GPS,
0.347649600765667,36.899976798474604,22400,2018-04-04 13:21:54,1796.2386560796278,54.8000017536,0.0,0.517602016563264,1796.2386560796278,54.8000017536,1.07999910588,0.909993029119776,1464,0.0,98,P-GPS,
0.34764964943395504,36.8999767220796,22500,2018-04-04 13:21:55,1796.5386560892277,55.1000017632,0.0,0.520651016660832,1796.5386560892277,55.1000017632,1.07999910588,0.909993029119776,1464,0.0,98,P-GPS,
0.347649680815292,36.8999766459673,22600,2018-04-04 13:21:55,1796.9386561020276,55.500001776,0.0,0.52504501680144,1796.9386561020276,55.500001776,1.07999910588,0.909993029119776,1464,0.0,98,P-GPS,
0.347649686815905,36.899976549868995,22700,2018-04-04 13:21:55,1797.2386561116277,55.8000017856,0.0,0.53304501705744,1797.2386561116277,55.8000017856,1.07999910588,0.909993029119776,1465,0.0,98,P-GPS,
0.347649684353697,36.899976468385404,22800,2018-04-04 13:21:55,1797.5386561212279,56.10000179520001,0.0,0.5404080172930561,1797.5386561212279,56.10000179520001,1.07999910588,0.909993029119776,1467,0.0,98,P-GPS,
0.347649689229666,36.8999763777803,22900,2018-04-04 13:21:55,1797.8386561308278,56.400001804800006,0.0,0.5481510175408321,1797.8386561308278,56.400001804800006,1.07999910588,0.909993029119776,1467,0.0,98,P-GPS,
0.34764971469965006,36.8999763177158,23000,2018-04-04 13:21:55,1798.1386561404279,56.700001814400004,0.0,0.5518760176600321,1798.1386561404279,56.700001814400004,1.07999910588,0.909993029119776,1466,0.0,98,P-GPS,
0.34764973736932003,36.89997623030221,23100,2018-04-04 13:21:55,1798.3386561468278,56.90000182080001,0.0,0.5583380178668161,1798.3386561468278,56.90000182080001,1.07999910588,0.909993029119776,1466,0.0,98,P-GPS,
0.347649762182736,36.899976166516794,23200,2018-04-04 13:21:55,1798.638656156428,57.200001830400005,0.0,0.562599018003168,1798.638656156428,57.200001830400005,1.07999910588,0.909993029119776,1466,0.0,98,P-GPS,
0.347649813550169,36.8999760855354,23300,2018-04-04 13:21:55,1798.9386561660278,57.50000184,0.0,0.566893018140576,1798.9386561660278,57.50000184,1.07999910588,0.909993029119776,1451,0.0,98,P-GPS,
0.34764987045980894,36.8999760164516,23400,2018-04-04 13:21:55,1799.2386561756277,57.8000018496,0.0,0.56990501823696,1799.2386561756277,57.8000018496,1.07999910588,0.909993029119776,1418,0.0,98,P-GPS,
0.34764991864200606,36.8999759367308,23500,2018-04-04 13:21:56,1799.5386561852276,58.100001859200006,0.0,0.5745900183868801,1799.5386561852276,58.100001859200006,1.07999910588,0.909993029119776,1237,0.0,98,P-GPS,
0.347649980963779,36.8999759045254,23600,2018-04-04 13:21:56,1799.7386561916278,58.30000186560001,0.0,0.574076018370432,1799.7386561916278,58.30000186560001,1.07999910588,0.909993029119776,1024,0.0,98,P-GPS,
0.347650058477917,36.899975852073396,23700,2018-04-04 13:21:56,1800.038656201228,58.60000187520001,0.0,0.57478001839296,1800.038656201228,58.60000187520001,1.07999910588,0.909993029119776,1024,0.0,98,P-GPS,
0.347650140642179,36.8999757937866,23800,2018-04-04 13:21:56,1800.138656204428,58.7000018784,0.0,0.575994018431808,1800.138656204428,58.7000018784,1.07999910588,0.909993029119776,1024,0.0,98,P-GPS,
0.347650214178639,36.8999757176706,23900,2018-04-04 13:21:56,1800.2386562076279,58.8000018816,0.0,0.579625018548,1800.2386562076279,58.8000018816,1.07999910588,0.909993029119776,1024,0.0,98,P-GPS,
0.34765027331090004,36.8999756862618,24000,2018-04-04 13:21:56,1800.3386562108278,58.900001884800005,0.0,0.5797380185516161,1800.3386562108278,58.900001884800005,1.07999910588,0.909993029119776,1024,0.0,98,P-GPS,
0.347650303967173,36.899975612744605,24100,2018-04-04 13:21:56,1800.3386562108278,58.900001884800005,0.0,0.58554501873744,1800.3386562108278,58.900001884800005,1.07999910588,0.909993029119776,1024,0.0,98,P-GPS,
0.34765031007678904,36.899975514640495,24200,2018-04-04 13:21:56,1800.3386562108278,58.900001884800005,0.0,0.5950710190422721,1800.3386562108278,58.900001884800005,1.07999910588,0.909993029119776,1024,0.0,98,P-GPS,
0.347650309384294,36.8999753764653,24300,2018-04-04 13:21:56,1800.3386562108278,58.900001884800005,0.0,0.609002019488064,1800.3386562108278,58.900001884800005,1.07999910588,0.909993029119776,1176,0.0,98,P-GPS,
0.347650318242724,36.899975277253205,24400,2018-04-04 13:21:56,1800.3386562108278,58.900001884800005,0.0,0.618616019795712,1800.3386562108278,58.900001884800005,1.07999910588,0.909993029119776,1297,0.0,98,P-GPS,
0.34765034360889396,36.8999751745059,24500,2018-04-04 13:21:57,1800.3386562108278,58.900001884800005,0.0,0.6278950200926401,1800.3386562108278,58.900001884800005,1.07999910588,0.909993029119776,1328,0.0,98,P-GPS,
0.34765039239829804,36.8999751390668,24600,2018-04-04 13:21:57,1800.438656214028,59.000001888,0.0,0.6293510201392322,1800.438656214028,59.000001888,1.07999910588,0.909993029119776,1335,0.0,98,P-GPS,
0.347650456959894,36.8999750764023,24700,2018-04-04 13:21:57,1800.5386562172278,59.1000018912,0.0,0.633003020256096,1800.5386562172278,59.1000018912,1.07999910588,0.909993029119776,1349,0.0,98,P-GPS,
0.34765053176816807,36.899974976030705,24800,2018-04-04 13:21:57,1800.7386562236277,59.30000189760001,0.0,0.640282020489024,1800.7386562236277,59.30000189760001,1.07999910588,0.909993029119776,1359,0.0,98,P-GPS,
0.347650620394502,36.899974860211294,24900,2018-04-04 13:21:57,1800.9386562300278,59.500001904,0.0,0.648862020763584,1800.9386562300278,59.500001904,1.07999910588,0.909993029119776,1366,0.0,98,P-GPS,
0.34765071557791904,36.8999748263974,25000,2018-04-04 13:21:57,1801.0386562332278,59.6000019072,0.0,0.648868020763776,1801.0386562332278,59.6000019072,1.07999910588,0.909993029119776,1366,0.0,98,P-GPS,
0.34765081425037897,36.899974843281896,25100,2018-04-04 13:21:57,1801.238656239628,59.800001913600006,0.35999970196000003,0.6435890205948479,1801.238656239628,59.800001913600006,1.07999910588,0.909993029119776,1362,0.0,98,P-GPS,
0.34765091522993696,36.8999749346449,25200,2018-04-04 13:21:57,1801.4386562460277,60.00000192,0.35999970196000003,0.63048002017536,1801.4386562460277,60.00000192,1.07999910588,0.909993029119776,1337,0.0,98,P-GPS,
0.34765100510554203,36.89997502786171,25300,2018-04-04 13:21:57,1801.6386562524278,60.2000019264,0.35999970196000003,0.6176230197639361,1801.6386562524278,60.2000019264,1.07999910588,0.909993029119776,1207,0.0,98,P-GPS,
0.34765106686056607,36.899975141578395,25400,2018-04-04 13:21:57,1801.8386562588278,60.40000193280001,0.35999970196000003,0.60353501931312,1801.8386562588278,60.40000193280001,1.07999910588,0.909993029119776,1207,0.0,98,P-GPS,
0.34765112931793196,36.89997521163271,25500,2018-04-04 13:21:58,1801.9386562620277,60.500001936,0.35999970196000003,0.5941010190112321,1801.9386562620277,60.500001936,1.07999910588,0.909993029119776,1024,0.0,98,P-GPS,
0.34765119774179,36.899975264880204,25600,2018-04-04 13:21:58,1802.138656268428,60.7000019424,0.35999970196000003,0.586321018762272,1802.138656268428,60.7000019424,1.07999910588,0.909993029119776,1024,0.0,98,P-GPS,
0.34765126023561893,36.8999752833535,25700,2018-04-04 13:21:58,1802.138656268428,60.7000019424,0.35999970196000003,0.582503018640096,1802.138656268428,60.7000019424,1.07999910588,0.909993029119776,1024,0.0,98,P-GPS,
0.347651307575109,36.899975347065,25800,2018-04-04 13:21:58,1802.2386562716276,60.800001945599995,0.35999970196000003,0.5743040183777279,1802.2386562716276,60.800001945599995,1.07999910588,0.909993029119776,1024,0.0,98,P-GPS,
0.347651324531193,36.899975342834,25900,2018-04-04 13:21:58,1802.2386562716276,60.800001945599995,0.0,0.574284018377088,1802.2386562716276,60.800001945599995,1.07999910588,0.909993029119776,1024,0.0,98,P-GPS,
0.34765131964276297,36.8999753251492,26000,2018-04-04 13:21:58,1802.2386562716276,60.800001945599995,0.0,0.576324018442368,1802.2386562716276,60.800001945599995,1.07999910588,0.909993029119776,1024,0.0,98,P-GPS,
0.347651314440934,36.8999752593516,26100,2018-04-04 13:21:58,1802.2386562716276,60.800001945599995,0.0,0.5835540186737279,1802.2386562716276,60.800001945599995,1.07999910588,0.909993029119776,1024,0.0,98,P-GPS,
0.34765132451976893,36.8999752105375,26200,2018-04-04 13:21:58,1802.2386562716276,60.800001945599995,0.0,0.588539018833248,1802.2386562716276,60.800001945599995,1.07999910588,0.909993029119776,1024,0.0,98,P-GPS,
0.34765133417319105,36.899975138483796,26300,2018-04-04 13:21:58,1802.2386562716276,60.800001945599995,0.0,0.596054019073728,1802.2386562716276,60.800001945599995,1.07999910588,0.909993029119776,1024,0.0,98,P-GPS,
0.347651347157742,36.899975111370296,26400,2018-04-04 13:21:58,1802.2386562716276,60.800001945599995,0.0,0.598639019156448,1802.2386562716276,60.800001945599995,1.07999910588,0.909993029119776,1024,0.0,98,P-GPS,
0.34765136122527196,36.899975064178705,26500,2018-04-04 13:21:59,1802.2386562716276,60.800001945599995,0.0,0.6033750193080001,1802.2386562716276,60.800001945599995,1.07999910588,0.909993029119776,1024,0.0,98,P-GPS,
0.34765137736515805,36.8999750503845,26600,2018-04-04 13:21:59,1802.2386562716276,60.800001945599995,0.0,0.6044550193425601,1802.2386562716276,60.800001945599995,1.07999910588,0.909993029119776,1024,0.0,98,P-GPS,
0.34765140007206996,36.8999750227325,26700,2018-04-04 13:21:59,1802.2386562716276,60.800001945599995,0.0,0.6068810194201921,1802.2386562716276,60.800001945599995,1.07999910588,0.909993029119776,1024,0.0,98,P-GPS,
0.34765144222319,36.899975022338,26800,2018-04-04 13:21:59,1802.2386562716276,60.800001945599995,0.0,0.6058950193886401,1802.2386562716276,60.800001945599995,1.07999910588,0.909993029119776,1024,0.0,98,P-GPS,
0.347651494446475,36.8999750027315,26900,2018-04-04 13:21:59,1802.3386562748278,60.9000019488,0.35999970196000003,0.6068010194176321,1802.3386562748278,60.9000019488,1.07999910588,0.909993029119776,1024,0.0,98,P-GPS,
0.347651547191636,36.899975035463,27000,2018-04-04 13:21:59,1802.3386562748278,60.9000019488,0.35999970196000003,0.602052019265664,1802.3386562748278,60.9000019488,1.07999910588,0.909993029119776,1024,0.0,98,P-GPS,
0.347651602405544,36.899975072783704,27100,2018-04-04 13:21:59,1802.3386562748278,60.9000019488,0.35999970196000003,0.596792019097344,1802.3386562748278,60.9000019488,1.07999910588,0.909993029119776,1024,0.0,98,P-GPS,
0.347651648776326,36.89997514400329,27200,2018-04-04 13:21:59,1802.3386562748278,60.9000019488,0.35999970196000003,0.5880500188176,1802.3386562748278,60.9000019488,1.07999910588,0.909993029119776,1024,0.0,98,P-GPS,
0.347651695947845,36.8999751943762,27300,2018-04-04 13:21:59,1802.3386562748278,60.9000019488,0.35999970196000003,0.5815960186110721,1802.3386562748278,60.9000019488,1.07999910588,0.909993029119776,1024,0.0,98,P-GPS,
0.347651734646315,36.899975250671204,27400,2018-04-04 13:21:59,1802.3386562748278,60.9000019488,0.35999970196000003,0.5746840183898879,1802.3386562748278,60.9000019488,1.07999910588,0.909993029119776,1024,0.0,98,P-GPS,
0.347651730939163,36.8999752993386,27500,2018-04-04 13:22:00,1802.3386562748278,60.9000019488,0.7199994039200001,0.5694230182215361,1802.3386562748278,60.9000019488,1.07999910588,0.909993029119776,1024,0.0,98,P-GPS,
0.347651588628055,36.8999754765217,27600,2018-04-04 13:22:00,1802.3386562748278,60.9000019488,1.2959989270560002,0.553087017698784,1802.3386562748278,60.9000019488,1.2959989270560002,0.909993029119776,1024,0.0,98,P-GPS,
0.347651175491622,36.899975863114,27700,2018-04-04 13:22:00,1802.3386562748278,60.9000019488,3.05999746666,0.52331501674608,1802.3386562748278,60.9000019488,3.05999746666,0.909993029119776,1024,0.0,98,P-GPS,
0.34765041986587303,36.8999765588759,27800,2018-04-04 13:22:00,1802.3386562748278,60.9000019488,4.571996214892,0.48661001557152,1802.3386562748278,60.9000019488,4.571996214892,0.909993029119776,1024,0.0,98,P-GPS,
0.347649274734284,36.8999775122419,27900,2018-04-04 13:22:00,1802.3386562748278,60.9000019488,6.11999493332,0.48713101558819205,1802.3386562748278,60.9000019488,6.11999493332,0.909993029119776,1024,0.0,98,P-GPS,
0.347647773913682,36.8999786935856,28000,2018-04-04 13:22:00,1802.3386562748278,60.9000019488,7.703993621944,0.569061018209952,1802.3386562748278,60.9000019488,7.703993621944,0.909993029119776,1024,0.0,98,P-GPS,
0.34764590317716704,36.899980070429294,28100,2018-04-04 13:22:00,1802.3386562748278,60.9000019488,8.999992549,0.747362023915584,1802.3386562748278,60.9000019488,8.999992549,0.909993029119776,1024,0.0,98,P-GPS,
0.347643786512225,36.8999815775611,28200,2018-04-04 13:22:00,1802.4386562780278,61.000001952,10.295991476056,0.9916940317342081,1802.4386562780278,61.000001952,10.295991476056,0.9916940317342081,1024,0.0,98,P-GPS,
0.347641386934044,36.8999831903089,28300,2018-04-04 13:22:00,1802.4386562780278,61.000001952,11.087990820368,1.2885100412323198,1802.4386562780278,61.000001952,11.087990820368,1.2885100412323198,1024,0.0,98,P-GPS,
0.3476388037716,36.8999848820445,28400,2018-04-04 13:22:00,1802.4386562780278,61.000001952,11.087990820368,1.61707005174624,1802.4386562780278,61.000001952,11.087990820368,1.61707005174624,1024,0.0,98,P-GPS,
0.347635977837468,36.8999866185319,28500,2018-04-04 13:22:00,1802.5386562812278,61.10000195520001,13.283989002324,1.977750063288,1802.5386562812278,61.10000195520001,13.283989002324,1.977750063288,1024,0.0,98,P-GPS,
0.34763300639616496,36.899988397737395,28600,2018-04-04 13:22:01,1802.5386562812278,61.10000195520001,14.075988346636002,2.357750075448,1802.5386562812278,61.10000195520001,14.075988346636002,2.357750075448,1024,0.0,98,P-GPS,
0.347629809203672,36.899990231336396,28700,2018-04-04 13:22:01,1802.5386562812278,61.10000195520001,14.867987690947999,2.7646200884678405,1802.5386562812278,61.10000195520001,14.867987690947999,2.7646200884678405,1024,0.0,98,P-GPS,
0.347626424101768,36.899992191960294,28800,2018-04-04 13:22:01,1802.4386562780278,61.000001952,15.695987005456,3.1971301023081597,1802.5386562812278,61.10000195520001,15.695987005456,3.1971301023081597,1024,0.0,98,P-GPS,
0.34762283998283805,36.8999942173245,28900,2018-04-04 13:22:01,1802.4386562780278,61.000001952,16.487986349768,3.6533301169065604,1802.5386562812278,61.10000195520001,16.487986349768,3.6533301169065604,1024,0.0,98,P-GPS,
