latitude,longitude,time_millisecond,datetime_utc,altitude_m,ascent_m,speed_kph,distance_m,max_altitude_m,max_ascent_m,max_speed_kph,max_distance_m,rc_throttle,gimbal_pitch_degrees,battery_percent,flycState,message
0.35733249925989,36.894224828967204,0,2017-11-10 08:37:52,1771.4222978855094,0.0,0.0,0.0,1771.4222978855094,0.0,0.0,0.0,1024,0.0,98,Motors_Started,
0.3573325022934771,36.894224850018894,100,2017-11-10 08:37:52,1771.4222978855094,0.0,0.0,0.0023652100756867203,1771.4222978855094,0.0,0.0,0.0023652100756867203,1024,0.0,98,Motors_Started,Setting new Return-To-Home altitude to 30m (98 ft). Setting new Maximum Flight Altitude to 120m (394 ft)
0.35733250740312705,36.8942248667906,200,2017-11-10 08:37:52,1771.4222978855094,0.0,0.0,0.00430249013767968,1771.4222978855094,0.0,0.0,0.00430249013767968,1024,0.0,98,Motors_Started,
0.357332506837447,36.894224872419,300,2017-11-10 08:37:52,1771.4222978855094,0.0,0.0,0.00490494015695808,1771.4222978855094,0.0,0.0,0.00490494015695808,1024,0.0,98,Motors_Started,
0.35733250858578497,36.894224878667,400,2017-11-10 08:37:52,1771.4222978855094,0.0,0.0,0.0056232801799449604,1771.4222978855094,0.0,0.0,0.0056232801799449604,1024,0.0,98,Motors_Started,
0.35733250548807705,36.894224909826704,500,2017-11-10 08:37:52,1771.4222978855094,0.0,0.0,0.00901853028859296,1771.4222978855094,0.0,0.0,0.00901853028859296,1024,0.0,98,Motors_Started,
0.35733250591900395,36.8942249408261,600,2017-11-10 08:37:52,1771.4222978855094,0.0,0.0,0.012461200398758402,1771.4222978855094,0.0,0.0,0.012461200398758402,1024,0.0,98,Motors_Started,
0.35733250131193295,36.8942249606191,700,2017-11-10 08:37:53,1771.4222978855094,0.0,0.0,0.014642000468544001,1771.4222978855094,0.0,0.0,0.014642000468544001,1024,0.0,98,Motors_Started,
0.35733250062025107,36.894224976545296,800,2017-11-10 08:37:53,1771.4222978855094,0.0,0.0,0.016412000525183996,1771.4222978855094,0.0,0.0,0.016412000525183996,811,0.0,98,Motors_Started,
0.35733249552077895,36.8942249836372,1000,2017-11-10 08:37:53,1771.4222978855094,0.0,0.0,0.0172049005505568,1771.4222978855094,0.0,0.0,0.0172049005505568,1024,0.0,98,Motors_Started,
0.35733252603741206,36.8942249776951,1100,2017-11-10 08:37:53,1771.4222978855094,0.0,0.0,0.016805100537763202,1771.4222978855094,0.0,0.0,0.0172049005505568,1024,0.0,98,Motors_Started,
0.3573325537987179,36.8942249796294,1200,2017-11-10 08:37:53,1771.4222978855094,0.0,0.0,0.0178182005701824,1771.4222978855094,0.0,0.0,0.0178182005701824,1024,0.0,98,Motors_Started,
0.35733257714368394,36.8942249692026,1300,2017-11-10 08:37:53,1771.4222978855094,0.0,0.0,0.017838500570832,1771.4222978855094,0.0,0.0,0.017838500570832,1024,0.0,98,Motors_Started,
0.357332593731015,36.8942249666449,1400,2017-11-10 08:37:53,1771.4222978855094,0.0,0.0,0.0185682005941824,1771.4222978855094,0.0,0.0,0.0185682005941824,1024,0.0,98,Motors_Started,
0.357332604651157,36.894224952598705,1500,2017-11-10 08:37:53,1771.4222978855094,0.0,0.0,0.018065900578108803,1771.4222978855094,0.0,0.0,0.0185682005941824,1024,0.0,98,Assisted_Takeoff,
0.357332614816515,36.8942249502118,1600,2017-11-10 08:37:53,1771.4222978855094,0.0,0.0,0.018625900596028803,1771.4222978855094,0.0,0.0,0.018625900596028803,1024,0.0,98,Assisted_Takeoff,
0.35733261615957396,36.894224941153,1700,2017-11-10 08:37:54,1771.4222978855094,0.0,0.0,0.0180177005765664,1771.4222978855094,0.0,0.0,0.018625900596028803,1024,0.0,98,Assisted_Takeoff,
0.357332619794465,36.894224938053604,1800,2017-11-10 08:37:54,1771.4222978855094,0.0,0.0,0.0180784005785088,1771.4222978855094,0.0,0.0,0.018625900596028803,1024,0.0,98,Assisted_Takeoff,
0.35733258288944497,36.8942249273586,1900,2017-11-10 08:37:54,1771.4222978855094,0.0,0.0,0.014360000459520001,1771.4222978855094,0.0,0.0,0.018625900596028803,1024,0.0,98,Assisted_Takeoff,
0.357332556047396,36.894224923894704,2000,2017-11-10 08:37:54,1771.4222978855094,0.0,0.0,0.0123011003936352,1771.4222978855094,0.0,0.0,0.018625900596028803,1024,0.0,98,Assisted_Takeoff,
0.357332561445891,36.8942249501433,2100,2017-11-10 08:37:54,1771.4222978855094,0.0,0.0,0.015146200484678402,1771.4222978855094,0.0,0.0,0.018625900596028803,1024,0.0,98,Assisted_Takeoff,
0.35733257220726,36.8942249759717,2200,2017-11-10 08:37:54,1771.4222978855094,0.0,0.0,0.0182496005839872,1771.4222978855094,0.0,0.0,0.018625900596028803,1024,0.0,98,Assisted_Takeoff,
0.357332583237729,36.8942249968299,2300,2017-11-10 08:37:54,1771.4222978855094,0.0,0.0,0.0208727006679264,1771.4222978855094,0.0,0.0,0.0208727006679264,1024,0.0,98,Assisted_Takeoff,
0.357332590492243,36.8942250126044,2400,2017-11-10 08:37:54,1771.4222978855094,0.0,0.0,0.022802600729683202,1771.4222978855094,0.0,0.0,0.022802600729683202,1024,0.0,98,Assisted_Takeoff,
0.35733259580850196,36.89422502018579,2500,2017-11-10 08:37:54,1771.4222978855094,0.0,0.0,0.023821200762278397,1771.4222978855094,0.0,0.0,0.023821200762278397,1024,0.0,98,Assisted_Takeoff,
0.3573326020535851,36.8942250273031,2600,2017-11-10 08:37:54,1771.4222978855094,0.0,0.0,0.0248421007949472,1771.4222978855094,0.0,0.0,0.0248421007949472,1024,0.0,98,Assisted_Takeoff,
0.35733260442337794,36.89422502647071,2700,2017-11-10 08:37:55,1771.4222978855094,0.0,0.0,0.024882700796246403,1771.4222978855094,0.0,0.0,0.024882700796246403,1024,0.0,98,Assisted_Takeoff,
0.357332609349421,36.8942250264472,2800,2017-11-10 08:37:55,1771.4222978855094,0.0,0.0,0.02514250080456,1771.4222978855094,0.0,0.0,0.02514250080456,1024,0.0,98,Assisted_Takeoff,
0.357332609428808,36.8942250219268,2900,2017-11-10 08:37:55,1771.4222978855094,0.0,0.0,0.024709100790691205,1771.4222978855094,0.0,0.0,0.02514250080456,1024,0.0,98,Assisted_Takeoff,Insufficient DJI Device Storage
0.35733261363833596,36.894225017904894,3000,2017-11-10 08:37:55,1771.4222978855094,0.0,0.0,0.0245608007859456,1771.4222978855094,0.0,0.0,0.02514250080456,1024,0.0,98,Assisted_Takeoff,
0.35733261212205103,36.8942250484838,3100,2017-11-10 08:37:55,1771.4222978855094,0.0,0.0,0.0274487008783584,1771.4222978855094,0.0,0.0,0.0274487008783584,1024,0.0,98,Assisted_Takeoff,
0.35733261589474796,36.8942250700363,3200,2017-11-10 08:37:55,1771.4222978855094,0.0,0.0,0.0297808009529856,1771.4222978855094,0.0,0.0,0.0297808009529856,1024,0.0,98,Assisted_Takeoff,
0.35733261431129,36.8942250902901,3300,2017-11-10 08:37:55,1771.4222978855094,0.0,0.0,0.031752001016064,1771.4222978855094,0.0,0.0,0.031752001016064,1024,0.0,98,Assisted_Takeoff,
0.357332618200625,36.894225100878,3400,2017-11-10 08:37:55,1771.4222978855094,0.0,0.0,0.033004001056127996,1771.4222978855094,0.0,0.0,0.033004001056127996,1024,0.0,98,Assisted_Takeoff,
0.35733261571439795,36.8942251100367,3500,2017-11-10 08:37:55,1771.4222978855094,0.0,0.0,0.0338327010826464,1771.4222978855094,0.0,0.0,0.0338327010826464,1024,0.0,98,Assisted_Takeoff,
0.35733262002163296,36.8942251119132,3600,2017-11-10 08:37:55,1771.4222978855094,0.0,0.0,0.034210801094745606,1771.4222978855094,0.0,0.0,0.034210801094745606,1024,0.0,98,Assisted_Takeoff,
0.3573326178008421,36.894225112301605,3700,2017-11-10 08:37:56,1771.4222978855094,0.0,0.0,0.0341544010929408,1771.4222978855094,0.0,0.0,0.034210801094745606,1024,0.0,98,Assisted_Takeoff,
0.35733262085559897,36.894225108500706,3800,2017-11-10 08:37:56,1771.4222978855094,0.0,0.0,0.033899001084767996,1771.4222978855094,0.0,0.0,0.034210801094745606,1024,0.0,98,Assisted_Takeoff,
0.357332581868411,36.894225091736494,4100,2017-11-10 08:37:56,1771.4222978855094,0.0,0.0,0.030631000980192006,1771.4222978855094,0.0,0.0,0.034210801094745606,1024,0.0,98,Assisted_Takeoff,
0.35733255644005396,36.894225084058206,4200,2017-11-10 08:37:56,1771.4222978855094,0.0,0.0,0.0290711009302752,1771.4222978855094,0.0,0.0,0.034210801094745606,1024,0.0,98,Assisted_Takeoff,
0.35733252740021604,36.8942250442252,4300,2017-11-10 08:37:56,1771.4222978855094,0.0,0.0,0.0241412007725184,1771.4222978855094,0.0,0.0,0.034210801094745606,1024,0.0,98,Assisted_Takeoff,
0.3573325109987321,36.8942250060726,4400,2017-11-10 08:37:56,1771.4222978855094,0.0,0.0,0.019738000631616005,1771.4222978855094,0.0,0.0,0.034210801094745606,1024,0.0,98,Assisted_Takeoff,
0.357332487910653,36.894224949088,4600,2017-11-10 08:37:56,1771.4222978855094,0.0,0.0,0.0134174004293568,1771.4222978855094,0.0,0.0,0.034210801094745606,1083,0.0,98,Assisted_Takeoff,
0.35733248084422403,36.894224933341604,4700,2017-11-10 08:37:57,1771.4222978855094,0.0,0.0,0.0117861003771552,1771.4222978855094,0.0,0.0,0.034210801094745606,1114,0.0,98,Assisted_Takeoff,
0.357332479074716,36.894224914215705,4800,2017-11-10 08:37:57,1771.4222978855094,0.0,0.0,0.009742100311747201,1771.4222978855094,0.0,0.0,0.034210801094745606,1164,0.0,98,Assisted_Takeoff,
0.35733247914412797,36.8942248955104,5000,2017-11-10 08:37:57,1771.4222978855094,0.0,0.0,0.007730600247379201,1771.4222978855094,0.0,0.0,0.034210801094745606,1168,0.0,98,Assisted_Takeoff,
0.357332480168216,36.8942248968704,5100,2017-11-10 08:37:57,1771.4222978855094,0.0,0.0,0.007843900251004801,1771.4222978855094,0.0,0.0,0.034210801094745606,1213,0.0,98,Assisted_Takeoff,
0.35733248397389,36.8942248890853,5200,2017-11-10 08:37:57,1771.4222978855094,0.0,0.0,0.0068981002207392,1771.4222978855094,0.0,0.0,0.034210801094745606,1297,0.0,98,Assisted_Takeoff,
0.35733248735209705,36.8942248610586,5300,2017-11-10 08:37:57,1771.4222978855094,0.0,0.0,0.0038064601218067203,1771.4222978855094,0.0,0.0,0.034210801094745606,1406,0.0,98,Assisted_Takeoff,
0.3573325077668811,36.8942248122322,5400,2017-11-10 08:37:57,1771.4222978855094,0.0,0.0,0.0020876500668048,1771.4222978855094,0.0,0.0,0.034210801094745606,1531,0.0,98,Assisted_Takeoff,
0.357332682377196,36.8942246111678,5600,2017-11-10 08:37:57,1771.4222978855094,0.0,0.5075995797636,0.031643301012585605,1771.4222978855094,0.0,0.5075995797636,0.034210801094745606,1575,0.0,98,GPS_Atti,
0.357332819711003,36.89422453755999,5700,2017-11-10 08:37:58,1771.4222978855094,0.0,0.35999970196000003,0.048167001541344,1771.4222978855094,0.0,0.5075995797636,0.048167001541344,1611,0.0,98,GPS_Atti,
0.35733292334192207,36.8942244733742,5800,2017-11-10 08:37:58,1771.5222978887093,0.10000000320000002,0.0,0.06154500196944,1771.5222978887093,0.10000000320000002,0.5075995797636,0.06154500196944,1651,0.0,98,GPS_Atti,
0.35733297272815007,36.8942243632608,5900,2017-11-10 08:37:58,1771.5222978887093,0.10000000320000002,0.35999970196000003,0.0738534023633088,1771.5222978887093,0.10000000320000002,0.5075995797636,0.0738534023633088,1684,0.0,98,GPS_Atti,
0.3573329876145711,36.894224214900106,6000,2017-11-10 08:37:58,1771.7222978951095,0.3000000096,0.35999970196000003,0.0872492027919744,1771.7222978951095,0.3000000096,0.5075995797636,0.0872492027919744,1684,0.0,98,GPS_Atti,
0.357332970447514,36.8942240444648,6100,2017-11-10 08:37:58,1771.8222978983094,0.4000000128000001,0.5075995797636,0.10176700325654402,1771.8222978983094,0.4000000128000001,0.5075995797636,0.10176700325654402,1684,0.0,98,GPS_Atti,
0.357332853729605,36.894223880569704,6200,2017-11-10 08:37:58,1772.0222979047091,0.6000000192,0.5075995797636,0.112592003602944,1772.0222979047091,0.6000000192,0.5075995797636,0.112592003602944,1684,0.0,98,GPS_Atti,Home Point Recorded. RTH Altitude:  30m.
0.357332632563705,36.8942237882511,6300,2017-11-10 08:37:58,1772.3222979143093,0.9000000288000001,0.35999970196000003,0.116677003733664,1772.3222979143093,0.9000000288000001,0.5075995797636,0.116677003733664,1684,0.0,98,GPS_Atti,
0.357332457820265,36.89422371833621,6400,2017-11-10 08:37:58,1772.6222979239094,1.2000000384,0.0,0.123592003954944,1772.6222979239094,1.2000000384,0.5075995797636,0.123592003954944,1684,0.0,98,GPS_Atti,
0.357332326317305,36.8942237492936,6500,2017-11-10 08:37:58,1773.0222979367093,1.6000000512000003,0.0,0.12159500389104,1773.0222979367093,1.6000000512000003,0.5075995797636,0.123592003954944,1684,0.0,98,GPS_Atti,
0.35733223307524803,36.89422374333579,6600,2017-11-10 08:37:58,1773.5222979527093,2.1000000672,0.35999970196000003,0.124303003977696,1773.5222979527093,2.1000000672,0.5075995797636,0.124303003977696,1684,0.0,98,GPS_Atti,
0.357332167413536,36.8942237132375,6700,2017-11-10 08:37:59,1773.9222979655092,2.50000008,0.35999970196000003,0.12944500414224003,1773.9222979655092,2.50000008,0.5075995797636,0.12944500414224003,1684,0.0,98,GPS_Atti,
0.35733208902777397,36.8942236156285,6800,2017-11-10 08:37:59,1774.4222979815095,3.0000000960000004,0.35999970196000003,0.142432004557824,1774.4222979815095,3.0000000960000004,0.5075995797636,0.142432004557824,1684,0.0,98,GPS_Atti,
0.357331967056097,36.8942234583636,6900,2017-11-10 08:37:59,1775.0222980007093,3.6000001152000003,0.35999970196000003,0.16350400523212802,1775.0222980007093,3.6000001152000003,0.5075995797636,0.16350400523212802,1684,0.0,98,GPS_Atti,
0.357331858441936,36.8942233065096,7000,2017-11-10 08:37:59,1775.5222980167096,4.100000131200001,0.35999970196000003,0.18369000587808001,1775.5222980167096,4.100000131200001,0.5075995797636,0.18369000587808001,1684,0.0,98,GPS_Atti,
0.35733173631901793,36.894223207524796,7100,2017-11-10 08:37:59,1776.0222980327094,4.6000001472,0.0,0.1992750063768,1776.0222980327094,4.6000001472,0.5075995797636,0.1992750063768,1684,0.0,98,GPS_Atti,
0.35733163560179204,36.8942231373252,7200,2017-11-10 08:37:59,1776.5222980487092,5.1000001632,0.0,0.21121700675894403,1776.5222980487092,5.1000001632,0.5075995797636,0.21121700675894403,1684,0.0,98,GPS_Atti,
0.35733133266174505,36.8942230810953,7400,2017-11-10 08:37:59,1777.5222980807093,6.1000001952,0.35999970196000003,0.23368900747804802,1777.5222980807093,6.1000001952,0.5075995797636,0.23368900747804802,1684,0.0,98,GPS_Atti,
0.3573311304831961,36.89422306043279,7500,2017-11-10 08:37:59,1778.0222980967094,6.6000002112,0.35999970196000003,0.24869300795817603,1778.0222980967094,6.6000002112,0.5075995797636,0.24869300795817603,1684,0.0,98,GPS_Atti,
0.35733093177832204,36.8942230400208,7600,2017-11-10 08:37:59,1778.5222981127092,7.100000227200002,0.0,0.264502008464064,1778.5222981127092,7.100000227200002,0.5075995797636,0.264502008464064,1684,0.0,98,GPS_Atti,
0.357330698953272,36.8942230203277,7700,2017-11-10 08:38:00,1778.9222981255093,7.50000024,0.0,0.283786009081152,1778.9222981255093,7.50000024,0.5075995797636,0.283786009081152,1684,0.0,98,GPS_Atti,
0.35733048969394393,36.8942230019867,7800,2017-11-10 08:38:00,1779.4222981415094,8.000000256,0.0,0.302024009664768,1779.4222981415094,8.000000256,0.5075995797636,0.302024009664768,1684,0.0,98,GPS_Atti,
0.357330257321041,36.8942229901593,7900,2017-11-10 08:38:00,1779.9222981575092,8.500000272000001,0.0,0.32244701031830403,1779.9222981575092,8.500000272000001,0.5075995797636,0.32244701031830403,1684,0.0,98,GPS_Atti,
0.357330023047719,36.8942229696381,8000,2017-11-10 08:38:00,1780.4222981735093,9.000000287999999,0.0,0.34435501101936,1780.4222981735093,9.000000287999999,0.5075995797636,0.34435501101936,1684,0.0,98,GPS_Atti,
0.35732978658284703,36.894222970124105,8100,2017-11-10 08:38:00,1780.9222981895093,9.500000304,0.0,0.36569401170220805,1780.9222981895093,9.500000304,0.5075995797636,0.36569401170220805,1684,0.0,98,GPS_Atti,
0.35732956939682103,36.8942229728055,8200,2017-11-10 08:38:00,1781.4222982055094,10.00000032,0.0,0.38569901234236803,1781.4222982055094,10.00000032,0.5075995797636,0.38569901234236803,1684,0.0,98,GPS_Atti,
0.357329327859404,36.8942229938925,8300,2017-11-10 08:38:00,1781.8222982183092,10.400000332800001,0.0,0.40746301303881605,1781.8222982183092,10.400000332800001,0.5075995797636,0.40746301303881605,1684,0.0,98,GPS_Atti,
0.35732910977436794,36.8942230037275,8400,2017-11-10 08:38:00,1782.3222982343093,10.9000003488,0.0,0.42810701369942405,1782.3222982343093,10.9000003488,0.5075995797636,0.42810701369942405,1684,0.0,98,GPS_Atti,
0.357328909587254,36.8942230524595,8500,2017-11-10 08:38:00,1782.8222982503094,11.4000003648,0.0,0.445402014252864,1782.8222982503094,11.4000003648,0.5075995797636,0.445402014252864,1684,0.0,98,GPS_Atti,
0.35732872680316796,36.894223093201106,8600,2017-11-10 08:38:00,1783.3222982663094,11.900000380800002,0.0,0.461796014777472,1783.3222982663094,11.900000380800002,0.5075995797636,0.461796014777472,1684,0.0,98,GPS_Atti,
0.357328541465377,36.8942231371031,8700,2017-11-10 08:38:01,1783.8222982823092,12.4000003968,0.0,0.47865701531702404,1783.8222982823092,12.4000003968,0.5075995797636,0.47865701531702404,1684,0.0,98,GPS_Atti,
0.357328390087258,36.89422317296221,8800,2017-11-10 08:38:01,1784.2222982951093,12.800000409600003,0.0,0.492676015765632,1784.2222982951093,12.800000409600003,0.5075995797636,0.492676015765632,1684,0.0,98,GPS_Atti,
0.357328088052117,36.8942233834234,9000,2017-11-10 08:38:01,1785.2222983271095,13.8000004416,0.0,0.51622001651904,1785.2222983271095,13.8000004416,0.5075995797636,0.51622001651904,1684,0.0,98,GPS_Atti,
0.357327936682242,36.8942235120985,9100,2017-11-10 08:38:01,1785.7222983431093,14.300000457600001,0.0,0.528097016899104,1785.7222983431093,14.300000457600001,0.5075995797636,0.528097016899104,1684,-3.1,98,GPS_Atti,
0.3573278003025,36.894223625402,9200,2017-11-10 08:38:01,1786.2222983591096,14.8000004736,0.0,0.5394210172614721,1786.2222983591096,14.8000004736,0.5075995797636,0.5394210172614721,1684,-8.8,98,GPS_Atti,
0.35732762732103707,36.8942237631531,9300,2017-11-10 08:38:01,1786.7222983751094,15.3000004896,0.0,0.554602017747264,1786.7222983751094,15.3000004896,0.5075995797636,0.554602017747264,1684,-8.8,98,GPS_Atti,
0.357327467681415,36.8942238892657,9400,2017-11-10 08:38:01,1787.3222983943092,15.900000508800002,0.0,0.5692160182149121,1787.3222983943092,15.900000508800002,0.5075995797636,0.5692160182149121,1684,-20.0,98,GPS_Atti,
0.35732714650747605,36.894224163062894,9600,2017-11-10 08:38:01,1788.3222984263093,16.900000540799997,0.0,0.599847019195104,1788.3222984263093,16.900000540799997,0.5075995797636,0.599847019195104,1684,-25.6,98,GPS_Atti,
0.35732699026051395,36.8942243578795,9700,2017-11-10 08:38:02,1788.8222984423091,17.400000556800002,0.0,0.61487001967584,1788.8222984423091,17.400000556800002,0.5075995797636,0.61487001967584,1684,-31.3,98,GPS_Atti,
0.357326857747309,36.8942245291826,9800,2017-11-10 08:38:02,1789.4222984615094,18.000000575999998,0.0,0.6282560201041921,1789.4222984615094,18.000000575999998,0.5075995797636,0.6282560201041921,1684,-37.0,98,GPS_Atti,
0.357326724591071,36.8942247102018,9900,2017-11-10 08:38:02,1789.9222984775092,18.500000592000003,0.0,0.642314020554048,1789.9222984775092,18.500000592000003,0.5075995797636,0.642314020554048,1684,-42.6,98,GPS_Atti,
0.35732661165766605,36.8942248627957,10000,2017-11-10 08:38:02,1790.4222984935093,19.000000608,0.0,0.6547480209519362,1790.4222984935093,19.000000608,0.5075995797636,0.6547480209519362,1684,-48.2,98,GPS_Atti,
0.35732651886974104,36.8942250324198,10100,2017-11-10 08:38:02,1791.0222985127093,19.6000006272,0.0,0.6654410212941122,1791.0222985127093,19.6000006272,0.5075995797636,0.6654410212941122,1684,-48.2,98,GPS_Atti,
0.35732644497522703,36.8942251758747,10200,2017-11-10 08:38:02,1791.5222985287091,20.1000006432,0.0,0.6743780215800961,1791.5222985287091,20.1000006432,0.5075995797636,0.6743780215800961,1684,-59.5,98,GPS_Atti,
0.357326368873358,36.8942253588088,10300,2017-11-10 08:38:02,1792.1222985479094,20.7000006624,0.0,0.684278021896896,1792.1222985479094,20.7000006624,0.5075995797636,0.684278021896896,1684,-65.2,98,GPS_Atti,
0.35732629673939503,36.8942254987931,10400,2017-11-10 08:38:02,1792.6222985639092,21.2000006784,0.0,0.693768022200576,1792.6222985639092,21.2000006784,0.5075995797636,0.693768022200576,1684,-70.8,98,GPS_Atti,
0.3573262097874071,36.894225675369896,10500,2017-11-10 08:38:02,1793.2222985831095,21.8000006976,0.0,0.705732022583424,1793.2222985831095,21.8000006976,0.5075995797636,0.705732022583424,1684,-76.5,98,GPS_Atti,
0.357326161619255,36.8942257870413,10600,2017-11-10 08:38:02,1793.8222986023093,22.400000716800005,0.0,0.7127920228093441,1793.8222986023093,22.400000716800005,0.5075995797636,0.7127920228093441,1684,-82.1,98,GPS_Atti,
0.35732611384518603,36.8942259477103,10700,2017-11-10 08:38:03,1794.3222986183093,22.900000732800002,0.0,0.720913023069216,1794.3222986183093,22.900000732800002,0.5075995797636,0.720913023069216,1684,-82.1,98,GPS_Atti,
0.357326061843677,36.894226078399,10800,2017-11-10 08:38:03,1794.9222986375094,23.500000752000002,0.0,0.729239023335648,1794.9222986375094,23.500000752000002,0.5075995797636,0.729239023335648,1684,-87.8,98,GPS_Atti,
0.35732599440004,36.894226216690996,10900,2017-11-10 08:38:03,1795.5222986567094,24.100000771199998,0.0,0.7396580236690561,1795.5222986567094,24.100000771199998,0.5075995797636,0.7396580236690561,1684,-89.9,98,GPS_Atti,
0.357325936916374,36.8942263156631,11000,2017-11-10 08:38:03,1796.0222986727092,24.600000787200003,0.0,0.74826502394448,1796.0222986727092,24.600000787200003,0.5075995797636,0.74826502394448,1684,-89.9,98,GPS_Atti,
0.357325875281804,36.894226463056796,11100,2017-11-10 08:38:03,1796.6222986919095,25.200000806400006,0.0,0.758709024278688,1796.6222986919095,25.200000806400006,0.5075995797636,0.758709024278688,1684,-89.9,98,GPS_Atti,
0.357325809149879,36.8942266985905,11300,2017-11-10 08:38:03,1797.7222987271095,26.300000841600003,0.0,0.7724860247195521,1797.7222987271095,26.300000841600003,0.5075995797636,0.7724860247195521,1684,-90.0,98,GPS_Atti,
0.35732581337080604,36.8942267723037,11400,2017-11-10 08:38:03,1798.3222987463093,26.9000008608,0.0,0.774281024776992,1798.3222987463093,26.9000008608,0.5075995797636,0.774281024776992,1684,-90.0,98,GPS_Atti,
0.35732581397984403,36.8942268594904,11500,2017-11-10 08:38:03,1798.8222987623092,27.4000008768,0.0,0.776978024863296,1798.8222987623092,27.4000008768,0.5075995797636,0.776978024863296,1684,-90.0,98,GPS_Atti,
0.35732580709518996,36.89422691973,11600,2017-11-10 08:38:03,1799.4222987815094,28.000000896,0.0,0.779682024949824,1799.4222987815094,28.000000896,0.5075995797636,0.779682024949824,1684,-89.9,98,GPS_Atti,
0.35732579742996795,36.8942270262026,11700,2017-11-10 08:38:04,1800.0222988007095,28.600000915200003,0.0,0.7843160250981122,1800.0222988007095,28.600000915200003,0.5075995797636,0.7843160250981122,1684,-89.9,98,GPS_Atti,
0.357325790367406,36.89422709185771,11800,2017-11-10 08:38:04,1800.5222988167093,29.1000009312,0.0,0.7873650251956801,1800.5222988167093,29.1000009312,0.5075995797636,0.7873650251956801,1684,-90.0,98,GPS_Atti,
0.35732579573394396,36.8942272078311,11900,2017-11-10 08:38:04,1801.1222988359093,29.7000009504,0.0,0.791019025312608,1801.1222988359093,29.7000009504,0.5075995797636,0.791019025312608,1684,-90.0,98,GPS_Atti,
0.3573258297000279,36.8942272825196,12000,2017-11-10 08:38:04,1801.6222988519094,30.200000966400005,0.0,0.7902890252892479,1801.6222988519094,30.200000966400005,0.5075995797636,0.791019025312608,1684,-90.0,98,GPS_Atti,
0.35732588494132705,36.894227349649,12100,2017-11-10 08:38:04,1802.2222988711092,30.8000009856,0.0,0.787154025188928,1802.2222988711092,30.8000009856,0.5075995797636,0.791019025312608,1684,-89.9,97,GPS_Atti,
0.357325949208276,36.89422738107189,12200,2017-11-10 08:38:04,1802.7222988871094,31.300001001600002,0.0,0.7817410250157121,1802.7222988871094,31.300001001600002,0.5075995797636,0.791019025312608,1684,-89.9,97,GPS_Atti,
0.357326042016557,36.8942274693332,12300,2017-11-10 08:38:04,1803.3222989063092,31.9000010208,0.0,0.77579502482544,1803.3222989063092,31.9000010208,0.5075995797636,0.791019025312608,1684,-89.9,97,GPS_Atti,
0.357326148239144,36.8942275277005,12400,2017-11-10 08:38:04,1803.8222989223093,32.4000010368,0.0,0.7673890245564481,1803.8222989223093,32.4000010368,0.5075995797636,0.791019025312608,1684,-90.0,97,GPS_Atti,
0.35732628247626097,36.8942276091345,12500,2017-11-10 08:38:04,1804.3222989383094,32.9000010528,0.35999970196000003,0.757324024234368,1804.3222989383094,32.9000010528,0.5075995797636,0.791019025312608,1684,-90.0,97,GPS_Atti,
0.3573264187088329,36.89422765145,12600,2017-11-10 08:38:04,1804.8222989543092,33.4000010688,0.35999970196000003,0.745489023855648,1804.8222989543092,33.4000010688,0.5075995797636,0.791019025312608,1684,-89.9,97,GPS_Atti,
0.35732655149500603,36.8942276999706,12700,2017-11-10 08:38:05,1805.4222989735094,34.000001088000005,0.35999970196000003,0.7344510235024321,1805.4222989735094,34.000001088000005,0.5075995797636,0.791019025312608,1684,-89.9,97,GPS_Atti,
0.357326680045393,36.894227727992295,12800,2017-11-10 08:38:05,1805.9222989895093,34.500001104,0.35999970196000003,0.7229870231355839,1805.9222989895093,34.500001104,0.5075995797636,0.791019025312608,1684,-89.9,97,GPS_Atti,
0.35732683293633605,36.894227761695106,12900,2017-11-10 08:38:05,1806.4222990055093,35.00000112,0.35999970196000003,0.709524022704768,1806.4222990055093,35.00000112,0.5075995797636,0.791019025312608,1684,-89.9,97,GPS_Atti,
0.35732699226227904,36.89422776830771,13000,2017-11-10 08:38:05,1807.0222990247094,35.6000011392,0.35999970196000003,0.6941830222138561,1807.0222990247094,35.6000011392,0.5075995797636,0.791019025312608,1684,-89.9,97,GPS_Atti,
0.35732715181315006,36.894227845347,13100,2017-11-10 08:38:05,1807.5222990407092,36.1000011552,0.35999970196000003,0.6827490218479679,1807.5222990407092,36.1000011552,0.5075995797636,0.791019025312608,1684,-89.9,97,GPS_Atti,
0.35732727652875496,36.8942278932842,13200,2017-11-10 08:38:05,1808.1222990599094,36.7000011744,0.35999970196000003,0.6733860215483521,1808.1222990599094,36.7000011744,0.5075995797636,0.791019025312608,1684,-89.9,97,GPS_Atti,
0.357327432888284,36.89422794481771,13300,2017-11-10 08:38:05,1808.6222990759093,37.2000011904,0.35999970196000003,0.6614310211657921,1808.6222990759093,37.2000011904,0.5075995797636,0.791019025312608,1684,-89.9,97,GPS_Atti,
0.3573275793440229,36.8942279771447,13400,2017-11-10 08:38:05,1809.1222990919093,37.700001206399996,0.35999970196000003,0.64954502078544,1809.1222990919093,37.700001206399996,0.5075995797636,0.791019025312608,1684,-90.0,97,GPS_Atti,
0.357327727881932,36.894228013231896,13500,2017-11-10 08:38:05,1809.6222991079094,38.2000012224,0.35999970196000003,0.637912020413184,1809.6222991079094,38.2000012224,0.5075995797636,0.791019025312608,1684,-90.0,97,GPS_Atti,
0.357327852000712,36.8942280269257,13600,2017-11-10 08:38:05,1810.2222991271092,38.8000012416,0.0,0.62734002007488,1810.2222991271092,38.8000012416,0.5075995797636,0.791019025312608,1684,-89.9,97,GPS_Atti,
0.357327935225396,36.8942280576275,13700,2017-11-10 08:38:06,1810.7222991431095,39.3000012576,0.0,0.6217030198944961,1810.7222991431095,39.3000012576,0.5075995797636,0.791019025312608,1684,-89.9,97,GPS_Atti,
0.357327983830785,36.8942280683316,13800,2017-11-10 08:38:06,1811.3222991623093,39.900001276800005,0.0,0.6179920197757439,1811.3222991623093,39.900001276800005,0.5075995797636,0.791019025312608,1684,-89.9,97,GPS_Atti,
0.35732811800632597,36.8942282905228,14100,2017-11-10 08:38:06,1812.9222992135092,41.500001328,0.0,0.6209370198699841,1812.9222992135092,41.500001328,0.5075995797636,0.791019025312608,1684,-89.9,97,GPS_Atti,
0.3573281495882671,36.894228353689606,14200,2017-11-10 08:38:06,1813.4222992295095,42.000001344,0.0,0.6225840199226881,1813.4222992295095,42.000001344,0.5075995797636,0.791019025312608,1684,-89.9,97,GPS_Atti,
0.35732822480935206,36.89422840925629,14300,2017-11-10 08:38:06,1813.9222992455093,42.50000136,0.0,0.620057019841824,1813.9222992455093,42.50000136,0.5075995797636,0.791019025312608,1684,-90.0,97,GPS_Atti,
0.35732830681015904,36.8942284309247,14400,2017-11-10 08:38:06,1814.4222992615094,43.000001376,0.0,0.6146610196691521,1814.4222992615094,43.000001376,0.5075995797636,0.791019025312608,1684,-89.9,97,GPS_Atti,
0.35732841887652,36.8942284666562,14500,2017-11-10 08:38:06,1814.9222992775092,43.500001391999994,0.0,0.6079000194528,1814.9222992775092,43.500001391999994,0.5075995797636,0.791019025312608,1684,-89.9,97,GPS_Atti,
0.357328495996777,36.894228484583,14600,2017-11-10 08:38:06,1815.4222992935095,44.00000140800001,0.0,0.602868019291776,1815.4222992935095,44.00000140800001,0.5075995797636,0.791019025312608,1684,-89.9,97,GPS_Atti,
0.3573285442220271,36.8942285302415,14700,2017-11-10 08:38:07,1815.9222993095093,44.500001424,0.0,0.6023760192760321,1815.9222993095093,44.500001424,0.5075995797636,0.791019025312608,1684,-89.9,97,GPS_Atti,
0.357328583723804,36.8942285392211,14800,2017-11-10 08:38:07,1816.5222993287093,45.10000144320001,0.0,0.599863019195616,1816.5222993287093,45.10000144320001,0.5075995797636,0.791019025312608,1684,-90.0,97,GPS_Atti,
0.357328621691993,36.8942285974231,14900,2017-11-10 08:38:07,1817.0222993447094,45.6000014592,0.0,0.601297019241504,1817.0222993447094,45.6000014592,0.5075995797636,0.791019025312608,1684,-89.9,97,GPS_Atti,
0.3573286384740251,36.894228632352096,15000,2017-11-10 08:38:07,1817.5222993607092,46.1000014752,0.0,0.6026800192857601,1817.5222993607092,46.1000014752,0.5075995797636,0.791019025312608,1684,-90.0,97,GPS_Atti,
0.35732864804744296,36.894228665806295,15100,2017-11-10 08:38:07,1818.1222993799095,46.7000014944,0.0,0.604542019345344,1818.1222993799095,46.7000014944,0.5075995797636,0.791019025312608,1684,-90.0,97,GPS_Atti,
0.35732864948820897,36.894228661271704,15200,2017-11-10 08:38:07,1818.6222993959093,47.2000015104,0.0,0.604073019330336,1818.6222993959093,47.2000015104,0.5075995797636,0.791019025312608,1684,-89.9,97,GPS_Atti,
0.35732863871727294,36.8942286928611,15300,2017-11-10 08:38:07,1819.1222994119091,47.700001526399994,0.0,0.607402019436864,1819.1222994119091,47.700001526399994,0.5075995797636,0.791019025312608,1684,-89.9,97,GPS_Atti,
0.35732860397839,36.8942286838571,15400,2017-11-10 08:38:07,1819.6222994279094,48.200001542399995,0.0,0.6094340195018879,1819.6222994279094,48.200001542399995,0.5075995797636,0.791019025312608,1684,-89.9,97,GPS_Atti,
0.35732856853174394,36.894228716014794,15500,2017-11-10 08:38:07,1820.2222994471092,48.8000015616,0.0,0.614751019672032,1820.2222994471092,48.8000015616,0.5075995797636,0.791019025312608,1684,-89.9,97,GPS_Atti,
0.357328526443286,36.8942287130963,15600,2017-11-10 08:38:07,1820.7222994631095,49.30000157760001,0.35999970196000003,0.6178610197715521,1820.7222994631095,49.30000157760001,0.5075995797636,0.791019025312608,1684,-89.9,97,GPS_Atti,
0.35732847386062605,36.894228731332795,15700,2017-11-10 08:38:08,1821.2222994791093,49.8000015936,0.35999970196000003,0.6234660199509121,1821.2222994791093,49.8000015936,0.5075995797636,0.791019025312608,1684,-89.9,97,GPS_Atti,
0.357328418485286,36.8942287205096,15800,2017-11-10 08:38:08,1821.8222994983091,50.40000161280001,0.0,0.6270710200662721,1821.8222994983091,50.40000161280001,0.5075995797636,0.791019025312608,1684,-89.9,97,GPS_Atti,
0.357328359310786,36.894228718217505,15900,2017-11-10 08:38:08,1822.3222995143094,50.9000016288,0.0,0.6316750202136,1822.3222995143094,50.9000016288,0.5075995797636,0.791019025312608,1684,-89.9,97,GPS_Atti,
0.35732830137889104,36.894228685995,16000,2017-11-10 08:38:08,1822.8222995303092,51.4000016448,0.0,0.633956020286592,1822.8222995303092,51.4000016448,0.5075995797636,0.791019025312608,1684,-89.9,97,GPS_Atti,
0.35732822392928004,36.8942287204123,16100,2017-11-10 08:38:08,1823.3222995463093,51.90000166080001,0.0,0.6428940205726079,1823.3222995463093,51.90000166080001,0.5075995797636,0.791019025312608,1684,-89.9,97,GPS_Atti,
0.35732816716345295,36.89422873218079,16200,2017-11-10 08:38:08,1823.9222995655093,52.500001680000004,0.0,0.648452020750464,1823.9222995655093,52.500001680000004,0.5075995797636,0.791019025312608,1684,-89.9,97,GPS_Atti,
0.357328131821231,36.89422878924,16400,2017-11-10 08:38:08,1824.8222995943092,53.400001708800005,0.0,0.6556230209799361,1824.8222995943092,53.400001708800005,0.5075995797636,0.791019025312608,1684,-89.9,97,GPS_Atti,
0.3573281446820711,36.894228824962,16500,2017-11-10 08:38:08,1825.3222996103095,53.900001724800006,0.0,0.657243021031776,1825.3222996103095,53.900001724800006,0.5075995797636,0.791019025312608,1684,-90.0,97,GPS_Atti,
0.357328168809199,36.894228834618,16600,2017-11-10 08:38:08,1825.8222996263094,54.40000174080001,0.0,0.6559970209919039,1825.8222996263094,54.40000174080001,0.5075995797636,0.791019025312608,1684,-89.9,97,GPS_Atti,
0.35732815877676294,36.8942288941084,16700,2017-11-10 08:38:09,1826.4222996455094,55.00000176,0.0,0.6613210211622721,1826.4222996455094,55.00000176,0.5075995797636,0.791019025312608,1684,-90.0,97,GPS_Atti,
0.35732813400314206,36.894228986189,16900,2017-11-10 08:38:09,1827.3222996743093,55.900001788800004,0.0,0.67035502145136,1827.3222996743093,55.900001788800004,0.5075995797636,0.791019025312608,1684,-90.0,97,GPS_Atti,
0.357328135877787,36.894229001339205,17000,2017-11-10 08:38:09,1827.8222996903094,56.400001804800006,0.0,0.6713670214837439,1827.8222996903094,56.400001804800006,0.5075995797636,0.791019025312608,1684,-90.0,97,GPS_Atti,
0.357328098375637,36.894229051028496,17100,2017-11-10 08:38:09,1828.3222997063092,56.90000182080001,0.0,0.678201021702432,1828.3222997063092,56.90000182080001,0.5075995797636,0.791019025312608,1684,-90.0,97,GPS_Atti,
0.357328078217943,36.894229064102795,17200,2017-11-10 08:38:09,1828.9222997255092,57.50000184,0.0,0.680826021786432,1828.9222997255092,57.50000184,0.5075995797636,0.791019025312608,1684,-89.9,97,GPS_Atti,
0.35732805126058004,36.894229101689795,17300,2017-11-10 08:38:09,1829.4222997415093,58.000001856,0.0,0.6858820219482241,1829.4222997415093,58.000001856,0.5075995797636,0.791019025312608,1684,-89.9,97,GPS_Atti,
0.357328053552004,36.8942291026329,17400,2017-11-10 08:38:09,1829.9222997575093,58.500001872,0.0,0.6857710219446721,1829.9222997575093,58.500001872,0.5075995797636,0.791019025312608,1684,-89.9,97,GPS_Atti,
0.357328051061502,36.8942291328732,17500,2017-11-10 08:38:09,1830.4222997735094,59.000001888,0.0,0.68830502202576,1830.4222997735094,59.000001888,0.5075995797636,0.791019025312608,1684,-90.0,97,GPS_Atti,
0.357328063172851,36.894229122635394,17600,2017-11-10 08:38:09,1830.9222997895092,59.500001904,0.0,0.686546021969472,1830.9222997895092,59.500001904,0.5075995797636,0.791019025312608,1684,-89.9,97,GPS_Atti,
0.35732805576485605,36.8942291698353,17700,2017-11-10 08:38:10,1831.4222998055095,60.00000192,0.0,0.6907950221054401,1831.4222998055095,60.00000192,0.5075995797636,0.791019025312608,1684,-89.9,97,GPS_Atti,
0.35732805893849,36.894229193734205,17800,2017-11-10 08:38:10,1831.9222998215093,60.500001936,0.0,0.692403022156896,1831.9222998215093,60.500001936,0.5075995797636,0.791019025312608,1684,-89.9,97,GPS_Atti,
0.35732805108369,36.8942292927638,18000,2017-11-10 08:38:10,1832.9222998535092,61.500001968,0.0,0.7007830224250561,1832.9222998535092,61.500001968,0.5075995797636,0.791019025312608,1684,-89.9,97,GPS_Atti,
0.35732804502099297,36.894229405598296,18100,2017-11-10 08:38:10,1833.4222998695093,62.000001984,0.0,0.710197022726304,1833.4222998695093,62.000001984,0.5075995797636,0.791019025312608,1684,-90.0,97,GPS_Atti,
0.357328057473704,36.8942294734358,18200,2017-11-10 08:38:10,1833.9222998855093,62.50000200000001,0.0,0.714664022869248,1833.9222998855093,62.50000200000001,0.5075995797636,0.791019025312608,1684,-90.0,97,GPS_Atti,
0.357328072717467,36.8942296064013,18300,2017-11-10 08:38:10,1834.4222999015092,63.000002015999996,0.0,0.7242690231766079,1834.4222999015092,63.000002015999996,0.5075995797636,0.791019025312608,1684,-90.0,97,GPS_Atti,
0.35732811755270294,36.894229671654394,18400,2017-11-10 08:38:10,1834.9222999175095,63.500002032,0.0,0.726254023240128,1834.9222999175095,63.500002032,0.5075995797636,0.791019025312608,1684,-90.0,97,GPS_Atti,
0.357328140971254,36.8942297509591,18500,2017-11-10 08:38:10,1835.4222999335093,64.000002048,0.0,0.731088023394816,1835.4222999335093,64.000002048,0.5075995797636,0.791019025312608,1684,-90.0,97,GPS_Atti,
0.357328170636822,36.894229779476106,18600,2017-11-10 08:38:10,1835.9222999495094,64.500002064,0.0,0.73129002340128,1835.9222999495094,64.500002064,0.5075995797636,0.791019025312608,1684,-89.9,97,GPS_Atti,
0.357328200812602,36.8942298399369,18700,2017-11-10 08:38:11,1836.4222999655094,65.00000208,0.0,0.7341750234936001,1836.4222999655094,65.00000208,0.5075995797636,0.791019025312608,1684,-90.0,97,GPS_Atti,
0.35732825039057897,36.8942298531356,18800,2017-11-10 08:38:11,1836.9222999815092,65.500002096,0.0,0.731717023414944,1836.9222999815092,65.500002096,0.5075995797636,0.791019025312608,1684,-89.9,97,GPS_Atti,
0.35732826355715996,36.894229938798105,18900,2017-11-10 08:38:11,1837.4222999975093,66.000002112,0.0,0.7380810236185921,1837.4222999975093,66.000002112,0.5075995797636,0.791019025312608,1684,-89.9,97,GPS_Atti,
0.357328286354358,36.894229981828104,19000,2017-11-10 08:38:11,1837.9223000135094,66.500002128,0.0,0.7401640236852479,1837.9223000135094,66.500002128,0.5075995797636,0.791019025312608,1684,-90.0,97,GPS_Atti,
0.357328298507537,36.8942300797041,19100,2017-11-10 08:38:11,1838.4223000295094,67.00000214399999,0.0,0.7477770239288641,1838.4223000295094,67.00000214399999,0.5075995797636,0.791019025312608,1684,-90.0,97,GPS_Atti,
0.35732833127478203,36.894230121424606,19200,2017-11-10 08:38:11,1838.9223000455092,67.50000216000001,0.0,0.7491460239726722,1838.9223000455092,67.50000216000001,0.5075995797636,0.791019025312608,1684,-90.0,97,GPS_Atti,
0.357328339899123,36.89423020054,19300,2017-11-10 08:38:11,1839.4223000615093,68.00000217600001,0.0,0.7554890241756479,1839.4223000615093,68.00000217600001,0.5075995797636,0.791019025312608,1684,-90.0,97,GPS_Atti,
0.35732837072444795,36.894230225167604,19400,2017-11-10 08:38:11,1839.8223000743094,68.4000021888,0.0,0.755569024178208,1839.8223000743094,68.4000021888,0.5075995797636,0.791019025312608,1684,-90.0,97,GPS_Atti,
0.357328409947659,36.8942302854526,19500,2017-11-10 08:38:11,1840.3223000903095,68.9000022048,0.0,0.7582800242649601,1840.3223000903095,68.9000022048,0.5075995797636,0.791019025312608,1684,-90.0,97,GPS_Atti,
0.35732845869065205,36.894230298443496,19600,2017-11-10 08:38:11,1840.8223001063093,69.4000022208,0.0,0.756203024198496,1840.8223001063093,69.4000022208,0.5075995797636,0.791019025312608,1684,-90.0,97,GPS_Atti,
0.357328492307232,36.894230356972706,19700,2017-11-10 08:38:12,1841.4223001255093,70.00000224,0.0,0.7592480242959361,1841.4223001255093,70.00000224,0.5075995797636,0.791019025312608,1684,-90.0,97,GPS_Atti,
0.357328533465951,36.894230363386995,19800,2017-11-10 08:38:12,1841.9223001415094,70.50000225600002,0.0,0.7571500242288,1841.9223001415094,70.50000225600002,0.5075995797636,0.791019025312608,1684,-89.9,97,GPS_Atti,
0.35732857259226897,36.8942304579955,19900,2017-11-10 08:38:12,1842.4223001575092,71.000002272,0.0,0.763229024423328,1842.4223001575092,71.000002272,0.5075995797636,0.791019025312608,1684,-89.9,97,GPS_Atti,
0.357328623406236,36.8942304964507,20000,2017-11-10 08:38:12,1842.9223001735095,71.500002288,0.0,0.7635360244331522,1842.9223001735095,71.500002288,0.5075995797636,0.791019025312608,1684,-89.9,97,GPS_Atti,
0.35732872434859403,36.8942306293359,20200,2017-11-10 08:38:12,1843.9223002055094,72.50000232,0.0,0.7695990246271679,1843.9223002055094,72.50000232,0.5075995797636,0.791019025312608,1684,-89.9,97,GPS_Atti,
0.357328745368244,36.8942307315366,20300,2017-11-10 08:38:12,1844.4223002215094,73.00000233600001,0.0,0.777892024892544,1844.4223002215094,73.00000233600001,0.5075995797636,0.791019025312608,1684,-90.0,97,GPS_Atti,
0.35732876750500603,36.8942307868534,20400,2017-11-10 08:38:12,1844.9223002375095,73.50000235200001,0.0,0.7817800250169601,1844.9223002375095,73.50000235200001,0.5075995797636,0.791019025312608,1684,-90.0,97,GPS_Atti,
0.35732878317582795,36.8942308772805,20500,2017-11-10 08:38:12,1845.4223002535093,74.00000236800001,0.0,0.789406025260992,1845.4223002535093,74.00000236800001,0.5075995797636,0.791019025312608,1684,-90.0,97,GPS_Atti,
0.35732881440429504,36.8942308802442,20600,2017-11-10 08:38:12,1845.9223002695092,74.500002384,0.35999970196000003,0.7878750252120001,1845.9223002695092,74.500002384,0.5075995797636,0.791019025312608,1684,-90.0,97,GPS_Atti,
0.35732882471702704,36.894230901084704,20700,2017-11-10 08:38:13,1846.4223002855094,75.0000024,0.35999970196000003,0.7892610252563521,1846.4223002855094,75.0000024,0.5075995797636,0.791019025312608,1684,-89.9,97,GPS_Atti,
0.35732885394393293,36.8942308623288,20800,2017-11-10 08:38:13,1846.9223003015093,75.50000241600002,0.35999970196000003,0.783891025084512,1846.9223003015093,75.50000241600002,0.5075995797636,0.791019025312608,1684,-89.9,97,GPS_Atti,
0.35732889289193703,36.8942308914292,20900,2017-11-10 08:38:13,1847.4223003175093,76.000002432,0.35999970196000003,0.78444002510208,1847.4223003175093,76.000002432,0.5075995797636,0.791019025312608,1684,-90.0,97,GPS_Atti,
0.357328953550611,36.8942308742302,21000,2017-11-10 08:38:13,1847.9223003335094,76.500002448,0.35999970196000003,0.779362024939584,1847.9223003335094,76.500002448,0.5075995797636,0.791019025312608,1684,-90.0,97,GPS_Atti,
0.357329011424849,36.8942309539511,21100,2017-11-10 08:38:13,1848.4223003495094,77.000002464,0.35999970196000003,0.7838170250821441,1848.4223003495094,77.000002464,0.5075995797636,0.791019025312608,1684,-89.9,97,GPS_Atti,
0.357329110433226,36.8942310242561,21300,2017-11-10 08:38:13,1849.4223003815096,78.00000249600001,0.35999970196000003,0.7852780251288961,1849.4223003815096,78.00000249600001,0.5075995797636,0.791019025312608,1684,-89.9,97,GPS_Atti,
0.35732916233794504,36.894231022808704,21400,2017-11-10 08:38:13,1849.9223003975094,78.500002512,0.35999970196000003,0.7823820250362241,1849.9223003975094,78.500002512,0.5075995797636,0.791019025312608,1684,-90.0,97,GPS_Atti,
0.357329217888597,36.8942310980497,21500,2017-11-10 08:38:13,1850.3223004103093,78.9000025248,0.35999970196000003,0.78687502518,1850.3223004103093,78.9000025248,0.5075995797636,0.791019025312608,1684,-89.9,97,GPS_Atti,
0.35732928331566,36.894231106941,21600,2017-11-10 08:38:13,1850.8223004263093,79.4000025408,0.35999970196000003,0.784407025101024,1850.8223004263093,79.4000025408,0.5075995797636,0.791019025312608,1684,-90.0,97,GPS_Atti,
0.35732929275697095,36.8942311569449,21700,2017-11-10 08:38:14,1851.3223004423094,79.9000025568,0.35999970196000003,0.78888502524432,1851.3223004423094,79.9000025568,0.5075995797636,0.791019025312608,1684,-89.9,97,GPS_Atti,
0.35732931649805605,36.8942311406335,21800,2017-11-10 08:38:14,1851.8223004583094,80.4000025728,0.35999970196000003,0.7860750251544001,1851.8223004583094,80.4000025728,0.5075995797636,0.791019025312608,1684,-89.9,97,GPS_Atti,
0.357329342932129,36.8942312086159,21900,2017-11-10 08:38:14,1852.3223004743093,80.9000025888,0.35999970196000003,0.791524025328768,1852.3223004743093,80.9000025888,0.5075995797636,0.791524025328768,1684,-90.0,97,GPS_Atti,
0.35732943152848995,36.8942313681855,22100,2017-11-10 08:38:14,1853.3223005063094,81.9000026208,0.35999970196000003,0.803234025703488,1853.3223005063094,81.9000026208,0.5075995797636,0.803234025703488,1684,-90.0,97,GPS_Atti,
0.35732949333427505,36.8942314344169,22200,2017-11-10 08:38:14,1853.8223005223092,82.40000263680001,0.0,0.807037025825184,1853.8223005223092,82.40000263680001,0.5075995797636,0.807037025825184,1684,-90.0,97,GPS_Atti,
0.357329541232513,36.8942315559246,22300,2017-11-10 08:38:14,1854.3223005383093,82.9000026528,0.0,0.8171960261502721,1854.3223005383093,82.9000026528,0.5075995797636,0.8171960261502721,1684,-90.0,97,GPS_Atti,
0.35732959737448106,36.894231611577204,22400,2017-11-10 08:38:14,1854.8223005543093,83.4000026688,0.0,0.820389026252448,1854.8223005543093,83.4000026688,0.5075995797636,0.820389026252448,1684,-89.9,97,GPS_Atti,
0.357329621872614,36.8942317757608,22600,2017-11-10 08:38:14,1855.8223005863092,84.4000027008,0.35999970196000003,0.8361590267570881,1855.8223005863092,84.4000027008,0.5075995797636,0.8361590267570881,1684,-89.9,97,GPS_Atti,
0.357329636139336,36.894231846149395,22700,2017-11-10 08:38:15,1856.3223006023095,84.9000027168,0.35999970196000003,0.8427950269694399,1856.3223006023095,84.9000027168,0.5075995797636,0.8427950269694399,1684,-89.9,97,GPS_Atti,
0.357329668901861,36.894231859113795,22800,2017-11-10 08:38:15,1856.8223006183093,85.4000027328,0.35999970196000003,0.8427630269684161,1856.8223006183093,85.4000027328,0.5075995797636,0.8427950269694399,1684,-89.9,97,GPS_Atti,
0.357329697019675,36.8942319131399,22900,2017-11-10 08:38:15,1857.3223006343092,85.9000027488,0.35999970196000003,0.8471840271098879,1857.3223006343092,85.9000027488,0.5075995797636,0.8471840271098879,1684,-89.9,97,GPS_Atti,
0.35732973850015104,36.89423191501071,23000,2017-11-10 08:38:15,1857.8223006503094,86.40000276479999,0.35999970196000003,0.8456920270621442,1857.8223006503094,86.40000276479999,0.5075995797636,0.8471840271098879,1684,-90.0,97,GPS_Atti,
0.357329748418307,36.8942319805589,23100,2017-11-10 08:38:15,1858.3223006663093,86.9000027808,0.35999970196000003,0.852091027266912,1858.3223006663093,86.9000027808,0.5075995797636,0.852091027266912,1684,-89.9,97,GPS_Atti,
0.357329766790807,36.8942319889023,23200,2017-11-10 08:38:15,1858.8223006823093,87.40000279680001,0.35999970196000003,0.8522270272712641,1858.8223006823093,87.40000279680001,0.5075995797636,0.8522270272712641,1684,-89.9,97,GPS_Atti,
0.357329780180243,36.8942320558617,23300,2017-11-10 08:38:15,1859.3223006983092,87.9000028128,0.35999970196000003,0.858662027477184,1859.3223006983092,87.9000028128,0.5075995797636,0.858662027477184,1684,-89.9,97,GPS_Atti,
0.35732981189498103,36.8942320709858,23400,2017-11-10 08:38:15,1859.8223007143094,88.4000028288,0.35999970196000003,0.8590030274880962,1859.8223007143094,88.4000028288,0.5075995797636,0.8590030274880962,1684,-89.9,97,GPS_Atti,
0.357329845891898,36.8942321698865,23500,2017-11-10 08:38:15,1860.3223007303093,88.9000028448,0.35999970196000003,0.8680300277769599,1860.3223007303093,88.9000028448,0.5075995797636,0.8680300277769599,1684,-89.9,97,GPS_Atti,
0.3573298811574121,36.894232322360395,23700,2017-11-10 08:38:16,1861.3223007623094,89.9000028768,0.35999970196000003,0.8826940282462081,1861.3223007623094,89.9000028768,0.5075995797636,0.8826940282462081,1684,-90.0,97,GPS_Atti,
0.35732987248536796,36.8942323614932,23800,2017-11-10 08:38:16,1861.8223007783092,90.4000028928,0.35999970196000003,0.88712002838784,1861.8223007783092,90.4000028928,0.5075995797636,0.88712002838784,1684,-89.9,97,GPS_Atti,
0.35732983733129503,36.894232449550294,23900,2017-11-10 08:38:16,1862.3223007943093,90.9000029088,0.35999970196000003,0.897654028724928,1862.3223007943093,90.9000029088,0.5075995797636,0.897654028724928,1675,-89.9,97,GPS_Atti,
0.35732982262306506,36.8942324702918,24000,2017-11-10 08:38:16,1862.8223008103093,91.40000292479999,0.35999970196000003,0.9003710288118721,1862.8223008103093,91.40000292479999,0.5075995797636,0.9003710288118721,1519,-89.9,97,GPS_Atti,
0.357329818849811,36.894232543689796,24100,2017-11-10 08:38:16,1863.3223008263094,91.9000029408,0.35999970196000003,0.9082160290629121,1863.3223008263094,91.9000029408,0.5075995797636,0.9082160290629121,1307,-89.9,96,GPS_Atti,
0.357329844509502,36.8942325532923,24200,2017-11-10 08:38:16,1863.8223008423092,92.40000295680002,0.35999970196000003,0.908293029065376,1863.8223008423092,92.40000295680002,0.5075995797636,0.908293029065376,1024,-89.9,96,GPS_Atti,
0.35732985377700893,36.894232650786,24300,2017-11-10 08:38:16,1864.2223008551093,92.8000029696,0.35999970196000003,0.918222029383104,1864.2223008551093,92.8000029696,0.5075995797636,0.918222029383104,1024,-90.0,96,GPS_Atti,
0.357329870891529,36.89423268904,24400,2017-11-10 08:38:16,1864.6223008679092,93.20000298240001,0.35999970196000003,0.9216470294927039,1864.6223008679092,93.20000298240001,0.5075995797636,0.9216470294927039,1024,-90.0,96,GPS_Atti,
0.357329887163953,36.8942327929262,24500,2017-11-10 08:38:16,1864.9223008775093,93.500002992,0.35999970196000003,0.93204502982544,1864.9223008775093,93.500002992,0.5075995797636,0.93204502982544,1024,-90.0,96,GPS_Atti,
0.357329903998781,36.8942328367217,24600,2017-11-10 08:38:16,1865.1223008839095,93.70000299840001,0.35999970196000003,0.9360950299550401,1865.1223008839095,93.70000299840001,0.5075995797636,0.9360950299550401,1024,-90.0,96,GPS_Atti,
0.357329894571401,36.8942329019679,24700,2017-11-10 08:38:17,1865.3223008903094,93.9000030048,0.35999970196000003,0.943321030186272,1865.3223008903094,93.9000030048,0.5075995797636,0.943321030186272,1024,-90.0,96,GPS_Atti,
0.35732988390369297,36.8942328997965,24800,2017-11-10 08:38:17,1865.3223008903094,93.9000030048,0.35999970196000003,0.9434570301906241,1865.3223008903094,93.9000030048,0.5075995797636,0.9434570301906241,1024,-90.0,96,GPS_Atti,
0.357329847431325,36.894232954417795,24900,2017-11-10 08:38:17,1865.4223008935091,94.00000300800001,0.35999970196000003,0.9504870304155839,1865.4223008935091,94.00000300800001,0.5075995797636,0.9504870304155839,1024,-90.0,96,GPS_Atti,
0.3573298394325539,36.894232940037,25000,2017-11-10 08:38:17,1865.4223008935091,94.00000300800001,0.7199994039200001,0.9492440303758081,1865.4223008935091,94.00000300800001,0.7199994039200001,0.9504870304155839,1024,-89.9,96,GPS_Atti,
0.35732994832151505,36.894232891185396,25200,2017-11-10 08:38:17,1865.4223008935091,94.00000300800001,1.07999910588,0.9403600300915201,1865.4223008935091,94.00000300800001,1.07999910588,0.9504870304155839,1024,-89.9,96,GPS_Atti,
0.35733006396168704,36.8942328528358,25300,2017-11-10 08:38:17,1865.4223008935091,94.00000300800001,1.07999910588,0.9324790298393281,1865.4223008935091,94.00000300800001,1.07999910588,0.9504870304155839,1024,-89.9,96,GPS_Atti,
0.35733021443953095,36.89423277827971,25400,2017-11-10 08:38:17,1865.4223008935091,94.00000300800001,1.07999910588,0.919786029433152,1865.4223008935091,94.00000300800001,1.07999910588,0.9504870304155839,1024,-89.9,96,GPS_Atti,
0.357330650105346,36.8942327333416,25600,2017-11-10 08:38:18,1865.4223008935091,94.00000300800001,0.7199994039200001,0.9027310288873922,1865.4223008935091,94.00000300800001,1.07999910588,0.9504870304155839,1024,-90.0,96,GPS_Atti,
0.35733120149444797,36.8942328611361,25800,2017-11-10 08:38:18,1865.4223008935091,94.00000300800001,0.35999970196000003,0.904793028953376,1865.4223008935091,94.00000300800001,1.07999910588,0.9504870304155839,1024,-90.0,96,GPS_Atti,
0.357331497979751,36.8942330360254,25900,2017-11-10 08:38:18,1865.4223008935091,94.00000300800001,0.35999970196000003,0.9194250294216001,1865.4223008935091,94.00000300800001,1.07999910588,0.9504870304155839,1024,-90.0,96,GPS_Atti,
0.35733181223361604,36.894233167361,26000,2017-11-10 08:38:18,1865.4223008935091,94.00000300800001,0.5075995797636,0.9304040297729281,1865.4223008935091,94.00000300800001,1.07999910588,0.9504870304155839,1024,-90.0,96,GPS_Atti,
0.35733214681107395,36.8942334347948,26100,2017-11-10 08:38:18,1865.4223008935091,94.00000300800001,0.35999970196000003,0.9578040306497281,1865.4223008935091,94.00000300800001,1.07999910588,0.9578040306497281,1024,-90.0,96,GPS_Atti,
0.3573324830729529,36.8942336533953,26200,2017-11-10 08:38:18,1865.5223008967093,94.1000030112,0.35999970196000003,0.9813130314020161,1865.5223008967093,94.1000030112,1.07999910588,0.9813130314020161,1024,-89.9,96,GPS_Atti,
0.35733276731988795,36.894233989948795,26300,2017-11-10 08:38:18,1865.5223008967093,94.1000030112,0.35999970196000003,1.01917003261344,1865.5223008967093,94.1000030112,1.07999910588,1.01917003261344,1024,-90.0,96,GPS_Atti,
0.357333050695402,36.8942342580997,26400,2017-11-10 08:38:18,1865.4223008935091,94.00000300800001,0.35999970196000003,1.0503500336112,1865.5223008967093,94.1000030112,1.07999910588,1.0503500336112,1024,-90.0,96,GPS_Atti,
0.35733357323946796,36.8942348545091,26600,2017-11-10 08:38:18,1865.4223008935091,94.00000300800001,0.35999970196000003,1.12126003588032,1865.5223008967093,94.1000030112,1.07999910588,1.12126003588032,1024,-89.9,96,GPS_Atti,
0.35733379283839795,36.8942352118697,26700,2017-11-10 08:38:19,1865.4223008935091,94.00000300800001,0.35999970196000003,1.1635500372336,1865.5223008967093,94.1000030112,1.07999910588,1.1635500372336,1024,-90.0,96,GPS_Atti,
0.35733401658701097,36.8942354713851,26800,2017-11-10 08:38:19,1865.4223008935091,94.00000300800001,0.35999970196000003,1.1954500382544002,1865.5223008967093,94.1000030112,1.07999910588,1.1954500382544002,1024,-90.0,96,GPS_Atti,
0.357334418572482,36.894236043734004,27000,2017-11-10 08:38:19,1865.4223008935091,94.00000300800001,0.35999970196000003,1.2652600404883199,1865.5223008967093,94.1000030112,1.07999910588,1.2652600404883199,1024,-90.0,96,GPS_Atti,
0.357334616402373,36.8942363597154,27100,2017-11-10 08:38:19,1865.4223008935091,94.00000300800001,0.35999970196000003,1.3037000417184001,1865.5223008967093,94.1000030112,1.07999910588,1.3037000417184001,1024,-90.0,96,GPS_Atti,
0.357334818263476,36.8942365737037,27200,2017-11-10 08:38:19,1865.4223008935091,94.00000300800001,0.35999970196000003,1.33128004260096,1865.5223008967093,94.1000030112,1.07999910588,1.33128004260096,1024,-90.0,96,GPS_Atti,
0.357334968241947,36.894236850872296,27300,2017-11-10 08:38:19,1865.4223008935091,94.00000300800001,0.35999970196000003,1.36479004367328,1865.5223008967093,94.1000030112,1.07999910588,1.36479004367328,1024,-90.0,96,GPS_Atti,
0.35733510608565994,36.89423702679711,27400,2017-11-10 08:38:19,1865.4223008935091,94.00000300800001,0.35999970196000003,1.3870800443865603,1865.5223008967093,94.1000030112,1.07999910588,1.3870800443865603,1024,-90.0,96,GPS_Atti,
0.35733524595637894,36.894237317215904,27500,2017-11-10 08:38:19,1865.4223008935091,94.00000300800001,0.35999970196000003,1.4219400455020799,1865.5223008967093,94.1000030112,1.07999910588,1.4219400455020799,1024,-89.9,96,GPS_Atti,
0.35733538062788395,36.8942374880318,27600,2017-11-10 08:38:19,1865.4223008935091,94.00000300800001,0.0,1.44374004619968,1865.5223008967093,94.1000030112,1.07999910588,1.44374004619968,1024,-89.9,96,GPS_Atti,
0.35733548091723605,36.8942377688864,27700,2017-11-10 08:38:20,1865.5223008967093,94.1000030112,0.35999970196000003,1.47668004725376,1865.5223008967093,94.1000030112,1.07999910588,1.47668004725376,1024,-90.0,96,GPS_Atti,
0.35733556680951395,36.8942379368685,27800,2017-11-10 08:38:20,1865.5223008967093,94.1000030112,0.35999970196000003,1.4970400479052801,1865.5223008967093,94.1000030112,1.07999910588,1.4970400479052801,1024,-89.9,96,GPS_Atti,
0.357335661723373,36.89423817919929,27900,2017-11-10 08:38:20,1865.5223008967093,94.1000030112,0.35999970196000003,1.5256800488217601,1865.5223008967093,94.1000030112,1.07999910588,1.5256800488217601,1024,-90.0,96,GPS_Atti,
0.35733575327734396,36.8942382955304,28000,2017-11-10 08:38:20,1865.4223008935091,94.00000300800001,0.35999970196000003,1.5406400493004802,1865.5223008967093,94.1000030112,1.07999910588,1.5406400493004802,1024,-89.9,96,GPS_Atti,
0.35733583150901504,36.8942385147801,28100,2017-11-10 08:38:20,1865.4223008935091,94.00000300800001,0.35999970196000003,1.56638005012416,1865.5223008967093,94.1000030112,1.07999910588,1.56638005012416,1024,-90.0,96,GPS_Atti,
0.357335895049678,36.8942386092636,28200,2017-11-10 08:38:20,1865.4223008935091,94.00000300800001,0.35999970196000003,1.57827005050464,1865.5223008967093,94.1000030112,1.07999910588,1.57827005050464,1024,-89.9,96,GPS_Atti,
0.35733595106204497,36.8942387773955,28300,2017-11-10 08:38:20,1865.4223008935091,94.00000300800001,0.35999970196000003,1.5979100511331201,1865.5223008967093,94.1000030112,1.07999910588,1.5979100511331201,1024,-90.0,96,GPS_Atti,
0.357335991260185,36.8942388352945,28400,2017-11-10 08:38:20,1865.4223008935091,94.00000300800001,0.7199994039200001,1.60524005136768,1865.5223008967093,94.1000030112,1.07999910588,1.60524005136768,1024,-90.0,96,GPS_Atti,
0.35733601172931895,36.8942389929635,28500,2017-11-10 08:38:20,1865.4223008935091,94.00000300800001,0.7199994039200001,1.6228000519296002,1865.5223008967093,94.1000030112,1.07999910588,1.6228000519296002,1024,-89.9,96,GPS_Atti,
0.357336014635684,36.8942390224478,28600,2017-11-10 08:38:20,1865.4223008935091,94.00000300800001,0.7199994039200001,1.6260600520339201,1865.5223008967093,94.1000030112,1.07999910588,1.6260600520339201,1024,-90.0,96,GPS_Atti,
0.357336019629308,36.8942391433011,28700,2017-11-10 08:38:21,1865.4223008935091,94.00000300800001,0.7199994039200001,1.6392400524556798,1865.5223008967093,94.1000030112,1.07999910588,1.6392400524556798,1024,-90.0,96,GPS_Atti,
0.35733601582974106,36.894239170501706,28800,2017-11-10 08:38:21,1865.4223008935091,94.00000300800001,0.7199994039200001,1.6420800525465602,1865.5223008967093,94.1000030112,1.07999910588,1.6420800525465602,1024,-89.9,96,GPS_Atti,
0.3573359745120461,36.894239303792205,28900,2017-11-10 08:38:21,1865.4223008935091,94.00000300800001,0.7199994039200001,1.6554000529728001,1865.5223008967093,94.1000030112,1.07999910588,1.6554000529728001,1024,-89.9,96,GPS_Atti,
0.357335922560611,36.8942393390748,29000,2017-11-10 08:38:21,1865.4223008935091,94.00000300800001,0.7199994039200001,1.65788005305216,1865.5223008967093,94.1000030112,1.07999910588,1.65788005305216,1024,-89.9,96,GPS_Atti,
0.35733584945039704,36.8942395267237,29100,2017-11-10 08:38:21,1865.4223008935091,94.00000300800001,0.35999970196000003,1.6763700536438402,1865.5223008967093,94.1000030112,1.07999910588,1.6763700536438402,1024,-89.9,96,GPS_Atti,
0.35733578356558793,36.8942396559191,29200,2017-11-10 08:38:21,1865.4223008935091,94.00000300800001,0.35999970196000003,1.68878005404096,1865.5223008967093,94.1000030112,1.07999910588,1.68878005404096,1024,-89.9,96,GPS_Atti,
0.35733562737093894,36.8942401653864,29400,2017-11-10 08:38:21,1865.4223008935091,94.00000300800001,0.0,1.74059005569888,1865.5223008967093,94.1000030112,1.07999910588,1.74059005569888,1024,-89.9,96,GPS_Atti,
0.357335564965709,36.894240536305496,29500,2017-11-10 08:38:21,1865.4223008935091,94.00000300800001,0.0,1.7796800569497602,1865.5223008967093,94.1000030112,1.07999910588,1.7796800569497602,1024,-89.9,96,GPS_Atti,
0.35733552355722703,36.8942408290625,29600,2017-11-10 08:38:21,1865.4223008935091,94.00000300800001,0.0,1.8107800579449602,1865.5223008967093,94.1000030112,1.07999910588,1.8107800579449602,1024,-89.9,96,GPS_Atti,
0.357335410617308,36.8942412287807,29700,2017-11-10 08:38:22,1865.4223008935091,94.00000300800001,0.35999970196000003,1.85224005927168,1865.5223008967093,94.1000030112,1.07999910588,1.85224005927168,1024,-90.0,96,GPS_Atti,
0.35733530008341496,36.8942415666045,29800,2017-11-10 08:38:22,1865.4223008935091,94.00000300800001,0.35999970196000003,1.88717006038944,1865.5223008967093,94.1000030112,1.07999910588,1.88717006038944,1024,-90.0,96,GPS_Atti,
0.357335145291671,36.8942420138904,29900,2017-11-10 08:38:22,1865.4223008935091,94.00000300800001,0.35999970196000003,1.9335500618736001,1865.5223008967093,94.1000030112,1.07999910588,1.9335500618736001,1024,-90.0,96,GPS_Atti,
0.35733501655380895,36.8942423651748,30000,2017-11-10 08:38:22,1865.4223008935091,94.00000300800001,0.35999970196000003,1.97009006304288,1865.5223008967093,94.1000030112,1.07999910588,1.97009006304288,1024,-90.0,96,GPS_Atti,
0.3573348380702411,36.8942427838886,30100,2017-11-10 08:38:22,1865.4223008935091,94.00000300800001,0.35999970196000003,2.01353006443296,1865.5223008967093,94.1000030112,1.07999910588,2.01353006443296,1024,-90.0,96,GPS_Atti,
0.357334694221233,36.8942430934893,30200,2017-11-10 08:38:22,1865.4223008935091,94.00000300800001,0.0,2.0457000654624,1865.5223008967093,94.1000030112,1.07999910588,2.0457000654624,1024,-89.9,96,GPS_Atti,
0.357334518582149,36.8942434195504,30300,2017-11-10 08:38:22,1865.4223008935091,94.00000300800001,0.0,2.0795100665443202,1865.5223008967093,94.1000030112,1.07999910588,2.0795100665443202,1024,-89.9,96,GPS_Atti,
0.357334393833975,36.8942436387081,30400,2017-11-10 08:38:22,1865.4223008935091,94.00000300800001,0.0,2.1023000672736,1865.5223008967093,94.1000030112,1.07999910588,2.1023000672736,1024,-90.0,96,GPS_Atti,
0.357334244239817,36.8942439385321,30500,2017-11-10 08:38:22,1865.4223008935091,94.00000300800001,0.0,2.1339000682848,1865.5223008967093,94.1000030112,1.07999910588,2.1339000682848,1024,-90.0,96,GPS_Atti,
0.357334127303289,36.894244063468705,30600,2017-11-10 08:38:23,1865.4223008935091,94.00000300800001,0.7199994039200001,2.1466000686912,1865.5223008967093,94.1000030112,1.07999910588,2.1466000686912,1024,-89.9,96,GPS_Atti,
