latitude,longitude,time_millisecond,datetime_utc,altitude_m,ascent_m,speed_kph,distance_m,max_altitude_m,max_ascent_m,max_speed_kph,max_distance_m,rc_throttle,gimbal_pitch_degrees,battery_percent,flycState,message
0.354547610896403,36.887997035518,0,2018-04-19 05:32:03,1771.9742999031796,0.0,0.0,0.0,1771.9742999031796,0.0,0.0,0.0,364,0.0,100,P-GPS,
0.354547603713337,36.8879969982436,100,2018-04-19 05:32:03,1771.9742999031796,0.0,0.0,0.00422134013508288,1771.9742999031796,0.0,0.0,0.00422134013508288,364,0.0,100,Motors_Started,
0.354547597188162,36.8879969707838,200,2018-04-19 05:32:03,1771.9742999031796,0.0,0.0,0.007358350235467201,1771.9742999031796,0.0,0.0,0.007358350235467201,369,0.0,100,Motors_Started,
0.354547592133471,36.8879969458667,300,2018-04-19 05:32:03,1771.9742999031796,0.0,0.0,0.0101856003259392,1771.9742999031796,0.0,0.0,0.0101856003259392,993,0.0,100,Motors_Started,
0.354547588972662,36.887996892704,400,2018-04-19 05:32:04,1771.9742999031796,0.0,0.0,0.01606750051416,1771.9742999031796,0.0,0.0,0.01606750051416,1024,0.0,100,Motors_Started,
0.354547586906166,36.8879968477828,500,2018-04-19 05:32:04,1771.9742999031796,0.0,0.0,0.0210467006734944,1771.9742999031796,0.0,0.0,0.0210467006734944,1024,0.0,100,Motors_Started,
0.354547586863827,36.8879968213252,600,2018-04-19 05:32:04,1771.9742999031796,0.0,0.0,0.0239686007669952,1771.9742999031796,0.0,0.0,0.0239686007669952,1024,0.0,100,Motors_Started,
0.354547586549537,36.8879967940838,700,2018-04-19 05:32:04,1771.9742999031796,0.0,0.0,0.0269846008635072,1771.9742999031796,0.0,0.0,0.0269846008635072,1024,0.0,100,Motors_Started,Setting new Return-To-Home altitude to 30m (98 ft). Data Recorder File Index is 324. Setting new Maximum Flight Altitude to 150m (492 ft)
0.354547587858806,36.8879967451591,800,2018-04-19 05:32:04,1771.9742999031796,0.0,0.0,0.032390501036496,1771.9742999031796,0.0,0.0,0.032390501036496,1024,0.0,100,Motors_Started,
0.354547588614404,36.887996700353,900,2018-04-19 05:32:04,1771.9742999031796,0.0,0.0,0.037354001195328,1771.9742999031796,0.0,0.0,0.037354001195328,1024,0.0,100,Motors_Started,
0.354547590807918,36.8879966820463,1000,2018-04-19 05:32:04,1771.9742999031796,0.0,0.0,0.03937090125986881,1771.9742999031796,0.0,0.0,0.03937090125986881,1024,0.0,100,Motors_Started,
0.354547592551982,36.887996658924,1100,2018-04-19 05:32:04,1771.9742999031796,0.0,0.0,0.041928401341708804,1771.9742999031796,0.0,0.0,0.041928401341708804,1024,0.0,100,Motors_Started,
0.354547595908205,36.8879966611616,1200,2018-04-19 05:32:04,1771.9742999031796,0.0,0.0,0.04166330133322561,1771.9742999031796,0.0,0.0,0.041928401341708804,1024,0.0,100,Motors_Started,
0.354547597683209,36.8879966515171,1300,2018-04-19 05:32:05,1771.9742999031796,0.0,0.0,0.0427277013672864,1771.9742999031796,0.0,0.0,0.0427277013672864,1024,0.0,100,Motors_Started,
0.354547639346948,36.8879966643884,1400,2018-04-19 05:32:05,1771.9742999031796,0.0,0.0,0.0413922013245504,1771.9742999031796,0.0,0.0,0.0427277013672864,1024,0.0,100,Motors_Started,
0.354547671896287,36.887996664209,1500,2018-04-19 05:32:05,1771.9742999031796,0.0,0.0,0.041844501339024,1771.9742999031796,0.0,0.0,0.0427277013672864,1024,0.0,100,Motors_Started,
0.354547697630587,36.8879966807257,1600,2018-04-19 05:32:05,1771.9742999031796,0.0,0.0,0.0406162012997184,1771.9742999031796,0.0,0.0,0.0427277013672864,1024,0.0,100,Assisted_Takeoff,
0.354547717465035,36.8879966859957,1700,2018-04-19 05:32:05,1771.9742999031796,0.0,0.0,0.040634801300313605,1771.9742999031796,0.0,0.0,0.0427277013672864,1024,0.0,100,Assisted_Takeoff,
0.354547729100268,36.8879967005189,1800,2018-04-19 05:32:05,1771.9742999031796,0.0,0.0,0.0395044012641408,1771.9742999031796,0.0,0.0,0.0427277013672864,1024,0.0,100,Assisted_Takeoff,
0.354547741351052,36.8879967056235,1900,2018-04-19 05:32:05,1771.9742999031796,0.0,0.0,0.0394499012623968,1771.9742999031796,0.0,0.0,0.0427277013672864,1024,0.0,100,Assisted_Takeoff,
0.354547779762789,36.887996719332,2000,2018-04-19 05:32:05,1771.9742999031796,0.0,0.0,0.0398617012755744,1771.9742999031796,0.0,0.0,0.0427277013672864,1024,0.0,100,Assisted_Takeoff,
0.354547812869055,36.88799672552,2100,2018-04-19 05:32:05,1771.9742999031796,0.0,0.0,0.041144501316624005,1771.9742999031796,0.0,0.0,0.0427277013672864,1024,0.0,100,Assisted_Takeoff,
0.354547832656278,36.8879967381675,2200,2018-04-19 05:32:05,1771.9742999031796,0.0,0.0,0.04125000132,1771.9742999031796,0.0,0.0,0.0427277013672864,1024,0.0,100,Assisted_Takeoff,
0.354547849777738,36.8879967440778,2300,2018-04-19 05:32:05,1771.9742999031796,0.0,0.0,0.04190540134097281,1771.9742999031796,0.0,0.0,0.0427277013672864,1024,0.0,100,Assisted_Takeoff,
0.354547853226783,36.887996754136,2400,2018-04-19 05:32:06,1771.9742999031796,0.0,0.0,0.041295801321465604,1771.9742999031796,0.0,0.0,0.0427277013672864,1024,0.0,100,Assisted_Takeoff,
0.354547859681935,36.887996759564,2500,2018-04-19 05:32:06,1771.9742999031796,0.0,0.0,0.04131750132216001,1771.9742999031796,0.0,0.0,0.0427277013672864,1024,0.0,100,Assisted_Takeoff,
0.354547855472407,36.8879967671085,2600,2018-04-19 05:32:06,1771.9742999031796,0.0,0.0,0.040381501292208,1771.9742999031796,0.0,0.0,0.0427277013672864,1024,0.0,100,Assisted_Takeoff,
0.354547856127042,36.8879967707715,2700,2018-04-19 05:32:06,1771.9742999031796,0.0,0.0,0.040130801284185606,1771.9742999031796,0.0,0.0,0.0427277013672864,1024,0.0,100,Assisted_Takeoff,
0.35454784827957,36.8879967758445,2800,2018-04-19 05:32:06,1771.9742999031796,0.0,0.0,0.039124701251990406,1771.9742999031796,0.0,0.0,0.0427277013672864,1024,0.0,100,Assisted_Takeoff,
0.354547845784794,36.8879967775575,2900,2018-04-19 05:32:06,1771.9742999031796,0.0,0.0,0.038797001241504,1771.9742999031796,0.0,0.0,0.0427277013672864,1034,0.0,100,Assisted_Takeoff,
0.354547797141543,36.8879967803373,3000,2018-04-19 05:32:06,1771.9742999031796,0.0,0.0,0.0351316011242112,1771.9742999031796,0.0,0.0,0.0427277013672864,1024,0.0,100,Assisted_Takeoff,
0.354547763260137,36.8879967806146,3100,2018-04-19 05:32:06,1771.9742999031796,0.0,0.0,0.0330243010567776,1771.9742999031796,0.0,0.0,0.0427277013672864,1024,0.0,100,Assisted_Takeoff,
0.354547732077063,36.8879967429012,3200,2018-04-19 05:32:06,1771.9742999031796,0.0,0.0,0.0352202011270464,1771.9742999031796,0.0,0.0,0.0427277013672864,1035,0.0,100,Assisted_Takeoff,
0.354547708552561,36.8879967121793,3300,2018-04-19 05:32:07,1771.9742999031796,0.0,0.0,0.037560801201945604,1771.9742999031796,0.0,0.0,0.0427277013672864,1067,0.0,100,Assisted_Takeoff,
0.354547689952474,36.8879967281874,3400,2018-04-19 05:32:07,1771.9742999031796,0.0,0.0,0.035289001129248,1771.9742999031796,0.0,0.0,0.0427277013672864,1082,0.0,100,Assisted_Takeoff,
0.354547675343703,36.887996738174,3500,2018-04-19 05:32:07,1771.9742999031796,0.0,0.0,0.033833601082675205,1771.9742999031796,0.0,0.0,0.0427277013672864,1110,0.0,100,Assisted_Takeoff,
0.354547667970108,36.8879967131182,3600,2018-04-19 05:32:07,1771.9742999031796,0.0,0.0,0.0364096011651072,1771.9742999031796,0.0,0.0,0.0427277013672864,1127,0.0,100,Assisted_Takeoff,
0.354547660909175,36.8879966914049,3700,2018-04-19 05:32:07,1771.9742999031796,0.0,0.0,0.0386688012374016,1771.9742999031796,0.0,0.0,0.0427277013672864,1172,0.0,100,Assisted_Takeoff,
0.35454766036039,36.8879966764669,3800,2018-04-19 05:32:07,1771.9742999031796,0.0,0.0,0.04030500128976001,1771.9742999031796,0.0,0.0,0.0427277013672864,1207,0.0,100,Assisted_Takeoff,
0.354547658232013,36.8879966641346,3900,2018-04-19 05:32:07,1771.9742999031796,0.0,0.0,0.0416334013322688,1771.9742999031796,0.0,0.0,0.0427277013672864,1247,0.0,100,Assisted_Takeoff,
0.354547622928976,36.8879966987283,4000,2018-04-19 05:32:07,1771.9742999031796,0.0,0.0,0.037476201199238404,1771.9742999031796,0.0,0.0,0.0427277013672864,1276,0.0,100,Assisted_Takeoff,
0.354547592744138,36.8879967230277,4100,2018-04-19 05:32:07,1771.9742999031796,0.0,0.0,0.0348088011138816,1771.9742999031796,0.0,0.0,0.0427277013672864,1286,0.0,100,Assisted_Takeoff,
0.354547611958149,36.887996758002,4200,2018-04-19 05:32:07,1771.9742999031796,0.0,0.0,0.030861100987555203,1771.9742999031796,0.0,0.0,0.0427277013672864,1303,0.0,100,Assisted_Takeoff,
0.354547634223863,36.8879967977131,4300,2018-04-19 05:32:07,1771.9742999031796,0.0,0.0,0.0265718008502976,1771.9742999031796,0.0,0.0,0.0427277013672864,1320,0.0,100,Assisted_Takeoff,
0.354547639162934,36.8879968088543,4400,2018-04-19 05:32:08,1771.9742999031796,0.0,0.0,0.025401200812838403,1771.9742999031796,0.0,0.0,0.0427277013672864,1326,0.0,100,P-GPS,Obstacle Avoided. Revise Flight Route
0.35454766951713,36.8879967832103,4500,2018-04-19 05:32:08,1771.9742999031796,0.0,0.0,0.028805000921760002,1771.9742999031796,0.0,0.0,0.0427277013672864,1315,0.0,100,P-GPS,
0.354547765859134,36.8879967458978,4600,2018-04-19 05:32:08,1772.0742999063793,0.1000000032,0.0,0.036527501168880004,1772.0742999063793,0.1000000032,0.0,0.0427277013672864,1317,0.0,100,P-GPS,
0.354547880457623,36.8879967269916,4700,2018-04-19 05:32:08,1772.1742999095795,0.2000000064,0.35999970196000003,0.0455603014579296,1772.1742999095795,0.2000000064,0.35999970196000003,0.0455603014579296,1349,0.0,100,P-GPS,
0.354548039341647,36.8879967416481,4800,2018-04-19 05:32:08,1772.2742999127795,0.3000000096,0.0,0.057776001848832005,1772.2742999127795,0.3000000096,0.35999970196000003,0.057776001848832005,1381,0.0,100,P-GPS,Home Point Recorded. RTH Altitude:  30m.
0.354548164170022,36.8879967526094,4900,2018-04-19 05:32:08,1772.3742999159795,0.4000000128,0.0,0.0691042022113344,1772.3742999159795,0.4000000128,0.35999970196000003,0.0691042022113344,1405,0.0,100,P-GPS,
0.354548267200045,36.8879968406029,5000,2018-04-19 05:32:08,1772.4742999191794,0.500000016,0.0,0.07613560243633921,1772.4742999191794,0.500000016,0.35999970196000003,0.07613560243633921,1431,0.0,100,P-GPS,
0.35454834220129,36.887996893947,5100,2018-04-19 05:32:08,1772.6742999255796,0.7000000224,0.0,0.0828354026507328,1772.6742999255796,0.7000000224,0.35999970196000003,0.0828354026507328,1460,0.0,100,P-GPS,Obstacle Avoided. Revise Flight Route
0.354548420438254,36.8879969828216,5200,2018-04-19 05:32:08,1772.7742999287796,0.8000000256,0.0,0.09021650288692801,1772.7742999287796,0.8000000256,0.35999970196000003,0.09021650288692801,1508,0.0,100,P-GPS,
0.354548502695845,36.8879970585755,5300,2018-04-19 05:32:09,1773.0742999383795,1.1000000352000001,0.0,0.0992067031746144,1773.0742999383795,1.1000000352000001,0.35999970196000003,0.0992067031746144,1520,0.0,100,P-GPS,
0.354548656433986,36.8879971195712,5400,2018-04-19 05:32:09,1773.2742999447796,1.3000000416000002,0.0,0.11664500373264002,1773.2742999447796,1.3000000416000002,0.35999970196000003,0.11664500373264002,1552,0.0,100,P-GPS,
0.35454880425599,36.8879971729298,5500,2018-04-19 05:32:09,1773.5742999543795,1.6000000512,0.0,0.133586004274752,1773.5742999543795,1.6000000512,0.35999970196000003,0.133586004274752,1566,0.0,100,P-GPS,
0.354548968901449,36.8879972884939,5600,2018-04-19 05:32:09,1773.8742999639794,1.9000000608000003,0.0,0.153616004915712,1773.8742999639794,1.9000000608000003,0.35999970196000003,0.153616004915712,1620,0.0,100,P-GPS,
0.354549113539844,36.8879974080657,5700,2018-04-19 05:32:09,1774.1742999735795,2.2000000704000002,0.0,0.172162005509184,1774.1742999735795,2.2000000704000002,0.35999970196000003,0.172162005509184,1667,0.0,100,P-GPS,
0.354549276599199,36.887997572122,5800,2018-04-19 05:32:09,1774.4742999831797,2.50000008,0.0,0.194611006227552,1774.4742999831797,2.50000008,0.35999970196000003,0.194611006227552,1667,0.0,100,P-GPS,
0.354549407879468,36.8879977095476,5900,2018-04-19 05:32:09,1774.8742999959795,2.9000000928,0.0,0.21343000682976,1774.8742999959795,2.9000000928,0.35999970196000003,0.21343000682976,1684,0.0,100,P-GPS,
0.354549598584917,36.8879978081299,6000,2018-04-19 05:32:09,1775.2743000087796,3.3000001056,0.0,0.23715400758892802,1775.2743000087796,3.3000001056,0.35999970196000003,0.23715400758892802,1684,0.0,100,P-GPS,
0.35454975748034,36.8879978787893,6100,2018-04-19 05:32:09,1775.7743000247794,3.8000001216000006,0.0,0.25647200820710403,1775.7743000247794,3.8000001216000006,0.35999970196000003,0.25647200820710403,1684,0.0,100,P-GPS,
0.354549859178296,36.88799791013,6200,2018-04-19 05:32:09,1776.1743000375795,4.200000134400001,0.0,0.268274008584768,1776.1743000375795,4.200000134400001,0.35999970196000003,0.268274008584768,1684,0.0,100,P-GPS,
0.354549956533191,36.8879979592303,6300,2018-04-19 05:32:09,1776.6743000535794,4.7000001504,0.0,0.28034600897107204,1776.6743000535794,4.7000001504,0.35999970196000003,0.28034600897107204,1684,0.0,100,P-GPS,
0.354550046708278,36.8879980186533,6400,2018-04-19 05:32:10,1777.1743000695797,5.200000166400001,0.0,0.292108009347456,1777.1743000695797,5.200000166400001,0.35999970196000003,0.292108009347456,1684,0.0,100,P-GPS,
0.35455013657396,36.8879981070215,6500,2018-04-19 05:32:10,1777.6743000855795,5.7000001824,0.0,0.305101009763232,1777.6743000855795,5.7000001824,0.35999970196000003,0.305101009763232,1684,0.0,100,P-GPS,
0.354550222640482,36.8879981982868,6600,2018-04-19 05:32:10,1778.1743001015795,6.200000198400001,0.0,0.31792501017360003,1778.1743001015795,6.200000198400001,0.35999970196000003,0.31792501017360003,1684,0.0,100,P-GPS,
0.354550309504942,36.8879982954986,6700,2018-04-19 05:32:10,1778.6743001175796,6.7000002144,0.0,0.33120001059840004,1778.6743001175796,6.7000002144,0.35999970196000003,0.33120001059840004,1684,0.0,100,P-GPS,
0.354550368361793,36.8879983894045,6800,2018-04-19 05:32:10,1779.1743001335794,7.200000230400001,0.0,0.341614010931648,1779.1743001335794,7.200000230400001,0.35999970196000003,0.341614010931648,1684,0.0,100,P-GPS,
0.35455043811782,36.8879984811788,6900,2018-04-19 05:32:10,1779.6743001495795,7.7000002464,0.0,0.353122011299904,1779.6743001495795,7.7000002464,0.35999970196000003,0.353122011299904,1684,0.0,100,P-GPS,
0.354550483408104,36.8879985658171,7000,2018-04-19 05:32:10,1780.1743001655796,8.200000262400001,0.0,0.361942011582144,1780.1743001655796,8.200000262400001,0.35999970196000003,0.361942011582144,1684,0.0,100,P-GPS,
0.354550543500945,36.887998651057,7100,2018-04-19 05:32:10,1780.6743001815796,8.700000278400001,0.0,0.372333011914656,1780.6743001815796,8.700000278400001,0.35999970196000003,0.372333011914656,1684,0.0,100,P-GPS,
0.354550621242861,36.8879987010962,7200,2018-04-19 05:32:10,1781.1743001975794,9.2000002944,0.0,0.382591012242912,1781.1743001975794,9.2000002944,0.35999970196000003,0.382591012242912,1684,-0.1,100,P-GPS,
0.354550711253475,36.8879987600872,7300,2018-04-19 05:32:10,1781.6743002135795,9.7000003104,0.0,0.39452701262486406,1781.6743002135795,9.7000003104,0.35999970196000003,0.39452701262486406,1684,-0.3,100,P-GPS,
0.354550783038543,36.8879988284095,7400,2018-04-19 05:32:11,1782.1743002295796,10.2000003264,0.0,0.40520601296659203,1782.1743002295796,10.2000003264,0.35999970196000003,0.40520601296659203,1684,-0.4,100,P-GPS,
0.35455087075305,36.8879989037534,7500,2018-04-19 05:32:11,1782.6743002455796,10.700000342400001,0.0,0.417828013370496,1782.6743002455796,10.700000342400001,0.35999970196000003,0.417828013370496,1684,-0.7,100,P-GPS,
0.354550931796902,36.8879989599089,7600,2018-04-19 05:32:11,1783.1743002615794,11.2000003584,0.0,0.426827013658464,1783.1743002615794,11.2000003584,0.35999970196000003,0.426827013658464,1684,-1.3,100,P-GPS,
0.354551008822303,36.8879990260638,7700,2018-04-19 05:32:11,1783.6743002775795,11.7000003744,0.0,0.43793201401382403,1783.6743002775795,11.7000003744,0.35999970196000003,0.43793201401382403,1684,-2.5,100,P-GPS,
0.354551090742807,36.8879991093799,7800,2018-04-19 05:32:11,1784.1743002935796,12.200000390400001,0.0,0.45048901441564804,1784.1743002935796,12.200000390400001,0.35999970196000003,0.45048901441564804,1684,-3.7,100,P-GPS,
0.35455118410313,36.8879991978557,7900,2018-04-19 05:32:11,1784.5743003063794,12.6000004032,0.0,0.4644550148625601,1784.5743003063794,12.6000004032,0.35999970196000003,0.4644550148625601,1684,-5.1,100,P-GPS,
0.354551311043596,36.8879992660795,8000,2018-04-19 05:32:11,1785.0743003223795,13.100000419200002,0.0,0.48046101537475205,1785.0743003223795,13.100000419200002,0.35999970196000003,0.48046101537475205,1684,-6.6,100,P-GPS,
0.354551435132657,36.887999341236,8100,2018-04-19 05:32:11,1785.5743003383795,13.600000435200002,0.0,0.49659401589100804,1785.5743003383795,13.600000435200002,0.35999970196000003,0.49659401589100804,1684,-8.0,100,P-GPS,
0.354551551105553,36.887999430913,8200,2018-04-19 05:32:11,1786.0743003543796,14.100000451200001,0.0,0.512791016409312,1786.0743003543796,14.100000451200001,0.35999970196000003,0.512791016409312,1684,-9.3,100,P-GPS,
0.354551664233558,36.8879995231889,8300,2018-04-19 05:32:11,1786.5743003703794,14.600000467200001,0.0,0.5288760169240321,1786.5743003703794,14.600000467200001,0.35999970196000003,0.5288760169240321,1684,-10.1,100,P-GPS,
0.354551764664584,36.8879996202964,8400,2018-04-19 05:32:12,1787.0743003863797,15.1000004832,0.0,0.544054017409728,1787.0743003863797,15.1000004832,0.35999970196000003,0.544054017409728,1684,-10.7,100,P-GPS,
0.354551861366474,36.8879997136943,8500,2018-04-19 05:32:12,1787.5743004023795,15.6000004992,0.0,0.55868001787776,1787.5743004023795,15.6000004992,0.35999970196000003,0.55868001787776,1684,-10.9,100,P-GPS,
0.354551950027108,36.8879998103158,8600,2018-04-19 05:32:12,1788.0743004183794,16.1000005152,0.0,0.572763018328416,1788.0743004183794,16.1000005152,0.35999970196000003,0.572763018328416,1684,-10.9,100,P-GPS,
0.354552039531275,36.8879998948196,8700,2018-04-19 05:32:12,1788.5743004343797,16.600000531200003,0.0,0.586216018758912,1788.5743004343797,16.600000531200003,0.35999970196000003,0.586216018758912,1684,-11.0,100,P-GPS,
0.354552115226237,36.8879999391038,8800,2018-04-19 05:32:12,1789.0743004503795,17.1000005472,0.0,0.59596001907072,1789.0743004503795,17.1000005472,0.35999970196000003,0.59596001907072,1684,-11.0,100,P-GPS,
0.354552180373768,36.8879999804514,8900,2018-04-19 05:32:12,1789.5743004663796,17.600000563200002,0.0,0.60454001934528,1789.5743004663796,17.600000563200002,0.35999970196000003,0.60454001934528,1684,-11.1,100,P-GPS,
0.354552240316791,36.8880000354218,9000,2018-04-19 05:32:12,1790.0743004823794,18.1000005792,0.0,0.613457019630624,1790.0743004823794,18.1000005792,0.35999970196000003,0.613457019630624,1684,-11.3,100,P-GPS,
0.354552294912005,36.8880000931216,9100,2018-04-19 05:32:12,1790.5743004983797,18.6000005952,0.0,0.62204501990544,1790.5743004983797,18.6000005952,0.35999970196000003,0.62204501990544,1684,-11.7,100,P-GPS,
0.354552327619302,36.8880001484801,9200,2018-04-19 05:32:12,1791.0743005143795,19.1000006112,0.0,0.628463020110816,1791.0743005143795,19.1000006112,0.35999970196000003,0.628463020110816,1684,-12.2,100,P-GPS,
0.35455235788882,36.8880002044435,9300,2018-04-19 05:32:13,1791.6743005335798,19.7000006304,0.0,0.63471002031072,1791.6743005335798,19.7000006304,0.35999970196000003,0.63471002031072,1684,-12.7,100,P-GPS,
0.354552385788951,36.8880002553814,9400,2018-04-19 05:32:13,1792.1743005495796,20.200000646400003,0.0,0.640442020494144,1792.1743005495796,20.200000646400003,0.35999970196000003,0.640442020494144,1684,-13.4,100,P-GPS,
0.354552415211677,36.8880003045925,9500,2018-04-19 05:32:13,1792.6743005655794,20.7000006624,0.0,0.6462200206790399,1792.6743005655794,20.7000006624,0.35999970196000003,0.6462200206790399,1684,-13.9,100,P-GPS,
0.354552482494097,36.8880003433706,9600,2018-04-19 05:32:13,1793.1743005815797,21.200000678400002,0.0,0.6548320209546241,1793.1743005815797,21.200000678400002,0.35999970196000003,0.6548320209546241,1684,-14.1,100,P-GPS,
0.354552535736074,36.8880003815642,9700,2018-04-19 05:32:13,1793.6743005975795,21.7000006944,0.0,0.6621170211877441,1793.6743005975795,21.7000006944,0.35999970196000003,0.6621170211877441,1684,-14.1,99,P-GPS,
0.354552587019032,36.8880003812024,9800,2018-04-19 05:32:13,1794.2743006167793,22.300000713600003,0.0,0.666819021338208,1794.2743006167793,22.300000713600003,0.35999970196000003,0.666819021338208,1684,-14.1,99,P-GPS,
0.354552615067352,36.8880003921824,9900,2018-04-19 05:32:13,1794.7743006327796,22.8000007296,0.0,0.670089021442848,1794.7743006327796,22.8000007296,0.35999970196000003,0.670089021442848,1684,-14.1,99,P-GPS,
0.354552611735555,36.8880004138224,10000,2018-04-19 05:32:13,1795.2743006487794,23.300000745600002,0.0,0.671126021476032,1795.2743006487794,23.300000745600002,0.35999970196000003,0.671126021476032,1684,-14.1,99,P-GPS,
0.354552609579495,36.8880004374505,10100,2018-04-19 05:32:13,1795.8743006679797,23.9000007648,0.0,0.672402021516864,1795.8743006679797,23.9000007648,0.35999970196000003,0.672402021516864,1684,-14.1,99,P-GPS,
0.354552564144279,36.8880004327163,10200,2018-04-19 05:32:13,1796.3743006839795,24.400000780800003,0.0,0.667933021373856,1796.3743006839795,24.400000780800003,0.35999970196000003,0.672402021516864,1684,-14.1,99,P-GPS,
0.354552529769455,36.8880004352269,10300,2018-04-19 05:32:13,1796.8743006999796,24.9000007968,0.0,0.6649430212781761,1796.8743006999796,24.9000007968,0.35999970196000003,0.672402021516864,1684,-14.1,99,P-GPS,
0.354552497075185,36.8880004206528,10400,2018-04-19 05:32:14,1797.3743007159794,25.400000812800002,0.0,0.6610310211529921,1797.3743007159794,25.400000812800002,0.35999970196000003,0.672402021516864,1684,-14.1,99,P-GPS,
0.354552471524898,36.888000419352,10500,2018-04-19 05:32:14,1797.9743007351794,26.000000832,0.0,0.658614021075648,1797.9743007351794,26.000000832,0.35999970196000003,0.672402021516864,1684,-14.1,99,P-GPS,
0.354552411435315,36.8880003717693,10600,2018-04-19 05:32:14,1798.4743007511795,26.500000848000003,0.0,0.650107020803424,1798.4743007511795,26.500000848000003,0.35999970196000003,0.672402021516864,1684,-14.1,99,P-GPS,
0.354552361002404,36.8880003430441,10700,2018-04-19 05:32:14,1798.9743007671796,27.000000864,0.0,0.6436790205977281,1798.9743007671796,27.000000864,0.35999970196000003,0.672402021516864,1684,-14.1,99,P-GPS,
0.354552290399587,36.8880003152043,10800,2018-04-19 05:32:14,1799.5743007863794,27.600000883200003,0.0,0.635469020335008,1799.5743007863794,27.600000883200003,0.35999970196000003,0.672402021516864,1684,-14.1,99,P-GPS,
0.354552177084311,36.8880002741972,11000,2018-04-19 05:32:14,1800.6743008215794,28.7000009184,0.0,0.6225430199213761,1800.6743008215794,28.7000009184,0.35999970196000003,0.672402021516864,1684,-14.1,99,P-GPS,
0.354552129823609,36.8880002538623,11100,2018-04-19 05:32:14,1801.1743008375795,29.200000934400002,0.0,0.616949019742368,1801.1743008375795,29.200000934400002,0.35999970196000003,0.672402021516864,1684,-14.1,99,P-GPS,
0.354552105802432,36.8880002278714,11200,2018-04-19 05:32:14,1801.6743008535796,29.700000950400003,0.0,0.613097019619104,1801.6743008535796,29.700000950400003,0.35999970196000003,0.672402021516864,1684,-14.1,99,P-GPS,
0.354552087371703,36.8880002235087,11300,2018-04-19 05:32:14,1802.1743008695796,30.2000009664,0.0,0.6111450195566401,1802.1743008695796,30.2000009664,0.35999970196000003,0.672402021516864,1684,-14.1,99,P-GPS,
0.35455205554865,36.8880002163239,11400,2018-04-19 05:32:15,1802.7743008887796,30.8000009856,0.0,0.607801019449632,1802.7743008887796,30.8000009856,0.35999970196000003,0.672402021516864,1684,-14.1,99,P-GPS,
0.354552031501418,36.8880002125714,11500,2018-04-19 05:32:15,1803.2743009047795,31.300001001600002,0.0,0.605384019372288,1803.2743009047795,31.300001001600002,0.35999970196000003,0.672402021516864,1684,-14.1,99,P-GPS,
0.35455199107041,36.8880001623765,11600,2018-04-19 05:32:15,1803.7743009207795,31.800001017600003,0.0,0.5984790191513281,1803.7743009207795,31.800001017600003,0.35999970196000003,0.672402021516864,1684,-14.1,99,P-GPS,
0.354551959081256,36.8880001337358,11700,2018-04-19 05:32:15,1804.2743009367796,32.3000010336,0.0,0.5937330189994561,1804.2743009367796,32.3000010336,0.35999970196000003,0.672402021516864,1684,-14.1,99,P-GPS,
0.354551868140801,36.8880001019915,11800,2018-04-19 05:32:15,1804.7743009527796,32.800001049600006,0.0,0.583456018670592,1804.7743009527796,32.800001049600006,0.35999970196000003,0.672402021516864,1684,-14.1,99,P-GPS,
0.354551796148921,36.8880000878918,11900,2018-04-19 05:32:15,1805.2743009687795,33.3000010656,0.0,0.576054018433728,1805.2743009687795,33.3000010656,0.35999970196000003,0.672402021516864,1684,-14.1,99,P-GPS,
0.35455171239316,36.8880000346761,12000,2018-04-19 05:32:15,1805.8743009879797,33.9000010848,0.0,0.565042018081344,1805.8743009879797,33.9000010848,0.35999970196000003,0.672402021516864,1684,-14.1,99,P-GPS,
0.354551653337639,36.8879999966619,12100,2018-04-19 05:32:15,1806.3743010039796,34.4000011008,0.0,0.55724501783184,1806.3743010039796,34.4000011008,0.35999970196000003,0.672402021516864,1684,-14.1,99,P-GPS,
0.354551553474939,36.8879999611116,12200,2018-04-19 05:32:15,1806.8743010199794,34.900001116800006,0.0,0.545961017470752,1806.8743010199794,34.900001116800006,0.35999970196000003,0.672402021516864,1684,-14.1,99,P-GPS,
0.354551478084496,36.887999944603,12300,2018-04-19 05:32:15,1807.3743010359797,35.4000011328,0.0,0.538146017220672,1807.3743010359797,35.4000011328,0.35999970196000003,0.672402021516864,1684,-14.1,99,P-GPS,
0.354551395061536,36.8879999028534,12400,2018-04-19 05:32:16,1807.8743010519795,35.9000011488,0.0,0.52798001689536,1807.8743010519795,35.9000011488,0.35999970196000003,0.672402021516864,1684,-14.1,99,P-GPS,
0.354551334923099,36.8879998839204,12500,2018-04-19 05:32:16,1808.4743010711793,36.500001168000004,0.0,0.521383016684256,1808.4743010711793,36.500001168000004,0.35999970196000003,0.672402021516864,1684,-14.1,99,P-GPS,
0.354551272848442,36.8879998803371,12600,2018-04-19 05:32:16,1808.9743010871796,37.000001184000006,0.0,0.5156720165015041,1808.9743010871796,37.000001184000006,0.35999970196000003,0.672402021516864,1684,-14.1,99,P-GPS,
0.354551230637545,36.8879998977638,12700,2018-04-19 05:32:16,1809.5743011063794,37.6000012032,0.0,0.513173016421536,1809.5743011063794,37.6000012032,0.35999970196000003,0.672402021516864,1684,-14.1,99,P-GPS,
0.354551216494509,36.8879999194621,12800,2018-04-19 05:32:16,1810.0743011223797,38.1000012192,0.0,0.513444016430208,1810.0743011223797,38.1000012192,0.35999970196000003,0.672402021516864,1684,-14.1,99,P-GPS,
0.35455120978532,36.8879999538535,12900,2018-04-19 05:32:16,1810.5743011383795,38.600001235200004,0.0,0.515262016488384,1810.5743011383795,38.600001235200004,0.35999970196000003,0.672402021516864,1684,-14.1,99,P-GPS,
0.354551184127556,36.8879999704552,13000,2018-04-19 05:32:16,1811.0743011543796,39.100001251200005,0.0,0.514219016455008,1811.0743011543796,39.100001251200005,0.35999970196000003,0.672402021516864,1684,-14.1,99,P-GPS,
0.354551157810273,36.887999992774,13100,2018-04-19 05:32:16,1811.6743011735796,39.7000012704,0.0,0.513546016433472,1811.6743011735796,39.7000012704,0.35999970196000003,0.672402021516864,1684,-14.1,99,P-GPS,
0.354551110489319,36.8879999848783,13200,2018-04-19 05:32:16,1812.1743011895794,40.2000012864,0.0,0.508949016286368,1812.1743011895794,40.2000012864,0.35999970196000003,0.672402021516864,1684,-14.1,99,P-GPS,
0.354551075821375,36.8879999860421,13300,2018-04-19 05:32:17,1812.6743012055795,40.700001302400004,0.0,0.506091016194912,1812.6743012055795,40.700001302400004,0.35999970196000003,0.672402021516864,1684,-14.1,99,P-GPS,
0.354551029242991,36.8879999683274,13400,2018-04-19 05:32:17,1813.1743012215795,41.2000013184,0.0,0.500874016027968,1813.1743012215795,41.2000013184,0.35999970196000003,0.672402021516864,1684,-14.1,99,P-GPS,
0.354551007609112,36.887999972749,13500,2018-04-19 05:32:17,1813.6743012375796,41.7000013344,0.0,0.49937201597990405,1813.6743012375796,41.7000013344,0.35999970196000003,0.672402021516864,1684,-14.1,99,P-GPS,
0.354551004936836,36.8880000057871,13600,2018-04-19 05:32:17,1814.1743012535794,42.2000013504,0.0,0.5015590160498881,1814.1743012535794,42.2000013504,0.35999970196000003,0.672402021516864,1684,-14.1,99,P-GPS,
0.354551013583873,36.8880000548895,13700,2018-04-19 05:32:17,1814.7743012727794,42.800001369600004,0.0,0.5058900161884801,1814.7743012727794,42.800001369600004,0.35999970196000003,0.672402021516864,1684,-14.1,99,P-GPS,
0.354550989805334,36.8880000821951,13800,2018-04-19 05:32:17,1815.2743012887795,43.300001385600005,0.0,0.505944016190208,1815.2743012887795,43.300001385600005,0.35999970196000003,0.672402021516864,1684,-14.1,99,P-GPS,
0.354550980130748,36.8880001160335,13900,2018-04-19 05:32:17,1815.7743013047796,43.80000140160001,0.0,0.507677016245664,1815.7743013047796,43.80000140160001,0.35999970196000003,0.672402021516864,1684,-14.1,99,P-GPS,
0.354550932028141,36.8880001154243,14000,2018-04-19 05:32:17,1816.2743013207796,44.30000141760001,0.0,0.503696016118272,1816.2743013207796,44.30000141760001,0.35999970196000003,0.672402021516864,1684,-14.1,99,P-GPS,
0.354550899662817,36.8880001245812,14100,2018-04-19 05:32:17,1816.7743013367794,44.8000014336,0.0,0.501759016056288,1816.7743013367794,44.8000014336,0.35999970196000003,0.672402021516864,1684,-14.1,99,P-GPS,
0.354550868982932,36.8880001449568,14200,2018-04-19 05:32:17,1817.2743013527795,45.3000014496,0.0,0.50084001602688,1817.2743013527795,45.3000014496,0.35999970196000003,0.672402021516864,1684,-14.1,99,P-GPS,
0.354550860725092,36.888000185723,14300,2018-04-19 05:32:17,1817.7743013687796,45.800001465600005,0.0,0.50332001610624,1817.7743013687796,45.800001465600005,0.35999970196000003,0.672402021516864,1684,-14.1,99,P-GPS,
0.354550857215795,36.888000205558,14400,2018-04-19 05:32:18,1818.2743013847796,46.300001481600006,0.0,0.504579016146528,1818.2743013847796,46.300001481600006,0.35999970196000003,0.672402021516864,1684,-14.1,99,P-GPS,
0.354550869098551,36.8880002355101,14500,2018-04-19 05:32:18,1818.7743014007794,46.8000014976,0.0,0.5078530162512961,1818.7743014007794,46.8000014976,0.35999970196000003,0.672402021516864,1684,-14.1,99,P-GPS,
0.354550876815747,36.8880002684963,14600,2018-04-19 05:32:18,1819.3743014199795,47.4000015168,0.0,0.51104001635328,1819.3743014199795,47.4000015168,0.35999970196000003,0.672402021516864,1684,-14.1,99,P-GPS,
0.354550892754957,36.8880003070206,14700,2018-04-19 05:32:18,1819.8743014359795,47.9000015328,0.0,0.515317016490144,1819.8743014359795,47.9000015328,0.35999970196000003,0.672402021516864,1684,-14.1,99,P-GPS,
0.354550895643817,36.8880003093139,14800,2018-04-19 05:32:18,1820.3743014519796,48.4000015488,0.0,0.515724016503168,1820.3743014519796,48.4000015488,0.35999970196000003,0.672402021516864,1684,-14.1,99,P-GPS,
0.354550906624415,36.8880003248761,14900,2018-04-19 05:32:18,1820.8743014679796,48.9000015648,0.0,0.5178110165699521,1820.8743014679796,48.9000015648,0.35999970196000003,0.672402021516864,1684,-14.1,99,P-GPS,
0.354550906344322,36.8880003458651,15000,2018-04-19 05:32:18,1821.3743014839795,49.4000015808,0.0,0.5194400166220801,1821.3743014839795,49.4000015808,0.35999970196000003,0.672402021516864,1684,-14.1,99,P-GPS,
0.354550916196409,36.8880003772979,15100,2018-04-19 05:32:18,1821.8743014999793,49.9000015968,0.0,0.522693016726176,1821.8743014999793,49.9000015968,0.35999970196000003,0.672402021516864,1684,-14.2,99,P-GPS,
0.354550876903683,36.8880003811435,15200,2018-04-19 05:32:18,1822.3743015159796,50.4000016128,0.0,0.5199360166379521,1822.3743015159796,50.4000016128,0.35999970196000003,0.672402021516864,1684,-14.3,99,P-GPS,
0.35455085215622,36.888000395846,15300,2018-04-19 05:32:19,1822.8743015319794,50.9000016288,0.0,0.519192016614144,1822.8743015319794,50.9000016288,0.35999970196000003,0.672402021516864,1684,-14.5,99,P-GPS,
0.354550816234374,36.8880004309927,15400,2018-04-19 05:32:19,1823.3743015479795,51.4000016448,0.0,0.519262016616384,1823.3743015479795,51.4000016448,0.35999970196000003,0.672402021516864,1684,-14.8,99,P-GPS,
0.354550807429377,36.8880004837175,15500,2018-04-19 05:32:19,1823.8743015639795,51.90000166080001,0.0,0.522875016732,1823.8743015639795,51.90000166080001,0.35999970196000003,0.672402021516864,1684,-15.2,99,P-GPS,
0.35455079469006,36.8880004944652,15600,2018-04-19 05:32:19,1824.3743015799796,52.40000167680001,0.0,0.5227920167293441,1824.3743015799796,52.40000167680001,0.35999970196000003,0.672402021516864,1684,-15.6,99,P-GPS,
0.354550790016426,36.888000497238,15700,2018-04-19 05:32:19,1824.8743015959794,52.9000016928,0.0,0.522667016725344,1824.8743015959794,52.9000016928,0.35999970196000003,0.672402021516864,1684,-15.9,99,P-GPS,
0.354550772165422,36.8880005039721,15800,2018-04-19 05:32:19,1825.3743016119797,53.400001708800005,0.0,0.521879016700128,1825.3743016119797,53.400001708800005,0.35999970196000003,0.672402021516864,1684,-16.3,99,P-GPS,
0.354550765272219,36.8880005276002,15900,2018-04-19 05:32:19,1825.9743016311795,54.000001728,0.0,0.52331001674592,1825.9743016311795,54.000001728,0.35999970196000003,0.672402021516864,1684,-16.4,99,P-GPS,
0.354550786844217,36.8880005389367,16000,2018-04-19 05:32:19,1826.4743016471793,54.500001744,0.0,0.52585501682736,1826.4743016471793,54.500001744,0.35999970196000003,0.672402021516864,1684,-16.4,99,P-GPS,
0.354550816892265,36.8880005642639,16100,2018-04-19 05:32:19,1826.9743016631796,55.00000176,0.0,0.530186016965952,1826.9743016631796,55.00000176,0.35999970196000003,0.672402021516864,1684,-16.4,99,P-GPS,
0.354550842854548,36.8880005762535,16200,2018-04-19 05:32:19,1827.4743016791795,55.500001776000005,0.0,0.533116017059712,1827.4743016791795,55.500001776000005,0.35999970196000003,0.672402021516864,1684,-16.5,99,P-GPS,
0.354550872280531,36.8880005966537,16300,2018-04-19 05:32:19,1827.9743016951795,56.000001792,0.0,0.536998017183936,1827.9743016951795,56.000001792,0.35999970196000003,0.672402021516864,1684,-16.4,99,P-GPS,
0.354550886531044,36.8880005901863,16400,2018-04-19 05:32:20,1828.4743017111796,56.500001808,0.0,0.5375400172012801,1828.4743017111796,56.500001808,0.35999970196000003,0.672402021516864,1684,-16.4,99,P-GPS,
0.354550906127739,36.8880005986279,16500,2018-04-19 05:32:20,1828.9743017271796,57.000001824,0.0,0.5397080172706561,1828.9743017271796,57.000001824,0.35999970196000003,0.672402021516864,1684,-16.5,99,P-GPS,
0.354550901704886,36.8880005771367,16600,2018-04-19 05:32:20,1829.4743017431795,57.50000184,0.0,0.537621017203872,1829.4743017431795,57.50000184,0.35999970196000003,0.672402021516864,1684,-16.5,99,P-GPS,
0.354550894966384,36.8880005641386,16700,2018-04-19 05:32:20,1829.9743017591795,58.000001856000004,0.0,0.536053017153696,1829.9743017591795,58.000001856000004,0.35999970196000003,0.672402021516864,1684,-16.5,99,P-GPS,
0.354550906415974,36.8880005320528,16800,2018-04-19 05:32:20,1830.4743017751796,58.500001872,0.0,0.5343190170982081,1830.4743017751796,58.500001872,0.35999970196000003,0.672402021516864,1684,-16.6,99,P-GPS,
0.354550928347858,36.8880005187346,16900,2018-04-19 05:32:20,1830.9743017911794,59.000001888,0.0,0.534921017117472,1830.9743017911794,59.000001888,0.35999970196000003,0.672402021516864,1684,-16.6,99,P-GPS,
0.354550946545719,36.888000499906,17000,2018-04-19 05:32:20,1831.5743018103797,59.6000019072,0.0,0.534809017113888,1831.5743018103797,59.6000019072,0.35999970196000003,0.672402021516864,1684,-16.7,99,P-GPS,
0.354550967979299,36.8880004967862,17100,2018-04-19 05:32:20,1832.0743018263795,60.100001923200004,0.0,0.53621501715888,1832.0743018263795,60.100001923200004,0.35999970196000003,0.672402021516864,1684,-16.7,99,P-GPS,
0.354550971613986,36.8880004558648,17200,2018-04-19 05:32:20,1832.5743018423793,60.600001939200006,0.0,0.533242017063744,1832.5743018423793,60.600001939200006,0.35999970196000003,0.672402021516864,1684,-16.8,99,P-GPS,
0.354550978692832,36.8880004261825,17300,2018-04-19 05:32:20,1833.0743018583796,61.10000195520001,0.0,0.531447017006304,1833.0743018583796,61.10000195520001,0.35999970196000003,0.672402021516864,1684,-16.9,99,P-GPS,
0.35455097065809,36.8880003945955,17400,2018-04-19 05:32:21,1833.5743018743794,61.6000019712,0.0,0.528328016906496,1833.5743018743794,61.6000019712,0.35999970196000003,0.672402021516864,1684,-17.1,99,P-GPS,
0.354550969988799,36.8880003852888,17500,2018-04-19 05:32:21,1834.0743018903795,62.1000019872,0.0,0.527544016881408,1834.0743018903795,62.1000019872,0.35999970196000003,0.672402021516864,1684,-17.4,99,P-GPS,
0.354550994474083,36.888000340949,17600,2018-04-19 05:32:21,1834.5743019063796,62.600002003200004,0.0,0.526018016832576,1834.5743019063796,62.600002003200004,0.35999970196000003,0.672402021516864,1684,-17.7,99,P-GPS,
0.35455101784714,36.8880003148499,17700,2018-04-19 05:32:21,1835.0743019223796,63.100002019200005,0.0,0.525864016827648,1835.0743019223796,63.100002019200005,0.35999970196000003,0.672402021516864,1684,-18.0,99,P-GPS,
0.354551032732746,36.8880002907829,17800,2018-04-19 05:32:21,1835.5743019383794,63.600002035200006,0.0,0.5252100168067201,1835.5743019383794,63.600002035200006,0.35999970196000003,0.672402021516864,1684,-18.3,99,P-GPS,
0.354551049401499,36.8880002887413,17900,2018-04-19 05:32:21,1836.0743019543797,64.1000020512,0.0,0.5263980168447361,1836.0743019543797,64.1000020512,0.35999970196000003,0.672402021516864,1684,-18.5,99,P-GPS,
0.354551013339607,36.8880002572496,18000,2018-04-19 05:32:21,1836.5743019703796,64.6000020672,0.0,0.521078016674496,1836.5743019703796,64.6000020672,0.35999970196000003,0.672402021516864,1684,-18.6,99,P-GPS,
0.354550983042406,36.8880002475147,18100,2018-04-19 05:32:21,1837.0743019863794,65.10000208320001,0.0,0.51789001657248,1837.0743019863794,65.10000208320001,0.35999970196000003,0.672402021516864,1684,-18.6,99,P-GPS,
0.354550975878881,36.8880001988175,18200,2018-04-19 05:32:21,1837.5743020023795,65.60000209920001,0.0,0.513589016434848,1837.5743020023795,65.60000209920001,0.35999970196000003,0.672402021516864,1684,-18.6,99,P-GPS,
0.354550972674103,36.8880001710248,18300,2018-04-19 05:32:21,1838.0743020183795,66.10000211520001,0.0,0.511216016358912,1838.0743020183795,66.10000211520001,0.35999970196000003,0.672402021516864,1684,-18.6,99,P-GPS,
0.354550932966125,36.8880001347358,18400,2018-04-19 05:32:22,1838.5743020343796,66.6000021312,0.0,0.5052350161675201,1838.5743020343796,66.6000021312,0.35999970196000003,0.672402021516864,1684,-18.6,99,P-GPS,
0.354550899161256,36.8880001190836,18500,2018-04-19 05:32:22,1839.0743020503794,67.1000021472,0.0,0.5013000160416,1839.0743020503794,67.1000021472,0.35999970196000003,0.672402021516864,1684,-18.6,99,P-GPS,
0.354550872659958,36.8880000631053,18600,2018-04-19 05:32:22,1839.5743020663797,67.6000021632,0.0,0.494899015836768,1839.5743020663797,67.6000021632,0.35999970196000003,0.672402021516864,1684,-18.6,99,P-GPS,
0.354550851625347,36.8880000258442,18700,2018-04-19 05:32:22,1840.0743020823795,68.1000021792,0.0,0.490368015691776,1840.0743020823795,68.1000021792,0.35999970196000003,0.672402021516864,1684,-18.6,99,P-GPS,
0.354550838395868,36.8879999539675,18800,2018-04-19 05:32:22,1840.5743020983793,68.6000021952,0.0,0.483891015484512,1840.5743020983793,68.6000021952,0.35999970196000003,0.672402021516864,1684,-18.6,99,P-GPS,
0.354550827441325,36.8879999137419,18900,2018-04-19 05:32:22,1841.0743021143796,69.1000022112,0.0,0.479993015359776,1841.0743021143796,69.1000022112,0.35999970196000003,0.672402021516864,1684,-18.6,99,P-GPS,
0.354550795934191,36.8879998532376,19000,2018-04-19 05:32:22,1841.5743021303795,69.60000222720001,0.0,0.472903015132896,1841.5743021303795,69.60000222720001,0.35999970196000003,0.672402021516864,1684,-18.6,99,P-GPS,
0.354550778231376,36.8879998290534,19100,2018-04-19 05:32:22,1842.0743021463795,70.10000224320001,0.0,0.469647015028704,1842.0743021463795,70.10000224320001,0.35999970196000003,0.672402021516864,1684,-18.6,99,P-GPS,
0.354550742929967,36.8879998146891,19200,2018-04-19 05:32:22,1842.5743021623796,70.60000225920001,0.0,0.465649014900768,1842.5743021623796,70.60000225920001,0.35999970196000003,0.672402021516864,1684,-18.6,99,P-GPS,
0.354550717959407,36.887999811313,19300,2018-04-19 05:32:22,1843.1743021815796,71.2000022784,0.0,0.4633250148264,1843.1743021815796,71.2000022784,0.35999970196000003,0.672402021516864,1684,-18.6,99,P-GPS,
0.354550700909598,36.887999763892,19400,2018-04-19 05:32:23,1843.6743021975794,71.70000229440001,0.0,0.45840601466899206,1843.6743021975794,71.70000229440001,0.35999970196000003,0.672402021516864,1684,-18.6,99,P-GPS,
0.354550695964014,36.8879997346154,19500,2018-04-19 05:32:23,1844.1743022135797,72.2000023104,0.0,0.455843014586976,1844.1743022135797,72.2000023104,0.35999970196000003,0.672402021516864,1684,-18.6,99,P-GPS,
0.354550695301237,36.8879997061974,19600,2018-04-19 05:32:23,1844.6743022295796,72.7000023264,0.0,0.453713014518816,1844.6743022295796,72.7000023264,0.35999970196000003,0.672402021516864,1684,-18.6,99,P-GPS,
0.35455069953682,36.887999703696,19700,2018-04-19 05:32:23,1845.1743022455794,73.2000023424,0.0,0.453887014524384,1845.1743022455794,73.2000023424,0.35999970196000003,0.672402021516864,1684,-18.6,99,P-GPS,
0.354550705311283,36.8879996687849,19800,2018-04-19 05:32:23,1845.6743022615797,73.7000023584,0.0,0.451848014459136,1845.6743022615797,73.7000023584,0.35999970196000003,0.672402021516864,1684,-18.6,99,P-GPS,
0.354550715318071,36.887999650604,19900,2018-04-19 05:32:23,1846.1743022775795,74.20000237440001,0.0,0.451391014444512,1846.1743022775795,74.20000237440001,0.35999970196000003,0.672402021516864,1684,-18.6,99,P-GPS,
0.354550717536012,36.8879995968552,20000,2018-04-19 05:32:23,1846.6743022935796,74.7000023904,0.0,0.44775301432809606,1846.6743022935796,74.7000023904,0.35999970196000003,0.672402021516864,1684,-18.6,99,P-GPS,
0.354550718617298,36.8879995723529,20100,2018-04-19 05:32:23,1847.1743023095796,75.2000024064,0.0,0.446118014275776,1847.1743023095796,75.2000024064,0.35999970196000003,0.672402021516864,1684,-18.6,99,P-GPS,
0.354550680568704,36.8879995158077,20200,2018-04-19 05:32:23,1847.6743023255797,75.7000024224,0.0,0.43887001404384,1847.6743023255797,75.7000024224,0.35999970196000003,0.672402021516864,1684,-18.6,99,P-GPS,
0.354550654259563,36.8879994920158,20300,2018-04-19 05:32:23,1848.1743023415795,76.2000024384,0.0,0.43493101391779204,1848.1743023415795,76.2000024384,0.35999970196000003,0.672402021516864,1684,-18.6,99,P-GPS,
0.354550632356992,36.8879994683893,20400,2018-04-19 05:32:24,1848.6743023575793,76.7000024544,0.0,0.431386013804352,1848.6743023575793,76.7000024544,0.35999970196000003,0.672402021516864,1684,-18.6,99,P-GPS,
0.354550619689326,36.8879994692367,20500,2018-04-19 05:32:24,1849.1743023735796,77.20000247040001,0.0,0.430349013771168,1849.1743023735796,77.20000247040001,0.35999970196000003,0.672402021516864,1684,-18.6,99,P-GPS,
0.354550566276363,36.8879994211519,20600,2018-04-19 05:32:24,1849.6743023895795,77.70000248640001,0.0,0.422368013515776,1849.6743023895795,77.70000248640001,0.35999970196000003,0.672402021516864,1684,-18.6,99,P-GPS,
0.35455051829426,36.8879993947317,20700,2018-04-19 05:32:24,1850.1743024055795,78.20000250240001,0.0,0.41637201332390406,1850.1743024055795,78.20000250240001,0.35999970196000003,0.672402021516864,1684,-18.6,99,P-GPS,
0.354550481567963,36.8879993260389,20800,2018-04-19 05:32:24,1850.7743024247795,78.8000025216,0.0,0.408401013068832,1850.7743024247795,78.8000025216,0.35999970196000003,0.672402021516864,1684,-18.6,99,P-GPS,
0.354550465967469,36.8879992869573,20900,2018-04-19 05:32:24,1851.2743024407794,79.30000253760001,0.0,0.40434101293891206,1851.2743024407794,79.30000253760001,0.35999970196000003,0.672402021516864,1684,-18.6,99,P-GPS,
0.354550435404832,36.8879992120989,21000,2018-04-19 05:32:24,1851.7743024567797,79.80000255360001,0.0,0.396542012689344,1851.7743024567797,79.80000255360001,0.35999970196000003,0.672402021516864,1684,-18.6,99,P-GPS,
0.354550421118493,36.8879991737683,21100,2018-04-19 05:32:24,1852.2743024727795,80.30000256960001,0.0,0.39269001256608,1852.2743024727795,80.30000256960001,0.35999970196000003,0.672402021516864,1684,-18.6,99,P-GPS,
0.354550383836896,36.8879991077917,21200,2018-04-19 05:32:24,1852.7743024887795,80.80000258560001,0.0,0.384962012318784,1852.7743024887795,80.80000258560001,0.35999970196000003,0.672402021516864,1684,-18.6,99,P-GPS,
0.354550364464926,36.8879990737049,21300,2018-04-19 05:32:24,1853.2743025047794,81.3000026016,0.0,0.38097101219107204,1853.2743025047794,81.3000026016,0.35999970196000003,0.672402021516864,1684,-18.6,99,P-GPS,
0.354550354915731,36.8879990102083,21400,2018-04-19 05:32:25,1853.7743025207797,81.8000026176,0.0,0.375951012030432,1853.7743025207797,81.8000026176,0.35999970196000003,0.672402021516864,1684,-18.6,99,P-GPS,
0.354550361673773,36.8879989828202,21500,2018-04-19 05:32:25,1854.2743025367795,82.3000026336,0.0,0.374793011993376,1854.2743025367795,82.3000026336,0.35999970196000003,0.672402021516864,1684,-18.6,99,P-GPS,
0.354550363266392,36.8879989623467,21600,2018-04-19 05:32:25,1854.7743025527793,82.8000026496,0.0,0.373627011956064,1854.7743025527793,82.8000026496,0.35999970196000003,0.672402021516864,1684,-18.6,99,P-GPS,
0.354550372235861,36.8879989775304,21700,2018-04-19 05:32:25,1855.2743025687796,83.3000026656,0.0,0.37541301201321603,1855.2743025687796,83.3000026656,0.35999970196000003,0.672402021516864,1684,-18.6,99,P-GPS,
0.354550368169637,36.8879989866669,21800,2018-04-19 05:32:25,1855.6743025815797,83.70000267840001,0.0,0.37563001202016,1855.6743025815797,83.70000267840001,0.35999970196000003,0.672402021516864,1684,-18.6,99,P-GPS,
0.354550332205451,36.887998969153,22000,2018-04-19 05:32:25,1856.6743026135794,84.70000271040001,0.0,0.371241011879712,1856.6743026135794,84.70000271040001,0.35999970196000003,0.672402021516864,1684,-18.6,99,P-GPS,
0.354550308461109,36.887998953207,22100,2018-04-19 05:32:25,1857.2743026327796,85.30000272960001,0.0,0.368061011777952,1857.2743026327796,85.30000272960001,0.35999970196000003,0.672402021516864,1684,-18.6,99,P-GPS,
0.354550284623946,36.8879989201185,22200,2018-04-19 05:32:25,1857.7743026487794,85.80000274560001,0.0,0.36377101164067205,1857.7743026487794,85.80000274560001,0.35999970196000003,0.672402021516864,1684,-18.6,99,P-GPS,
0.354550279276136,36.887998911019,22300,2018-04-19 05:32:25,1858.2743026647797,86.3000027616,0.0,0.36270301160649604,1858.2743026647797,86.3000027616,0.35999970196000003,0.672402021516864,1684,-18.6,99,P-GPS,
0.354550272150065,36.8879988818838,22400,2018-04-19 05:32:26,1858.7743026807796,86.8000027776,0.0,0.360198011526336,1858.7743026807796,86.8000027776,0.35999970196000003,0.672402021516864,1684,-18.6,99,P-GPS,
0.354550278028748,36.8879988785178,22500,2018-04-19 05:32:26,1859.2743026967794,87.3000027936,0.0,0.36052201153670405,1859.2743026967794,87.3000027936,0.35999970196000003,0.672402021516864,1684,-18.6,99,P-GPS,
0.354550270865222,36.8879988359626,22600,2018-04-19 05:32:26,1859.7743027127794,87.8000028096,0.0,0.357193011430176,1859.7743027127794,87.8000028096,0.35999970196000003,0.672402021516864,1684,-18.6,99,P-GPS,
0.354550273587981,36.8879988266789,22700,2018-04-19 05:32:26,1860.2743027287795,88.3000028256,0.0,0.356867011419744,1860.2743027287795,88.3000028256,0.35999970196000003,0.672402021516864,1684,-18.6,98,P-GPS,
0.354550230821785,36.8879987747506,22800,2018-04-19 05:32:26,1860.7743027447796,88.8000028416,0.0,0.3497040111905281,1860.7743027447796,88.8000028416,0.35999970196000003,0.672402021516864,1684,-18.6,98,P-GPS,
0.354550197982583,36.887998754048,22900,2018-04-19 05:32:26,1861.2743027607794,89.3000028576,0.0,0.34538801105241607,1861.2743027607794,89.3000028576,0.35999970196000003,0.672402021516864,1684,-18.6,98,P-GPS,
0.354550123403105,36.8879986875638,23000,2018-04-19 05:32:26,1861.7743027767797,89.80000287360001,0.0,0.334393010700576,1861.7743027767797,89.80000287360001,0.35999970196000003,0.672402021516864,1684,-18.6,98,P-GPS,
0.354550074435794,36.8879986547784,23100,2018-04-19 05:32:26,1862.2743027927795,90.30000288960001,0.0,0.32784001049088,1862.2743027927795,90.30000288960001,0.35999970196000003,0.672402021516864,1684,-18.6,98,P-GPS,
0.354550008685739,36.8879986158632,23200,2018-04-19 05:32:26,1862.7743028087793,90.8000029056,0.0,0.319353010219296,1862.7743028087793,90.8000029056,0.35999970196000003,0.672402021516864,1684,-18.6,98,P-GPS,
0.354549962742448,36.8879986090157,23300,2018-04-19 05:32:26,1863.2743028247796,91.3000029216,0.0,0.31467601006963203,1863.2743028247796,91.3000029216,0.35999970196000003,0.672402021516864,1684,-18.8,98,P-GPS,
0.354549915610394,36.8879985589658,23400,2018-04-19 05:32:27,1863.7743028407795,91.8000029376,0.0,0.307229009831328,1863.7743028407795,91.8000029376,0.35999970196000003,0.672402021516864,1684,-19.5,98,P-GPS,
0.354549878617032,36.8879985424497,23500,2018-04-19 05:32:27,1864.2743028567795,92.3000029536,0.0,0.30278500968912,1864.2743028567795,92.3000029536,0.35999970196000003,0.672402021516864,1684,-20.3,98,P-GPS,
0.354549808452265,36.8879984790938,23600,2018-04-19 05:32:27,1864.7743028727796,92.8000029696,0.0,0.292391009356512,1864.7743028727796,92.8000029696,0.35999970196000003,0.672402021516864,1684,-21.3,98,P-GPS,
0.354549748001167,36.8879984495491,23700,2018-04-19 05:32:27,1865.3743028919796,93.4000029888,0.0,0.28497000911904,1865.3743028919796,93.4000029888,0.35999970196000003,0.672402021516864,1684,-22.4,98,P-GPS,
0.354549705510178,36.8879984015938,23800,2018-04-19 05:32:27,1865.8743029079794,93.9000030048,0.0,0.278093008898976,1865.8743029079794,93.9000030048,0.35999970196000003,0.672402021516864,1684,-22.8,98,P-GPS,
0.354549678580599,36.8879983731721,23900,2018-04-19 05:32:27,1866.2743029207795,94.3000030176,0.0,0.27386000876352,1866.2743029207795,94.3000030176,0.35999970196000003,0.672402021516864,1684,-22.8,98,P-GPS,
0.354549653538388,36.8879982975263,24000,2018-04-19 05:32:27,1866.8743029399795,94.9000030368,0.0,0.26701000854432,1866.8743029399795,94.9000030368,0.35999970196000003,0.672402021516864,1684,-22.8,98,P-GPS,
0.354549646226674,36.8879982530655,24100,2018-04-19 05:32:27,1867.3743029559794,95.40000305280002,0.0,0.263747008439904,1867.3743029559794,95.40000305280002,0.35999970196000003,0.672402021516864,1684,-22.8,98,P-GPS,
0.354549626533901,36.8879981740564,24200,2018-04-19 05:32:27,1867.8743029719797,95.90000306880002,0.0,0.257437008237984,1867.8743029719797,95.90000306880002,0.35999970196000003,0.672402021516864,1684,-22.8,98,P-GPS,
0.354549611780198,36.8879981388242,24300,2018-04-19 05:32:27,1868.3743029879795,96.40000308480002,0.0,0.25409500813104,1868.3743029879795,96.40000308480002,0.35999970196000003,0.672402021516864,1684,-22.8,98,P-GPS,
0.354549598057301,36.8879980531196,24400,2018-04-19 05:32:28,1868.8743030039795,96.90000310079999,0.0,0.24827300794473603,1868.8743030039795,96.90000310079999,0.35999970196000003,0.672402021516864,1684,-22.8,98,P-GPS,
0.354549589701754,36.8879980143987,24500,2018-04-19 05:32:28,1869.3743030199796,97.4000031168,0.0,0.24550700785622404,1869.3743030199796,97.4000031168,0.35999970196000003,0.672402021516864,1684,-22.8,98,P-GPS,
0.354549554686952,36.8879979491212,24600,2018-04-19 05:32:28,1869.8743030359797,97.9000031328,0.0,0.238846007643072,1869.8743030359797,97.9000031328,0.35999970196000003,0.672402021516864,1684,-22.8,98,P-GPS,
0.35454954267392,36.8879979134585,24700,2018-04-19 05:32:28,1870.3743030519795,98.40000314880001,0.0,0.23597000755104,1870.3743030519795,98.40000314880001,0.35999970196000003,0.672402021516864,1684,-22.8,98,P-GPS,
0.354549510276027,36.8879978360789,24800,2018-04-19 05:32:28,1870.8743030679793,98.90000316480001,0.0,0.229217007334944,1870.8743030679793,98.90000316480001,0.35999970196000003,0.672402021516864,1684,-22.8,98,P-GPS,
0.354549496157418,36.8879977885374,24900,2018-04-19 05:32:28,1871.3743030839796,99.40000318080001,0.0,0.225757007224224,1871.3743030839796,99.40000318080001,0.35999970196000003,0.672402021516864,1684,-22.8,98,P-GPS,
0.354549487976115,36.8879977083919,25000,2018-04-19 05:32:28,1871.8743030999794,99.90000319680001,0.0,0.221749007095968,1871.8743030999794,99.90000319680001,0.35999970196000003,0.672402021516864,1684,-22.8,98,P-GPS,
0.354549496623153,36.8879976703793,25100,2018-04-19 05:32:28,1872.4743031191797,100.50000321600001,0.0,0.221269007080608,1872.4743031191797,100.50000321600001,0.35999970196000003,0.672402021516864,1684,-22.8,98,P-GPS,
0.354549492522731,36.8879976113438,25200,2018-04-19 05:32:28,1872.9743031351795,101.00000323200001,0.0,0.21882700700246402,1872.9743031351795,101.00000323200001,0.35999970196000003,0.672402021516864,1684,-22.8,98,P-GPS,
0.354549488176414,36.887997590585,25300,2018-04-19 05:32:28,1873.4743031511794,101.50000324800001,0.0,0.217699006966368,1873.4743031511794,101.50000324800001,0.35999970196000003,0.672402021516864,1684,-22.8,98,P-GPS,
0.354549462977871,36.8879975421955,25400,2018-04-19 05:32:29,1873.9743031671796,102.00000326400001,0.0,0.21353100683299203,1873.9743031671796,102.00000326400001,0.35999970196000003,0.672402021516864,1684,-22.8,98,P-GPS,
0.354549445060102,36.8879975310726,25500,2018-04-19 05:32:29,1874.4743031831795,102.50000328,0.0,0.21128300676105602,1874.4743031831795,102.50000328,0.35999970196000003,0.672402021516864,1684,-22.8,98,P-GPS,
0.354549456820724,36.8879974850759,25600,2018-04-19 05:32:29,1874.9743031991795,103.000003296,0.0,0.211278006760896,1874.9743031991795,103.000003296,0.35999970196000003,0.672402021516864,1684,-22.8,98,P-GPS,
0.354549472637801,36.8879974784002,25700,2018-04-19 05:32:29,1875.4743032151794,103.500003312,0.0,0.212814006810048,1875.4743032151794,103.500003312,0.35999970196000003,0.672402021516864,1684,-22.8,98,P-GPS,
0.354549457760337,36.8879974223395,25800,2018-04-19 05:32:29,1875.9743032311796,104.000003328,0.0,0.209839006714848,1875.9743032311796,104.000003328,0.35999970196000003,0.672402021516864,1684,-22.8,98,P-GPS,
0.354549451474543,36.8879974004532,25900,2018-04-19 05:32:29,1876.4743032471795,104.500003344,0.0,0.208668006677376,1876.4743032471795,104.500003344,0.35999970196000003,0.672402021516864,1684,-22.8,98,P-GPS,
0.354549452863605,36.887997332186,26000,2018-04-19 05:32:29,1876.9743032631795,105.00000336000001,0.0,0.207478006639296,1876.9743032631795,105.00000336000001,0.35999970196000003,0.672402021516864,1684,-22.8,98,P-GPS,
0.35454946656859,36.8879973091987,26100,2018-04-19 05:32:29,1877.4743032791796,105.50000337600001,0.0,0.20859400667500802,1877.4743032791796,105.50000337600001,0.35999970196000003,0.672402021516864,1684,-22.8,98,P-GPS,
0.354549512568876,36.887997269638,26200,2018-04-19 05:32:29,1877.9743032951794,106.00000339200001,0.0,0.213074006818368,1877.9743032951794,106.00000339200001,0.35999970196000003,0.672402021516864,1684,-22.8,98,P-GPS,
0.354549559634165,36.8879972599608,26300,2018-04-19 05:32:29,1878.4743033111795,106.50000340800001,0.0,0.218144006980608,1878.4743033111795,106.50000340800001,0.35999970196000003,0.672402021516864,1684,-22.8,98,P-GPS,
0.35454958463078,36.8879972331424,26400,2018-04-19 05:32:30,1878.9743033271795,107.000003424,0.0,0.22058900705884799,1878.9743033271795,107.000003424,0.35999970196000003,0.672402021516864,1684,-22.8,98,P-GPS,
0.354549607355716,36.8879972379938,26500,2018-04-19 05:32:30,1879.4743033431796,107.50000344,0.0,0.223157007141024,1879.4743033431796,107.50000344,0.35999970196000003,0.672402021516864,1684,-22.8,98,P-GPS,
0.354549613387472,36.8879972028535,26600,2018-04-19 05:32:30,1880.0743033623794,108.1000034592,0.0,0.22346500715088,1880.0743033623794,108.1000034592,0.35999970196000003,0.672402021516864,1684,-22.8,98,P-GPS,
0.354549631315012,36.8879972137549,26700,2018-04-19 05:32:30,1880.5743033783797,108.6000034752,0.0,0.22555500721776,1880.5743033783797,108.6000034752,0.35999970196000003,0.672402021516864,1684,-22.8,98,P-GPS,
0.354549630093679,36.8879971787512,26800,2018-04-19 05:32:30,1881.0743033943795,109.1000034912,0.0,0.225111007203552,1881.0743033943795,109.1000034912,0.35999970196000003,0.672402021516864,1684,-22.8,98,P-GPS,
0.354549641352741,36.8879971954477,26900,2018-04-19 05:32:30,1881.5743034103793,109.6000035072,0.0,0.226498007247936,1881.5743034103793,109.6000035072,0.35999970196000003,0.672402021516864,1684,-22.8,98,P-GPS,
0.354549633129099,36.8879971935249,27000,2018-04-19 05:32:30,1882.0743034263796,110.1000035232,0.0,0.22557000721824,1882.0743034263796,110.1000035232,0.35999970196000003,0.672402021516864,1684,-22.8,98,P-GPS,
0.354549633396164,36.8879972248929,27100,2018-04-19 05:32:30,1882.5743034423795,110.6000035392,0.0,0.22589800722873601,1882.5743034423795,110.6000035392,0.35999970196000003,0.672402021516864,1684,-22.8,98,P-GPS,
0.354549616545025,36.8879972087011,27200,2018-04-19 05:32:30,1883.0743034583795,111.1000035552,0.0,0.22387000716384003,1883.0743034583795,111.1000035552,0.35999970196000003,0.672402021516864,1684,-22.8,98,P-GPS,
0.354549614919838,36.8879972274291,27300,2018-04-19 05:32:30,1883.5743034743796,111.6000035712,0.0,0.223879007164128,1883.5743034743796,111.6000035712,0.35999970196000003,0.672402021516864,1684,-22.8,98,P-GPS,
0.354549639440948,36.887997172122,27400,2018-04-19 05:32:31,1884.0743034903796,112.1000035872,0.0,0.226097007235104,1884.0743034903796,112.1000035872,0.35999970196000003,0.672402021516864,1684,-22.8,98,P-GPS,
0.354549678515462,36.8879971661631,27500,2018-04-19 05:32:31,1884.5743035063795,112.6000036032,0.0,0.23039000737248003,1884.5743035063795,112.6000036032,0.35999970196000003,0.672402021516864,1684,-22.8,98,P-GPS,
0.354549745257239,36.887997126673,27600,2018-04-19 05:32:31,1885.0743035223798,113.1000036192,0.0,0.23757000760224,1885.0743035223798,113.1000036192,0.35999970196000003,0.672402021516864,1684,-22.8,98,P-GPS,
0.354549818584444,36.8879971365182,27700,2018-04-19 05:32:31,1885.5743035383796,113.6000036352,0.0,0.24576500786448002,1885.5743035383796,113.6000036352,0.35999970196000003,0.672402021516864,1684,-22.8,98,P-GPS,
0.354549900483778,36.8879970751136,27800,2018-04-19 05:32:31,1886.0743035543794,114.1000036512,0.0,0.254654008148928,1886.0743035543794,114.1000036512,0.35999970196000003,0.672402021516864,1684,-22.8,98,P-GPS,
0.354549969396271,36.88799707101,27900,2018-04-19 05:32:31,1886.6743035735797,114.70000367040001,0.0,0.262309008393888,1886.6743035735797,114.70000367040001,0.35999970196000003,0.672402021516864,1684,-22.8,98,P-GPS,
0.354550020174411,36.887996998303,28000,2018-04-19 05:32:31,1887.1743035895795,115.20000368640001,0.0,0.267958008574656,1887.1743035895795,115.20000368640001,0.35999970196000003,0.672402021516864,1684,-22.8,98,P-GPS,
0.354550058890667,36.887996980644,28100,2018-04-19 05:32:31,1887.6743036055796,115.70000370240001,0.0,0.2723000087136,1887.6743036055796,115.70000370240001,0.35999970196000003,0.672402021516864,1684,-22.8,98,P-GPS,
0.354550082449367,36.887996928394,28200,2018-04-19 05:32:31,1888.1743036215796,116.20000371840001,0.0,0.27511000880352005,1888.1743036215796,116.20000371840001,0.35999970196000003,0.672402021516864,1684,-22.8,98,P-GPS,
0.354550105112422,36.8879969288035,28300,2018-04-19 05:32:31,1888.6743036375794,116.70000373440001,0.0,0.27762600888403205,1888.6743036375794,116.70000373440001,0.35999970196000003,0.672402021516864,1684,-22.8,98,P-GPS,
0.354550136355748,36.8879968961995,28400,2018-04-19 05:32:32,1889.1743036535795,117.20000375040001,0.0,0.28127300900073604,1889.1743036535795,117.20000375040001,0.35999970196000003,0.672402021516864,1684,-22.8,98,P-GPS,
0.354550163910649,36.8879969062246,28500,2018-04-19 05:32:32,1889.6743036695796,117.70000376640002,0.0,0.28427500909680004,1889.6743036695796,117.70000376640002,0.35999970196000003,0.672402021516864,1684,-22.8,98,P-GPS,
0.354550173529868,36.8879968491998,28600,2018-04-19 05:32:32,1890.1743036855796,118.20000378240002,0.0,0.285733009143456,1890.1743036855796,118.20000378240002,0.35999970196000003,0.672402021516864,1684,-22.8,98,P-GPS,
0.354550189182472,36.8879968389638,28700,2018-04-19 05:32:32,1890.6743037015794,118.7000037984,0.0,0.287553009201696,1890.6743037015794,118.7000037984,0.35999970196000003,0.672402021516864,1684,-22.8,98,P-GPS,
0.354550118724585,36.8879968060499,28800,2018-04-19 05:32:32,1891.1743037175795,119.2000038144,0.0,0.280051008961632,1891.1743037175795,119.2000038144,0.35999970196000003,0.672402021516864,1684,-22.8,98,P-GPS,
