latitude,longitude,time_millisecond,datetime_utc,altitude_m,ascent_m,speed_kph,distance_m,max_altitude_m,max_ascent_m,max_speed_kph,max_distance_m,rc_throttle,gimbal_pitch_degrees,battery_percent,flycState,message
0.376626521026842,36.924128817184,0,2018-04-16 06:51:51,1626.6559358529908,0.0,0.0,0.0,1626.6559358529908,0.0,0.0,0.0,364,0.0,99,Motors_Started,
0.376626541849246,36.9241287918225,100,2018-04-16 06:51:51,1626.6559358529908,0.0,0.0,0.0036491001167712,1626.6559358529908,0.0,0.0,0.0036491001167712,364,0.0,99,Motors_Started,
0.376626566849831,36.9241287674182,200,2018-04-16 06:51:51,1626.6559358529908,0.0,0.0,0.007522890240732481,1626.6559358529908,0.0,0.0,0.007522890240732481,364,0.0,99,Motors_Started,
0.37662660073602,36.9241287332897,300,2018-04-16 06:51:51,1626.6559358529908,0.0,0.0,0.012869000411808001,1626.6559358529908,0.0,0.0,0.012869000411808001,364,0.0,99,Motors_Started,
0.376626618280876,36.9241286976636,400,2018-04-16 06:51:51,1626.6559358529908,0.0,0.0,0.0171354005483328,1626.6559358529908,0.0,0.0,0.0171354005483328,364,0.0,99,Motors_Started,
0.37662663272721,36.9241286555969,500,2018-04-16 06:51:51,1626.6559358529908,0.0,0.0,0.0218446006990272,1626.6559358529908,0.0,0.0,0.0218446006990272,364,0.0,99,Motors_Started,
0.376626653669203,36.924128634112,600,2018-04-16 06:51:51,1626.6559358529908,0.0,0.0,0.025140400804492802,1626.6559358529908,0.0,0.0,0.025140400804492802,364,0.0,99,Motors_Started,
0.376626685337961,36.9241286172852,700,2018-04-16 06:51:51,1626.6559358529908,0.0,0.0,0.028775500920816002,1626.6559358529908,0.0,0.0,0.028775500920816002,364,0.0,99,Motors_Started,
0.376626702533922,36.9241285971563,800,2018-04-16 06:51:52,1626.6559358529908,0.0,0.0,0.0317191010150112,1626.6559358529908,0.0,0.0,0.0317191010150112,364,0.0,99,Motors_Started,Setting new Return-To-Home altitude to 30m (98 ft). Setting new Maximum Flight Altitude to 150m (492 ft)
0.376626716504343,36.9241285652912,900,2018-04-16 06:51:52,1626.6559358529908,0.0,0.0,0.03545690113462081,1626.6559358529908,0.0,0.0,0.03545690113462081,364,0.0,99,Motors_Started,
0.37662673875072,36.9241285284307,1000,2018-04-16 06:51:52,1626.6559358529908,0.0,0.0,0.0402158012869056,1626.6559358529908,0.0,0.0,0.0402158012869056,364,0.0,99,Motors_Started,
0.376626770350472,36.9241284865669,1100,2018-04-16 06:51:52,1626.6559358529908,0.0,0.0,0.046048601473555204,1626.6559358529908,0.0,0.0,0.046048601473555204,364,0.0,99,Motors_Started,
0.376626811860324,36.9241284619606,1200,2018-04-16 06:51:52,1626.6559358529908,0.0,0.0,0.051053401633708806,1626.6559358529908,0.0,0.0,0.051053401633708806,364,0.0,99,Motors_Started,
0.376626856177613,36.9241284443397,1300,2018-04-16 06:51:52,1626.6559358529908,0.0,0.0,0.0557511017840352,1626.6559358529908,0.0,0.0,0.0557511017840352,364,0.0,99,Motors_Started,
0.376626887867744,36.9241284220189,1400,2018-04-16 06:51:52,1626.6559358529908,0.0,0.0,0.05996070191874241,1626.6559358529908,0.0,0.0,0.05996070191874241,379,0.0,99,Motors_Started,
0.376626910194525,36.9241283895479,1500,2018-04-16 06:51:52,1626.6559358529908,0.0,0.0,0.064299502057584,1626.6559358529908,0.0,0.0,0.064299502057584,411,0.0,99,Motors_Started,
0.376626940272293,36.924128349374,1600,2018-04-16 06:51:52,1626.6559358529908,0.0,0.0,0.0698569022354208,1626.6559358529908,0.0,0.0,0.0698569022354208,522,0.0,99,Assisted_Takeoff,
0.376626977440103,36.9241283060565,1700,2018-04-16 06:51:52,1626.6559358529908,0.0,0.0,0.07620280243848959,1626.6559358529908,0.0,0.0,0.07620280243848959,719,0.0,99,Assisted_Takeoff,
0.376627000359027,36.9241282778574,1800,2018-04-16 06:51:53,1626.6559358529908,0.0,0.0,0.0802396025676672,1626.6559358529908,0.0,0.0,0.0802396025676672,960,0.0,99,Assisted_Takeoff,
0.376627016682346,36.9241282577289,1900,2018-04-16 06:51:53,1626.6559358529908,0.0,0.0,0.08311870265979841,1626.6559358529908,0.0,0.0,0.08311870265979841,1024,0.0,99,Assisted_Takeoff,
0.37662701660642,36.9241282310077,2000,2018-04-16 06:51:53,1626.6559358529908,0.0,0.0,0.0853601027315232,1626.6559358529908,0.0,0.0,0.0853601027315232,1024,0.0,99,Assisted_Takeoff,
0.37662702054074,36.9241281946386,2100,2018-04-16 06:51:53,1626.6559358529908,0.0,0.0,0.08876030284032961,1626.6559358529908,0.0,0.0,0.08876030284032961,1024,0.0,99,Assisted_Takeoff,
0.376627034315748,36.9241281482985,2200,2018-04-16 06:51:53,1626.6559358529908,0.0,0.0,0.0937603030003296,1626.6559358529908,0.0,0.0,0.0937603030003296,1024,0.0,99,Assisted_Takeoff,
0.376627061404711,36.9241281003584,2300,2018-04-16 06:51:53,1626.6559358529908,0.0,0.0,0.09982720319447042,1626.6559358529908,0.0,0.0,0.09982720319447042,1024,0.0,99,Assisted_Takeoff,
0.376627077648236,36.9241280466,2400,2018-04-16 06:51:53,1626.6559358529908,0.0,0.0,0.10571000338272,1626.6559358529908,0.0,0.0,0.10571000338272,1024,0.0,99,Assisted_Takeoff,
0.376627090305724,36.9241279937417,2500,2018-04-16 06:51:53,1626.6559358529908,0.0,0.0,0.111323003562336,1626.6559358529908,0.0,0.0,0.111323003562336,1024,0.0,99,Assisted_Takeoff,
0.376627113210399,36.9241279352841,2600,2018-04-16 06:51:53,1626.6559358529908,0.0,0.0,0.11813000378016,1626.6559358529908,0.0,0.0,0.11813000378016,1024,0.0,99,Assisted_Takeoff,
0.376627146020289,36.9241278792533,2700,2018-04-16 06:51:53,1626.6559358529908,0.0,0.0,0.12533700401078401,1626.6559358529908,0.0,0.0,0.12533700401078401,1044,0.0,99,Assisted_Takeoff,
0.376627168656882,36.9241278195162,2800,2018-04-16 06:51:54,1626.6559358529908,0.0,0.0,0.132271004232672,1626.6559358529908,0.0,0.0,0.132271004232672,1079,0.0,99,Assisted_Takeoff,
0.376627184963102,36.9241277623058,2900,2018-04-16 06:51:54,1626.6559358529908,0.0,0.0,0.138608004435456,1626.6559358529908,0.0,0.0,0.138608004435456,1128,0.0,99,Assisted_Takeoff,
0.376627210637354,36.9241277035246,3000,2018-04-16 06:51:54,1626.6559358529908,0.0,0.0,0.14566500466128002,1626.6559358529908,0.0,0.0,0.14566500466128002,1179,0.0,99,Assisted_Takeoff,
0.376627245166677,36.9241276464478,3100,2018-04-16 06:51:54,1626.6559358529908,0.0,0.0,0.153083004898656,1626.6559358529908,0.0,0.0,0.153083004898656,1242,0.0,99,Assisted_Takeoff,
0.376627269145311,36.9241276102273,3200,2018-04-16 06:51:54,1626.6559358529908,0.0,0.0,0.15791100505315203,1626.6559358529908,0.0,0.0,0.15791100505315203,1280,0.0,99,Assisted_Takeoff,
0.376627286080111,36.9241275822821,3300,2018-04-16 06:51:54,1626.6559358529908,0.0,0.0,0.16154500516944,1626.6559358529908,0.0,0.0,0.16154500516944,1309,0.0,99,Assisted_Takeoff,
0.376627310895969,36.9241275561958,3400,2018-04-16 06:51:54,1626.6559358529908,0.0,0.0,0.165466005294912,1626.6559358529908,0.0,0.0,0.165466005294912,1340,0.0,99,Assisted_Takeoff,
0.376627346627491,36.924127527896,3500,2018-04-16 06:51:54,1626.6559358529908,0.0,0.0,0.170251005448032,1626.6559358529908,0.0,0.0,0.170251005448032,1361,0.0,99,Assisted_Takeoff,
0.376627396358339,36.9241275131051,3600,2018-04-16 06:51:54,1626.6559358529908,0.0,0.0,0.174659005589088,1626.6559358529908,0.0,0.0,0.174659005589088,1367,0.0,99,Assisted_Takeoff,
0.376627455396965,36.9241274745988,3700,2018-04-16 06:51:54,1626.6559358529908,0.0,0.0,0.181899005820768,1626.6559358529908,0.0,0.0,0.181899005820768,1369,0.0,99,P-GPS,Obstacle Avoided. Revise Flight Route
0.376627521281366,36.9241273871631,3800,2018-04-16 06:51:55,1626.6559358529908,0.0,0.0,0.19406600621011202,1626.6559358529908,0.0,0.0,0.19406600621011202,1384,0.0,99,P-GPS,
0.376627573643372,36.9241272752455,3900,2018-04-16 06:51:55,1626.7559358561907,0.1000000032,0.0,0.20761500664368002,1626.7559358561907,0.1000000032,0.0,0.20761500664368002,1392,0.0,99,P-GPS,Home Point Recorded. RTH Altitude:  30m.
0.376627633359432,36.9241271955582,4000,2018-04-16 06:51:55,1626.7559358561907,0.1000000032,0.0,0.21867900699772802,1626.7559358561907,0.1000000032,0.0,0.21867900699772802,1392,0.0,99,P-GPS,
0.376627696320369,36.9241271491779,4100,2018-04-16 06:51:55,1626.9559358625909,0.3000000096,0.0,0.22691100726115201,1626.9559358625909,0.3000000096,0.0,0.22691100726115201,1392,0.0,99,P-GPS,
0.376627776431671,36.9241271496035,4200,2018-04-16 06:51:55,1627.0559358657908,0.4000000128,0.0,0.232118007427776,1627.0559358657908,0.4000000128,0.0,0.232118007427776,1395,0.0,99,P-GPS,
0.376627853357941,36.9241271618346,4300,2018-04-16 06:51:55,1627.2559358721908,0.6000000192,0.0,0.236301007561632,1627.2559358721908,0.6000000192,0.0,0.236301007561632,1400,0.0,99,P-GPS,
0.376627938529429,36.924127218424,4400,2018-04-16 06:51:55,1627.4559358785907,0.8000000256,0.0,0.237608007603456,1627.4559358785907,0.8000000256,0.0,0.237608007603456,1417,0.0,99,P-GPS,
0.376628019234503,36.9241272643985,4500,2018-04-16 06:51:55,1627.555935881791,0.9000000288000001,0.0,0.23994900767836802,1627.555935881791,0.9000000288000001,0.0,0.23994900767836802,1421,0.0,99,P-GPS,
0.376628084145502,36.9241273817367,4600,2018-04-16 06:51:55,1627.7559358881908,1.1000000352000001,0.0,0.23600200755206402,1627.7559358881908,1.1000000352000001,0.0,0.23994900767836802,1425,0.0,99,P-GPS,
0.3766281312743,36.9241275055395,4700,2018-04-16 06:51:55,1627.955935894591,1.3000000416000002,0.0,0.23095600739059202,1627.955935894591,1.3000000416000002,0.0,0.23994900767836802,1435,0.0,99,P-GPS,
0.376628183133524,36.9241276195813,4800,2018-04-16 06:51:56,1628.2559359041907,1.6000000512,0.0,0.227818007290176,1628.2559359041907,1.6000000512,0.0,0.23994900767836802,1449,0.0,99,P-GPS,
0.376628243535565,36.9241276835626,4900,2018-04-16 06:51:56,1628.4559359105908,1.8000000576000001,0.0,0.22931300733801602,1628.4559359105908,1.8000000576000001,0.0,0.23994900767836802,1449,0.0,99,P-GPS,
0.3766282461997,36.9241277768329,5000,2018-04-16 06:51:56,1628.6559359169908,2.000000064,0.0,0.224033007169056,1628.6559359169908,2.000000064,0.0,0.23994900767836802,1487,0.0,99,P-GPS,
0.376628215085631,36.9241278651146,5100,2018-04-16 06:51:56,1628.9559359265907,2.3000000736,0.0,0.21610200691526402,1628.9559359265907,2.3000000736,0.0,0.23994900767836802,1519,0.0,99,P-GPS,
0.376628206235852,36.924128020325,5300,2018-04-16 06:51:56,1629.555935945791,2.9000000928,0.0,0.20730000663360001,1629.555935945791,2.9000000928,0.0,0.23994900767836802,1519,0.0,99,P-GPS,
0.376628247615021,36.924128075065,5400,2018-04-16 06:51:56,1629.855935955391,3.2000001024,0.0,0.208991006687712,1629.855935955391,3.2000001024,0.0,0.23994900767836802,1537,0.0,99,P-GPS,
0.3766283052483,36.9241281163271,5500,2018-04-16 06:51:56,1630.1559359649907,3.500000112,0.0,0.213174006821568,1630.1559359649907,3.500000112,0.0,0.23994900767836802,1594,0.0,99,P-GPS,
0.3766283612568,36.9241281526381,5600,2018-04-16 06:51:56,1630.4559359745908,3.8000001216000006,0.0,0.21757900696252802,1630.4559359745908,3.8000001216000006,0.0,0.23994900767836802,1608,0.0,99,P-GPS,
0.376628404993141,36.92412819342,5700,2018-04-16 06:51:56,1630.7559359841907,4.100000131200001,0.0,0.220693007062176,1630.7559359841907,4.100000131200001,0.0,0.23994900767836802,1608,0.0,99,P-GPS,
0.376628447480874,36.9241282331184,5800,2018-04-16 06:51:57,1631.1559359969908,4.500000144,0.0,0.223863007163616,1631.1559359969908,4.500000144,0.0,0.23994900767836802,1639,0.0,99,P-GPS,
0.376628497844168,36.9241282780244,5900,2018-04-16 06:51:57,1631.555936009791,4.9000001568,0.0,0.22786400729164802,1631.555936009791,4.9000001568,0.0,0.23994900767836802,1639,0.0,99,P-GPS,
0.376628556918824,36.9241283212698,6000,2018-04-16 06:51:57,1631.9559360225908,5.3000001696000005,0.0,0.23302300745673601,1631.9559360225908,5.3000001696000005,0.0,0.23994900767836802,1663,0.0,99,P-GPS,
0.376628612433701,36.9241283647271,6100,2018-04-16 06:51:57,1632.3559360353909,5.7000001824,0.0,0.23795700761462402,1632.3559360353909,5.7000001824,0.0,0.23994900767836802,1669,0.0,99,P-GPS,
0.376628645094588,36.9241284056999,6200,2018-04-16 06:51:57,1632.7559360481907,6.100000195200001,0.0,0.240601007699232,1632.7559360481907,6.100000195200001,0.0,0.240601007699232,1671,0.0,99,P-GPS,
0.376628670320814,36.9241284503125,6300,2018-04-16 06:51:57,1633.2559360641908,6.6000002112,0.0,0.24247100775907202,1633.2559360641908,6.6000002112,0.0,0.24247100775907202,1684,0.0,99,P-GPS,
0.376628704331274,36.924128478854,6400,2018-04-16 06:51:57,1633.7559360801908,7.1000002272,0.0,0.24569500786224,1633.7559360801908,7.1000002272,0.0,0.24569500786224,1684,0.0,99,P-GPS,
0.376628753275787,36.9241285016251,6500,2018-04-16 06:51:57,1634.2559360961907,7.600000243200001,0.0,0.250708008022656,1634.2559360961907,7.600000243200001,0.0,0.250708008022656,1684,0.0,99,P-GPS,
0.376628802010638,36.9241285285567,6600,2018-04-16 06:51:57,1634.6559361089908,8.000000256,0.0,0.255682008181824,1634.6559361089908,8.000000256,0.0,0.255682008181824,1684,0.0,99,P-GPS,
0.376628849009567,36.9241285787933,6700,2018-04-16 06:51:57,1635.1559361249906,8.500000272,0.0,0.26024000832768,1635.1559361249906,8.500000272,0.0,0.26024000832768,1684,0.0,99,P-GPS,
0.376628862468657,36.9241286274063,6800,2018-04-16 06:51:58,1635.655936140991,9.000000288,0.0,0.261236008359552,1635.655936140991,9.000000288,0.0,0.261236008359552,1684,0.0,99,P-GPS,
0.37662885594796,36.9241286728263,6900,2018-04-16 06:51:58,1636.1559361569907,9.500000304,0.0,0.260153008324896,1636.1559361569907,9.500000304,0.0,0.261236008359552,1684,0.0,99,P-GPS,
0.376628830207552,36.9241287122193,7000,2018-04-16 06:51:58,1636.6559361729908,10.00000032,0.0,0.25706000822592,1636.6559361729908,10.00000032,0.0,0.261236008359552,1684,0.0,99,P-GPS,
0.376628794606103,36.9241288126721,7200,2018-04-16 06:51:58,1637.655936204991,11.000000351999999,0.0,0.252836008090752,1637.655936204991,11.000000351999999,0.0,0.261236008359552,1684,0.0,99,P-GPS,
0.376628749499018,36.9241289630033,7400,2018-04-16 06:51:58,1638.655936236991,12.000000384000002,0.0,0.24835000794720002,1638.655936236991,12.000000384000002,0.0,0.261236008359552,1684,0.0,99,P-GPS,
0.376628713606484,36.9241290518239,7500,2018-04-16 06:51:58,1639.1559362529908,12.500000400000001,0.0,0.24522000784704,1639.1559362529908,12.500000400000001,0.0,0.261236008359552,1684,0.0,99,P-GPS,
0.376628660541194,36.9241291502076,7600,2018-04-16 06:51:58,1639.6559362689907,13.000000416,0.0,0.240792007705344,1639.6559362689907,13.000000416,0.0,0.261236008359552,1684,0.0,99,P-GPS,
0.37662860635187,36.9241292552031,7700,2018-04-16 06:51:58,1640.1559362849907,13.500000432,0.0,0.23696100758275201,1640.1559362849907,13.500000432,0.0,0.261236008359552,1684,0.0,99,P-GPS,
0.376628540011097,36.9241293681789,7800,2018-04-16 06:51:59,1640.6559363009908,14.000000448,0.0,0.232734007447488,1640.6559363009908,14.000000448,0.0,0.261236008359552,1684,0.0,99,P-GPS,
0.376628474284655,36.9241294856152,7900,2018-04-16 06:51:59,1641.1559363169908,14.500000464000001,0.0,0.229581007346592,1641.1559363169908,14.500000464000001,0.0,0.261236008359552,1684,0.0,99,P-GPS,
0.376628404233879,36.9241296270856,8000,2018-04-16 06:51:59,1641.6559363329907,15.00000048,0.0,0.22796900729500802,1641.6559363329907,15.00000048,0.0,0.261236008359552,1684,0.0,99,P-GPS,
0.376628338766767,36.9241297795214,8100,2018-04-16 06:51:59,1642.155936348991,15.500000496,0.0,0.22872300731913603,1642.155936348991,15.500000496,0.0,0.261236008359552,1684,0.0,99,P-GPS,
0.376628278594743,36.9241299266919,8200,2018-04-16 06:51:59,1642.6559363649908,16.000000512,0.0,0.231138007396416,1642.6559363649908,16.000000512,0.0,0.261236008359552,1684,0.0,99,P-GPS,
0.376628176166837,36.9241301646719,8400,2018-04-16 06:51:59,1643.655936396991,17.000000544,0.0,0.237344007595008,1643.655936396991,17.000000544,0.0,0.261236008359552,1684,0.0,99,P-GPS,
0.376628128931173,36.9241302622361,8500,2018-04-16 06:51:59,1644.1559364129907,17.50000056,0.0,0.240407007693024,1644.1559364129907,17.50000056,0.0,0.261236008359552,1684,0.0,99,P-GPS,
0.376628064268104,36.9241303477811,8600,2018-04-16 06:51:59,1644.6559364289908,18.000000576,0.0,0.24170900773468804,1644.6559364289908,18.000000576,0.0,0.261236008359552,1684,0.0,99,P-GPS,
0.376627992285384,36.9241304269614,8700,2018-04-16 06:51:59,1645.1559364449909,18.500000592000003,0.0,0.242518007760576,1645.1559364449909,18.500000592000003,0.0,0.261236008359552,1684,-0.3,99,P-GPS,
0.376627939116687,36.9241305007367,8800,2018-04-16 06:52:00,1645.655936460991,19.000000608,0.0,0.24478500783312002,1645.655936460991,19.000000608,0.0,0.261236008359552,1684,-0.6,99,P-GPS,
0.376627908441688,36.9241305774222,8900,2018-04-16 06:52:00,1646.1559364769907,19.500000624000002,0.0,0.249241007975712,1646.1559364769907,19.500000624000002,0.0,0.261236008359552,1684,-0.6,99,P-GPS,
0.376627869705076,36.9241306700823,9000,2018-04-16 06:52:00,1646.6559364929906,20.00000064,0.0,0.254854008155328,1646.6559364929906,20.00000064,0.0,0.261236008359552,1684,-0.6,99,P-GPS,
0.376627815305072,36.92413077916,9100,2018-04-16 06:52:00,1647.1559365089909,20.500000656,0.0,0.261378008364096,1647.1559365089909,20.500000656,0.0,0.261378008364096,1684,-0.6,99,P-GPS,
0.376627768868567,36.924130869583,9200,2018-04-16 06:52:00,1647.6559365249907,21.000000672,0.0,0.267109008547488,1647.6559365249907,21.000000672,0.0,0.267109008547488,1684,-0.6,99,P-GPS,
0.376627737035744,36.9241309334289,9300,2018-04-16 06:52:00,1648.255936544191,21.6000006912,0.0,0.27142000868544,1648.255936544191,21.6000006912,0.0,0.27142000868544,1684,-1.1,99,P-GPS,
0.376627709847446,36.9241309958431,9400,2018-04-16 06:52:00,1648.7559365601908,22.1000007072,0.0,0.27599800883193604,1648.7559365601908,22.1000007072,0.0,0.27599800883193604,1684,-2.4,99,P-GPS,
0.376627682554521,36.9241310599792,9500,2018-04-16 06:52:00,1649.2559365761908,22.6000007232,0.0,0.280871008987872,1649.2559365761908,22.6000007232,0.0,0.280871008987872,1684,-4.9,99,P-GPS,
0.376627635494322,36.9241310926119,9600,2018-04-16 06:52:00,1649.755936592191,23.1000007392,0.0,0.281757009016224,1649.755936592191,23.1000007392,0.0,0.281757009016224,1684,-4.9,99,P-GPS,
0.376627586678252,36.9241310978774,9700,2018-04-16 06:52:00,1650.255936608191,23.6000007552,0.0,0.27994200895814403,1650.255936608191,23.6000007552,0.0,0.281757009016224,1684,-8.5,99,P-GPS,
0.376627558036976,36.9241310814636,9800,2018-04-16 06:52:01,1650.7559366241908,24.100000771200005,0.0,0.276949008862368,1650.7559366241908,24.100000771200005,0.0,0.281757009016224,1684,-10.1,99,P-GPS,
0.37662755969921,36.9241310541413,9900,2018-04-16 06:52:01,1651.3559366433908,24.7000007904,0.0,0.274267008776544,1651.3559366433908,24.7000007904,0.0,0.281757009016224,1684,-10.1,99,P-GPS,
0.376627566945786,36.9241310132118,10000,2018-04-16 06:52:01,1651.8559366593909,25.2000008064,0.0,0.270491008655712,1651.8559366593909,25.2000008064,0.0,0.281757009016224,1684,-10.1,99,P-GPS,
0.376627578626615,36.924130965683,10100,2018-04-16 06:52:01,1652.3559366753907,25.7000008224,0.0,0.2663000085216,1652.3559366753907,25.7000008224,0.0,0.281757009016224,1684,-10.1,99,P-GPS,
0.376627596363423,36.9241309306911,10200,2018-04-16 06:52:01,1652.855936691391,26.200000838400005,0.0,0.26370300843849603,1652.855936691391,26.200000838400005,0.0,0.281757009016224,1684,-10.1,99,P-GPS,
0.376627614341241,36.9241309082402,10300,2018-04-16 06:52:01,1653.3559367073908,26.700000854400002,0.0,0.262401008396832,1653.3559367073908,26.700000854400002,0.0,0.281757009016224,1684,-10.1,99,P-GPS,
0.376627631924772,36.9241308848787,10400,2018-04-16 06:52:01,1653.9559367265906,27.3000008736,0.0,0.261021008352672,1653.9559367265906,27.3000008736,0.0,0.281757009016224,1684,-10.1,99,P-GPS,
0.376627646765393,36.9241308523261,10500,2018-04-16 06:52:01,1654.455936742591,27.8000008896,0.0,0.258633008276256,1654.455936742591,27.8000008896,0.0,0.281757009016224,1684,-10.1,99,P-GPS,
0.376627647680579,36.9241308055738,10600,2018-04-16 06:52:01,1654.9559367585907,28.300000905600005,0.0,0.254146008132672,1654.9559367585907,28.300000905600005,0.0,0.281757009016224,1684,-10.2,99,P-GPS,
0.376627643624125,36.9241307601746,10700,2018-04-16 06:52:01,1655.4559367745908,28.800000921600002,0.0,0.24954000798528003,1655.4559367745908,28.800000921600002,0.0,0.281757009016224,1684,-12.3,99,P-GPS,
0.376627632113468,36.9241307285747,10800,2018-04-16 06:52:02,1655.9559367905908,29.300000937600004,0.0,0.245858007867456,1655.9559367905908,29.300000937600004,0.0,0.281757009016224,1684,-17.2,99,P-GPS,
0.376627627858955,36.9241307170313,10900,2018-04-16 06:52:02,1656.5559368097906,29.900000956800003,0.0,0.24451000782432,1656.5559368097906,29.900000956800003,0.0,0.281757009016224,1684,-22.8,99,P-GPS,
0.376627624043511,36.924130694408,11000,2018-04-16 06:52:02,1657.055936825791,30.400000972800004,0.0,0.242125007748,1657.055936825791,30.400000972800004,0.0,0.281757009016224,1684,-28.3,99,P-GPS,
0.376627628874697,36.9241306613478,11100,2018-04-16 06:52:02,1657.5559368417908,30.900000988800002,0.0,0.239238007655616,1657.5559368417908,30.900000988800002,0.0,0.281757009016224,1684,-29.7,99,P-GPS,
0.376627631319398,36.9241305994374,11200,2018-04-16 06:52:02,1658.0559368577908,31.400001004800004,0.0,0.233507007472224,1658.0559368577908,31.400001004800004,0.0,0.281757009016224,1684,-29.7,99,P-GPS,
0.37662763288128,36.9241305353603,11300,2018-04-16 06:52:02,1658.5559368737909,31.9000010208,0.0,0.22758500728272002,1658.5559368737909,31.9000010208,0.0,0.281757009016224,1684,-29.7,99,P-GPS,
0.376627622828691,36.9241304669986,11400,2018-04-16 06:52:02,1659.055936889791,32.4000010368,0.0,0.220618007059776,1659.055936889791,32.4000010368,0.0,0.281757009016224,1684,-29.7,99,P-GPS,
0.376627612346194,36.9241304227534,11500,2018-04-16 06:52:02,1659.5559369057908,32.9000010528,0.0,0.21588700690838403,1659.5559369057908,32.9000010528,0.0,0.281757009016224,1684,-29.7,99,P-GPS,
0.376627621275156,36.9241303726714,11600,2018-04-16 06:52:02,1660.0559369217906,33.4000010688,0.0,0.21187600678003202,1660.0559369217906,33.4000010688,0.0,0.281757009016224,1684,-29.7,99,P-GPS,
0.376627646096917,36.9241303430179,11700,2018-04-16 06:52:02,1660.6559369409908,34.000001088,0.0,0.210818006746176,1660.6559369409908,34.000001088,0.0,0.281757009016224,1684,-29.7,99,P-GPS,
0.376627665340443,36.9241303084445,11800,2018-04-16 06:52:03,1661.1559369569907,34.500001104,0.0,0.20903200668902402,1661.1559369569907,34.500001104,0.0,0.281757009016224,1684,-29.7,99,P-GPS,
0.376627666337051,36.9241302879183,11900,2018-04-16 06:52:03,1661.655936972991,35.00000112,0.0,0.207294006633408,1661.655936972991,35.00000112,0.0,0.281757009016224,1684,-29.7,99,P-GPS,
0.376627686183509,36.9241302657539,12000,2018-04-16 06:52:03,1662.1559369889908,35.500001136,0.0,0.206731006615392,1662.1559369889908,35.500001136,0.0,0.281757009016224,1684,-29.5,99,P-GPS,
0.376627716712355,36.9241302619312,12100,2018-04-16 06:52:03,1662.6559370049908,36.000001152,0.0,0.208548006673536,1662.6559370049908,36.000001152,0.0,0.281757009016224,1684,-28.3,99,P-GPS,
0.376627759202734,36.9241302381166,12200,2018-04-16 06:52:03,1663.155937020991,36.500001168000004,0.0,0.20958900670684802,1663.155937020991,36.500001168000004,0.0,0.281757009016224,1684,-25.9,99,P-GPS,
0.376627797624445,36.9241302090784,12300,2018-04-16 06:52:03,1663.655937036991,37.000001184000006,0.0,0.210029006720928,1663.655937036991,37.000001184000006,0.0,0.281757009016224,1684,-24.5,99,P-GPS,
0.37662785236459,36.9241301523596,12400,2018-04-16 06:52:03,1664.1559370529908,37.5000012,0.0,0.20967800670969602,1664.1559370529908,37.5000012,0.0,0.281757009016224,1684,-24.5,99,P-GPS,
0.376627908762695,36.9241301059463,12500,2018-04-16 06:52:03,1664.6559370689906,38.000001216,0.0,0.210607006739424,1664.6559370689906,38.000001216,0.0,0.281757009016224,1684,-24.5,99,P-GPS,
0.376628024506794,36.9241299551447,12700,2018-04-16 06:52:03,1665.7559371041907,39.100001251200005,0.0,0.209686006709952,1665.7559371041907,39.100001251200005,0.0,0.281757009016224,1684,-24.5,99,P-GPS,
0.376628095526087,36.9241298791243,12800,2018-04-16 06:52:04,1666.255937120191,39.60000126720001,0.0,0.21119500675824,1666.255937120191,39.60000126720001,0.0,0.281757009016224,1684,-24.5,99,P-GPS,
0.376628172782116,36.9241298298579,12900,2018-04-16 06:52:04,1666.7559371361908,40.10000128320001,0.0,0.215458006894656,1666.7559371361908,40.10000128320001,0.0,0.281757009016224,1684,-24.5,99,P-GPS,
0.376628262755683,36.9241297855656,13000,2018-04-16 06:52:04,1667.2559371521907,40.6000012992,0.0,0.22161400709164802,1667.2559371521907,40.6000012992,0.0,0.281757009016224,1684,-24.5,99,P-GPS,
0.376628328363045,36.9241297769604,13100,2018-04-16 06:52:04,1667.755937168191,41.100001315200004,0.0,0.22756800728217602,1667.755937168191,41.100001315200004,0.0,0.281757009016224,1684,-24.5,99,P-GPS,
0.376628394759592,36.9241297534361,13200,2018-04-16 06:52:04,1668.3559371873907,41.7000013344,0.0,0.23293400745388804,1668.3559371873907,41.7000013344,0.0,0.281757009016224,1684,-24.5,99,P-GPS,
0.376628452588081,36.9241297225134,13300,2018-04-16 06:52:04,1668.8559372033908,42.2000013504,0.0,0.237224007591168,1668.8559372033908,42.2000013504,0.0,0.281757009016224,1684,-24.5,99,P-GPS,
0.376628512553903,36.9241296866233,13400,2018-04-16 06:52:04,1669.3559372193909,42.7000013664,0.0,0.24165500773296003,1669.3559372193909,42.7000013664,0.0,0.281757009016224,1684,-24.5,99,P-GPS,
0.37662855694895,36.9241296865703,13500,2018-04-16 06:52:04,1669.855937235391,43.2000013824,0.0,0.24618500787792,1669.855937235391,43.2000013824,0.0,0.281757009016224,1684,-24.5,99,P-GPS,
0.376628602305594,36.9241296887236,13600,2018-04-16 06:52:04,1670.3559372513907,43.7000013984,0.0,0.250924008029568,1670.3559372513907,43.7000013984,0.0,0.281757009016224,1684,-24.5,99,P-GPS,
0.376628645713397,36.9241297030028,13700,2018-04-16 06:52:04,1670.8559372673908,44.2000014144,0.0,0.25599000819168,1670.8559372673908,44.2000014144,0.0,0.281757009016224,1684,-24.5,99,P-GPS,
0.376628702765118,36.9241296924238,13800,2018-04-16 06:52:04,1671.3559372833909,44.7000014304,0.0,0.261417008365344,1671.3559372833909,44.7000014304,0.0,0.281757009016224,1684,-24.5,99,P-GPS,
0.376628753094623,36.9241296776736,13900,2018-04-16 06:52:05,1671.8559372993907,45.2000014464,0.0,0.26602500851280003,1671.8559372993907,45.2000014464,0.0,0.281757009016224,1684,-24.5,99,P-GPS,
0.376628800002359,36.9241296570129,14000,2018-04-16 06:52:05,1672.355937315391,45.7000014624,0.0,0.27009600864307204,1672.355937315391,45.7000014624,0.0,0.281757009016224,1684,-24.5,99,P-GPS,
0.376628835942932,36.9241296558624,14100,2018-04-16 06:52:05,1672.8559373313908,46.2000014784,0.0,0.273806008761792,1672.8559373313908,46.2000014784,0.0,0.281757009016224,1684,-24.5,99,P-GPS,
0.376628856445856,36.9241296460777,14200,2018-04-16 06:52:05,1673.3559373473909,46.7000014944,0.0,0.27558500881872,1673.3559373473909,46.7000014944,0.0,0.281757009016224,1684,-24.5,99,P-GPS,
0.376628863028841,36.9241296475423,14300,2018-04-16 06:52:05,1673.8559373633907,47.2000015104,0.0,0.27633000884256,1673.8559373633907,47.2000015104,0.0,0.281757009016224,1684,-24.5,99,P-GPS,
0.376628884852026,36.9241296377507,14400,2018-04-16 06:52:05,1674.355937379391,47.70000152640001,0.0,0.278259008904288,1674.355937379391,47.70000152640001,0.0,0.281757009016224,1684,-24.5,99,P-GPS,
0.376628924658118,36.9241296394931,14500,2018-04-16 06:52:05,1674.8559373953908,48.20000154240001,0.0,0.282507009040224,1674.8559373953908,48.20000154240001,0.0,0.282507009040224,1684,-24.5,99,P-GPS,
0.376628979615254,36.9241296408926,14600,2018-04-16 06:52:05,1675.3559374113906,48.7000015584,0.0,0.288346009227072,1675.3559374113906,48.7000015584,0.0,0.288346009227072,1684,-24.5,99,P-GPS,
0.376629026667514,36.9241296449744,14700,2018-04-16 06:52:05,1675.955937430591,49.3000015776,0.0,0.293454009390528,1675.955937430591,49.3000015776,0.0,0.293454009390528,1684,-24.5,99,P-GPS,
0.376629072994304,36.924129650811,14800,2018-04-16 06:52:06,1676.4559374465907,49.8000015936,0.0,0.298551009553632,1676.4559374465907,49.8000015936,0.0,0.298551009553632,1684,-24.5,99,P-GPS,
0.376629102706078,36.9241296735089,14900,2018-04-16 06:52:06,1676.955937462591,50.3000016096,0.0,0.302479009679328,1676.955937462591,50.3000016096,0.0,0.302479009679328,1684,-24.5,99,P-GPS,
0.376629132224476,36.9241296775115,15000,2018-04-16 06:52:06,1677.4559374785908,50.800001625600004,0.0,0.30573600978355203,1677.4559374785908,50.800001625600004,0.0,0.30573600978355203,1684,-24.5,99,P-GPS,
0.376629154844377,36.9241296716771,15100,2018-04-16 06:52:06,1677.9559374945907,51.300001641600005,0.0,0.30792500985360005,1677.9559374945907,51.300001641600005,0.0,0.30792500985360005,1684,-24.5,99,P-GPS,
0.376629170583288,36.9241296720354,15200,2018-04-16 06:52:06,1678.4559375105907,51.8000016576,0.0,0.30960200990726405,1678.4559375105907,51.8000016576,0.0,0.30960200990726405,1684,-24.5,99,P-GPS,
0.376629168268862,36.9241297005943,15300,2018-04-16 06:52:06,1678.9559375265908,52.3000016736,0.0,0.310348009931136,1678.9559375265908,52.3000016736,0.0,0.310348009931136,1684,-24.5,99,P-GPS,
0.376629183185002,36.9241297266796,15400,2018-04-16 06:52:06,1679.4559375425908,52.8000016896,0.0,0.312848010011136,1679.4559375425908,52.8000016896,0.0,0.312848010011136,1684,-24.5,99,P-GPS,
0.376629206611797,36.9241297574777,15500,2018-04-16 06:52:06,1679.9559375585907,53.3000017056,0.0,0.316429010125728,1679.9559375585907,53.3000017056,0.0,0.316429010125728,1684,-24.5,99,P-GPS,
0.37662923098309,36.924129779566,15600,2018-04-16 06:52:06,1680.455937574591,53.800001721600005,0.0,0.319802010233664,1680.455937574591,53.800001721600005,0.0,0.319802010233664,1684,-24.5,99,P-GPS,
0.376629244075373,36.9241298021121,15700,2018-04-16 06:52:06,1680.9559375905908,54.3000017376,0.0,0.322019010304608,1680.9559375905908,54.3000017376,0.0,0.322019010304608,1684,-24.5,99,P-GPS,
0.376629254663923,36.9241297983725,15800,2018-04-16 06:52:06,1681.4559376065906,54.8000017536,0.0,0.322986010335552,1681.4559376065906,54.8000017536,0.0,0.322986010335552,1684,-24.5,99,P-GPS,
0.376629253141735,36.9241297948545,15900,2018-04-16 06:52:07,1681.955937622591,55.3000017696,0.0,0.32269401032620804,1681.955937622591,55.3000017696,0.0,0.322986010335552,1684,-24.5,99,P-GPS,
0.376629250176745,36.9241297993093,16000,2018-04-16 06:52:07,1682.4559376385907,55.8000017856,0.0,0.322551010321632,1682.4559376385907,55.8000017856,0.0,0.322986010335552,1684,-24.5,99,P-GPS,
0.376629247598104,36.9241298345302,16100,2018-04-16 06:52:07,1682.9559376545908,56.3000018016,0.0,0.32363001035616,1682.9559376545908,56.3000018016,0.0,0.32363001035616,1684,-24.5,99,P-GPS,
0.37662924206913,36.9241298600931,16200,2018-04-16 06:52:07,1683.4559376705909,56.8000018176,0.0,0.32406001036992,1683.4559376705909,56.8000018176,0.0,0.32406001036992,1684,-24.5,99,P-GPS,
0.376629232572045,36.9241298881193,16300,2018-04-16 06:52:07,1683.955937686591,57.3000018336,0.0,0.324206010374592,1683.955937686591,57.3000018336,0.0,0.324206010374592,1684,-24.5,99,P-GPS,
0.376629218139553,36.9241299176677,16400,2018-04-16 06:52:07,1684.5559377057907,57.9000018528,0.0,0.323941010366112,1684.5559377057907,57.9000018528,0.0,0.324206010374592,1684,-24.5,99,P-GPS,
0.376629189787935,36.9241299639291,16500,2018-04-16 06:52:07,1685.0559377217908,58.400001868800004,0.0,0.32302001033664,1685.0559377217908,58.400001868800004,0.0,0.324206010374592,1684,-24.5,99,P-GPS,
0.376629172046038,36.9241299905775,16600,2018-04-16 06:52:07,1685.5559377377908,58.900001884800005,0.0,0.322396010316672,1685.5559377377908,58.900001884800005,0.0,0.324206010374592,1684,-24.5,99,P-GPS,
0.376629162038843,36.924130005141,16700,2018-04-16 06:52:07,1686.0559377537907,59.40000190080001,0.0,0.32204001030528,1686.0559377537907,59.40000190080001,0.0,0.324206010374592,1684,-24.5,99,P-GPS,
0.376629164282838,36.9241300081008,16800,2018-04-16 06:52:08,1686.555937769791,59.9000019168,0.0,0.322402010316864,1686.555937769791,59.9000019168,0.0,0.324206010374592,1684,-24.5,99,P-GPS,
0.376629148813842,36.924130029344,16900,2018-04-16 06:52:08,1687.0559377857908,60.4000019328,0.0,0.321817010298144,1687.0559377857908,60.4000019328,0.0,0.324206010374592,1684,-24.5,99,P-GPS,
0.376629142447033,36.9241300350112,17000,2018-04-16 06:52:08,1687.5559378017908,60.9000019488,0.0,0.32143901028604804,1687.5559378017908,60.9000019488,0.0,0.324206010374592,1684,-24.5,99,P-GPS,
0.376629117498864,36.9241300460691,17100,2018-04-16 06:52:08,1688.055937817791,61.400001964800005,0.0,0.319449010222368,1688.055937817791,61.400001964800005,0.0,0.324206010374592,1684,-24.5,99,P-GPS,
0.376629107684232,36.9241300531454,17200,2018-04-16 06:52:08,1688.555937833791,61.900001980800006,0.0,0.318802010201664,1688.555937833791,61.900001980800006,0.0,0.324206010374592,1684,-24.5,99,P-GPS,
0.376629099832282,36.9241300884749,17300,2018-04-16 06:52:08,1689.0559378497908,62.4000019968,0.0,0.319732010231424,1689.0559378497908,62.4000019968,0.0,0.324206010374592,1684,-24.5,99,P-GPS,
0.376629098943966,36.9241301299149,17400,2018-04-16 06:52:08,1689.5559378657906,62.9000020128,0.0,0.321708010294656,1689.5559378657906,62.9000020128,0.0,0.324206010374592,1684,-24.5,99,P-GPS,
0.376629082609451,36.9241301893227,17500,2018-04-16 06:52:08,1690.055937881791,63.4000020288,0.0,0.32315601034099206,1690.055937881791,63.4000020288,0.0,0.324206010374592,1684,-24.5,99,P-GPS,
0.376629060489075,36.9241302539012,17600,2018-04-16 06:52:08,1690.5559378977907,63.900002044800004,0.0,0.32446501038288006,1690.5559378977907,63.900002044800004,0.0,0.32446501038288006,1684,-24.5,99,P-GPS,
0.376629023796568,36.9241303233609,17700,2018-04-16 06:52:08,1691.0559379137908,64.4000020608,0.0,0.32483501039472007,1691.0559379137908,64.4000020608,0.0,0.32483501039472007,1684,-24.5,99,P-GPS,
0.37662900334494,36.9241303567633,17800,2018-04-16 06:52:09,1691.5559379297908,64.9000020768,0.0,0.32483001039456,1691.5559379297908,64.9000020768,0.0,0.32483501039472007,1684,-24.5,99,P-GPS,
0.376628987284411,36.9241303627092,17900,2018-04-16 06:52:09,1692.055937945791,65.40000209280001,0.0,0.32366501035728,1692.055937945791,65.40000209280001,0.0,0.32483501039472007,1684,-24.5,99,P-GPS,
0.376628981542517,36.9241303510816,18000,2018-04-16 06:52:09,1692.5559379617907,65.90000210880001,0.0,0.32243801031801606,1692.5559379617907,65.90000210880001,0.0,0.32483501039472007,1684,-24.5,99,P-GPS,
0.376628956338682,36.9241303635315,18100,2018-04-16 06:52:09,1693.055937977791,66.40000212480001,0.0,0.320803010265696,1693.055937977791,66.40000212480001,0.0,0.32483501039472007,1684,-24.5,99,P-GPS,
0.376628903676432,36.9241303904753,18300,2018-04-16 06:52:09,1694.0559380097907,67.4000021568,0.0,0.31751501016048,1694.0559380097907,67.4000021568,0.0,0.32483501039472007,1684,-24.5,99,P-GPS,
0.376628878298353,36.9241303857041,18400,2018-04-16 06:52:09,1694.555938025791,67.9000021728,0.0,0.31487001007584003,1694.555938025791,67.9000021728,0.0,0.32483501039472007,1684,-24.5,99,P-GPS,
0.37662885586613,36.9241303732644,18500,2018-04-16 06:52:09,1695.0559380417908,68.4000021888,0.0,0.31202700998486405,1695.0559380417908,68.4000021888,0.0,0.32483501039472007,1684,-24.5,99,P-GPS,
0.376628862053403,36.9241303395307,18600,2018-04-16 06:52:09,1695.5559380577909,68.9000022048,0.0,0.31053900993724803,1695.5559380577909,68.9000022048,0.0,0.32483501039472007,1684,-24.5,99,P-GPS,
0.376628883272843,36.9241303157765,18700,2018-04-16 06:52:09,1696.0559380737907,69.4000022208,0.0,0.31109700995510403,1696.0559380737907,69.4000022208,0.0,0.32483501039472007,1684,-24.5,99,P-GPS,
0.376628921131316,36.9241302811674,18800,2018-04-16 06:52:10,1696.555938089791,69.9000022368,0.0,0.312639010004448,1696.555938089791,69.9000022368,0.0,0.32483501039472007,1684,-24.5,99,P-GPS,
0.376628954949212,36.9241302618396,18900,2018-04-16 06:52:10,1697.0559381057908,70.40000225280001,0.0,0.31475301007209605,1697.0559381057908,70.40000225280001,0.0,0.32483501039472007,1684,-24.5,99,P-GPS,
0.376629044984253,36.9241302529331,19100,2018-04-16 06:52:10,1698.055938137791,71.40000228480001,0.0,0.322912010333184,1698.055938137791,71.40000228480001,0.0,0.32483501039472007,1680,-24.5,99,P-GPS,
0.37662913125148,36.9241302789658,19300,2018-04-16 06:52:10,1699.0559381697908,72.4000023168,0.0,0.33269001064608,1699.0559381697908,72.4000023168,0.0,0.33269001064608,1672,-24.5,99,P-GPS,
0.376629179068296,36.9241302883498,19400,2018-04-16 06:52:10,1699.5559381857909,72.9000023328,0.0,0.33784401081100807,1699.5559381857909,72.9000023328,0.0,0.33784401081100807,1669,-24.5,99,P-GPS,
0.37662921443525,36.9241302955239,19500,2018-04-16 06:52:10,1700.055938201791,73.4000023488,0.0,0.34167301093353597,1700.055938201791,73.4000023488,0.0,0.34167301093353597,1662,-24.5,99,P-GPS,
0.376629251391565,36.924130294189,19600,2018-04-16 06:52:10,1700.5559382177908,73.9000023648,0.0,0.34521101104675206,1700.5559382177908,73.9000023648,0.0,0.34521101104675206,1649,-24.5,99,P-GPS,
0.376629271704368,36.9241302933365,19700,2018-04-16 06:52:10,1701.055938233791,74.4000023808,0.0,0.34715501110896,1701.055938233791,74.4000023808,0.0,0.34715501110896,1647,-24.5,99,P-GPS,
0.376629293519411,36.9241302604838,19800,2018-04-16 06:52:11,1701.5559382497909,74.9000023968,0.0,0.347592011122944,1701.5559382497909,74.9000023968,0.0,0.347592011122944,1639,-24.5,98,P-GPS,
0.376629309062502,36.9241302204607,19900,2018-04-16 06:52:11,1702.0559382657907,75.4000024128,0.0,0.347103011107296,1702.0559382657907,75.4000024128,0.0,0.347592011122944,1635,-24.5,98,P-GPS,
0.376629361320898,36.9241301551633,20000,2018-04-16 06:52:11,1702.5559382817908,75.90000242880001,0.0,0.34914801117273603,1702.5559382817908,75.90000242880001,0.0,0.34914801117273603,1601,-24.5,98,P-GPS,
0.376629437787743,36.9241300975885,20100,2018-04-16 06:52:11,1702.9559382945906,76.3000024416,0.0,0.35423701133558405,1702.9559382945906,76.3000024416,0.0,0.35423701133558405,1577,-24.5,98,P-GPS,
0.376629514585569,36.9241300190491,20200,2018-04-16 06:52:11,1703.455938310591,76.8000024576,0.0,0.358729011479328,1703.455938310591,76.8000024576,0.0,0.358729011479328,1500,-24.5,98,P-GPS,
0.376629566052541,36.9241299610792,20300,2018-04-16 06:52:11,1703.8559383233908,77.20000247040001,0.0,0.36173001157536,1703.8559383233908,77.20000247040001,0.0,0.36173001157536,1407,-24.5,98,P-GPS,
0.376629652368215,36.9241298872883,20400,2018-04-16 06:52:11,1704.2559383361909,77.6000024832,0.0,0.367996011775872,1704.2559383361909,77.6000024832,0.0,0.367996011775872,1194,-24.5,98,P-GPS,
0.3766297550754,36.9241298291134,20500,2018-04-16 06:52:11,1704.6559383489907,78.00000249600001,0.0,0.37684001205888,1704.6559383489907,78.00000249600001,0.0,0.37684001205888,1024,-24.5,98,P-GPS,
0.376629875037169,36.9241297861402,20600,2018-04-16 06:52:11,1704.9559383585909,78.3000025056,0.0,0.388239012423648,1704.9559383585909,78.3000025056,0.0,0.388239012423648,1024,-24.5,98,P-GPS,
0.376629984404689,36.9241297749121,20700,2018-04-16 06:52:11,1705.2559383681908,78.6000025152,0.0,0.39960301278729604,1705.2559383681908,78.6000025152,0.0,0.39960301278729604,1024,-24.5,98,P-GPS,
0.376630114849974,36.9241297557903,20800,2018-04-16 06:52:12,1705.355938371391,78.70000251840001,0.0,0.41306001321792,1705.355938371391,78.70000251840001,0.0,0.41306001321792,1024,-24.5,98,P-GPS,
0.37663023457847,36.9241297397845,20900,2018-04-16 06:52:12,1705.455938374591,78.8000025216,0.0,0.425523013616736,1705.455938374591,78.8000025216,0.0,0.425523013616736,1015,-24.5,98,P-GPS,
0.376630370826308,36.9241297062844,21000,2018-04-16 06:52:12,1705.5559383777907,78.9000025248,0.0,0.43939001406048,1705.5559383777907,78.9000025248,0.0,0.43939001406048,906,-24.5,98,P-GPS,
0.376630507381922,36.9241296711048,21100,2018-04-16 06:52:12,1705.5559383777907,78.9000025248,0.0,0.45336301450761607,1705.5559383777907,78.9000025248,0.0,0.45336301450761607,829,-24.5,98,P-GPS,
0.376630677293768,36.9241296294356,21200,2018-04-16 06:52:12,1705.5559383777907,78.9000025248,0.0,0.47094501507024,1705.5559383777907,78.9000025248,0.0,0.47094501507024,783,-24.5,98,P-GPS,
0.376630861888073,36.9241296025264,21300,2018-04-16 06:52:12,1705.5559383777907,78.9000025248,0.0,0.49056701569814404,1705.5559383777907,78.9000025248,0.0,0.49056701569814404,783,-24.5,98,P-GPS,
0.37663107360167,36.9241295637351,21400,2018-04-16 06:52:12,1705.5559383777907,78.9000025248,0.0,0.513036016417152,1705.5559383777907,78.9000025248,0.0,0.513036016417152,673,-24.5,98,P-GPS,
0.376631282818455,36.9241295273204,21500,2018-04-16 06:52:12,1705.5559383777907,78.9000025248,0.0,0.535396017132672,1705.5559383777907,78.9000025248,0.0,0.535396017132672,688,-24.5,98,P-GPS,
0.376631525696399,36.9241294733479,21600,2018-04-16 06:52:12,1705.455938374591,78.8000025216,0.0,0.561313017962016,1705.5559383777907,78.9000025248,0.0,0.561313017962016,765,-24.5,98,P-GPS,
0.376631775841274,36.9241294290862,21700,2018-04-16 06:52:12,1705.355938371391,78.70000251840001,0.0,0.5883160188261121,1705.5559383777907,78.9000025248,0.0,0.5883160188261121,765,-24.5,98,P-GPS,
0.376632026664804,36.9241293520247,21800,2018-04-16 06:52:13,1705.2559383681908,78.6000025152,0.0,0.6151430196845761,1705.5559383777907,78.9000025248,0.0,0.6151430196845761,904,-24.5,98,P-GPS,
0.376632272698265,36.9241292674136,21900,2018-04-16 06:52:13,1705.1559383649908,78.500002512,0.0,0.6415770205304641,1705.5559383777907,78.9000025248,0.0,0.6415770205304641,1024,-24.5,98,P-GPS,
0.376632569818457,36.9241291972173,22000,2018-04-16 06:52:13,1705.1559383649908,78.500002512,0.0,0.673989021567648,1705.5559383777907,78.9000025248,0.0,0.673989021567648,1024,-24.5,98,P-GPS,
0.376632912594519,36.924129166448,22100,2018-04-16 06:52:13,1705.1559383649908,78.500002512,0.0,0.711842022778944,1705.5559383777907,78.9000025248,0.0,0.711842022778944,1024,-24.5,98,P-GPS,
0.376633259094833,36.9241291191223,22200,2018-04-16 06:52:13,1705.0559383617908,78.4000025088,0.0,0.7500660240021121,1705.5559383777907,78.9000025248,0.0,0.7500660240021121,919,-24.5,98,P-GPS,
0.376633578324409,36.9241290613474,22300,2018-04-16 06:52:13,1705.1559383649908,78.500002512,0.0,0.785284025129088,1705.5559383777907,78.9000025248,0.0,0.785284025129088,807,-24.5,98,P-GPS,
0.376633900639887,36.9241289630535,22400,2018-04-16 06:52:13,1705.0559383617908,78.4000025088,0.0,0.820818026266176,1705.5559383777907,78.9000025248,0.0,0.820818026266176,781,-24.5,98,P-GPS,
0.376634219298694,36.9241288620796,22500,2018-04-16 06:52:13,1705.0559383617908,78.4000025088,0.35999970196000003,0.856109027395488,1705.5559383777907,78.9000025248,0.35999970196000003,0.856109027395488,756,-24.5,98,P-GPS,
0.376634536519584,36.9241287612078,22600,2018-04-16 06:52:13,1705.0559383617908,78.4000025088,0.35999970196000003,0.891393028524576,1705.5559383777907,78.9000025248,0.35999970196000003,0.891393028524576,718,-24.5,98,P-GPS,
0.376634835063036,36.9241286987144,22700,2018-04-16 06:52:13,1704.9559383585909,78.3000025056,0.35999970196000003,0.9246650295892801,1705.5559383777907,78.9000025248,0.35999970196000003,0.9246650295892801,718,-24.5,98,P-GPS,
0.376635103859702,36.9241286109871,22800,2018-04-16 06:52:14,1704.8559383553907,78.20000250240001,0.35999970196000003,0.954739030551648,1705.5559383777907,78.9000025248,0.35999970196000003,0.954739030551648,723,-24.5,98,P-GPS,
0.37663553003001,36.9241284255544,23000,2018-04-16 06:52:14,1704.6559383489907,78.00000249600001,0.0,1.0028000320896,1705.5559383777907,78.9000025248,0.35999970196000003,1.0028000320896,738,-24.5,98,P-GPS,
0.376635711075528,36.9241283356689,23100,2018-04-16 06:52:14,1704.555938345791,77.9000024928,0.0,1.0233900327484802,1705.5559383777907,78.9000025248,0.35999970196000003,1.0233900327484802,750,-24.5,98,P-GPS,
0.376635853053046,36.9241282281901,23200,2018-04-16 06:52:14,1704.4559383425908,77.8000024896,0.0,1.03984003327488,1705.5559383777907,78.9000025248,0.35999970196000003,1.03984003327488,760,-24.5,98,P-GPS,
0.376635965031369,36.9241281369751,23300,2018-04-16 06:52:14,1704.3559383393908,77.70000248640001,0.0,1.0529500336944,1705.5559383777907,78.9000025248,0.35999970196000003,1.0529500336944,771,-24.5,98,P-GPS,
0.376636074616694,36.9241280311367,23400,2018-04-16 06:52:14,1704.2559383361909,77.6000024832,0.0,1.0660100341123202,1705.5559383777907,78.9000025248,0.35999970196000003,1.0660100341123202,784,-24.5,98,P-GPS,
0.376636198354825,36.9241279459044,23500,2018-04-16 06:52:14,1704.155938332991,77.50000248,0.0,1.08053003457696,1705.5559383777907,78.9000025248,0.35999970196000003,1.08053003457696,788,-24.5,98,P-GPS,
0.376636343476055,36.9241278344,23600,2018-04-16 06:52:14,1704.0559383297907,77.4000024768,0.0,1.0977700351286401,1705.5559383777907,78.9000025248,0.35999970196000003,1.0977700351286401,818,-24.5,98,P-GPS,
0.376636474934639,36.9241277604954,23700,2018-04-16 06:52:14,1703.9559383265907,77.3000024736,0.0,1.1131500356208,1705.5559383777907,78.9000025248,0.35999970196000003,1.1131500356208,833,-24.5,98,P-GPS,
0.376636611995885,36.9241276726553,23800,2018-04-16 06:52:15,1703.9559383265907,77.3000024736,0.0,1.1293700361398402,1705.5559383777907,78.9000025248,0.35999970196000003,1.1293700361398402,833,-24.5,98,P-GPS,
0.376636716361232,36.9241276092359,23900,2018-04-16 06:52:15,1703.8559383233908,77.20000247040001,0.0,1.1417100365347201,1705.5559383777907,78.9000025248,0.35999970196000003,1.1417100365347201,801,-24.5,98,P-GPS,
0.376636835206704,36.9241275208238,24000,2018-04-16 06:52:15,1703.8559383233908,77.20000247040001,0.0,1.15602003699264,1705.5559383777907,78.9000025248,0.35999970196000003,1.15602003699264,765,-24.5,98,P-GPS,
0.376637061593802,36.9241272997729,24300,2018-04-16 06:52:15,1703.6559383169906,77.000002464,0.0,1.18426003789632,1705.5559383777907,78.9000025248,0.35999970196000003,1.18426003789632,761,-24.5,98,P-GPS,
0.376637082063343,36.9241271975444,24400,2018-04-16 06:52:15,1703.5559383137909,76.9000024608,0.0,1.18818003802176,1705.5559383777907,78.9000025248,0.35999970196000003,1.18818003802176,754,-24.5,98,P-GPS,
0.37663705013607,36.9241271209017,24500,2018-04-16 06:52:15,1703.455938310591,76.8000024576,0.0,1.186000037952,1705.5559383777907,78.9000025248,0.35999970196000003,1.18818003802176,745,-24.5,98,P-GPS,
0.37663702389451,36.9241270206121,24600,2018-04-16 06:52:15,1703.355938307391,76.7000024544,0.0,1.1849500379184001,1705.5559383777907,78.9000025248,0.35999970196000003,1.18818003802176,744,-24.5,98,P-GPS,
0.376636990600972,36.9241269655965,24700,2018-04-16 06:52:15,1703.2559383041907,76.6000024512,0.35999970196000003,1.1823500378352,1705.5559383777907,78.9000025248,0.35999970196000003,1.18818003802176,741,-24.5,98,P-GPS,
0.376636964578437,36.9241268914561,24800,2018-04-16 06:52:16,1703.1559383009908,76.500002448,0.35999970196000003,1.1809600377907201,1705.5559383777907,78.9000025248,0.35999970196000003,1.18818003802176,740,-24.5,98,P-GPS,
0.376636919780757,36.9241268442772,24900,2018-04-16 06:52:16,1703.0559382977908,76.4000024448,0.35999970196000003,1.17703003766496,1705.5559383777907,78.9000025248,0.35999970196000003,1.18818003802176,738,-24.5,98,P-GPS,
0.37663688046849,36.9241267768014,25000,2018-04-16 06:52:16,1703.0559382977908,76.4000024448,0.35999970196000003,1.17416003757312,1705.5559383777907,78.9000025248,0.35999970196000003,1.18818003802176,742,-24.5,98,P-GPS,
0.376636822833786,36.9241267363131,25100,2018-04-16 06:52:16,1702.9559382945906,76.3000024416,0.35999970196000003,1.16876003740032,1705.5559383777907,78.9000025248,0.35999970196000003,1.18818003802176,744,-24.5,98,P-GPS,
0.37663679501182,36.9241267031463,25200,2018-04-16 06:52:16,1702.8559382913907,76.2000024384,0.35999970196000003,1.16647003732704,1705.5559383777907,78.9000025248,0.35999970196000003,1.18818003802176,750,-24.5,98,P-GPS,
0.376636764236672,36.9241267082109,25300,2018-04-16 06:52:16,1702.755938288191,76.1000024352,0.35999970196000003,1.163000037216,1705.5559383777907,78.9000025248,0.35999970196000003,1.18818003802176,748,-24.5,98,P-GPS,
0.376636702290662,36.9241266979663,25400,2018-04-16 06:52:16,1702.655938284991,76.000002432,0.35999970196000003,1.15648003700736,1705.5559383777907,78.9000025248,0.35999970196000003,1.18818003802176,762,-24.5,98,P-GPS,
0.376636454439043,36.9241266690309,25600,2018-04-16 06:52:16,1702.4559382785908,75.8000024256,0.35999970196000003,1.13019003616608,1705.5559383777907,78.9000025248,0.35999970196000003,1.18818003802176,768,-24.5,98,P-GPS,
0.376636326957119,36.924126658417,25700,2018-04-16 06:52:16,1702.3559382753908,75.7000024224,0.35999970196000003,1.11659003573088,1705.5559383777907,78.9000025248,0.35999970196000003,1.18818003802176,763,-24.5,98,P-GPS,
0.37663618502764,36.9241266379445,25800,2018-04-16 06:52:17,1702.2559382721909,75.60000241920001,0.35999970196000003,1.1016800352537601,1705.5559383777907,78.9000025248,0.35999970196000003,1.18818003802176,759,-24.5,98,P-GPS,
0.376636041444476,36.9241266444234,25900,2018-04-16 06:52:17,1702.2559382721909,75.60000241920001,0.35999970196000003,1.0859500347504,1705.5559383777907,78.9000025248,0.35999970196000003,1.18818003802176,793,-24.5,98,P-GPS,
0.376635871454464,36.9241266380221,26000,2018-04-16 06:52:17,1702.1559382689907,75.500002416,0.35999970196000003,1.06769003416608,1705.5559383777907,78.9000025248,0.35999970196000003,1.18818003802176,1024,-24.5,98,P-GPS,
0.376635699601512,36.9241266540416,26100,2018-04-16 06:52:17,1702.0559382657907,75.4000024128,0.35999970196000003,1.04868003355776,1705.5559383777907,78.9000025248,0.35999970196000003,1.18818003802176,1024,-24.5,98,P-GPS,
0.376635529747475,36.9241266781196,26200,2018-04-16 06:52:17,1702.0559382657907,75.4000024128,0.35999970196000003,1.02968003294976,1705.5559383777907,78.9000025248,0.35999970196000003,1.18818003802176,1024,-24.5,98,P-GPS,
0.376635405209778,36.9241267311313,26300,2018-04-16 06:52:17,1701.9559382625907,75.3000024096,0.35999970196000003,1.01484003247488,1705.5559383777907,78.9000025248,0.35999970196000003,1.18818003802176,1024,-24.5,98,P-GPS,
0.376635270773583,36.9241267649777,26400,2018-04-16 06:52:17,1701.9559382625907,75.3000024096,0.0,0.999429031981728,1705.5559383777907,78.9000025248,0.35999970196000003,1.18818003802176,1024,-24.5,98,P-GPS,
0.376635127833655,36.9241268084595,26500,2018-04-16 06:52:17,1701.9559382625907,75.3000024096,0.35999970196000003,0.9828500314512001,1705.5559383777907,78.9000025248,0.35999970196000003,1.18818003802176,1024,-24.5,98,P-GPS,
0.376634961369224,36.9241268543606,26600,2018-04-16 06:52:17,1701.9559382625907,75.3000024096,0.503999582744,0.963663030837216,1705.5559383777907,78.9000025248,0.503999582744,1.18818003802176,1024,-24.5,98,P-GPS,
0.376634809473667,36.9241269321077,26700,2018-04-16 06:52:17,1701.855938259391,75.2000024064,0.503999582744,0.945263030248416,1705.5559383777907,78.9000025248,0.503999582744,1.18818003802176,1024,-24.5,98,P-GPS,
0.376634647489086,36.9241270021198,26800,2018-04-16 06:52:18,1701.855938259391,75.2000024064,0.35999970196000003,0.925978029631296,1705.5559383777907,78.9000025248,0.503999582744,1.18818003802176,1024,-24.5,98,P-GPS,
0.376634487755829,36.9241270902645,26900,2018-04-16 06:52:18,1701.855938259391,75.2000024064,0.503999582744,0.906523029008736,1705.5559383777907,78.9000025248,0.503999582744,1.18818003802176,1024,-24.5,98,P-GPS,
0.376634229593717,36.9241272482344,27000,2018-04-16 06:52:18,1701.855938259391,75.2000024064,1.007999165488,0.8748150279940801,1705.5559383777907,78.9000025248,1.007999165488,1.18818003802176,1024,-24.5,98,P-GPS,
0.376633728685972,36.9241276335794,27100,2018-04-16 06:52:18,1701.855938259391,75.2000024064,1.007999165488,0.8122710259926721,1705.5559383777907,78.9000025248,1.007999165488,1.18818003802176,1024,-24.5,98,P-GPS,
0.376632787463254,36.9241283840555,27200,2018-04-16 06:52:18,1701.855938259391,75.2000024064,5.111995767832,0.698528022352896,1705.5559383777907,78.9000025248,5.111995767832,1.18818003802176,1024,-24.5,98,P-GPS,
0.376631455835745,36.9241294897243,27300,2018-04-16 06:52:18,1701.855938259391,75.2000024064,7.127994098808,0.553854017723328,1705.5559383777907,78.9000025248,7.127994098808,1.18818003802176,1024,-24.5,98,P-GPS,
0.376629673703682,36.9241309362451,27400,2018-04-16 06:52:18,1701.855938259391,75.2000024064,8.927992608608001,0.422431013517792,1705.5559383777907,78.9000025248,8.927992608608001,1.18818003802176,1024,-24.5,98,P-GPS,
0.376627570468314,36.9241326303624,27500,2018-04-16 06:52:18,1701.855938259391,75.2000024064,10.223991535664,0.439806014073792,1705.5559383777907,78.9000025248,10.223991535664,1.18818003802176,1024,-24.5,98,P-GPS,
0.376625103654135,36.9241345694933,27600,2018-04-16 06:52:18,1701.855938259391,75.2000024064,11.735990283896,0.6588110210819521,1705.5559383777907,78.9000025248,11.735990283896,1.18818003802176,1024,-24.5,98,P-GPS,
0.376622440774867,36.9241366654677,27700,2018-04-16 06:52:18,1701.855938259391,75.2000024064,13.031989210952,0.9836640314772481,1705.5559383777907,78.9000025248,13.031989210952,1.18818003802176,1024,-24.5,98,P-GPS,
0.376619512608038,36.9241389327191,27800,2018-04-16 06:52:19,1701.9559382625907,75.3000024096,14.075988346635999,1.368500043792,1705.5559383777907,78.9000025248,14.075988346635999,1.368500043792,1024,-24.5,98,P-GPS,
0.376616431629043,36.9241413341995,27900,2018-04-16 06:52:19,1701.9559382625907,75.3000024096,15.335987303496001,1.7878400572108801,1705.5559383777907,78.9000025248,15.335987303496001,1.7878400572108801,1024,-24.5,98,P-GPS,
0.376613071432562,36.9241439081305,28000,2018-04-16 06:52:19,1701.9559382625907,75.3000024096,16.37998643918,2.2479500719344,1705.5559383777907,78.9000025248,16.37998643918,2.2479500719344,1024,-24.5,98,P-GPS,
0.376609545905862,36.9241466664635,28100,2018-04-16 06:52:19,1702.0559382657907,75.4000024128,17.387985604668,2.7392300876553604,1705.5559383777907,78.9000025248,17.387985604668,2.7392300876553604,1024,-24.5,98,P-GPS,
0.376605716917809,36.9241496367779,28200,2018-04-16 06:52:19,1702.0559382657907,75.4000024128,18.683984531724,3.27303010473696,1705.5559383777907,78.9000025248,18.683984531724,3.27303010473696,1024,-24.5,98,P-GPS,
0.376601714182923,36.9241527979331,28300,2018-04-16 06:52:19,1702.0559382657907,75.4000024128,19.691983697212,3.8369001227808,1705.5559383777907,78.9000025248,19.691983697212,3.8369001227808,1024,-24.5,98,P-GPS,
0.376597563194496,36.924156093443,28400,2018-04-16 06:52:19,1702.1559382689907,75.500002416,20.483983041524,4.42388014156416,1705.5559383777907,78.9000025248,20.483983041524,4.42388014156416,1024,-24.5,98,P-GPS,
0.376593320645176,36.9241595168131,28500,2018-04-16 06:52:19,1702.1559382689907,75.500002416,21.491982207012,5.0285501609136,1705.5559383777907,78.9000025248,21.491982207012,5.0285501609136,1024,-24.5,98,P-GPS,
0.376588847635206,36.9241631100805,28600,2018-04-16 06:52:19,1702.1559382689907,75.500002416,21.491982207012,5.66522018128704,1705.5559383777907,78.9000025248,21.491982207012,5.66522018128704,1024,-24.5,98,P-GPS,
0.376584156283464,36.9241668923943,28700,2018-04-16 06:52:19,1702.1559382689907,75.500002416,23.795980299556,6.3342902026972805,1705.5559383777907,78.9000025248,23.795980299556,6.3342902026972805,1024,-24.5,98,P-GPS,
0.376579213138454,36.9241708498215,28800,2018-04-16 06:52:20,1702.1559382689907,75.500002416,24.803979465044,7.03742022519744,1705.5559383777907,78.9000025248,24.803979465044,7.03742022519744,1025,-24.5,98,P-GPS,
0.376574061383255,36.9241749820472,28900,2018-04-16 06:52:20,1702.1559382689907,75.500002416,26.099978392100002,7.771000248672,1705.5559383777907,78.9000025248,26.099978392100002,7.771000248672,1024,-24.5,98,P-GPS,
0.376568631896932,36.9241793273441,29000,2018-04-16 06:52:20,1702.1559382689907,75.500002416,26.891977736412,8.54358027339456,1705.5559383777907,78.9000025248,26.891977736412,8.54358027339456,1024,-24.5,98,P-GPS,
0.376563013954042,36.9241838488014,29100,2018-04-16 06:52:20,1702.1559382689907,75.500002416,28.151976693271997,9.3449502990384,1705.5559383777907,78.9000025248,28.151976693271997,9.3449502990384,1024,-24.5,98,P-GPS,
0.376557095354794,36.9241885743581,29200,2018-04-16 06:52:20,1702.1559382689907,75.500002416,29.195975828955998,10.1866003259712,1705.5559383777907,78.9000025248,29.195975828955998,10.1866003259712,1024,-24.5,98,P-GPS,
0.376551001131118,36.924193428137,29300,2018-04-16 06:52:20,1702.1559382689907,75.500002416,30.203974994444,11.0524003536768,1705.5559383777907,78.9000025248,30.203974994444,11.0524003536768,1024,-24.5,98,P-GPS,
0.376544587263426,36.9241985037576,29400,2018-04-16 06:52:20,1702.1559382689907,75.500002416,31.4999739215,11.9613003827616,1705.5559383777907,78.9000025248,31.4999739215,11.9613003827616,1024,-24.5,98,P-GPS,
0.376538021983012,36.9242037086967,29500,2018-04-16 06:52:20,1702.1559382689907,75.500002416,32.255973295616,12.89250041256,1705.5559383777907,78.9000025248,32.255973295616,12.89250041256,1024,-24.5,98,P-GPS,
0.376524205280562,36.9242146923863,29700,2018-04-16 06:52:20,1702.1559382689907,75.500002416,34.307971596788,14.854500475344,1705.5559383777907,78.9000025248,34.307971596788,14.854500475344,1024,-24.5,98,P-GPS,
0.376516980799504,36.9242204510219,29800,2018-04-16 06:52:21,1702.1559382689907,75.500002416,35.099970941100004,15.881600508211202,1705.5559383777907,78.9000025248,35.099970941100004,15.881600508211202,1024,-24.5,98,P-GPS,
0.376509692105642,36.924226291042,29900,2018-04-16 06:52:21,1702.1559382689907,75.500002416,36.107970106588,16.92000054144,1705.5559383777907,78.9000025248,36.107970106588,16.92000054144,1024,-24.5,98,P-GPS,
0.376502152891956,36.9242323141046,30000,2018-04-16 06:52:21,1702.1559382689907,75.500002416,37.115969272076,17.9929005757728,1705.5559383777907,78.9000025248,37.115969272076,17.9929005757728,1024,-24.5,98,P-GPS,
0.376494545830779,36.9242384238704,30100,2018-04-16 06:52:21,1702.1559382689907,75.500002416,37.835968675996,19.0778006104896,1705.5559383777907,78.9000025248,37.835968675996,19.0778006104896,1024,-24.5,98,P-GPS,
0.376486628179735,36.9242448187048,30200,2018-04-16 06:52:21,1702.2559382721909,75.60000241920001,38.627968020308,20.209500646704,1705.5559383777907,78.9000025248,38.627968020308,20.209500646704,1024,-24.5,98,P-GPS,
0.37647865865298,36.924251363889,30300,2018-04-16 06:52:21,1702.2559382721909,75.60000241920001,39.347967424228,21.3563006834016,1705.5559383777907,78.9000025248,39.347967424228,21.3563006834016,1024,-24.5,98,P-GPS,
0.376470522438697,36.9242581653119,30400,2018-04-16 06:52:21,1702.2559382721909,75.60000241920001,40.103966798344,22.5356007211392,1705.5559383777907,78.9000025248,40.103966798344,22.5356007211392,1024,-24.5,98,P-GPS,
0.376462464910827,36.9242650700372,30500,2018-04-16 06:52:21,1702.2559382721909,75.60000241920001,40.85996617246,23.715500758896,1705.5559383777907,78.9000025248,40.85996617246,23.715500758896,1024,-24.5,98,P-GPS,
0.37645433068976,36.9242722093661,30600,2018-04-16 06:52:21,1702.2559382721909,75.60000241920001,41.327965785008,24.9186007973952,1705.5559383777907,78.9000025248,41.327965785008,24.9186007973952,1024,-24.5,98,P-GPS,
0.376446283140995,36.9242794170692,30700,2018-04-16 06:52:21,1702.2559382721909,75.60000241920001,41.327965785008,26.1192008358144,1705.5559383777907,78.9000025248,41.327965785008,26.1192008358144,1024,-24.5,98,P-GPS,
0.376438044478044,36.9242868893534,30800,2018-04-16 06:52:22,1702.2559382721909,75.60000241920001,42.551964771672004,27.355200875366403,1705.5559383777907,78.9000025248,42.551964771672004,27.355200875366403,1024,-24.5,98,P-GPS,
0.376429798936544,36.9242944549789,30900,2018-04-16 06:52:22,1702.2559382721909,75.60000241920001,42.803964563044,28.5984009151488,1705.5559383777907,78.9000025248,42.803964563044,28.5984009151488,1024,-24.5,98,P-GPS,
0.376421589168703,36.9243021112219,31000,2018-04-16 06:52:22,1702.2559382721909,75.60000241920001,43.55996393716,29.8452009550464,1705.5559383777907,78.9000025248,43.55996393716,29.8452009550464,1024,-24.5,98,P-GPS,
0.376405452109429,36.9243175740406,31200,2018-04-16 06:52:22,1702.1559382689907,75.500002416,44.27996334108,32.326201034438405,1705.5559383777907,78.9000025248,44.27996334108,32.326201034438405,1024,-24.5,98,P-GPS,
0.376397406684156,36.9243254716793,31300,2018-04-16 06:52:22,1702.1559382689907,75.500002416,44.531963132452,33.577001074464,1705.5559383777907,78.9000025248,44.531963132452,33.577001074464,1024,-24.5,98,P-GPS,
0.376389303494717,36.924333481348,31400,2018-04-16 06:52:22,1702.1559382689907,75.500002416,44.81996289402,34.841001114912004,1705.5559383777907,78.9000025248,44.81996289402,34.841001114912004,1024,-24.5,98,P-GPS,
