latitude,longitude,time_millisecond,datetime_utc,altitude_m,ascent_m,speed_kph,distance_m,max_altitude_m,max_ascent_m,max_speed_kph,max_distance_m,rc_throttle,gimbal_pitch_degrees,battery_percent,flycState,message
0.0376306236020058,36.8793436973862,0,2018-04-11 06:38:46,1827.3665135757317,0.0,0.0,0.0,1827.3665135757317,0.0,0.0,0.0,364,0.0,99,Motors_Started,
0.0376306070984638,36.8793436563576,100,2018-04-11 06:38:46,1827.3665135757317,0.0,0.0,0.004917920157373441,1827.3665135757317,0.0,0.0,0.004917920157373441,364,0.0,99,Motors_Started,
0.0376305616873055,36.8793436090209,200,2018-04-11 06:38:46,1827.3665135757317,0.0,0.0,0.0119989003839648,1827.3665135757317,0.0,0.0,0.0119989003839648,364,0.0,99,Motors_Started,
0.0376305223004105,36.8793435619663,300,2018-04-11 06:38:46,1827.3665135757317,0.0,0.0,0.0188068006018176,1827.3665135757317,0.0,0.0,0.0188068006018176,364,0.0,99,Motors_Started,
0.0376304906520085,36.8793435090344,400,2018-04-11 06:38:46,1827.3665135757317,0.0,0.0,0.025638300820425602,1827.3665135757317,0.0,0.0,0.025638300820425602,364,0.0,99,Motors_Started,
0.037630467360832,36.8793434580125,500,2018-04-11 06:38:46,1827.3665135757317,0.0,0.0,0.0317884010172288,1827.3665135757317,0.0,0.0,0.0317884010172288,364,0.0,99,Motors_Started,
0.0376304540636708,36.8793434036318,600,2018-04-11 06:38:47,1827.3665135757317,0.0,0.0,0.03771750120696,1827.3665135757317,0.0,0.0,0.03771750120696,364,0.0,99,Motors_Started,Setting new Return-To-Home altitude to 30m (98 ft). Setting new Maximum Flight Altitude to 150m (492 ft)
0.0376304425293765,36.8793433516248,700,2018-04-11 06:38:47,1827.3665135757317,0.0,0.0,0.0434043013889376,1827.3665135757317,0.0,0.0,0.0434043013889376,364,0.0,99,Motors_Started,
0.0376304094017367,36.8793432956998,800,2018-04-11 06:38:47,1827.3665135757317,0.0,0.0,0.0506243016199776,1827.3665135757317,0.0,0.0,0.0506243016199776,364,0.0,99,Motors_Started,
0.0376303766387412,36.8793432419978,900,2018-04-11 06:38:47,1827.3665135757317,0.0,0.0,0.0576096018435072,1827.3665135757317,0.0,0.0,0.0576096018435072,394,0.0,99,Motors_Started,
0.0376303560626643,36.8793431869271,1000,2018-04-11 06:38:47,1827.3665135757317,0.0,0.0,0.06409040205089281,1827.3665135757317,0.0,0.0,0.06409040205089281,512,0.0,99,Motors_Started,
0.0376303398990854,36.8793431341661,1100,2018-04-11 06:38:47,1827.3665135757317,0.0,0.0,0.07013080224418561,1827.3665135757317,0.0,0.0,0.07013080224418561,588,0.0,99,Motors_Started,
0.0376303338794404,36.8793431150163,1200,2018-04-11 06:38:47,1827.3665135757317,0.0,0.0,0.07233470231471041,1827.3665135757317,0.0,0.0,0.07233470231471041,1135,0.0,99,Motors_Started,
0.0376303270436905,36.879343095854,1300,2018-04-11 06:38:47,1827.3665135757317,0.0,0.0,0.0745817023866144,1827.3665135757317,0.0,0.0,0.0745817023866144,1034,0.0,99,Motors_Started,
0.0376303311425349,36.8793431044402,1400,2018-04-11 06:38:47,1827.3665135757317,0.0,0.0,0.0735237023527584,1827.3665135757317,0.0,0.0,0.0745817023866144,1024,0.0,99,Motors_Started,
0.03763033031269,36.8793431041921,1500,2018-04-11 06:38:48,1827.3665135757317,0.0,0.0,0.07358930235485761,1827.3665135757317,0.0,0.0,0.0745817023866144,1024,0.0,99,Assisted_Takeoff,
0.0376303364893272,36.8793431289872,1600,2018-04-11 06:38:48,1827.3665135757317,0.0,0.0,0.0708158022661056,1827.3665135757317,0.0,0.0,0.0745817023866144,1024,0.0,99,Assisted_Takeoff,
0.0376303386788719,36.8793431382134,1700,2018-04-11 06:38:48,1827.3665135757317,0.0,0.0,0.0697906022332992,1827.3665135757317,0.0,0.0,0.0745817023866144,1024,0.0,99,Assisted_Takeoff,
0.0376303464636993,36.8793431641971,1800,2018-04-11 06:38:48,1827.3665135757317,0.0,0.0,0.0668252021384064,1827.3665135757317,0.0,0.0,0.0745817023866144,1024,0.0,99,Assisted_Takeoff,
0.0376303497088829,36.8793431793868,1900,2018-04-11 06:38:48,1827.3665135757317,0.0,0.0,0.06516150208516801,1827.3665135757317,0.0,0.0,0.0745817023866144,1024,0.0,99,Assisted_Takeoff,
0.0376303915612422,36.8793431736413,2000,2018-04-11 06:38:48,1827.3665135757317,0.0,0.0,0.0637039020385248,1827.3665135757317,0.0,0.0,0.0745817023866144,1024,0.0,99,Assisted_Takeoff,
0.0376304248292589,36.8793431591411,2100,2018-04-11 06:38:48,1827.3665135757317,0.0,0.0,0.0638073020418336,1827.3665135757317,0.0,0.0,0.0745817023866144,1024,0.0,99,Assisted_Takeoff,
0.0376304259629613,36.8793431531914,2200,2018-04-11 06:38:48,1827.3665135757317,0.0,0.0,0.06438530206032961,1827.3665135757317,0.0,0.0,0.0745817023866144,1024,0.0,99,Assisted_Takeoff,
0.0376304175629891,36.8793431484228,2300,2018-04-11 06:38:48,1827.3665135757317,0.0,0.0,0.06520630208660161,1827.3665135757317,0.0,0.0,0.0745817023866144,1024,0.0,99,Assisted_Takeoff,
0.0376304398837402,36.8793431511338,2400,2018-04-11 06:38:48,1827.3665135757317,0.0,0.0,0.0640902020508864,1827.3665135757317,0.0,0.0,0.0745817023866144,1024,0.0,99,Assisted_Takeoff,
0.0376304626124165,36.8793431524918,2500,2018-04-11 06:38:48,1827.3665135757317,0.0,0.0,0.06318500202192,1827.3665135757317,0.0,0.0,0.0745817023866144,1024,0.0,99,Assisted_Takeoff,
0.0376305134849561,36.879343159341,2600,2018-04-11 06:38:49,1827.3665135757317,0.0,0.0,0.0610742019543744,1827.3665135757317,0.0,0.0,0.0745817023866144,1024,0.0,99,Assisted_Takeoff,
0.0376305571006912,36.8793431643678,2700,2018-04-11 06:38:49,1827.3665135757317,0.0,0.0,0.059734401911500805,1827.3665135757317,0.0,0.0,0.0745817023866144,1024,0.0,99,Assisted_Takeoff,
0.0376305950850126,36.8793431732699,2800,2018-04-11 06:38:49,1827.3665135757317,0.0,0.0,0.058371101867875204,1827.3665135757317,0.0,0.0,0.0745817023866144,1024,0.0,99,Assisted_Takeoff,
0.037630619653309,36.8793431807389,2900,2018-04-11 06:38:49,1827.3665135757317,0.0,0.0,0.05745600183859201,1827.3665135757317,0.0,0.0,0.0745817023866144,1024,0.0,99,Assisted_Takeoff,
0.0376306651704688,36.8793431900151,3000,2018-04-11 06:38:49,1827.3665135757317,0.0,0.0,0.0566118018115776,1827.3665135757317,0.0,0.0,0.0745817023866144,1024,0.0,99,Assisted_Takeoff,
0.0376307049024858,36.8793431978757,3100,2018-04-11 06:38:49,1827.3665135757317,0.0,0.0,0.0562796018009472,1827.3665135757317,0.0,0.0,0.0745817023866144,1024,0.0,99,Assisted_Takeoff,
0.0376307341234439,36.8793432051023,3200,2018-04-11 06:38:49,1827.3665135757317,0.0,0.0,0.056107701795446406,1827.3665135757317,0.0,0.0,0.0745817023866144,1024,0.0,99,Assisted_Takeoff,
0.0376307539130619,36.8793432119735,3300,2018-04-11 06:38:49,1827.3665135757317,0.0,0.0,0.055892101788547206,1827.3665135757317,0.0,0.0,0.0745817023866144,1024,0.0,99,Assisted_Takeoff,
0.0376307919855474,36.8793432167656,3400,2018-04-11 06:38:49,1827.3665135757317,0.0,0.0,0.056633201812262404,1827.3665135757317,0.0,0.0,0.0745817023866144,1024,0.0,99,Assisted_Takeoff,
0.0376308277170302,36.8793432224377,3500,2018-04-11 06:38:49,1827.3665135757317,0.0,0.0,0.0574882018396224,1827.3665135757317,0.0,0.0,0.0745817023866144,1024,0.0,99,Assisted_Takeoff,
0.0376308508475998,36.8793432249926,3600,2018-04-11 06:38:50,1827.3665135757317,0.0,0.0,0.0582954018654528,1827.3665135757317,0.0,0.0,0.0745817023866144,1024,0.0,99,Assisted_Takeoff,
0.0376308663261508,36.8793432289302,3700,2018-04-11 06:38:50,1827.3665135757317,0.0,0.0,0.0586728018775296,1827.3665135757317,0.0,0.0,0.0745817023866144,1024,0.0,99,Assisted_Takeoff,
0.0376308984809671,36.8793432293643,3800,2018-04-11 06:38:50,1827.3665135757317,0.0,0.0,0.0603597019315104,1827.3665135757317,0.0,0.0,0.0745817023866144,1024,0.0,99,Assisted_Takeoff,
0.0376309301028623,36.8793432321475,3900,2018-04-11 06:38:50,1827.3665135757317,0.0,0.0,0.0619558019825856,1827.3665135757317,0.0,0.0,0.0745817023866144,1024,0.0,99,Assisted_Takeoff,
0.0376309493637925,36.8793432317359,4000,2018-04-11 06:38:50,1827.3665135757317,0.0,0.0,0.0631971020223072,1827.3665135757317,0.0,0.0,0.0745817023866144,1024,0.0,99,Assisted_Takeoff,
0.0376309616908973,36.8793432345266,4100,2018-04-11 06:38:50,1827.3665135757317,0.0,0.0,0.0637419020397408,1827.3665135757317,0.0,0.0,0.0745817023866144,1024,0.0,99,Assisted_Takeoff,
0.0376309623127594,36.8793432038013,4200,2018-04-11 06:38:50,1827.3665135757317,0.0,0.0,0.06657070213026241,1827.3665135757317,0.0,0.0,0.0745817023866144,1024,0.0,99,Assisted_Takeoff,
0.0376309627269058,36.8793431763491,4300,2018-04-11 06:38:50,1827.3665135757317,0.0,0.0,0.06913450221230401,1827.3665135757317,0.0,0.0,0.0745817023866144,1024,0.0,99,Assisted_Takeoff,
0.0376309836750694,36.8793431470512,4400,2018-04-11 06:38:50,1827.3665135757317,0.0,0.0,0.0731362023403584,1827.3665135757317,0.0,0.0,0.0745817023866144,1024,0.0,99,Assisted_Takeoff,
0.0376310073245163,36.8793431303814,4500,2018-04-11 06:38:50,1827.3665135757317,0.0,0.0,0.07613660243637121,1827.3665135757317,0.0,0.0,0.07613660243637121,1024,0.0,99,Assisted_Takeoff,
0.0376310542461454,36.8793431458361,4600,2018-04-11 06:38:51,1827.3665135757317,0.0,0.0,0.0778174024901568,1827.3665135757317,0.0,0.0,0.0778174024901568,1024,0.0,99,Assisted_Takeoff,
0.0376310931252713,36.8793431677109,4700,2018-04-11 06:38:51,1827.3665135757317,0.0,0.0,0.07871380251884161,1827.3665135757317,0.0,0.0,0.07871380251884161,1024,0.0,99,Assisted_Takeoff,
0.0376311213118557,36.8793431593429,4800,2018-04-11 06:38:51,1827.3665135757317,0.0,0.0,0.0815077026082464,1827.3665135757317,0.0,0.0,0.0815077026082464,1024,0.0,99,Assisted_Takeoff,
0.0376311397804971,36.8793431466904,4900,2018-04-11 06:38:51,1827.3665135757317,0.0,0.0,0.0839371026859872,1827.3665135757317,0.0,0.0,0.0839371026859872,1024,0.0,99,Assisted_Takeoff,
0.0376311468673073,36.8793431327936,5000,2018-04-11 06:38:51,1827.3665135757317,0.0,0.0,0.08560500273936,1827.3665135757317,0.0,0.0,0.08560500273936,1024,0.0,99,Assisted_Takeoff,
0.037631150620489,36.8793431270179,5100,2018-04-11 06:38:51,1827.3665135757317,0.0,0.0,0.0863598027635136,1827.3665135757317,0.0,0.0,0.0863598027635136,1024,0.0,99,Assisted_Takeoff,
0.037631145678365,36.8793431214523,5200,2018-04-11 06:38:51,1827.3665135757317,0.0,0.0,0.0864454027662528,1827.3665135757317,0.0,0.0,0.0864454027662528,1024,0.0,99,Assisted_Takeoff,
0.0376311407974604,36.8793431208822,5300,2018-04-11 06:38:51,1827.3665135757317,0.0,0.0,0.08612900275612802,1827.3665135757317,0.0,0.0,0.0864454027662528,1024,0.0,99,Assisted_Takeoff,
0.0376311588083818,36.8793431195539,5400,2018-04-11 06:38:51,1827.3665135757317,0.0,0.0,0.0875875028028,1827.3665135757317,0.0,0.0,0.0875875028028,1024,0.0,99,Assisted_Takeoff,
0.0376311790498389,36.8793431222801,5500,2018-04-11 06:38:52,1827.3665135757317,0.0,0.0,0.0889141028452512,1827.3665135757317,0.0,0.0,0.0889141028452512,1024,0.0,99,Assisted_Takeoff,
0.0376312238690704,36.8793431237843,5600,2018-04-11 06:38:52,1827.3665135757317,0.0,0.0,0.092330502954576,1827.3665135757317,0.0,0.0,0.092330502954576,1024,0.0,99,Assisted_Takeoff,
0.0376312610442587,36.8793431288598,5700,2018-04-11 06:38:52,1827.3665135757317,0.0,0.0,0.09498560303953921,1827.3665135757317,0.0,0.0,0.09498560303953921,1024,0.0,99,Assisted_Takeoff,
0.0376312912227355,36.8793431318572,5800,2018-04-11 06:38:52,1827.3665135757317,0.0,0.0,0.0973000031136,1827.3665135757317,0.0,0.0,0.0973000031136,1024,0.0,99,Assisted_Takeoff,
0.0376313098400741,36.8793431381481,5900,2018-04-11 06:38:52,1827.3665135757317,0.0,0.0,0.0984453031502496,1827.3665135757317,0.0,0.0,0.0984453031502496,1024,0.0,99,Assisted_Takeoff,
0.0376313481862154,36.879343141291,6000,2018-04-11 06:38:52,1827.3665135757317,0.0,0.0,0.10157300325033601,1827.3665135757317,0.0,0.0,0.10157300325033601,1024,0.0,99,Assisted_Takeoff,
0.0376313841570675,36.8793431475634,6100,2018-04-11 06:38:52,1827.3665135757317,0.0,0.0,0.10436500333968002,1827.3665135757317,0.0,0.0,0.10436500333968002,1024,0.0,99,Assisted_Takeoff,
0.0376314127268961,36.8793431492699,6200,2018-04-11 06:38:52,1827.3665135757317,0.0,0.0,0.106848003419136,1827.3665135757317,0.0,0.0,0.106848003419136,1024,0.0,99,Assisted_Takeoff,
0.0376314289492007,36.8793431548663,6300,2018-04-11 06:38:52,1827.3665135757317,0.0,0.0,0.10798500345551999,1827.3665135757317,0.0,0.0,0.10798500345551999,1024,0.0,99,Assisted_Takeoff,
0.0376314365139847,36.8793431546508,6400,2018-04-11 06:38:52,1827.3665135757317,0.0,0.0,0.10869700347830401,1827.3665135757317,0.0,0.0,0.10869700347830401,1024,0.0,99,Assisted_Takeoff,
0.0376314400700484,36.8793431596662,6500,2018-04-11 06:38:52,1827.3665135757317,0.0,0.0,0.10871900347900801,1827.3665135757317,0.0,0.0,0.10871900347900801,1024,0.0,99,Assisted_Takeoff,
0.0376314355274529,36.8793431290812,6600,2018-04-11 06:38:53,1827.3665135757317,0.0,0.0,0.11021200352678401,1827.3665135757317,0.0,0.0,0.11021200352678401,1024,0.0,99,Assisted_Takeoff,
0.0376314306581,36.879343103701,6700,2018-04-11 06:38:53,1827.3665135757317,0.0,0.0,0.11141700356534401,1827.3665135757317,0.0,0.0,0.11141700356534401,1024,0.0,99,Assisted_Takeoff,
0.0376314200987094,36.8793430737728,6800,2018-04-11 06:38:53,1827.3665135757317,0.0,0.0,0.112494003599808,1827.3665135757317,0.0,0.0,0.112494003599808,1024,0.0,99,Assisted_Takeoff,
0.0376314098715213,36.8793430581155,6900,2018-04-11 06:38:53,1827.3665135757317,0.0,0.0,0.112691003606112,1827.3665135757317,0.0,0.0,0.112691003606112,1024,0.0,99,Assisted_Takeoff,
0.0376313975408925,36.879343040706,7000,2018-04-11 06:38:53,1827.3665135757317,0.0,0.0,0.11287300361193602,1827.3665135757317,0.0,0.0,0.11287300361193602,1024,0.0,99,Assisted_Takeoff,
0.0376313856059247,36.8793430330372,7100,2018-04-11 06:38:53,1827.3665135757317,0.0,0.0,0.11242300359753601,1827.3665135757317,0.0,0.0,0.11287300361193602,1024,0.0,99,Assisted_Takeoff,
0.0376314054741119,36.8793430558687,7200,2018-04-11 06:38:53,1827.3665135757317,0.0,0.0,0.11247000359904001,1827.3665135757317,0.0,0.0,0.11287300361193602,1024,0.0,99,Assisted_Takeoff,
0.0376314231915317,36.8793430838351,7300,2018-04-11 06:38:53,1827.3665135757317,0.0,0.0,0.112081003586592,1827.3665135757317,0.0,0.0,0.11287300361193602,1024,0.0,99,Assisted_Takeoff,
0.0376314418939565,36.8793431090394,7400,2018-04-11 06:38:53,1827.3665135757317,0.0,0.0,0.112079003586528,1827.3665135757317,0.0,0.0,0.11287300361193602,1024,0.0,99,Assisted_Takeoff,
0.0376314504698515,36.8793431298397,7500,2018-04-11 06:38:54,1827.3665135757317,0.0,0.0,0.111529003568928,1827.3665135757317,0.0,0.0,0.11287300361193602,1024,0.0,99,Assisted_Takeoff,
0.037631489127738,36.8793431744528,7600,2018-04-11 06:38:54,1827.3665135757317,0.0,0.0,0.11245500359856,1827.3665135757317,0.0,0.0,0.11287300361193602,1024,0.0,99,Assisted_Takeoff,
0.0376315204337087,36.8793432191302,7700,2018-04-11 06:38:54,1827.3665135757317,0.0,0.0,0.113028003616896,1827.3665135757317,0.0,0.0,0.113028003616896,1024,0.0,99,Assisted_Takeoff,
0.0376315502631896,36.8793432541581,7800,2018-04-11 06:38:54,1827.3665135757317,0.0,0.0,0.114232003655424,1827.3665135757317,0.0,0.0,0.114232003655424,1024,0.0,99,Assisted_Takeoff,
0.0376315652616677,36.879343283361,7900,2018-04-11 06:38:54,1827.3665135757317,0.0,0.0,0.114393003660576,1827.3665135757317,0.0,0.0,0.114393003660576,1024,0.0,99,Assisted_Takeoff,
0.0376315772823833,36.8793432990672,8000,2018-04-11 06:38:54,1827.3665135757317,0.0,0.0,0.114934003677888,1827.3665135757317,0.0,0.0,0.114934003677888,1024,0.0,99,Assisted_Takeoff,
0.0376315815899739,36.8793433164596,8100,2018-04-11 06:38:54,1827.3665135757317,0.0,0.0,0.114647003668704,1827.3665135757317,0.0,0.0,0.114934003677888,1024,0.0,99,Assisted_Takeoff,
0.0376315831949072,36.8793433191548,8200,2018-04-11 06:38:54,1827.3665135757317,0.0,0.0,0.114703003670496,1827.3665135757317,0.0,0.0,0.114934003677888,1037,0.0,99,Assisted_Takeoff,
0.0376315803528654,36.8793433286456,8300,2018-04-11 06:38:54,1827.3665135757317,0.0,0.0,0.11402500364880001,1827.3665135757317,0.0,0.0,0.114934003677888,1141,0.0,99,Assisted_Takeoff,
0.0376315770324172,36.8793433242708,8400,2018-04-11 06:38:54,1827.3665135757317,0.0,0.0,0.113857003643424,1827.3665135757317,0.0,0.0,0.114934003677888,1141,0.0,99,Assisted_Takeoff,
0.037631570856238,36.8793433297004,8500,2018-04-11 06:38:54,1827.3665135757317,0.0,0.0,0.11299800361593601,1827.3665135757317,0.0,0.0,0.114934003677888,1274,0.0,99,Assisted_Takeoff,
0.0376315363165846,36.8793433215167,8600,2018-04-11 06:38:55,1827.3665135757317,0.0,0.0,0.109769003512608,1827.3665135757317,0.0,0.0,0.114934003677888,1421,0.0,99,Assisted_Takeoff,
0.0376314998402024,36.8793433239295,8700,2018-04-11 06:38:55,1827.3665135757317,0.0,0.0,0.105924003389568,1827.3665135757317,0.0,0.0,0.114934003677888,1492,0.0,99,Assisted_Takeoff,
0.0376314697829429,36.8793433175299,8800,2018-04-11 06:38:55,1827.3665135757317,0.0,0.0,0.103147003300704,1827.3665135757317,0.0,0.0,0.114934003677888,1511,0.0,99,Assisted_Takeoff,
0.0376314475005874,36.8793433253394,8900,2018-04-11 06:38:55,1827.3665135757317,0.0,0.0,0.100531003216992,1827.3665135757317,0.0,0.0,0.114934003677888,1518,0.0,99,Assisted_Takeoff,
0.0376314772527172,36.8793433234491,9000,2018-04-11 06:38:55,1827.3665135757317,0.0,0.0,0.10364000331648,1827.3665135757317,0.0,0.0,0.114934003677888,1530,0.0,99,Assisted_Takeoff,
0.0376315869094898,36.8793432983612,9100,2018-04-11 06:38:55,1827.3665135757317,0.0,0.35999970196000003,0.115952003710464,1827.3665135757317,0.0,0.35999970196000003,0.115952003710464,1538,0.0,99,P-GPS,
0.0376318131967445,36.879343236456,9200,2018-04-11 06:38:55,1827.3665135757317,0.0,0.7199994039200001,0.141874004539968,1827.3665135757317,0.0,0.7199994039200001,0.141874004539968,1542,0.0,99,P-GPS,
0.0376320819023191,36.8793431650447,9300,2018-04-11 06:38:55,1827.3665135757317,0.0,0.7199994039200001,0.17263900552444802,1827.3665135757317,0.0,0.7199994039200001,0.17263900552444802,1545,0.0,99,P-GPS,
0.0376324075426722,36.8793430268534,9400,2018-04-11 06:38:55,1827.5665135821314,0.2000000064,0.7919993443119999,0.211936006781952,1827.5665135821314,0.2000000064,0.7919993443119999,0.211936006781952,1545,0.0,99,P-GPS,
0.0376327260836203,36.879342834686,9500,2018-04-11 06:38:56,1827.6665135853314,0.3000000096,1.007999165488,0.252726008087232,1827.6665135853314,0.3000000096,1.007999165488,0.252726008087232,1546,0.0,99,P-GPS,
0.0376330471529311,36.879342599089,9600,2018-04-11 06:38:56,1827.8665135917315,0.500000016,1.007999165488,0.295897009468704,1827.8665135917315,0.500000016,1.007999165488,0.295897009468704,1545,0.0,99,P-GPS,
0.0376333586484162,36.879342362036,9700,2018-04-11 06:38:56,1828.0665135981315,0.7000000224,1.295998927056,0.338469010831008,1828.0665135981315,0.7000000224,1.295998927056,0.338469010831008,1548,0.0,99,P-GPS,Home Point Recorded. RTH Altitude:  30m.
0.0376337101364503,36.8793421109217,9800,2018-04-11 06:38:56,1828.3665136077316,1.000000032,0.7919993443119999,0.38592801234969604,1828.3665136077316,1.000000032,1.295998927056,0.38592801234969604,1542,0.0,99,P-GPS,
0.0376339967609137,36.8793419279866,9900,2018-04-11 06:38:56,1828.6665136173315,1.3000000416000002,0.7919993443119999,0.42359101355491197,1828.6665136173315,1.3000000416000002,1.295998927056,0.42359101355491197,1544,0.0,99,P-GPS,
0.0376341421614213,36.8793417496389,10000,2018-04-11 06:38:56,1828.9665136269316,1.6000000512,0.503999582744,0.4472360143115521,1828.9665136269316,1.6000000512,1.295998927056,0.4472360143115521,1544,0.0,99,P-GPS,
0.0376342389638676,36.8793416079418,10100,2018-04-11 06:38:56,1829.3665136397315,2.000000064,0.503999582744,0.46436501485968,1829.3665136397315,2.000000064,1.295998927056,0.46436501485968,1545,0.0,99,P-GPS,
0.037634197094944,36.8793413560208,10200,2018-04-11 06:38:56,1829.7665136525316,2.4000000768,0.503999582744,0.475097015203104,1829.7665136525316,2.4000000768,1.295998927056,0.475097015203104,1545,0.0,99,P-GPS,
0.037634135589632,36.8793411358311,10300,2018-04-11 06:38:56,1830.0665136621317,2.7000000864,0.35999970196000003,0.483403015468896,1830.0665136621317,2.7000000864,1.295998927056,0.483403015468896,1536,0.0,99,P-GPS,
0.0376339516194283,36.879340835107,10400,2018-04-11 06:38:56,1830.4665136749315,3.1000000992000003,0.0,0.488147015620704,1830.4665136749315,3.1000000992000003,1.295998927056,0.488147015620704,1542,0.0,99,P-GPS,
0.037633564320893,36.8793402330058,10600,2018-04-11 06:38:57,1831.2665137005315,3.9000001248,0.0,0.5053430161709761,1831.2665137005315,3.9000001248,1.295998927056,0.5053430161709761,1542,0.0,99,P-GPS,
0.037633376828365,36.8793399396285,10700,2018-04-11 06:38:57,1831.6665137133316,4.3000001376,0.0,0.518046016577472,1831.6665137133316,4.3000001376,1.295998927056,0.518046016577472,1536,0.0,99,P-GPS,
0.0376331590589919,36.8793396784452,10800,2018-04-11 06:38:57,1831.9665137229317,4.6000001472,0.0,0.528439016910048,1831.9665137229317,4.6000001472,1.295998927056,0.528439016910048,1537,0.0,99,P-GPS,
0.0376329940292204,36.8793394706548,10900,2018-04-11 06:38:57,1832.3665137357316,5.00000016,0.35999970196000003,0.53891001724512,1832.3665137357316,5.00000016,1.295998927056,0.53891001724512,1535,0.0,99,P-GPS,
0.0376328616876123,36.879339212543,11000,2018-04-11 06:38:57,1832.6665137453315,5.3000001696000005,0.35999970196000003,0.55739501783664,1832.6665137453315,5.3000001696000005,1.295998927056,0.55739501783664,1515,0.0,99,P-GPS,
0.0376327553803455,36.8793389742051,11100,2018-04-11 06:38:57,1833.0665137581314,5.7000001824,0.0,0.576268018440576,1833.0665137581314,5.7000001824,1.295998927056,0.576268018440576,1515,0.0,99,P-GPS,
0.0376326816731027,36.8793387550383,11200,2018-04-11 06:38:57,1833.3665137677315,6.000000192000001,0.0,0.595368019051776,1833.3665137677315,6.000000192000001,1.295998927056,0.595368019051776,1515,0.0,99,P-GPS,
0.0376326171708431,36.8793385785967,11300,2018-04-11 06:38:57,1833.6665137773316,6.3000002016,0.0,0.6108880195484161,1833.6665137773316,6.3000002016,1.295998927056,0.6108880195484161,1521,0.0,99,P-GPS,
0.0376326671066711,36.879338451269,11400,2018-04-11 06:38:57,1834.0665137901315,6.7000002144,0.35999970196000003,0.626098020035136,1834.0665137901315,6.7000002144,1.295998927056,0.626098020035136,1534,0.0,99,P-GPS,
0.0376326991992312,36.8793383486542,11500,2018-04-11 06:38:57,1834.3665137997316,7.000000224,0.35999970196000003,0.638027020416864,1834.3665137997316,7.000000224,1.295998927056,0.638027020416864,1529,0.0,99,P-GPS,
0.0376327358905171,36.879338243144,11600,2018-04-11 06:38:58,1834.6665138093317,7.3000002336000005,0.0,0.650442020814144,1834.6665138093317,7.3000002336000005,1.295998927056,0.650442020814144,1517,0.0,99,P-GPS,
0.0376327122748223,36.8793381386381,11700,2018-04-11 06:38:58,1835.0665138221316,7.7000002464,0.0,0.660364021131648,1835.0665138221316,7.7000002464,1.295998927056,0.660364021131648,1533,0.0,99,P-GPS,
0.0376327021943468,36.8793379903144,11800,2018-04-11 06:38:58,1835.3665138317317,8.000000256,0.0,0.67544502161424,1835.3665138317317,8.000000256,1.295998927056,0.67544502161424,1541,0.0,99,P-GPS,
0.0376326425297872,36.8793378583158,11900,2018-04-11 06:38:58,1835.6665138413314,8.300000265600001,0.0,0.687059021985888,1835.6665138413314,8.300000265600001,1.295998927056,0.687059021985888,1545,0.0,99,P-GPS,
0.0376326152116214,36.8793377731555,12000,2018-04-11 06:38:58,1836.0665138541315,8.700000278400001,0.0,0.695043022241376,1836.0665138541315,8.700000278400001,1.295998927056,0.695043022241376,1552,0.0,99,P-GPS,
0.0376325482538718,36.8793377207117,12100,2018-04-11 06:38:58,1836.3665138637316,9.000000288,0.0,0.6982550223441601,1836.3665138637316,9.000000288,1.295998927056,0.6982550223441601,1567,0.0,99,P-GPS,
0.0376324703400528,36.8793376494752,12200,2018-04-11 06:38:58,1836.6665138733315,9.3000002976,0.0,0.7032210225030721,1836.6665138733315,9.3000002976,1.295998927056,0.7032210225030721,1569,0.0,99,P-GPS,
0.0376323491451439,36.879337590783,12300,2018-04-11 06:38:58,1837.0665138861316,9.7000003104,0.0,0.705682022581824,1837.0665138861316,9.7000003104,1.295998927056,0.705682022581824,1551,0.0,99,P-GPS,
0.0376321884589413,36.8793375422751,12400,2018-04-11 06:38:58,1837.4665138989315,10.100000323200002,0.0,0.7062610226003521,1837.4665138989315,10.100000323200002,1.295998927056,0.7062610226003521,1543,0.0,99,P-GPS,
0.0376320245333566,36.8793375065867,12500,2018-04-11 06:38:58,1837.7665139085316,10.400000332800001,0.0,0.705862022587584,1837.7665139085316,10.400000332800001,1.295998927056,0.7062610226003521,1542,0.0,99,P-GPS,
0.037631865546639,36.8793374363854,12600,2018-04-11 06:38:59,1838.1665139213317,10.8000003456,0.0,0.7098270227144641,1838.1665139213317,10.8000003456,1.295998927056,0.7098270227144641,1540,0.0,99,P-GPS,
0.0376317062182534,36.8793373662473,12700,2018-04-11 06:38:59,1838.4665139309316,11.1000003552,0.0,0.7142800228569601,1838.4665139309316,11.1000003552,1.295998927056,0.7142800228569601,1544,0.0,99,P-GPS,
0.0376315664692607,36.8793372849314,12800,2018-04-11 06:38:59,1838.8665139437317,11.500000368000002,0.0,0.720771023064672,1838.8665139437317,11.500000368000002,1.295998927056,0.720771023064672,1555,0.0,99,P-GPS,
0.0376314260586109,36.879337224786,12900,2018-04-11 06:38:59,1839.2665139565315,11.9000003808,0.0,0.7253030232096961,1839.2665139565315,11.9000003808,1.295998927056,0.7253030232096961,1557,0.0,99,P-GPS,
0.0376312878565382,36.879337137157,13000,2018-04-11 06:38:59,1839.5665139661314,12.200000390400001,0.0,0.7332680234645761,1839.5665139661314,12.200000390400001,1.295998927056,0.7332680234645761,1557,0.0,99,P-GPS,
0.0376311391513325,36.8793370618191,13100,2018-04-11 06:38:59,1839.9665139789317,12.6000004032,0.0,0.740139023684448,1839.9665139789317,12.6000004032,1.295998927056,0.740139023684448,1556,0.0,99,P-GPS,
0.037631025615301,36.8793370088202,13200,2018-04-11 06:38:59,1840.2665139885314,12.9000004128,0.0,0.7451510238448321,1840.2665139885314,12.9000004128,1.295998927056,0.7451510238448321,1549,0.0,99,P-GPS,
0.0376309034519514,36.8793369777208,13300,2018-04-11 06:38:59,1840.6665140013315,13.3000004256,0.0,0.74791502393328,1840.6665140013315,13.3000004256,1.295998927056,0.74791502393328,1552,0.0,99,P-GPS,
0.037630864529799,36.8793369412386,13400,2018-04-11 06:38:59,1841.0665140141314,13.7000004384,0.0,0.751802024057664,1841.0665140141314,13.7000004384,1.295998927056,0.751802024057664,1560,0.0,99,P-GPS,
0.0376308078159914,36.8793368964879,13500,2018-04-11 06:39:00,1841.4665140269315,14.100000451200001,0.0,0.756579024210528,1841.4665140269315,14.100000451200001,1.295998927056,0.756579024210528,1554,0.0,99,P-GPS,
0.0376308347981678,36.8793368576328,13600,2018-04-11 06:39:00,1841.7665140365314,14.400000460800001,0.0,0.76098502435152,1841.7665140365314,14.400000460800001,1.295998927056,0.76098502435152,1556,0.0,99,P-GPS,
0.0376308342007738,36.8793368184939,13700,2018-04-11 06:39:00,1842.1665140493315,14.8000004736,0.0,0.7653330244906561,1842.1665140493315,14.8000004736,1.295998927056,0.7653330244906561,1558,0.0,99,P-GPS,
0.0376308613123562,36.8793367810381,13800,2018-04-11 06:39:00,1842.5665140621315,15.200000486400002,0.0,0.769594024627008,1842.5665140621315,15.200000486400002,1.295998927056,0.769594024627008,1558,0.0,99,P-GPS,
0.0376308466680392,36.8793367445649,13900,2018-04-11 06:39:00,1842.8665140717314,15.500000496,0.0,0.773594024755008,1842.8665140717314,15.500000496,1.295998927056,0.773594024755008,1559,0.0,99,P-GPS,
0.0376308544189238,36.879336744717,14000,2018-04-11 06:39:00,1843.2665140845315,15.900000508800002,0.0,0.7736050247553601,1843.2665140845315,15.900000508800002,1.295998927056,0.7736050247553601,1559,0.0,99,P-GPS,
0.0376308277414393,36.8793367521981,14100,2018-04-11 06:39:00,1843.6665140973314,16.3000005216,0.0,0.772681024725792,1843.6665140973314,16.3000005216,1.295998927056,0.7736050247553601,1555,0.0,99,P-GPS,
0.0376308155004234,36.8793367462414,14200,2018-04-11 06:39:00,1844.0665141101315,16.7000005344,0.0,0.7733040247457281,1844.0665141101315,16.7000005344,1.295998927056,0.7736050247553601,1562,0.0,99,P-GPS,
0.0376307964868954,36.8793367219225,14300,2018-04-11 06:39:00,1844.4665141229314,17.1000005472,0.0,0.7759520248304641,1844.4665141229314,17.1000005472,1.295998927056,0.7759520248304641,1552,0.0,99,P-GPS,
0.0376307538581114,36.8793366618466,14400,2018-04-11 06:39:00,1844.8665141357314,17.50000056,0.0,0.782529025040928,1844.8665141357314,17.50000056,1.295998927056,0.782529025040928,1552,0.0,99,P-GPS,
0.0376306795351386,36.8793366042223,14500,2018-04-11 06:39:00,1845.1665141453316,17.8000005696,0.0,0.7888270252424641,1845.1665141453316,17.8000005696,1.295998927056,0.7888270252424641,1547,0.0,99,P-GPS,
0.0376305796803904,36.8793365545524,14600,2018-04-11 06:39:01,1845.5665141581314,18.2000005824,0.0,0.794342025418944,1845.5665141581314,18.2000005824,1.295998927056,0.794342025418944,1567,0.0,99,P-GPS,
0.0376304730949141,36.8793365118839,14700,2018-04-11 06:39:01,1845.9665141709315,18.6000005952,0.0,0.7992470255759041,1845.9665141709315,18.6000005952,1.295998927056,0.7992470255759041,1554,0.0,99,P-GPS,
0.0376303435277166,36.8793364257933,14800,2018-04-11 06:39:01,1846.3665141837314,19.000000608,0.0,0.80924502589584,1846.3665141837314,19.000000608,1.295998927056,0.80924502589584,1548,0.0,99,P-GPS,
0.0376302212398164,36.8793363468936,14900,2018-04-11 06:39:01,1846.7665141965315,19.4000006208,0.0,0.818643026196576,1846.7665141965315,19.4000006208,1.295998927056,0.818643026196576,1554,0.0,99,P-GPS,
0.0376300814056866,36.8793362656645,15000,2018-04-11 06:39:01,1847.1665142093314,19.800000633600003,0.0,0.8286490265167681,1847.1665142093314,19.800000633600003,1.295998927056,0.8286490265167681,1587,0.0,99,P-GPS,
0.0376299605683738,36.8793362102926,15100,2018-04-11 06:39:01,1847.5665142221314,20.200000646400003,0.0,0.8358690267478079,1847.5665142221314,20.200000646400003,1.295998927056,0.8358690267478079,1594,0.0,99,P-GPS,
0.0376298583388835,36.8793361274737,15200,2018-04-11 06:39:01,1847.9665142349313,20.6000006592,0.0,0.846111027075552,1847.9665142349313,20.6000006592,1.295998927056,0.846111027075552,1607,0.0,99,P-GPS,
0.0376297886094204,36.8793360454769,15300,2018-04-11 06:39:01,1848.3665142477314,21.000000672,0.0,0.8559900273916801,1848.3665142477314,21.000000672,1.295998927056,0.8559900273916801,1607,0.0,99,P-GPS,
0.0376297376707762,36.8793359016839,15400,2018-04-11 06:39:01,1848.7665142605317,21.400000684800002,0.0,0.8725100279203201,1848.7665142605317,21.400000684800002,1.295998927056,0.8725100279203201,1605,0.0,99,P-GPS,
0.037629670276909,36.8793357624728,15500,2018-04-11 06:39:01,1849.2665142765316,21.900000700800003,0.0,0.8887560284401921,1849.2665142765316,21.900000700800003,1.295998927056,0.8887560284401921,1614,0.0,99,P-GPS,
0.0376295778221028,36.8793355947751,15600,2018-04-11 06:39:02,1849.6665142893316,22.300000713600003,0.0,0.908534029073088,1849.6665142893316,22.300000713600003,1.295998927056,0.908534029073088,1640,0.0,98,P-GPS,
0.0376294532911228,36.8793354531799,15700,2018-04-11 06:39:02,1850.1665143053315,22.8000007296,0.0,0.9259970296319041,1850.1665143053315,22.8000007296,1.295998927056,0.9259970296319041,1684,0.0,98,P-GPS,
0.0376293353605317,36.8793353088741,15800,2018-04-11 06:39:02,1850.5665143181316,23.2000007424,0.0,0.9437900302012799,1850.5665143181316,23.2000007424,1.295998927056,0.9437900302012799,1684,0.0,98,P-GPS,
0.0376292179275319,36.8793351983061,15900,2018-04-11 06:39:02,1851.0665143341316,23.7000007584,0.0,0.957989030655648,1851.0665143341316,23.7000007584,1.295998927056,0.957989030655648,1684,0.0,98,P-GPS,
0.0376291619736873,36.8793350800899,16000,2018-04-11 06:39:02,1851.5665143501317,24.2000007744,0.0,0.9719830311034561,1851.5665143501317,24.2000007744,1.295998927056,0.9719830311034561,1684,0.0,98,P-GPS,
0.0376291014290555,36.8793349755727,16100,2018-04-11 06:39:02,1852.0665143661315,24.7000007904,0.0,0.9845790315065281,1852.0665143661315,24.7000007904,1.295998927056,0.9845790315065281,1684,0.0,98,P-GPS,
0.0376290516251314,36.8793348408955,16200,2018-04-11 06:39:02,1852.5665143821313,25.2000008064,0.0,1.00029003200928,1852.5665143821313,25.2000008064,1.295998927056,1.00029003200928,1684,0.0,98,P-GPS,
0.0376289780583419,36.8793347323744,16300,2018-04-11 06:39:02,1853.1665144013316,25.8000008256,0.0,1.01362003243584,1853.1665144013316,25.8000008256,1.295998927056,1.01362003243584,1684,0.0,98,P-GPS,
0.0376289413859866,36.8793346269087,16400,2018-04-11 06:39:02,1853.6665144173314,26.3000008416,0.0,1.02589003282848,1853.6665144173314,26.3000008416,1.295998927056,1.02589003282848,1684,0.0,98,P-GPS,
0.0376288636839671,36.8793345361525,16500,2018-04-11 06:39:02,1854.1665144333317,26.8000008576,0.0,1.03741003319712,1854.1665144333317,26.8000008576,1.295998927056,1.03741003319712,1684,0.0,98,P-GPS,
0.0376288015594393,36.8793344125653,16600,2018-04-11 06:39:03,1854.6665144493315,27.3000008736,0.0,1.0522200336710401,1854.6665144493315,27.3000008736,1.295998927056,1.0522200336710401,1684,0.0,98,P-GPS,
0.0376287021461901,36.8793343119461,16700,2018-04-11 06:39:03,1855.2665144685313,27.9000008928,0.0,1.0653700340918402,1855.2665144685313,27.9000008928,1.295998927056,1.0653700340918402,1684,0.0,98,P-GPS,
0.0376286428862989,36.879334227942,16800,2018-04-11 06:39:03,1855.7665144845316,28.4000009088,0.0,1.0758500344272002,1855.7665144845316,28.4000009088,1.295998927056,1.0758500344272002,1684,0.0,98,P-GPS,
0.0376285633563509,36.8793341716002,16900,2018-04-11 06:39:03,1856.2665145005315,28.9000009248,0.0,1.0838200346822402,1856.2665145005315,28.9000009248,1.295998927056,1.0838200346822402,1684,-3.9,98,P-GPS,
0.037628515814132,36.8793340983189,17000,2018-04-11 06:39:03,1856.7665145165315,29.4000009408,0.0,1.09291003497312,1856.7665145165315,29.4000009408,1.295998927056,1.09291003497312,1684,-9.5,98,P-GPS,
0.0376284409486584,36.8793340445594,17100,2018-04-11 06:39:03,1857.2665145325316,29.900000956800003,0.0,1.1005500352176,1857.2665145325316,29.900000956800003,1.295998927056,1.1005500352176,1684,-15.1,98,P-GPS,
0.0376284211384336,36.8793340009895,17200,2018-04-11 06:39:03,1857.7665145485316,30.400000972800004,0.0,1.10577003538464,1857.7665145485316,30.400000972800004,1.295998927056,1.10577003538464,1684,-20.8,98,P-GPS,
0.0376283831741116,36.8793339755454,17300,2018-04-11 06:39:03,1858.3665145677317,31.000000992,0.0,1.10947003550304,1858.3665145677317,31.000000992,1.295998927056,1.10947003550304,1684,-20.8,98,P-GPS,
0.0376283724876514,36.8793339160573,17400,2018-04-11 06:39:03,1858.8665145837315,31.500001007999998,0.0,1.11618003571776,1858.8665145837315,31.500001007999998,1.295998927056,1.11618003571776,1684,-26.4,98,P-GPS,
0.0376283317409293,36.8793338774537,17500,2018-04-11 06:39:03,1859.4665146029315,32.1000010272,0.0,1.1213800358841601,1859.4665146029315,32.1000010272,1.295998927056,1.1213800358841601,1684,-28.2,98,P-GPS,
0.0376283456529299,36.8793338545618,17600,2018-04-11 06:39:04,1859.9665146189316,32.6000010432,0.0,1.12351003595232,1859.9665146189316,32.6000010432,1.295998927056,1.12351003595232,1684,-28.2,98,P-GPS,
0.0376283218548493,36.8793338565231,17700,2018-04-11 06:39:04,1860.4665146349316,33.100001059200004,0.0,1.1239000359648,1860.4665146349316,33.100001059200004,1.295998927056,1.1239000359648,1684,-28.2,98,P-GPS,
0.037628342735776,36.8793338605912,17800,2018-04-11 06:39:04,1860.9665146509315,33.600001075200005,0.0,1.12293003593376,1860.9665146509315,33.600001075200005,1.295998927056,1.1239000359648,1684,-28.2,98,P-GPS,
0.037628332332258,36.8793338702328,17900,2018-04-11 06:39:04,1861.5665146701315,34.2000010944,0.0,1.1221500359088001,1861.5665146701315,34.2000010944,1.295998927056,1.1239000359648,1684,-28.2,98,P-GPS,
0.0376283436582895,36.8793338508577,18000,2018-04-11 06:39:04,1862.0665146861315,34.7000011104,0.0,1.1239600359667201,1862.0665146861315,34.7000011104,1.295998927056,1.1239600359667201,1684,-28.2,98,P-GPS,
0.0376283256452563,36.8793338423253,18100,2018-04-11 06:39:04,1862.5665147021316,35.200001126400004,0.0,1.12534003601088,1862.5665147021316,35.200001126400004,1.295998927056,1.12534003601088,1684,-28.2,98,P-GPS,
0.0376283536241632,36.8793338209546,18200,2018-04-11 06:39:04,1863.0665147181317,35.700001142400005,0.0,1.12696003606272,1863.0665147181317,35.700001142400005,1.295998927056,1.12696003606272,1684,-28.2,98,P-GPS,
0.0376283522888392,36.8793338152817,18300,2018-04-11 06:39:04,1863.5665147341315,36.2000011584,0.0,1.1276000360832001,1863.5665147341315,36.2000011584,1.295998927056,1.1276000360832001,1684,-28.3,98,P-GPS,
0.0376283504643712,36.8793337753175,18400,2018-04-11 06:39:04,1864.1665147533315,36.8000011776,0.0,1.13198003622336,1864.1665147533315,36.8000011776,1.295998927056,1.13198003622336,1684,-28.2,98,P-GPS,
0.0376283029653061,36.8793337515199,18500,2018-04-11 06:39:04,1864.6665147693316,37.3000011936,0.0,1.135750036344,1864.6665147693316,37.3000011936,1.295998927056,1.135750036344,1684,-28.2,98,P-GPS,
0.0376282548834615,36.8793337316534,18600,2018-04-11 06:39:05,1865.1665147853314,37.800001209600005,0.0,1.13913003645216,1865.1665147853314,37.800001209600005,1.295998927056,1.13913003645216,1684,-28.3,98,P-GPS,
0.0376281920159561,36.8793337383166,18700,2018-04-11 06:39:05,1865.6665148013317,38.3000012256,0.0,1.1400400364812802,1865.6665148013317,38.3000012256,1.295998927056,1.1400400364812802,1684,-28.3,98,P-GPS,
0.0376281727883072,36.8793337476958,18800,2018-04-11 06:39:05,1866.1665148173315,38.8000012416,0.35999970196000003,1.1395400364652801,1866.1665148173315,38.8000012416,1.295998927056,1.1400400364812802,1684,-28.3,98,P-GPS,
0.0376281246622911,36.879333771912,18900,2018-04-11 06:39:05,1866.7665148365318,39.4000012608,0.0,1.1382200364230401,1866.7665148365318,39.4000012608,1.295998927056,1.1400400364812802,1684,-28.2,98,P-GPS,
0.0376280681125377,36.8793337956978,19000,2018-04-11 06:39:05,1867.2665148525316,39.900001276800005,0.0,1.13721003639072,1867.2665148525316,39.900001276800005,1.295998927056,1.1400400364812802,1684,-28.2,98,P-GPS,
0.0376279791730333,36.8793338197331,19100,2018-04-11 06:39:05,1867.7665148685314,40.400001292800006,0.0,1.13714003638848,1867.7665148685314,40.400001292800006,1.295998927056,1.1400400364812802,1684,-28.2,98,P-GPS,
0.0376279029486231,36.8793338126449,19200,2018-04-11 06:39:05,1868.3665148877317,41.000001312,0.0,1.14012003648384,1868.3665148877317,41.000001312,1.295998927056,1.14012003648384,1684,-28.2,98,P-GPS,
0.03762780760282,36.879333800358,19300,2018-04-11 06:39:05,1868.8665149037315,41.500001328,0.0,1.1442900366172801,1868.8665149037315,41.500001328,1.295998927056,1.1442900366172801,1684,-28.2,98,P-GPS,
0.0376278005030077,36.87933377393,19400,2018-04-11 06:39:05,1869.3665149197313,42.000001344,0.0,1.14734003671488,1869.3665149197313,42.000001344,1.295998927056,1.14734003671488,1684,-28.2,98,P-GPS,
0.0376278021169993,36.8793337672507,19500,2018-04-11 06:39:06,1869.8665149357316,42.50000136,0.0,1.148000036736,1869.8665149357316,42.50000136,1.295998927056,1.148000036736,1684,-28.3,98,P-GPS,
0.0376278523805517,36.8793337635541,19600,2018-04-11 06:39:06,1870.3665149517315,43.000001376,0.0,1.14688003670016,1870.3665149517315,43.000001376,1.295998927056,1.148000036736,1684,-28.3,98,P-GPS,
0.0376278665689807,36.8793337629439,19700,2018-04-11 06:39:06,1870.8665149677315,43.500001392,0.0,1.14653003668896,1870.8665149677315,43.500001392,1.295998927056,1.148000036736,1684,-28.3,98,P-GPS,
0.0376279073218095,36.8793337748668,19800,2018-04-11 06:39:06,1871.3665149837316,44.000001407999996,0.0,1.14404003660928,1871.3665149837316,44.000001407999996,1.295998927056,1.148000036736,1684,-28.3,98,P-GPS,
0.0376279137502957,36.8793337855392,19900,2018-04-11 06:39:06,1871.8665149997316,44.500001424,0.0,1.1427100365667202,1871.8665149997316,44.500001424,1.295998927056,1.148000036736,1684,-28.2,98,P-GPS,
0.0376279191394275,36.8793337620778,20000,2018-04-11 06:39:06,1872.3665150157315,45.00000144,0.0,1.1450700366422402,1872.3665150157315,45.00000144,1.295998927056,1.148000036736,1684,-28.3,98,P-GPS,
0.0376279009151037,36.8793337370062,20100,2018-04-11 06:39:06,1872.8665150317315,45.50000145600001,0.0,1.14829003674528,1872.8665150317315,45.50000145600001,1.295998927056,1.14829003674528,1684,-28.3,98,P-GPS,
0.037627944506921,36.8793336532623,20200,2018-04-11 06:39:06,1873.4665150509315,46.1000014752,0.0,1.15602003699264,1873.4665150509315,46.1000014752,1.295998927056,1.15602003699264,1684,-28.3,98,P-GPS,
0.0376279714910523,36.8793335753679,20300,2018-04-11 06:39:06,1873.9665150669314,46.600001491200004,0.0,1.16363003723616,1873.9665150669314,46.600001491200004,1.295998927056,1.16363003723616,1684,-28.3,98,P-GPS,
0.0376280380797557,36.8793335039686,20400,2018-04-11 06:39:06,1874.4665150829317,47.100001507200005,0.0,1.16947003742304,1874.4665150829317,47.100001507200005,1.295998927056,1.16947003742304,1684,-28.3,98,P-GPS,
0.0376280834695788,36.879333454198,20500,2018-04-11 06:39:06,1874.9665150989315,47.6000015232,0.0,1.17361003755552,1874.9665150989315,47.6000015232,1.295998927056,1.17361003755552,1684,-28.3,98,P-GPS,
0.0376281293762293,36.8793333744687,20600,2018-04-11 06:39:07,1875.4665151149316,48.1000015392,0.0,1.18101003779232,1875.4665151149316,48.1000015392,1.295998927056,1.18101003779232,1684,-28.3,98,P-GPS,
0.0376281331918772,36.8793333050704,20700,2018-04-11 06:39:07,1876.0665151341316,48.7000015584,0.0,1.18841003802912,1876.0665151341316,48.7000015584,1.295998927056,1.18841003802912,1684,-28.3,98,P-GPS,
0.0376281019047862,36.879333223307,20800,2018-04-11 06:39:07,1876.5665151501314,49.200001574400005,0.0,1.19806003833792,1876.5665151501314,49.200001574400005,1.295998927056,1.19806003833792,1684,-28.2,98,P-GPS,
0.0376280238359597,36.8793331629495,20900,2018-04-11 06:39:07,1877.0665151661315,49.70000159040001,0.0,1.20664003861248,1877.0665151661315,49.70000159040001,1.295998927056,1.20664003861248,1684,-28.3,98,P-GPS,
0.0376279310899674,36.8793330960691,21000,2018-04-11 06:39:07,1877.5665151821315,50.20000160640001,0.0,1.21636003892352,1877.5665151821315,50.20000160640001,1.295998927056,1.21636003892352,1684,-28.3,98,P-GPS,
0.0376278298636494,36.8793330542721,21100,2018-04-11 06:39:07,1878.0665151981316,50.7000016224,0.0,1.22368003915776,1878.0665151981316,50.7000016224,1.295998927056,1.22368003915776,1684,-28.3,98,P-GPS,
0.0376277073511257,36.8793329843567,21200,2018-04-11 06:39:07,1878.5665152141314,51.2000016384,0.0,1.23471003951072,1878.5665152141314,51.2000016384,1.295998927056,1.23471003951072,1684,-28.3,98,P-GPS,
0.0376275703338478,36.8793329247251,21300,2018-04-11 06:39:07,1879.0665152301317,51.700001654400005,0.0,1.2451700398454402,1879.0665152301317,51.700001654400005,1.295998927056,1.2451700398454402,1684,-28.2,98,P-GPS,
0.0376274574641553,36.8793328589945,21400,2018-04-11 06:39:07,1879.5665152461315,52.200001670400006,0.0,1.25567004018144,1879.5665152461315,52.200001670400006,1.295998927056,1.25567004018144,1684,-28.2,98,P-GPS,
0.0376273472089296,36.8793328140232,21500,2018-04-11 06:39:08,1880.0665152621314,52.70000168640001,0.0,1.2639500404464001,1880.0665152621314,52.70000168640001,1.295998927056,1.2639500404464001,1684,-28.3,98,P-GPS,
0.0376272475436788,36.8793327473291,21600,2018-04-11 06:39:08,1880.5665152781316,53.2000017024,0.0,1.27428004077696,1880.5665152781316,53.2000017024,1.295998927056,1.27428004077696,1684,-28.3,98,P-GPS,
0.0376271265942578,36.8793326931274,21700,2018-04-11 06:39:08,1881.0665152941315,53.7000017184,0.0,1.2840500410896,1881.0665152941315,53.7000017184,1.295998927056,1.2840500410896,1684,-28.3,98,P-GPS,
0.0376270406087508,36.8793325666808,21800,2018-04-11 06:39:08,1881.5665153101315,54.200001734400004,0.0,1.3003500416112002,1881.5665153101315,54.200001734400004,1.295998927056,1.3003500416112002,1684,-28.2,98,P-GPS,
0.0376269411775888,36.8793324524171,21900,2018-04-11 06:39:08,1882.0665153261314,54.700001750400006,0.0,1.3158500421072001,1882.0665153261314,54.700001750400006,1.295998927056,1.3158500421072001,1684,-28.2,98,P-GPS,
0.0376268860425461,36.8793323410162,22000,2018-04-11 06:39:08,1882.5665153421317,55.20000176640001,0.0,1.32954004254528,1882.5665153421317,55.20000176640001,1.295998927056,1.32954004254528,1684,-28.2,98,P-GPS,
0.0376268080262369,36.8793322782971,22100,2018-04-11 06:39:08,1883.0665153581315,55.7000017824,0.0,1.3388900428444799,1883.0665153581315,55.7000017824,1.295998927056,1.3388900428444799,1684,-28.2,98,P-GPS,
0.0376267469453381,36.8793321957254,22200,2018-04-11 06:39:08,1883.5665153741313,56.2000017984,0.0,1.349750043192,1883.5665153741313,56.2000017984,1.295998927056,1.349750043192,1684,-28.2,98,P-GPS,
0.0376266577351049,36.8793321348349,22300,2018-04-11 06:39:08,1884.1665153933316,56.8000018176,0.0,1.35936004349952,1884.1665153933316,56.8000018176,1.295998927056,1.35936004349952,1684,-28.2,98,P-GPS,
0.037626621242082,36.8793320506306,22400,2018-04-11 06:39:08,1884.6665154093314,57.3000018336,0.0,1.36953004382496,1884.6665154093314,57.3000018336,1.295998927056,1.36953004382496,1684,-28.3,98,P-GPS,
0.0376265683262014,36.8793319969503,22500,2018-04-11 06:39:08,1885.1665154253317,57.8000018496,0.0,1.3771000440672,1885.1665154253317,57.8000018496,1.295998927056,1.3771000440672,1684,-28.2,98,P-GPS,
0.0376264943748955,36.8793318948226,22600,2018-04-11 06:39:09,1885.6665154413315,58.30000186560001,0.0,1.3905300444969602,1885.6665154413315,58.30000186560001,1.295998927056,1.3905300444969602,1684,-28.3,98,P-GPS,
0.0376263795765146,36.8793318007519,22700,2018-04-11 06:39:09,1886.1665154573316,58.8000018816,0.0,1.4046400449484802,1886.1665154573316,58.8000018816,1.295998927056,1.4046400449484802,1684,-28.2,98,P-GPS,
0.0376262336361779,36.8793316196111,22800,2018-04-11 06:39:09,1886.6665154733314,59.3000018976,0.0,1.42909004573088,1886.6665154733314,59.3000018976,1.295998927056,1.42909004573088,1684,-28.2,98,P-GPS,
0.037626055683889,36.8793314784014,22900,2018-04-11 06:39:09,1887.1665154893317,59.800001913600006,0.0,1.4506700464214402,1887.1665154893317,59.800001913600006,1.295998927056,1.4506700464214402,1684,-28.2,98,P-GPS,
0.037625890674473,36.8793312956547,23000,2018-04-11 06:39:09,1887.6665155053315,60.30000192960001,0.0,1.4761700472374402,1887.6665155053315,60.30000192960001,1.295998927056,1.4761700472374402,1684,-28.2,98,P-GPS,
0.0376257279888466,36.8793311580988,23100,2018-04-11 06:39:09,1888.1665155213313,60.80000194560001,0.0,1.4969500479024,1888.1665155213313,60.80000194560001,1.295998927056,1.4969500479024,1684,-28.2,98,P-GPS,
0.037625603541935,36.8793309680263,23200,2018-04-11 06:39:09,1888.6665155373316,61.3000019616,0.0,1.52169004869408,1888.6665155373316,61.3000019616,1.295998927056,1.52169004869408,1684,-28.2,98,P-GPS,
0.0376254738457342,36.8793308126347,23300,2018-04-11 06:39:09,1889.1665155533315,61.800001977600004,0.0,1.54307004937824,1889.1665155533315,61.800001977600004,1.295998927056,1.54307004937824,1684,-28.3,98,P-GPS,
0.0376253858499131,36.8793306399406,23400,2018-04-11 06:39:09,1889.6665155693315,62.300001993600006,0.0,1.5645400500652802,1889.6665155693315,62.300001993600006,1.295998927056,1.5645400500652802,1684,-28.3,98,P-GPS,
0.0376252772628247,36.879330519275,23500,2018-04-11 06:39:10,1890.2665155885315,62.9000020128,0.0,1.581500050608,1890.2665155885315,62.9000020128,1.295998927056,1.581500050608,1684,-28.3,98,P-GPS,
0.0376252272443531,36.8793303614297,23600,2018-04-11 06:39:10,1890.7665156045314,63.4000020288,0.0,1.5998500511952,1890.7665156045314,63.4000020288,1.295998927056,1.5998500511952,1684,-28.3,98,P-GPS,
0.0376251529323469,36.8793302303047,23700,2018-04-11 06:39:10,1891.2665156205317,63.900002044800004,0.0,1.61647005172704,1891.2665156205317,63.900002044800004,1.295998927056,1.61647005172704,1684,-28.2,98,P-GPS,
0.0376250991798532,36.8793300571193,23800,2018-04-11 06:39:10,1891.7665156365315,64.4000020608,0.0,1.6365700523702402,1891.7665156365315,64.4000020608,1.295998927056,1.6365700523702402,1684,-28.2,98,P-GPS,
0.0376250100901248,36.8793299207442,23900,2018-04-11 06:39:10,1892.2665156525316,64.9000020768,0.0,1.6543500529392001,1892.2665156525316,64.9000020768,1.295998927056,1.6543500529392001,1684,-28.3,98,P-GPS,
0.0376249881460277,36.8793297795451,24000,2018-04-11 06:39:10,1892.7665156685314,65.40000209280001,0.0,1.6698100534339202,1892.7665156685314,65.40000209280001,1.295998927056,1.6698100534339202,1684,-28.2,98,P-GPS,
0.0376249375742923,36.879329670266,24100,2018-04-11 06:39:10,1893.2665156845317,65.90000210880001,0.0,1.68319005386208,1893.2665156845317,65.90000210880001,1.295998927056,1.68319005386208,1684,-28.3,98,P-GPS,
0.0376248807586955,36.8793294584664,24300,2018-04-11 06:39:10,1894.3665157197318,67.000002144,0.0,1.70739005463648,1894.3665157197318,67.000002144,1.295998927056,1.70739005463648,1684,-28.3,98,P-GPS,
0.0376248598983278,36.8793293587035,24400,2018-04-11 06:39:10,1894.8665157357316,67.50000216000001,0.0,1.7185500549936001,1894.8665157357316,67.50000216000001,1.295998927056,1.7185500549936001,1684,-28.3,98,P-GPS,
0.0376247931683569,36.8793292754671,24500,2018-04-11 06:39:10,1895.3665157517314,68.000002176,0.0,1.72991005535712,1895.3665157517314,68.000002176,1.295998927056,1.72991005535712,1684,-28.2,98,P-GPS,
0.0376247522532943,36.8793292035015,24600,2018-04-11 06:39:11,1895.8665157677317,68.500002192,0.0,1.73903005564896,1895.8665157677317,68.500002192,1.295998927056,1.73903005564896,1684,-28.2,98,P-GPS,
0.0376246829894645,36.8793291515747,24700,2018-04-11 06:39:11,1896.3665157837315,69.000002208,0.0,1.7472900559132802,1896.3665157837315,69.000002208,1.295998927056,1.7472900559132802,1684,-28.2,98,P-GPS,
0.0376246660674887,36.8793290211905,24900,2018-04-11 06:39:11,1897.3665158157314,70.00000224,0.0,1.76142005636544,1897.3665158157314,70.00000224,1.295998927056,1.76142005636544,1684,-28.3,98,P-GPS,
0.0376247283298236,36.8793289706298,25000,2018-04-11 06:39:11,1897.9665158349314,70.60000225920001,0.0,1.7640500564496,1897.9665158349314,70.60000225920001,1.295998927056,1.7640500564496,1684,-28.3,98,P-GPS,
0.0376247461771627,36.8793289461653,25100,2018-04-11 06:39:11,1898.4665158509315,71.1000022752,0.0,1.7658400565068801,1898.4665158509315,71.1000022752,1.295998927056,1.7658400565068801,1684,-28.3,98,P-GPS,
0.037624804898039,36.8793289260461,25200,2018-04-11 06:39:11,1898.9665158669316,71.6000022912,0.35999970196000003,1.7655200564966402,1898.9665158669316,71.6000022912,1.295998927056,1.7658400565068801,1684,-28.2,98,P-GPS,
0.0376247965103311,36.8793289167429,25300,2018-04-11 06:39:11,1899.4665158829316,72.1000023072,0.0,1.7668200565382401,1899.4665158829316,72.1000023072,1.295998927056,1.7668200565382401,1684,-28.2,98,P-GPS,
0.0376248210342905,36.8793288873313,25400,2018-04-11 06:39:11,1899.9665158989314,72.6000023232,0.35999970196000003,1.76887005660384,1899.9665158989314,72.6000023232,1.295998927056,1.76887005660384,1684,-28.2,98,P-GPS,
0.0376247991842361,36.8793288720072,25500,2018-04-11 06:39:12,1900.4665159149317,73.1000023392,0.35999970196000003,1.77134005668288,1900.4665159149317,73.1000023392,1.295998927056,1.77134005668288,1684,-28.3,98,P-GPS,
0.0376248250830094,36.8793288321372,25600,2018-04-11 06:39:12,1900.9665159309316,73.6000023552,0.35999970196000003,1.77442005678144,1900.9665159309316,73.6000023552,1.295998927056,1.77442005678144,1684,-28.3,98,P-GPS,
0.0376248193517008,36.8793288024686,25700,2018-04-11 06:39:12,1901.4665159469314,74.1000023712,0.35999970196000003,1.77773005688736,1901.4665159469314,74.1000023712,1.295998927056,1.77773005688736,1684,-28.2,98,P-GPS,
0.0376248499562701,36.8793287520085,25800,2018-04-11 06:39:12,1902.0665159661316,74.7000023904,0.0,1.78173005701536,1902.0665159661316,74.7000023904,1.295998927056,1.78173005701536,1684,-28.3,98,P-GPS,
0.0376248408255846,36.879328715559,25900,2018-04-11 06:39:12,1902.5665159821315,75.2000024064,0.0,1.78587005714784,1902.5665159821315,75.2000024064,1.295998927056,1.78587005714784,1677,-28.3,98,P-GPS,
0.0376248742180501,36.8793286798374,26000,2018-04-11 06:39:12,1903.0665159981315,75.7000024224,0.35999970196000003,1.788250057224,1903.0665159981315,75.7000024224,1.295998927056,1.788250057224,1602,-28.2,98,P-GPS,
0.0376248590576436,36.8793286723488,26100,2018-04-11 06:39:12,1903.5665160141316,76.2000024384,0.35999970196000003,1.78963005726816,1903.5665160141316,76.2000024384,1.295998927056,1.78963005726816,1460,-28.3,98,P-GPS,
0.0376249024206646,36.8793286392855,26200,2018-04-11 06:39:12,1904.0665160301317,76.7000024544,0.35999970196000003,1.79134005732288,1904.0665160301317,76.7000024544,1.295998927056,1.79134005732288,1356,-28.3,98,P-GPS,
0.037624930975023,36.8793285983267,26300,2018-04-11 06:39:12,1904.4665160429315,77.1000024672,0.0,1.79448005742336,1904.4665160429315,77.1000024672,1.295998927056,1.79448005742336,1193,-28.3,98,P-GPS,
0.0376249779483043,36.8793285241814,26400,2018-04-11 06:39:12,1904.8665160557316,77.50000248,0.0,1.80037005761184,1904.8665160557316,77.50000248,1.295998927056,1.80037005761184,1024,-28.3,98,P-GPS,
0.0376249715074012,36.8793284593651,26500,2018-04-11 06:39:12,1905.2665160685315,77.9000024928,0.0,1.80738005783616,1905.2665160685315,77.9000024928,1.295998927056,1.80738005783616,1024,-28.3,98,P-GPS,
0.0376250349438442,36.8793283362532,26600,2018-04-11 06:39:13,1905.4665160749316,78.1000024992,0.0,1.81779005816928,1905.4665160749316,78.1000024992,1.295998927056,1.81779005816928,1024,-28.3,98,P-GPS,
0.0376250664835475,36.879328228261,26700,2018-04-11 06:39:13,1905.6665160813316,78.3000025056,0.0,1.8279000584928,1905.6665160813316,78.3000025056,1.295998927056,1.8279000584928,1024,-28.3,98,P-GPS,
0.037625124284353,36.8793281078919,26800,2018-04-11 06:39:13,1905.6665160813316,78.3000025056,0.0,1.8383500588272002,1905.6665160813316,78.3000025056,1.295998927056,1.8383500588272002,1024,-28.2,98,P-GPS,
0.0376251420201437,36.8793280152473,26900,2018-04-11 06:39:13,1905.7665160845315,78.4000025088,0.0,1.8474200591174401,1905.7665160845315,78.4000025088,1.295998927056,1.8474200591174401,1024,-28.2,98,P-GPS,
0.0376252111716109,36.8793278955163,27000,2018-04-11 06:39:13,1905.7665160845315,78.4000025088,0.0,1.8574900594396802,1905.7665160845315,78.4000025088,1.295998927056,1.8574900594396802,1024,-28.3,98,P-GPS,
0.0376252617661445,36.8793277927077,27100,2018-04-11 06:39:13,1905.8665160877317,78.500002512,0.0,1.8665000597280001,1905.8665160877317,78.500002512,1.295998927056,1.8665000597280001,1024,-28.3,98,P-GPS,
0.0376253363411445,36.8793276997933,27200,2018-04-11 06:39:13,1905.8665160877317,78.500002512,0.0,1.87368005995776,1905.8665160877317,78.500002512,1.295998927056,1.87368005995776,1024,-28.3,98,P-GPS,
0.0376253790047487,36.8793276326495,27300,2018-04-11 06:39:13,1905.8665160877317,78.500002512,0.35999970196000003,1.8792900601372802,1905.8665160877317,78.500002512,1.295998927056,1.8792900601372802,1024,-28.3,98,P-GPS,
0.0376254518670327,36.8793276038299,27400,2018-04-11 06:39:13,1905.9665160909315,78.6000025152,0.35999970196000003,1.8798400601548801,1905.9665160909315,78.6000025152,1.295998927056,1.8798400601548801,974,-28.3,98,P-GPS,
0.0376254943865197,36.8793275821788,27500,2018-04-11 06:39:13,1905.9665160909315,78.6000025152,0.35999970196000003,1.8806900601820802,1905.9665160909315,78.6000025152,1.295998927056,1.8806900601820802,775,-28.3,98,P-GPS,
0.0376255947263535,36.8793275302992,27600,2018-04-11 06:39:14,1905.9665160909315,78.6000025152,0.35999970196000003,1.8828500602512,1905.9665160909315,78.6000025152,1.295998927056,1.8828500602512,708,-28.2,97,P-GPS,
0.0376256732307888,36.8793274535096,27700,2018-04-11 06:39:14,1905.9665160909315,78.6000025152,0.35999970196000003,1.8884400604300802,1905.9665160909315,78.6000025152,1.295998927056,1.8884400604300802,707,-28.3,97,P-GPS,
0.0376257931978509,36.8793273673676,27800,2018-04-11 06:39:14,1905.9665160909315,78.6000025152,0.35999970196000003,1.89378006060096,1905.9665160909315,78.6000025152,1.295998927056,1.89378006060096,695,-28.2,97,P-GPS,
0.037625847718563,36.8793272805747,27900,2018-04-11 06:39:14,1905.8665160877317,78.500002512,0.35999970196000003,1.90133006084256,1905.9665160909315,78.6000025152,1.295998927056,1.90133006084256,706,-28.2,97,P-GPS,
0.0376259597945927,36.8793271382858,28000,2018-04-11 06:39:14,1905.7665160845315,78.4000025088,0.0,1.9131200612198402,1905.9665160909315,78.6000025152,1.295998927056,1.9131200612198402,728,-28.3,97,P-GPS,
0.0376260343756993,36.8793269878799,28100,2018-04-11 06:39:14,1905.6665160813316,78.3000025056,0.0,1.92701006166432,1905.9665160909315,78.6000025152,1.295998927056,1.92701006166432,767,-28.2,97,P-GPS,
0.0376261476417144,36.8793268042693,28200,2018-04-11 06:39:14,1905.5665160781316,78.20000250240001,0.0,1.94344006219008,1905.9665160909315,78.6000025152,1.295998927056,1.94344006219008,790,-28.2,97,P-GPS,
0.037626216409683,36.8793266323535,28300,2018-04-11 06:39:14,1905.5665160781316,78.20000250240001,0.0,1.96000006272,1905.9665160909315,78.6000025152,1.295998927056,1.96000006272,829,-28.3,97,P-GPS,
0.0376263563056428,36.8793264343909,28400,2018-04-11 06:39:14,1905.4665160749316,78.1000024992,0.0,1.97753006328096,1905.9665160909315,78.6000025152,1.295998927056,1.97753006328096,912,-28.3,97,P-GPS,
0.0376264596377424,36.879326251868,28500,2018-04-11 06:39:15,1905.3665160717314,78.00000249600001,0.0,1.9945400638252802,1905.9665160909315,78.6000025152,1.295998927056,1.9945400638252802,978,-28.3,97,P-GPS,
0.0376265868961626,36.8793260202832,28600,2018-04-11 06:39:15,1905.3665160717314,78.00000249600001,0.0,2.01641006452512,1905.9665160909315,78.6000025152,1.295998927056,2.01641006452512,983,-28.3,97,P-GPS,
0.0376266428315854,36.8793257966506,28700,2018-04-11 06:39:15,1905.2665160685315,77.9000024928,0.0,2.0393000652576,1905.9665160909315,78.6000025152,1.295998927056,2.0393000652576,893,-28.3,97,P-GPS,
0.0376267464250503,36.8793255327518,28800,2018-04-11 06:39:15,1905.2665160685315,77.9000024928,0.0,2.06552006609664,1905.9665160909315,78.6000025152,1.295998927056,2.06552006609664,782,-28.3,97,P-GPS,
0.0376268018023239,36.8793253068432,28900,2018-04-11 06:39:15,1905.2665160685315,77.9000024928,0.0,2.08883006684256,1905.9665160909315,78.6000025152,1.295998927056,2.08883006684256,732,-28.3,97,P-GPS,
0.0376269437619294,36.879325068381,29000,2018-04-11 06:39:15,1905.1665160653315,77.8000024896,0.0,2.11169006757408,1905.9665160909315,78.6000025152,1.295998927056,2.11169006757408,707,-28.3,97,P-GPS,
0.0376270141241447,36.8793248827771,29100,2018-04-11 06:39:15,1905.1665160653315,77.8000024896,0.0,2.1304500681744,1905.9665160909315,78.6000025152,1.295998927056,2.1304500681744,688,-28.2,97,P-GPS,
0.037627118141005,36.8793246746955,29200,2018-04-11 06:39:15,1905.0665160621318,77.70000248640001,0.0,2.15106006883392,1905.9665160909315,78.6000025152,1.295998927056,2.15106006883392,772,-28.2,97,P-GPS,
0.0376271681183584,36.879324496018,29300,2018-04-11 06:39:15,1904.9665160589313,77.6000024832,0.0,2.16961006942752,1905.9665160909315,78.6000025152,1.295998927056,2.16961006942752,882,-28.2,97,P-GPS,
0.0376272916378711,36.8793242774663,29400,2018-04-11 06:39:15,1904.8665160557316,77.50000248,0.0,2.19117007011744,1905.9665160909315,78.6000025152,1.295998927056,2.19117007011744,964,-28.2,97,P-GPS,
0.0376273492839744,36.8793241065248,29500,2018-04-11 06:39:15,1904.7665160525316,77.4000024768,0.0,2.20884007068288,1905.9665160909315,78.6000025152,1.295998927056,2.20884007068288,1013,-28.3,97,P-GPS,
0.0376275365711149,36.8793238958203,29600,2018-04-11 06:39:16,1904.7665160525316,77.4000024768,0.0,2.2286500713168,1905.9665160909315,78.6000025152,1.295998927056,2.2286500713168,1024,-28.3,97,P-GPS,
0.0376276651538671,36.8793237368391,29700,2018-04-11 06:39:16,1904.6665160493317,77.3000024736,0.0,2.24398007180736,1905.9665160909315,78.6000025152,1.295998927056,2.24398007180736,1024,-28.3,97,P-GPS,
0.0376278576589493,36.879323532209,29800,2018-04-11 06:39:16,1904.6665160493317,77.3000024736,0.0,2.26349007243168,1905.9665160909315,78.6000025152,1.295998927056,2.26349007243168,1024,-28.3,97,P-GPS,
0.0376279499011418,36.8793233984547,29900,2018-04-11 06:39:16,1904.6665160493317,77.3000024736,0.0,2.27686007285952,1905.9665160909315,78.6000025152,1.295998927056,2.27686007285952,993,-28.3,97,P-GPS,
0.0376281180115222,36.8793232351506,30000,2018-04-11 06:39:16,1904.6665160493317,77.3000024736,0.35999970196000003,2.29252007336064,1905.9665160909315,78.6000025152,1.295998927056,2.29252007336064,812,-28.2,97,P-GPS,
0.0376282090073443,36.8793231428892,30100,2018-04-11 06:39:16,1904.6665160493317,77.3000024736,0.35999970196000003,2.301500073648,1905.9665160909315,78.6000025152,1.295998927056,2.301500073648,747,-28.3,97,P-GPS,
