latitude,longitude,time_millisecond,datetime_utc,altitude_m,ascent_m,speed_kph,distance_m,max_altitude_m,max_ascent_m,max_speed_kph,max_distance_m,rc_throttle,gimbal_pitch_degrees,battery_percent,flycState,message
0.305147049414804,36.8793943551694,100,2017-11-11 12:14:46,1778.162288301199,0.0,0.0,0.0,1778.162288301199,0.0,0.0,0.0,1024,0.0,99,Motors_Started,
0.305147040562685,36.8793943653336,200,2017-11-11 12:14:46,1778.162288301199,0.0,0.0,0.0014988800479641602,1778.162288301199,0.0,0.0,0.0014988800479641602,1024,0.0,99,Motors_Started,
0.305147029395935,36.8793943780394,300,2017-11-11 12:14:46,1778.162288301199,0.0,0.0,0.0033799601081587203,1778.162288301199,0.0,0.0,0.0033799601081587203,1024,0.0,99,Motors_Started,
0.305146992288582,36.8793944117782,400,2017-11-11 12:14:46,1778.162288301199,0.0,0.0,0.00894353028619296,1778.162288301199,0.0,0.0,0.00894353028619296,1024,0.0,99,Motors_Started,
0.305146955130034,36.8793944418909,500,2017-11-11 12:14:46,1778.162288301199,0.0,0.0,0.0142457004558624,1778.162288301199,0.0,0.0,0.0142457004558624,1024,0.0,99,Motors_Started,Setting new Return-To-Home altitude to 30m (98 ft). Setting new Maximum Flight Altitude to 150m (492 ft)
0.30514693843085,36.8793944518667,600,2017-11-11 12:14:46,1778.162288301199,0.0,0.0,0.016369400523820802,1778.162288301199,0.0,0.0,0.016369400523820802,1024,0.0,99,Motors_Started,
0.305146921807083,36.8793944654747,700,2017-11-11 12:14:46,1778.162288301199,0.0,0.0,0.01875750060024,1778.162288301199,0.0,0.0,0.01875750060024,1024,0.0,99,Motors_Started,
0.305146884969644,36.8793945040004,800,2017-11-11 12:14:46,1778.162288301199,0.0,0.0,0.024664800789273602,1778.162288301199,0.0,0.0,0.024664800789273602,1024,0.0,99,Motors_Started,
0.305146847436656,36.8793945353775,900,2017-11-11 12:14:46,1778.162288301199,0.0,0.0,0.030101600963251204,1778.162288301199,0.0,0.0,0.030101600963251204,529,0.0,99,Motors_Started,
0.305146822606041,36.8793945836565,1000,2017-11-11 12:14:47,1778.162288301199,0.0,0.0,0.035802001145664,1778.162288301199,0.0,0.0,0.035802001145664,851,0.0,99,Motors_Started,
0.305146800521287,36.8793946265033,1100,2017-11-11 12:14:47,1778.162288301199,0.0,0.0,0.0409456013102592,1778.162288301199,0.0,0.0,0.0409456013102592,1038,0.0,99,Motors_Started,
0.305146813331441,36.8793946587332,1200,2017-11-11 12:14:47,1778.162288301199,0.0,0.0,0.04276500136848,1778.162288301199,0.0,0.0,0.04276500136848,1024,0.0,99,Motors_Started,
0.305146814202964,36.8793946850148,1300,2017-11-11 12:14:47,1778.162288301199,0.0,0.0,0.0450514014416448,1778.162288301199,0.0,0.0,0.0450514014416448,1024,0.0,99,Motors_Started,
0.305146816890304,36.8793947225157,1400,2017-11-11 12:14:47,1778.162288301199,0.0,0.0,0.048346801547097605,1778.162288301199,0.0,0.0,0.048346801547097605,1024,0.0,99,Motors_Started,
0.305146803170867,36.8793947524702,1500,2017-11-11 12:14:47,1778.162288301199,0.0,0.0,0.0519797016633504,1778.162288301199,0.0,0.0,0.0519797016633504,1024,0.0,99,Assisted_Takeoff,
0.305146785475075,36.8793948063915,1600,2017-11-11 12:14:47,1778.162288301199,0.0,0.0,0.05813220186023041,1778.162288301199,0.0,0.0,0.05813220186023041,1024,0.0,99,Assisted_Takeoff,
0.305146770313447,36.8793948575304,1700,2017-11-11 12:14:47,1778.162288301199,0.0,0.0,0.0639079020450528,1778.162288301199,0.0,0.0,0.0639079020450528,1024,0.0,99,Assisted_Takeoff,
0.305146761929912,36.8793948796461,1800,2017-11-11 12:14:47,1778.162288301199,0.0,0.0,0.0665116021283712,1778.162288301199,0.0,0.0,0.0665116021283712,1024,0.0,99,Assisted_Takeoff,
0.305146743644521,36.8793948963227,1900,2017-11-11 12:14:47,1778.162288301199,0.0,0.0,0.069121002211872,1778.162288301199,0.0,0.0,0.069121002211872,1024,0.0,99,Assisted_Takeoff,
0.305146745478964,36.879394933444,2000,2017-11-11 12:14:48,1778.162288301199,0.0,0.0,0.07264820232474241,1778.162288301199,0.0,0.0,0.07264820232474241,1024,0.0,99,Assisted_Takeoff,
0.305146749436184,36.8793949718562,2100,2017-11-11 12:14:48,1778.162288301199,0.0,0.0,0.0762617024403744,1778.162288301199,0.0,0.0,0.0762617024403744,1024,0.0,99,Assisted_Takeoff,
0.305146724519973,36.8793950260104,2200,2017-11-11 12:14:48,1778.162288301199,0.0,0.0,0.0828893026524576,1778.162288301199,0.0,0.0,0.0828893026524576,1024,0.0,99,Assisted_Takeoff,
0.30514669482835,36.8793950683546,2300,2017-11-11 12:14:48,1778.162288301199,0.0,0.0,0.0885713028342816,1778.162288301199,0.0,0.0,0.0885713028342816,1024,0.0,99,Assisted_Takeoff,
0.305146671022229,36.8793950813631,2400,2017-11-11 12:14:48,1778.162288301199,0.0,0.0,0.09106160291397121,1778.162288301199,0.0,0.0,0.09106160291397121,1024,0.0,99,Assisted_Takeoff,
0.305146644553602,36.8793951148449,2500,2017-11-11 12:14:48,1778.162288301199,0.0,0.0,0.0957279030632928,1778.162288301199,0.0,0.0,0.0957279030632928,1024,0.0,99,Assisted_Takeoff,
0.305146627051493,36.8793951429993,2600,2017-11-11 12:14:48,1778.162288301199,0.0,0.0,0.09940660318101122,1778.162288301199,0.0,0.0,0.09940660318101122,1024,0.0,99,Assisted_Takeoff,
0.305146598250222,36.879395180903,2700,2017-11-11 12:14:48,1778.162288301199,0.0,0.0,0.104638003348416,1778.162288301199,0.0,0.0,0.104638003348416,1024,0.0,99,Assisted_Takeoff,
0.305146574413873,36.8793951911761,2800,2017-11-11 12:14:48,1778.162288301199,0.0,0.0,0.10692600342163201,1778.162288301199,0.0,0.0,0.10692600342163201,1024,0.0,99,Assisted_Takeoff,
0.305146550334479,36.8793952038532,2900,2017-11-11 12:14:48,1778.162288301199,0.0,0.0,0.109487003503584,1778.162288301199,0.0,0.0,0.109487003503584,1024,0.0,99,Assisted_Takeoff,
0.305146541400835,36.8793952338728,3000,2017-11-11 12:14:49,1778.162288301199,0.0,0.0,0.11287100361187201,1778.162288301199,0.0,0.0,0.11287100361187201,1024,0.0,99,Assisted_Takeoff,
0.305146536621149,36.8793952657362,3100,2017-11-11 12:14:49,1778.162288301199,0.0,0.0,0.116213003718816,1778.162288301199,0.0,0.0,0.116213003718816,1024,0.0,99,Assisted_Takeoff,
0.305146511867375,36.8793952818221,3200,2017-11-11 12:14:49,1778.162288301199,0.0,0.0,0.11913200381222401,1778.162288301199,0.0,0.0,0.11913200381222401,1024,0.0,99,Assisted_Takeoff,
0.305146487379852,36.8793952989226,3300,2017-11-11 12:14:49,1778.162288301199,0.0,0.0,0.12215100390883202,1778.162288301199,0.0,0.0,0.12215100390883202,1024,0.0,99,Assisted_Takeoff,
0.305146470452584,36.8793953302058,3400,2017-11-11 12:14:49,1778.162288301199,0.0,0.0,0.126103004035296,1778.162288301199,0.0,0.0,0.126103004035296,1024,0.0,99,Assisted_Takeoff,
0.305146452252076,36.8793953604531,3500,2017-11-11 12:14:49,1778.162288301199,0.0,0.0,0.130029004160928,1778.162288301199,0.0,0.0,0.130029004160928,1024,0.0,99,Assisted_Takeoff,
0.305146412548779,36.8793953694017,3600,2017-11-11 12:14:49,1778.162288301199,0.0,0.0,0.13318000426176002,1778.162288301199,0.0,0.0,0.13318000426176002,1024,0.0,99,Assisted_Takeoff,
0.30514638040818,36.8793953836009,3700,2017-11-11 12:14:49,1778.162288301199,0.0,0.0,0.13643500436592002,1778.162288301199,0.0,0.0,0.13643500436592002,1024,0.0,99,Assisted_Takeoff,
0.305146367096668,36.8793954215929,3800,2017-11-11 12:14:49,1778.162288301199,0.0,0.0,0.140788004505216,1778.162288301199,0.0,0.0,0.140788004505216,1024,0.0,99,Assisted_Takeoff,
0.30514635353173,36.8793954561017,3900,2017-11-11 12:14:49,1778.162288301199,0.0,0.0,0.144836004634752,1778.162288301199,0.0,0.0,0.144836004634752,1024,0.0,99,Assisted_Takeoff,
0.305146350714929,36.8793954685963,4000,2017-11-11 12:14:50,1778.162288301199,0.0,0.0,0.146179004677728,1778.162288301199,0.0,0.0,0.146179004677728,1024,0.0,99,Assisted_Takeoff,
0.305146345222594,36.8793954823443,4100,2017-11-11 12:14:50,1778.162288301199,0.0,0.0,0.14779800472953603,1778.162288301199,0.0,0.0,0.14779800472953603,1024,0.0,99,Assisted_Takeoff,
0.305146315505323,36.8793955167241,4200,2017-11-11 12:14:50,1778.162288301199,0.0,0.0,0.152794004889408,1778.162288301199,0.0,0.0,0.152794004889408,1024,0.0,99,Assisted_Takeoff,
0.305146290395734,36.8793955496145,4300,2017-11-11 12:14:50,1778.162288301199,0.0,0.0,0.157378005036096,1778.162288301199,0.0,0.0,0.157378005036096,1024,0.0,99,Assisted_Takeoff,
0.305146278316548,36.8793955643911,4400,2017-11-11 12:14:50,1778.162288301199,0.0,0.0,0.15948600510355201,1778.162288301199,0.0,0.0,0.15948600510355201,1024,0.0,99,Assisted_Takeoff,
0.305146267282007,36.8793955799395,4500,2017-11-11 12:14:50,1778.162288301199,0.0,0.0,0.16160300517129603,1778.162288301199,0.0,0.0,0.16160300517129603,1024,0.0,99,Assisted_Takeoff,
0.305146269192172,36.8793956159038,4600,2017-11-11 12:14:50,1778.162288301199,0.0,0.0,0.164876005276032,1778.162288301199,0.0,0.0,0.164876005276032,1024,0.0,99,Assisted_Takeoff,
0.30514626968498,36.879395649743,4700,2017-11-11 12:14:50,1778.162288301199,0.0,0.0,0.168059005377888,1778.162288301199,0.0,0.0,0.168059005377888,1024,0.0,99,Assisted_Takeoff,
0.305146241577223,36.8793956641333,4800,2017-11-11 12:14:50,1778.162288301199,0.0,0.0,0.17105300547369603,1778.162288301199,0.0,0.0,0.17105300547369603,1024,0.0,99,Assisted_Takeoff,
0.305146217809268,36.8793956792345,4900,2017-11-11 12:14:50,1778.162288301199,0.0,0.0,0.173876005564032,1778.162288301199,0.0,0.0,0.173876005564032,1024,0.0,99,Assisted_Takeoff,
0.305146202576803,36.8793957155026,5000,2017-11-11 12:14:51,1778.162288301199,0.0,0.0,0.178193005702176,1778.162288301199,0.0,0.0,0.178193005702176,1024,0.0,99,Assisted_Takeoff,
0.305146191973801,36.8793957490147,5100,2017-11-11 12:14:51,1778.162288301199,0.0,0.0,0.18198300582345603,1778.162288301199,0.0,0.0,0.18198300582345603,1024,0.0,99,Assisted_Takeoff,
0.305146151975959,36.8793957649604,5200,2017-11-11 12:14:51,1778.162288301199,0.0,0.0,0.185846005947072,1778.162288301199,0.0,0.0,0.185846005947072,1024,0.0,99,Assisted_Takeoff,
0.305146122946502,36.8793957827295,5300,2017-11-11 12:14:51,1778.162288301199,0.0,0.0,0.189253006056096,1778.162288301199,0.0,0.0,0.189253006056096,1024,0.0,99,Assisted_Takeoff,
0.305146103910806,36.8793958227762,5400,2017-11-11 12:14:51,1778.162288301199,0.0,0.0,0.19414300621257602,1778.162288301199,0.0,0.0,0.19414300621257602,1024,0.0,99,Assisted_Takeoff,
0.305146088280186,36.8793958576003,5500,2017-11-11 12:14:51,1778.162288301199,0.0,0.0,0.198341006346912,1778.162288301199,0.0,0.0,0.198341006346912,1024,0.0,99,Assisted_Takeoff,
0.305146083000975,36.879395870562,5600,2017-11-11 12:14:51,1778.162288301199,0.0,0.0,0.19987100639587202,1778.162288301199,0.0,0.0,0.19987100639587202,1024,0.0,99,Assisted_Takeoff,
0.305146079414327,36.8793958873705,5700,2017-11-11 12:14:51,1778.162288301199,0.0,0.0,0.20166300645321603,1778.162288301199,0.0,0.0,0.20166300645321603,1151,0.0,99,Assisted_Takeoff,
0.305146085292399,36.8793959266328,5800,2017-11-11 12:14:51,1778.162288301199,0.0,0.0,0.20502300656073602,1778.162288301199,0.0,0.0,0.20502300656073602,1171,0.0,99,Assisted_Takeoff,
0.305146085703581,36.8793959601296,5900,2017-11-11 12:14:51,1778.162288301199,0.0,0.0,0.20818300666185602,1778.162288301199,0.0,0.0,0.20818300666185602,1164,0.0,99,Assisted_Takeoff,
0.305146046340222,36.8793959694593,6000,2017-11-11 12:14:52,1778.162288301199,0.0,0.0,0.211351006763232,1778.162288301199,0.0,0.0,0.211351006763232,1168,0.0,99,Assisted_Takeoff,
0.305146021550012,36.8793959855205,6100,2017-11-11 12:14:52,1778.162288301199,0.0,0.0,0.21432700685846404,1778.162288301199,0.0,0.0,0.21432700685846404,1173,0.0,99,Assisted_Takeoff,
0.305146005851405,36.8793960225249,6200,2017-11-11 12:14:52,1778.162288301199,0.0,0.0,0.21874000699968,1778.162288301199,0.0,0.0,0.21874000699968,1176,0.0,99,Assisted_Takeoff,
0.30514599347523,36.8793960559851,6300,2017-11-11 12:14:52,1778.162288301199,0.0,0.0,0.22262600712403202,1778.162288301199,0.0,0.0,0.22262600712403202,1199,0.0,99,Assisted_Takeoff,
0.305145950835849,36.879396109711,6400,2017-11-11 12:14:52,1778.162288301199,0.0,0.0,0.23020500736656002,1778.162288301199,0.0,0.0,0.23020500736656002,1224,0.0,99,Assisted_Takeoff,
0.305145915665733,36.8793961557739,6500,2017-11-11 12:14:52,1778.162288301199,0.0,0.0,0.23662300757193602,1778.162288301199,0.0,0.0,0.23662300757193602,1241,0.0,99,Assisted_Takeoff,
0.30514588598551,36.8793962004802,6600,2017-11-11 12:14:52,1778.162288301199,0.0,0.0,0.242588007762816,1778.162288301199,0.0,0.0,0.242588007762816,1246,0.0,99,Assisted_Takeoff,
0.305145827965882,36.8793962394823,6700,2017-11-11 12:14:52,1778.162288301199,0.0,0.0,0.249718007990976,1778.162288301199,0.0,0.0,0.249718007990976,1251,0.0,99,GPS_Atti,Obstacle Avoided. Revise Flight Route
0.305145706289768,36.8793961999834,6800,2017-11-11 12:14:52,1778.162288301199,0.0,0.35999970196000003,0.25376500812048003,1778.162288301199,0.0,0.35999970196000003,0.25376500812048003,1269,0.0,99,GPS_Atti,
0.305145577048106,36.8793961366492,6900,2017-11-11 12:14:52,1778.162288301199,0.0,0.35999970196000003,0.25701500822448003,1778.162288301199,0.0,0.35999970196000003,0.25701500822448003,1274,0.0,99,GPS_Atti,
0.305145468301634,36.8793960413796,7000,2017-11-11 12:14:53,1778.262288304399,0.1000000032,0.0,0.257056008225792,1778.262288304399,0.1000000032,0.35999970196000003,0.257056008225792,1270,0.0,99,GPS_Atti,
0.305145368731444,36.8793959401329,7100,2017-11-11 12:14:53,1778.262288304399,0.1000000032,0.0,0.256901008220832,1778.262288304399,0.1000000032,0.35999970196000003,0.257056008225792,1275,0.0,99,GPS_Atti,
0.305145270510623,36.8793958310034,7200,2017-11-11 12:14:53,1778.3622883075986,0.2000000064,0.0,0.257041008225312,1778.3622883075986,0.2000000064,0.35999970196000003,0.257056008225792,1279,0.0,99,GPS_Atti,
0.305145179602126,36.8793957326077,7300,2017-11-11 12:14:53,1778.4622883107986,0.3000000096,0.0,0.258264008264448,1778.4622883107986,0.3000000096,0.35999970196000003,0.258264008264448,1278,0.0,99,GPS_Atti,
0.305145114756265,36.8793956375083,7400,2017-11-11 12:14:53,1778.5622883139988,0.4000000128,0.0,0.25811400825964803,1778.5622883139988,0.4000000128,0.35999970196000003,0.258264008264448,1276,0.0,99,GPS_Atti,
0.305145096942919,36.8793955707951,7500,2017-11-11 12:14:53,1778.6622883171988,0.500000016,0.0,0.25577000818464,1778.6622883171988,0.500000016,0.35999970196000003,0.258264008264448,1275,0.0,99,GPS_Atti,
0.305145144235986,36.8793955498567,7600,2017-11-11 12:14:53,1778.7622883203987,0.6000000192,0.0,0.250076008002432,1778.7622883203987,0.6000000192,0.35999970196000003,0.258264008264448,1275,0.0,99,GPS_Atti,Home Point Recorded. RTH Altitude:  30m.
0.305145222764848,36.8793955422457,7700,2017-11-11 12:14:53,1778.8622883235987,0.7000000224,0.0,0.24226000775232,1778.8622883235987,0.7000000224,0.35999970196000003,0.258264008264448,1276,0.0,99,GPS_Atti,
0.305145306657805,36.8793955380203,7800,2017-11-11 12:14:53,1778.962288326799,0.8000000256,0.35999970196000003,0.23422800749529601,1778.962288326799,0.8000000256,0.35999970196000003,0.258264008264448,1293,0.0,99,GPS_Atti,
0.305145412293746,36.8793955210408,7900,2017-11-11 12:14:53,1779.1622883331988,1.000000032,0.0,0.223504007152128,1779.1622883331988,1.000000032,0.35999970196000003,0.258264008264448,1292,0.0,99,GPS_Atti,
0.305145490458447,36.879395475022,8000,2017-11-11 12:14:54,1779.262288336399,1.1000000352000001,0.0,0.213457006830624,1779.262288336399,1.1000000352000001,0.35999970196000003,0.258264008264448,1280,0.0,99,GPS_Atti,
0.305145525228779,36.8793954175707,8100,2017-11-11 12:14:54,1779.3622883395988,1.2000000384,0.0,0.20661000661152001,1779.3622883395988,1.2000000384,0.35999970196000003,0.258264008264448,1271,0.0,99,GPS_Atti,
0.305145498640564,36.8793953680209,8200,2017-11-11 12:14:54,1779.4622883427987,1.3000000416000002,0.0,0.205979006591328,1779.4622883427987,1.3000000416000002,0.35999970196000003,0.258264008264448,1295,0.0,99,GPS_Atti,
0.305145446040805,36.879395319483,8300,2017-11-11 12:14:54,1779.5622883459987,1.4000000448,0.0,0.208068006658176,1779.5622883459987,1.4000000448,0.35999970196000003,0.258264008264448,1304,0.0,99,GPS_Atti,
0.305145343228586,36.879395256542,8400,2017-11-11 12:14:54,1779.662288349199,1.5000000480000002,0.0,0.214588006866816,1779.662288349199,1.5000000480000002,0.35999970196000003,0.258264008264448,1293,0.0,99,GPS_Atti,
0.305145268798721,36.8793951746839,8500,2017-11-11 12:14:54,1779.8622883555988,1.7000000544000002,0.0,0.21798000697536002,1779.8622883555988,1.7000000544000002,0.35999970196000003,0.258264008264448,1296,0.0,99,GPS_Atti,
0.305145236169792,36.8793950537317,8600,2017-11-11 12:14:54,1779.9622883587988,1.8000000576000001,0.0,0.21609000691488,1779.9622883587988,1.8000000576000001,0.35999970196000003,0.258264008264448,1301,0.0,99,GPS_Atti,
0.305145215856989,36.8793949252829,8700,2017-11-11 12:14:54,1780.162288365199,2.000000064,0.0,0.213532006833024,1780.162288365199,2.000000064,0.35999970196000003,0.258264008264448,1290,0.0,99,GPS_Atti,
0.305145199277801,36.8793948439992,8800,2017-11-11 12:14:54,1780.2622883683987,2.1000000672000003,0.0,0.212807006809824,1780.2622883683987,2.1000000672000003,0.35999970196000003,0.258264008264448,1306,0.0,99,GPS_Atti,
0.305145146593159,36.8793947629682,9000,2017-11-11 12:14:55,1780.5622883779988,2.4000000768,0.0,0.21641000692512,1780.5622883779988,2.4000000768,0.35999970196000003,0.258264008264448,1306,0.0,99,GPS_Atti,
0.305145083215951,36.8793947412392,9100,2017-11-11 12:14:55,1780.6622883811988,2.50000008,0.0,0.222828007130496,1780.6622883811988,2.50000008,0.35999970196000003,0.258264008264448,1307,0.0,99,GPS_Atti,
0.305145030740971,36.8793947308127,9200,2017-11-11 12:14:55,1780.862288387599,2.7000000864,0.0,0.228342007306944,1780.862288387599,2.7000000864,0.35999970196000003,0.258264008264448,1301,0.0,99,GPS_Atti,
0.305145012989303,36.8793947050734,9300,2017-11-11 12:14:55,1780.962288390799,2.8000000896,0.0,0.229781007352992,1780.962288390799,2.8000000896,0.35999970196000003,0.258264008264448,1297,0.0,99,GPS_Atti,
0.305145033691712,36.8793946301193,9400,2017-11-11 12:14:55,1781.1622883971986,3.0000000960000004,0.0,0.22623600723955203,1781.1622883971986,3.0000000960000004,0.35999970196000003,0.258264008264448,1297,0.0,99,GPS_Atti,
0.305145049906943,36.8793945229736,9500,2017-11-11 12:14:55,1781.3622884035988,3.2000001024,0.35999970196000003,0.22313900714044801,1781.3622884035988,3.2000001024,0.35999970196000003,0.258264008264448,1302,0.0,99,GPS_Atti,
0.305145032124131,36.8793943531243,9600,2017-11-11 12:14:55,1781.4622884067987,3.3000001056,0.35999970196000003,0.22433500717872,1781.4622884067987,3.3000001056,0.35999970196000003,0.258264008264448,1302,0.0,99,GPS_Atti,
0.305144979551445,36.8793941647114,9700,2017-11-11 12:14:55,1781.562288409999,3.4000001088000005,0.5075995797636,0.231154007396928,1781.562288409999,3.4000001088000005,0.5075995797636,0.258264008264448,1301,0.0,99,GPS_Atti,
0.305144859424185,36.879393996853,9800,2017-11-11 12:14:55,1781.7622884163989,3.6000001152000003,0.35999970196000003,0.24677800789689602,1781.7622884163989,3.6000001152000003,0.5075995797636,0.258264008264448,1301,0.0,99,GPS_Atti,
0.305144740810767,36.8793938335659,9900,2017-11-11 12:14:55,1781.8622884195988,3.7000001184,0.35999970196000003,0.263202008422464,1781.8622884195988,3.7000001184,0.5075995797636,0.263202008422464,1301,0.0,99,GPS_Atti,
0.305144633935173,36.8793935768023,10000,2017-11-11 12:14:56,1782.0622884259988,3.9000001248,0.7199994039200001,0.28221800903097605,1782.0622884259988,3.9000001248,0.7199994039200001,0.28221800903097605,1302,0.0,99,GPS_Atti,
0.305144538266531,36.8793932989831,10100,2017-11-11 12:14:56,1782.1622884291987,4.000000128,0.7199994039200001,0.3029500096944,1782.1622884291987,4.000000128,0.7199994039200001,0.3029500096944,1304,0.0,99,GPS_Atti,
0.305144426532881,36.8793930037518,10200,2017-11-11 12:14:56,1782.2622884323987,4.100000131200001,0.8063993323904,0.32812001049984,1782.2622884323987,4.100000131200001,0.8063993323904,0.32812001049984,1304,0.0,99,GPS_Atti,
0.305144306303233,36.8793927550468,10300,2017-11-11 12:14:56,1782.4622884387989,4.3000001376,0.5075995797636,0.353156011300992,1782.4622884387989,4.3000001376,0.8063993323904,0.353156011300992,1304,0.0,99,GPS_Atti,
0.3051441671531,36.8793925151576,10400,2017-11-11 12:14:56,1782.5622884419988,4.4000001408000005,0.5075995797636,0.380269012168608,1782.5622884419988,4.4000001408000005,0.8063993323904,0.380269012168608,1306,0.0,99,GPS_Atti,
0.305144034814749,36.8793922962476,10500,2017-11-11 12:14:56,1782.762288448399,4.6000001472,0.5075995797636,0.405969012991008,1782.762288448399,4.6000001472,0.8063993323904,0.405969012991008,1309,0.0,99,GPS_Atti,
0.305143940374768,36.8793921499999,10600,2017-11-11 12:14:56,1782.8622884515987,4.7000001504,0.35999970196000003,0.42388001356416,1782.8622884515987,4.7000001504,0.8063993323904,0.42388001356416,1314,0.0,99,GPS_Atti,
0.305143868756615,36.8793920060395,10700,2017-11-11 12:14:56,1782.9622884547987,4.8000001536,0.35999970196000003,0.439719014071008,1782.9622884547987,4.8000001536,0.8063993323904,0.439719014071008,1317,0.0,99,GPS_Atti,
0.305143777350018,36.8793918508257,10800,2017-11-11 12:14:56,1783.1622884611988,5.00000016,0.0,0.458217014662944,1783.1622884611988,5.00000016,0.8063993323904,0.458217014662944,1335,0.0,99,GPS_Atti,
0.305143678657355,36.8793917348659,10900,2017-11-11 12:14:56,1783.2622884643988,5.1000001632,0.35999970196000003,0.47478401519308805,1783.2622884643988,5.1000001632,0.8063993323904,0.47478401519308805,1341,0.0,99,GPS_Atti,
0.305143598657601,36.8793916975234,11000,2017-11-11 12:14:57,1783.462288470799,5.3000001696000005,0.35999970196000003,0.484361015499552,1783.462288470799,5.3000001696000005,0.8063993323904,0.484361015499552,1352,0.0,99,GPS_Atti,
0.305143520995072,36.879391668539,11100,2017-11-11 12:14:57,1783.662288477199,5.5000001759999995,0.35999970196000003,0.49317801578169607,1783.662288477199,5.5000001759999995,0.8063993323904,0.49317801578169607,1361,0.0,99,GPS_Atti,
0.305143422499858,36.8793915643551,11200,2017-11-11 12:14:57,1783.7622884803986,5.6000001792,0.35999970196000003,0.508918016285376,1783.7622884803986,5.6000001792,0.8063993323904,0.508918016285376,1369,0.0,99,GPS_Atti,
0.305143343658742,36.8793914786943,11300,2017-11-11 12:14:57,1783.9622884867988,5.8000001856,0.0,0.5216800166937601,1783.9622884867988,5.8000001856,0.8063993323904,0.5216800166937601,1370,0.0,99,GPS_Atti,
0.305143287748967,36.8793913990852,11400,2017-11-11 12:14:57,1784.1622884931987,6.000000192000001,0.0,0.532029017024928,1784.1622884931987,6.000000192000001,0.8063993323904,0.532029017024928,1371,0.0,99,GPS_Atti,
0.305143274782889,36.8793913299535,11500,2017-11-11 12:14:57,1784.362288499599,6.200000198400001,0.0,0.537938017214016,1784.362288499599,6.200000198400001,0.8063993323904,0.537938017214016,1374,0.0,99,GPS_Atti,
0.305143331118094,36.8793912773139,11600,2017-11-11 12:14:57,1784.5622885059986,6.4000002048,0.0,0.536777017176864,1784.5622885059986,6.4000002048,0.8063993323904,0.537938017214016,1378,0.0,99,GPS_Atti,
0.305143389155838,36.8793912414964,11700,2017-11-11 12:14:57,1784.7622885123988,6.6000002112,0.0,0.5343930171005761,1784.7622885123988,6.6000002112,0.8063993323904,0.537938017214016,1380,0.0,99,GPS_Atti,
0.305143384851861,36.8793911724313,11800,2017-11-11 12:14:57,1784.9622885187987,6.800000217600001,0.0,0.539763017272416,1784.9622885187987,6.800000217600001,0.8063993323904,0.539763017272416,1378,0.0,99,GPS_Atti,
0.3051433874533,36.8793911373724,11900,2017-11-11 12:14:57,1785.1622885251988,7.000000224,0.0,0.5421100173475201,1785.1622885251988,7.000000224,0.8063993323904,0.5421100173475201,1378,0.0,99,GPS_Atti,
0.305143416342304,36.8793911446927,12000,2017-11-11 12:14:58,1785.3622885315988,7.200000230400001,0.0,0.539161017253152,1785.3622885315988,7.200000230400001,0.8063993323904,0.5421100173475201,1379,0.0,99,GPS_Atti,
0.305143441996403,36.8793911576377,12100,2017-11-11 12:14:58,1785.5622885379987,7.4000002368,0.0,0.5360710171542721,1785.5622885379987,7.4000002368,0.8063993323904,0.5421100173475201,1379,0.0,99,GPS_Atti,
0.30514341865673,36.8793912303773,12200,2017-11-11 12:14:58,1785.8622885475988,7.7000002464,0.0,0.53270501704656,1785.8622885475988,7.7000002464,0.8063993323904,0.5421100173475201,1380,0.0,99,GPS_Atti,
0.30514338209287,36.8793912780592,12300,2017-11-11 12:14:58,1786.0622885539988,7.9000002528,0.0,0.5323690170358081,1786.0622885539988,7.9000002528,0.8063993323904,0.5421100173475201,1381,0.0,99,GPS_Atti,
0.305143296619101,36.8793912462845,12400,2017-11-11 12:14:58,1786.262288560399,8.1000002592,0.0,0.5419330173418561,1786.262288560399,8.1000002592,0.8063993323904,0.5421100173475201,1385,0.0,99,GPS_Atti,
0.30514323047537,36.8793912292795,12500,2017-11-11 12:14:58,1786.4622885667986,8.300000265600001,0.0,0.5488130175620161,1786.4622885667986,8.300000265600001,0.8063993323904,0.5488130175620161,1385,0.0,99,GPS_Atti,
0.305143158181006,36.8793912427339,12600,2017-11-11 12:14:58,1786.6622885731988,8.500000272,0.5075995797636,0.5541220177319041,1786.6622885731988,8.500000272,0.8063993323904,0.5541220177319041,1382,0.0,99,GPS_Atti,
0.305143071939019,36.8793912767198,12700,2017-11-11 12:14:58,1786.962288582799,8.800000281600001,0.35999970196000003,0.559322017898304,1786.962288582799,8.800000281600001,0.8063993323904,0.559322017898304,1388,0.0,99,GPS_Atti,
0.305142889419759,36.8793913555181,12900,2017-11-11 12:14:58,1787.3622885955988,9.2000002944,0.0,0.570339018250848,1787.3622885955988,9.2000002944,0.8063993323904,0.570339018250848,1395,0.0,99,GPS_Atti,
0.305142831544045,36.8793913329112,13000,2017-11-11 12:14:59,1787.5622886019987,9.4000003008,0.0,0.577032018465024,1787.5622886019987,9.4000003008,0.8063993323904,0.577032018465024,1407,0.0,99,GPS_Atti,
0.305142818127702,36.8793912837925,13100,2017-11-11 12:14:59,1787.7622886083989,9.6000003072,0.0,0.5814380186060161,1787.7622886083989,9.6000003072,0.8063993323904,0.5814380186060161,1417,0.0,99,GPS_Atti,
0.305142868803251,36.8793912128517,13200,2017-11-11 12:14:59,1788.062288617999,9.900000316800002,0.0,0.581592018610944,1788.062288617999,9.900000316800002,0.8063993323904,0.581592018610944,1421,0.0,99,GPS_Atti,
0.305142944610169,36.8793911633755,13300,2017-11-11 12:14:59,1788.2622886243987,10.100000323200002,0.0,0.578236018503552,1788.2622886243987,10.100000323200002,0.8063993323904,0.581592018610944,1427,0.0,99,GPS_Atti,
0.305143038999668,36.8793911078435,13400,2017-11-11 12:14:59,1788.5622886339988,10.400000332800001,0.0,0.573852018363264,1788.5622886339988,10.400000332800001,0.8063993323904,0.581592018610944,1437,0.0,99,GPS_Atti,
0.305143131295395,36.8793910613164,13500,2017-11-11 12:14:59,1788.7622886403988,10.600000339200001,0.0,0.569228018215296,1788.7622886403988,10.600000339200001,0.8063993323904,0.581592018610944,1445,0.0,99,GPS_Atti,
0.305143200461926,36.879390987057,13600,2017-11-11 12:14:59,1788.962288646799,10.8000003456,0.0,0.568766018200512,1788.962288646799,10.8000003456,0.8063993323904,0.581592018610944,1446,0.0,99,GPS_Atti,
0.305143309881556,36.8793909473025,13700,2017-11-11 12:14:59,1789.2622886563988,11.1000003552,0.35999970196000003,0.562634018004288,1789.2622886563988,11.1000003552,0.8063993323904,0.581592018610944,1446,0.0,99,GPS_Atti,
0.305143447299024,36.8793909721223,13800,2017-11-11 12:14:59,1789.4622886627988,11.3000003616,0.5075995797636,0.549542017585344,1789.4622886627988,11.3000003616,0.8063993323904,0.581592018610944,1447,0.0,99,GPS_Atti,
0.30514357760467,36.8793910519447,13900,2017-11-11 12:14:59,1789.7622886723989,11.6000003712,0.5075995797636,0.532913017053216,1789.7622886723989,11.6000003712,0.8063993323904,0.581592018610944,1447,0.0,99,GPS_Atti,
0.305143620708361,36.8793911614014,14000,2017-11-11 12:15:00,1790.0622886819988,11.9000003808,0.35999970196000003,0.52108001667456,1790.0622886819988,11.9000003808,0.8063993323904,0.581592018610944,1449,0.0,99,GPS_Atti,
0.305143631671861,36.8793912631279,14100,2017-11-11 12:15:00,1790.2622886883987,12.1000003872,0.35999970196000003,0.512531016400992,1790.2622886883987,12.1000003872,0.8063993323904,0.581592018610944,1449,0.0,99,GPS_Atti,
0.305143619282659,36.8793913565086,14200,2017-11-11 12:15:00,1790.5622886979988,12.400000396800001,0.0,0.50666001621312,1790.5622886979988,12.400000396800001,0.8063993323904,0.581592018610944,1450,0.0,99,GPS_Atti,
0.305143642051156,36.879391399615,14300,2017-11-11 12:15:00,1790.862288707599,12.700000406400001,0.0,0.5016020160512641,1790.862288707599,12.700000406400001,0.8063993323904,0.581592018610944,1455,0.0,99,GPS_Atti,
0.305143661629531,36.8793913765427,14400,2017-11-11 12:15:00,1791.1622887171989,13.000000416,0.0,0.5016500160528,1791.1622887171989,13.000000416,0.8063993323904,0.581592018610944,1456,0.0,99,GPS_Atti,
0.305143692784921,36.8793913491807,14500,2017-11-11 12:15:00,1791.4622887267988,13.3000004256,0.0,0.501078016034496,1791.4622887267988,13.3000004256,0.8063993323904,0.581592018610944,1459,0.0,99,GPS_Atti,
0.305143725117677,36.8793912615882,14600,2017-11-11 12:15:00,1791.7622887363987,13.600000435200002,0.0,0.5049900161596801,1791.7622887363987,13.600000435200002,0.8063993323904,0.581592018610944,1460,0.0,99,GPS_Atti,
0.305143770640829,36.879391189137,14700,2017-11-11 12:15:00,1792.0622887459988,13.9000004448,0.0,0.506859016219488,1792.0622887459988,13.9000004448,0.8063993323904,0.581592018610944,1461,0.0,99,GPS_Atti,
0.305143794467407,36.8793911460605,14800,2017-11-11 12:15:00,1792.362288755599,14.2000004544,0.0,0.508308016265856,1792.362288755599,14.2000004544,0.8063993323904,0.581592018610944,1462,0.0,99,GPS_Atti,
0.305143812220296,36.8793911288164,14900,2017-11-11 12:15:00,1792.5622887619988,14.400000460800001,0.0,0.50825501626416,1792.5622887619988,14.400000460800001,0.8063993323904,0.581592018610944,1461,0.0,99,GPS_Atti,
0.305143831304846,36.8793910827039,15000,2017-11-11 12:15:01,1792.9622887747987,14.8000004736,0.0,0.510398016332736,1792.9622887747987,14.8000004736,0.8063993323904,0.581592018610944,1462,0.0,99,GPS_Atti,
0.305143862133733,36.8793910263476,15100,2017-11-11 12:15:01,1793.1622887811989,15.00000048,0.0,0.512508016400256,1793.1622887811989,15.00000048,0.8063993323904,0.581592018610944,1465,0.0,99,GPS_Atti,
0.305143905231318,36.8793909453695,15200,2017-11-11 12:15:01,1793.462288790799,15.3000004896,0.0,0.515789016505248,1793.462288790799,15.3000004896,0.8063993323904,0.581592018610944,1465,0.0,99,GPS_Atti,
0.305143942144072,36.8793908853134,15300,2017-11-11 12:15:01,1793.8622888035989,15.700000502400002,0.0,0.517971016575072,1793.8622888035989,15.700000502400002,0.8063993323904,0.581592018610944,1465,0.0,99,GPS_Atti,
0.305143959712947,36.8793908416312,15400,2017-11-11 12:15:01,1794.1622888131988,16.000000512,0.0,0.520307016649824,1794.1622888131988,16.000000512,0.8063993323904,0.581592018610944,1466,0.0,99,GPS_Atti,
0.305143951293078,36.8793908329466,15500,2017-11-11 12:15:01,1794.362288819599,16.2000005184,0.0,0.5216510166928321,1794.362288819599,16.2000005184,0.8063993323904,0.581592018610944,1466,0.0,99,GPS_Atti,
0.305143879894765,36.8793907903311,15600,2017-11-11 12:15:01,1794.6622888291988,16.500000528,0.0,0.530461016974752,1794.6622888291988,16.500000528,0.8063993323904,0.581592018610944,1466,0.0,99,GPS_Atti,
0.305143823971962,36.8793907689587,15700,2017-11-11 12:15:01,1794.962288838799,16.800000537600003,0.0,0.536378017164096,1794.962288838799,16.800000537600003,0.8063993323904,0.581592018610944,1464,0.0,99,GPS_Atti,
0.305143785925404,36.8793907457183,15800,2017-11-11 12:15:01,1795.2622888483986,17.1000005472,0.0,0.5411310173161921,1795.2622888483986,17.1000005472,0.8063993323904,0.581592018610944,1461,0.0,99,GPS_Atti,
0.305143758513806,36.8793907317606,15900,2017-11-11 12:15:01,1795.5622888579987,17.400000556800002,0.0,0.544328017418496,1795.5622888579987,17.400000556800002,0.8063993323904,0.581592018610944,1461,0.0,99,GPS_Atti,
0.305143668983177,36.8793906501194,16000,2017-11-11 12:15:02,1795.8622888675989,17.7000005664,0.0,0.557744017847808,1795.8622888675989,17.7000005664,0.8063993323904,0.581592018610944,1461,0.0,99,GPS_Atti,
0.305143587094428,36.879390606875,16100,2017-11-11 12:15:02,1796.162288877199,18.000000576,0.0,0.56744501815824,1796.162288877199,18.000000576,0.8063993323904,0.581592018610944,1461,0.0,99,GPS_Atti,
0.305143454853376,36.8793905430571,16200,2017-11-11 12:15:02,1796.4622888867987,18.3000005856,0.0,0.5826680186453761,1796.4622888867987,18.3000005856,0.8063993323904,0.5826680186453761,1461,0.0,99,GPS_Atti,
0.305143351572572,36.8793905034482,16300,2017-11-11 12:15:02,1796.7622888963988,18.6000005952,0.0,0.593776019000832,1796.7622888963988,18.6000005952,0.8063993323904,0.593776019000832,1462,0.0,99,GPS_Atti,
0.305143224838918,36.8793903863528,16400,2017-11-11 12:15:02,1797.062288905999,18.900000604800002,0.0,0.6129310196137919,1797.062288905999,18.900000604800002,0.8063993323904,0.6129310196137919,1462,0.0,99,GPS_Atti,
0.305143134098762,36.879390300791,16500,2017-11-11 12:15:02,1797.3622889155988,19.2000006144,0.0,0.626784020057088,1797.3622889155988,19.2000006144,0.8063993323904,0.626784020057088,1462,0.0,99,GPS_Atti,
0.305143029453322,36.8793901793631,16600,2017-11-11 12:15:02,1797.662288925199,19.500000624000002,0.0,0.644583020626656,1797.662288925199,19.500000624000002,0.8063993323904,0.644583020626656,1462,0.0,99,GPS_Atti,
0.305142965109429,36.8793900889094,16700,2017-11-11 12:15:02,1797.9622889347986,19.800000633600003,0.0,0.656794021017408,1797.9622889347986,19.800000633600003,0.8063993323904,0.656794021017408,1462,0.0,99,GPS_Atti,
0.30514291777789,36.8793899985771,16800,2017-11-11 12:15:02,1798.2622889443987,20.1000006432,0.0,0.667698021366336,1798.2622889443987,20.1000006432,0.8063993323904,0.667698021366336,1462,0.0,99,GPS_Atti,
0.305142877745851,36.8793899522431,16900,2017-11-11 12:15:02,1798.5622889539989,20.4000006528,0.0,0.674500021584,1798.5622889539989,20.4000006528,0.8063993323904,0.674500021584,1462,0.0,99,GPS_Atti,
0.305142797990364,36.8793898801481,17000,2017-11-11 12:15:03,1798.862288963599,20.7000006624,0.0,0.6864210219654721,1798.862288963599,20.7000006624,0.8063993323904,0.6864210219654721,1462,0.0,99,GPS_Atti,
0.305142759846913,36.8793898450971,17100,2017-11-11 12:15:03,1799.1622889731989,21.000000672,0.0,0.692168022149376,1799.1622889731989,21.000000672,0.8063993323904,0.692168022149376,1462,0.0,99,GPS_Atti,
0.305142716288071,36.879389801311,17200,2017-11-11 12:15:03,1799.4622889827988,21.3000006816,0.0,0.6990350223691201,1799.4622889827988,21.3000006816,0.8063993323904,0.6990350223691201,1462,0.0,99,GPS_Atti,
0.305142693879054,36.8793897924984,17300,2017-11-11 12:15:03,1799.662288989199,21.500000688,0.0,0.701463022446816,1799.662288989199,21.500000688,0.8063993323904,0.701463022446816,1462,0.0,99,GPS_Atti,
0.305142639353049,36.8793897965902,17400,2017-11-11 12:15:03,1799.9622889987988,21.8000006976,0.0,0.705337022570784,1799.9622889987988,21.8000006976,0.8063993323904,0.705337022570784,1462,0.0,99,GPS_Atti,
0.30514260062173,36.8793898269225,17500,2017-11-11 12:15:03,1800.2622890083987,22.1000007072,0.0,0.705928022589696,1800.2622890083987,22.1000007072,0.8063993323904,0.705928022589696,1462,0.0,99,GPS_Atti,
0.30514253571928,36.8793898083652,17600,2017-11-11 12:15:03,1800.5622890179989,22.4000007168,0.0,0.712468022798976,1800.5622890179989,22.4000007168,0.8063993323904,0.712468022798976,1462,0.0,99,GPS_Atti,
0.305142494321384,36.8793898126544,17700,2017-11-11 12:15:03,1800.7622890243988,22.6000007232,0.0,0.715382022892224,1800.7622890243988,22.6000007232,0.8063993323904,0.715382022892224,1462,0.0,99,GPS_Atti,
0.305142396196641,36.8793897600668,17800,2017-11-11 12:15:03,1801.0622890339987,22.900000732800002,0.0,0.727247023271904,1801.0622890339987,22.900000732800002,0.8063993323904,0.727247023271904,1462,0.0,99,GPS_Atti,
0.305142336606583,36.8793897459948,17900,2017-11-11 12:15:03,1801.3622890435988,23.2000007424,0.0,0.73307002345824,1801.3622890435988,23.2000007424,0.8063993323904,0.73307002345824,1462,0.0,99,GPS_Atti,
0.305142303503166,36.8793897148179,18000,2017-11-11 12:15:04,1801.6622890531987,23.500000752000002,0.0,0.7381260236200321,1801.6622890531987,23.500000752000002,0.8063993323904,0.7381260236200321,1463,0.0,99,GPS_Atti,
0.305142303731962,36.8793897134096,18100,2017-11-11 12:15:04,1801.9622890627988,23.8000007616,0.0,0.7382180236229761,1801.9622890627988,23.8000007616,0.8063993323904,0.7382180236229761,1465,0.0,99,GPS_Atti,
0.305142281103512,36.879389693234,18300,2017-11-11 12:15:04,1802.5622890819986,24.400000780800003,0.0,0.741586023730752,1802.5622890819986,24.400000780800003,0.8063993323904,0.741586023730752,1468,0.0,99,GPS_Atti,
0.305142278517136,36.8793897670092,18500,2017-11-11 12:15:04,1803.162289101199,25.000000800000002,0.35999970196000003,0.7360810235545919,1803.162289101199,25.000000800000002,0.8063993323904,0.741586023730752,1469,0.0,99,GPS_Atti,
0.305142231937938,36.8793897592506,18600,2017-11-11 12:15:04,1803.4622891107988,25.3000008096,0.35999970196000003,0.740418023693376,1803.4622891107988,25.3000008096,0.8063993323904,0.741586023730752,1469,0.0,99,GPS_Atti,
0.305142209386838,36.8793897808422,18700,2017-11-11 12:15:04,1803.6622891171987,25.500000816000004,0.35999970196000003,0.740584023698688,1803.6622891171987,25.500000816000004,0.8063993323904,0.741586023730752,1474,0.0,99,GPS_Atti,
0.305142179379908,36.8793898203407,18800,2017-11-11 12:15:04,1803.9622891267989,25.8000008256,0.35999970196000003,0.740012023680384,1803.9622891267989,25.8000008256,0.8063993323904,0.741586023730752,1478,0.0,99,GPS_Atti,
0.305142171005227,36.8793898822632,18900,2017-11-11 12:15:04,1804.2622891363987,26.100000835200003,0.35999970196000003,0.7360230235527361,1804.2622891363987,26.100000835200003,0.8063993323904,0.741586023730752,1481,0.0,99,GPS_Atti,
0.30514215439062,36.879389932367,19000,2017-11-11 12:15:05,1804.5622891459989,26.4000008448,0.35999970196000003,0.733639023476448,1804.5622891459989,26.4000008448,0.8063993323904,0.741586023730752,1481,0.0,99,GPS_Atti,
0.305142154583591,36.8793899867965,19100,2017-11-11 12:15:05,1804.8622891555988,26.700000854400002,0.35999970196000003,0.729579023346528,1804.8622891555988,26.700000854400002,0.8063993323904,0.741586023730752,1481,0.0,99,GPS_Atti,
0.305142102240516,36.8793899725817,19200,2017-11-11 12:15:05,1805.1622891651987,27.000000864,0.0,0.7349790235193281,1805.1622891651987,27.000000864,0.8063993323904,0.741586023730752,1481,0.0,99,GPS_Atti,
0.305142070498071,36.8793899737386,19300,2017-11-11 12:15:05,1805.4622891747988,27.3000008736,0.0,0.73754002360128,1805.4622891747988,27.3000008736,0.8063993323904,0.741586023730752,1481,0.0,99,GPS_Atti,
0.305142035356657,36.8793899301974,19400,2017-11-11 12:15:05,1805.762289184399,27.600000883200003,0.0,0.7436740237975681,1805.762289184399,27.600000883200003,0.8063993323904,0.7436740237975681,1482,0.0,99,GPS_Atti,
0.305142026571201,36.8793899189199,19500,2017-11-11 12:15:05,1806.062289193999,27.9000008928,0.0,0.745236023847552,1806.062289193999,27.9000008928,0.8063993323904,0.745236023847552,1482,0.0,99,GPS_Atti,
0.305142019407269,36.879389925595,19600,2017-11-11 12:15:05,1806.3622892035987,28.200000902400003,0.0,0.7453430238509761,1806.3622892035987,28.200000902400003,0.8063993323904,0.7453430238509761,1482,0.0,99,GPS_Atti,
0.305142017825236,36.8793899528564,19700,2017-11-11 12:15:05,1806.6622892131988,28.500000912,0.0,0.7434750237912,1806.6622892131988,28.500000912,0.8063993323904,0.7453430238509761,1483,0.0,99,GPS_Atti,
0.305142001631989,36.8793899586222,19800,2017-11-11 12:15:05,1806.9622892227987,28.800000921600002,0.0,0.7444100238211201,1806.9622892227987,28.800000921600002,0.8063993323904,0.7453430238509761,1483,0.0,99,GPS_Atti,
0.305141997665913,36.8793899699338,19900,2017-11-11 12:15:05,1807.2622892323989,29.1000009312,0.0,0.743917023805344,1807.2622892323989,29.1000009312,0.8063993323904,0.7453430238509761,1489,0.0,99,GPS_Atti,
0.305141957055777,36.8793899500105,20000,2017-11-11 12:15:06,1807.5622892419988,29.4000009408,0.0,0.7487810239609921,1807.5622892419988,29.4000009408,0.8063993323904,0.7487810239609921,1489,0.0,99,GPS_Atti,
0.305141926093357,36.8793899536407,20100,2017-11-11 12:15:06,1807.8622892515987,29.700000950400003,0.0,0.751126024036032,1807.8622892515987,29.700000950400003,0.8063993323904,0.751126024036032,1489,0.0,99,GPS_Atti,
0.305141892667508,36.8793899838105,20200,2017-11-11 12:15:06,1808.1622892611988,30.00000096,0.0,0.7517750240568001,1808.1622892611988,30.00000096,0.8063993323904,0.7517750240568001,1490,0.0,99,GPS_Atti,
0.305141875465847,36.8793900313499,20300,2017-11-11 12:15:06,1808.462289270799,30.300000969600003,0.0,0.74983502399472,1808.462289270799,30.300000969600003,0.8063993323904,0.7517750240568001,1491,0.0,99,GPS_Atti,
0.305141900727492,36.8793900943195,20400,2017-11-11 12:15:06,1808.7622892803988,30.6000009792,0.0,0.743197023782304,1808.7622892803988,30.6000009792,0.8063993323904,0.7517750240568001,1493,0.0,99,GPS_Atti,
0.305141934836473,36.8793901595468,20500,2017-11-11 12:15:06,1809.0622892899987,30.900000988800002,0.0,0.735657023541024,1809.0622892899987,30.900000988800002,0.8063993323904,0.7517750240568001,1494,0.0,99,GPS_Atti,
0.305141932559908,36.8793901856419,20600,2017-11-11 12:15:06,1809.3622892995988,31.2000009984,0.0,0.734016023488512,1809.3622892995988,31.2000009984,0.8063993323904,0.7517750240568001,1497,0.0,99,GPS_Atti,
0.305141933343597,36.8793902174298,20700,2017-11-11 12:15:06,1809.7622893123987,31.6000010112,0.0,0.7317210234150721,1809.7622893123987,31.6000010112,0.8063993323904,0.7517750240568001,1497,0.0,99,GPS_Atti,
0.30514192426665,36.8793902434909,20800,2017-11-11 12:15:06,1810.0622893219988,31.9000010208,0.0,0.730689023382048,1810.0622893219988,31.9000010208,0.8063993323904,0.7517750240568001,1497,0.0,99,GPS_Atti,
0.30514192676224,36.8793902782986,20900,2017-11-11 12:15:06,1810.362289331599,32.2000010304,0.0,0.728056023297792,1810.362289331599,32.2000010304,0.8063993323904,0.7517750240568001,1501,0.0,99,GPS_Atti,
0.305141962550961,36.8793903118769,21000,2017-11-11 12:15:07,1810.6622893411989,32.50000104,0.0,0.7226170231237441,1810.6622893411989,32.50000104,0.8063993323904,0.7517750240568001,1506,0.0,99,GPS_Atti,
0.305142002365196,36.8793903513405,21100,2017-11-11 12:15:07,1811.062289353999,32.9000010528,0.0,0.71642002292544,1811.062289353999,32.9000010528,0.8063993323904,0.7517750240568001,1514,0.0,99,GPS_Atti,
0.305142022777334,36.8793903186998,21200,2017-11-11 12:15:07,1811.3622893635986,33.200001062400005,0.0,0.7169100229411199,1811.3622893635986,33.200001062400005,0.8063993323904,0.7517750240568001,1523,0.0,99,GPS_Atti,
0.30514203843808,36.8793903020895,21300,2017-11-11 12:15:07,1811.6622893731987,33.500001072,0.0,0.716713022934816,1811.6622893731987,33.500001072,0.8063993323904,0.7517750240568001,1536,0.0,99,GPS_Atti,
0.305141991362207,36.8793902617651,21400,2017-11-11 12:15:07,1811.9622893827989,33.8000010816,0.0,0.723604023155328,1811.9622893827989,33.8000010816,0.8063993323904,0.7517750240568001,1536,0.0,99,GPS_Atti,
0.305141954903788,36.8793902434238,21500,2017-11-11 12:15:07,1812.3622893955987,34.2000010944,0.0,0.728039023297248,1812.3622893955987,34.2000010944,0.8063993323904,0.7517750240568001,1549,0.0,99,GPS_Atti,
0.305141907970811,36.8793902125082,21600,2017-11-11 12:15:07,1812.6622894051989,34.500001104,0.0,0.73426002349632,1812.6622894051989,34.500001104,0.8063993323904,0.7517750240568001,1549,0.0,99,GPS_Atti,
0.305141878135274,36.8793901977486,21700,2017-11-11 12:15:07,1813.062289417999,34.900001116800006,0.0,0.737874023611968,1813.062289417999,34.900001116800006,0.8063993323904,0.7517750240568001,1553,0.0,99,GPS_Atti,
0.305141855580918,36.8793901724238,21800,2017-11-11 12:15:07,1813.3622894275989,35.200001126400004,0.0,0.741594023731008,1813.3622894275989,35.200001126400004,0.8063993323904,0.7517750240568001,1558,0.0,99,GPS_Atti,
0.305141851985313,36.879390174375,21900,2017-11-11 12:15:07,1813.762289440399,35.6000011392,0.0,0.741769023736608,1813.762289440399,35.6000011392,0.8063993323904,0.7517750240568001,1564,0.0,99,GPS_Atti,
0.305141819986389,36.8793901407566,22000,2017-11-11 12:15:08,1814.1622894531988,36.000001152,0.0,0.74688502390032,1814.1622894531988,36.000001152,0.8063993323904,0.7517750240568001,1572,0.0,99,GPS_Atti,
0.305141803294024,36.8793901352441,22100,2017-11-11 12:15:08,1814.4622894627987,36.3000011616,0.0,0.748716023958912,1814.4622894627987,36.3000011616,0.8063993323904,0.7517750240568001,1572,0.0,99,GPS_Atti,
0.305141790884873,36.8793901666641,22200,2017-11-11 12:15:08,1814.862289475599,36.7000011744,0.0,0.7476100239235199,1814.862289475599,36.7000011744,0.8063993323904,0.7517750240568001,1572,0.0,99,GPS_Atti,
0.305141788376255,36.8793902118894,22300,2017-11-11 12:15:08,1815.262289488399,37.10000118720001,0.0,0.744706023830592,1815.262289488399,37.10000118720001,0.8063993323904,0.7517750240568001,1586,0.0,99,GPS_Atti,
0.305141785481696,36.8793902091541,22400,2017-11-11 12:15:08,1815.662289501199,37.5000012,0.0,0.7451470238447041,1815.662289501199,37.5000012,0.8063993323904,0.7517750240568001,1596,0.0,99,GPS_Atti,
0.305141793146375,36.8793902356151,22500,2017-11-11 12:15:08,1816.0622895139988,37.9000012128,0.0,0.7426590237650881,1816.0622895139988,37.9000012128,0.8063993323904,0.7517750240568001,1599,0.0,98,GPS_Atti,
0.305141756642767,36.8793902756783,22600,2017-11-11 12:15:08,1816.462289526799,38.3000012256,0.0,0.74313002378016,1816.462289526799,38.3000012256,0.8063993323904,0.7517750240568001,1603,0.0,98,GPS_Atti,
0.305141728819173,36.8793903209013,22700,2017-11-11 12:15:08,1816.8622895395988,38.7000012384,0.0,0.742534023761088,1816.8622895395988,38.7000012384,0.8063993323904,0.7517750240568001,1616,0.0,98,GPS_Atti,
0.305141702258437,36.8793903219478,22800,2017-11-11 12:15:08,1817.262289552399,39.100001251200005,0.0,0.7448190238342081,1817.262289552399,39.100001251200005,0.8063993323904,0.7517750240568001,1616,0.0,98,GPS_Atti,
0.305141697376769,36.8793903486965,22900,2017-11-11 12:15:08,1817.6622895651988,39.500001264,0.0,0.7434660237909121,1817.6622895651988,39.500001264,0.8063993323904,0.7517750240568001,1635,0.0,98,GPS_Atti,
0.305141658564028,36.8793903454168,23000,2017-11-11 12:15:09,1818.0622895779989,39.900001276800005,0.0,0.7471440239086081,1818.0622895779989,39.900001276800005,0.8063993323904,0.7517750240568001,1636,0.0,98,GPS_Atti,
0.305141631070601,36.87939036228,23100,2017-11-11 12:15:09,1818.462289590799,40.3000012896,0.0,0.7484850239515201,1818.462289590799,40.3000012896,0.8063993323904,0.7517750240568001,1630,0.0,98,GPS_Atti,
0.305141605355434,36.8793903893034,23200,2017-11-11 12:15:09,1818.9622896067988,40.8000013056,0.0,0.749016023968512,1818.9622896067988,40.8000013056,0.8063993323904,0.7517750240568001,1631,0.0,98,GPS_Atti,
0.305141595331955,36.8793904467054,23300,2017-11-11 12:15:09,1819.4622896227988,41.30000132160001,0.0,0.7461810238777921,1819.4622896227988,41.30000132160001,0.8063993323904,0.7517750240568001,1631,0.0,98,GPS_Atti,
0.305141553167061,36.8793904859406,23400,2017-11-11 12:15:09,1819.862289635599,41.7000013344,0.35999970196000003,0.747477023919264,1819.862289635599,41.7000013344,0.8063993323904,0.7517750240568001,1631,0.0,98,GPS_Atti,
0.305141539972187,36.8793905701276,23500,2017-11-11 12:15:09,1820.3622896515988,42.2000013504,0.35999970196000003,0.743337023786784,1820.3622896515988,42.2000013504,0.8063993323904,0.7517750240568001,1630,0.0,98,GPS_Atti,
0.30514153082196,36.8793906006734,23600,2017-11-11 12:15:09,1820.7622896643988,42.6000013632,0.35999970196000003,0.74226002375232,1820.7622896643988,42.6000013632,0.8063993323904,0.7517750240568001,1630,0.0,98,GPS_Atti,
0.305141535313615,36.8793906619678,23700,2017-11-11 12:15:09,1821.1622896771987,43.000001376,0.35999970196000003,0.738032023617024,1821.1622896771987,43.000001376,0.8063993323904,0.7517750240568001,1635,0.0,98,GPS_Atti,
0.305141495915449,36.8793906914157,23800,2017-11-11 12:15:09,1821.6622896931988,43.500001392,0.0,0.739868023675776,1821.6622896931988,43.500001392,0.8063993323904,0.7517750240568001,1641,0.0,98,GPS_Atti,
0.305141471499373,36.8793907417925,23900,2017-11-11 12:15:09,1822.1622897091988,44.000001407999996,0.0,0.7390750236504,1822.1622897091988,44.000001407999996,0.8063993323904,0.7517750240568001,1642,0.0,98,GPS_Atti,
0.30514143826446,36.8793907511779,24000,2017-11-11 12:15:10,1822.562289721999,44.4000014208,0.0,0.74161502373168,1822.562289721999,44.4000014208,0.8063993323904,0.7517750240568001,1642,0.0,98,GPS_Atti,
0.305141421701556,36.8793907773841,24100,2017-11-11 12:15:10,1823.0622897379988,44.900001436800004,0.0,0.741598023731136,1823.0622897379988,44.900001436800004,0.8063993323904,0.7517750240568001,1663,0.0,98,GPS_Atti,
0.305141352057077,36.8793908099646,24200,2017-11-11 12:15:10,1823.4622897507988,45.3000014496,0.0,0.7462250238792001,1823.4622897507988,45.3000014496,0.8063993323904,0.7517750240568001,1684,0.0,98,GPS_Atti,
0.305141296312182,36.8793908659702,24300,2017-11-11 12:15:10,1823.9622897667987,45.800001465600005,0.0,0.748247023943904,1823.9622897667987,45.800001465600005,0.8063993323904,0.7517750240568001,1684,0.0,98,GPS_Atti,
0.305141220451933,36.8793908905846,24400,2017-11-11 12:15:10,1824.3622897795988,46.2000014784,0.0,0.754071024130272,1824.3622897795988,46.2000014784,0.8063993323904,0.754071024130272,1684,0.0,98,GPS_Atti,
0.305141161416767,36.8793909253191,24500,2017-11-11 12:15:10,1824.8622897955988,46.7000014944,0.0,0.7577700242486402,1824.8622897955988,46.7000014944,0.8063993323904,0.7577700242486402,1684,0.0,98,GPS_Atti,
0.305141092684217,36.879390939014,24600,2017-11-11 12:15:10,1825.3622898115989,47.2000015104,0.0,0.763626024436032,1825.3622898115989,47.2000015104,0.8063993323904,0.763626024436032,1684,0.0,98,GPS_Atti,
0.305141056432611,36.8793909877993,24700,2017-11-11 12:15:10,1825.8622898275987,47.70000152640001,0.0,0.764454024462528,1825.8622898275987,47.70000152640001,0.8063993323904,0.764454024462528,1684,0.0,98,GPS_Atti,
0.305141011294586,36.8793910011138,24800,2017-11-11 12:15:10,1826.362289843599,48.20000154240001,0.0,0.7681140245796481,1826.362289843599,48.20000154240001,0.8063993323904,0.7681140245796481,1684,0.0,98,GPS_Atti,
0.30514098048524,36.8793910458955,24900,2017-11-11 12:15:10,1826.8622898595988,48.7000015584,0.0,0.7687140245988481,1826.8622898595988,48.7000015584,0.8063993323904,0.7687140245988481,1684,0.0,98,GPS_Atti,
0.305140886657554,36.8793910562598,25000,2017-11-11 12:15:11,1827.4622898787986,49.3000015776,0.0,0.7773460248750721,1827.4622898787986,49.3000015776,0.8063993323904,0.7773460248750721,1684,0.0,98,GPS_Atti,
0.305140824096806,36.8793910961395,25100,2017-11-11 12:15:11,1827.962289894799,49.8000015936,0.0,0.78142002500544,1827.962289894799,49.8000015936,0.8063993323904,0.78142002500544,1684,0.0,98,GPS_Atti,
0.305140746317436,36.8793910813541,25200,2017-11-11 12:15:11,1828.4622899107987,50.3000016096,0.0,0.7898500252752,1828.4622899107987,50.3000016096,0.8063993323904,0.7898500252752,1684,0.0,98,GPS_Atti,
0.305140699387308,36.8793910940593,25300,2017-11-11 12:15:11,1828.9622899267988,50.800001625600004,0.0,0.793839025402848,1828.9622899267988,50.800001625600004,0.8063993323904,0.793839025402848,1684,0.0,98,GPS_Atti,
0.305140645279814,36.8793910830357,25400,2017-11-11 12:15:11,1829.5622899459988,51.4000016448,0.0,0.799753025592096,1829.5622899459988,51.4000016448,0.8063993323904,0.799753025592096,1684,0.0,98,GPS_Atti,
0.305140611685828,36.8793910922026,25500,2017-11-11 12:15:11,1830.0622899619987,51.90000166080001,0.0,0.80262002568384,1830.0622899619987,51.90000166080001,0.8063993323904,0.80262002568384,1684,0.0,98,GPS_Atti,
0.305140547945273,36.8793911000976,25600,2017-11-11 12:15:11,1830.562289977999,52.40000167680001,0.0,0.80855502587376,1830.562289977999,52.40000167680001,0.8063993323904,0.80855502587376,1684,0.0,98,GPS_Atti,
0.305140505905363,36.8793911393256,25700,2017-11-11 12:15:11,1831.0622899939988,52.9000016928,0.0,0.8108050259457601,1831.0622899939988,52.9000016928,0.8063993323904,0.8108050259457601,1684,0.0,98,GPS_Atti,
0.305140438852553,36.8793911775587,25800,2017-11-11 12:15:11,1831.5622900099988,53.400001708800005,0.0,0.815653026100896,1831.5622900099988,53.400001708800005,0.8063993323904,0.815653026100896,1684,0.0,98,GPS_Atti,
0.305140400830829,36.8793912279952,25900,2017-11-11 12:15:11,1832.0622900259987,53.900001724800006,0.0,0.817063026146016,1832.0622900259987,53.900001724800006,0.8063993323904,0.817063026146016,1684,0.0,98,GPS_Atti,
0.305140339520726,36.8793912747467,26000,2017-11-11 12:15:12,1832.562290041999,54.40000174080001,0.0,0.82105502627376,1832.562290041999,54.40000174080001,0.8063993323904,0.82105502627376,1684,0.0,98,GPS_Atti,
0.305140298218501,36.8793913259989,26100,2017-11-11 12:15:12,1833.0622900579988,54.9000017568,0.0,0.822882026332224,1833.0622900579988,54.9000017568,0.8063993323904,0.822882026332224,1684,0.0,98,GPS_Atti,
0.305140272594121,36.8793913224757,26200,2017-11-11 12:15:12,1833.5622900739986,55.4000017728,0.0,0.8256430264205761,1833.5622900739986,55.4000017728,0.8063993323904,0.8256430264205761,1684,0.0,98,GPS_Atti,
0.305140273773928,36.879391348013,26300,2017-11-11 12:15:12,1834.062290089999,55.900001788800004,0.0,0.824367026379744,1834.062290089999,55.900001788800004,0.8063993323904,0.8256430264205761,1684,0.0,98,GPS_Atti,
0.305140248000545,36.8793913548166,26400,2017-11-11 12:15:12,1834.5622901059987,56.400001804800006,0.0,0.826682026453824,1834.5622901059987,56.400001804800006,0.8063993323904,0.826682026453824,1684,0.0,98,GPS_Atti,
0.305140235884108,36.8793913925585,26500,2017-11-11 12:15:12,1835.0622901219988,56.90000182080001,0.0,0.8262320264394241,1835.0622901219988,56.90000182080001,0.8063993323904,0.826682026453824,1684,0.0,98,GPS_Atti,
0.305140194010299,36.8793914221125,26600,2017-11-11 12:15:12,1835.5622901379988,57.4000018368,0.0,0.8292060265345921,1835.5622901379988,57.4000018368,0.8063993323904,0.8292060265345921,1684,0.0,98,GPS_Atti,
0.305140181538046,36.8793914559012,26700,2017-11-11 12:15:12,1836.062290153999,57.9000018528,0.0,0.829013026528416,1836.062290153999,57.9000018528,0.8063993323904,0.8292060265345921,1684,0.0,98,GPS_Atti,
0.305140144829662,36.8793914443268,26800,2017-11-11 12:15:12,1836.5622901699987,58.400001868800004,0.0,0.8332750266648,1836.5622901699987,58.400001868800004,0.8063993323904,0.8332750266648,1684,0.0,98,GPS_Atti,
0.305140124949617,36.8793914508247,26900,2017-11-11 12:15:12,1837.062290185999,58.900001884800005,0.0,0.8350330267210561,1837.062290185999,58.900001884800005,0.8063993323904,0.8350330267210561,1684,0.0,98,GPS_Atti,
0.305140105628944,36.8793913960078,27000,2017-11-11 12:15:13,1837.5622902019988,59.40000190080001,0.0,0.83938502686032,1837.5622902019988,59.40000190080001,0.8063993323904,0.83938502686032,1684,0.0,98,GPS_Atti,
0.305140136422005,36.8793913795713,27100,2017-11-11 12:15:13,1838.0622902179987,59.9000019168,0.0,0.8369570267826241,1838.0622902179987,59.9000019168,0.8063993323904,0.83938502686032,1684,0.0,98,GPS_Atti,
0.305140166750146,36.8793913306069,27200,2017-11-11 12:15:13,1838.5622902339987,60.4000019328,0.0,0.836036026753152,1838.5622902339987,60.4000019328,0.8063993323904,0.83938502686032,1684,0.0,98,GPS_Atti,
0.305140216690452,36.8793913128506,27300,2017-11-11 12:15:13,1839.0622902499988,60.9000019488,0.0,0.831756026616192,1839.0622902499988,60.9000019488,0.8063993323904,0.83938502686032,1684,0.0,98,GPS_Atti,
0.305140264136797,36.8793912790581,27400,2017-11-11 12:15:13,1839.5622902659989,61.400001964800005,0.0,0.828483026511456,1839.5622902659989,61.400001964800005,0.8063993323904,0.83938502686032,1684,0.0,98,GPS_Atti,
0.305140321368461,36.8793912794823,27500,2017-11-11 12:15:13,1840.0622902819987,61.900001980800006,0.0,0.8226710263254721,1840.0622902819987,61.900001980800006,0.8063993323904,0.83938502686032,1684,0.0,98,GPS_Atti,
0.305140329443101,36.8793912728221,27600,2017-11-11 12:15:13,1840.662290301199,62.50000200000001,0.0,0.8221630263092161,1840.662290301199,62.50000200000001,0.8063993323904,0.83938502686032,1684,0.0,98,GPS_Atti,
0.305140356060018,36.8793912929963,27700,2017-11-11 12:15:13,1841.1622903171988,63.000002015999996,0.0,0.8185380261932161,1841.1622903171988,63.000002015999996,0.8063993323904,0.83938502686032,1684,0.0,98,GPS_Atti,
0.305140377509068,36.8793912537787,27800,2017-11-11 12:15:13,1841.662290333199,63.500002032,0.0,0.8181980261823361,1841.662290333199,63.500002032,0.8063993323904,0.83938502686032,1684,0.0,98,GPS_Atti,
0.30514042152021,36.8793912459648,27900,2017-11-11 12:15:13,1842.1622903491989,64.000002048,0.0,0.8141310260521921,1842.1622903491989,64.000002048,0.8063993323904,0.83938502686032,1684,0.0,98,GPS_Atti,
0.305140430920403,36.8793911821297,28000,2017-11-11 12:15:14,1842.6622903651987,64.500002064,0.0,0.8162280261192961,1842.6622903651987,64.500002064,0.8063993323904,0.83938502686032,1684,0.0,98,GPS_Atti,
0.305140466270665,36.8793911583931,28100,2017-11-11 12:15:14,1843.1622903811988,65.00000208,0.0,0.8138350260427201,1843.1622903811988,65.00000208,0.8063993323904,0.83938502686032,1684,0.0,98,GPS_Atti,
0.305140507255343,36.8793911195873,28200,2017-11-11 12:15:14,1843.6622903971988,65.500002096,0.0,0.811641025972512,1843.6622903971988,65.500002096,0.8063993323904,0.83938502686032,1684,0.0,98,GPS_Atti,
0.305140572196061,36.8793911063424,28300,2017-11-11 12:15:14,1844.162290413199,66.000002112,0.35999970196000003,0.805833025786656,1844.162290413199,66.000002112,0.8063993323904,0.83938502686032,1684,0.0,98,GPS_Atti,
0.305140635264069,36.8793910268647,28400,2017-11-11 12:15:14,1844.6622904291987,66.500002128,0.35999970196000003,0.803603025715296,1844.6622904291987,66.500002128,0.8063993323904,0.83938502686032,1684,0.0,98,GPS_Atti,
0.305140711309147,36.8793909743408,28500,2017-11-11 12:15:14,1845.162290445199,67.000002144,0.35999970196000003,0.7988380255628161,1845.162290445199,67.000002144,0.8063993323904,0.83938502686032,1684,0.0,98,GPS_Atti,
0.305140754024047,36.8793908835614,28600,2017-11-11 12:15:14,1845.6622904611988,67.50000216000001,0.0,0.799476025583232,1845.6622904611988,67.50000216000001,0.8063993323904,0.83938502686032,1684,0.0,98,GPS_Atti,
0.305140805874518,36.8793908319828,28700,2017-11-11 12:15:14,1846.2622904803989,68.1000021792,0.0,0.797234025511488,1846.2622904803989,68.1000021792,0.8063993323904,0.83938502686032,1684,0.0,98,GPS_Atti,
0.305140832514234,36.8793907482019,28800,2017-11-11 12:15:14,1846.762290496399,68.6000021952,0.0,0.79929002557728,1846.762290496399,68.6000021952,0.8063993323904,0.83938502686032,1684,0.0,98,GPS_Atti,
0.305140874668135,36.879390708705,28900,2017-11-11 12:15:14,1847.2622905123987,69.1000022112,0.0,0.797463025518816,1847.2622905123987,69.1000022112,0.8063993323904,0.83938502686032,1684,0.0,98,GPS_Atti,
0.305140894859212,36.8793906904229,29000,2017-11-11 12:15:15,1847.6622905251988,69.500002224,0.0,0.796569025490208,1847.6622905251988,69.500002224,0.8063993323904,0.83938502686032,1684,0.0,98,GPS_Atti,
0.305140925913639,36.8793907014983,29100,2017-11-11 12:15:15,1848.1622905411987,70.00000224,0.0,0.792972025375104,1848.1622905411987,70.00000224,0.8063993323904,0.83938502686032,1684,0.0,98,GPS_Atti,
0.3051409446668,36.8793906783405,29200,2017-11-11 12:15:15,1848.662290557199,70.500002256,0.0,0.792507025360224,1848.662290557199,70.500002256,0.8063993323904,0.83938502686032,1684,0.0,98,GPS_Atti,
0.305140975063336,36.879390678437,29300,2017-11-11 12:15:15,1849.1622905731988,71.000002272,0.0,0.7896080252674561,1849.1622905731988,71.000002272,0.8063993323904,0.83938502686032,1684,0.0,98,GPS_Atti,
0.305140967977976,36.8793906278672,29400,2017-11-11 12:15:15,1849.6622905891986,71.500002288,0.0,0.793206025382592,1849.6622905891986,71.500002288,0.8063993323904,0.83938502686032,1684,0.0,98,GPS_Atti,
0.305140983181129,36.8793906056795,29500,2017-11-11 12:15:15,1850.162290605199,72.000002304,0.0,0.79306002537792,1850.162290605199,72.000002304,0.8063993323904,0.83938502686032,1684,0.0,98,GPS_Atti,
0.305141008597883,36.8793905375447,29600,2017-11-11 12:15:15,1850.7622906243987,72.6000023232,0.0,0.794679025429728,1850.7622906243987,72.6000023232,0.8063993323904,0.83938502686032,1684,0.0,98,GPS_Atti,
0.305141048254565,36.8793905080976,29700,2017-11-11 12:15:15,1851.262290640399,73.1000023392,0.0,0.7927170253669441,1851.262290640399,73.1000023392,0.8063993323904,0.83938502686032,1684,0.0,98,GPS_Atti,
