latitude,longitude,time_millisecond,datetime_utc,altitude_m,ascent_m,speed_kph,distance_m,max_altitude_m,max_ascent_m,max_speed_kph,max_distance_m,rc_throttle,gimbal_pitch_degrees,battery_percent,flycState,message
0.359801264423224,36.8939980972101,100,2017-11-07 06:34:33,1761.0040846521376,0.0,0.0,0.0,1761.0040846521376,0.0,0.0,0.0,1024,0.0,99,Motors_Started,
0.359801340845287,36.8939982708611,200,2017-11-07 06:34:33,1761.0040846521376,0.0,0.0,0.0210981006751392,1761.0040846521376,0.0,0.0,0.0210981006751392,1024,0.0,99,Motors_Started,
0.359801407786548,36.8939984858222,300,2017-11-07 06:34:33,1761.0040846521376,0.0,0.0,0.046062201473990406,1761.0040846521376,0.0,0.0,0.046062201473990406,1024,0.0,99,Motors_Started,Setting new Return-To-Home altitude to 30m (98 ft). Setting new Maximum Flight Altitude to 100m (328 ft)
0.359801486643135,36.8939986601841,400,2017-11-07 06:34:33,1761.0040846521376,0.0,0.0,0.06730580215378561,1761.0040846521376,0.0,0.0,0.06730580215378561,1024,0.0,99,Motors_Started,
0.359801573225874,36.8939988595059,500,2017-11-07 06:34:33,1761.0040846521376,0.0,0.0,0.0914619029267808,1761.0040846521376,0.0,0.0,0.0914619029267808,1024,0.0,99,Motors_Started,
0.359801656628261,36.8939990097237,600,2017-11-07 06:34:33,1761.0040846521376,0.0,0.0,0.110451003534432,1761.0040846521376,0.0,0.0,0.110451003534432,1024,0.0,99,Motors_Started,
0.359801727590151,36.8939991871796,700,2017-11-07 06:34:33,1761.0040846521376,0.0,0.0,0.131699004214368,1761.0040846521376,0.0,0.0,0.131699004214368,1024,0.0,99,Motors_Started,
0.359801789953043,36.8939993278926,800,2017-11-07 06:34:33,1761.0040846521376,0.0,0.0,0.148813004762016,1761.0040846521376,0.0,0.0,0.148813004762016,1024,0.0,99,Motors_Started,
0.359801847143996,36.8939994869942,900,2017-11-07 06:34:34,1761.0040846521376,0.0,0.0,0.16758500536272003,1761.0040846521376,0.0,0.0,0.16758500536272003,1024,0.0,99,Motors_Started,
0.359801913491689,36.8939996359144,1000,2017-11-07 06:34:34,1761.0040846521376,0.0,0.0,0.185711005942752,1761.0040846521376,0.0,0.0,0.185711005942752,1024,0.0,99,Motors_Started,
0.359801993498772,36.8939998245923,1100,2017-11-07 06:34:34,1761.0040846521376,0.0,0.0,0.208501006672032,1761.0040846521376,0.0,0.0,0.208501006672032,1024,0.0,99,Motors_Started,
0.359802067938203,36.8939999840322,1200,2017-11-07 06:34:34,1761.0040846521376,0.0,0.0,0.228056007297792,1761.0040846521376,0.0,0.0,0.228056007297792,1024,0.0,99,Motors_Started,
0.359802132156707,36.8940001359865,1300,2017-11-07 06:34:34,1761.0040846521376,0.0,0.0,0.24640100788483202,1761.0040846521376,0.0,0.0,0.24640100788483202,397,0.0,99,Motors_Started,
0.359802205167993,36.8940002556836,1400,2017-11-07 06:34:34,1761.0040846521376,0.0,0.0,0.26183800837881605,1761.0040846521376,0.0,0.0,0.26183800837881605,686,0.0,99,Motors_Started,
0.359802289118352,36.894000391489,1500,2017-11-07 06:34:34,1761.0040846521376,0.0,0.0,0.27942400894156805,1761.0040846521376,0.0,0.0,0.27942400894156805,809,0.0,99,Assisted_Takeoff,
0.359802367480706,36.8940005225516,1600,2017-11-07 06:34:34,1761.0040846521376,0.0,0.0,0.296292009481344,1761.0040846521376,0.0,0.0,0.296292009481344,1024,0.0,99,Assisted_Takeoff,
0.359802435246775,36.8940006788247,1700,2017-11-07 06:34:34,1761.0040846521376,0.0,0.0,0.315232010087424,1761.0040846521376,0.0,0.0,0.315232010087424,1024,0.0,99,Assisted_Takeoff,
0.359802494602744,36.8940008199552,1800,2017-11-07 06:34:34,1761.0040846521376,0.0,0.0,0.332251010632032,1761.0040846521376,0.0,0.0,0.332251010632032,1024,0.0,99,Assisted_Takeoff,
0.359802549993452,36.8940009618266,1900,2017-11-07 06:34:35,1761.0040846521376,0.0,0.0,0.34916601117331203,1761.0040846521376,0.0,0.0,0.34916601117331203,1024,0.0,99,Assisted_Takeoff,
0.359802612892916,36.8940010901228,2000,2017-11-07 06:34:35,1761.0040846521376,0.0,0.0,0.365047011681504,1761.0040846521376,0.0,0.0,0.365047011681504,1024,0.0,99,Assisted_Takeoff,
0.359802691991326,36.8940012264035,2100,2017-11-07 06:34:35,1761.0040846521376,0.0,0.0,0.38248101223939207,1761.0040846521376,0.0,0.0,0.38248101223939207,1024,0.0,99,Assisted_Takeoff,
0.359802765301432,36.8940013363432,2200,2017-11-07 06:34:35,1761.0040846521376,0.0,0.0,0.39699501270384,1761.0040846521376,0.0,0.0,0.39699501270384,1024,0.0,99,Assisted_Takeoff,
0.359802829760945,36.8940014400906,2300,2017-11-07 06:34:35,1761.0040846521376,0.0,0.0,0.41048001313536,1761.0040846521376,0.0,0.0,0.41048001313536,1024,0.0,99,Assisted_Takeoff,
0.359802886331461,36.8940015341534,2400,2017-11-07 06:34:35,1761.0040846521376,0.0,0.0,0.422623013523936,1761.0040846521376,0.0,0.0,0.422623013523936,1024,0.0,99,Assisted_Takeoff,
0.35980294076383,36.894001648763,2500,2017-11-07 06:34:35,1761.0040846521376,0.0,0.0,0.436732013975424,1761.0040846521376,0.0,0.0,0.436732013975424,1024,0.0,99,Assisted_Takeoff,
0.359803003698305,36.8940017446394,2600,2017-11-07 06:34:35,1761.0040846521376,0.0,0.0,0.44936501437968007,1761.0040846521376,0.0,0.0,0.44936501437968007,1024,0.0,99,Assisted_Takeoff,
0.35980308230574,36.8940018423786,2700,2017-11-07 06:34:35,1761.0040846521376,0.0,0.0,0.462949014814368,1761.0040846521376,0.0,0.0,0.462949014814368,1099,0.0,99,Assisted_Takeoff,
0.35980315540252,36.8940019405417,2800,2017-11-07 06:34:35,1761.0040846521376,0.0,0.0,0.476326015242432,1761.0040846521376,0.0,0.0,0.476326015242432,1170,0.0,99,Assisted_Takeoff,
0.359803218657798,36.8940020551642,2900,2017-11-07 06:34:36,1761.0040846521376,0.0,0.0,0.49086901570780805,1761.0040846521376,0.0,0.0,0.49086901570780805,1249,0.0,99,Assisted_Takeoff,
0.359803292139705,36.8940021599308,3000,2017-11-07 06:34:36,1761.0040846521376,0.0,0.0,0.504938016158016,1761.0040846521376,0.0,0.0,0.504938016158016,1272,0.0,99,Assisted_Takeoff,
0.359803376649435,36.894002261188,3100,2017-11-07 06:34:36,1761.0040846521376,0.0,0.0,0.519221016615072,1761.0040846521376,0.0,0.0,0.519221016615072,1302,0.0,99,Assisted_Takeoff,
0.359803456874728,36.8940023537861,3200,2017-11-07 06:34:36,1761.0040846521376,0.0,0.0,0.5324500170384,1761.0040846521376,0.0,0.0,0.5324500170384,1362,0.0,99,Assisted_Takeoff,
0.359803526285525,36.8940024476262,3300,2017-11-07 06:34:36,1761.0040846521376,0.0,0.0,0.545266017448512,1761.0040846521376,0.0,0.0,0.545266017448512,1447,0.0,99,Assisted_Takeoff,
0.359803590496701,36.8940025328736,3400,2017-11-07 06:34:36,1761.0040846521376,0.0,0.0,0.556974017823168,1761.0040846521376,0.0,0.0,0.556974017823168,1486,0.0,99,Assisted_Takeoff,
0.359803656044828,36.894002609445,3500,2017-11-07 06:34:36,1761.0040846521376,0.0,0.0,0.567906018172992,1761.0040846521376,0.0,0.0,0.567906018172992,1499,0.0,99,Assisted_Takeoff,
0.359803688432951,36.894002679036,3600,2017-11-07 06:34:36,1761.0040846521376,0.0,0.0,0.576431018445792,1761.0040846521376,0.0,0.0,0.576431018445792,1499,0.0,99,GPS_Atti,Obstacle Avoided. Revise Flight Route
0.359803681419243,36.8940027430877,3700,2017-11-07 06:34:36,1761.0040846521376,0.0,0.0,0.5823760186360321,1761.0040846521376,0.0,0.0,0.5823760186360321,1496,0.0,99,GPS_Atti,
0.359803654349618,36.8940028489078,3900,2017-11-07 06:34:37,1761.2040846585376,0.2000000064,0.0,0.591481018927392,1761.2040846585376,0.2000000064,0.0,0.591481018927392,1494,0.0,99,GPS_Atti,Obstacle Avoided. Revise Flight Route
0.359803653159226,36.8940028734716,4000,2017-11-07 06:34:37,1761.4040846649375,0.4000000128,0.0,0.593864019003648,1761.4040846649375,0.4000000128,0.0,0.593864019003648,1494,0.0,99,GPS_Atti,
0.359803663794593,36.8940028688359,4100,2017-11-07 06:34:37,1761.6040846713374,0.6000000192,0.0,0.593933019005856,1761.6040846713374,0.6000000192,0.0,0.593933019005856,1499,0.0,99,GPS_Atti,
0.359803684203882,36.8940028670202,4200,2017-11-07 06:34:37,1761.8040846777376,0.8000000256,0.0,0.5947760190328321,1761.8040846777376,0.8000000256,0.0,0.5947760190328321,1484,0.0,99,GPS_Atti,
0.359803727023817,36.8940028721483,4300,2017-11-07 06:34:37,1762.0040846841375,1.000000032,0.0,0.597452019118464,1762.0040846841375,1.000000032,0.0,0.597452019118464,1484,0.0,99,GPS_Atti,
0.359803782241096,36.8940028982452,4400,2017-11-07 06:34:37,1762.3040846937374,1.3000000416000002,0.0,0.602861019291552,1762.3040846937374,1.3000000416000002,0.0,0.602861019291552,1489,0.0,99,GPS_Atti,Home Point Recorded. RTH Altitude:  30m.
0.359803845761811,36.8940029507516,4500,2017-11-07 06:34:37,1762.7040847065375,1.7000000544000002,0.0,0.611323019562336,1762.7040847065375,1.7000000544000002,0.0,0.611323019562336,1490,0.0,99,GPS_Atti,
0.359803914931598,36.894003003879,4600,2017-11-07 06:34:37,1763.0040847161376,2.000000064,0.0,0.620164019845248,1763.0040847161376,2.000000064,0.0,0.620164019845248,1496,0.0,99,GPS_Atti,
0.359804003401704,36.8940030311878,4700,2017-11-07 06:34:37,1763.3040847257375,2.3000000736,0.0,0.6275530200816961,1763.3040847257375,2.3000000736,0.0,0.6275530200816961,1496,0.0,99,GPS_Atti,
0.359804105054063,36.8940030360184,4800,2017-11-07 06:34:37,1763.6040847353374,2.6000000832000003,0.0,0.633583020274656,1763.6040847353374,2.6000000832000003,0.0,0.633583020274656,1499,0.0,99,GPS_Atti,
0.359804200651868,36.8940030239506,4900,2017-11-07 06:34:38,1764.0040847481373,3.0000000960000004,0.0,0.6377960204094719,1764.0040847481373,3.0000000960000004,0.0,0.6377960204094719,1507,0.0,99,GPS_Atti,
0.359804278579427,36.8940029962328,5000,2017-11-07 06:34:38,1764.3040847577374,3.3000001056,0.0,0.639649020468768,1764.3040847577374,3.3000001056,0.0,0.639649020468768,1513,0.0,99,GPS_Atti,
0.359804350322156,36.8940029759342,5100,2017-11-07 06:34:38,1764.6040847673376,3.6000001152000003,0.0,0.641957020542624,1764.6040847673376,3.6000001152000003,0.0,0.641957020542624,1519,0.0,99,GPS_Atti,
0.359804415564136,36.894002989548,5200,2017-11-07 06:34:38,1765.0040847801374,4.000000128,0.0,0.6471370207083841,1765.0040847801374,4.000000128,0.0,0.6471370207083841,1526,0.0,99,GPS_Atti,
0.359804470592516,36.8940030280895,5300,2017-11-07 06:34:38,1765.3040847897375,4.3000001376,0.0,0.65406002092992,1765.3040847897375,4.3000001376,0.0,0.65406002092992,1525,0.0,99,GPS_Atti,
0.359804499954989,36.8940030735043,5400,2017-11-07 06:34:38,1765.6040847993377,4.6000001472,0.0,0.660073021122336,1765.6040847993377,4.6000001472,0.0,0.660073021122336,1545,0.0,99,GPS_Atti,
0.359804524593347,36.8940031025582,5500,2017-11-07 06:34:38,1765.9040848089373,4.9000001568,0.0,0.664276021256832,1765.9040848089373,4.9000001568,0.0,0.664276021256832,1569,0.0,99,GPS_Atti,
0.359804545733807,36.8940031498572,5600,2017-11-07 06:34:38,1766.3040848217374,5.3000001696000005,0.0,0.669967021438944,1766.3040848217374,5.3000001696000005,0.0,0.669967021438944,1588,0.0,99,GPS_Atti,
0.359804563272149,36.894003200368,5700,2017-11-07 06:34:38,1766.6040848313376,5.6000001792,0.0,0.675741021623712,1766.6040848313376,5.6000001792,0.0,0.675741021623712,1626,0.0,99,GPS_Atti,
0.3598045985817,36.8940032613707,5800,2017-11-07 06:34:38,1767.0040848441374,6.000000192000001,0.0,0.68357002187424,1767.0040848441374,6.000000192000001,0.0,0.68357002187424,1666,0.0,99,GPS_Atti,
0.359804659306377,36.8940033061388,5900,2017-11-07 06:34:39,1767.3040848537375,6.3000002016,0.0,0.6914220221255041,1767.3040848537375,6.3000002016,0.0,0.6914220221255041,1684,0.0,99,GPS_Atti,
0.359804708579835,36.8940033520568,6000,2017-11-07 06:34:39,1767.7040848665374,6.7000002144,0.0,0.6986940223582081,1767.7040848665374,6.7000002144,0.0,0.6986940223582081,1684,0.0,99,GPS_Atti,
0.359804743246151,36.8940034025976,6100,2017-11-07 06:34:39,1768.2040848825375,7.200000230400001,0.0,0.705508022576256,1768.2040848825375,7.200000230400001,0.0,0.705508022576256,1684,0.0,99,GPS_Atti,
0.359804784312252,36.8940034805607,6200,2017-11-07 06:34:39,1768.6040848953376,7.600000243200001,0.0,0.715263022888416,1768.6040848953376,7.600000243200001,0.0,0.715263022888416,1684,0.0,99,GPS_Atti,
0.359804835603352,36.8940035632836,6300,2017-11-07 06:34:39,1769.1040849113376,8.1000002592,0.0,0.7260840232346881,1769.1040849113376,8.1000002592,0.0,0.7260840232346881,1684,0.0,99,GPS_Atti,
0.359804869543382,36.8940036615967,6400,2017-11-07 06:34:39,1769.6040849273375,8.6000002752,0.0,0.737306023593792,1769.6040849273375,8.6000002752,0.0,0.737306023593792,1684,0.0,99,GPS_Atti,
0.359804891128407,36.8940037566765,6500,2017-11-07 06:34:39,1770.1040849433375,9.1000002912,0.0,0.7474940239198081,1770.1040849433375,9.1000002912,0.0,0.7474940239198081,1684,0.0,99,GPS_Atti,
0.359804908155418,36.8940038586167,6600,2017-11-07 06:34:39,1770.6040849593376,9.6000003072,0.0,0.7580740242583681,1770.6040849593376,9.6000003072,0.0,0.7580740242583681,1684,0.0,99,GPS_Atti,
0.359804939625098,36.8940039494419,6700,2017-11-07 06:34:39,1771.1040849753376,10.100000323200002,0.0,0.76848502459152,1771.1040849753376,10.100000323200002,0.0,0.76848502459152,1684,0.0,99,GPS_Atti,
0.359804963757009,36.8940040322292,6800,2017-11-07 06:34:39,1771.6040849913375,10.600000339200001,0.0,0.777713024886816,1771.6040849913375,10.600000339200001,0.0,0.777713024886816,1684,0.0,99,GPS_Atti,
0.359804983262512,36.8940040835793,6900,2017-11-07 06:34:40,1772.1040850073375,11.1000003552,0.0,0.783707025078624,1772.1040850073375,11.1000003552,0.0,0.783707025078624,1684,0.0,99,GPS_Atti,
0.359804991484525,36.8940041120144,7000,2017-11-07 06:34:40,1772.6040850233376,11.6000003712,0.0,0.786876025180032,1772.6040850233376,11.6000003712,0.0,0.786876025180032,1684,0.0,99,GPS_Atti,
0.359804988208096,36.8940041338932,7100,2017-11-07 06:34:40,1773.1040850393374,12.1000003872,0.0,0.788754025240128,1773.1040850393374,12.1000003872,0.0,0.788754025240128,1684,0.0,99,GPS_Atti,
0.359804946923784,36.8940041657649,7200,2017-11-07 06:34:40,1773.6040850553377,12.6000004032,0.0,0.789381025260192,1773.6040850553377,12.6000004032,0.0,0.789381025260192,1684,0.0,99,GPS_Atti,
0.359804907295599,36.8940041962148,7300,2017-11-07 06:34:40,1774.1040850713375,13.100000419200002,0.0,0.790009025280288,1774.1040850713375,13.100000419200002,0.0,0.790009025280288,1684,0.0,99,GPS_Atti,
0.359804902805979,36.8940041961955,7400,2017-11-07 06:34:40,1774.6040850873376,13.600000435200002,0.0,0.789751025272032,1774.6040850873376,13.600000435200002,0.0,0.790009025280288,1684,0.0,99,GPS_Atti,
0.359804941676937,36.8940041670367,7500,2017-11-07 06:34:40,1775.1040851033374,14.100000451200001,0.0,0.7891990252543681,1775.1040851033374,14.100000451200001,0.0,0.790009025280288,1684,0.0,99,GPS_Atti,
0.359804973999922,36.8940041199326,7600,2017-11-07 06:34:40,1775.6040851193377,14.600000467200001,0.0,0.7866030251712961,1775.6040851193377,14.600000467200001,0.0,0.790009025280288,1684,0.0,99,GPS_Atti,
0.359804988208096,36.8940040775754,7700,2017-11-07 06:34:40,1776.1040851353375,15.1000004832,0.0,0.7834300250697601,1776.1040851353375,15.1000004832,0.0,0.790009025280288,1684,0.0,99,GPS_Atti,
0.359804986047151,36.8940040338736,7800,2017-11-07 06:34:40,1776.6040851513374,15.6000004992,0.0,0.779182024933824,1776.6040851513374,15.6000004992,0.0,0.790009025280288,1684,0.0,99,GPS_Atti,
0.359804979717389,36.8940040002932,7900,2017-11-07 06:34:41,1777.1040851673376,16.1000005152,0.0,0.77564502482064,1777.1040851673376,16.1000005152,0.0,0.790009025280288,1684,0.0,99,GPS_Atti,
0.359804970155166,36.8940039568227,8000,2017-11-07 06:34:41,1777.6040851833375,16.600000531200003,0.0,0.770989024671648,1777.6040851833375,16.600000531200003,0.0,0.790009025280288,1684,0.0,99,GPS_Atti,
0.359804959731496,36.894003902068,8100,2017-11-07 06:34:41,1778.1040851993375,17.1000005472,0.0,0.765227024487264,1778.1040851993375,17.1000005472,0.0,0.790009025280288,1684,0.0,99,GPS_Atti,
0.359804942838018,36.8940038639889,8200,2017-11-07 06:34:41,1778.6040852153376,17.600000563200002,0.0,0.760646024340672,1778.6040852153376,17.600000563200002,0.0,0.790009025280288,1684,0.0,99,GPS_Atti,
0.359804934749537,36.8940038547861,8300,2017-11-07 06:34:41,1779.1040852313376,18.1000005792,0.0,0.7593000242976,1779.1040852313376,18.1000005792,0.0,0.790009025280288,1684,0.0,99,GPS_Atti,
0.359804910451524,36.8940038635992,8400,2017-11-07 06:34:41,1779.6040852473375,18.6000005952,0.0,0.758679024277728,1779.6040852473375,18.6000005952,0.0,0.790009025280288,1684,0.0,99,GPS_Atti,
0.359804879766753,36.8940038819129,8500,2017-11-07 06:34:41,1780.1040852633378,19.1000006112,0.0,0.7585870242747841,1780.1040852633378,19.1000006112,0.0,0.790009025280288,1684,0.0,99,GPS_Atti,
0.359804837954825,36.8940039193068,8600,2017-11-07 06:34:41,1780.6040852793376,19.6000006272,0.0,0.7596740243095681,1780.6040852793376,19.6000006272,0.0,0.790009025280288,1684,0.0,99,GPS_Atti,
0.35980480996513,36.8940039714684,8700,2017-11-07 06:34:41,1781.1040852953374,20.1000006432,0.0,0.7630100244163202,1781.1040852953374,20.1000006432,0.0,0.790009025280288,1684,0.0,99,GPS_Atti,
0.359804778896047,36.8940040325996,8800,2017-11-07 06:34:41,1781.6040853113375,20.6000006592,0.0,0.767072024546304,1781.6040853113375,20.6000006592,0.0,0.790009025280288,1684,0.0,99,GPS_Atti,
0.35980475846396,36.8940040935894,8900,2017-11-07 06:34:42,1782.2040853305375,21.200000678400002,0.0,0.771769024696608,1782.2040853305375,21.200000678400002,0.0,0.790009025280288,1684,0.0,99,GPS_Atti,
0.359804748760062,36.894004155834,9000,2017-11-07 06:34:42,1782.7040853465373,21.7000006944,0.0,0.777219024871008,1782.7040853465373,21.7000006944,0.0,0.790009025280288,1684,0.0,99,GPS_Atti,
0.359804758753823,36.8940042058052,9100,2017-11-07 06:34:42,1783.2040853625376,22.2000007104,0.0,0.782592025042944,1783.2040853625376,22.2000007104,0.0,0.790009025280288,1684,0.0,99,GPS_Atti,
0.359804760784493,36.8940042557379,9200,2017-11-07 06:34:42,1783.7040853785375,22.7000007264,0.0,0.787529025200928,1783.7040853785375,22.7000007264,0.0,0.790009025280288,1684,0.0,99,GPS_Atti,
0.359804768706873,36.8940043086769,9300,2017-11-07 06:34:42,1784.2040853945375,23.2000007424,0.0,0.793086025378752,1784.2040853945375,23.2000007424,0.0,0.793086025378752,1684,0.0,99,GPS_Atti,
0.359804794835257,36.8940043579758,9400,2017-11-07 06:34:42,1784.7040854105376,23.7000007584,0.0,0.7992880255772161,1784.7040854105376,23.7000007584,0.0,0.7992880255772161,1684,0.0,99,GPS_Atti,
0.359804835065966,36.8940043982624,9500,2017-11-07 06:34:42,1785.3040854297376,24.3000007776,0.0,0.8053900257724801,1785.3040854297376,24.3000007776,0.0,0.8053900257724801,1684,0.0,99,GPS_Atti,
0.35980485512351,36.8940044370159,9600,2017-11-07 06:34:42,1785.8040854457374,24.800000793600002,0.0,0.8102390259276481,1785.8040854457374,24.800000793600002,0.0,0.8102390259276481,1684,0.0,99,GPS_Atti,
0.359804843599012,36.8940044825056,9700,2017-11-07 06:34:42,1786.3040854617377,25.3000008096,0.0,0.814017026048544,1786.3040854617377,25.3000008096,0.0,0.814017026048544,1684,0.0,99,GPS_Atti,
0.359804811420959,36.8940045329672,9800,2017-11-07 06:34:42,1786.8040854777375,25.8000008256,0.0,0.817183026149856,1786.8040854777375,25.8000008256,0.0,0.817183026149856,1684,0.0,99,GPS_Atti,
0.359804776376844,36.8940046004555,9900,2017-11-07 06:34:43,1787.3040854937374,26.3000008416,0.0,0.82190502630096,1787.3040854937374,26.3000008416,0.0,0.82190502630096,1684,0.0,99,GPS_Atti,
0.359804730169746,36.8940046624068,10000,2017-11-07 06:34:43,1787.8040855097377,26.8000008576,0.0,0.825562026417984,1787.8040855097377,26.8000008576,0.0,0.825562026417984,1684,0.0,99,GPS_Atti,
0.359804678766282,36.8940047037083,10100,2017-11-07 06:34:43,1788.4040855289375,27.4000008768,0.0,0.826986026463552,1788.4040855289375,27.4000008768,0.0,0.826986026463552,1684,0.0,99,GPS_Atti,
0.359804623809554,36.8940047578891,10200,2017-11-07 06:34:43,1788.9040855449377,27.9000008928,0.0,0.829573026546336,1788.9040855449377,27.9000008928,0.0,0.829573026546336,1684,0.0,99,GPS_Atti,
0.359804583505565,36.894004823384,10300,2017-11-07 06:34:43,1789.4040855609376,28.4000009088,0.0,0.8340900266908801,1789.4040855609376,28.4000009088,0.0,0.8340900266908801,1684,0.0,99,GPS_Atti,
0.359804539594573,36.8940049016747,10400,2017-11-07 06:34:43,1790.0040855801374,29.000000928000002,0.0,0.8397770268728642,1790.0040855801374,29.000000928000002,0.0,0.8397770268728642,1684,0.0,99,GPS_Atti,
0.359804504260595,36.894004978154,10500,2017-11-07 06:34:43,1790.5040855961377,29.500000944,0.0,0.8457670270645441,1790.5040855961377,29.500000944,0.0,0.8457670270645441,1684,0.0,99,GPS_Atti,
0.359804477078608,36.8940050739083,10600,2017-11-07 06:34:43,1791.0040856121375,30.00000096,0.0,0.854144027332608,1791.0040856121375,30.00000096,0.0,0.854144027332608,1684,0.0,99,GPS_Atti,
0.359804474409588,36.894005166515,10700,2017-11-07 06:34:43,1791.5040856281375,30.500000976,0.0,0.863386027628352,1791.5040856281375,30.500000976,0.0,0.863386027628352,1684,0.0,99,GPS_Atti,
0.359804462725503,36.8940052748381,10800,2017-11-07 06:34:43,1792.1040856473376,31.100000995200002,0.0,0.8738380279628161,1792.1040856473376,31.100000995200002,0.0,0.8738380279628161,1684,0.0,99,GPS_Atti,
0.35980444161924,36.8940053878076,10900,2017-11-07 06:34:44,1792.6040856633374,31.6000010112,0.0,0.8843880283004161,1792.6040856633374,31.6000010112,0.0,0.8843880283004161,1684,0.0,99,GPS_Atti,
0.359804416088495,36.8940055191101,11000,2017-11-07 06:34:44,1793.1040856793375,32.1000010272,0.0,0.8966790286937281,1793.1040856793375,32.1000010272,0.0,0.8966790286937281,1684,0.0,99,GPS_Atti,
0.359804396382694,36.8940056366639,11100,2017-11-07 06:34:44,1793.6040856953375,32.6000010432,0.0,0.907882029052224,1793.6040856953375,32.6000010432,0.0,0.907882029052224,1684,0.0,99,GPS_Atti,
0.35980436102429,36.894005754329,11200,2017-11-07 06:34:44,1794.1040857113376,33.100001059200004,0.0,0.918498029391936,1794.1040857113376,33.100001059200004,0.0,0.918498029391936,1684,0.0,99,GPS_Atti,
0.359804318451878,36.8940058634315,11300,2017-11-07 06:34:44,1794.7040857305376,33.7000010784,0.0,0.928014029696448,1794.7040857305376,33.7000010784,0.0,0.928014029696448,1684,0.0,99,GPS_Atti,
0.359804262684185,36.8940060060459,11400,2017-11-07 06:34:44,1795.2040857465374,34.2000010944,0.0,0.9405750300984,1795.2040857465374,34.2000010944,0.0,0.9405750300984,1684,0.0,99,GPS_Atti,
0.359804214102815,36.8940061497801,11500,2017-11-07 06:34:44,1795.7040857625375,34.7000011104,0.0,0.953666030517312,1795.7040857625375,34.7000011104,0.0,0.953666030517312,1684,0.0,99,GPS_Atti,
0.359804176008625,36.8940063040854,11600,2017-11-07 06:34:44,1796.2040857785375,35.200001126400004,0.0,0.968371030987872,1796.2040857785375,35.200001126400004,0.0,0.968371030987872,1684,0.0,99,GPS_Atti,
0.359804169354803,36.8940064359039,11700,2017-11-07 06:34:44,1796.8040857977376,35.8000011456,0.0,0.98195503142256,1796.8040857977376,35.8000011456,0.0,0.98195503142256,1684,0.0,99,GPS_Atti,
0.359804170623361,36.8940065816166,11800,2017-11-07 06:34:44,1797.3040858137374,36.3000011616,0.0,0.997317031914144,1797.3040858137374,36.3000011616,0.0,0.997317031914144,1684,0.0,99,GPS_Atti,
0.359804181835198,36.8940067097501,11900,2017-11-07 06:34:45,1797.8040858297377,36.8000011776,0.0,1.01121003235872,1797.8040858297377,36.8000011776,0.0,1.01121003235872,1684,0.0,99,GPS_Atti,
0.359804184740342,36.8940068340936,12000,2017-11-07 06:34:45,1798.3040858457375,37.3000011936,0.0,1.0244200327814401,1798.3040858457375,37.3000011936,0.0,1.0244200327814401,1684,0.0,99,GPS_Atti,
0.359804164813073,36.8940069224715,12100,2017-11-07 06:34:45,1798.8040858617373,37.800001209600005,0.0,1.0330500330576,1798.8040858617373,37.800001209600005,0.0,1.0330500330576,1684,0.0,99,GPS_Atti,
0.359804136803836,36.8940070311672,12200,2017-11-07 06:34:45,1799.3040858777376,38.3000012256,0.0,1.0435800333945602,1799.3040858777376,38.3000012256,0.0,1.0435800333945602,1684,0.0,99,GPS_Atti,
0.359804119161274,36.8940071448861,12300,2017-11-07 06:34:45,1799.8040858937375,38.8000012416,0.0,1.0550300337609602,1799.8040858937375,38.8000012416,0.0,1.0550300337609602,1684,0.0,99,GPS_Atti,
0.359804096910215,36.8940072724735,12400,2017-11-07 06:34:45,1800.4040859129377,39.4000012608,0.0,1.06784003417088,1800.4040859129377,39.4000012608,0.0,1.06784003417088,1684,0.0,99,GPS_Atti,
0.359804073914957,36.8940073708551,12500,2017-11-07 06:34:45,1800.9040859289375,39.900001276800005,0.0,1.0775500344816,1800.9040859289375,39.900001276800005,0.0,1.0775500344816,1684,0.0,99,GPS_Atti,
0.359804051673669,36.8940074795508,12600,2017-11-07 06:34:45,1801.4040859449374,40.400001292800006,0.0,1.0884200348294402,1801.4040859449374,40.400001292800006,0.0,1.0884200348294402,1684,0.0,99,GPS_Atti,
0.359804042300345,36.8940075836857,12700,2017-11-07 06:34:45,1801.9040859609374,40.9000013088,0.0,1.09923003517536,1801.9040859609374,40.9000013088,0.0,1.09923003517536,1684,0.0,99,GPS_Atti,
0.359804046381226,36.8940077072777,12800,2017-11-07 06:34:45,1802.4040859769375,41.4000013248,0.0,1.11256003560192,1802.4040859769375,41.4000013248,0.0,1.11256003560192,1684,0.0,99,GPS_Atti,
0.359804058913731,36.8940078084064,12900,2017-11-07 06:34:46,1802.9040859929376,41.9000013408,0.0,1.1237500359600001,1802.9040859929376,41.9000013408,0.0,1.1237500359600001,1684,0.0,99,GPS_Atti,
0.359804064066128,36.8940079336942,13000,2017-11-07 06:34:46,1803.4040860089374,42.400001356800004,0.0,1.1373000363936001,1803.4040860089374,42.400001356800004,0.0,1.1373000363936001,1684,0.0,99,GPS_Atti,
0.359804057158268,36.8940080508091,13100,2017-11-07 06:34:46,1803.9040860249377,42.900001372800006,0.0,1.1496200367878402,1803.9040860249377,42.900001372800006,0.0,1.1496200367878402,1684,0.0,99,GPS_Atti,
0.359804055015236,36.8940081818653,13200,2017-11-07 06:34:46,1804.4040860409375,43.4000013888,0.0,1.1636000372352,1804.4040860409375,43.4000013888,0.0,1.1636000372352,1684,0.0,99,GPS_Atti,
0.359804066463197,36.8940082939012,13300,2017-11-07 06:34:46,1804.9040860569373,43.9000014048,0.0,1.1759500376304002,1804.9040860569373,43.9000014048,0.0,1.1759500376304002,1684,0.0,99,GPS_Atti,
0.35980407075089,36.8940084227991,13400,2017-11-07 06:34:46,1805.3040860697374,44.30000141760001,0.0,1.1899000380768001,1805.3040860697374,44.30000141760001,0.0,1.1899000380768001,1684,0.0,99,GPS_Atti,
0.359804068718592,36.8940085399632,13500,2017-11-07 06:34:46,1805.9040860889374,44.900001436800004,0.0,1.20242003847744,1805.9040860889374,44.900001436800004,0.0,1.20242003847744,1684,0.0,99,GPS_Atti,
0.359804052489519,36.8940086886757,13600,2017-11-07 06:34:46,1806.4040861049375,45.4000014528,0.0,1.21794003897408,1806.4040861049375,45.4000014528,0.0,1.21794003897408,1684,0.0,99,GPS_Atti,
0.359804034801361,36.8940088279284,13700,2017-11-07 06:34:46,1806.9040861209376,45.9000014688,0.0,1.2324300394377599,1806.9040861209376,45.9000014688,0.0,1.2324300394377599,1684,0.0,99,GPS_Atti,
0.359804016263154,36.8940089616161,13800,2017-11-07 06:34:46,1807.4040861369376,46.4000014848,0.0,1.24632003988224,1807.4040861369376,46.4000014848,0.0,1.24632003988224,1684,0.0,99,GPS_Atti,
0.359803994787235,36.8940091104592,13900,2017-11-07 06:34:47,1807.9040861529375,46.9000015008,0.0,1.2617900403772802,1807.9040861529375,46.9000015008,0.0,1.2617900403772802,1684,-0.5,99,GPS_Atti,
0.359803982067459,36.8940092471596,14000,2017-11-07 06:34:47,1808.5040861721377,47.500001520000005,0.0,1.27622004083904,1808.5040861721377,47.500001520000005,0.0,1.27622004083904,1684,-1.9,99,GPS_Atti,
0.359803974498451,36.8940093530932,14100,2017-11-07 06:34:47,1809.0040861881375,48.000001536000006,0.0,1.2874700411990398,1809.0040861881375,48.000001536000006,0.0,1.2874700411990398,1684,-3.4,99,GPS_Atti,
0.359803936353779,36.8940094758951,14200,2017-11-07 06:34:47,1809.5040862041374,48.50000155200001,0.0,1.29977004159264,1809.5040862041374,48.50000155200001,0.0,1.29977004159264,1684,-5.5,99,GPS_Atti,
0.359803875036349,36.8940096011807,14300,2017-11-07 06:34:47,1810.0040862201377,49.000001568,0.0,1.31181004197792,1810.0040862201377,49.000001568,0.0,1.31181004197792,1684,-7.8,99,GPS_Atti,
0.359803809774827,36.8940097433155,14400,2017-11-07 06:34:47,1810.5040862361375,49.500001584,0.0,1.32566004242112,1810.5040862361375,49.500001584,0.0,1.32566004242112,1684,-10.0,99,GPS_Atti,
0.359803762590662,36.8940098589957,14500,2017-11-07 06:34:47,1811.0040862521375,50.000001600000004,0.0,1.33713004278816,1811.0040862521375,50.000001600000004,0.0,1.33713004278816,1684,-10.6,99,GPS_Atti,
0.359803720386279,36.8940099661348,14600,2017-11-07 06:34:47,1811.5040862681376,50.500001616000006,0.0,1.3478300431305599,1811.5040862681376,50.500001616000006,0.0,1.3478300431305599,1684,-10.6,99,GPS_Atti,
0.359803700252198,36.8940100390896,14700,2017-11-07 06:34:47,1812.1040862873374,51.1000016352,0.0,1.35533004337056,1812.1040862873374,51.1000016352,0.0,1.35533004337056,1684,-10.6,99,GPS_Atti,
0.359803680878599,36.8940101084943,14800,2017-11-07 06:34:47,1812.6040863033375,51.6000016512,0.0,1.36247004359904,1812.6040863033375,51.6000016512,0.0,1.36247004359904,1684,-10.6,99,GPS_Atti,
0.359803664473654,36.894010173424,14900,2017-11-07 06:34:48,1813.1040863193375,52.1000016672,0.0,1.3691900438140803,1813.1040863193375,52.1000016672,0.0,1.3691900438140803,1684,-10.6,99,GPS_Atti,
0.359803663522643,36.894010232855,15000,2017-11-07 06:34:48,1813.6040863353376,52.6000016832,0.0,1.3756500440208002,1813.6040863353376,52.6000016832,0.0,1.3756500440208002,1684,-10.6,99,GPS_Atti,
0.359803682344199,36.8940102694845,15100,2017-11-07 06:34:48,1814.1040863513374,53.1000016992,0.0,1.3800500441616002,1814.1040863513374,53.1000016992,0.0,1.3800500441616002,1684,-12.7,99,GPS_Atti,
0.359803720161554,36.8940103022748,15200,2017-11-07 06:34:48,1814.6040863673377,53.6000017152,0.0,1.3844500443024002,1814.6040863673377,53.6000017152,0.0,1.3844500443024002,1684,-18.4,99,GPS_Atti,
0.359803779519966,36.8940103235154,15300,2017-11-07 06:34:48,1815.1040863833375,54.1000017312,0.0,1.3880800444185601,1815.1040863833375,54.1000017312,0.0,1.3880800444185601,1684,-24.0,99,GPS_Atti,
0.359803829141911,36.8940103640268,15400,2017-11-07 06:34:48,1815.5040863961376,54.500001744,0.0,1.39362004459584,1815.5040863961376,54.500001744,0.0,1.39362004459584,1684,-29.7,99,GPS_Atti,
0.359803864303274,36.8940104249781,15500,2017-11-07 06:34:48,1816.1040864153376,55.1000017632,0.0,1.4010500448336,1816.1040864153376,55.1000017632,0.0,1.4010500448336,1684,-33.6,99,GPS_Atti,
0.359803902480515,36.8940104783796,15600,2017-11-07 06:34:48,1816.5040864281377,55.500001776000005,0.0,1.4077400450476802,1816.5040864281377,55.500001776000005,0.0,1.4077400450476802,1684,-33.6,99,GPS_Atti,
0.359803947691006,36.8940105487436,15700,2017-11-07 06:34:48,1817.1040864473375,56.10000179520001,0.0,1.4164500453264002,1817.1040864473375,56.10000179520001,0.0,1.4164500453264002,1684,-33.6,99,GPS_Atti,
0.359804000065022,36.8940105972245,15800,2017-11-07 06:34:48,1817.5040864601374,56.500001808,0.0,1.4229500455344002,1817.5040864601374,56.500001808,0.0,1.4229500455344002,1684,-33.6,99,GPS_Atti,
0.359804052610024,36.8940106094593,15900,2017-11-07 06:34:49,1818.0040864761377,57.000001824,0.0,1.4255400456172802,1818.0040864761377,57.000001824,0.0,1.4255400456172802,1684,-33.6,99,GPS_Atti,
0.359804098354645,36.89401062882,16000,2017-11-07 06:34:49,1818.6040864953375,57.600001843200005,0.0,1.42875004572,1818.6040864953375,57.600001843200005,0.0,1.42875004572,1684,-33.6,99,GPS_Atti,
0.359804142964239,36.8940106430418,16100,2017-11-07 06:34:49,1819.1040865113375,58.100001859200006,0.0,1.4314000458048002,1819.1040865113375,58.100001859200006,0.0,1.4314000458048002,1684,-33.6,99,GPS_Atti,
0.359804222541412,36.8940106523432,16200,2017-11-07 06:34:49,1819.6040865273376,58.60000187520001,0.0,1.43441004590112,1819.6040865273376,58.60000187520001,0.0,1.43441004590112,1684,-33.6,99,GPS_Atti,
0.359804339178714,36.8940106357703,16300,2017-11-07 06:34:49,1820.1040865433374,59.10000189120001,0.35999970196000003,1.4356500459408,1820.1040865433374,59.10000189120001,0.35999970196000003,1.4356500459408,1684,-33.6,99,GPS_Atti,
0.359804461289215,36.8940106263534,16400,2017-11-07 06:34:49,1820.6040865593375,59.6000019072,0.35999970196000003,1.43793004601376,1820.6040865593375,59.6000019072,0.35999970196000003,1.43793004601376,1684,-33.6,99,GPS_Atti,
0.359804566857983,36.8940106081489,16500,2017-11-07 06:34:49,1821.1040865753375,60.100001923200004,0.35999970196000003,1.43892004604544,1821.1040865753375,60.100001923200004,0.35999970196000003,1.43892004604544,1684,-33.6,99,GPS_Atti,
0.359804672695443,36.8940105758554,16600,2017-11-07 06:34:49,1821.6040865913376,60.600001939200006,0.35999970196000003,1.438500046032,1821.6040865913376,60.600001939200006,0.35999970196000003,1.43892004604544,1684,-33.6,99,GPS_Atti,
0.359804784654225,36.8940104881349,16700,2017-11-07 06:34:49,1822.1040866073374,61.10000195520001,0.35999970196000003,1.4324500458384002,1822.1040866073374,61.10000195520001,0.35999970196000003,1.43892004604544,1684,-33.6,99,GPS_Atti,
0.359804904045225,36.8940104060328,16800,2017-11-07 06:34:49,1822.6040866233377,61.6000019712,0.35999970196000003,1.42738004567616,1822.6040866233377,61.6000019712,0.35999970196000003,1.43892004604544,1684,-33.6,99,GPS_Atti,
0.359805017625937,36.8940103303201,16900,2017-11-07 06:34:50,1823.1040866393375,62.1000019872,0.35999970196000003,1.42296004553472,1823.1040866393375,62.1000019872,0.35999970196000003,1.43892004604544,1684,-33.6,99,GPS_Atti,
0.359805122033624,36.894010283869,17000,2017-11-07 06:34:50,1823.6040866553376,62.600002003200004,0.35999970196000003,1.42148004548736,1823.6040866553376,62.600002003200004,0.35999970196000003,1.43892004604544,1684,-33.6,99,GPS_Atti,
0.359805197161887,36.8940102379318,17100,2017-11-07 06:34:50,1824.1040866713374,63.100002019200005,0.35999970196000003,1.41916004541312,1824.1040866713374,63.100002019200005,0.35999970196000003,1.43892004604544,1684,-33.6,99,GPS_Atti,
0.359805226835394,36.8940102082612,17200,2017-11-07 06:34:50,1824.6040866873375,63.600002035200006,0.35999970196000003,1.4170500453456,1824.6040866873375,63.600002035200006,0.35999970196000003,1.43892004604544,1684,-33.6,99,GPS_Atti,
0.359805233065821,36.89401017215,17300,2017-11-07 06:34:50,1825.1040867033375,64.1000020512,0.35999970196000003,1.4134500452304,1825.1040867033375,64.1000020512,0.35999970196000003,1.43892004604544,1684,-33.6,99,GPS_Atti,
0.359805242005978,36.8940101412568,17400,2017-11-07 06:34:50,1825.6040867193374,64.6000020672,0.35999970196000003,1.4105000451360001,1825.6040867193374,64.6000020672,0.35999970196000003,1.43892004604544,1684,-33.6,99,GPS_Atti,
0.359805282524922,36.894010082406,17500,2017-11-07 06:34:50,1826.1040867353377,65.10000208320001,0.35999970196000003,1.4057100449827202,1826.1040867353377,65.10000208320001,0.35999970196000003,1.43892004604544,1684,-33.6,99,GPS_Atti,
0.359805356767312,36.8940100304585,17600,2017-11-07 06:34:50,1826.6040867513375,65.60000209920001,0.35999970196000003,1.4028900448924801,1826.6040867513375,65.60000209920001,0.35999970196000003,1.43892004604544,1684,-33.6,99,GPS_Atti,
0.359805444626751,36.8940099887651,17700,2017-11-07 06:34:50,1827.1040867673375,66.10000211520001,0.0,1.40172004485504,1827.1040867673375,66.10000211520001,0.35999970196000003,1.43892004604544,1684,-33.6,99,GPS_Atti,
0.359805524285346,36.8940099824014,17800,2017-11-07 06:34:50,1827.7040867865376,66.70000213440001,0.0,1.40401004492832,1827.7040867865376,66.70000213440001,0.35999970196000003,1.43892004604544,1684,-33.6,99,GPS_Atti,
0.359805586128764,36.8940099931631,17900,2017-11-07 06:34:51,1828.2040868025374,67.20000215040001,0.0,1.40747004503904,1828.2040868025374,67.20000215040001,0.35999970196000003,1.43892004604544,1684,-33.6,99,GPS_Atti,
0.359805638284568,36.8940100157313,18000,2017-11-07 06:34:51,1828.7040868185375,67.7000021664,0.0,1.4118200451782401,1828.7040868185375,67.7000021664,0.35999970196000003,1.43892004604544,1684,-33.6,99,GPS_Atti,
0.359805684022675,36.894010017911,18100,2017-11-07 06:34:51,1829.2040868345375,68.2000021824,0.0,1.4138100452419202,1829.2040868345375,68.2000021824,0.35999970196000003,1.43892004604544,1684,-33.6,99,GPS_Atti,
0.359805725813433,36.8940100096503,18200,2017-11-07 06:34:51,1829.7040868505376,68.7000021984,0.0,1.41457004526624,1829.7040868505376,68.7000021984,0.35999970196000003,1.43892004604544,1684,-33.6,99,GPS_Atti,
0.359805763518425,36.8940099656873,18300,2017-11-07 06:34:51,1830.2040868665374,69.2000022144,0.0,1.41147004516704,1830.2040868665374,69.2000022144,0.35999970196000003,1.43892004604544,1684,-33.6,99,GPS_Atti,
0.359805796276205,36.8940099327364,18400,2017-11-07 06:34:51,1830.7040868825377,69.7000022304,0.0,1.4093500450992,1830.7040868825377,69.7000022304,0.35999970196000003,1.43892004604544,1684,-33.6,99,GPS_Atti,
0.359805826065331,36.8940099163391,18500,2017-11-07 06:34:51,1831.2040868985375,70.2000022464,0.0,1.40883004508256,1831.2040868985375,70.2000022464,0.35999970196000003,1.43892004604544,1684,-33.6,99,GPS_Atti,
0.359805850658092,36.8940099252037,18600,2017-11-07 06:34:51,1831.7040869145374,70.7000022624,0.0,1.41074004514368,1831.7040869145374,70.7000022624,0.35999970196000003,1.43892004604544,1684,-33.6,99,GPS_Atti,
0.359805881380316,36.8940099416052,18700,2017-11-07 06:34:51,1832.2040869305376,71.2000022784,0.0,1.41368004523776,1832.2040869305376,71.2000022784,0.35999970196000003,1.43892004604544,1684,-33.6,99,GPS_Atti,
0.359805902110408,36.8940099711859,18800,2017-11-07 06:34:51,1832.7040869465375,71.70000229440001,0.0,1.4175800453625602,1832.7040869465375,71.70000229440001,0.35999970196000003,1.43892004604544,1684,-33.6,99,GPS_Atti,
0.359805909681045,36.8940099814015,18900,2017-11-07 06:34:52,1833.2040869625375,72.2000023104,0.0,1.41894004540608,1833.2040869625375,72.2000023104,0.35999970196000003,1.43892004604544,1684,-33.6,99,GPS_Atti,
0.359805902421441,36.8940099984776,19000,2017-11-07 06:34:52,1833.7040869785376,72.7000023264,0.0,1.4204200454534401,1833.7040869785376,72.7000023264,0.35999970196000003,1.43892004604544,1684,-33.6,99,GPS_Atti,
0.359805892144331,36.8940100109415,19100,2017-11-07 06:34:52,1834.2040869945376,73.2000023424,0.0,1.4213000454816003,1834.2040869945376,73.2000023424,0.35999970196000003,1.43892004604544,1684,-33.6,99,GPS_Atti,
0.359805872791903,36.8940100408326,19200,2017-11-07 06:34:52,1834.7040870105375,73.7000023584,0.0,1.42362004555584,1834.7040870105375,73.7000023584,0.35999970196000003,1.43892004604544,1684,-33.6,99,GPS_Atti,
0.359805863011468,36.8940100772736,19300,2017-11-07 06:34:52,1835.2040870265373,74.20000237440001,0.0,1.42701004566432,1835.2040870265373,74.20000237440001,0.35999970196000003,1.43892004604544,1684,-33.6,99,GPS_Atti,
0.359805863977135,36.8940101208491,19400,2017-11-07 06:34:52,1835.7040870425376,74.7000023904,0.0,1.43157004581024,1835.7040870425376,74.7000023904,0.35999970196000003,1.43892004604544,1680,-33.6,99,GPS_Atti,
0.359805894114748,36.8940101441538,19500,2017-11-07 06:34:52,1836.2040870585374,75.2000024064,0.0,1.43519004592608,1836.2040870585374,75.2000024064,0.35999970196000003,1.43892004604544,1643,-33.6,99,GPS_Atti,
0.359805928474917,36.8940101741499,19600,2017-11-07 06:34:52,1836.7040870745375,75.7000024224,0.0,1.4396800460697603,1836.7040870745375,75.7000024224,0.35999970196000003,1.4396800460697603,1643,-33.6,99,GPS_Atti,
0.359805949657716,36.894010191061,19700,2017-11-07 06:34:52,1837.2040870905375,76.2000024384,0.0,1.4422800461529601,1837.2040870905375,76.2000024384,0.35999970196000003,1.4422800461529601,987,-33.6,99,GPS_Atti,
0.359805965743486,36.8940102004073,19800,2017-11-07 06:34:52,1837.7040871065376,76.7000024544,0.0,1.4439000462048,1837.7040871065376,76.7000024544,0.35999970196000003,1.4439000462048,987,-33.6,99,GPS_Atti,
0.359805964947177,36.8940102389253,19900,2017-11-07 06:34:53,1838.1040871193375,77.1000024672,0.0,1.44786004633152,1838.1040871193375,77.1000024672,0.35999970196000003,1.44786004633152,1024,-33.6,99,GPS_Atti,
0.359805968915695,36.89401025595,20000,2017-11-07 06:34:53,1838.5040871321376,77.50000248,0.0,1.44979004639328,1838.5040871321376,77.50000248,0.35999970196000003,1.44979004639328,1024,-33.6,99,GPS_Atti,
0.359805958889365,36.8940102516911,20100,2017-11-07 06:34:53,1838.9040871449374,77.9000024928,0.0,1.4489400463660802,1838.9040871449374,77.9000024928,0.35999970196000003,1.44979004639328,1024,-33.6,99,GPS_Atti,
0.359805955370298,36.8940102336173,20200,2017-11-07 06:34:53,1839.1040871513376,78.1000024992,0.0,1.44693004630176,1839.1040871513376,78.1000024992,0.35999970196000003,1.44979004639328,1024,-33.6,99,GPS_Atti,
0.359805946174475,36.8940102500424,20300,2017-11-07 06:34:53,1839.3040871577375,78.3000025056,0.0,1.44826004634432,1839.3040871577375,78.3000025056,0.35999970196000003,1.44979004639328,1024,-33.6,99,GPS_Atti,
0.359805941950291,36.8940102450941,20400,2017-11-07 06:34:53,1839.4040871609375,78.4000025088,0.0,1.4475800463225599,1839.4040871609375,78.4000025088,0.35999970196000003,1.44979004639328,1024,-33.6,99,GPS_Atti,
0.359805931272584,36.8940102862971,20500,2017-11-07 06:34:53,1839.4040871609375,78.4000025088,0.0,1.4514300464457601,1839.4040871609375,78.4000025088,0.35999970196000003,1.4514300464457601,1024,-33.6,99,GPS_Atti,
0.359805922474101,36.8940102948234,20600,2017-11-07 06:34:53,1839.5040871641377,78.500002512,0.0,1.45197004646304,1839.5040871641377,78.500002512,0.35999970196000003,1.45197004646304,1024,-33.6,99,GPS_Atti,
0.359805906828011,36.8940103081481,20700,2017-11-07 06:34:53,1839.5040871641377,78.500002512,0.0,1.45273004648736,1839.5040871641377,78.500002512,0.35999970196000003,1.45273004648736,1024,-33.6,99,GPS_Atti,
0.359805880839673,36.8940103144367,20800,2017-11-07 06:34:53,1839.5040871641377,78.500002512,0.0,1.4523600464755202,1839.5040871641377,78.500002512,0.35999970196000003,1.45273004648736,1024,-33.6,99,GPS_Atti,
0.359805852623624,36.8940103047478,20900,2017-11-07 06:34:54,1839.5040871641377,78.500002512,0.0,1.450250046408,1839.5040871641377,78.500002512,0.35999970196000003,1.45273004648736,1024,-33.6,99,GPS_Atti,
0.35980583616494,36.8940103246888,21000,2017-11-07 06:34:54,1839.5040871641377,78.500002512,0.0,1.45168004645376,1839.5040871641377,78.500002512,0.35999970196000003,1.45273004648736,1024,-33.6,99,GPS_Atti,
0.359805855385465,36.8940103562586,21100,2017-11-07 06:34:54,1839.5040871641377,78.500002512,0.0,1.45572004658304,1839.5040871641377,78.500002512,0.35999970196000003,1.45572004658304,1009,-33.6,99,GPS_Atti,
0.359805895178122,36.8940104099684,21200,2017-11-07 06:34:54,1839.5040871641377,78.500002512,0.0,1.46287004681184,1839.5040871641377,78.500002512,0.35999970196000003,1.46287004681184,935,-33.6,99,GPS_Atti,
0.359805960144896,36.8940104424674,21300,2017-11-07 06:34:54,1839.5040871641377,78.500002512,0.0,1.4688000470016,1839.5040871641377,78.500002512,0.35999970196000003,1.4688000470016,844,-33.6,98,GPS_Atti,
0.359806026758026,36.8940105052987,21400,2017-11-07 06:34:54,1839.5040871641377,78.500002512,0.0,1.4779700472950401,1839.5040871641377,78.500002512,0.35999970196000003,1.4779700472950401,768,-33.6,98,GPS_Atti,
0.359806105776642,36.894010555604,21500,2017-11-07 06:34:54,1839.5040871641377,78.500002512,0.0,1.4863600475635201,1839.5040871641377,78.500002512,0.35999970196000003,1.4863600475635201,740,-33.6,98,GPS_Atti,
0.35980620566214,36.8940105962139,21600,2017-11-07 06:34:54,1839.5040871641377,78.500002512,0.0,1.49461004782752,1839.5040871641377,78.500002512,0.35999970196000003,1.49461004782752,713,-33.6,98,GPS_Atti,
0.359806326087202,36.8940106792323,21700,2017-11-07 06:34:54,1839.4040871609375,78.4000025088,0.0,1.5081500482608001,1839.5040871641377,78.500002512,0.35999970196000003,1.5081500482608001,697,-33.6,98,GPS_Atti,
0.359806454796159,36.8940107729011,21800,2017-11-07 06:34:54,1839.3040871577375,78.3000025056,0.0,1.52319004874208,1839.5040871641377,78.500002512,0.35999970196000003,1.52319004874208,690,-33.6,98,GPS_Atti,
0.359806592116327,36.8940108597523,21900,2017-11-07 06:34:55,1839.2040871545375,78.20000250240001,0.0,1.5379500492144003,1839.5040871641377,78.500002512,0.35999970196000003,1.5379500492144003,680,-33.6,98,GPS_Atti,
0.359806726003736,36.8940109733256,22000,2017-11-07 06:34:55,1839.1040871513376,78.1000024992,0.0,1.55536004977152,1839.5040871641377,78.500002512,0.35999970196000003,1.55536004977152,663,-33.6,98,GPS_Atti,
0.359806860825871,36.8940110639625,22100,2017-11-07 06:34:55,1839.0040871481374,78.00000249600001,0.0,1.57053005025696,1839.5040871641377,78.500002512,0.35999970196000003,1.57053005025696,646,-33.6,98,GPS_Atti,
0.359807012974651,36.8940111786407,22200,2017-11-07 06:34:55,1838.9040871449374,77.9000024928,0.0,1.5889700508470401,1839.5040871641377,78.500002512,0.35999970196000003,1.5889700508470401,665,-33.6,98,GPS_Atti,
0.359807202221013,36.8940112684467,22300,2017-11-07 06:34:55,1838.8040871417377,77.8000024896,0.0,1.6066600514131202,1839.5040871641377,78.500002512,0.35999970196000003,1.6066600514131202,679,-33.6,98,GPS_Atti,
0.359807378858333,36.8940113791594,22400,2017-11-07 06:34:55,1838.6040871353375,77.6000024832,0.0,1.6260000520320002,1839.5040871641377,78.500002512,0.35999970196000003,1.6260000520320002,685,-33.6,98,GPS_Atti,
0.359807524457511,36.8940114609788,22500,2017-11-07 06:34:55,1838.5040871321376,77.50000248,0.0,1.6410800525145601,1839.5040871641377,78.500002512,0.35999970196000003,1.6410800525145601,684,-33.6,98,GPS_Atti,
0.359807659105403,36.8940115517013,22600,2017-11-07 06:34:55,1838.4040871289376,77.4000024768,0.0,1.6565900530108801,1839.5040871641377,78.500002512,0.35999970196000003,1.6565900530108801,686,-33.6,98,GPS_Atti,
0.359807800159593,36.894011598131,22700,2017-11-07 06:34:55,1838.3040871257376,77.3000024736,0.0,1.66803005337696,1839.5040871641377,78.500002512,0.35999970196000003,1.66803005337696,690,-33.6,98,GPS_Atti,
0.359807946577879,36.8940116666064,22800,2017-11-07 06:34:55,1838.1040871193375,77.1000024672,0.0,1.6820200538246401,1839.5040871641377,78.500002512,0.35999970196000003,1.6820200538246401,705,-33.6,98,GPS_Atti,
0.359808117098763,36.8940117293992,22900,2017-11-07 06:34:56,1838.0040871161375,77.000002464,0.0,1.6967200542950402,1839.5040871641377,78.500002512,0.35999970196000003,1.6967200542950402,704,-33.6,98,GPS_Atti,
0.359808299429124,36.8940118333542,23000,2017-11-07 06:34:56,1837.9040871129378,76.9000024608,0.0,1.7162000549184002,1839.5040871641377,78.500002512,0.35999970196000003,1.7162000549184002,706,-33.6,98,GPS_Atti,
0.359808488758537,36.8940119392449,23100,2017-11-07 06:34:56,1837.8040871097376,76.8000024576,0.0,1.73633005556256,1839.5040871641377,78.500002512,0.35999970196000003,1.73633005556256,703,-33.6,98,GPS_Atti,
0.359808668869328,36.8940120797545,23200,2017-11-07 06:34:56,1837.6040871033376,76.6000024512,0.0,1.7594800563033601,1839.5040871641377,78.500002512,0.35999970196000003,1.7594800563033601,702,-33.6,98,GPS_Atti,
0.359808819234961,36.8940121758514,23300,2017-11-07 06:34:56,1837.5040871001374,76.500002448,0.0,1.77678005685696,1839.5040871641377,78.500002512,0.35999970196000003,1.77678005685696,694,-33.6,98,GPS_Atti,
0.359808953856798,36.8940122935572,23400,2017-11-07 06:34:56,1837.4040870969375,76.4000024448,0.0,1.7954000574528002,1839.5040871641377,78.500002512,0.35999970196000003,1.7954000574528002,708,-33.6,98,GPS_Atti,
0.359809073627226,36.8940123713983,23500,2017-11-07 06:34:56,1837.3040870937375,76.3000024416,0.0,1.80938005790016,1839.5040871641377,78.500002512,0.35999970196000003,1.80938005790016,702,-33.6,98,GPS_Atti,
0.359809171508109,36.8940124772119,23600,2017-11-07 06:34:56,1837.2040870905375,76.2000024384,0.0,1.82493005839776,1839.5040871641377,78.500002512,0.35999970196000003,1.82493005839776,686,-33.6,98,GPS_Atti,
0.359809250083789,36.8940125470106,23700,2017-11-07 06:34:56,1837.1040870873373,76.1000024352,0.0,1.83594005875008,1839.5040871641377,78.500002512,0.35999970196000003,1.83594005875008,683,-33.6,98,GPS_Atti,
0.359809319903325,36.8940125921685,23800,2017-11-07 06:34:56,1836.9040870809376,75.90000242880001,0.0,1.8441000590112,1839.5040871641377,78.500002512,0.35999970196000003,1.8441000590112,683,-33.6,98,GPS_Atti,
0.359809408135678,36.894012654837,23900,2017-11-07 06:34:57,1836.8040870777377,75.8000024256,0.35999970196000003,1.85496005935872,1839.5040871641377,78.500002512,0.35999970196000003,1.85496005935872,686,-33.6,98,GPS_Atti,
0.359809464702937,36.8940127204176,24000,2017-11-07 06:34:57,1836.7040870745375,75.7000024224,0.35999970196000003,1.8644000596608001,1839.5040871641377,78.500002512,0.35999970196000003,1.8644000596608001,673,-33.6,98,GPS_Atti,
0.359809486607137,36.8940127703545,24100,2017-11-07 06:34:57,1836.6040870713375,75.60000241920001,0.35999970196000003,1.8704400598540802,1839.5040871641377,78.500002512,0.35999970196000003,1.8704400598540802,652,-33.6,98,GPS_Atti,
0.359809504739861,36.8940128456904,24200,2017-11-07 06:34:57,1836.5040870681376,75.500002416,0.35999970196000003,1.87873006011936,1839.5040871641377,78.500002512,0.35999970196000003,1.87873006011936,657,-33.6,98,GPS_Atti,
0.359809553642034,36.8940128823734,24300,2017-11-07 06:34:57,1836.3040870617374,75.3000024096,0.35999970196000003,1.8849500603184002,1839.5040871641377,78.500002512,0.35999970196000003,1.8849500603184002,707,-33.6,98,GPS_Atti,
0.359809595032195,36.8940129277367,24400,2017-11-07 06:34:57,1836.2040870585374,75.2000024064,0.35999970196000003,1.8916000605312002,1839.5040871641377,78.500002512,0.35999970196000003,1.8916000605312002,880,-33.6,98,GPS_Atti,
0.359809624860404,36.8940129197372,24500,2017-11-07 06:34:57,1836.1040870553377,75.10000240320001,0.35999970196000003,1.8924500605584003,1839.5040871641377,78.500002512,0.35999970196000003,1.8924500605584003,1024,-33.6,98,GPS_Atti,
0.359809627890938,36.8940129301991,24600,2017-11-07 06:34:57,1836.0040870521377,75.0000024,0.35999970196000003,1.89363006059616,1839.5040871641377,78.500002512,0.35999970196000003,1.89363006059616,1024,-33.6,98,GPS_Atti,
0.359809604654671,36.8940129274413,24700,2017-11-07 06:34:57,1835.9040870489375,74.9000023968,0.35999970196000003,1.89209006054688,1839.5040871641377,78.500002512,0.35999970196000003,1.89363006059616,1024,-33.6,98,GPS_Atti,
0.359809554757518,36.8940129417316,24800,2017-11-07 06:34:57,1835.9040870489375,74.9000023968,0.35999970196000003,1.8907700605046402,1839.5040871641377,78.500002512,0.35999970196000003,1.89363006059616,1024,-33.6,98,GPS_Atti,
0.359809504156878,36.8940129264734,24900,2017-11-07 06:34:58,1835.8040870457376,74.80000239360001,0.35999970196000003,1.8865500603696002,1839.5040871641377,78.500002512,0.35999970196000003,1.89363006059616,1024,-33.6,98,GPS_Atti,
0.359809430481186,36.894012935505,25000,2017-11-07 06:34:58,1835.8040870457376,74.80000239360001,0.35999970196000003,1.88346006027072,1839.5040871641377,78.500002512,0.35999970196000003,1.89363006059616,1024,-33.6,98,GPS_Atti,
0.359809354131589,36.8940129246877,25100,2017-11-07 06:34:58,1835.8040870457376,74.80000239360001,0.35999970196000003,1.87833006010656,1839.5040871641377,78.500002512,0.35999970196000003,1.89363006059616,1024,-33.6,98,GPS_Atti,
0.3598092577961,36.8940129388667,25200,2017-11-07 06:34:58,1835.8040870457376,74.80000239360001,0.35999970196000003,1.87461005998752,1839.5040871641377,78.500002512,0.35999970196000003,1.89363006059616,1024,-33.6,98,GPS_Atti,
0.359809165606628,36.894012933261,25300,2017-11-07 06:34:58,1835.8040870457376,74.80000239360001,0.35999970196000003,1.8692200598150401,1839.5040871641377,78.500002512,0.35999970196000003,1.89363006059616,1024,-33.6,98,GPS_Atti,
0.359809059407653,36.8940129387982,25400,2017-11-07 06:34:58,1835.8040870457376,74.80000239360001,0.35999970196000003,1.86424005965568,1839.5040871641377,78.500002512,0.35999970196000003,1.89363006059616,1024,-33.6,98,GPS_Atti,
0.359808970639542,36.8940129045219,25500,2017-11-07 06:34:58,1835.8040870457376,74.80000239360001,0.35999970196000003,1.8562900594012801,1839.5040871641377,78.500002512,0.35999970196000003,1.89363006059616,1024,-33.6,98,GPS_Atti,
0.359808876259813,36.8940128985865,25600,2017-11-07 06:34:58,1835.7040870425376,74.7000023904,0.35999970196000003,1.8508800592281602,1839.5040871641377,78.500002512,0.35999970196000003,1.89363006059616,1024,-33.6,98,GPS_Atti,
0.35980881121976,36.8940129003466,25700,2017-11-07 06:34:58,1835.7040870425376,74.7000023904,0.35999970196000003,1.84776005912832,1839.5040871641377,78.500002512,0.35999970196000003,1.89363006059616,1100,-33.6,98,GPS_Atti,
0.359808734254611,36.8940129155019,25800,2017-11-07 06:34:58,1835.7040870425376,74.7000023904,0.35999970196000003,1.84539005905248,1839.5040871641377,78.500002512,0.35999970196000003,1.89363006059616,1252,-33.6,98,GPS_Atti,
0.35980866166672,36.8940128830714,25900,2017-11-07 06:34:59,1835.7040870425376,74.7000023904,0.35999970196000003,1.83854005883328,1839.5040871641377,78.500002512,0.35999970196000003,1.89363006059616,1252,-33.6,98,GPS_Atti,
0.359808572419847,36.8940128658176,26000,2017-11-07 06:34:59,1835.7040870425376,74.7000023904,0.35999970196000003,1.8324100586371201,1839.5040871641377,78.500002512,0.35999970196000003,1.89363006059616,1107,-33.6,98,GPS_Atti,
0.359808487499749,36.8940128334856,26100,2017-11-07 06:34:59,1835.7040870425376,74.7000023904,0.35999970196000003,1.8250100584003202,1839.5040871641377,78.500002512,0.35999970196000003,1.89363006059616,1024,-33.6,98,GPS_Atti,
0.359808384572318,36.894012818797,26200,2017-11-07 06:34:59,1835.8040870457376,74.80000239360001,0.35999970196000003,1.8185300581929602,1839.5040871641377,78.500002512,0.35999970196000003,1.89363006059616,1024,-33.6,98,GPS_Atti,
0.359808287727125,36.894012788392,26300,2017-11-07 06:34:59,1835.8040870457376,74.80000239360001,0.35999970196000003,1.81081005794592,1839.5040871641377,78.500002512,0.35999970196000003,1.89363006059616,1024,-33.6,98,GPS_Atti,
0.35980814677227,36.8940127878867,26400,2017-11-07 06:34:59,1835.9040870489375,74.9000023968,0.35999970196000003,1.80406005772992,1839.5040871641377,78.500002512,0.35999970196000003,1.89363006059616,1024,-33.6,98,GPS_Atti,
0.359807999121253,36.8940127714251,26500,2017-11-07 06:34:59,1835.9040870489375,74.9000023968,0.35999970196000003,1.79549005745568,1839.5040871641377,78.500002512,0.35999970196000003,1.89363006059616,1024,-33.6,98,GPS_Atti,
0.359807822705401,36.894012781356,26600,2017-11-07 06:34:59,1835.9040870489375,74.9000023968,0.35999970196000003,1.7884000572288001,1839.5040871641377,78.500002512,0.35999970196000003,1.89363006059616,1024,-33.6,98,GPS_Atti,
0.359807685232158,36.8940127561241,26700,2017-11-07 06:34:59,1835.9040870489375,74.9000023968,0.35999970196000003,1.7796500569488,1839.5040871641377,78.500002512,0.35999970196000003,1.89363006059616,1024,-33.6,98,GPS_Atti,
0.35980754477235,36.894012754257,26800,2017-11-07 06:34:59,1835.9040870489375,74.9000023968,0.35999970196000003,1.7732500567440002,1839.5040871641377,78.500002512,0.35999970196000003,1.89363006059616,1024,-33.6,98,GPS_Atti,
0.35980743668438,36.8940127423605,26900,2017-11-07 06:35:00,1835.9040870489375,74.9000023968,0.35999970196000003,1.76733005655456,1839.5040871641377,78.500002512,0.35999970196000003,1.89363006059616,1024,-33.6,98,GPS_Atti,
0.359807343801191,36.8940127198823,27000,2017-11-07 06:35:00,1835.9040870489375,74.9000023968,0.35999970196000003,1.76104005635328,1839.5040871641377,78.500002512,0.35999970196000003,1.89363006059616,1024,-33.6,98,GPS_Atti,
0.359807219098207,36.8940127169403,27100,2017-11-07 06:35:00,1835.9040870489375,74.9000023968,0.35999970196000003,1.75546005617472,1839.5040871641377,78.500002512,0.35999970196000003,1.89363006059616,1024,-33.6,98,GPS_Atti,
0.359807133510447,36.8940126841671,27200,2017-11-07 06:35:00,1835.9040870489375,74.9000023968,0.35999970196000003,1.7485100559523201,1839.5040871641377,78.500002512,0.35999970196000003,1.89363006059616,1024,-33.6,98,GPS_Atti,
0.359807040444872,36.8940127443904,27300,2017-11-07 06:35:00,1835.9040870489375,74.9000023968,0.35999970196000003,1.7509000560288,1839.5040871641377,78.500002512,0.35999970196000003,1.89363006059616,1072,-33.6,98,GPS_Atti,
0.359806945915327,36.8940127895868,27400,2017-11-07 06:35:00,1835.9040870489375,74.9000023968,0.35999970196000003,1.7517600560563202,1839.5040871641377,78.500002512,0.35999970196000003,1.89363006059616,1249,-33.6,98,GPS_Atti,
0.3598068663007,36.894012787407,27500,2017-11-07 06:35:00,1835.9040870489375,74.9000023968,0.35999970196000003,1.74836005594752,1839.5040871641377,78.500002512,0.35999970196000003,1.89363006059616,1327,-33.6,98,GPS_Atti,
0.359806801775235,36.8940127698706,27600,2017-11-07 06:35:00,1836.0040870521377,75.0000024,0.35999970196000003,1.74399005580768,1839.5040871641377,78.500002512,0.35999970196000003,1.89363006059616,1375,-33.6,98,GPS_Atti,
0.3598067113054,36.8940127877753,27700,2017-11-07 06:35:00,1836.1040870553377,75.10000240320001,0.35999970196000003,1.7423300557545602,1839.5040871641377,78.500002512,0.35999970196000003,1.89363006059616,1380,-33.6,98,GPS_Atti,
0.359806653855525,36.8940127653227,27800,2017-11-07 06:35:00,1836.2040870585374,75.2000024064,0.35999970196000003,1.7377700556086402,1839.5040871641377,78.500002512,0.35999970196000003,1.89363006059616,1289,-33.6,98,GPS_Atti,
0.359806569997172,36.8940127900664,27900,2017-11-07 06:35:01,1836.3040870617374,75.3000024096,0.35999970196000003,1.73717005558944,1839.5040871641377,78.500002512,0.35999970196000003,1.89363006059616,1102,-33.6,98,GPS_Atti,
0.359806517903249,36.8940127765297,28000,2017-11-07 06:35:01,1836.5040870681376,75.500002416,0.35999970196000003,1.7337900554812802,1839.5040871641377,78.500002512,0.35999970196000003,1.89363006059616,1102,-33.6,98,GPS_Atti,
0.359806411113149,36.8940128011835,28100,2017-11-07 06:35:01,1836.6040870713375,75.60000241920001,0.35999970196000003,1.73241005543712,1839.5040871641377,78.500002512,0.35999970196000003,1.89363006059616,1024,-33.6,98,GPS_Atti,
0.359806337986242,36.8940127749024,28200,2017-11-07 06:35:01,1836.7040870745375,75.7000024224,0.35999970196000003,1.72698005526336,1839.5040871641377,78.500002512,0.35999970196000003,1.89363006059616,1024,-33.6,98,GPS_Atti,
0.35980625015123,36.8940127866747,28300,2017-11-07 06:35:01,1836.8040870777377,75.8000024256,0.35999970196000003,1.7250500552016002,1839.5040871641377,78.500002512,0.35999970196000003,1.89363006059616,1024,-33.6,98,GPS_Atti,
0.359806191449081,36.894012755546,28400,2017-11-07 06:35:01,1836.8040870777377,75.8000024256,0.35999970196000003,1.71969005503008,1839.5040871641377,78.500002512,0.35999970196000003,1.89363006059616,1024,-33.6,98,GPS_Atti,
0.35980609222636,36.8940127747782,28500,2017-11-07 06:35:01,1836.8040870777377,75.8000024256,0.35999970196000003,1.7182300549833602,1839.5040871641377,78.500002512,0.35999970196000003,1.89363006059616,1024,-33.6,98,GPS_Atti,
0.359806039187939,36.8940127570491,28600,2017-11-07 06:35:01,1836.8040870777377,75.8000024256,0.35999970196000003,1.71453005486496,1839.5040871641377,78.500002512,0.35999970196000003,1.89363006059616,1024,-33.6,98,GPS_Atti,
0.359806029671312,36.8940128306378,28700,2017-11-07 06:35:01,1836.8040870777377,75.8000024256,0.35999970196000003,1.7219800551033602,1839.5040871641377,78.500002512,0.35999970196000003,1.89363006059616,1024,-33.6,98,GPS_Atti,
0.359806040200831,36.8940128459216,28800,2017-11-07 06:35:01,1836.8040870777377,75.8000024256,0.35999970196000003,1.72396005516672,1839.5040871641377,78.500002512,0.35999970196000003,1.89363006059616,1024,-33.6,98,GPS_Atti,
0.359806027443601,36.8940128936832,28900,2017-11-07 06:35:02,1836.8040870777377,75.8000024256,0.35999970196000003,1.72858005531456,1839.5040871641377,78.500002512,0.35999970196000003,1.89363006059616,1024,-33.6,98,GPS_Atti,
0.359806041588265,36.8940128880218,29000,2017-11-07 06:35:02,1836.8040870777377,75.8000024256,0.35999970196000003,1.72846005531072,1839.5040871641377,78.500002512,0.35999970196000003,1.89363006059616,1024,-33.6,98,GPS_Atti,
0.359806015005545,36.8940129495341,29100,2017-11-07 06:35:02,1836.8040870777377,75.8000024256,0.35999970196000003,1.73407005549024,1839.5040871641377,78.500002512,0.35999970196000003,1.89363006059616,1024,-33.6,98,GPS_Atti,
0.359806000393517,36.8940129957754,29200,2017-11-07 06:35:02,1836.8040870777377,75.8000024256,0.35999970196000003,1.7384700556310402,1839.5040871641377,78.500002512,0.35999970196000003,1.89363006059616,1024,-33.6,98,GPS_Atti,
0.359806018959407,36.8940129856176,29300,2017-11-07 06:35:02,1836.8040870777377,75.8000024256,0.35999970196000003,1.7380300556169601,1839.5040871641377,78.500002512,0.35999970196000003,1.89363006059616,1024,-33.6,98,GPS_Atti,
