latitude,longitude,time_millisecond,datetime_utc,altitude_m,ascent_m,speed_kph,distance_m,max_altitude_m,max_ascent_m,max_speed_kph,max_distance_m,rc_throttle,gimbal_pitch_degrees,battery_percent,flycState,message
0.0,0.0,100,2017-11-02 05:24:44,1801.8458828590763,0.0,0.0,0.0,1801.8458828590763,0.0,0.0,0.0,1024,0.0,98,Motors_Started,
0.0,0.0,200,2017-11-02 05:24:44,1801.8458828590763,0.0,0.0,0.0,1801.8458828590763,0.0,0.0,0.0,1024,0.0,98,Motors_Started,
0.0,0.0,300,2017-11-02 05:24:45,1801.8458828590763,0.0,0.0,0.0,1801.8458828590763,0.0,0.0,0.0,1024,0.0,98,Motors_Started,
0.0,0.0,400,2017-11-02 05:24:45,1801.8458828590763,0.0,0.0,0.0,1801.8458828590763,0.0,0.0,0.0,1024,0.0,98,Motors_Started,
0.0,0.0,500,2017-11-02 05:24:45,1801.8458828590763,0.0,0.0,0.0,1801.8458828590763,0.0,0.0,0.0,1024,0.0,98,Motors_Started,
0.0,0.0,600,2017-11-02 05:24:45,1801.8458828590763,0.0,0.0,0.0,1801.8458828590763,0.0,0.0,0.0,1024,0.0,98,Motors_Started,
0.0,0.0,700,2017-11-02 05:24:45,1801.8458828590763,0.0,0.0,0.0,1801.8458828590763,0.0,0.0,0.0,1024,0.0,98,Motors_Started,
0.0,0.0,800,2017-11-02 05:24:45,1801.8458828590763,0.0,0.0,0.0,1801.8458828590763,0.0,0.0,0.0,1024,0.0,98,Motors_Started,
0.0,0.0,900,2017-11-02 05:24:45,1801.8458828590763,0.0,0.0,0.0,1801.8458828590763,0.0,0.0,0.0,1024,0.0,98,Motors_Started,
0.0,0.0,1000,2017-11-02 05:24:45,1801.8458828590763,0.0,0.0,0.0,1801.8458828590763,0.0,0.0,0.0,1024,0.0,98,Motors_Started,
0.0,0.0,1100,2017-11-02 05:24:45,1801.8458828590763,0.0,0.0,0.0,1801.8458828590763,0.0,0.0,0.0,1024,0.0,98,Motors_Started,
0.0,0.0,1200,2017-11-02 05:24:45,1801.8458828590763,0.0,0.0,0.0,1801.8458828590763,0.0,0.0,0.0,1024,0.0,98,Motors_Started,
0.0,0.0,1300,2017-11-02 05:24:46,1801.8458828590763,0.0,0.0,0.0,1801.8458828590763,0.0,0.0,0.0,1024,0.0,98,Motors_Started,
0.0,0.0,1400,2017-11-02 05:24:46,1801.8458828590763,0.0,0.0,0.0,1801.8458828590763,0.0,0.0,0.0,1024,0.0,98,Motors_Started,
0.0,0.0,1500,2017-11-02 05:24:46,1801.8458828590763,0.0,0.0,0.0,1801.8458828590763,0.0,0.0,0.0,1024,0.0,98,Motors_Started,
0.0,0.0,1600,2017-11-02 05:24:46,1801.8458828590763,0.0,0.0,0.0,1801.8458828590763,0.0,0.0,0.0,1024,0.0,98,Assisted_Takeoff,
0.0,0.0,1700,2017-11-02 05:24:46,1801.8458828590763,0.0,0.0,0.0,1801.8458828590763,0.0,0.0,0.0,1024,0.0,98,Assisted_Takeoff,
0.0,0.0,1900,2017-11-02 05:24:46,1801.8458828590763,0.0,0.0,0.0,1801.8458828590763,0.0,0.0,0.0,1024,0.0,98,Assisted_Takeoff,
0.0,0.0,2000,2017-11-02 05:24:46,1801.8458828590763,0.0,0.0,0.0,1801.8458828590763,0.0,0.0,0.0,401,0.0,98,Assisted_Takeoff,
0.0,0.0,2100,2017-11-02 05:24:46,1801.8458828590763,0.0,0.0,0.0,1801.8458828590763,0.0,0.0,0.0,502,0.0,98,Assisted_Takeoff,
0.0,0.0,2200,2017-11-02 05:24:46,1801.8458828590763,0.0,0.0,0.0,1801.8458828590763,0.0,0.0,0.0,578,0.0,98,Assisted_Takeoff,
0.0,0.0,2300,2017-11-02 05:24:47,1801.8458828590763,0.0,0.0,0.0,1801.8458828590763,0.0,0.0,0.0,651,0.0,98,Assisted_Takeoff,
0.0,0.0,2400,2017-11-02 05:24:47,1801.8458828590763,0.0,0.0,0.0,1801.8458828590763,0.0,0.0,0.0,755,0.0,98,Assisted_Takeoff,
0.0,0.0,2500,2017-11-02 05:24:47,1801.8458828590763,0.0,0.0,0.0,1801.8458828590763,0.0,0.0,0.0,1016,0.0,98,Assisted_Takeoff,
0.0,0.0,2600,2017-11-02 05:24:47,1801.8458828590763,0.0,0.0,0.0,1801.8458828590763,0.0,0.0,0.0,1024,0.0,98,Assisted_Takeoff,
0.0,0.0,2700,2017-11-02 05:24:47,1801.8458828590763,0.0,0.0,0.0,1801.8458828590763,0.0,0.0,0.0,1024,0.0,98,Assisted_Takeoff,
0.0,0.0,2800,2017-11-02 05:24:47,1801.8458828590763,0.0,0.0,0.0,1801.8458828590763,0.0,0.0,0.0,1024,0.0,98,Assisted_Takeoff,
0.0,0.0,2900,2017-11-02 05:24:47,1801.8458828590763,0.0,0.0,0.0,1801.8458828590763,0.0,0.0,0.0,1024,0.0,98,Assisted_Takeoff,Setting new Return-To-Home altitude to 30m (98 ft). Setting new Maximum Flight Altitude to 8m (26 ft)
0.0,0.0,3000,2017-11-02 05:24:47,1801.8458828590763,0.0,0.0,0.0,1801.8458828590763,0.0,0.0,0.0,1024,0.0,98,Assisted_Takeoff,
0.0,0.0,3100,2017-11-02 05:24:47,1801.8458828590763,0.0,0.0,0.0,1801.8458828590763,0.0,0.0,0.0,1024,0.0,98,Assisted_Takeoff,
0.0,0.0,3200,2017-11-02 05:24:47,1801.8458828590763,0.0,0.0,0.0,1801.8458828590763,0.0,0.0,0.0,1024,0.0,98,Assisted_Takeoff,
0.0,0.0,3300,2017-11-02 05:24:48,1801.8458828590763,0.0,0.0,0.0,1801.8458828590763,0.0,0.0,0.0,1024,0.0,98,Assisted_Takeoff,
0.0,0.0,3400,2017-11-02 05:24:48,1801.8458828590763,0.0,0.0,0.0,1801.8458828590763,0.0,0.0,0.0,1024,0.0,98,Assisted_Takeoff,
0.0,0.0,3500,2017-11-02 05:24:48,1801.8458828590763,0.0,0.0,0.0,1801.8458828590763,0.0,0.0,0.0,1024,0.0,98,Assisted_Takeoff,
0.0,0.0,3600,2017-11-02 05:24:48,1801.8458828590763,0.0,0.0,0.0,1801.8458828590763,0.0,0.0,0.0,1024,0.0,98,Assisted_Takeoff,
0.0,0.0,3700,2017-11-02 05:24:48,1801.8458828590763,0.0,0.0,0.0,1801.8458828590763,0.0,0.0,0.0,1065,0.0,98,Assisted_Takeoff,
0.0,0.0,3800,2017-11-02 05:24:48,1801.8458828590763,0.0,0.0,0.0,1801.8458828590763,0.0,0.0,0.0,1198,0.0,98,Assisted_Takeoff,
0.0,0.0,3900,2017-11-02 05:24:48,1801.8458828590763,0.0,0.0,0.0,1801.8458828590763,0.0,0.0,0.0,1453,0.0,98,Assisted_Takeoff,
0.0,0.0,4000,2017-11-02 05:24:48,1801.8458828590763,0.0,0.0,0.0,1801.8458828590763,0.0,0.0,0.0,1453,0.0,98,Assisted_Takeoff,
0.0,0.0,4100,2017-11-02 05:24:48,1801.8458828590763,0.0,0.0,0.0,1801.8458828590763,0.0,0.0,0.0,1684,0.0,98,Assisted_Takeoff,
0.0,0.0,4200,2017-11-02 05:24:48,1801.8458828590763,0.0,0.0,0.0,1801.8458828590763,0.0,0.0,0.0,1684,0.0,98,Assisted_Takeoff,
0.0,0.0,4300,2017-11-02 05:24:49,1801.8458828590763,0.0,0.0,0.0,1801.8458828590763,0.0,0.0,0.0,1684,0.0,98,Assisted_Takeoff,
0.0,0.0,4400,2017-11-02 05:24:49,1801.8458828590763,0.0,0.0,0.0,1801.8458828590763,0.0,0.0,0.0,1684,0.0,98,Assisted_Takeoff,
0.0,0.0,4500,2017-11-02 05:24:49,1801.8458828590763,0.0,0.7199994039200001,0.0,1801.8458828590763,0.0,0.7199994039200001,0.0,1684,0.0,98,GPS_Atti,
0.0,0.0,4600,2017-11-02 05:24:49,1801.8458828590763,0.0,1.07999910588,0.0,1801.8458828590763,0.0,1.07999910588,0.0,1684,0.0,98,GPS_Atti,
0.0,0.0,4700,2017-11-02 05:24:49,1801.8458828590763,0.0,1.4399988078400001,0.0,1801.8458828590763,0.0,1.4399988078400001,0.0,1684,0.0,98,GPS_Atti,
0.0,0.0,4800,2017-11-02 05:24:49,1801.9458828622762,0.1000000032,1.7999985098000002,0.0,1801.9458828622762,0.1000000032,1.7999985098000002,0.0,1684,0.0,98,GPS_Atti,
0.0,0.0,4900,2017-11-02 05:24:49,1802.1458828686764,0.3000000096,1.8359984799959999,0.0,1802.1458828686764,0.3000000096,1.8359984799959999,0.0,1684,0.0,98,GPS_Atti,
0.0,0.0,5000,2017-11-02 05:24:49,1802.345882875076,0.500000016,1.8359984799959999,0.0,1802.345882875076,0.500000016,1.8359984799959999,0.0,1684,0.0,98,GPS_Atti,
0.0,0.0,5100,2017-11-02 05:24:49,1802.5458828814762,0.7000000224,1.9403983935644,0.0,1802.5458828814762,0.7000000224,1.9403983935644,0.0,1684,0.0,98,GPS_Atti,
0.0,0.0,5200,2017-11-02 05:24:49,1802.8458828910764,1.000000032,1.9403983935644,0.0,1802.8458828910764,1.000000032,1.9403983935644,0.0,1684,0.0,98,GPS_Atti,
0.0,0.0,5300,2017-11-02 05:24:50,1803.1458829006763,1.3000000416000002,2.1887981879168,0.0,1803.1458829006763,1.3000000416000002,2.1887981879168,0.0,1684,0.0,98,GPS_Atti,
0.0,0.0,5400,2017-11-02 05:24:50,1803.5458829134764,1.7000000544000002,2.5451978928572,0.0,1803.5458829134764,1.7000000544000002,2.5451978928572,0.0,1684,0.0,98,GPS_Atti,
0.0,0.0,5500,2017-11-02 05:24:50,1803.9458829262765,2.1000000672000003,2.5451978928572,0.0,1803.9458829262765,2.1000000672000003,2.5451978928572,0.0,1684,0.0,98,GPS_Atti,
0.0,0.0,5600,2017-11-02 05:24:50,1804.4458829422763,2.6000000832000003,2.5451978928572,0.0,1804.4458829422763,2.6000000832000003,2.5451978928572,0.0,1684,0.0,98,GPS_Atti,
0.0,0.0,5700,2017-11-02 05:24:50,1804.8458829550761,3.0000000960000004,2.5451978928572,0.0,1804.8458829550761,3.0000000960000004,2.5451978928572,0.0,1684,0.0,98,GPS_Atti,
0.0,0.0,5800,2017-11-02 05:24:50,1805.3458829710762,3.500000112,2.1887981879168,0.0,1805.3458829710762,3.500000112,2.5451978928572,0.0,1684,0.0,98,GPS_Atti,
0.0,0.0,5900,2017-11-02 05:24:50,1805.8458829870763,4.000000128,2.1887981879168,0.0,1805.8458829870763,4.000000128,2.5451978928572,0.0,1684,0.0,98,GPS_Atti,Setting new Maximum Flight Altitude to 30m (98 ft)
0.0,0.0,6000,2017-11-02 05:24:50,1806.3458830030763,4.500000144,2.1887981879168,0.0,1806.3458830030763,4.500000144,2.5451978928572,0.0,1684,0.0,98,GPS_Atti,
0.0,0.0,6100,2017-11-02 05:24:50,1806.8458830190762,5.00000016,1.7999985098000002,0.0,1806.8458830190762,5.00000016,2.5451978928572,0.0,1684,0.0,98,GPS_Atti,
0.0,0.0,6200,2017-11-02 05:24:50,1807.3458830350762,5.5000001759999995,1.7999985098000002,0.0,1807.3458830350762,5.5000001759999995,2.5451978928572,0.0,1684,0.0,98,GPS_Atti,
0.0,0.0,6300,2017-11-02 05:24:51,1807.9458830542762,6.100000195200001,1.7999985098000002,0.0,1807.9458830542762,6.100000195200001,2.5451978928572,0.0,1684,0.0,98,GPS_Atti,
0.0,0.0,6400,2017-11-02 05:24:51,1808.445883070276,6.6000002112,1.8359984799959999,0.0,1808.445883070276,6.6000002112,2.5451978928572,0.0,1684,0.0,98,GPS_Atti,
0.0,0.0,6500,2017-11-02 05:24:51,1808.9458830862764,7.1000002272,1.8359984799959999,0.0,1808.9458830862764,7.1000002272,2.5451978928572,0.0,1684,0.0,98,GPS_Atti,
0.0,0.0,6600,2017-11-02 05:24:51,1809.4458831022762,7.600000243200001,1.8359984799959999,0.0,1809.4458831022762,7.600000243200001,2.5451978928572,0.0,1684,0.0,98,GPS_Atti,
0.0,0.0,6700,2017-11-02 05:24:51,1810.0458831214764,8.200000262400001,1.7999985098000002,0.0,1810.0458831214764,8.200000262400001,2.5451978928572,0.0,1684,0.0,98,GPS_Atti,
0.0,0.0,6800,2017-11-02 05:24:51,1810.5458831374763,8.700000278400001,1.7999985098000002,0.0,1810.5458831374763,8.700000278400001,2.5451978928572,0.0,1684,0.0,98,GPS_Atti,
0.0692644492478215,36.9623954143999,6900,2017-11-02 05:24:51,1811.045883153476,9.2000002944,1.4399988078400001,0.0,1811.045883153476,9.2000002944,2.5451978928572,0.0,1684,0.0,98,GPS_Atti,
0.0692649171331649,36.9623953484012,7000,2017-11-02 05:24:51,1811.6458831726763,9.8000003136,1.4399988078400001,0.052546801681497605,1811.6458831726763,9.8000003136,2.5451978928572,0.052546801681497605,1684,0.0,98,GPS_Atti,
0.0692655662337919,36.962395100335,7100,2017-11-02 05:24:51,1812.1458831886762,10.3000003296,1.7999985098000002,0.12903200412902402,1812.1458831886762,10.3000003296,2.5451978928572,0.12903200412902402,1684,0.0,98,GPS_Atti,
0.0692662875253768,36.9623947757451,7200,2017-11-02 05:24:51,1812.6458832046762,10.8000003456,1.8359984799959999,0.216414006925248,1812.6458832046762,10.8000003456,2.5451978928572,0.216414006925248,1684,0.0,98,GPS_Atti,
0.069267092029025,36.9623943836359,7300,2017-11-02 05:24:52,1813.2458832238763,11.4000003648,1.4831987720752,0.315456010094592,1813.2458832238763,11.4000003648,2.5451978928572,0.315456010094592,1684,0.0,98,GPS_Atti,
0.069267838719858,36.9623940478611,7400,2017-11-02 05:24:52,1813.745883239876,11.9000003808,1.4831987720752,0.40641101300515203,1813.745883239876,11.9000003808,2.5451978928572,0.40641101300515203,1684,0.0,98,GPS_Atti,
0.0692687028797201,36.9623935796634,7500,2017-11-02 05:24:52,1814.3458832590763,12.500000400000001,1.4399988078400001,0.515157016485024,1814.3458832590763,12.500000400000001,2.5451978928572,0.515157016485024,1684,0.0,98,GPS_Atti,
0.0692694975799319,36.9623931956257,7600,2017-11-02 05:24:52,1814.9458832782761,13.100000419200002,1.4399988078400001,0.6132350196235201,1814.9458832782761,13.100000419200002,2.5451978928572,0.6132350196235201,1684,0.0,98,GPS_Atti,
0.0692703512188244,36.9623927344452,7700,2017-11-02 05:24:52,1815.4458832942764,13.600000435200002,1.4831987720752,0.72083002306656,1815.4458832942764,13.600000435200002,2.5451978928572,0.72083002306656,1684,0.0,98,GPS_Atti,
0.0692711165964594,36.9623923448674,7800,2017-11-02 05:24:52,1816.0458833134762,14.2000004544,1.4831987720752,0.816252026120064,1816.0458833134762,14.2000004544,2.5451978928572,0.816252026120064,1684,0.0,98,GPS_Atti,
0.0692718587532972,36.962391910143,7900,2017-11-02 05:24:52,1816.5458833294763,14.7000004704,1.4831987720752,0.911487029167584,1816.5458833294763,14.7000004704,2.5451978928572,0.911487029167584,1684,0.0,98,GPS_Atti,
0.0692725426769777,36.9623915459736,8000,2017-11-02 05:24:52,1817.1458833486763,15.3000004896,1.4831987720752,0.9975650319220801,1817.1458833486763,15.3000004896,2.5451978928572,0.9975650319220801,1684,0.0,98,GPS_Atti,
0.069273151243598,36.9623911819947,8100,2017-11-02 05:24:52,1817.6458833646761,15.8000005056,1.4831987720752,1.0761000344352,1817.6458833646761,15.8000005056,2.5451978928572,1.0761000344352,1684,0.0,98,GPS_Atti,
0.0692737450874562,36.9623908457999,8200,2017-11-02 05:24:52,1818.2458833838762,16.400000524800003,1.4831987720752,1.1518500368592,1818.2458833838762,16.400000524800003,2.5451978928572,1.1518500368592,1684,0.0,98,GPS_Atti,
0.0692741977492909,36.9623905642366,8300,2017-11-02 05:24:53,1818.8458834030764,17.000000544,1.4831987720752,1.2108600387475201,1818.8458834030764,17.000000544,2.5451978928572,1.2108600387475201,1684,0.0,98,GPS_Atti,
0.0692745706157413,36.9623903171961,8400,2017-11-02 05:24:53,1819.3458834190762,17.50000056,1.4831987720752,1.26023004032736,1819.3458834190762,17.50000056,2.5451978928572,1.26023004032736,1684,0.0,98,GPS_Atti,
0.0692748714911253,36.9623901088344,8500,2017-11-02 05:24:53,1819.8458834350763,18.000000576,1.4831987720752,1.3005500416176001,1819.8458834350763,18.000000576,2.5451978928572,1.3005500416176001,1684,0.0,98,GPS_Atti,
0.0692753217778744,36.9623898837122,8600,2017-11-02 05:24:53,1820.4458834542763,18.6000005952,1.4831987720752,1.3565300434089602,1820.4458834542763,18.6000005952,2.5451978928572,1.3565300434089602,1684,0.0,98,GPS_Atti,
0.0692756530774776,36.9623897069425,8700,2017-11-02 05:24:53,1821.0458834734761,19.2000006144,1.4831987720752,1.3982800447449601,1821.0458834734761,19.2000006144,2.5451978928572,1.3982800447449601,1684,0.0,98,GPS_Atti,
0.0692760340210102,36.9623895547258,8800,2017-11-02 05:24:53,1821.5458834894764,19.7000006304,1.4831987720752,1.44372004619904,1821.5458834894764,19.7000006304,2.5451978928572,1.44372004619904,1684,0.0,98,GPS_Atti,
0.0692763637858049,36.9623894633118,8900,2017-11-02 05:24:53,1822.1458835086762,20.3000006496,1.1375990581936,1.4810500473936001,1822.1458835086762,20.3000006496,2.5451978928572,1.4810500473936001,1684,-1.0,98,GPS_Atti,
0.0692767347152212,36.9623893662965,9000,2017-11-02 05:24:53,1822.7458835278762,20.900000668800004,1.1375990581936,1.5228000487296,1822.7458835278762,20.900000668800004,2.5451978928572,1.5228000487296,1684,-5.8,98,GPS_Atti,
0.0692770373827078,36.962389304206,9100,2017-11-02 05:24:53,1823.2458835438763,21.400000684800002,1.4831987720752,1.55607004979424,1823.2458835438763,21.400000684800002,2.5451978928572,1.55607004979424,1684,-11.3,98,GPS_Atti,
0.069277408422044,36.962389210874,9200,2017-11-02 05:24:53,1823.7458835598761,21.900000700800003,1.4831987720752,1.597750051128,1823.7458835598761,21.900000700800003,2.5451978928572,1.597750051128,1684,-17.0,98,GPS_Atti,
0.0692777127603142,36.9623890785507,9300,2017-11-02 05:24:54,1824.2458835758764,22.4000007168,1.6091986677612,1.63463005230816,1824.2458835758764,22.4000007168,2.5451978928572,1.63463005230816,1684,-22.7,98,GPS_Atti,
0.0692780566306908,36.9623888974596,9400,2017-11-02 05:24:54,1824.7458835918762,22.900000732800002,1.6091986677612,1.6778200536902401,1824.7458835918762,22.900000732800002,2.5451978928572,1.6778200536902401,1684,-28.3,98,GPS_Atti,
0.0692783521476798,36.9623887006087,9500,2017-11-02 05:24:54,1825.2458836078763,23.4000007488,1.6091986677612,1.71692005494144,1825.2458836078763,23.4000007488,2.5451978928572,1.71692005494144,1684,-34.0,98,GPS_Atti,
0.0692786786458158,36.9623884672222,9600,2017-11-02 05:24:54,1825.7458836238764,23.9000007648,1.6091986677612,1.76092005634944,1825.7458836238764,23.9000007648,2.5451978928572,1.76092005634944,1684,-34.0,98,GPS_Atti,
0.0692789798477028,36.9623881758392,9700,2017-11-02 05:24:54,1826.2458836398762,24.400000780800003,1.6091986677612,1.80529005776928,1826.2458836398762,24.400000780800003,2.5451978928572,1.80529005776928,1684,-39.6,98,GPS_Atti,
0.0692792915221132,36.9623879221954,9800,2017-11-02 05:24:54,1826.6458836526763,24.800000793600002,1.6091986677612,1.84892005916544,1826.6458836526763,24.800000793600002,2.5451978928572,1.84892005916544,1684,-45.3,98,GPS_Atti,
0.0692795252543085,36.9623876945746,9900,2017-11-02 05:24:54,1827.145883668676,25.3000008096,1.1375990581936,1.8835600602739202,1827.145883668676,25.3000008096,2.5451978928572,1.8835600602739202,1684,-50.9,98,GPS_Atti,
0.0692797392432488,36.9623875276889,10000,2017-11-02 05:24:54,1827.6458836846764,25.8000008256,1.07999910588,1.9132100612227203,1827.6458836846764,25.8000008256,2.5451978928572,1.9132100612227203,1684,-56.5,98,GPS_Atti,
0.0692798585170009,36.9623874226529,10100,2017-11-02 05:24:54,1828.1458837006762,26.3000008416,0.7199994039200001,1.9303600617715202,1828.1458837006762,26.3000008416,2.5451978928572,1.9303600617715202,1684,-62.1,98,GPS_Atti,
0.06927998000218,36.9623873591096,10200,2017-11-02 05:24:54,1828.7458837198762,26.900000860800002,0.7199994039200001,1.9456000622592002,1828.7458837198762,26.900000860800002,2.5451978928572,1.9456000622592002,1684,-67.8,98,GPS_Atti,
0.0692799676471754,36.9623873811885,10300,2017-11-02 05:24:55,1829.2458837358763,27.4000008768,0.7199994039200001,1.943250062184,1829.2458837358763,27.4000008768,2.5451978928572,1.9456000622592002,1684,-73.5,98,GPS_Atti,
0.0692799581126358,36.9623873631938,10400,2017-11-02 05:24:55,1829.6458837486764,27.8000008896,0.5075995797636,1.9432300621833603,1829.6458837486764,27.8000008896,2.5451978928572,1.9456000622592002,1684,-79.1,98,GPS_Atti,
0.0692798023242839,36.9623873149506,10500,2017-11-02 05:24:55,1830.1458837646762,28.300000905600005,0.5075995797636,1.93037006177184,1830.1458837646762,28.300000905600005,2.5451978928572,1.9456000622592002,1684,-84.7,98,GPS_Atti,
0.0692796521328941,36.9623872717348,10600,2017-11-02 05:24:55,1830.645883780676,28.800000921600002,0.0,1.9178800613721603,1830.645883780676,28.800000921600002,2.5451978928572,1.9456000622592002,1684,-89.9,98,GPS_Atti,
0.0692793818095622,36.9623872988813,10700,2017-11-02 05:24:55,1831.2458837998763,29.4000009408,0.0,1.88999006047968,1831.2458837998763,29.4000009408,2.5451978928572,1.9456000622592002,1684,-89.9,98,GPS_Atti,
0.0692791655961674,36.9623873880809,10800,2017-11-02 05:24:55,1831.7458838158761,29.900000956800003,0.0,1.86413005965216,1831.7458838158761,29.900000956800003,2.5451978928572,1.9456000622592002,1684,-89.9,98,GPS_Atti,
0.0692789228765896,36.9623875065976,10900,2017-11-02 05:24:55,1832.2458838318764,30.400000972800004,0.0,1.83412005869184,1832.2458838318764,30.400000972800004,2.5451978928572,1.9456000622592002,1684,-90.0,98,GPS_Atti,
0.0692787595322576,36.9623875840792,11000,2017-11-02 05:24:55,1832.8458838510762,31.000000992,0.0,1.8140500580496,1832.8458838510762,31.000000992,2.5451978928572,1.9456000622592002,1684,-90.0,98,GPS_Atti,
0.0692785955056076,36.9623875843645,11100,2017-11-02 05:24:55,1833.345883867076,31.500001007999998,0.0,1.7980500575376,1833.345883867076,31.500001007999998,2.5451978928572,1.9456000622592002,1684,-90.0,98,GPS_Atti,
0.0692784763393328,36.9623875897468,11200,2017-11-02 05:24:55,1833.8458838830763,32.000001024,0.0,1.78618005715776,1833.8458838830763,32.000001024,2.5451978928572,1.9456000622592002,1684,-89.9,98,GPS_Atti,
0.0692783086617113,36.9623876097006,11300,2017-11-02 05:24:56,1834.3458838990762,32.50000104,0.0,1.76883005660256,1834.3458838990762,32.50000104,2.5451978928572,1.9456000622592002,1684,-90.0,98,GPS_Atti,
0.0692781210144811,36.9623876799302,11400,2017-11-02 05:24:56,1834.8458839150762,33.000001056,0.0,1.74682005589824,1834.8458839150762,33.000001056,2.5451978928572,1.9456000622592002,1684,-90.0,98,GPS_Atti,
0.069277897787378,36.9623877767041,11500,2017-11-02 05:24:56,1835.245883927876,33.4000010688,0.0,1.71991005503712,1835.245883927876,33.4000010688,2.5451978928572,1.9456000622592002,1684,-89.9,98,GPS_Atti,
0.0692774085197507,36.9623880243767,11700,2017-11-02 05:24:56,1836.1458839566762,34.3000010976,0.35999970196000003,1.659000053088,1836.1458839566762,34.3000010976,2.5451978928572,1.9456000622592002,1684,-90.0,98,GPS_Atti,
0.0692771796354331,36.9623881058612,11800,2017-11-02 05:24:56,1836.6458839726763,34.800001113600004,0.35999970196000003,1.63241005223712,1836.6458839726763,34.800001113600004,2.5451978928572,1.9456000622592002,1684,-90.0,98,GPS_Atti,
0.0692769774527118,36.962388110143,11900,2017-11-02 05:24:56,1837.1458839886761,35.300001129600005,0.0,1.6127100516067199,1837.1458839886761,35.300001129600005,2.5451978928572,1.9456000622592002,1684,-90.0,98,GPS_Atti,
0.0692768247396764,36.9623881211736,12000,2017-11-02 05:24:56,1837.7458840078764,35.9000011488,0.0,1.59744005111808,1837.7458840078764,35.9000011488,2.5451978928572,1.9456000622592002,1684,-90.0,98,GPS_Atti,
0.0692767101843408,36.9623880772908,12100,2017-11-02 05:24:56,1838.2458840238762,36.4000011648,0.0,1.5889800508473602,1838.2458840238762,36.4000011648,2.5451978928572,1.9456000622592002,1684,-89.9,98,GPS_Atti,
0.0692766451345169,36.9623880872895,12200,2017-11-02 05:24:56,1838.7458840398765,36.900001180800004,0.0,1.5822000506304,1838.7458840398765,36.900001180800004,2.5451978928572,1.9456000622592002,1684,-89.9,98,GPS_Atti,
0.0692765997668814,36.962388144799,12300,2017-11-02 05:24:57,1839.2458840558763,37.400001196800005,0.0,1.57459005038688,1839.2458840558763,37.400001196800005,2.5451978928572,1.9456000622592002,1684,-89.9,98,GPS_Atti,
0.0692766321965294,36.962388300912,12400,2017-11-02 05:24:57,1839.7458840718762,37.9000012128,0.5075995797636,1.5688600502035202,1839.7458840718762,37.9000012128,2.5451978928572,1.9456000622592002,1684,-89.9,98,GPS_Atti,
0.0692767027618931,36.9623885345195,12500,2017-11-02 05:24:57,1840.3458840910764,38.500001232,0.5075995797636,1.56276005000832,1840.3458840910764,38.500001232,2.5451978928572,1.9456000622592002,1684,-89.9,98,GPS_Atti,
0.0692767914567238,36.962388809147,12600,2017-11-02 05:24:57,1840.8458841070762,39.000001248000004,0.5075995797636,1.55672004981504,1840.8458841070762,39.000001248000004,2.5451978928572,1.9456000622592002,1684,-89.9,98,GPS_Atti,
0.0692768444104657,36.9623890248508,12700,2017-11-02 05:24:57,1841.345884123076,39.500001264,0.5075995797636,1.5507800496249602,1841.345884123076,39.500001264,2.5451978928572,1.9456000622592002,1684,-89.9,98,GPS_Atti,
0.0692768987573414,36.9623892092671,12800,2017-11-02 05:24:57,1841.8458841390764,40.00000128,0.5075995797636,1.5469000495008,1841.8458841390764,40.00000128,2.5451978928572,1.9456000622592002,1684,-90.0,98,GPS_Atti,
0.0692768874795525,36.96238936748,12900,2017-11-02 05:24:57,1842.3458841550762,40.500001296,0.35999970196000003,1.5380000492160002,1842.3458841550762,40.500001296,2.5451978928572,1.9456000622592002,1684,-90.0,98,GPS_Atti,
0.0692768701602364,36.9623895496786,13000,2017-11-02 05:24:57,1842.8458841710762,41.000001312,0.35999970196000003,1.52751004888032,1842.8458841710762,41.000001312,2.5451978928572,1.9456000622592002,1684,-90.0,98,GPS_Atti,
0.069276852638179,36.9623897467121,13100,2017-11-02 05:24:57,1843.4458841902763,41.600001331200005,0.5075995797636,1.51651004852832,1843.4458841902763,41.600001331200005,2.5451978928572,1.9456000622592002,1684,-89.9,98,GPS_Atti,
0.0692769072211791,36.9623899640785,13200,2017-11-02 05:24:57,1843.9458842062763,42.100001347200006,0.5075995797636,1.51219004839008,1843.9458842062763,42.100001347200006,2.5451978928572,1.9456000622592002,1684,-90.0,98,GPS_Atti,
0.069276970554623,36.9623901245547,13300,2017-11-02 05:24:58,1844.4458842222762,42.6000013632,0.5075995797636,1.51161004837152,1844.4458842222762,42.6000013632,2.5451978928572,1.9456000622592002,1684,-90.0,98,GPS_Atti,
0.0692770684045659,36.9623902788745,13400,2017-11-02 05:24:58,1845.0458842414762,43.2000013824,0.5075995797636,1.51509004848288,1845.0458842414762,43.2000013824,2.5451978928572,1.9456000622592002,1684,-89.9,98,GPS_Atti,
0.0692771640870499,36.9623904204903,13500,2017-11-02 05:24:58,1845.6458842606764,43.80000140160001,0.8063993323904,1.5191200486118401,1845.6458842606764,43.80000140160001,2.5451978928572,1.9456000622592002,1684,-89.9,98,GPS_Atti,
0.0692772867039975,36.9623906253021,13600,2017-11-02 05:24:58,1846.1458842766763,44.30000141760001,0.8063993323904,1.52371004875872,1846.1458842766763,44.30000141760001,2.5451978928572,1.9456000622592002,1684,-90.0,98,GPS_Atti,
0.0692773596859721,36.9623911321507,13800,2017-11-02 05:24:58,1847.0458843054762,45.2000014464,0.7199994039200001,1.51264004840448,1847.0458843054762,45.2000014464,2.5451978928572,1.9456000622592002,1684,-90.0,98,GPS_Atti,
0.0692772963036749,36.962391404617,13900,2017-11-02 05:24:58,1847.545884321476,45.7000014624,0.7199994039200001,1.4966400478924802,1847.545884321476,45.7000014624,2.5451978928572,1.9456000622592002,1684,-90.0,98,GPS_Atti,
0.069277255431359,36.9623916704407,14000,2017-11-02 05:24:58,1848.0458843374763,46.2000014784,0.7199994039200001,1.48374004747968,1848.0458843374763,46.2000014784,2.5451978928572,1.9456000622592002,1684,-90.0,98,GPS_Atti,
0.0692772240561285,36.9623919128534,14100,2017-11-02 05:24:58,1848.5458843534761,46.7000014944,0.35999970196000003,1.47304004713728,1848.5458843534761,46.7000014944,2.5451978928572,1.9456000622592002,1684,-90.0,98,GPS_Atti,
0.0692772513586205,36.9623921475882,14200,2017-11-02 05:24:58,1849.1458843726764,47.3000015136,0.5075995797636,1.4692900470172803,1849.1458843726764,47.3000015136,2.5451978928572,1.9456000622592002,1684,-89.9,98,GPS_Atti,
0.0692772764789976,36.9623923241912,14300,2017-11-02 05:24:59,1849.6458843886762,47.8000015296,0.35999970196000003,1.46728004695296,1849.6458843886762,47.8000015296,2.5451978928572,1.9456000622592002,1684,-89.9,98,GPS_Atti,
0.069277303118713,36.9623924763543,14400,2017-11-02 05:24:59,1850.1458844046763,48.300001545600004,0.35999970196000003,1.46629004692128,1850.1458844046763,48.300001545600004,2.5451978928572,1.9456000622592002,1684,-90.0,98,GPS_Atti,
0.0692772936493111,36.9623925913164,14500,2017-11-02 05:24:59,1850.6458844206763,48.800001561600006,0.0,1.4624700467990401,1850.6458844206763,48.800001561600006,2.5451978928572,1.9456000622592002,1684,-90.0,98,GPS_Atti,
0.0692772650587199,36.9623926864756,14600,2017-11-02 05:24:59,1851.0458844334764,49.200001574400005,0.0,1.4571200466278402,1851.0458844334764,49.200001574400005,2.5451978928572,1.9456000622592002,1684,-90.0,98,GPS_Atti,
0.0692771879339837,36.9623927679154,14700,2017-11-02 05:24:59,1851.6458844526762,49.8000015936,0.35999970196000003,1.44687004629984,1851.6458844526762,49.8000015936,2.5451978928572,1.9456000622592002,1684,-89.9,98,GPS_Atti,
0.0692771490744246,36.9623929109436,14800,2017-11-02 05:24:59,1852.045884465476,50.20000160640001,0.35999970196000003,1.4394800460633599,1852.045884465476,50.20000160640001,2.5451978928572,1.9456000622592002,1684,-89.9,98,GPS_Atti,
0.0692771129408808,36.9623931113406,14900,2017-11-02 05:24:59,1852.5458844814764,50.7000016224,0.35999970196000003,1.43138004580416,1852.5458844814764,50.7000016224,2.5451978928572,1.9456000622592002,1684,-90.0,98,GPS_Atti,
0.0692770772779573,36.9623933058117,15000,2017-11-02 05:24:59,1853.0458844974762,51.2000016384,0.35999970196000003,1.42376004556032,1853.0458844974762,51.2000016384,2.5451978928572,1.9456000622592002,1684,-90.0,98,GPS_Atti,
0.0692769617105437,36.9623934307267,15100,2017-11-02 05:24:59,1853.4458845102763,51.6000016512,0.0,1.4088400450828802,1853.4458845102763,51.6000016512,2.5451978928572,1.9456000622592002,1684,-90.0,98,GPS_Atti,
0.0692768406772579,36.9623934742605,15200,2017-11-02 05:24:59,1853.9458845262761,52.1000016672,0.0,1.3947900446332802,1853.9458845262761,52.1000016672,2.5451978928572,1.9456000622592002,1684,-90.0,98,GPS_Atti,
0.0692767249274586,36.9623934506366,15300,2017-11-02 05:25:00,1854.4458845422764,52.6000016832,0.35999970196000003,1.38249004423968,1854.4458845422764,52.6000016832,2.5451978928572,1.9456000622592002,1684,-90.0,98,GPS_Atti,
0.0692766494816482,36.9623934097348,15400,2017-11-02 05:25:00,1854.8458845550763,53.000001696000005,0.35999970196000003,1.37493004399776,1854.8458845550763,53.000001696000005,2.5451978928572,1.9456000622592002,1684,-90.0,98,GPS_Atti,
0.0692765890802177,36.962393351966,15500,2017-11-02 05:25:00,1855.3458845710763,53.500001712,0.35999970196000003,1.36937004381984,1855.3458845710763,53.500001712,2.5451978928572,1.9456000622592002,1684,-90.0,98,GPS_Atti,
0.0692765403807857,36.962393263098,15600,2017-11-02 05:25:00,1855.8458845870762,54.000001728,0.35999970196000003,1.3657200437030401,1855.8458845870762,54.000001728,2.5451978928572,1.9456000622592002,1684,-90.0,98,GPS_Atti,
0.0692764183964886,36.9623931293904,15700,2017-11-02 05:25:00,1856.2458845998763,54.40000174080001,0.8063993323904,1.3550800433625603,1856.2458845998763,54.40000174080001,2.5451978928572,1.9456000622592002,1684,-90.0,98,GPS_Atti,
0.0692762612036038,36.9623929835153,15800,2017-11-02 05:25:00,1856.6458846126761,54.8000017536,0.8063993323904,1.3410900429148802,1856.6458846126761,54.8000017536,2.5451978928572,1.9456000622592002,1684,-90.0,98,GPS_Atti,
0.0692760999078543,36.9623928057248,15900,2017-11-02 05:25:00,1857.1458846286764,55.3000017696,0.5075995797636,1.3277100424867199,1857.1458846286764,55.3000017696,2.5451978928572,1.9456000622592002,1684,-90.0,98,GPS_Atti,
0.0692760206181019,36.9623926648939,16000,2017-11-02 05:25:00,1857.6458846446762,55.8000017856,0.35999970196000003,1.32263004232416,1857.6458846446762,55.8000017856,2.5451978928572,1.9456000622592002,1684,-89.9,98,GPS_Atti,
0.0692760168164994,36.9623925362598,16100,2017-11-02 05:25:00,1858.1458846606763,56.3000018016,0.35999970196000003,1.3256000424192,1858.1458846606763,56.3000018016,2.5451978928572,1.9456000622592002,1684,-90.0,98,GPS_Atti,
0.0692760563559338,36.962392410426,16200,2017-11-02 05:25:00,1858.6458846766761,56.8000018176,0.35999970196000003,1.3333100426659201,1858.6458846766761,56.8000018176,2.5451978928572,1.9456000622592002,1684,-90.0,98,GPS_Atti,
0.0692761166401164,36.9623922375904,16300,2017-11-02 05:25:01,1859.1458846926764,57.3000018336,0.35999970196000003,1.34472004303104,1859.1458846926764,57.3000018336,2.5451978928572,1.9456000622592002,1684,-90.0,98,GPS_Atti,
0.0692761887117908,36.9623921023996,16400,2017-11-02 05:25:01,1859.7458847118762,57.9000018528,0.35999970196000003,1.35646004340672,1859.7458847118762,57.9000018528,2.5451978928572,1.9456000622592002,1684,-90.0,98,GPS_Atti,
0.0692762548013762,36.9623919586051,16500,2017-11-02 05:25:01,1860.2458847278763,58.400001868800004,0.35999970196000003,1.36794004377408,1860.2458847278763,58.400001868800004,2.5451978928572,1.9456000622592002,1684,-90.0,98,GPS_Atti,
0.0692763163948277,36.9623918405989,16600,2017-11-02 05:25:01,1860.7458847438763,58.900001884800005,0.35999970196000003,1.3782400441036802,1860.7458847438763,58.900001884800005,2.5451978928572,1.9456000622592002,1684,-90.0,98,GPS_Atti,
0.0692763490101183,36.9623916656379,16700,2017-11-02 05:25:01,1861.2458847598762,59.40000190080001,0.35999970196000003,1.38744004439808,1861.2458847598762,59.40000190080001,2.5451978928572,1.9456000622592002,1684,-90.0,98,GPS_Atti,
0.0692763900900608,36.9623915421843,16800,2017-11-02 05:25:01,1861.7458847758764,59.9000019168,0.0,1.3959700446710401,1861.7458847758764,59.9000019168,2.5451978928572,1.9456000622592002,1684,-90.0,98,GPS_Atti,
0.0692764537703633,36.9623914054087,16900,2017-11-02 05:25:01,1862.2458847918763,60.4000019328,0.0,1.4074500450384002,1862.2458847918763,60.4000019328,2.5451978928572,1.9456000622592002,1684,-90.0,97,GPS_Atti,Setting new Maximum Flight Altitude to 100m (328 ft)
0.0692765129154493,36.9623913327112,17000,2017-11-02 05:25:01,1862.6458848046764,60.80000194560001,0.0,1.41626004532032,1862.6458848046764,60.80000194560001,2.5451978928572,1.9456000622592002,1684,-90.0,97,GPS_Atti,Home Point Recorded. RTH Altitude:  30m.
0.0692765851230987,36.9623911476253,17100,2017-11-02 05:25:01,1863.1458848206762,61.3000019616,0.0,1.43057004577824,1863.1458848206762,61.3000019616,2.5451978928572,1.9456000622592002,1684,-90.0,97,GPS_Atti,
0.069276662970864,36.9623909831688,17200,2017-11-02 05:25:01,1863.6458848366765,61.800001977600004,0.0,1.4448700462358401,1863.6458848366765,61.800001977600004,2.5451978928572,1.9456000622592002,1684,-90.0,97,GPS_Atti,
0.0692766956056959,36.962390760328,17300,2017-11-02 05:25:02,1864.0458848494764,62.200001990400004,0.0,1.4569000466208,1864.0458848494764,62.200001990400004,2.5451978928572,1.9456000622592002,1684,-90.0,97,GPS_Atti,
0.0692767016740925,36.962390580762,17400,2017-11-02 05:25:02,1864.5458848654762,62.7000020064,0.35999970196000003,1.46474004687168,1864.5458848654762,62.7000020064,2.5451978928572,1.9456000622592002,1684,-90.0,97,GPS_Atti,
0.0692767071757905,36.9623903770224,17500,2017-11-02 05:25:02,1864.9458848782763,63.100002019200005,0.0,1.47377004716064,1864.9458848782763,63.100002019200005,2.5451978928572,1.9456000622592002,1684,-90.0,97,GPS_Atti,
0.0692767285865722,36.9623902538611,17600,2017-11-02 05:25:02,1865.445884894276,63.600002035200006,0.0,1.48123004739936,1865.445884894276,63.600002035200006,2.5451978928572,1.9456000622592002,1684,-90.0,97,GPS_Atti,
0.0692767474463964,36.9623901169804,17700,2017-11-02 05:25:02,1865.9458849102764,64.1000020512,0.0,1.4891200476518403,1865.9458849102764,64.1000020512,2.5451978928572,1.9456000622592002,1684,-90.0,97,GPS_Atti,
0.0692767625306731,36.9623900478545,17800,2017-11-02 05:25:02,1866.4458849262762,64.6000020672,0.0,1.49371004779872,1866.4458849262762,64.6000020672,2.5451978928572,1.9456000622592002,1684,-90.0,97,GPS_Atti,
0.0692767811747284,36.9623899680434,17900,2017-11-02 05:25:02,1866.9458849422763,65.10000208320001,0.0,1.49918004797376,1866.9458849422763,65.10000208320001,2.5451978928572,1.9456000622592002,1684,-90.0,97,GPS_Atti,
0.0692767981528855,36.9623899446433,18000,2017-11-02 05:25:02,1867.445884958276,65.60000209920001,0.0,1.50196004806272,1867.445884958276,65.60000209920001,2.5451978928572,1.9456000622592002,1684,-90.0,97,GPS_Atti,
0.069276810628395,36.9623899227073,18100,2017-11-02 05:25:02,1867.8458849710764,66.000002112,0.35999970196000003,1.50421004813472,1867.8458849710764,66.000002112,2.5451978928572,1.9456000622592002,1684,-90.0,97,GPS_Atti,
0.0692768185719448,36.9623899655778,18200,2017-11-02 05:25:02,1868.3458849870763,66.500002128,0.35999970196000003,1.50309004809888,1868.3458849870763,66.500002128,2.5451978928572,1.9456000622592002,1684,-90.0,97,GPS_Atti,
0.0692768529451407,36.9623900112961,18300,2017-11-02 05:25:03,1868.8458850030763,67.000002144,0.35999970196000003,1.5045500481456,1868.8458850030763,67.000002144,2.5451978928572,1.9456000622592002,1684,-89.9,97,GPS_Atti,
0.0692768869413518,36.9623900964982,18400,2017-11-02 05:25:03,1869.3458850190761,67.50000216000001,0.35999970196000003,1.5042700481366402,1869.3458850190761,67.50000216000001,2.5451978928572,1.9456000622592002,1684,-90.0,97,GPS_Atti,
0.069276932050879,36.96239012167,18500,2017-11-02 05:25:03,1869.745885031876,67.9000021728,0.35999970196000003,1.5077900482492799,1869.745885031876,67.9000021728,2.5451978928572,1.9456000622592002,1684,-90.0,97,GPS_Atti,
0.0692769848588751,36.9623901743063,18600,2017-11-02 05:25:03,1870.2458850478763,68.4000021888,0.35999970196000003,1.51093004834976,1870.2458850478763,68.4000021888,2.5451978928572,1.9456000622592002,1684,-90.0,97,GPS_Atti,
0.0692770680055971,36.9623902334212,18700,2017-11-02 05:25:03,1870.7458850638761,68.9000022048,0.35999970196000003,1.5169600485427202,1870.7458850638761,68.9000022048,2.5451978928572,1.9456000622592002,1684,-90.0,97,GPS_Atti,
0.0692771312706464,36.9623903416577,18800,2017-11-02 05:25:03,1871.2458850798762,69.4000022208,0.35999970196000003,1.51896004860672,1871.2458850798762,69.4000022208,2.5451978928572,1.9456000622592002,1684,-90.0,97,GPS_Atti,
0.0692772327552763,36.9623904355945,18900,2017-11-02 05:25:03,1871.645885092676,69.80000223360001,0.35999970196000003,1.52562004881984,1871.645885092676,69.80000223360001,2.5451978928572,1.9456000622592002,1684,-90.0,97,GPS_Atti,
0.0692773318346944,36.9623905543135,19000,2017-11-02 05:25:03,1872.1458851086763,70.30000224960001,0.35999970196000003,1.53118004899776,1872.1458851086763,70.30000224960001,2.5451978928572,1.9456000622592002,1684,-90.0,97,GPS_Atti,
0.0692774381720874,36.9623906485828,19100,2017-11-02 05:25:03,1872.6458851246762,70.8000022656,0.35999970196000003,1.5386100492355201,1872.6458851246762,70.8000022656,2.5451978928572,1.9456000622592002,1684,-90.0,97,GPS_Atti,
0.0692774998982571,36.962390773723,19200,2017-11-02 05:25:03,1873.1458851406762,71.3000022816,0.35999970196000003,1.54034004929088,1873.1458851406762,71.3000022816,2.5451978928572,1.9456000622592002,1684,-90.0,97,GPS_Atti,
0.0692775632642699,36.9623908761924,19300,2017-11-02 05:25:04,1873.6458851566763,71.8000022976,0.35999970196000003,1.5432100493827199,1873.6458851566763,71.8000022976,2.5451978928572,1.9456000622592002,1684,-90.0,97,GPS_Atti,
0.0692776154949827,36.9623909985202,19400,2017-11-02 05:25:04,1874.1458851726763,72.3000023136,0.35999970196000003,1.54432004941824,1874.1458851726763,72.3000023136,2.5451978928572,1.9456000622592002,1684,-90.0,97,GPS_Atti,
0.0692776846533708,36.9623911026249,19500,2017-11-02 05:25:04,1874.6458851886762,72.8000023296,0.35999970196000003,1.5479900495356802,1874.6458851886762,72.8000023296,2.5451978928572,1.9456000622592002,1684,-90.0,97,GPS_Atti,
0.0692777298703753,36.962391224706,19600,2017-11-02 05:25:04,1875.1458852046765,73.3000023456,0.35999970196000003,1.54864004955648,1875.1458852046765,73.3000023456,2.5451978928572,1.9456000622592002,1684,-90.0,97,GPS_Atti,
0.069277767547684,36.9623913461266,19700,2017-11-02 05:25:04,1875.5458852174763,73.7000023584,0.35999970196000003,1.5486300495561602,1875.5458852174763,73.7000023584,2.5451978928572,1.9456000622592002,1684,-89.9,97,GPS_Atti,
0.0692777981152063,36.9623915138762,19800,2017-11-02 05:25:04,1876.0458852334764,74.20000237440001,0.7199994039200001,1.5465500494896,1876.0458852334764,74.20000237440001,2.5451978928572,1.9456000622592002,1684,-90.0,97,GPS_Atti,
0.069277851699156,36.9623917018045,19900,2017-11-02 05:25:04,1876.5458852494762,74.7000023904,0.7199994039200001,1.54656004948992,1876.5458852494762,74.7000023904,2.5451978928572,1.9456000622592002,1684,-89.9,97,GPS_Atti,
0.0692778970138671,36.9623919105241,20000,2017-11-02 05:25:04,1877.0458852654763,75.2000024064,0.7199994039200001,1.5454000494528002,1877.0458852654763,75.2000024064,2.5451978928572,1.9456000622592002,1684,-89.9,97,GPS_Atti,
0.0692779475168008,36.962392079514,20100,2017-11-02 05:25:04,1877.4458852782764,75.60000241920001,0.7199994039200001,1.5462200494790401,1877.4458852782764,75.60000241920001,2.5451978928572,1.9456000622592002,1684,-89.9,97,GPS_Atti,
0.0692779926914657,36.9623922366017,20200,2017-11-02 05:25:04,1877.9458852942762,76.1000024352,0.35999970196000003,1.54702004950464,1877.9458852942762,76.1000024352,2.5451978928572,1.9456000622592002,1684,-90.0,97,GPS_Atti,
0.0692780585652823,36.9623923806979,20300,2017-11-02 05:25:05,1878.4458853102763,76.6000024512,0.35999970196000003,1.5505800496185602,1878.4458853102763,76.6000024512,2.5451978928572,1.9456000622592002,1684,-90.0,97,GPS_Atti,
0.0692781246198561,36.9623925456835,20400,2017-11-02 05:25:05,1878.9458853262763,77.1000024672,0.35999970196000003,1.5538900497244803,1878.9458853262763,77.1000024672,2.5451978928572,1.9456000622592002,1684,-90.0,97,GPS_Atti,
0.0692782034202611,36.9623926883619,20500,2017-11-02 05:25:05,1879.4458853422764,77.6000024832,0.35999970196000003,1.5593000498976,1879.4458853422764,77.6000024832,2.5451978928572,1.9456000622592002,1684,-89.9,97,GPS_Atti,
0.0692782714989909,36.9623928255911,20600,2017-11-02 05:25:05,1879.9458853582762,78.1000024992,0.35999970196000003,1.5638500500432,1879.9458853582762,78.1000024992,2.5451978928572,1.9456000622592002,1684,-90.0,97,GPS_Atti,
0.0692783431114441,36.9623929282178,20700,2017-11-02 05:25:05,1880.445885374276,78.6000025152,0.35999970196000003,1.5696200502278401,1880.445885374276,78.6000025152,2.5451978928572,1.9456000622592002,1684,-90.0,97,GPS_Atti,
0.0692784034664639,36.962393020605,20800,2017-11-02 05:25:05,1880.9458853902763,79.1000025312,0.35999970196000003,1.5744600503827202,1880.9458853902763,79.1000025312,2.5451978928572,1.9456000622592002,1684,-90.0,97,GPS_Atti,
0.0692784608853992,36.9623930750101,20900,2017-11-02 05:25:05,1881.4458854062761,79.60000254719999,0.0,1.5797500505520001,1881.4458854062761,79.60000254719999,2.5451978928572,1.9456000622592002,1684,-90.0,97,GPS_Atti,
0.0692785174591721,36.962393119121,21000,2017-11-02 05:25:05,1881.9458854222762,80.1000025632,0.0,1.58516005072512,1881.9458854222762,80.1000025632,2.5451978928572,1.9456000622592002,1684,-90.0,97,GPS_Atti,
0.0692786035224374,36.9623931643858,21100,2017-11-02 05:25:05,1882.5458854414762,80.7000025824,0.0,1.59381005100192,1882.5458854414762,80.7000025824,2.5451978928572,1.9456000622592002,1684,-90.0,97,GPS_Atti,
0.0692786930526599,36.9623932347492,21200,2017-11-02 05:25:05,1883.0458854574763,81.2000025984,0.0,1.60244005127808,1883.0458854574763,81.2000025984,2.5451978928572,1.9456000622592002,1684,-90.0,97,GPS_Atti,
0.069278816529426,36.9623933226654,21300,2017-11-02 05:25:06,1883.6458854766763,81.8000026176,0.35999970196000003,1.61457005166624,1883.6458854766763,81.8000026176,2.5451978928572,1.9456000622592002,1684,-90.0,97,GPS_Atti,
0.069278943611567,36.9623934194644,21400,2017-11-02 05:25:06,1884.1458854926761,82.3000026336,0.35999970196000003,1.62706005206592,1884.1458854926761,82.3000026336,2.5451978928572,1.9456000622592002,1684,-90.0,97,GPS_Atti,
0.0692790994145749,36.9623935050495,21500,2017-11-02 05:25:06,1884.7458855118764,82.9000026528,0.0,1.6429700525750401,1884.7458855118764,82.9000026528,2.5451978928572,1.9456000622592002,1684,-90.0,97,GPS_Atti,
0.069279233968017,36.9623935683946,21600,2017-11-02 05:25:06,1885.2458855278762,83.4000026688,0.0,1.6569200530214403,1885.2458855278762,83.4000026688,2.5451978928572,1.9456000622592002,1684,-90.0,97,GPS_Atti,
0.069279375577507,36.9623936054099,21700,2017-11-02 05:25:06,1885.7458855438763,83.9000026848,0.0,1.6720400535052802,1885.7458855438763,83.9000026848,2.5451978928572,1.9456000622592002,1684,-90.0,97,GPS_Atti,
0.069279470515792,36.9623936162856,21800,2017-11-02 05:25:06,1886.2458855598763,84.4000027008,0.0,1.6823800538361602,1886.2458855598763,84.4000027008,2.5451978928572,1.9456000622592002,1684,-89.9,97,GPS_Atti,
0.0692795470070634,36.9623935990951,21900,2017-11-02 05:25:06,1886.7458855758764,84.9000027168,0.0,1.6910600541139202,1886.7458855758764,84.9000027168,2.5451978928572,1.9456000622592002,1684,-90.0,97,GPS_Atti,
0.0692796009118166,36.9623935949819,22000,2017-11-02 05:25:06,1887.2458855918762,85.4000027328,0.0,1.69706005430592,1887.2458855918762,85.4000027328,2.5451978928572,1.9456000622592002,1684,-89.9,97,GPS_Atti,
0.069279670977248,36.9623935971498,22100,2017-11-02 05:25:06,1887.8458856110763,86.000002752,0.0,1.70477005455264,1887.8458856110763,86.000002752,2.5451978928572,1.9456000622592002,1684,-90.0,97,GPS_Atti,
0.069279748193177,36.9623936492723,22200,2017-11-02 05:25:06,1888.3458856270763,86.500002768,0.35999970196000003,1.7126200548038402,1888.3458856270763,86.500002768,2.5451978928572,1.9456000622592002,1684,-89.9,97,GPS_Atti,
0.0692798900111078,36.9623937165389,22300,2017-11-02 05:25:07,1888.8458856430761,87.000002784,0.35999970196000003,1.72746005527872,1888.8458856430761,87.000002784,2.5451978928572,1.9456000622592002,1684,-89.9,97,GPS_Atti,
0.0692799972653148,36.9623937798846,22400,2017-11-02 05:25:07,1889.4458856622762,87.60000280320001,0.0,1.73856005563392,1889.4458856622762,87.60000280320001,2.5451978928572,1.9456000622592002,1684,-89.9,97,GPS_Atti,
0.069280106984986,36.9623937718036,22500,2017-11-02 05:25:07,1889.9458856782762,88.10000281920001,0.0,1.75079005602528,1889.9458856782762,88.10000281920001,2.5451978928572,1.9456000622592002,1684,-90.0,97,GPS_Atti,
0.0692801682535629,36.9623937243714,22600,2017-11-02 05:25:07,1890.345885691076,88.50000283199999,0.0,1.7581200562598402,1890.345885691076,88.50000283199999,2.5451978928572,1.9456000622592002,1684,-90.0,97,GPS_Atti,
0.069280220984208,36.962393616131,22700,2017-11-02 05:25:07,1890.8458857070764,89.000002848,0.0,1.7652800564889601,1890.8458857070764,89.000002848,2.5451978928572,1.9456000622592002,1684,-90.0,97,GPS_Atti,
0.0692802211486808,36.9623935258264,22800,2017-11-02 05:25:07,1891.2458857198765,89.4000028608,0.35999970196000003,1.76646005652672,1891.2458857198765,89.4000028608,2.5451978928572,1.9456000622592002,1684,-90.0,97,GPS_Atti,
0.069280260543998,36.962393425128,22900,2017-11-02 05:25:07,1891.7458857358763,89.9000028768,0.35999970196000003,1.77217005670944,1891.7458857358763,89.9000028768,2.5451978928572,1.9456000622592002,1684,-89.9,97,GPS_Atti,
0.0692802866300424,36.9623933779079,23000,2017-11-02 05:25:07,1892.1458857486762,90.30000288960001,0.35999970196000003,1.7757100568227202,1892.1458857486762,90.30000288960001,2.5451978928572,1.9456000622592002,1677,-90.0,97,GPS_Atti,
0.0692803290461232,36.9623933737807,23200,2017-11-02 05:25:07,1893.045885777476,91.2000029184,0.0,1.7804500569744002,1893.045885777476,91.2000029184,2.5451978928572,1.9456000622592002,1421,-90.0,97,GPS_Atti,
0.0692804273927415,36.9623933802078,23300,2017-11-02 05:25:08,1893.4458857902762,91.60000293120001,0.0,1.7912100573187202,1893.4458857902762,91.60000293120001,2.5451978928572,1.9456000622592002,1216,-89.9,97,GPS_Atti,
0.0692805532209807,36.9623933816851,23400,2017-11-02 05:25:08,1893.845885803076,92.00000294400002,0.0,1.8050700577622403,1893.845885803076,92.00000294400002,2.5451978928572,1.9456000622592002,1095,-90.0,97,GPS_Atti,
0.0692807407737611,36.9623933553626,23500,2017-11-02 05:25:08,1894.0458858094762,92.2000029504,0.0,1.8261300584361602,1894.0458858094762,92.2000029504,2.5451978928572,1.9456000622592002,1024,-90.0,97,GPS_Atti,
0.0692809695701427,36.9623933522196,23600,2017-11-02 05:25:08,1894.2458858158761,92.4000029568,0.35999970196000003,1.8514200592454402,1894.2458858158761,92.4000029568,2.5451978928572,1.9456000622592002,1024,-90.0,97,GPS_Atti,
0.0692813421451016,36.9623933428436,23700,2017-11-02 05:25:08,1894.3458858190763,92.50000296000002,0.7199994039200001,1.89267006056544,1894.3458858190763,92.50000296000002,2.5451978928572,1.9456000622592002,1024,-90.0,97,GPS_Atti,
0.0692817291366753,36.9623933306602,23800,2017-11-02 05:25:08,1894.3458858190763,92.50000296000002,0.7199994039200001,1.9355500619376,1894.3458858190763,92.50000296000002,2.5451978928572,1.9456000622592002,1024,-89.9,97,GPS_Atti,
0.0692821097121796,36.9623932623732,23900,2017-11-02 05:25:08,1894.3458858190763,92.50000296000002,0.7199994039200001,1.97848006331136,1894.3458858190763,92.50000296000002,2.5451978928572,1.97848006331136,1012,-89.9,97,GPS_Atti,
0.0692824012948479,36.9623931856983,24000,2017-11-02 05:25:08,1894.3458858190763,92.50000296000002,0.7199994039200001,2.0117000643744003,1894.3458858190763,92.50000296000002,2.5451978928572,2.0117000643744003,979,-89.9,97,GPS_Atti,
0.069282665739497,36.9623930895707,24100,2017-11-02 05:25:08,1894.2458858158761,92.4000029568,0.35999970196000003,2.04222006535104,1894.3458858190763,92.50000296000002,2.5451978928572,2.04222006535104,901,-89.9,97,GPS_Atti,
0.0692828427969559,36.9623930248313,24200,2017-11-02 05:25:08,1894.2458858158761,92.4000029568,0.35999970196000003,2.06266006600512,1894.3458858190763,92.50000296000002,2.5451978928572,2.06266006600512,791,-89.9,97,GPS_Atti,
0.0692828957132436,36.9623929550959,24300,2017-11-02 05:25:09,1894.2458858158761,92.4000029568,0.0,2.06951006622432,1894.3458858190763,92.50000296000002,2.5451978928572,2.06951006622432,720,-90.0,97,GPS_Atti,
0.0692828722017691,36.9623929107693,24400,2017-11-02 05:25:09,1894.1458858126762,92.3000029536,0.0,2.06758006616256,1894.3458858190763,92.50000296000002,2.5451978928572,2.06951006622432,782,-89.9,97,GPS_Atti,
0.0692827780679355,36.9623928676512,24500,2017-11-02 05:25:09,1894.0458858094762,92.2000029504,0.0,2.05786006585152,1894.3458858190763,92.50000296000002,2.5451978928572,2.06951006622432,951,-89.9,97,GPS_Atti,
0.0692826058436983,36.9623928517329,24600,2017-11-02 05:25:09,1893.9458858062762,92.10000294720001,0.35999970196000003,2.03914006525248,1894.3458858190763,92.50000296000002,2.5451978928572,2.06951006622432,1025,-89.9,97,GPS_Atti,
0.0692823424282258,36.9623927916376,24700,2017-11-02 05:25:09,1893.9458858062762,92.10000294720001,0.7199994039200001,2.01109006435488,1894.3458858190763,92.50000296000002,2.5451978928572,2.06951006622432,1030,-90.0,97,GPS_Atti,
0.0692820660373116,36.962392715885,24800,2017-11-02 05:25:09,1893.845885803076,92.00000294400002,0.7199994039200001,1.98194006342208,1894.3458858190763,92.50000296000002,2.5451978928572,2.06951006622432,1024,-90.0,97,GPS_Atti,
0.0692817674213936,36.962392553185,24900,2017-11-02 05:25:09,1893.7458857998763,91.9000029408,0.7199994039200001,1.9519900624636801,1894.3458858190763,92.50000296000002,2.5451978928572,2.06951006622432,872,-90.0,97,GPS_Atti,
0.0692814195369026,36.9623923912671,25000,2017-11-02 05:25:09,1893.7458857998763,91.9000029408,1.07999910588,1.91691006134112,1894.3458858190763,92.50000296000002,2.5451978928572,2.06951006622432,770,-90.0,97,GPS_Atti,
0.0692810490202968,36.9623921756088,25100,2017-11-02 05:25:09,1893.7458857998763,91.9000029408,1.07999910588,1.8808000601856,1894.3458858190763,92.50000296000002,2.5451978928572,2.06951006622432,680,-90.0,97,GPS_Atti,
0.0692806702230534,36.9623920226783,25200,2017-11-02 05:25:09,1893.7458857998763,91.9000029408,1.07999910588,1.8428800589721601,1894.3458858190763,92.50000296000002,2.5451978928572,2.06951006622432,658,-89.9,97,GPS_Atti,
0.069280281988977,36.9623918484737,25300,2017-11-02 05:25:10,1893.6458857966763,91.8000029376,1.4399988078400001,1.8048000577536,1894.3458858190763,92.50000296000002,2.5451978928572,2.06951006622432,664,-89.9,97,GPS_Atti,
0.0692798919277864,36.962391723422,25400,2017-11-02 05:25:10,1893.5458857934764,91.7000029344,1.4399988078400001,1.76569005650208,1894.3458858190763,92.50000296000002,2.5451978928572,2.06951006622432,772,-89.9,97,GPS_Atti,
0.0692795164590825,36.9623915564702,25500,2017-11-02 05:25:10,1893.3458857870762,91.50000292800001,1.4399988078400001,1.72962005534784,1894.3458858190763,92.50000296000002,2.5451978928572,2.06951006622432,948,-89.9,97,GPS_Atti,
0.0692791527607718,36.9623914241569,25600,2017-11-02 05:25:10,1893.2458857838762,91.4000029248,1.07999910588,1.69426005421632,1894.3458858190763,92.50000296000002,2.5451978928572,2.06951006622432,925,-89.9,97,GPS_Atti,
0.069278872836134,36.9623912338117,25700,2017-11-02 05:25:10,1893.1458857806763,91.3000029216,1.07999910588,1.6700100534403202,1894.3458858190763,92.50000296000002,2.5451978928572,2.06951006622432,785,-90.0,97,GPS_Atti,
0.0692786734282813,36.9623910650611,25800,2017-11-02 05:25:10,1893.045885777476,91.2000029184,0.7199994039200001,1.65411005293152,1894.3458858190763,92.50000296000002,2.5451978928572,2.06951006622432,655,-90.0,97,GPS_Atti,
0.069278533413038,36.962390848836,25900,2017-11-02 05:25:10,1893.045885777476,91.2000029184,0.7199994039200001,1.64648005268736,1894.3458858190763,92.50000296000002,2.5451978928572,2.06951006622432,597,-90.0,97,GPS_Atti,
0.0692783723029311,36.9623906888957,26000,2017-11-02 05:25:10,1892.9458857742763,91.10000291520001,0.7199994039200001,1.6350800523225602,1894.3458858190763,92.50000296000002,2.5451978928572,2.06951006622432,601,-89.9,97,GPS_Atti,
0.0692781994452293,36.9623905561174,26100,2017-11-02 05:25:10,1892.8458857710764,91.00000291200001,0.7199994039200001,1.62174005189568,1894.3458858190763,92.50000296000002,2.5451978928572,2.06951006622432,601,-89.9,97,GPS_Atti,
0.0692780308003121,36.9623905181736,26200,2017-11-02 05:25:10,1892.7458857678764,90.9000029088,0.8063993323904,1.605500051376,1894.3458858190763,92.50000296000002,2.5451978928572,2.06951006622432,900,-89.9,97,GPS_Atti,
0.069277926035996,36.9623904627902,26300,2017-11-02 05:25:11,1892.6458857646762,90.8000029056,0.5075995797636,1.59666005109312,1894.3458858190763,92.50000296000002,2.5451978928572,2.06951006622432,1009,-89.9,97,GPS_Atti,
0.0692778274939644,36.9623904282975,26400,2017-11-02 05:25:11,1892.4458857582763,90.6000028992,0.5075995797636,1.5877100508067201,1894.3458858190763,92.50000296000002,2.5451978928572,2.06951006622432,1024,-89.9,97,GPS_Atti,
0.0692778133346439,36.9623903440927,26500,2017-11-02 05:25:11,1892.3458857550763,90.50000289600001,0.0,1.5895300508649601,1894.3458858190763,92.50000296000002,2.5451978928572,2.06951006622432,1017,-90.0,97,GPS_Atti,
0.0692778836492272,36.9623902549365,26600,2017-11-02 05:25:11,1892.2458857518761,90.4000028928,0.0,1.60038005121216,1894.3458858190763,92.50000296000002,2.5451978928572,2.06951006622432,828,-90.0,97,GPS_Atti,
0.0692779263063177,36.962390084808,26700,2017-11-02 05:25:11,1892.2458857518761,90.4000028928,0.0,1.6116700515734401,1894.3458858190763,92.50000296000002,2.5451978928572,2.06951006622432,647,-90.0,97,GPS_Atti,
0.0692779222433499,36.9623899472909,26800,2017-11-02 05:25:11,1892.2458857518761,90.4000028928,0.0,1.61693005174176,1894.3458858190763,92.50000296000002,2.5451978928572,2.06951006622432,680,-90.0,97,GPS_Atti,
0.0692779280927208,36.9623898079666,26900,2017-11-02 05:25:11,1892.2458857518761,90.4000028928,0.0,1.6234200519494402,1894.3458858190763,92.50000296000002,2.5451978928572,2.06951006622432,914,-89.9,97,GPS_Atti,
0.0692779265522128,36.9623897331341,27000,2017-11-02 05:25:11,1892.1458857486762,90.30000288960001,0.0,1.6264800520473601,1894.3458858190763,92.50000296000002,2.5451978928572,2.06951006622432,1024,-89.9,97,GPS_Atti,
0.0692778546108139,36.962389647931,27100,2017-11-02 05:25:11,1892.0458857454764,90.2000028864,0.35999970196000003,1.62283005193056,1894.3458858190763,92.50000296000002,2.5451978928572,2.06951006622432,881,-89.9,97,GPS_Atti,
0.0692778086561243,36.9623895896774,27200,2017-11-02 05:25:11,1891.9458857422762,90.1000028832,0.0,1.6207200518630402,1894.3458858190763,92.50000296000002,2.5451978928572,2.06951006622432,635,-90.0,97,GPS_Atti,
0.069277856845039,36.9623894641747,27300,2017-11-02 05:25:12,1891.8458857390763,90.00000288,0.0,1.63124005219968,1894.3458858190763,92.50000296000002,2.5451978928572,2.06951006622432,605,-90.0,97,GPS_Atti,
0.0692779396139621,36.9623893447191,27400,2017-11-02 05:25:12,1891.7458857358763,89.9000028768,0.0,1.6450600526419201,1894.3458858190763,92.50000296000002,2.5451978928572,2.06951006622432,829,-90.0,97,GPS_Atti,
0.0692780394164093,36.9623891792081,27500,2017-11-02 05:25:12,1891.6458857326763,89.80000287360001,0.0,1.66278005320896,1894.3458858190763,92.50000296000002,2.5451978928572,2.06951006622432,963,-89.9,97,GPS_Atti,
0.0692780801226239,36.9623890647007,27600,2017-11-02 05:25:12,1891.5458857294761,89.70000287040001,0.0,1.6722400535116801,1894.3458858190763,92.50000296000002,2.5451978928572,2.06951006622432,890,-89.9,97,GPS_Atti,
0.0692781070668583,36.9623889112706,27700,2017-11-02 05:25:12,1891.4458857262762,89.6000028672,0.0,1.6822200538310401,1894.3458858190763,92.50000296000002,2.5451978928572,2.06951006622432,716,-90.0,97,GPS_Atti,
0.0692782213933975,36.9623887866548,27800,2017-11-02 05:25:12,1891.3458857230762,89.500002864,0.0,1.69967005438944,1894.3458858190763,92.50000296000002,2.5451978928572,2.06951006622432,601,-90.0,97,GPS_Atti,
0.0692784055199318,36.9623885661742,27900,2017-11-02 05:25:12,1891.3458857230762,89.500002864,0.0,1.7288000553216,1894.3458858190763,92.50000296000002,2.5451978928572,2.06951006622432,576,-90.0,97,GPS_Atti,
0.0692785722449135,36.9623883668898,28000,2017-11-02 05:25:12,1891.2458857198765,89.4000028608,0.0,1.7552500561680002,1894.3458858190763,92.50000296000002,2.5451978928572,2.06951006622432,551,-89.9,97,GPS_Atti,
0.0692786979477625,36.9623881787372,28100,2017-11-02 05:25:12,1891.145885716676,89.3000028576,0.0,1.7771400568684803,1894.3458858190763,92.50000296000002,2.5451978928572,2.06951006622432,539,-89.9,97,GPS_Atti,
0.0692787804349648,36.9623880602302,28200,2017-11-02 05:25:12,1890.9458857102763,89.1000028512,0.0,1.7913000573216002,1894.3458858190763,92.50000296000002,2.5451978928572,2.06951006622432,509,-90.0,97,GPS_Atti,
0.0692788614044572,36.9623879472484,28300,2017-11-02 05:25:13,1890.7458857038762,88.9000028448,0.0,1.8050700577622403,1894.3458858190763,92.50000296000002,2.5451978928572,2.06951006622432,498,-89.9,97,GPS_Atti,
0.0692789371336168,36.9623879054929,28400,2017-11-02 05:25:13,1890.5458856974763,88.70000283840001,0.0,1.81468005806976,1894.3458858190763,92.50000296000002,2.5451978928572,2.06951006622432,502,-89.9,97,GPS_Atti,
0.0692790435296338,36.9623878274749,28500,2017-11-02 05:25:13,1890.2458856878764,88.4000028288,0.0,1.82918005853376,1894.3458858190763,92.50000296000002,2.5451978928572,2.06951006622432,514,-89.9,97,GPS_Atti,
0.0692791274824356,36.9623877911327,28600,2017-11-02 05:25:13,1890.0458856814762,88.20000282240001,0.35999970196000003,1.83933005885856,1894.3458858190763,92.50000296000002,2.5451978928572,2.06951006622432,514,-89.9,97,GPS_Atti,
0.0692792063789188,36.9623876747219,28700,2017-11-02 05:25:13,1889.7458856718763,87.9000028128,0.0,1.85309005929888,1894.3458858190763,92.50000296000002,2.5451978928572,2.06951006622432,543,-89.9,97,GPS_Atti,
0.0692792425157195,36.9623875754247,28800,2017-11-02 05:25:13,1889.4458856622762,87.60000280320001,0.0,1.8618000595776,1894.3458858190763,92.50000296000002,2.5451978928572,2.06951006622432,655,-89.9,97,GPS_Atti,
0.0692792637701706,36.9623873898115,28900,2017-11-02 05:25:13,1889.1458856526763,87.3000027936,0.0,1.8736300599561602,1894.3458858190763,92.50000296000002,2.5451978928572,2.06951006622432,706,-89.9,96,GPS_Atti,
0.0692792463051087,36.9623872327232,29000,2017-11-02 05:25:13,1888.9458856462763,87.10000278720001,0.35999970196000003,1.88031006016992,1894.3458858190763,92.50000296000002,2.5451978928572,2.06951006622432,888,-90.0,96,GPS_Atti,
0.0692792328329915,36.9623869852405,29100,2017-11-02 05:25:13,1888.7458856398762,86.90000278080001,0.0,1.8924800605593601,1894.3458858190763,92.50000296000002,2.5451978928572,2.06951006622432,1024,-89.9,96,GPS_Atti,
0.0692792102692715,36.9623867878178,29200,2017-11-02 05:25:13,1888.5458856334765,86.7000027744,0.0,1.9012800608409601,1894.3458858190763,92.50000296000002,2.5451978928572,2.06951006622432,1024,-90.0,96,GPS_Atti,
0.0692792175044482,36.9623865313595,29300,2017-11-02 05:25:14,1888.4458856302763,86.60000277120001,0.0,1.9165200613286402,1894.3458858190763,92.50000296000002,2.5451978928572,2.06951006622432,1024,-90.0,96,GPS_Atti,
0.0692792301981691,36.9623863422012,29400,2017-11-02 05:25:14,1888.4458856302763,86.60000277120001,0.0,1.9286500617168,1894.3458858190763,92.50000296000002,2.5451978928572,2.06951006622432,1024,-90.0,96,GPS_Atti,
0.0692792404052561,36.9623861002261,29500,2017-11-02 05:25:14,1888.4458856302763,86.60000277120001,0.35999970196000003,1.9438200622022401,1894.3458858190763,92.50000296000002,2.5451978928572,2.06951006622432,1024,-90.0,96,GPS_Atti,
0.0692791944863923,36.9623859515407,29600,2017-11-02 05:25:14,1888.5458856334765,86.7000027744,0.35999970196000003,1.9483900623484802,1894.3458858190763,92.50000296000002,2.5451978928572,2.06951006622432,1024,-89.9,96,GPS_Atti,
0.0692791178762445,36.9623857885632,29700,2017-11-02 05:25:14,1888.5458856334765,86.7000027744,0.35999970196000003,1.95111006243552,1894.3458858190763,92.50000296000002,2.5451978928572,2.06951006622432,962,-89.9,96,GPS_Atti,
0.0692790278281768,36.9623857010824,29800,2017-11-02 05:25:14,1888.5458856334765,86.7000027744,0.35999970196000003,1.94812006233984,1894.3458858190763,92.50000296000002,2.5451978928572,2.06951006622432,947,-89.9,96,GPS_Atti,
0.0692789714758723,36.9623855856961,29900,2017-11-02 05:25:14,1888.6458856366762,86.8000027776,0.35999970196000003,1.95007006240224,1894.3458858190763,92.50000296000002,2.5451978928572,2.06951006622432,873,-89.9,96,GPS_Atti,
