latitude,longitude,time_millisecond,datetime_utc,altitude_m,ascent_m,speed_kph,distance_m,max_altitude_m,max_ascent_m,max_speed_kph,max_distance_m,rc_throttle,gimbal_pitch_degrees,battery_percent,flycState,message
0.35052524290776593,36.8971299332301,10100,2018-04-17 05:34:13,1765.9788163113105,0.0,0.0,0.0,1765.9788163113105,0.0,0.0,0.0,364,0.0,99,Motors_Started,
0.350525236609759,36.8971299780003,10200,2018-04-17 05:34:14,1765.9788163113105,0.0,0.0,0.0050276501608848,1765.9788163113105,0.0,0.0,0.0050276501608848,364,0.0,99,Motors_Started,
0.350525227257808,36.8971299969499,10300,2018-04-17 05:34:14,1765.9788163113105,0.0,0.0,0.007296500233488001,1765.9788163113105,0.0,0.0,0.007296500233488001,364,0.0,99,Motors_Started,Setting new Return-To-Home altitude to 30m (98 ft). Setting new Maximum Flight Altitude to 150m (492 ft)
0.350525221725373,36.897130012598794,10400,2018-04-17 05:34:14,1765.9788163113105,0.0,0.0,0.00913506029232192,1765.9788163113105,0.0,0.0,0.00913506029232192,364,0.0,99,Motors_Started,
0.35052521442098805,36.8971300112338,10500,2018-04-17 05:34:14,1765.9788163113105,0.0,0.0,0.009234690295510078,1765.9788163113105,0.0,0.0,0.009234690295510078,364,0.0,99,Motors_Started,
0.350525210863856,36.8971300118451,10600,2018-04-17 05:34:14,1765.9788163113105,0.0,0.0,0.00944067030210144,1765.9788163113105,0.0,0.0,0.00944067030210144,364,0.0,99,Motors_Started,
0.350525205421799,36.8971300283687,10700,2018-04-17 05:34:14,1765.9788163113105,0.0,0.0,0.011371500363888001,1765.9788163113105,0.0,0.0,0.011371500363888001,364,0.0,99,Motors_Started,
0.350525202939236,36.897130052745105,10800,2018-04-17 05:34:14,1765.9788163113105,0.0,0.0,0.014014100448451201,1765.9788163113105,0.0,0.0,0.014014100448451201,364,0.0,99,Motors_Started,
0.350525230168856,36.8971300647315,10900,2018-04-17 05:34:14,1765.9788163113105,0.0,0.0,0.0146919004701408,1765.9788163113105,0.0,0.0,0.0146919004701408,364,0.0,99,Motors_Started,
0.35052525791550604,36.897130075041396,11000,2018-04-17 05:34:14,1765.9788163113105,0.0,0.0,0.0158581005074592,1765.9788163113105,0.0,0.0,0.0158581005074592,364,0.0,99,Motors_Started,
0.350525283007385,36.8971300735929,11100,2018-04-17 05:34:14,1765.9788163113105,0.0,0.0,0.0162334005194688,1765.9788163113105,0.0,0.0,0.0162334005194688,364,0.0,99,Motors_Started,
0.350525299890482,36.8971300740768,11200,2018-04-17 05:34:15,1765.9788163113105,0.0,0.0,0.016896000540672,1765.9788163113105,0.0,0.0,0.016896000540672,388,0.0,99,Motors_Started,
0.350525311555637,36.8971300950658,11300,2018-04-17 05:34:15,1765.9788163113105,0.0,0.0,0.019549000625568004,1765.9788163113105,0.0,0.0,0.019549000625568004,870,0.0,99,Motors_Started,
0.3505253209039231,36.8971301198298,11400,2018-04-17 05:34:15,1765.9788163113105,0.0,0.0,0.022490500719696004,1765.9788163113105,0.0,0.0,0.022490500719696004,1024,0.0,99,Motors_Started,
0.35052532456609004,36.897130135886606,11500,2018-04-17 05:34:15,1765.9788163113105,0.0,0.0,0.024297000777504,1765.9788163113105,0.0,0.0,0.024297000777504,1024,0.0,99,Motors_Started,
0.350525354242039,36.897130147450206,11700,2018-04-17 05:34:15,1765.9788163113105,0.0,0.0,0.026847400859116802,1765.9788163113105,0.0,0.0,0.026847400859116802,1024,0.0,99,Assisted_Takeoff,
0.350525382213618,36.8971301489865,11800,2018-04-17 05:34:15,1765.9788163113105,0.0,0.0,0.028559700913910406,1765.9788163113105,0.0,0.0,0.028559700913910406,1024,0.0,99,Assisted_Takeoff,
0.350525403778491,36.8971301434547,11900,2018-04-17 05:34:15,1765.9788163113105,0.0,0.0,0.029437500942000004,1765.9788163113105,0.0,0.0,0.029437500942000004,1024,0.0,99,Assisted_Takeoff,
0.350525418416982,36.897130140073706,12000,2018-04-17 05:34:15,1765.9788163113105,0.0,0.0,0.0301666009653312,1765.9788163113105,0.0,0.0,0.0301666009653312,1024,0.0,99,Assisted_Takeoff,
0.350525425401989,36.8971301619546,12100,2018-04-17 05:34:15,1765.9788163113105,0.0,0.0,0.0325393010412576,1765.9788163113105,0.0,0.0,0.0325393010412576,1024,0.0,99,Assisted_Takeoff,
0.350525430831832,36.8971301869573,12200,2018-04-17 05:34:15,1765.9788163113105,0.0,0.0,0.035112001123584,1765.9788163113105,0.0,0.0,0.035112001123584,1024,0.0,99,Assisted_Takeoff,
0.35052542913377194,36.8971302070471,12300,2018-04-17 05:34:16,1765.9788163113105,0.0,0.0,0.0368247011783904,1765.9788163113105,0.0,0.0,0.0368247011783904,1024,0.0,99,Assisted_Takeoff,
0.350525429116469,36.897130219876104,12400,2018-04-17 05:34:16,1765.9788163113105,0.0,0.0,0.0380118012163776,1765.9788163113105,0.0,0.0,0.0380118012163776,1024,0.0,99,Assisted_Takeoff,
0.350525423679705,36.8971302561929,12500,2018-04-17 05:34:16,1765.9788163113105,0.0,0.0,0.0411582013170624,1765.9788163113105,0.0,0.0,0.0411582013170624,1024,0.0,99,Assisted_Takeoff,
0.35052542078636795,36.897130289952,12600,2018-04-17 05:34:16,1765.9788163113105,0.0,0.0,0.044327401418476804,1765.9788163113105,0.0,0.0,0.044327401418476804,1024,0.0,99,Assisted_Takeoff,
0.35052544348199205,36.897130316146296,12700,2018-04-17 05:34:16,1765.9788163113105,0.0,0.0,0.04807000153824001,1765.9788163113105,0.0,0.0,0.04807000153824001,1024,0.0,99,Assisted_Takeoff,
0.350525490245814,36.897130342284896,12900,2018-04-17 05:34:16,1765.9788163113105,0.0,0.0,0.0531579017010528,1765.9788163113105,0.0,0.0,0.0531579017010528,1024,0.0,99,Assisted_Takeoff,
0.350525503960977,36.8971303481497,13000,2018-04-17 05:34:16,1765.9788163113105,0.0,0.0,0.0545137017444384,1765.9788163113105,0.0,0.0,0.0545137017444384,1024,0.0,99,Assisted_Takeoff,
0.35052551669154103,36.897130343639205,13200,2018-04-17 05:34:17,1765.9788163113105,0.0,0.0,0.0548627017556064,1765.9788163113105,0.0,0.0,0.0548627017556064,1024,0.0,99,Assisted_Takeoff,
0.350525515835794,36.8971303297225,13400,2018-04-17 05:34:17,1765.9788163113105,0.0,0.0,0.05352820171290241,1765.9788163113105,0.0,0.0,0.0548627017556064,1024,0.0,99,Assisted_Takeoff,
0.35052556695773995,36.8971303733943,13600,2018-04-17 05:34:17,1765.9788163113105,0.0,0.0,0.06078260194504321,1765.9788163113105,0.0,0.0,0.06078260194504321,1024,0.0,99,Assisted_Takeoff,
0.350525588528516,36.897130363428104,13700,2018-04-17 05:34:17,1765.9788163113105,0.0,0.0,0.0613669019637408,1765.9788163113105,0.0,0.0,0.0613669019637408,1024,0.0,99,Assisted_Takeoff,
0.350525602319808,36.897130345373604,13800,2018-04-17 05:34:17,1765.9788163113105,0.0,0.0,0.0608118019459776,1765.9788163113105,0.0,0.0,0.0613669019637408,1024,0.0,99,Assisted_Takeoff,
0.35052560988759496,36.89713032427429,13900,2018-04-17 05:34:17,1765.9788163113105,0.0,0.0,0.059636301908361604,1765.9788163113105,0.0,0.0,0.0613669019637408,1024,0.0,99,Assisted_Takeoff,
0.350525614966712,36.8971303090247,14000,2018-04-17 05:34:17,1765.9788163113105,0.0,0.0,0.0588073018818336,1765.9788163113105,0.0,0.0,0.0613669019637408,1029,0.0,99,Assisted_Takeoff,
0.350525614447849,36.897130294347896,14100,2018-04-17 05:34:17,1765.9788163113105,0.0,0.0,0.0576176018437632,1765.9788163113105,0.0,0.0,0.0613669019637408,1112,0.0,99,Assisted_Takeoff,
0.3505256136556111,36.8971302826891,14200,2018-04-17 05:34:17,1765.9788163113105,0.0,0.0,0.056657401813036794,1765.9788163113105,0.0,0.0,0.0613669019637408,1235,0.0,99,Assisted_Takeoff,
0.35052560842158803,36.8971302742249,14300,2018-04-17 05:34:18,1765.9788163113105,0.0,0.0,0.055589001778848006,1765.9788163113105,0.0,0.0,0.0613669019637408,1444,0.0,99,Assisted_Takeoff,
0.35052560438019703,36.89713026668579,14400,2018-04-17 05:34:18,1765.9788163113105,0.0,0.0,0.0546893017500576,1765.9788163113105,0.0,0.0,0.0613669019637408,1603,0.0,99,Assisted_Takeoff,
0.35052559729015603,36.8971302639793,14500,2018-04-17 05:34:18,1765.9788163113105,0.0,0.0,0.053906601725011195,1765.9788163113105,0.0,0.0,0.0613669019637408,1684,0.0,99,Assisted_Takeoff,
0.35052558970812,36.897130259668,14600,2018-04-17 05:34:18,1765.9788163113105,0.0,0.0,0.0529636016948352,1765.9788163113105,0.0,0.0,0.0613669019637408,1684,0.0,99,Assisted_Takeoff,
0.350525580196786,36.8971302572024,14700,2018-04-17 05:34:18,1765.9788163113105,0.0,0.0,0.0520081016642592,1765.9788163113105,0.0,0.0,0.0613669019637408,1684,0.0,99,Assisted_Takeoff,
0.350525582818784,36.897130268407295,14800,2018-04-17 05:34:18,1765.9788163113105,0.0,0.0,0.0530861016987552,1765.9788163113105,0.0,0.0,0.0613669019637408,1684,0.0,99,P-GPS,Obstacle Avoided. Revise Flight Route
0.35052561146942496,36.897130338718796,14900,2018-04-17 05:34:18,1765.9788163113105,0.0,0.0,0.06093570194994241,1765.9788163113105,0.0,0.0,0.0613669019637408,1684,0.0,99,P-GPS,
0.350525661895618,36.897130429241,15000,2018-04-17 05:34:18,1765.9788163113105,0.0,0.0,0.0722042023105344,1765.9788163113105,0.0,0.0,0.0722042023105344,1684,0.0,99,P-GPS,
0.350525741699755,36.89713054566089,15100,2018-04-17 05:34:18,1766.0788163145107,0.10000000320000002,0.0,0.08783530281072961,1766.0788163145107,0.10000000320000002,0.0,0.08783530281072961,1684,0.0,99,P-GPS,
0.350525816658661,36.8971306352271,15200,2018-04-17 05:34:19,1766.2788163209104,0.3000000096,0.0,0.10082200322630401,1766.2788163209104,0.3000000096,0.0,0.10082200322630401,1684,0.0,99,P-GPS,
0.350525881916518,36.8971306964942,15300,2018-04-17 05:34:19,1766.4788163273106,0.500000016,0.0,0.110698003542336,1766.4788163273106,0.500000016,0.0,0.110698003542336,1684,0.0,99,P-GPS,Home Point Recorded. RTH Altitude:  30m.
0.35052592779752095,36.8971307353418,15400,2018-04-17 05:34:19,1766.6788163337105,0.7000000224000001,0.0,0.117291003753312,1766.6788163337105,0.7000000224000001,0.0,0.117291003753312,1684,0.0,99,P-GPS,
0.350526018589584,36.8971307348472,15500,2018-04-17 05:34:19,1766.9788163433107,1.000000032,0.0,0.124046003969472,1766.9788163433107,1.000000032,0.0,0.124046003969472,1684,0.0,99,P-GPS,
0.350526109275187,36.8971307254185,15600,2018-04-17 05:34:19,1767.2788163529106,1.3000000416000002,0.0,0.130549004177568,1767.2788163529106,1.3000000416000002,0.0,0.130549004177568,1684,0.0,99,P-GPS,
0.350526207628726,36.8971307017957,15700,2018-04-17 05:34:19,1767.6788163657106,1.7000000544000002,0.0,0.13716500438928,1767.6788163657106,1.7000000544000002,0.0,0.13716500438928,1684,0.0,99,P-GPS,
0.350526283423635,36.8971306868684,15800,2018-04-17 05:34:19,1768.1788163817105,2.2000000704,0.0,0.142874004571968,1768.1788163817105,2.2000000704,0.0,0.142874004571968,1684,0.0,99,P-GPS,
0.350526358804307,36.8971306664286,15900,2018-04-17 05:34:19,1768.5788163945106,2.6000000832000003,0.0,0.148483004751456,1768.5788163945106,2.6000000832000003,0.0,0.148483004751456,1684,0.0,99,P-GPS,
0.350526419898233,36.89713065177,16000,2018-04-17 05:34:19,1769.0788164105104,3.1000000992,0.0,0.153351004907232,1769.0788164105104,3.1000000992,0.0,0.153351004907232,1684,0.0,99,P-GPS,
0.350526495859854,36.8971306157005,16100,2018-04-17 05:34:20,1769.5788164265107,3.6000001152000003,0.0,0.158664005077248,1769.5788164265107,3.6000001152000003,0.0,0.158664005077248,1684,0.0,99,P-GPS,
0.35052657589706204,36.8971304483501,16300,2018-04-17 05:34:20,1770.6788164617105,4.700000150400001,0.0,0.15892000508544002,1770.6788164617105,4.700000150400001,0.0,0.15892000508544002,1684,0.0,99,P-GPS,
0.35052659054043706,36.8971303299698,16400,2018-04-17 05:34:20,1771.1788164777106,5.200000166400001,0.0,0.15622400499916803,1771.1788164777106,5.200000166400001,0.0,0.15892000508544002,1684,0.0,99,P-GPS,
0.35052662233377097,36.8971302168323,16500,2018-04-17 05:34:20,1771.6788164937104,5.7000001824,0.0,0.156609005011488,1771.6788164937104,5.7000001824,0.0,0.15892000508544002,1684,0.0,99,P-GPS,
0.35052664577786796,36.8971301167626,16600,2018-04-17 05:34:20,1772.1788165097107,6.2000001984,0.0,0.157337005034784,1772.1788165097107,6.2000001984,0.0,0.15892000508544002,1684,0.0,99,P-GPS,
0.350526657283639,36.8971300132551,16700,2018-04-17 05:34:20,1772.6788165257105,6.7000002144,0.0,0.15753900504124801,1772.6788165257105,6.7000002144,0.0,0.15892000508544002,1684,0.0,99,P-GPS,
0.35052664206949397,36.89712980228,16900,2018-04-17 05:34:20,1773.6788165577107,7.7000002464,0.0,0.1562750050008,1773.6788165577107,7.7000002464,0.0,0.15892000508544002,1684,0.0,99,P-GPS,
0.350526626134355,36.8971296971024,17000,2018-04-17 05:34:20,1774.1788165737107,8.200000262400001,0.0,0.156048004993536,1774.1788165737107,8.200000262400001,0.0,0.15892000508544002,1684,0.0,99,P-GPS,
0.35052661232576104,36.8971295865836,17100,2018-04-17 05:34:20,1774.6788165897106,8.700000278400001,0.0,0.15709100502691198,1774.6788165897106,8.700000278400001,0.0,0.15892000508544002,1684,0.0,99,P-GPS,
0.35052659144361303,36.8971294704741,17200,2018-04-17 05:34:21,1775.1788166057104,9.2000002944,0.0,0.15854900507356803,1775.1788166057104,9.2000002944,0.0,0.15892000508544002,1684,0.0,99,P-GPS,
0.350526573853772,36.8971293442036,17300,2018-04-17 05:34:21,1775.6788166217107,9.7000003104,0.0,0.161856005179392,1775.6788166217107,9.7000003104,0.0,0.161856005179392,1684,0.0,99,P-GPS,
0.35052654538470296,36.8971292154728,17400,2018-04-17 05:34:21,1776.1788166377105,10.2000003264,0.0,0.16538000529216,1776.1788166377105,10.2000003264,0.0,0.16538000529216,1684,0.0,99,P-GPS,
0.35052650382864403,36.897129070633895,17500,2018-04-17 05:34:21,1776.6788166537106,10.700000342400001,0.0,0.169893005436576,1776.6788166537106,10.700000342400001,0.0,0.169893005436576,1684,0.0,99,P-GPS,
0.35052646125155107,36.897128930553706,17600,2018-04-17 05:34:21,1777.1788166697106,11.200000358400002,0.0,0.175469005615008,1777.1788166697106,11.200000358400002,0.0,0.175469005615008,1684,0.0,99,P-GPS,
0.35052644569298996,36.8971287777506,17700,2018-04-17 05:34:21,1777.6788166857107,11.700000374400002,0.0,0.18547700593526403,1777.6788166857107,11.700000374400002,0.0,0.18547700593526403,1684,0.0,99,P-GPS,
0.350526434102336,36.897128626563,17800,2018-04-17 05:34:21,1778.1788167017105,12.2000003904,0.0,0.196626006292032,1778.1788167017105,12.2000003904,0.0,0.196626006292032,1684,0.0,99,P-GPS,
0.350526442116113,36.897128359650296,18000,2018-04-17 05:34:21,1779.0788167305107,13.100000419199999,0.0,0.220013007040416,1779.0788167305107,13.100000419199999,0.0,0.220013007040416,1684,0.0,99,P-GPS,
0.350526385845027,36.897128129809104,18200,2018-04-17 05:34:22,1780.0788167625105,14.100000451200001,0.0,0.237432007597824,1780.0788167625105,14.100000451200001,0.0,0.237432007597824,1684,0.0,99,P-GPS,
0.35052634490350204,36.8971278735167,18400,2018-04-17 05:34:22,1781.0788167945107,15.100000483200002,0.0,0.25977200831270403,1781.0788167945107,15.100000483200002,0.0,0.25977200831270403,1684,0.0,99,P-GPS,
0.350526330512128,36.89712775954089,18500,2018-04-17 05:34:22,1781.5788168105105,15.6000004992,0.0,0.270293008649376,1781.5788168105105,15.6000004992,0.0,0.270293008649376,1684,0.0,99,P-GPS,
0.350526316780681,36.897127652625706,18600,2018-04-17 05:34:22,1782.0788168265105,16.1000005152,0.0,0.28032200897030396,1782.0788168265105,16.1000005152,0.0,0.28032200897030396,1684,0.0,99,P-GPS,
0.350526313447664,36.8971275409924,18700,2018-04-17 05:34:22,1782.5788168425106,16.6000005312,0.0,0.29145000932640003,1782.5788168425106,16.6000005312,0.0,0.29145000932640003,1684,-2.3,99,P-GPS,
0.350526308484981,36.8971274273689,18800,2018-04-17 05:34:22,1783.0788168585104,17.1000005472,0.0,0.302811009689952,1783.0788168585104,17.1000005472,0.0,0.302811009689952,1684,-2.3,99,P-GPS,
0.350526312526779,36.8971273300944,18900,2018-04-17 05:34:22,1783.5788168745105,17.6000005632,0.0,0.31296501001488003,1783.5788168745105,17.6000005632,0.0,0.31296501001488003,1684,-10.9,99,P-GPS,
0.350526318090561,36.8971272418408,19000,2018-04-17 05:34:22,1784.0788168905106,18.100000579200003,0.0,0.32229301031337604,1784.0788168905106,18.100000579200003,0.0,0.32229301031337604,1684,-15.2,99,P-GPS,
0.35052633842901193,36.8971271382145,19100,2018-04-17 05:34:22,1784.5788169065106,18.6000005952,0.0,0.33384001068288005,1784.5788169065106,18.6000005952,0.0,0.33384001068288005,1684,-15.2,99,P-GPS,
0.350526349136235,36.8971270407227,19200,2018-04-17 05:34:23,1785.0788169225104,19.1000006112,0.0,0.34438001102016,1785.0788169225104,19.1000006112,0.0,0.34438001102016,1684,-19.5,99,P-GPS,
0.350526343879211,36.897126950209,19300,2018-04-17 05:34:23,1785.6788169417107,19.7000006304,0.0,0.35359701131510396,1785.6788169417107,19.7000006304,0.0,0.35359701131510396,1684,-22.8,99,P-GPS,
0.35052632342514,36.8971268740992,19400,2018-04-17 05:34:23,1786.1788169577105,20.200000646400003,0.0,0.36078501154512,1786.1788169577105,20.200000646400003,0.0,0.36078501154512,1684,-22.8,99,P-GPS,
0.350526308874789,36.8971268233904,19500,2018-04-17 05:34:23,1786.6788169737104,20.7000006624,0.0,0.3655790116985281,1786.6788169737104,20.7000006624,0.0,0.3655790116985281,1684,-22.8,99,P-GPS,
0.35052630499095,36.8971267841626,19600,2018-04-17 05:34:23,1787.1788169897106,21.2000006784,0.0,0.36957001182624,1787.1788169897106,21.2000006784,0.0,0.36957001182624,1684,-22.8,99,P-GPS,
0.350526322571632,36.897126757614004,19700,2018-04-17 05:34:23,1787.6788170057105,21.700000694400003,0.0,0.37299401193580806,1787.6788170057105,21.700000694400003,0.0,0.37299401193580806,1684,-22.8,99,P-GPS,
0.350526336364552,36.8971267275045,19800,2018-04-17 05:34:23,1788.1788170217105,22.2000007104,0.0,0.3766580120530561,1788.1788170217105,22.2000007104,0.0,0.3766580120530561,1684,-22.8,99,P-GPS,
0.350526348600884,36.897126695165,19900,2018-04-17 05:34:23,1788.6788170377106,22.700000726400003,0.0,0.380501012176032,1788.6788170377106,22.700000726400003,0.0,0.380501012176032,1684,-22.8,99,P-GPS,
0.35052634569004104,36.8971266609851,20000,2018-04-17 05:34:23,1789.1788170537106,23.2000007424,0.0,0.38399601228787195,1789.1788170537106,23.2000007424,0.0,0.38399601228787195,1684,-22.8,99,P-GPS,
0.35052633637493397,36.8971266676089,20200,2018-04-17 05:34:23,1790.1788170857108,24.2000007744,0.0,0.38296801225497606,1790.1788170857108,24.2000007744,0.0,0.38399601228787195,1684,-22.8,99,P-GPS,
0.3505263086119989,36.89712668053421,20300,2018-04-17 05:34:24,1790.7788171049106,24.8000007936,0.0,0.3806330121802561,1790.7788171049106,24.8000007936,0.0,0.38399601228787195,1684,-22.8,99,P-GPS,
0.350526270894183,36.8971266840211,20400,2018-04-17 05:34:24,1791.2788171209104,25.3000008096,0.0,0.37897801212729604,1791.2788171209104,25.3000008096,0.0,0.38399601228787195,1684,-22.8,99,P-GPS,
0.350526236625818,36.897126690224106,20500,2018-04-17 05:34:24,1791.7788171369107,25.800000825599998,0.0,0.37718701206998395,1791.7788171369107,25.800000825599998,0.0,0.38399601228787195,1684,-22.8,99,P-GPS,
0.350526214398982,36.8971266979464,20600,2018-04-17 05:34:24,1792.2788171529105,26.300000841600003,0.0,0.37564701202070394,1792.2788171529105,26.300000841600003,0.0,0.38399601228787195,1684,-22.8,99,P-GPS,
0.35052621163612396,36.8971267391943,20700,2018-04-17 05:34:24,1792.7788171689103,26.8000008576,0.0,0.371167011877344,1792.7788171689103,26.8000008576,0.0,0.38399601228787195,1684,-22.8,99,P-GPS,
0.350526208337914,36.8971267806125,20800,2018-04-17 05:34:24,1793.2788171849106,27.3000008736,0.0,0.366654011732928,1793.2788171849106,27.3000008736,0.0,0.38399601228787195,1684,-22.8,99,P-GPS,
0.350526215873131,36.897126843296,20900,2018-04-17 05:34:24,1793.8788172041104,27.9000008928,0.0,0.360246011527872,1793.8788172041104,27.9000008928,0.0,0.38399601228787195,1684,-22.8,99,P-GPS,
0.35052622204778405,36.897126897441396,21000,2018-04-17 05:34:24,1794.3788172201107,28.400000908800006,0.0,0.354718011350976,1794.3788172201107,28.400000908800006,0.0,0.38399601228787195,1684,-22.8,99,P-GPS,
0.35052623299337,36.8971269647231,21100,2018-04-17 05:34:24,1794.8788172361105,28.9000009248,0.0,0.34798801113561606,1794.8788172361105,28.9000009248,0.0,0.38399601228787195,1684,-22.8,99,P-GPS,
0.350526235987264,36.89712701982779,21200,2018-04-17 05:34:25,1795.3788172521106,29.4000009408,0.0,0.342287010953184,1795.3788172521106,29.4000009408,0.0,0.38399601228787195,1684,-22.8,99,P-GPS,
0.35052623912873604,36.8971270878001,21300,2018-04-17 05:34:25,1795.8788172681104,29.900000956800003,0.0,0.335257010728224,1795.8788172681104,29.900000956800003,0.0,0.38399601228787195,1684,-22.8,99,P-GPS,
0.35052622895625396,36.8971271348806,21400,2018-04-17 05:34:25,1796.3788172841107,30.400000972799997,0.0,0.329942010558144,1796.3788172841107,30.400000972799997,0.0,0.38399601228787195,1684,-22.8,99,P-GPS,
0.3505262163972869,36.897127184396794,21500,2018-04-17 05:34:25,1796.8788173001105,30.900000988800006,0.0,0.32428501037712,1796.8788173001105,30.900000988800006,0.0,0.38399601228787195,1684,-22.8,99,P-GPS,
0.35052619819128306,36.897127219259794,21600,2018-04-17 05:34:25,1797.4788173193106,31.500001007999998,0.0,0.31995501023856,1797.4788173193106,31.500001007999998,0.0,0.38399601228787195,1684,-22.8,99,P-GPS,
0.35052619619705,36.8971272680415,21700,2018-04-17 05:34:25,1797.9788173353106,32.000001024,0.0,0.31476901007260805,1797.9788173353106,32.000001024,0.0,0.38399601228787195,1684,-22.8,99,P-GPS,
0.350526196628994,36.897127314605,21800,2018-04-17 05:34:25,1798.4788173513105,32.50000104,0.0,0.30991500991728,1798.4788173513105,32.50000104,0.0,0.38399601228787195,1684,-22.8,99,P-GPS,
0.350526211395928,36.897127379465,21900,2018-04-17 05:34:25,1798.9788173673107,33.000001056,0.0,0.303726009719232,1798.9788173673107,33.000001056,0.0,0.38399601228787195,1684,-22.8,99,P-GPS,
0.35052621645041493,36.8971274310763,22000,2018-04-17 05:34:25,1799.5788173865105,33.6000010752,0.0,0.29857000955423996,1799.5788173865105,33.6000010752,0.0,0.38399601228787195,1684,-22.8,99,P-GPS,
0.35052621922569,36.8971274878116,22100,2018-04-17 05:34:25,1800.0788174025104,34.1000010912,0.0,0.29281300937001603,1800.0788174025104,34.1000010912,0.0,0.38399601228787195,1684,-22.8,99,P-GPS,
0.350526209107557,36.897127527886205,22200,2018-04-17 05:34:25,1800.5788174185107,34.6000011072,0.0,0.28825800922425604,1800.5788174185107,34.6000011072,0.0,0.38399601228787195,1684,-22.8,99,P-GPS,
0.350526198131234,36.89712757888729,22300,2018-04-17 05:34:26,1801.0788174345105,35.1000011232,0.0,0.282542009041344,1801.0788174345105,35.1000011232,0.0,0.38399601228787195,1684,-22.8,99,P-GPS,
0.350526188295636,36.897127613874396,22400,2018-04-17 05:34:26,1801.6788174537107,35.7000011424,0.0,0.278526008912832,1801.6788174537107,35.7000011424,0.0,0.38399601228787195,1684,-22.8,99,P-GPS,
0.35052619035256394,36.897127656695105,22500,2018-04-17 05:34:26,1802.1788174697106,36.200001158400006,0.0,0.27421000877472,1802.1788174697106,36.200001158400006,0.0,0.38399601228787195,1684,-22.8,99,P-GPS,
0.350526193966692,36.8971276906951,22600,2018-04-17 05:34:26,1802.6788174857104,36.7000011744,0.0,0.27088000866816,1802.6788174857104,36.7000011744,0.0,0.38399601228787195,1684,-22.8,99,P-GPS,
0.35052624275752,36.8971277488842,22700,2018-04-17 05:34:26,1803.1788175017107,37.2000011904,0.0,0.267147008548704,1803.1788175017107,37.2000011904,0.0,0.38399601228787195,1684,-22.8,99,P-GPS,
0.35052628748721304,36.8971278023241,22800,2018-04-17 05:34:26,1803.6788175177105,37.700001206399996,0.0,0.263906008444992,1803.6788175177105,37.700001206399996,0.0,0.38399601228787195,1684,-22.8,99,P-GPS,
0.35052635310210695,36.897127852233204,23000,2018-04-17 05:34:26,1804.7788175529106,38.8000012416,0.0,0.26228900839324804,1804.7788175529106,38.8000012416,0.0,0.38399601228787195,1684,-22.8,99,P-GPS,
0.35052639891675,36.8971278697193,23100,2018-04-17 05:34:26,1805.2788175689107,39.3000012576,0.0,0.263027008416864,1805.2788175689107,39.3000012576,0.0,0.38399601228787195,1684,-22.8,99,P-GPS,
0.350526438773731,36.8971278764887,23200,2018-04-17 05:34:27,1805.7788175849105,39.80000127360001,0.0,0.264571008466272,1805.7788175849105,39.80000127360001,0.0,0.38399601228787195,1684,-22.8,99,P-GPS,
0.350526472385426,36.8971278960967,23300,2018-04-17 05:34:27,1806.2788176009105,40.3000012896,0.0,0.2646000084672,1806.2788176009105,40.3000012896,0.0,0.38399601228787195,1684,-22.8,98,P-GPS,
0.35052649195606606,36.8971279124789,23400,2018-04-17 05:34:27,1806.7788176169106,40.8000013056,0.0,0.26418000845376005,1806.7788176169106,40.8000013056,0.0,0.38399601228787195,1684,-22.8,98,P-GPS,
0.35052650388645396,36.897127938497704,23500,2018-04-17 05:34:27,1807.2788176329104,41.30000132160001,0.0,0.26242900839772804,1807.2788176329104,41.30000132160001,0.0,0.38399601228787195,1684,-22.8,98,P-GPS,
0.350526506998207,36.89712795269379,23600,2018-04-17 05:34:27,1807.7788176489107,41.80000133760001,0.0,0.26128200836102405,1807.7788176489107,41.80000133760001,0.0,0.38399601228787195,1684,-22.8,98,P-GPS,
0.350526523962726,36.897127968959396,23700,2018-04-17 05:34:27,1808.2788176649105,42.30000135360001,0.0,0.26078500834512003,1808.2788176649105,42.30000135360001,0.0,0.38399601228787195,1684,-22.8,98,P-GPS,
0.35052653710162296,36.8971279737075,23800,2018-04-17 05:34:27,1808.7788176809106,42.800001369600004,0.0,0.261146008356672,1808.7788176809106,42.800001369600004,0.0,0.38399601228787195,1684,-22.8,98,P-GPS,
0.350526543000254,36.89712797301161,23900,2018-04-17 05:34:27,1809.2788176969104,43.300001385600005,0.0,0.26157200837030403,1809.2788176969104,43.300001385600005,0.0,0.38399601228787195,1684,-22.8,98,P-GPS,
0.35052653056179195,36.897127963761605,24000,2018-04-17 05:34:27,1809.7788177129107,43.80000140159999,0.0,0.26167000837344,1809.7788177129107,43.80000140159999,0.0,0.38399601228787195,1684,-22.8,98,P-GPS,
0.350526545009347,36.8971279800829,24100,2018-04-17 05:34:27,1810.2788177289106,44.30000141760001,0.0,0.261041008353312,1810.2788177289106,44.30000141760001,0.0,0.38399601228787195,1684,-22.8,98,P-GPS,
0.35052658231252,36.8971280050042,24300,2018-04-17 05:34:28,1811.3788177641106,45.400001452800005,0.0,0.26108400835468804,1811.3788177641106,45.400001452800005,0.0,0.38399601228787195,1684,-22.8,98,P-GPS,
0.35052657592209896,36.897127996755295,24400,2018-04-17 05:34:28,1811.7788177769105,45.800001465600005,0.0,0.26143400836588804,1811.7788177769105,45.800001465600005,0.0,0.38399601228787195,1684,-22.8,98,P-GPS,
0.350526564714333,36.8971279883372,24500,2018-04-17 05:34:28,1812.2788177929106,46.3000014816,0.0,0.26150300836809603,1812.2788177929106,46.3000014816,0.0,0.38399601228787195,1684,-22.8,98,P-GPS,
0.350526536331776,36.8971279651855,24600,2018-04-17 05:34:28,1812.7788178089106,46.80000149760001,0.0,0.26189000838048004,1812.7788178089106,46.80000149760001,0.0,0.38399601228787195,1684,-22.8,98,P-GPS,
0.350526522048897,36.8971279546112,24700,2018-04-17 05:34:28,1813.3788178281104,47.400001516799996,0.0,0.26200800838425603,1813.3788178281104,47.400001516799996,0.0,0.38399601228787195,1684,-22.8,98,P-GPS,
0.350526499597336,36.897127933604004,24800,2018-04-17 05:34:28,1813.8788178441107,47.900001532800005,0.0,0.26263500840432,1813.8788178441107,47.900001532800005,0.0,0.38399601228787195,1684,-22.8,98,P-GPS,
0.35052646843258195,36.8971279006606,24900,2018-04-17 05:34:28,1814.3788178601105,48.4000015488,0.0,0.26393800844601606,1814.3788178601105,48.4000015488,0.0,0.38399601228787195,1684,-22.8,98,P-GPS,
0.3505264178124,36.8971278496841,25000,2018-04-17 05:34:28,1814.8788178761106,48.9000015648,0.0,0.26599900851196806,1814.8788178761106,48.9000015648,0.0,0.38399601228787195,1684,-22.8,98,P-GPS,
0.3505263858527619,36.8971278099039,25100,2018-04-17 05:34:28,1815.3788178921104,49.4000015808,0.0,0.26815800858105604,1815.3788178921104,49.4000015808,0.0,0.38399601228787195,1684,-22.8,98,P-GPS,
0.350526354926778,36.89712777363,25200,2018-04-17 05:34:29,1815.8788179081107,49.900001596799996,0.0,0.270125008644,1815.8788179081107,49.900001596799996,0.0,0.38399601228787195,1684,-22.8,98,P-GPS,
0.350526327393047,36.8971277384373,25300,2018-04-17 05:34:29,1816.3788179241105,50.40000161280001,0.0,0.27224000871167997,1816.3788179241105,50.40000161280001,0.0,0.38399601228787195,1684,-22.8,98,P-GPS,
0.35052628320868,36.8971276781456,25400,2018-04-17 05:34:29,1816.8788179401104,50.9000016288,0.0,0.27617300883753604,1816.8788179401104,50.9000016288,0.0,0.38399601228787195,1684,-22.8,98,P-GPS,
0.350526238604988,36.8971276393707,25500,2018-04-17 05:34:29,1817.3788179561107,51.4000016448,0.0,0.278082008898624,1817.3788179561107,51.4000016448,0.0,0.38399601228787195,1684,-22.8,98,P-GPS,
0.35052619157084397,36.89712760199829,25600,2018-04-17 05:34:29,1817.8788179721105,51.90000166080001,0.0,0.27988600895635196,1817.8788179721105,51.90000166080001,0.0,0.38399601228787195,1684,-22.8,98,P-GPS,
0.35052615624521194,36.8971275821569,25700,2018-04-17 05:34:29,1818.3788179881105,52.400001676799995,0.0,0.28048500897552,1818.3788179881105,52.400001676799995,0.0,0.38399601228787195,1684,-22.8,98,P-GPS,
0.35052613194149895,36.8971275521063,25800,2018-04-17 05:34:29,1818.9788180073106,53.000001696000005,0.0,0.282646009044672,1818.9788180073106,53.000001696000005,0.0,0.38399601228787195,1684,-22.8,98,P-GPS,
0.35052611150880203,36.897127533115004,25900,2018-04-17 05:34:29,1819.4788180233106,53.500001712,0.0,0.283844009083008,1819.4788180233106,53.500001712,0.0,0.38399601228787195,1684,-22.8,98,P-GPS,
0.35052608407033503,36.8971275122351,26000,2018-04-17 05:34:29,1819.9788180393105,54.00000172800001,0.0,0.285012009120384,1819.9788180393105,54.00000172800001,0.0,0.38399601228787195,1684,-22.8,98,P-GPS,
0.3505260724853811,36.8971274682336,26200,2018-04-17 05:34:29,1820.9788180713106,55.00000176,0.0,0.28922500925520006,1820.9788180713106,55.00000176,0.0,0.38399601228787195,1684,-22.8,98,P-GPS,
0.350526064416441,36.8971274295668,26300,2018-04-17 05:34:30,1821.4788180873104,55.500001776,0.0,0.29302300937673603,1821.4788180873104,55.500001776,0.0,0.38399601228787195,1684,-22.8,98,P-GPS,
0.35052606374470696,36.897127330844896,26500,2018-04-17 05:34:30,1822.4788181193105,56.50000180800001,0.0,0.303451009710432,1822.4788181193105,56.50000180800001,0.0,0.38399601228787195,1684,-22.8,98,P-GPS,
0.350526078140967,36.8971272833746,26600,2018-04-17 05:34:30,1822.9788181353106,57.000001824,0.0,0.3089670098869439,1822.9788181353106,57.000001824,0.0,0.38399601228787195,1684,-22.8,98,P-GPS,
0.35052607382050105,36.8971272617625,26700,2018-04-17 05:34:30,1823.4788181513106,57.50000184,0.0,0.31111700995574404,1823.4788181513106,57.50000184,0.0,0.38399601228787195,1684,-22.8,98,P-GPS,
0.350526058415421,36.8971272506968,26800,2018-04-17 05:34:30,1823.9788181673107,58.000001856,0.0,0.31178900997724807,1823.9788181673107,58.000001856,0.0,0.38399601228787195,1684,-22.8,98,P-GPS,
0.350526050706978,36.897127237975894,26900,2018-04-17 05:34:30,1824.5788181865105,58.60000187520001,0.0,0.312896010012672,1824.5788181865105,58.60000187520001,0.0,0.38399601228787195,1684,-22.8,98,P-GPS,
0.350526044319406,36.8971272202072,27000,2018-04-17 05:34:30,1825.0788182025105,59.1000018912,0.0,0.314587010066784,1825.0788182025105,59.1000018912,0.0,0.38399601228787195,1684,-22.8,98,P-GPS,
0.350526042938282,36.8971271934915,27100,2018-04-17 05:34:31,1825.4788182153106,59.500001904,0.0,0.317394010156608,1825.4788182153106,59.500001904,0.0,0.38399601228787195,1684,-22.8,98,P-GPS,
0.35052604824212397,36.8971271310832,27300,2018-04-17 05:34:31,1826.4788182473105,60.500001936,0.0,0.324224010375168,1826.4788182473105,60.500001936,0.0,0.38399601228787195,1684,-22.8,98,P-GPS,
0.350526041250807,36.8971271057936,27400,2018-04-17 05:34:31,1827.0788182665106,61.10000195520001,0.0,0.326716010454912,1827.0788182665106,61.10000195520001,0.0,0.38399601228787195,1684,-22.8,98,P-GPS,
0.35052602329578697,36.897127073289205,27500,2018-04-17 05:34:31,1827.5788182825104,61.6000019712,0.0,0.32966501054928,1827.5788182825104,61.6000019712,0.0,0.38399601228787195,1684,-22.8,98,P-GPS,
0.350525967460106,36.8971269491449,27800,2018-04-17 05:34:31,1829.0788183305106,63.100002019200005,0.0,0.34148401092748804,1829.0788183305106,63.100002019200005,0.0,0.38399601228787195,1684,-22.8,98,P-GPS,
0.350525980303033,36.89712692052029,27900,2018-04-17 05:34:31,1829.5788183465106,63.600002035200006,0.0,0.34491501103728,1829.5788183465106,63.600002035200006,0.0,0.38399601228787195,1684,-22.8,98,P-GPS,
0.35052599280012,36.897126890645296,28000,2018-04-17 05:34:31,1830.1788183657106,64.2000020544,0.0,0.34847301115113605,1830.1788183657106,64.2000020544,0.0,0.38399601228787195,1684,-22.8,98,P-GPS,
0.350526010228135,36.897126888150794,28100,2018-04-17 05:34:31,1830.6788183817105,64.7000020704,0.0,0.34921101117475195,1830.6788183817105,64.7000020704,0.0,0.38399601228787195,1684,-22.8,98,P-GPS,
0.350526025072419,36.8971268799393,28200,2018-04-17 05:34:31,1831.1788183977108,65.2000020864,0.0,0.350502011216064,1831.1788183977108,65.2000020864,0.0,0.38399601228787195,1684,-22.8,98,P-GPS,
0.350526049250945,36.8971268920703,28300,2018-04-17 05:34:32,1831.6788184137106,65.7000021024,0.0,0.34987501119600006,1831.6788184137106,65.7000021024,0.0,0.38399601228787195,1684,-22.8,98,P-GPS,
0.35052606744962106,36.8971268874506,28400,2018-04-17 05:34:32,1832.1788184297104,66.20000211840001,0.0,0.35089501122864003,1832.1788184297104,66.20000211840001,0.0,0.38399601228787195,1684,-22.8,98,P-GPS,
0.35052607968045696,36.8971268697044,28500,2018-04-17 05:34:32,1832.6788184457107,66.7000021344,0.0,0.353156011300992,1832.6788184457107,66.7000021344,0.0,0.38399601228787195,1684,-22.8,98,P-GPS,
0.35052607847683304,36.8971268230981,28600,2018-04-17 05:34:32,1833.1788184617105,67.2000021504,0.0,0.3581240114599681,1833.1788184617105,67.2000021504,0.0,0.38399601228787195,1684,-22.8,98,P-GPS,
0.35052607096807803,36.897126792099,28700,2018-04-17 05:34:32,1833.6788184777106,67.70000216640001,0.0,0.36124001155968005,1833.6788184777106,67.70000216640001,0.0,0.38399601228787195,1684,-22.8,98,P-GPS,
0.35052606333189695,36.8971267651499,28800,2018-04-17 05:34:32,1834.1788184937107,68.2000021824,0.0,0.36392501164560004,1834.1788184937107,68.2000021824,0.0,0.38399601228787195,1684,-22.8,98,P-GPS,
0.350526080862096,36.8971267469026,28900,2018-04-17 05:34:32,1834.6788185097107,68.7000021984,0.0,0.366381011724192,1834.6788185097107,68.7000021984,0.0,0.38399601228787195,1684,-22.8,98,P-GPS,
0.35052609662726597,36.8971267194953,29000,2018-04-17 05:34:32,1835.1788185257105,69.2000022144,0.0,0.369776011832832,1835.1788185257105,69.2000022144,0.0,0.38399601228787195,1684,-22.8,98,P-GPS,
0.35052610515726,36.8971267080389,29100,2018-04-17 05:34:33,1835.6788185417104,69.7000022304,0.0,0.371251011880032,1835.6788185417104,69.7000022304,0.0,0.38399601228787195,1684,-22.8,98,P-GPS,
0.35052609852603195,36.8971266994795,29300,2018-04-17 05:34:33,1836.6788185737105,70.7000022624,0.0,0.371981011903392,1836.6788185737105,70.7000022624,0.0,0.38399601228787195,1684,-22.8,98,P-GPS,
0.350526093740849,36.8971266866901,29500,2018-04-17 05:34:33,1837.7788186089106,71.8000022976,0.0,0.373221011943072,1837.7788186089106,71.8000022976,0.0,0.38399601228787195,1684,-22.8,98,P-GPS,
0.35052608055228496,36.8971266653167,29600,2018-04-17 05:34:33,1838.1788186217107,72.2000023104,0.0,0.37515401200492804,1838.1788186217107,72.2000023104,0.0,0.38399601228787195,1684,-22.8,98,P-GPS,
0.350526059643064,36.8971266405613,29800,2018-04-17 05:34:33,1839.2788186569105,73.3000023456,0.0,0.37725501207216,1839.2788186569105,73.3000023456,0.0,0.38399601228787195,1684,-22.8,98,P-GPS,
0.350526063181469,36.8971266463714,29900,2018-04-17 05:34:33,1839.6788186697106,73.7000023584,0.0,0.3767230120551361,1839.6788186697106,73.7000023584,0.0,0.38399601228787195,1684,-22.8,98,P-GPS,
0.350526055620604,36.8971266430954,30000,2018-04-17 05:34:33,1840.2788186889104,74.30000237760001,0.0,0.376874012059968,1840.2788186889104,74.30000237760001,0.0,0.38399601228787195,1684,-22.8,98,P-GPS,
0.350526050455383,36.89712664608879,30100,2018-04-17 05:34:33,1840.7788187049107,74.8000023936,0.0,0.37641301204521604,1840.7788187049107,74.8000023936,0.0,0.38399601228787195,1684,-22.8,98,P-GPS,
0.350526039651268,36.8971266342512,30200,2018-04-17 05:34:33,1841.2788187209105,75.30000240960001,0.0,0.37740801207705604,1841.2788187209105,75.30000240960001,0.0,0.38399601228787195,1684,-22.8,98,P-GPS,
0.350526024845048,36.897126636353796,30300,2018-04-17 05:34:34,1841.7788187369104,75.80000242560001,0.0,0.376797012057504,1841.7788187369104,75.80000242560001,0.0,0.38399601228787195,1684,-22.8,98,P-GPS,
0.35052598939687496,36.8971266283693,30400,2018-04-17 05:34:34,1842.2788187529106,76.3000024416,0.0,0.3767730120567361,1842.2788187529106,76.3000024416,0.0,0.38399601228787195,1684,-22.8,98,P-GPS,
0.35052596461663893,36.8971266147942,30500,2018-04-17 05:34:34,1842.7788187689105,76.8000024576,0.0,0.3776500120848,1842.7788187689105,76.8000024576,0.0,0.38399601228787195,1684,-22.8,98,P-GPS,
0.350525945348483,36.89712658991879,30600,2018-04-17 05:34:34,1843.2788187849105,77.3000024736,0.0,0.37990701215702405,1843.2788187849105,77.3000024736,0.0,0.38399601228787195,1684,-22.8,98,P-GPS,
0.350525944457317,36.8971265860144,30700,2018-04-17 05:34:34,1843.7788188009106,77.8000024896,0.0,0.380312012169984,1843.7788188009106,77.8000024896,0.0,0.38399601228787195,1684,-22.8,98,P-GPS,
0.35052594090160993,36.8971265898996,30800,2018-04-17 05:34:34,1844.2788188169106,78.3000025056,0.0,0.37980801215385607,1844.2788188169106,78.3000025056,0.0,0.38399601228787195,1684,-22.8,98,P-GPS,
0.350525932603059,36.897126604613796,30900,2018-04-17 05:34:34,1844.6788188297105,78.70000251840001,0.0,0.37801801209657604,1844.6788188297105,78.70000251840001,0.0,0.38399601228787195,1684,-22.8,98,P-GPS,
0.35052590775565007,36.8971266095407,31000,2018-04-17 05:34:34,1845.2788188489108,79.30000253760001,0.0,0.37693001206176,1845.2788188489108,79.30000253760001,0.0,0.38399601228787195,1684,-22.8,98,P-GPS,
0.350525901337341,36.897126620691,31100,2018-04-17 05:34:35,1845.7788188649106,79.80000255360001,0.0,0.375574012018368,1845.7788188649106,79.80000255360001,0.0,0.38399601228787195,1684,-22.8,98,P-GPS,
0.35052592315136605,36.897126655315205,31300,2018-04-17 05:34:35,1846.7788188969105,80.80000258560001,0.0,0.3722840119130881,1846.7788188969105,80.80000258560001,0.0,0.38399601228787195,1684,-22.8,98,P-GPS,
0.350525935940555,36.8971266985266,31400,2018-04-17 05:34:35,1847.2788189129105,81.3000026016,0.0,0.367876011772032,1847.2788189129105,81.3000026016,0.0,0.38399601228787195,1684,-22.8,98,P-GPS,
0.35052592395174703,36.8971267532631,31500,2018-04-17 05:34:35,1847.7788189289106,81.80000261760001,0.0,0.361644011572608,1847.7788189289106,81.80000261760001,0.0,0.38399601228787195,1684,-22.8,98,P-GPS,
0.35052589090614,36.8971267876303,31600,2018-04-17 05:34:35,1848.2788189449104,82.3000026336,0.0,0.35714901142876804,1848.2788189449104,82.3000026336,0.0,0.38399601228787195,1684,-22.8,98,P-GPS,
0.350525859145375,36.897126833891896,31700,2018-04-17 05:34:35,1848.7788189609107,82.8000026496,0.0,0.351406011244992,1848.7788189609107,82.8000026496,0.0,0.38399601228787195,1684,-22.8,98,P-GPS,
0.350525837977639,36.8971268650238,31800,2018-04-17 05:34:35,1849.3788189801105,83.4000026688,0.0,0.34755501112176,1849.3788189801105,83.4000026688,0.0,0.38399601228787195,1684,-22.8,98,P-GPS,
0.35052582609814004,36.897126903974204,31900,2018-04-17 05:34:35,1849.8788189961108,83.9000026848,0.0,0.34305201097766397,1849.8788189961108,83.9000026848,0.0,0.38399601228787195,1684,-22.8,98,P-GPS,
0.35052582119978004,36.8971269310925,32000,2018-04-17 05:34:35,1850.3788190121106,84.4000027008,0.0,0.339987010879584,1850.3788190121106,84.4000027008,0.0,0.38399601228787195,1684,-22.8,98,P-GPS,
0.35052582667338805,36.897126974721395,32100,2018-04-17 05:34:35,1850.8788190281105,84.9000027168,0.0,0.33534201073094394,1850.8788190281105,84.9000027168,0.0,0.38399601228787195,1684,-22.8,98,P-GPS,
0.35052583511707297,36.8971269978067,32200,2018-04-17 05:34:35,1851.3788190441105,85.4000027328,0.0,0.33300801065625607,1851.3788190441105,85.4000027328,0.0,0.38399601228787195,1684,-22.8,98,P-GPS,
0.35052585770114897,36.8971270381725,32300,2018-04-17 05:34:36,1851.8788190601106,85.9000027488,0.0,0.329122010531904,1851.8788190601106,85.9000027488,0.0,0.38399601228787195,1684,-22.8,98,P-GPS,
0.350525909291883,36.8971271231555,32500,2018-04-17 05:34:36,1852.8788190921105,86.9000027808,0.0,0.3211580102770561,1852.8788190921105,86.9000027808,0.0,0.38399601228787195,1684,-22.8,98,P-GPS,
0.35052594064105896,36.897127159212104,32600,2018-04-17 05:34:36,1853.3788191081107,87.40000279680001,0.0,0.318091010178912,1853.3788191081107,87.40000279680001,0.0,0.38399601228787195,1684,-22.8,98,P-GPS,
0.350525971908608,36.8971271995308,32700,2018-04-17 05:34:36,1853.8788191241106,87.9000028128,0.0,0.314622010067904,1853.8788191241106,87.9000028128,0.0,0.38399601228787195,1684,-22.8,98,P-GPS,
0.350525992741292,36.8971272716965,32900,2018-04-17 05:34:36,1854.8788191561107,88.9000028448,0.0,0.30749500983984,1854.8788191561107,88.9000028448,0.0,0.38399601228787195,1684,-22.8,98,P-GPS,
0.350525998875437,36.897127317633704,33000,2018-04-17 05:34:37,1855.3788191721105,89.4000028608,0.0,0.30277000968864004,1855.3788191721105,89.4000028608,0.0,0.38399601228787195,1684,-22.8,98,P-GPS,
0.35052596070756004,36.897127518376,33300,2018-04-17 05:34:37,1856.9788192233104,91.00000291200001,0.0,0.28015400896492804,1856.9788192233104,91.00000291200001,0.0,0.38399601228787195,1684,-22.8,98,P-GPS,
0.350525937954737,36.8971275767964,33400,2018-04-17 05:34:37,1857.4788192393105,91.50000292800001,0.0,0.273207008742624,1857.4788192393105,91.50000292800001,0.0,0.38399601228787195,1684,-22.8,98,P-GPS,
0.350525942890957,36.897127648828295,33500,2018-04-17 05:34:37,1857.9788192553106,92.00000294399999,0.0,0.26569400850220803,1857.9788192553106,92.00000294399999,0.0,0.38399601228787195,1684,-22.8,98,P-GPS,
0.35052595162857697,36.8971276937281,33600,2018-04-17 05:34:37,1858.4788192713106,92.50000296000002,0.0,0.26121500835888,1858.4788192713106,92.50000296000002,0.0,0.38399601228787195,1684,-22.8,98,P-GPS,
0.35052595369446193,36.8971277443267,33700,2018-04-17 05:34:37,1858.9788192873104,93.00000297600002,0.0,0.255927008189664,1858.9788192873104,93.00000297600002,0.0,0.38399601228787195,1684,-22.8,98,P-GPS,
0.35052594090507,36.897127780956104,33800,2018-04-17 05:34:37,1859.4788193033107,93.500002992,0.0,0.251614008051648,1859.4788193033107,93.500002992,0.0,0.38399601228787195,1684,-22.8,98,P-GPS,
0.35052595584950397,36.8971278331006,33900,2018-04-17 05:34:37,1859.9788193193106,94.00000300800001,0.0,0.246634007892288,1859.9788193193106,94.00000300800001,0.0,0.38399601228787195,1684,-22.8,98,P-GPS,
0.350525976901417,36.8971279325462,34100,2018-04-17 05:34:37,1860.9788193513107,95.00000304000001,0.0,0.23698500758352,1860.9788193513107,95.00000304000001,0.0,0.38399601228787195,1684,-22.8,98,P-GPS,
0.350525979110198,36.8971280166812,34300,2018-04-17 05:34:38,1862.0788193865105,96.10000307520001,0.0,0.22831200730598403,1862.0788193865105,96.10000307520001,0.0,0.38399601228787195,1684,-22.8,98,P-GPS,
0.35052600494566605,36.8971280409581,34400,2018-04-17 05:34:38,1862.5788194025106,96.60000309120001,0.0,0.226851007259232,1862.5788194025106,96.60000309120001,0.0,0.38399601228787195,1684,-22.8,98,P-GPS,
0.350526023119304,36.8971280582911,34500,2018-04-17 05:34:38,1863.0788194185106,97.10000310720001,0.0,0.225833007226656,1863.0788194185106,97.10000310720001,0.0,0.38399601228787195,1684,-22.8,98,P-GPS,
0.350526009545613,36.897128056777206,34600,2018-04-17 05:34:38,1863.5788194345105,97.6000031232,0.0,0.22541300721321603,1863.5788194345105,97.6000031232,0.0,0.38399601228787195,1684,-22.8,98,P-GPS,
0.350525992280443,36.8971280809974,34700,2018-04-17 05:34:38,1864.0788194505108,98.10000313920001,0.0,0.22219500711024,1864.0788194505108,98.10000313920001,0.0,0.38399601228787195,1684,-22.8,98,P-GPS,
0.35052596831524296,36.8971281070589,34800,2018-04-17 05:34:38,1864.5788194665106,98.60000315520001,0.0,0.218513006992416,1864.5788194665106,98.60000315520001,0.0,0.38399601228787195,1684,-22.8,98,P-GPS,
0.35052595636897804,36.89712815668221,34900,2018-04-17 05:34:38,1865.0788194825104,99.1000031712,0.0,0.212896006812672,1865.0788194825104,99.1000031712,0.0,0.38399601228787195,1684,-22.8,98,P-GPS,
0.3505259392465,36.8971281895902,35000,2018-04-17 05:34:38,1865.5788194985107,99.6000031872,0.0,0.20879100668131198,1865.5788194985107,99.6000031872,0.0,0.38399601228787195,1684,-22.8,98,P-GPS,
0.35052593728239295,36.8971282400945,35100,2018-04-17 05:34:38,1866.0788195145105,100.1000032032,0.0,0.203503006512096,1866.0788195145105,100.1000032032,0.0,0.38399601228787195,1684,-22.8,98,P-GPS,
0.350525930750704,36.8971282745121,35200,2018-04-17 05:34:39,1866.5788195305106,100.6000032192,0.0,0.199688006390016,1866.5788195305106,100.6000032192,0.0,0.38399601228787195,1684,-22.8,98,P-GPS,
0.350525939571985,36.8971283126414,35300,2018-04-17 05:34:39,1867.0788195465104,101.1000032352,0.0,0.196163006277216,1867.0788195465104,101.1000032352,0.0,0.38399601228787195,1684,-22.8,98,P-GPS,
0.350525947507596,36.8971283317826,35400,2018-04-17 05:34:39,1867.5788195625107,101.60000325120001,0.0,0.194563006226016,1867.5788195625107,101.60000325120001,0.0,0.38399601228787195,1684,-22.8,98,P-GPS,
0.350525969458614,36.8971283752981,35500,2018-04-17 05:34:39,1868.0788195785105,102.10000326720001,0.0,0.191163006117216,1868.0788195785105,102.10000326720001,0.0,0.38399601228787195,1684,-22.8,98,P-GPS,
0.350525974993085,36.8971284132208,35600,2018-04-17 05:34:39,1868.6788195977106,102.7000032864,0.0,0.18761500600368,1868.6788195977106,102.7000032864,0.0,0.38399601228787195,1684,-22.8,98,P-GPS,
0.350525990847412,36.897128470344704,35700,2018-04-17 05:34:39,1869.1788196137106,103.20000330239999,0.0,0.182709005846688,1869.1788196137106,103.20000330239999,0.0,0.38399601228787195,1684,-22.8,98,P-GPS,
0.35052600399099,36.8971285053061,35800,2018-04-17 05:34:39,1869.6788196297105,103.70000331840001,0.0,0.179939005758048,1869.6788196297105,103.70000331840001,0.0,0.38399601228787195,1684,-22.8,98,P-GPS,
0.35052603204277,36.897128556042794,35900,2018-04-17 05:34:39,1870.1788196457107,104.2000033344,0.0,0.17651000564832003,1870.1788196457107,104.2000033344,0.0,0.38399601228787195,1684,-22.8,98,P-GPS,
0.350526054745926,36.89712858673779,36000,2018-04-17 05:34:39,1870.6788196617106,104.7000033504,0.0,0.17484700559510402,1870.6788196617106,104.7000033504,0.0,0.38399601228787195,1684,-22.8,98,P-GPS,
0.350526080778028,36.8971286084581,36100,2018-04-17 05:34:39,1871.1788196777104,105.20000336640001,0.0,0.174313005578016,1871.1788196777104,105.20000336640001,0.0,0.38399601228787195,1684,-22.8,98,P-GPS,
0.35052613037229,36.8971285956195,36300,2018-04-17 05:34:40,1872.1788197097105,106.2000033984,0.0,0.17851000571232,1872.1788197097105,106.2000033984,0.0,0.38399601228787195,1684,-22.8,97,P-GPS,
0.35052622509887704,36.8971285878705,36500,2018-04-17 05:34:40,1873.1788197417104,107.2000034304,0.0,0.18523800592761602,1873.1788197417104,107.2000034304,0.0,0.38399601228787195,1684,-22.8,97,P-GPS,
0.35052631004401197,36.8971286169265,36700,2018-04-17 05:34:40,1874.2788197769105,108.30000346560001,0.0,0.18844000603008002,1874.2788197769105,108.30000346560001,0.0,0.38399601228787195,1684,-22.8,97,P-GPS,
0.35052632054340505,36.8971286485691,36800,2018-04-17 05:34:40,1874.7788197929108,108.80000348160002,0.0,0.18646800596697602,1874.7788197929108,108.80000348160002,0.0,0.38399601228787195,1684,-22.8,97,P-GPS,
0.350526339622255,36.8971286842917,36900,2018-04-17 05:34:40,1875.2788198089106,109.30000349760002,0.0,0.18483500591472,1875.2788198089106,109.30000349760002,0.0,0.38399601228787195,1684,-22.8,97,P-GPS,
0.350526356670435,36.8971286990349,37000,2018-04-17 05:34:40,1875.7788198249104,109.8000035136,0.0,0.184871005915872,1875.7788198249104,109.8000035136,0.0,0.38399601228787195,1684,-22.8,97,P-GPS,
0.3505263854757769,36.8971287166848,37100,2018-04-17 05:34:40,1876.2788198409105,110.3000035296,0.0,0.18559700593910403,1876.2788198409105,110.3000035296,0.0,0.38399601228787195,1684,-22.8,97,P-GPS,
0.35052641710708,36.897128714353,37200,2018-04-17 05:34:41,1876.7788198569106,110.80000354560002,0.0,0.18821000602272,1876.7788198569106,110.80000354560002,0.0,0.38399601228787195,1684,-22.8,97,P-GPS,
0.350526452311393,36.897128706675794,37300,2018-04-17 05:34:41,1877.2788198729106,111.30000356160001,0.0,0.191553006129696,1877.2788198729106,111.30000356160001,0.0,0.38399601228787195,1684,-22.8,97,P-GPS,
0.35052646767739104,36.8971286832265,37400,2018-04-17 05:34:41,1877.7788198889104,111.80000357760001,0.0,0.194611006227552,1877.7788198889104,111.80000357760001,0.0,0.38399601228787195,1684,-22.8,97,P-GPS,
0.35052652833163694,36.897128668640704,37600,2018-04-17 05:34:41,1878.7788199209106,112.80000360960001,0.0,0.200524006416768,1878.7788199209106,112.80000360960001,0.0,0.38399601228787195,1684,-22.8,97,P-GPS,
0.35052654458900506,36.897128711448495,37800,2018-04-17 05:34:41,1879.7788199529107,113.80000364160001,0.0,0.19852900635292803,1879.7788199529107,113.80000364160001,0.0,0.38399601228787195,1684,-22.8,97,P-GPS,
0.35052650279498904,36.897128731623894,38000,2018-04-17 05:34:41,1880.7788199849106,114.8000036736,0.0,0.19361100619555197,1880.7788199849106,114.8000036736,0.0,0.38399601228787195,1684,-22.8,97,P-GPS,
0.35052650113703004,36.897128741013,38100,2018-04-17 05:34:41,1881.2788200009106,115.3000036896,0.0,0.192758006168256,1881.2788200009106,115.3000036896,0.0,0.38399601228787195,1684,-22.8,97,P-GPS,
0.35052651155133596,36.8971287438983,38200,2018-04-17 05:34:41,1881.8788200201104,115.9000037088,0.0,0.19338100618819198,1881.8788200201104,115.9000037088,0.0,0.38399601228787195,1684,-22.8,97,P-GPS,
0.350526540737734,36.89712876463471,38300,2018-04-17 05:34:42,1882.3788200361105,116.4000037248,0.0,0.194211006214752,1882.3788200361105,116.4000037248,0.0,0.38399601228787195,1684,-22.8,97,P-GPS,
0.350526556574149,36.8971287747989,38400,2018-04-17 05:34:42,1882.8788200521105,116.9000037408,0.0,0.194774006232768,1882.8788200521105,116.9000037408,0.0,0.38399601228787195,1684,-22.8,97,P-GPS,
0.350526554211073,36.8971287991422,38500,2018-04-17 05:34:42,1883.3788200681106,117.4000037568,0.0,0.19279500616944,1883.3788200681106,117.4000037568,0.0,0.38399601228787195,1684,-22.8,97,P-GPS,
0.35052653728421196,36.897128814914204,38600,2018-04-17 05:34:42,1883.8788200841104,117.9000037728,0.0,0.19022400608716805,1883.8788200841104,117.9000037728,0.0,0.38399601228787195,1666,-22.8,97,P-GPS,
0.350526522063146,36.897128822407296,38700,2018-04-17 05:34:42,1884.3788201001107,118.4000037888,0.0,0.18839900602876802,1884.3788201001107,118.4000037888,0.0,0.38399601228787195,1211,-22.8,97,P-GPS,
0.350526508714383,36.897128817508296,38800,2018-04-17 05:34:42,1884.8788201161105,118.9000038048,0.0,0.18764000600448,1884.8788201161105,118.9000038048,0.0,0.38399601228787195,1035,-22.8,97,P-GPS,
0.350526508437344,36.89712883694921,38900,2018-04-17 05:34:42,1885.3788201321106,119.40000382080001,0.0,0.18619500595824004,1885.3788201321106,119.40000382080001,0.0,0.38399601228787195,1024,-22.8,97,P-GPS,
0.350526505387269,36.897128856441604,39000,2018-04-17 05:34:42,1885.7788201449105,119.8000038336,0.0,0.18452500590480003,1885.7788201449105,119.8000038336,0.0,0.38399601228787195,1024,-22.8,97,P-GPS,
0.350526503847168,36.897128864636,39100,2018-04-17 05:34:42,1886.1788201577106,120.20000384640001,0.0,0.18380400588172804,1886.1788201577106,120.20000384640001,0.0,0.38399601228787195,1024,-22.8,97,P-GPS,
0.350526510255706,36.8971288697641,39200,2018-04-17 05:34:43,1886.4788201673105,120.500003856,0.0,0.18398100588739202,1886.4788201673105,120.500003856,0.0,0.38399601228787195,1024,-22.8,97,P-GPS,
0.35052653879459394,36.8971289087189,39300,2018-04-17 05:34:43,1886.6788201737106,120.70000386240001,0.0,0.18370600587859198,1886.6788201737106,120.70000386240001,0.0,0.38399601228787195,1024,-22.8,97,P-GPS,
0.35052656408209004,36.897128953761,39400,2018-04-17 05:34:43,1886.7788201769106,120.80000386560002,0.0,0.18289300585257598,1886.7788201769106,120.80000386560002,0.0,0.38399601228787195,1024,-22.8,97,P-GPS,
0.350526594153344,36.8971290240083,39500,2018-04-17 05:34:43,1886.8788201801106,120.9000038688,0.0,0.181116005795712,1886.8788201801106,120.9000038688,0.0,0.38399601228787195,1024,-22.8,97,P-GPS,
0.350526625312195,36.8971290993687,39600,2018-04-17 05:34:43,1886.8788201801106,120.9000038688,0.0,0.179533005745056,1886.8788201801106,120.9000038688,0.0,0.38399601228787195,1024,-22.8,97,P-GPS,
0.35052665005049793,36.8971291966924,39700,2018-04-17 05:34:43,1886.9788201833105,121.000003872,0.0,0.17662200565190403,1886.9788201833105,121.000003872,0.0,0.38399601228787195,1024,-22.8,97,P-GPS,
0.350526663080289,36.8971292891866,39800,2018-04-17 05:34:43,1886.9788201833105,121.000003872,0.35999970196000003,0.173413005549216,1886.9788201833105,121.000003872,0.35999970196000003,0.38399601228787195,1024,-22.8,97,P-GPS,
0.350526666259012,36.89712938400729,39900,2018-04-17 05:34:43,1886.9788201833105,121.000003872,0.35999970196000003,0.16966000542912002,1886.9788201833105,121.000003872,0.35999970196000003,0.38399601228787195,1024,-22.8,97,P-GPS,
0.35052667524761605,36.897129448056795,40000,2018-04-17 05:34:43,1887.0788201865107,121.10000387520002,0.35999970196000003,0.16817400538156804,1887.0788201865107,121.10000387520002,0.35999970196000003,0.38399601228787195,1024,-22.8,97,P-GPS,
0.35052668816300897,36.8971295049227,40100,2018-04-17 05:34:43,1887.0788201865107,121.10000387520002,0.35999970196000003,0.16763000536416,1887.0788201865107,121.10000387520002,0.35999970196000003,0.38399601228787195,1024,-22.8,97,P-GPS,
0.350526714912237,36.8971295351638,40200,2018-04-17 05:34:43,1887.0788201865107,121.10000387520002,0.35999970196000003,0.169576005426432,1887.0788201865107,121.10000387520002,0.35999970196000003,0.38399601228787195,1024,-22.8,97,P-GPS,
0.350526762930776,36.897129543221205,40300,2018-04-17 05:34:44,1887.0788201865107,121.10000387520002,0.0,0.174511005584352,1887.0788201865107,121.10000387520002,0.35999970196000003,0.38399601228787195,1024,-22.8,97,P-GPS,
0.350526835966896,36.89712950668171,40400,2018-04-17 05:34:44,1887.0788201865107,121.10000387520002,0.0,0.18339800586873597,1887.0788201865107,121.10000387520002,0.35999970196000003,0.38399601228787195,998,-22.8,97,P-GPS,
0.350526947713166,36.897129447396296,40500,2018-04-17 05:34:44,1887.0788201865107,121.10000387520002,0.0,0.197133006308256,1887.0788201865107,121.10000387520002,0.35999970196000003,0.38399601228787195,822,-22.8,97,P-GPS,
0.35052707836933394,36.8971293581566,40600,2018-04-17 05:34:44,1887.0788201865107,121.10000387520002,0.0,0.213898006844736,1887.0788201865107,121.10000387520002,0.35999970196000003,0.38399601228787195,784,-22.8,97,P-GPS,
0.35052743899273603,36.897129143088705,40800,2018-04-17 05:34:44,1886.9788201833105,121.000003872,0.0,0.259544008305408,1887.0788201865107,121.10000387520002,0.35999970196000003,0.38399601228787195,730,-22.8,97,P-GPS,
0.350527655305466,36.897129033558,40900,2018-04-17 05:34:44,1886.9788201833105,121.000003872,0.0,0.286322009162304,1887.0788201865107,121.10000387520002,0.35999970196000003,0.38399601228787195,740,-22.8,97,P-GPS,
0.350527865738291,36.8971289203809,41000,2018-04-17 05:34:44,1886.9788201833105,121.000003872,0.0,0.31266601000531197,1887.0788201865107,121.10000387520002,0.35999970196000003,0.38399601228787195,745,-22.8,97,P-GPS,
0.35052810520301697,36.897128796789,41100,2018-04-17 05:34:44,1886.8788201801106,120.9000038688,0.0,0.3424750109592,1887.0788201865107,121.10000387520002,0.35999970196000003,0.38399601228787195,777,-22.8,97,P-GPS,
0.350528342554022,36.897128644317796,41200,2018-04-17 05:34:45,1886.7788201769106,120.80000386560002,0.0,0.37331201194598396,1887.0788201865107,121.10000387520002,0.35999970196000003,0.38399601228787195,991,-22.8,97,P-GPS,
0.35052861194751195,36.8971285089932,41300,2018-04-17 05:34:45,1886.6788201737106,120.70000386240001,0.0,0.406759013016288,1887.0788201865107,121.10000387520002,0.35999970196000003,0.406759013016288,1024,-22.8,97,P-GPS,
0.350528864413734,36.897128369061896,41400,2018-04-17 05:34:45,1886.6788201737106,120.70000386240001,0.0,0.438691014038112,1887.0788201865107,121.10000387520002,0.35999970196000003,0.438691014038112,1024,-22.8,97,P-GPS,
0.35052910737147197,36.8971282618566,41500,2018-04-17 05:34:45,1886.5788201705104,120.60000385920002,0.0,0.46822201498310406,1887.0788201865107,121.10000387520002,0.35999970196000003,0.46822201498310406,1024,-22.8,97,P-GPS,
0.350529314308028,36.8971281703869,41600,2018-04-17 05:34:45,1886.5788201705104,120.60000385920002,0.0,0.493382015788224,1887.0788201865107,121.10000387520002,0.35999970196000003,0.493382015788224,1024,-22.8,97,P-GPS,
0.35052953001334897,36.8971280986301,41700,2018-04-17 05:34:45,1886.5788201705104,120.60000385920002,0.0,0.51857001659424,1887.0788201865107,121.10000387520002,0.35999970196000003,0.51857001659424,1024,-22.8,97,P-GPS,
0.35052972216159806,36.8971280054796,41800,2018-04-17 05:34:45,1886.5788201705104,120.60000385920002,0.0,0.5422910173533121,1887.0788201865107,121.10000387520002,0.35999970196000003,0.5422910173533121,1024,-22.8,97,P-GPS,
0.35052993110032593,36.8971279025491,41900,2018-04-17 05:34:45,1886.4788201673105,120.500003856,0.35999970196000003,0.56816001818112,1887.0788201865107,121.10000387520002,0.35999970196000003,0.56816001818112,1024,-22.8,97,P-GPS,
0.35053026618524796,36.897127439752495,42000,2018-04-17 05:34:45,1886.4788201673105,120.500003856,2.735997734896,0.623652019956864,1887.0788201865107,121.10000387520002,2.735997734896,0.623652019956864,1024,-22.8,97,P-GPS,
0.35053082462184804,36.8971264095221,42100,2018-04-17 05:34:45,1886.4788201673105,120.500003856,5.003995857244,0.7340580234898562,1887.0788201865107,121.10000387520002,5.003995857244,0.7340580234898562,1024,-22.8,97,P-GPS,
0.350531535857791,36.897124914825504,42200,2018-04-17 05:34:45,1886.4788201673105,120.500003856,6.623994516064001,0.8950860286427521,1887.0788201865107,121.10000387520002,6.623994516064001,0.8950860286427521,1024,-22.8,97,P-GPS,
0.350532478336039,36.8971230054679,42300,2018-04-17 05:34:46,1886.4788201673105,120.500003856,8.567992906648,1.1139700356470401,1887.0788201865107,121.10000387520002,8.567992906648,1.1139700356470401,1024,-22.8,97,P-GPS,
0.35053485048389504,36.8971181442025,42500,2018-04-17 05:34:46,1886.4788201673105,120.500003856,11.303990641543999,1.69122005411904,1887.0788201865107,121.10000387520002,11.303990641543999,1.69122005411904,1024,-22.8,97,P-GPS,
0.350536228833092,36.8971152590446,42600,2018-04-17 05:34:46,1886.4788201673105,120.500003856,12.563989598403998,2.03848006523136,1887.0788201865107,121.10000387520002,12.563989598403998,2.03848006523136,1024,-22.8,97,P-GPS,
0.35053781174742304,36.897112141184,42700,2018-04-17 05:34:46,1886.4788201673105,120.500003856,13.715988644676,2.42246007751872,1887.0788201865107,121.10000387520002,13.715988644676,2.42246007751872,1024,-22.8,97,P-GPS,
0.35053947051141804,36.8971087735589,42800,2018-04-17 05:34:46,1886.4788201673105,120.500003856,14.975987601536,2.8355100907363204,1887.0788201865107,121.10000387520002,14.975987601536,2.8355100907363204,1024,-22.8,97,P-GPS,
0.35054134129882203,36.8971051440765,42900,2018-04-17 05:34:46,1886.4788201673105,120.500003856,16.127986647808,3.2869601051827204,1887.0788201865107,121.10000387520002,16.127986647808,3.2869601051827204,1024,-22.8,97,P-GPS,
0.35054326060571606,36.8971012294421,43000,2018-04-17 05:34:46,1886.4788201673105,120.500003856,17.243985723884,3.76874012059968,1887.0788201865107,121.10000387520002,17.243985723884,3.76874012059968,1024,-22.9,97,P-GPS,
0.350547461090698,36.8970928257734,43200,2018-04-17 05:34:47,1886.5788201705104,120.60000385920002,19.655983727016,4.80966015390912,1887.0788201865107,121.10000387520002,19.655983727016,4.80966015390912,1024,-22.8,97,P-GPS,
0.35054980894216997,36.8970882502829,43300,2018-04-17 05:34:47,1886.5788201705104,120.60000385920002,20.483983041524,5.38046017217472,1887.0788201865107,121.10000387520002,20.483983041524,5.38046017217472,1024,-22.8,97,P-GPS,
0.35055220457381703,36.8970833727791,43400,2018-04-17 05:34:47,1886.5788201705104,120.60000385920002,21.5999821176,5.983180191461759,1887.0788201865107,121.10000387520002,21.5999821176,5.983180191461759,1024,-22.8,97,P-GPS,
0.350554819825565,36.8970782795971,43500,2018-04-17 05:34:47,1886.5788201705104,120.60000385920002,22.751981163872003,6.619140211812481,1887.0788201865107,121.10000387520002,22.751981163872003,6.619140211812481,1024,-22.8,97,P-GPS,
