latitude,longitude,time_millisecond,datetime_utc,altitude_m,ascent_m,speed_kph,distance_m,max_altitude_m,max_ascent_m,max_speed_kph,max_distance_m,rc_throttle,gimbal_pitch_degrees,battery_percent,flycState,message
0.355592288340235,36.9193426007016,100,2017-11-06 07:36:28,1678.4293750097406,0.0,0.0,0.0,1678.4293750097406,0.0,0.0,0.0,1024,0.0,100,Motors_Started,
0.355592431478834,36.9193426298873,200,2017-11-06 07:36:28,1678.4293750097406,0.0,0.0,0.0162454005198528,1678.4293750097406,0.0,0.0,0.0162454005198528,1024,0.0,100,Motors_Started,
0.355592603794264,36.9193426686098,300,2017-11-06 07:36:28,1678.4293750097406,0.0,0.0,0.035884001148288006,1678.4293750097406,0.0,0.0,0.035884001148288006,1024,0.0,100,Motors_Started,
0.355592910044327,36.9193428000315,500,2017-11-06 07:36:28,1678.4293750097406,0.0,0.0,0.0726038023233216,1678.4293750097406,0.0,0.0,0.0726038023233216,1024,0.0,100,Motors_Started,
0.355593057182385,36.9193428560321,600,2017-11-06 07:36:28,1678.4293750097406,0.0,0.0,0.09009130288292161,1678.4293750097406,0.0,0.0,0.09009130288292161,1024,0.0,100,Motors_Started,
0.355593226494964,36.9193429126031,700,2017-11-06 07:36:28,1678.4293750097406,0.0,0.0,0.10994300351817601,1678.4293750097406,0.0,0.0,0.10994300351817601,1024,0.0,100,Motors_Started,Setting new Return-To-Home altitude to 30m (98 ft). Setting new Maximum Flight Altitude to 100m (328 ft)
0.355593346892342,36.9193429981516,800,2017-11-06 07:36:29,1678.4293750097406,0.0,0.0,0.125741004023712,1678.4293750097406,0.0,0.0,0.125741004023712,1024,0.0,100,Motors_Started,
0.355593488576741,36.9193430808079,900,2017-11-06 07:36:29,1678.4293750097406,0.0,0.0,0.143756004600192,1678.4293750097406,0.0,0.0,0.143756004600192,1024,0.0,100,Motors_Started,
0.355593630914145,36.9193431514036,1000,2017-11-06 07:36:29,1678.4293750097406,0.0,0.0,0.16137400516396802,1678.4293750097406,0.0,0.0,0.16137400516396802,533,0.0,100,Motors_Started,
0.355593787510205,36.9193432193641,1100,2017-11-06 07:36:29,1678.4293750097406,0.0,0.0,0.180354005771328,1678.4293750097406,0.0,0.0,0.180354005771328,829,0.0,100,Motors_Started,
0.3555939285188,36.9193432611424,1200,2017-11-06 07:36:29,1678.4293750097406,0.0,0.0,0.196629006292128,1678.4293750097406,0.0,0.0,0.196629006292128,988,0.0,100,Motors_Started,
0.355594075531467,36.9193433122409,1300,2017-11-06 07:36:29,1678.4293750097406,0.0,0.0,0.213918006845376,1678.4293750097406,0.0,0.0,0.213918006845376,1024,0.0,100,Motors_Started,
0.355594192696384,36.9193433659754,1400,2017-11-06 07:36:29,1678.4293750097406,0.0,0.0,0.22823500730352003,1678.4293750097406,0.0,0.0,0.22823500730352003,1024,0.0,100,Motors_Started,
0.355594333364633,36.9193434113322,1500,2017-11-06 07:36:29,1678.4293750097406,0.0,0.0,0.24463400782828804,1678.4293750097406,0.0,0.0,0.24463400782828804,1024,0.0,100,Assisted_Takeoff,
0.355594494282584,36.9193434867995,1600,2017-11-06 07:36:29,1678.4293750097406,0.0,0.0,0.26436500845968003,1678.4293750097406,0.0,0.0,0.26436500845968003,1024,0.0,100,Assisted_Takeoff,
0.355594664976083,36.9193435543232,1700,2017-11-06 07:36:29,1678.4293750097406,0.0,0.0,0.284778009112896,1678.4293750097406,0.0,0.0,0.284778009112896,1024,0.0,100,Assisted_Takeoff,
0.355594852160835,36.9193436243595,1800,2017-11-06 07:36:30,1678.4293750097406,0.0,0.0,0.306998009823936,1678.4293750097406,0.0,0.0,0.306998009823936,1024,0.0,100,Assisted_Takeoff,
0.355595040417104,36.9193436815571,1900,2017-11-06 07:36:30,1678.4293750097406,0.0,0.0,0.32880401052172803,1678.4293750097406,0.0,0.0,0.32880401052172803,1024,0.0,100,Assisted_Takeoff,
0.355595207427063,36.9193437365559,2000,2017-11-06 07:36:30,1678.4293750097406,0.0,0.0,0.34832901114652803,1678.4293750097406,0.0,0.0,0.34832901114652803,1024,0.0,100,Assisted_Takeoff,
0.355595373236859,36.9193437928373,2100,2017-11-06 07:36:30,1678.4293750097406,0.0,0.0,0.36778301176905603,1678.4293750097406,0.0,0.0,0.36778301176905603,1024,0.0,100,Assisted_Takeoff,
0.355595561644573,36.9193438385223,2200,2017-11-06 07:36:30,1678.4293750097406,0.0,0.0,0.389168012453376,1678.4293750097406,0.0,0.0,0.389168012453376,1024,0.0,100,Assisted_Takeoff,
0.355595746031658,36.919343888509,2300,2017-11-06 07:36:30,1678.4293750097406,0.0,0.0,0.410319013130208,1678.4293750097406,0.0,0.0,0.410319013130208,1107,0.0,100,Assisted_Takeoff,
0.355595913004163,36.9193439323022,2400,2017-11-06 07:36:30,1678.4293750097406,0.0,0.0,0.4294240137415681,1678.4293750097406,0.0,0.0,0.4294240137415681,1353,0.0,100,Assisted_Takeoff,
0.355596081237084,36.9193439779626,2500,2017-11-06 07:36:30,1678.4293750097406,0.0,0.0,0.448739014359648,1678.4293750097406,0.0,0.0,0.448739014359648,1317,0.0,100,Assisted_Takeoff,
0.355596187878996,36.9193440230587,2600,2017-11-06 07:36:30,1678.4293750097406,0.0,0.0,0.46159801477113604,1678.4293750097406,0.0,0.0,0.46159801477113604,1316,0.0,100,Assisted_Takeoff,
0.355596304464187,36.9193440710859,2700,2017-11-06 07:36:30,1678.4293750097406,0.0,0.0,0.475609015219488,1678.4293750097406,0.0,0.0,0.475609015219488,1332,0.0,100,Assisted_Takeoff,
0.35559641236163,36.9193441540936,2800,2017-11-06 07:36:31,1678.4293750097406,0.0,0.0,0.49007101568227207,1678.4293750097406,0.0,0.0,0.49007101568227207,1358,0.0,100,Assisted_Takeoff,
0.355596544817636,36.9193442512149,2900,2017-11-06 07:36:31,1678.4293750097406,0.0,0.0,0.507686016245952,1678.4293750097406,0.0,0.0,0.507686016245952,1407,0.0,100,Assisted_Takeoff,
0.355596655058409,36.9193444045858,3000,2017-11-06 07:36:31,1678.4293750097406,0.0,0.35999970196000003,0.525407016813024,1678.4293750097406,0.0,0.35999970196000003,0.525407016813024,1471,0.0,100,Assisted_Takeoff,
0.355596771378164,36.9193446129691,3100,2017-11-06 07:36:31,1678.4293750097406,0.0,0.35999970196000003,0.546459017486688,1678.4293750097406,0.0,0.35999970196000003,0.546459017486688,1486,0.0,100,GPS_Atti,
0.355596855585003,36.9193448693951,3200,2017-11-06 07:36:31,1678.4293750097406,0.0,0.7199994039200001,0.567113018147616,1678.4293750097406,0.0,0.7199994039200001,0.567113018147616,1547,0.0,100,GPS_Atti,
0.355596923528572,36.9193451177964,3300,2017-11-06 07:36:31,1678.5293750129408,0.1000000032,0.35999970196000003,0.586558018769856,1678.5293750129408,0.1000000032,0.7199994039200001,0.586558018769856,1642,0.0,100,GPS_Atti,
0.355596949783975,36.9193453528733,3400,2017-11-06 07:36:31,1678.7293750193408,0.3000000096,0.35999970196000003,0.601986019263552,1678.7293750193408,0.3000000096,0.7199994039200001,0.601986019263552,1684,0.0,100,GPS_Atti,
0.35559698680502,36.9193455575245,3500,2017-11-06 07:36:31,1678.8293750225407,0.4000000128,0.35999970196000003,0.617349019755168,1678.8293750225407,0.4000000128,0.7199994039200001,0.617349019755168,1684,0.0,100,GPS_Atti,
0.355597006942359,36.9193456521924,3600,2017-11-06 07:36:31,1679.0293750289409,0.6000000192,0.35999970196000003,0.6249000199968,1679.0293750289409,0.6000000192,0.7199994039200001,0.6249000199968,1684,0.0,100,GPS_Atti,
0.355597063924871,36.9193457634576,3700,2017-11-06 07:36:31,1679.329375038541,0.9000000288000001,0.35999970196000003,0.6369770203832641,1679.329375038541,0.9000000288000001,0.7199994039200001,0.6369770203832641,1684,0.0,100,GPS_Atti,
0.355597204741309,36.9193457941511,3800,2017-11-06 07:36:32,1679.6293750481407,1.2000000384,0.0,0.651944020862208,1679.6293750481407,1.2000000384,0.7199994039200001,0.651944020862208,1684,0.0,100,GPS_Atti,Home Point Recorded. RTH Altitude:  30m.
0.355597347638898,36.9193458256935,3900,2017-11-06 07:36:32,1680.0293750609408,1.6000000512,0.0,0.667206021350592,1680.0293750609408,1.6000000512,0.7199994039200001,0.667206021350592,1684,0.0,100,GPS_Atti,
0.355597512059632,36.9193457680163,4000,2017-11-06 07:36:32,1680.4293750737409,2.000000064,0.0,0.679348021739136,1680.4293750737409,2.000000064,0.7199994039200001,0.679348021739136,1684,0.0,100,GPS_Atti,
0.355597690349823,36.9193457289036,4100,2017-11-06 07:36:32,1680.829375086541,2.4000000768,0.0,0.694188022214016,1680.829375086541,2.4000000768,0.7199994039200001,0.694188022214016,1684,0.0,100,GPS_Atti,
0.355597818705407,36.9193456434032,4200,2017-11-06 07:36:32,1681.3293751025408,2.9000000928,0.0,0.7019440224622081,1681.3293751025408,2.9000000928,0.7199994039200001,0.7019440224622081,1684,0.0,100,GPS_Atti,
0.355597950532834,36.9193455773335,4300,2017-11-06 07:36:32,1681.8293751185408,3.4000001088000005,0.0,0.7113750227640001,1681.8293751185408,3.4000001088000005,0.7199994039200001,0.7113750227640001,1684,0.0,100,GPS_Atti,
0.355598067906192,36.919345489503,4400,2017-11-06 07:36:32,1682.4293751377409,4.000000128,0.0,0.71853502299312,1682.4293751377409,4.000000128,0.7199994039200001,0.71853502299312,1684,0.0,100,GPS_Atti,
0.355598184328538,36.9193454207454,4500,2017-11-06 07:36:32,1682.9293751537407,4.500000144,0.0,0.726807023257824,1682.9293751537407,4.500000144,0.7199994039200001,0.726807023257824,1684,0.0,100,GPS_Atti,
0.355598264579887,36.9193453649707,4600,2017-11-06 07:36:32,1683.4293751697408,5.00000016,0.0,0.732242023431744,1683.4293751697408,5.00000016,0.7199994039200001,0.732242023431744,1684,0.0,100,GPS_Atti,
0.355598355559425,36.919345314973,4700,2017-11-06 07:36:32,1683.9293751857408,5.5000001759999995,0.0,0.7391500236528,1683.9293751857408,5.5000001759999995,0.7199994039200001,0.7391500236528,1684,0.0,100,GPS_Atti,
0.355598452078929,36.9193453214952,4800,2017-11-06 07:36:33,1684.4293752017409,6.000000192000001,0.0,0.749253023976096,1684.4293752017409,6.000000192000001,0.7199994039200001,0.749253023976096,1684,0.0,100,GPS_Atti,
0.355598545830078,36.9193453099128,4900,2017-11-06 07:36:33,1684.9293752177407,6.500000208,0.0,0.75829002426528,1684.9293752177407,6.500000208,0.7199994039200001,0.75829002426528,1684,0.0,100,GPS_Atti,
0.355598583750025,36.9193453113463,5000,2017-11-06 07:36:33,1685.429375233741,7.000000224,0.0,0.7622240243911681,1685.429375233741,7.000000224,0.7199994039200001,0.7622240243911681,1684,0.0,100,GPS_Atti,
0.35559863407383,36.9193452974337,5100,2017-11-06 07:36:33,1685.9293752497408,7.50000024,0.0,0.7667610245363521,1685.9293752497408,7.50000024,0.7199994039200001,0.7667610245363521,1684,0.0,100,GPS_Atti,
0.355598657770947,36.9193453007724,5200,2017-11-06 07:36:33,1686.4293752657406,8.000000256,0.0,0.769332024618624,1686.4293752657406,8.000000256,0.7199994039200001,0.769332024618624,1684,0.0,100,GPS_Atti,
0.355598696130574,36.9193452805255,5300,2017-11-06 07:36:33,1686.929375281741,8.500000272,0.0,0.77239002471648,1686.929375281741,8.500000272,0.7199994039200001,0.77239002471648,1684,0.0,100,GPS_Atti,
0.355598716564289,36.9193453287641,5400,2017-11-06 07:36:33,1687.4293752977408,9.000000288,0.0,0.7765670248501441,1687.4293752977408,9.000000288,0.7199994039200001,0.7765670248501441,1684,0.0,100,GPS_Atti,
0.355598759830417,36.9193453598853,5500,2017-11-06 07:36:33,1687.9293753137408,9.500000304,0.0,0.782349025035168,1687.9293753137408,9.500000304,0.7199994039200001,0.782349025035168,1684,0.0,100,GPS_Atti,
0.355598798639495,36.9193454071315,5600,2017-11-06 07:36:33,1688.4293753297407,10.00000032,0.0,0.788386025228352,1688.4293753297407,10.00000032,0.7199994039200001,0.788386025228352,1684,0.0,100,GPS_Atti,
0.35559885968009,36.9193454033919,5700,2017-11-06 07:36:33,1688.929375345741,10.500000336,0.0,0.7944610254227521,1688.929375345741,10.500000336,0.7199994039200001,0.7944610254227521,1684,0.0,100,GPS_Atti,
0.355598872671816,36.9193453552345,5800,2017-11-06 07:36:34,1689.3293753585408,10.9000003488,0.0,0.793708025398656,1689.3293753585408,10.9000003488,0.7199994039200001,0.7944610254227521,1684,0.0,100,GPS_Atti,
0.355598862047847,36.9193452596828,5900,2017-11-06 07:36:34,1689.8293753745409,11.4000003648,0.0,0.788572025234304,1689.8293753745409,11.4000003648,0.7199994039200001,0.7944610254227521,1684,0.0,100,GPS_Atti,
0.355598796577885,36.9193452090304,6000,2017-11-06 07:36:34,1690.3293753905407,11.9000003808,0.0,0.7797150249508801,1690.3293753905407,11.9000003808,0.7199994039200001,0.7944610254227521,1684,0.0,100,GPS_Atti,
0.35559876129276,36.919345151153,6100,2017-11-06 07:36:34,1690.829375406541,12.400000396800001,0.0,0.773691024758112,1690.829375406541,12.400000396800001,0.7199994039200001,0.7944610254227521,1684,0.0,100,GPS_Atti,
0.355598736455732,36.919345075756,6200,2017-11-06 07:36:34,1691.3293754225408,12.9000004128,0.0,0.768078024578496,1691.3293754225408,12.9000004128,0.7199994039200001,0.7944610254227521,1684,0.0,100,GPS_Atti,
0.355598742759439,36.9193449609327,6300,2017-11-06 07:36:34,1691.8293754385406,13.4000004288,0.0,0.764254024456128,1691.8293754385406,13.4000004288,0.7199994039200001,0.7944610254227521,1684,0.0,100,GPS_Atti,
0.355598796791211,36.9193448308316,6400,2017-11-06 07:36:34,1692.329375454541,13.9000004448,0.0,0.7650880244828161,1692.329375454541,13.9000004448,0.7199994039200001,0.7944610254227521,1684,0.0,100,GPS_Atti,
0.355598850682937,36.9193447195803,6500,2017-11-06 07:36:34,1692.8293754705408,14.400000460800001,0.0,0.7668690245398081,1692.8293754705408,14.400000460800001,0.7199994039200001,0.7944610254227521,1684,0.0,100,GPS_Atti,
0.355598912124129,36.919344578415,6700,2017-11-06 07:36:34,1693.8293755025409,15.4000004928,0.0,0.7687370245995842,1693.8293755025409,15.4000004928,0.7199994039200001,0.7944610254227521,1684,0.0,100,GPS_Atti,
0.355598960045979,36.9193444624819,6800,2017-11-06 07:36:35,1694.329375518541,15.900000508800002,0.0,0.7702800246489601,1694.329375518541,15.900000508800002,0.7199994039200001,0.7944610254227521,1684,0.0,100,GPS_Atti,
0.35559900624982,36.9193443177905,6900,2017-11-06 07:36:35,1694.8293755345408,16.400000524800003,0.0,0.771089024674848,1694.8293755345408,16.400000524800003,0.7199994039200001,0.7944610254227521,1684,0.0,100,GPS_Atti,
0.355599052609992,36.9193441739401,7000,2017-11-06 07:36:35,1695.3293755505406,16.9000005408,0.0,0.7723050247137601,1695.3293755505406,16.9000005408,0.7199994039200001,0.7944610254227521,1684,0.0,100,GPS_Atti,
0.355599090733495,36.9193440343202,7100,2017-11-06 07:36:35,1695.8293755665409,17.400000556800002,0.0,0.7730840247386881,1695.8293755665409,17.400000556800002,0.7199994039200001,0.7944610254227521,1684,0.0,100,GPS_Atti,
0.355599120193675,36.9193439271164,7200,2017-11-06 07:36:35,1696.3293755825407,17.9000005728,0.0,0.77393002476576,1696.3293755825407,17.9000005728,0.7199994039200001,0.7944610254227521,1684,0.0,100,GPS_Atti,
0.355599142915354,36.919343752015,7400,2017-11-06 07:36:35,1697.3293756145408,18.900000604800002,0.0,0.772948024734336,1697.3293756145408,18.900000604800002,0.7199994039200001,0.7944610254227521,1684,0.0,100,GPS_Atti,
0.355599157962177,36.9193436556464,7500,2017-11-06 07:36:35,1697.8293756305409,19.4000006208,0.0,0.772899024732768,1697.8293756305409,19.4000006208,0.7199994039200001,0.7944610254227521,1684,0.0,100,GPS_Atti,
0.355599188629034,36.9193435903298,7600,2017-11-06 07:36:35,1698.3293756465407,19.900000636799998,0.0,0.77520502480656,1698.3293756465407,19.900000636799998,0.7199994039200001,0.7944610254227521,1684,0.0,100,GPS_Atti,
0.355599199156924,36.9193435249886,7700,2017-11-06 07:36:35,1698.829375662541,20.4000006528,0.0,0.7753680248117761,1698.829375662541,20.4000006528,0.7199994039200001,0.7944610254227521,1684,0.0,100,GPS_Atti,
0.355599171683446,36.9193434645819,7800,2017-11-06 07:36:36,1699.4293756817408,21.000000672,0.0,0.7714740246871681,1699.4293756817408,21.000000672,0.7199994039200001,0.7944610254227521,1684,0.0,100,GPS_Atti,
0.355599150819821,36.9193434053081,7900,2017-11-06 07:36:36,1699.9293756977406,21.500000688,0.0,0.768377024588064,1699.9293756977406,21.500000688,0.7199994039200001,0.7944610254227521,1684,0.0,100,GPS_Atti,
0.355599143828911,36.9193433862836,8000,2017-11-06 07:36:36,1700.429375713741,22.000000703999998,0.0,0.7673610245555521,1700.429375713741,22.000000703999998,0.7199994039200001,0.7944610254227521,1684,0.0,100,GPS_Atti,
0.355599155262216,36.91934336367,8100,2017-11-06 07:36:36,1700.9293757297407,22.50000072,0.0,0.7683420245869441,1700.9293757297407,22.50000072,0.7199994039200001,0.7944610254227521,1684,0.0,100,GPS_Atti,
0.355599171948882,36.919343346984,8200,2017-11-06 07:36:36,1701.4293757457408,23.000000736000004,0.0,0.76998502463952,1701.4293757457408,23.000000736000004,0.7199994039200001,0.7944610254227521,1684,0.0,100,GPS_Atti,
0.355599184118244,36.9193433343028,8300,2017-11-06 07:36:36,1702.0293757649408,23.6000007552,0.0,0.77118002467776,1702.0293757649408,23.6000007552,0.7199994039200001,0.7944610254227521,1684,0.0,100,GPS_Atti,
0.355599137779242,36.9193433795671,8400,2017-11-06 07:36:36,1702.5293757809407,24.100000771200005,0.0,0.766608024531456,1702.5293757809407,24.100000771200005,0.7199994039200001,0.7944610254227521,1684,0.0,100,GPS_Atti,
0.355599099900006,36.9193434441591,8500,2017-11-06 07:36:36,1703.029375796941,24.600000787200003,0.0,0.763272024424704,1703.029375796941,24.600000787200003,0.7199994039200001,0.7944610254227521,1684,0.0,100,GPS_Atti,
0.355599070957671,36.9193435331124,8600,2017-11-06 07:36:36,1703.5293758129408,25.100000803200004,0.0,0.7613620243635841,1703.5293758129408,25.100000803200004,0.7199994039200001,0.7944610254227521,1684,0.0,100,GPS_Atti,
0.355599063264901,36.9193436146745,8700,2017-11-06 07:36:36,1704.1293758321408,25.7000008224,0.0,0.7618040243777281,1704.1293758321408,25.7000008224,0.7199994039200001,0.7944610254227521,1684,0.0,100,GPS_Atti,
0.355599041165288,36.9193437420458,8800,2017-11-06 07:36:37,1704.6293758481409,26.200000838400005,0.0,0.761606024371392,1704.6293758481409,26.200000838400005,0.7199994039200001,0.7944610254227521,1684,0.0,100,GPS_Atti,
0.355599045430183,36.9193438429196,8900,2017-11-06 07:36:37,1705.1293758641407,26.700000854400002,0.0,0.764022024448704,1705.1293758641407,26.700000854400002,0.7199994039200001,0.7944610254227521,1684,0.0,100,GPS_Atti,
0.355599060605652,36.9193439464311,9000,2017-11-06 07:36:37,1705.729375883341,27.3000008736,0.0,0.767842024570944,1705.729375883341,27.3000008736,0.7199994039200001,0.7944610254227521,1684,0.0,100,GPS_Atti,
0.355599092086732,36.9193440107681,9100,2017-11-06 07:36:37,1706.2293758993408,27.8000008896,0.0,0.7726960247262721,1706.2293758993408,27.8000008896,0.7199994039200001,0.7944610254227521,1684,0.0,100,GPS_Atti,
0.355599106250937,36.9193440816564,9200,2017-11-06 07:36:37,1706.7293759153408,28.300000905600005,0.0,0.7758730248279361,1706.7293759153408,28.300000905600005,0.7199994039200001,0.7944610254227521,1684,0.0,100,GPS_Atti,
0.35559913697479,36.919344128196,9300,2017-11-06 07:36:37,1707.3293759345408,28.9000009248,0.0,0.780323024970336,1707.3293759345408,28.9000009248,0.7199994039200001,0.7944610254227521,1684,0.0,100,GPS_Atti,
0.355599145911691,36.9193442195167,9400,2017-11-06 07:36:37,1707.8293759505407,29.4000009408,0.0,0.783563025074016,1707.8293759505407,29.4000009408,0.7199994039200001,0.7944610254227521,1684,0.0,100,GPS_Atti,
0.355599166630384,36.919344289771,9500,2017-11-06 07:36:37,1708.429375969741,30.00000096,0.0,0.787632025204224,1708.429375969741,30.00000096,0.7199994039200001,0.7944610254227521,1684,0.0,100,GPS_Atti,
0.355599188785365,36.9193444040671,9600,2017-11-06 07:36:37,1708.9293759857408,30.500000976,0.0,0.793143025380576,1708.9293759857408,30.500000976,0.7199994039200001,0.7944610254227521,1684,0.0,100,GPS_Atti,
0.355599215135217,36.9193444815292,9700,2017-11-06 07:36:37,1709.529376004941,31.100000995200002,0.0,0.798192025542144,1709.529376004941,31.100000995200002,0.7199994039200001,0.798192025542144,1684,0.0,99,GPS_Atti,
0.355599204740859,36.9193445934186,9800,2017-11-06 07:36:38,1710.0293760209408,31.6000010112,0.0,0.800432025613824,1710.0293760209408,31.6000010112,0.7199994039200001,0.800432025613824,1684,0.0,99,GPS_Atti,
0.355599202563629,36.9193446771728,9900,2017-11-06 07:36:38,1710.6293760401406,32.2000010304,0.0,0.802828025690496,1710.6293760401406,32.2000010304,0.7199994039200001,0.802828025690496,1684,0.0,99,GPS_Atti,
0.355599181289637,36.9193448252874,10000,2017-11-06 07:36:38,1711.129376056141,32.700001046400004,0.0,0.805468025774976,1711.129376056141,32.700001046400004,0.7199994039200001,0.805468025774976,1684,0.0,99,GPS_Atti,
0.355599179013072,36.9193449323494,10100,2017-11-06 07:36:38,1711.7293760753407,33.3000010656,0.0,0.808964025886848,1711.7293760753407,33.3000010656,0.7199994039200001,0.808964025886848,1684,0.0,99,GPS_Atti,
0.355599135251897,36.9193450980751,10200,2017-11-06 07:36:38,1712.229376091341,33.8000010816,0.0,0.810484025935488,1712.229376091341,33.8000010816,0.7199994039200001,0.810484025935488,1684,0.0,99,GPS_Atti,
0.355599108646379,36.9193451973682,10300,2017-11-06 07:36:38,1712.7293761073408,34.3000010976,0.0,0.8115680259701761,1712.7293761073408,34.3000010976,0.7199994039200001,0.8115680259701761,1684,0.0,99,GPS_Atti,
0.355599037431266,36.9193453077769,10400,2017-11-06 07:36:38,1713.3293761265406,34.900001116800006,0.0,0.808662025877184,1713.3293761265406,34.900001116800006,0.7199994039200001,0.8115680259701761,1684,0.0,99,GPS_Atti,
0.355598999692076,36.9193453544551,10500,2017-11-06 07:36:38,1713.829376142541,35.4000011328,0.0,0.806724025815168,1713.829376142541,35.4000011328,0.7199994039200001,0.8115680259701761,1684,0.0,99,GPS_Atti,
0.355598966646062,36.9193454413087,10600,2017-11-06 07:36:38,1714.4293761617407,36.000001152,0.0,0.8070570258258241,1714.4293761617407,36.000001152,0.7199994039200001,0.8115680259701761,1684,0.0,99,GPS_Atti,
0.355598962446305,36.9193454864437,10700,2017-11-06 07:36:38,1714.929376177741,36.500001168000004,0.0,0.808606025875392,1714.929376177741,36.500001168000004,0.7199994039200001,0.8115680259701761,1684,0.0,99,GPS_Atti,
0.355598923997114,36.9193455464329,10800,2017-11-06 07:36:39,1715.4293761937408,37.000001184000006,0.0,0.807367025835744,1715.4293761937408,37.000001184000006,0.7199994039200001,0.8115680259701761,1684,0.0,99,GPS_Atti,
0.355598904211519,36.9193455397533,10900,2017-11-06 07:36:39,1716.0293762129409,37.6000012032,0.35999970196000003,0.805054025761728,1716.0293762129409,37.6000012032,0.7199994039200001,0.8115680259701761,1684,0.0,99,GPS_Atti,
0.355598879983529,36.9193456020395,11000,2017-11-06 07:36:39,1716.529376228941,38.1000012192,0.0,0.805438025774016,1716.529376228941,38.1000012192,0.7199994039200001,0.8115680259701761,1684,0.0,99,GPS_Atti,
0.355598884969825,36.9193456518932,11100,2017-11-06 07:36:39,1717.1293762481407,38.7000012384,0.0,0.8082540258641281,1717.1293762481407,38.7000012384,0.7199994039200001,0.8115680259701761,1684,0.0,99,GPS_Atti,
0.355598924791794,36.9193457495969,11200,2017-11-06 07:36:39,1717.629376264141,39.2000012544,0.0,0.8168740261399681,1717.629376264141,39.2000012544,0.7199994039200001,0.8168740261399681,1684,0.0,99,GPS_Atti,
0.355598973311283,36.9193458152395,11300,2017-11-06 07:36:39,1718.1293762801408,39.7000012704,0.0,0.8248890263964481,1718.1293762801408,39.7000012704,0.7199994039200001,0.8248890263964481,1684,0.0,99,GPS_Atti,
0.355598992500867,36.9193459056641,11400,2017-11-06 07:36:39,1718.7293762993409,40.3000012896,0.0,0.83121002659872,1718.7293762993409,40.3000012896,0.7199994039200001,0.83121002659872,1684,0.0,99,GPS_Atti,
0.355599010483774,36.9193459402364,11500,2017-11-06 07:36:39,1719.229376315341,40.8000013056,0.0,0.834707026710624,1719.229376315341,40.8000013056,0.7199994039200001,0.834707026710624,1684,0.0,99,GPS_Atti,
0.355599032754375,36.9193460013985,11600,2017-11-06 07:36:39,1719.7293763313407,41.30000132160001,0.0,0.8399660268789121,1719.7293763313407,41.30000132160001,0.7199994039200001,0.8399660268789121,1684,0.0,99,GPS_Atti,
0.355599056832547,36.9193460439768,11700,2017-11-06 07:36:39,1720.3293763505408,41.9000013408,0.0,0.844494027023808,1720.3293763505408,41.9000013408,0.7199994039200001,0.844494027023808,1684,0.0,99,GPS_Atti,
0.355599091077096,36.9193461653304,11800,2017-11-06 07:36:40,1720.8293763665408,42.400001356800004,0.0,0.8540690273302081,1720.8293763665408,42.400001356800004,0.7199994039200001,0.8540690273302081,1684,0.0,99,GPS_Atti,
0.35559913110425,36.9193462429724,11900,2017-11-06 07:36:40,1721.3293763825407,42.900001372800006,0.0,0.8620380275852161,1721.3293763825407,42.900001372800006,0.7199994039200001,0.8620380275852161,1684,0.0,99,GPS_Atti,
0.355599160375531,36.9193463472695,12000,2017-11-06 07:36:40,1721.929376401741,43.500001392,0.0,0.870404027852928,1721.929376401741,43.500001392,0.7199994039200001,0.870404027852928,1684,0.0,99,GPS_Atti,
0.355599184526983,36.9193464087972,12100,2017-11-06 07:36:40,1722.4293764177407,44.000001407999996,0.0,0.8760500280336,1722.4293764177407,44.000001407999996,0.7199994039200001,0.8760500280336,1684,0.0,99,GPS_Atti,
0.355599207155841,36.9193464701022,12200,2017-11-06 07:36:40,1722.929376433741,44.500001424,0.0,0.881561028209952,1722.929376433741,44.500001424,0.7199994039200001,0.881561028209952,1684,0.0,99,GPS_Atti,
0.355599219185157,36.9193464870586,12300,2017-11-06 07:36:40,1723.5293764529408,45.1000014432,0.0,0.8836500282768001,1723.5293764529408,45.1000014432,0.7199994039200001,0.8836500282768001,1684,0.0,99,GPS_Atti,
0.355599201073603,36.9193465166236,12400,2017-11-06 07:36:40,1724.0293764689407,45.6000014592,0.0,0.8835090282722879,1724.0293764689407,45.6000014592,0.7199994039200001,0.8836500282768001,1684,0.0,99,GPS_Atti,
0.355599187161806,36.9193465140782,12500,2017-11-06 07:36:40,1724.529376484941,46.1000014752,0.0,0.8820240282247681,1724.529376484941,46.1000014752,0.7199994039200001,0.8836500282768001,1684,0.0,99,GPS_Atti,
0.355599172544893,36.9193465126345,12600,2017-11-06 07:36:40,1725.0293765009408,46.600001491200004,0.0,0.880531028176992,1725.0293765009408,46.600001491200004,0.7199994039200001,0.8836500282768001,1684,0.0,99,GPS_Atti,
0.355599166482196,36.9193464878305,12700,2017-11-06 07:36:40,1725.5293765169408,47.100001507200005,0.0,0.87858502811472,1725.5293765169408,47.100001507200005,0.7199994039200001,0.8836500282768001,1684,0.0,99,GPS_Atti,
0.355599157128413,36.9193465081893,12800,2017-11-06 07:36:41,1726.029376532941,47.6000015232,0.35999970196000003,0.8787960281214721,1726.029376532941,47.6000015232,0.7199994039200001,0.8836500282768001,1684,0.0,99,GPS_Atti,
0.355599133983339,36.9193464948885,12900,2017-11-06 07:36:41,1726.5293765489407,48.1000015392,0.35999970196000003,0.8758280280264961,1726.5293765489407,48.1000015392,0.7199994039200001,0.8836500282768001,1684,0.0,99,GPS_Atti,
0.355599090060947,36.9193465065079,13000,2017-11-06 07:36:41,1727.0293765649408,48.6000015552,0.0,0.872228027911296,1727.0293765649408,48.6000015552,0.7199994039200001,0.8836500282768001,1684,0.0,99,GPS_Atti,
0.355599051781114,36.9193464993155,13100,2017-11-06 07:36:41,1727.5293765809408,49.1000015712,0.0,0.86814002778048,1727.5293765809408,49.1000015712,0.7199994039200001,0.8836500282768001,1684,0.0,99,GPS_Atti,
0.355599009324322,36.9193465415576,13200,2017-11-06 07:36:41,1728.029376596941,49.600001587200005,0.0,0.866419027725408,1728.029376596941,49.600001587200005,0.7199994039200001,0.8836500282768001,1684,0.0,99,GPS_Atti,
0.35559899097013,36.9193465652803,13300,2017-11-06 07:36:41,1728.5293766129407,50.1000016032,0.0,0.8659990277119681,1728.5293766129407,50.1000016032,0.7199994039200001,0.8836500282768001,1684,0.0,99,GPS_Atti,
0.355598961404101,36.9193466334961,13400,2017-11-06 07:36:41,1729.129376632141,50.7000016224,0.0,0.8670690277462081,1729.129376632141,50.7000016224,0.7199994039200001,0.8836500282768001,1684,0.0,99,GPS_Atti,
0.355598925734664,36.9193466293212,13500,2017-11-06 07:36:41,1729.6293766481408,51.2000016384,0.35999970196000003,0.8634360276299521,1729.6293766481408,51.2000016384,0.7199994039200001,0.8836500282768001,1684,0.0,99,GPS_Atti,
0.355598870193324,36.9193466048861,13600,2017-11-06 07:36:41,1730.1293766641406,51.700001654400005,0.35999970196000003,0.856747027415904,1730.1293766641406,51.700001654400005,0.7199994039200001,0.8836500282768001,1684,0.0,99,GPS_Atti,
0.355598851858673,36.9193465572636,13700,2017-11-06 07:36:41,1730.629376680141,52.200001670400006,0.35999970196000003,0.852259027272288,1730.629376680141,52.200001670400006,0.7199994039200001,0.8836500282768001,1684,0.0,99,GPS_Atti,
0.355598879638299,36.9193465707731,13800,2017-11-06 07:36:42,1731.1293766961408,52.70000168640001,0.0,0.8556810273817921,1731.1293766961408,52.70000168640001,0.7199994039200001,0.8836500282768001,1684,0.0,99,GPS_Atti,
0.35559894932756,36.9193465946093,13900,2017-11-06 07:36:42,1731.6293767121408,53.2000017024,0.35999970196000003,0.8636890276380481,1731.6293767121408,53.2000017024,0.7199994039200001,0.8836500282768001,1684,0.0,99,GPS_Atti,
0.355599006347527,36.9193466956651,14000,2017-11-06 07:36:42,1732.1293767281409,53.7000017184,0.35999970196000003,0.8749290279977281,1732.1293767281409,53.7000017184,0.7199994039200001,0.8836500282768001,1684,0.0,99,GPS_Atti,
0.35559908047104,36.9193467957686,14100,2017-11-06 07:36:42,1732.629376744141,54.200001734400004,0.35999970196000003,0.8877770284088641,1732.629376744141,54.200001734400004,0.7199994039200001,0.8877770284088641,1684,0.0,99,GPS_Atti,
0.355599130052275,36.9193469477985,14200,2017-11-06 07:36:42,1733.1293767601408,54.700001750400006,0.35999970196000003,0.9014250288456,1733.1293767601408,54.700001750400006,0.7199994039200001,0.9014250288456,1684,0.0,99,GPS_Atti,
0.355599152184457,36.9193470540168,14300,2017-11-06 07:36:42,1733.6293767761406,55.20000176640001,0.0,0.909878029116096,1733.6293767761406,55.20000176640001,0.7199994039200001,0.909878029116096,1684,0.0,99,GPS_Atti,
0.355599124660497,36.9193471840472,14400,2017-11-06 07:36:42,1734.1293767921409,55.7000017824,0.0,0.915284029289088,1734.1293767921409,55.7000017824,0.7199994039200001,0.915284029289088,1684,0.0,99,GPS_Atti,
0.355599104754397,36.9193472869696,14500,2017-11-06 07:36:42,1734.6293768081407,56.2000017984,0.0,0.919882029436224,1734.6293768081407,56.2000017984,0.7199994039200001,0.919882029436224,1684,0.0,99,GPS_Atti,
0.355599075561282,36.9193473765902,14600,2017-11-06 07:36:42,1735.1293768241408,56.700001814400004,0.0,0.9229070295330241,1735.1293768241408,56.700001814400004,0.7199994039200001,0.9229070295330241,1684,0.0,99,GPS_Atti,
0.355599091389758,36.9193474698605,14700,2017-11-06 07:36:42,1735.6293768401408,57.200001830400005,0.0,0.930346029771072,1735.6293768401408,57.200001830400005,0.7199994039200001,0.930346029771072,1684,0.0,99,GPS_Atti,
0.355599080055787,36.9193476472736,14800,2017-11-06 07:36:43,1736.1293768561409,57.700001846400006,0.0,0.940953030110496,1736.1293768561409,57.700001846400006,0.7199994039200001,0.940953030110496,1684,0.0,99,GPS_Atti,
0.355599092547581,36.919347805239,14900,2017-11-06 07:36:43,1736.6293768721407,58.2000018624,0.0,0.9526370304843841,1736.6293768721407,58.2000018624,0.7199994039200001,0.9526370304843841,1684,0.0,99,GPS_Atti,
0.355599075769723,36.9193479636926,15000,2017-11-06 07:36:43,1737.129376888141,58.7000018784,0.0,0.9619790307833281,1737.129376888141,58.7000018784,0.7199994039200001,0.9619790307833281,1684,0.0,99,GPS_Atti,
0.355599067000552,36.9193480822846,15100,2017-11-06 07:36:43,1737.6293769041408,59.2000018944,0.0,0.969452031022464,1737.6293769041408,59.2000018944,0.7199994039200001,0.969452031022464,1684,0.0,99,GPS_Atti,
0.355599022925087,36.9193482428714,15200,2017-11-06 07:36:43,1738.1293769201407,59.700001910400005,0.0,0.9770170312645441,1738.1293769201407,59.700001910400005,0.7199994039200001,0.9770170312645441,1684,0.0,99,GPS_Atti,
0.355598996682712,36.9193483537651,15300,2017-11-06 07:36:43,1738.629376936141,60.2000019264,0.0,0.9827640314484481,1738.629376936141,60.2000019264,0.7199994039200001,0.9827640314484481,1684,0.0,99,GPS_Atti,
0.35559892603104,36.9193484822805,15400,2017-11-06 07:36:43,1739.1293769521408,60.7000019424,0.0,0.9862330315594561,1739.1293769521408,60.7000019424,0.7199994039200001,0.9862330315594561,1684,0.0,99,GPS_Atti,
0.355598883852712,36.9193485770417,15500,2017-11-06 07:36:43,1739.6293769681408,61.2000019584,0.0,0.989772031672704,1739.6293769681408,61.2000019584,0.7199994039200001,0.989772031672704,1684,0.0,99,GPS_Atti,
0.355598801577208,36.9193486924828,15600,2017-11-06 07:36:43,1740.1293769841407,61.7000019744,0.0,0.99173503173552,1740.1293769841407,61.7000019744,0.7199994039200001,0.99173503173552,1684,0.0,99,GPS_Atti,
0.355598735195317,36.9193487656614,15700,2017-11-06 07:36:43,1740.629377000141,62.200001990400004,0.0,0.9919630317428161,1740.629377000141,62.200001990400004,0.7199994039200001,0.9919630317428161,1684,0.0,99,GPS_Atti,
0.355598641507677,36.9193488899865,15800,2017-11-06 07:36:44,1741.2293770193407,62.80000200960001,0.0,0.9941370318123841,1741.2293770193407,62.80000200960001,0.7199994039200001,0.9941370318123841,1684,0.0,99,GPS_Atti,
0.355598575405878,36.919348982206,15900,2017-11-06 07:36:44,1741.7293770353408,63.30000202560001,0.0,0.996206031878592,1741.7293770353408,63.30000202560001,0.7199994039200001,0.996206031878592,1684,0.0,99,GPS_Atti,
0.35559845692355,36.9193490990165,16000,2017-11-06 07:36:44,1742.2293770513409,63.8000020416,0.0,0.996384031884288,1742.2293770513409,63.8000020416,0.7199994039200001,0.996384031884288,1684,0.0,99,GPS_Atti,
0.355598364781303,36.9193491637415,16100,2017-11-06 07:36:44,1742.7293770673407,64.3000020576,0.0,0.994626031828032,1742.7293770673407,64.3000020576,0.7199994039200001,0.996384031884288,1540,0.0,99,GPS_Atti,
0.355598259310242,36.9193492528691,16200,2017-11-06 07:36:44,1743.229377083341,64.8000020736,0.0,0.994049031809568,1743.229377083341,64.8000020736,0.7199994039200001,0.996384031884288,1255,0.0,99,GPS_Atti,
0.355598152739982,36.9193492998477,16300,2017-11-06 07:36:44,1743.7293770993408,65.3000020896,0.0,0.990097031683104,1743.7293770993408,65.3000020896,0.7199994039200001,0.996384031884288,1169,0.0,99,GPS_Atti,
0.355598013092767,36.9193494040324,16400,2017-11-06 07:36:44,1744.129377112141,65.7000021024,0.0,0.988774031640768,1744.129377112141,65.7000021024,0.7199994039200001,0.996384031884288,1169,0.0,99,GPS_Atti,
0.355597915711816,36.9193494649203,16500,2017-11-06 07:36:44,1744.5293771249408,66.10000211520001,0.0,0.987063031586016,1744.5293771249408,66.10000211520001,0.7199994039200001,0.996384031884288,1122,0.0,99,GPS_Atti,
0.35559778973376,36.9193495742376,16600,2017-11-06 07:36:44,1744.829377134541,66.40000212480001,0.0,0.987756031608192,1744.829377134541,66.40000212480001,0.7199994039200001,0.996384031884288,1037,0.0,99,GPS_Atti,
0.355597712838634,36.919349646306,16700,2017-11-06 07:36:44,1745.129377144141,66.70000213440001,0.0,0.9888210316422721,1745.129377144141,66.70000213440001,0.7199994039200001,0.996384031884288,1031,0.0,99,GPS_Atti,
0.355597636959658,36.9193497789465,16800,2017-11-06 07:36:45,1745.229377147341,66.8000021376,0.0,0.995484031855488,1745.229377147341,66.8000021376,0.7199994039200001,0.996384031884288,1024,0.0,99,GPS_Atti,
0.355597596912963,36.9193498698973,16900,2017-11-06 07:36:45,1745.3293771505407,66.9000021408,0.0,1.0009800320313602,1745.3293771505407,66.9000021408,0.7199994039200001,1.0009800320313602,1024,0.0,99,GPS_Atti,
0.355597523821883,36.9193500026706,17000,2017-11-06 07:36:45,1745.4293771537407,67.000002144,0.0,1.0082200322630401,1745.4293771537407,67.000002144,0.7199994039200001,1.0082200322630401,1024,0.0,99,GPS_Atti,
0.35559748905786,36.9193500836069,17100,2017-11-06 07:36:45,1745.5293771569409,67.1000021472,0.35999970196000003,1.01337003242784,1745.5293771569409,67.1000021472,0.7199994039200001,1.01337003242784,1024,0.0,99,GPS_Atti,
0.355597476772879,36.9193501952613,17200,2017-11-06 07:36:45,1745.6293771601408,67.20000215040001,0.35999970196000003,1.0228200327302401,1745.6293771601408,67.20000215040001,0.7199994039200001,1.0228200327302401,1024,0.0,99,GPS_Atti,
0.355597488626322,36.9193502640172,17300,2017-11-06 07:36:45,1745.6293771601408,67.20000215040001,0.35999970196000003,1.02989003295648,1745.6293771601408,67.20000215040001,0.7199994039200001,1.02989003295648,1024,0.0,99,GPS_Atti,
0.355597497159369,36.9193503629848,17400,2017-11-06 07:36:45,1745.7293771633408,67.3000021536,0.35999970196000003,1.03954003326528,1745.7293771633408,67.3000021536,0.7199994039200001,1.03954003326528,1024,0.0,99,GPS_Atti,
0.355597508843455,36.9193503903347,17500,2017-11-06 07:36:45,1745.8293771665408,67.4000021568,0.35999970196000003,1.0427900333692801,1745.8293771665408,67.4000021568,0.7199994039200001,1.0427900333692801,1024,0.0,99,GPS_Atti,
0.355597490639079,36.9193504341261,17600,2017-11-06 07:36:45,1745.8293771665408,67.4000021568,0.0,1.04572003346304,1745.8293771665408,67.4000021568,0.7199994039200001,1.04572003346304,1024,0.0,99,GPS_Atti,
0.355597473377573,36.9193503894044,17700,2017-11-06 07:36:45,1745.929377169741,67.50000216000001,0.0,1.04051003329632,1745.929377169741,67.50000216000001,0.7199994039200001,1.04572003346304,1024,0.0,99,GPS_Atti,
0.355597405513798,36.9193503116713,17800,2017-11-06 07:36:46,1745.929377169741,67.50000216000001,0.0,1.02914003293248,1745.929377169741,67.50000216000001,0.7199994039200001,1.04572003346304,1024,0.0,99,GPS_Atti,
0.355597359342525,36.919350141631,17900,2017-11-06 07:36:46,1745.929377169741,67.50000216000001,0.0,1.01056003233792,1745.929377169741,67.50000216000001,0.7199994039200001,1.04572003346304,1024,0.0,99,GPS_Atti,
0.35559723848104,36.9193499695255,18000,2017-11-06 07:36:46,1745.929377169741,67.50000216000001,0.35999970196000003,0.9871780315896961,1745.929377169741,67.50000216000001,0.7199994039200001,1.04572003346304,1024,0.0,99,GPS_Atti,
0.355597131291971,36.9193497411367,18100,2017-11-06 07:36:46,1745.929377169741,67.50000216000001,0.35999970196000003,0.959458030702656,1745.929377169741,67.50000216000001,0.7199994039200001,1.04572003346304,1025,0.0,99,GPS_Atti,
0.355596965762267,36.9193495373067,18200,2017-11-06 07:36:46,1746.029377172941,67.6000021632,0.35999970196000003,0.93037002977184,1746.029377172941,67.6000021632,0.7199994039200001,1.04572003346304,1120,0.0,99,GPS_Atti,
0.355596832278713,36.9193492898471,18300,2017-11-06 07:36:46,1746.029377172941,67.6000021632,0.35999970196000003,0.89926002877632,1746.029377172941,67.6000021632,0.7199994039200001,1.04572003346304,1216,0.0,99,GPS_Atti,
0.355596663332533,36.9193490654988,18400,2017-11-06 07:36:46,1746.029377172941,67.6000021632,0.35999970196000003,0.868067027778144,1746.029377172941,67.6000021632,0.7199994039200001,1.04572003346304,1278,0.0,99,GPS_Atti,
0.355596521084693,36.9193487821114,18500,2017-11-06 07:36:46,1746.029377172941,67.6000021632,0.7199994039200001,0.8331150266596801,1746.029377172941,67.6000021632,0.7199994039200001,1.04572003346304,1298,0.0,99,GPS_Atti,
0.355596310461747,36.9193485392196,18600,2017-11-06 07:36:46,1746.1293771761407,67.7000021664,0.7199994039200001,0.79760502552336,1746.1293771761407,67.7000021664,0.7199994039200001,1.04572003346304,1322,0.0,99,GPS_Atti,
0.355595895332289,36.9193480414417,18800,2017-11-06 07:36:47,1746.3293771825408,67.9000021728,0.7199994039200001,0.72592002322944,1746.3293771825408,67.9000021728,0.7199994039200001,1.04572003346304,1322,0.0,99,GPS_Atti,
0.355595678531026,36.9193477830008,18900,2017-11-06 07:36:47,1746.4293771857408,68.000002176,0.7199994039200001,0.688657022037024,1746.4293771857408,68.000002176,0.7199994039200001,1.04572003346304,1332,0.0,99,GPS_Atti,
0.355595367078084,36.9193475905161,19000,2017-11-06 07:36:47,1746.6293771921407,68.2000021824,0.8063993323904,0.652012020864384,1746.6293771921407,68.2000021824,0.8063993323904,1.04572003346304,1325,0.0,99,GPS_Atti,
0.355595111985589,36.9193473686586,19100,2017-11-06 07:36:47,1746.729377195341,68.3000021856,0.8063993323904,0.6162210197190721,1746.729377195341,68.3000021856,0.8063993323904,1.04572003346304,1325,0.0,99,GPS_Atti,
0.355594784215638,36.9193471592935,19200,2017-11-06 07:36:47,1746.829377198541,68.4000021888,0.8063993323904,0.5779440184942081,1746.829377198541,68.4000021888,0.8063993323904,1.04572003346304,1335,0.0,99,GPS_Atti,
0.355594534607742,36.9193469353965,19300,2017-11-06 07:36:47,1746.9293772017409,68.500002192,0.7199994039200001,0.5429160173733121,1746.9293772017409,68.500002192,0.8063993323904,1.04572003346304,1346,0.0,99,GPS_Atti,
0.355594217466645,36.9193467456023,19400,2017-11-06 07:36:47,1747.0293772049406,68.6000021952,0.7199994039200001,0.5084090162690881,1747.0293772049406,68.6000021952,0.8063993323904,1.04572003346304,1372,0.0,99,GPS_Atti,
0.355593986747071,36.9193465535464,19500,2017-11-06 07:36:47,1747.1293772081408,68.7000021984,0.7199994039200001,0.478431015309792,1747.1293772081408,68.7000021984,0.8063993323904,1.04572003346304,1393,0.0,99,GPS_Atti,
0.35559367692583,36.9193464188663,19600,2017-11-06 07:36:47,1747.2293772113408,68.8000022016,0.7199994039200001,0.45180301445769605,1747.2293772113408,68.8000022016,0.8063993323904,1.04572003346304,1414,0.0,99,GPS_Atti,
0.355593447574149,36.9193462805975,19700,2017-11-06 07:36:47,1747.3293772145407,68.9000022048,0.7199994039200001,0.42904401372940804,1747.3293772145407,68.9000022048,0.8063993323904,1.04572003346304,1422,0.0,99,GPS_Atti,
0.355593158336441,36.9193461735645,19800,2017-11-06 07:36:48,1747.529377220941,69.1000022112,0.7199994039200001,0.40892601308563203,1747.529377220941,69.1000022112,0.8063993323904,1.04572003346304,1420,0.0,99,GPS_Atti,
0.355592933031443,36.9193460632934,19900,2017-11-06 07:36:48,1747.6293772241409,69.2000022144,0.7199994039200001,0.391671012533472,1747.6293772241409,69.2000022144,0.8063993323904,1.04572003346304,1424,0.0,99,GPS_Atti,
0.355592624097704,36.9193460209029,20000,2017-11-06 07:36:48,1747.829377230541,69.4000022208,0.35999970196000003,0.382168012229376,1747.829377230541,69.4000022208,0.8063993323904,1.04572003346304,1430,0.0,99,GPS_Atti,
0.355592400450462,36.9193459877738,20100,2017-11-06 07:36:48,1748.0293772369407,69.60000222720001,0.35999970196000003,0.376862012059584,1748.0293772369407,69.60000222720001,0.8063993323904,1.04572003346304,1427,0.0,99,GPS_Atti,
0.355592129763987,36.9193459959779,20200,2017-11-06 07:36:48,1748.2293772433409,69.80000223360001,0.35999970196000003,0.37798001209536003,1748.2293772433409,69.80000223360001,0.8063993323904,1.04572003346304,1431,0.0,99,GPS_Atti,
0.35559193806356,36.9193459956289,20300,2017-11-06 07:36:48,1748.4293772497408,70.00000224,0.35999970196000003,0.379534012145088,1748.4293772497408,70.00000224,0.8063993323904,1.04572003346304,1435,0.0,99,GPS_Atti,
0.355591640322116,36.9193460212835,20400,2017-11-06 07:36:48,1748.629377256141,70.2000022464,0.35999970196000003,0.38714801238873603,1748.629377256141,70.2000022464,0.8063993323904,1.04572003346304,1451,0.0,99,GPS_Atti,
0.355591425735537,36.9193460423254,20500,2017-11-06 07:36:48,1748.8293772625407,70.40000225280001,0.35999970196000003,0.394561012625952,1748.8293772625407,70.40000225280001,0.8063993323904,1.04572003346304,1462,0.0,99,GPS_Atti,
0.355591178632188,36.91934608744,20600,2017-11-06 07:36:48,1749.0293772689408,70.60000225920001,0.35999970196000003,0.406904013020928,1749.0293772689408,70.60000225920001,0.8063993323904,1.04572003346304,1460,0.0,99,GPS_Atti,
0.355591026714648,36.9193461450026,20700,2017-11-06 07:36:48,1749.2293772753408,70.8000022656,0.0,0.418367013387744,1749.2293772753408,70.8000022656,0.8063993323904,1.04572003346304,1459,0.0,99,GPS_Atti,
0.355590803883256,36.9193462577758,20800,2017-11-06 07:36:49,1749.529377284941,71.1000022752,0.0,0.43890901404508803,1749.529377284941,71.1000022752,0.8063993323904,1.04572003346304,1455,0.0,99,GPS_Atti,
0.35559069435737,36.9193463515691,20900,2017-11-06 07:36:49,1749.729377291341,71.3000022816,0.0,0.45321401450284804,1749.729377291341,71.3000022816,0.8063993323904,1.04572003346304,1453,0.0,99,GPS_Atti,
0.355590466202595,36.9193464931268,21000,2017-11-06 07:36:49,1750.0293773009407,71.6000022912,0.0,0.47793501529392,1750.0293773009407,71.6000022912,0.8063993323904,1.04572003346304,1445,0.0,99,GPS_Atti,
0.355590332714156,36.9193466152732,21100,2017-11-06 07:36:49,1750.3293773105408,71.9000023008,0.0,0.49659001589088003,1750.3293773105408,71.9000023008,0.8063993323904,1.04572003346304,1445,0.0,99,GPS_Atti,
0.355590089276434,36.9193467577805,21200,2017-11-06 07:36:49,1750.529377316941,72.1000023072,0.0,0.522982016735424,1750.529377316941,72.1000023072,0.8063993323904,1.04572003346304,1450,0.0,99,GPS_Atti,
0.355589962179637,36.9193468782525,21300,2017-11-06 07:36:49,1750.8293773265407,72.4000023168,0.0,0.541469017327008,1750.8293773265407,72.4000023168,0.8063993323904,1.04572003346304,1446,0.0,99,GPS_Atti,
0.355589720984283,36.9193470500443,21400,2017-11-06 07:36:49,1751.1293773361408,72.7000023264,0.0,0.5712490182799681,1751.1293773361408,72.7000023264,0.8063993323904,1.04572003346304,1445,0.0,99,GPS_Atti,
0.355589555899144,36.919347207248,21500,2017-11-06 07:36:49,1751.329377342541,72.9000023328,0.0,0.595609019059488,1751.329377342541,72.9000023328,0.8063993323904,1.04572003346304,1451,0.0,99,GPS_Atti,
0.355589304210097,36.9193474320411,21600,2017-11-06 07:36:49,1751.6293773521406,73.2000023424,0.0,0.63149002020768,1751.6293773521406,73.2000023424,0.8063993323904,1.04572003346304,1443,0.0,99,GPS_Atti,
0.355589152447259,36.9193476155283,21700,2017-11-06 07:36:49,1751.9293773617408,73.50000235200001,0.0,0.6577290210473281,1751.9293773617408,73.50000235200001,0.8063993323904,1.04572003346304,1444,0.0,99,GPS_Atti,
0.35558890389948,36.9193478036663,21800,2017-11-06 07:36:50,1752.129377368141,73.7000023584,0.0,0.6902330220874561,1752.129377368141,73.7000023584,0.8063993323904,1.04572003346304,1444,0.0,99,GPS_Atti,
0.355588754341555,36.9193479473754,21900,2017-11-06 07:36:50,1752.4293773777408,74.00000236800001,0.0,0.712717022806944,1752.4293773777408,74.00000236800001,0.8063993323904,1.04572003346304,1444,0.0,99,GPS_Atti,
0.355588509622248,36.9193481327202,22000,2017-11-06 07:36:50,1752.7293773873407,74.30000237760001,0.0,0.745004023840128,1752.7293773873407,74.30000237760001,0.8063993323904,1.04572003346304,1445,0.0,99,GPS_Atti,
0.355588378306152,36.9193482718347,22100,2017-11-06 07:36:50,1752.9293773937409,74.50000238400001,0.0,0.766023024512736,1752.9293773937409,74.50000238400001,0.8063993323904,1.04572003346304,1445,0.0,99,GPS_Atti,
0.355588183840627,36.9193484677491,22200,2017-11-06 07:36:50,1753.229377403341,74.80000239360001,0.0,0.796253025480096,1753.229377403341,74.80000239360001,0.8063993323904,1.04572003346304,1445,0.0,99,GPS_Atti,
0.355588086103047,36.919348616603,22300,2017-11-06 07:36:50,1753.5293774129407,75.10000240320001,0.35999970196000003,0.816047026113504,1753.5293774129407,75.10000240320001,0.8063993323904,1.04572003346304,1444,0.0,99,GPS_Atti,
0.355587951832954,36.9193487881122,22400,2017-11-06 07:36:50,1753.8293774225408,75.4000024128,0.35999970196000003,0.8402350268875199,1753.8293774225408,75.4000024128,0.8063993323904,1.04572003346304,1442,0.0,99,GPS_Atti,
0.355587896899024,36.9193489219947,22500,2017-11-06 07:36:50,1754.029377428941,75.60000241920001,0.35999970196000003,0.85594002739008,1754.029377428941,75.60000241920001,0.8063993323904,1.04572003346304,1439,0.0,99,GPS_Atti,
0.3555877413012,36.9193491314304,22600,2017-11-06 07:36:50,1754.3293774385409,75.90000242880001,0.35999970196000003,0.88494002831808,1754.3293774385409,75.90000242880001,0.8063993323904,1.04572003346304,1439,0.0,99,GPS_Atti,
0.355587665764197,36.9193492971347,22700,2017-11-06 07:36:50,1754.5293774449408,76.1000024352,0.35999970196000003,0.9048700289558401,1754.5293774449408,76.1000024352,0.8063993323904,1.04572003346304,1429,0.0,99,GPS_Atti,
0.355587571741098,36.9193494975612,22800,2017-11-06 07:36:51,1754.829377454541,76.4000024448,0.35999970196000003,0.9291610297331521,1754.829377454541,76.4000024448,0.8063993323904,1.04572003346304,1372,0.0,99,GPS_Atti,
0.355587562056741,36.919349644032,22900,2017-11-06 07:36:51,1755.1293774641408,76.7000024544,0.35999970196000003,0.9432500301840001,1755.1293774641408,76.7000024544,0.8063993323904,1.04572003346304,1205,0.0,99,GPS_Atti,
0.355587483855604,36.9193498441062,23000,2017-11-06 07:36:51,1755.3293774705407,76.9000024608,0.35999970196000003,0.96658503093072,1755.3293774705407,76.9000024608,0.8063993323904,1.04572003346304,1024,0.0,99,GPS_Atti,
0.355587463232989,36.9193500050378,23100,2017-11-06 07:36:51,1755.529377476941,77.1000024672,0.35999970196000003,0.982799031449568,1755.529377476941,77.1000024672,0.8063993323904,1.04572003346304,1024,0.0,99,GPS_Atti,
0.355587371208804,36.9193502342777,23200,2017-11-06 07:36:51,1755.7293774833408,77.3000024736,0.35999970196000003,1.0097600323123201,1755.7293774833408,77.3000024736,0.8063993323904,1.04572003346304,1024,0.0,99,GPS_Atti,
0.355587346905906,36.919350397116,23300,2017-11-06 07:36:51,1755.8293774865406,77.4000024768,0.35999970196000003,1.0264700328470402,1755.8293774865406,77.4000024768,0.8063993323904,1.04572003346304,1024,0.0,99,GPS_Atti,
0.355587298250442,36.9193506038623,23400,2017-11-06 07:36:51,1755.8293774865406,77.4000024768,0.35999970196000003,1.0488200335622402,1755.8293774865406,77.4000024768,0.8063993323904,1.0488200335622402,1024,0.0,99,GPS_Atti,
0.355587312433375,36.9193507535685,23500,2017-11-06 07:36:51,1755.9293774897408,77.50000248,0.35999970196000003,1.0621600339891202,1755.9293774897408,77.50000248,0.8063993323904,1.0621600339891202,1024,0.0,99,GPS_Atti,
0.355587302083799,36.9193509592217,23600,2017-11-06 07:36:51,1755.9293774897408,77.50000248,0.35999970196000003,1.0823300346345601,1755.9293774897408,77.50000248,0.8063993323904,1.0823300346345601,1024,0.0,99,GPS_Atti,
0.355587352138911,36.9193510953921,23700,2017-11-06 07:36:51,1756.0293774929407,77.6000024832,0.7199994039200001,1.0925600349619202,1756.0293774929407,77.6000024832,0.8063993323904,1.0925600349619202,1024,0.0,99,GPS_Atti,
0.355587400189408,36.9193512904601,23800,2017-11-06 07:36:52,1756.1293774961407,77.70000248640001,0.7199994039200001,1.1087400354796801,1756.1293774961407,77.70000248640001,0.8063993323904,1.1087400354796801,1024,0.0,99,GPS_Atti,
0.355587505806214,36.9193513982549,23900,2017-11-06 07:36:52,1756.1293774961407,77.70000248640001,0.7199994039200001,1.11354003563328,1756.1293774961407,77.70000248640001,0.8063993323904,1.11354003563328,1024,0.0,99,GPS_Atti,
0.355587615142387,36.9193514571184,24000,2017-11-06 07:36:52,1756.1293774961407,77.70000248640001,0.7199994039200001,1.11357003563424,1756.1293774961407,77.70000248640001,0.8063993323904,1.11357003563424,1024,0.0,99,GPS_Atti,
0.355587744898433,36.9193514378944,24100,2017-11-06 07:36:52,1756.229377499341,77.8000024896,0.7199994039200001,1.10501003536032,1756.229377499341,77.8000024896,0.8063993323904,1.11357003563424,1024,0.0,99,GPS_Atti,
0.355587811202159,36.9193513957454,24200,2017-11-06 07:36:52,1756.229377499341,77.8000024896,0.7199994039200001,1.09748003511936,1756.229377499341,77.8000024896,0.8063993323904,1.11357003563424,1024,0.0,99,GPS_Atti,
0.355587901606856,36.9193512917149,24300,2017-11-06 07:36:52,1756.3293775025409,77.9000024928,0.7199994039200001,1.0826100346435201,1756.3293775025409,77.9000024928,0.8063993323904,1.11357003563424,1024,0.0,99,GPS_Atti,
0.355587961056461,36.9193512329692,24400,2017-11-06 07:36:52,1756.3293775025409,77.9000024928,0.8063993323904,1.0738100343619201,1756.3293775025409,77.9000024928,0.8063993323904,1.11357003563424,1024,0.0,99,GPS_Atti,
0.355588046596996,36.9193511169007,24500,2017-11-06 07:36:52,1756.3293775025409,77.9000024928,0.5075995797636,1.05801003385632,1756.3293775025409,77.9000024928,0.8063993323904,1.11357003563424,1024,0.0,99,GPS_Atti,
0.355588069108605,36.9193510204169,24600,2017-11-06 07:36:52,1756.3293775025409,77.9000024928,0.5075995797636,1.04729003351328,1756.3293775025409,77.9000024928,0.8063993323904,1.11357003563424,1024,0.0,99,GPS_Atti,
0.355588122371752,36.9193508625409,24700,2017-11-06 07:36:52,1756.3293775025409,77.9000024928,0.5075995797636,1.0289500329264,1756.3293775025409,77.9000024928,0.8063993323904,1.11357003563424,1024,0.0,98,GPS_Atti,
0.355588126343527,36.9193507681706,24800,2017-11-06 07:36:53,1756.4293775057408,78.00000249600001,0.5075995797636,1.0193900326204801,1756.4293775057408,78.00000249600001,0.8063993323904,1.11357003563424,1024,0.0,98,GPS_Atti,
0.355588164248817,36.9193506246119,24900,2017-11-06 07:36:53,1756.4293775057408,78.00000249600001,0.5075995797636,1.003250032104,1756.4293775057408,78.00000249600001,0.8063993323904,1.11357003563424,1024,0.0,98,GPS_Atti,
0.355588129365919,36.9193505437677,25000,2017-11-06 07:36:53,1756.4293775057408,78.00000249600001,0.5075995797636,0.9970600319059201,1756.4293775057408,78.00000249600001,0.8063993323904,1.11357003563424,1024,-0.2,98,GPS_Atti,
0.355588137172679,36.9193504081251,25100,2017-11-06 07:36:53,1756.4293775057408,78.00000249600001,0.5075995797636,0.9833140314660481,1756.4293775057408,78.00000249600001,0.8063993323904,1.11357003563424,1024,-0.8,98,GPS_Atti,
0.355588091791202,36.9193503200489,25200,2017-11-06 07:36:53,1756.4293775057408,78.00000249600001,0.5075995797636,0.9770770312664641,1756.4293775057408,78.00000249600001,0.8063993323904,1.11357003563424,1024,-0.8,98,GPS_Atti,
0.355588101931523,36.9193501904928,25300,2017-11-06 07:36:53,1756.4293775057408,78.00000249600001,0.5075995797636,0.963899030844768,1756.4293775057408,78.00000249600001,0.8063993323904,1.11357003563424,1024,-2.6,98,GPS_Atti,
0.355588081810469,36.919350130669,25400,2017-11-06 07:36:53,1756.4293775057408,78.00000249600001,0.5075995797636,0.959169030693408,1756.4293775057408,78.00000249600001,0.8063993323904,1.11357003563424,1024,-6.3,98,GPS_Atti,
0.355588104893662,36.9193500389687,25500,2017-11-06 07:36:53,1756.4293775057408,78.00000249600001,0.5075995797636,0.9490180303685761,1756.4293775057408,78.00000249600001,0.8063993323904,1.11357003563424,1024,-11.7,98,GPS_Atti,
0.355588050780468,36.9193499702535,25600,2017-11-06 07:36:53,1756.4293775057408,78.00000249600001,0.5075995797636,0.9453510302512321,1756.4293775057408,78.00000249600001,0.8063993323904,1.11357003563424,1024,-17.3,98,GPS_Atti,
0.355588040180926,36.9193498605969,25700,2017-11-06 07:36:53,1756.4293775057408,78.00000249600001,0.5075995797636,0.935394029932608,1756.4293775057408,78.00000249600001,0.8063993323904,1.11357003563424,1024,-23.0,98,GPS_Atti,
0.355587943863349,36.9193497607407,25800,2017-11-06 07:36:54,1756.4293775057408,78.00000249600001,0.35999970196000003,0.9313380298028161,1756.4293775057408,78.00000249600001,0.8063993323904,1.11357003563424,1024,-28.6,98,GPS_Atti,
0.355587891331374,36.9193496408126,25900,2017-11-06 07:36:54,1756.4293775057408,78.00000249600001,0.35999970196000003,0.923044029537408,1756.4293775057408,78.00000249600001,0.8063993323904,1.11357003563424,1024,-32.2,98,GPS_Atti,
0.355587756136325,36.9193496046023,26000,2017-11-06 07:36:54,1756.4293775057408,78.00000249600001,0.35999970196000003,0.9277120296867841,1756.4293775057408,78.00000249600001,0.8063993323904,1.11357003563424,1024,-34.7,98,GPS_Atti,
0.35558768089407,36.9193495347983,26100,2017-11-06 07:36:54,1756.4293775057408,78.00000249600001,0.35999970196000003,0.925809029625888,1756.4293775057408,78.00000249600001,0.8063993323904,1.11357003563424,1024,-36.9,98,GPS_Atti,
0.355587540301544,36.9193494833081,26200,2017-11-06 07:36:54,1756.4293775057408,78.00000249600001,0.35999970196000003,0.929834029754688,1756.4293775057408,78.00000249600001,0.8063993323904,1.11357003563424,1024,-38.2,98,GPS_Atti,
0.355587474510778,36.9193493906497,26300,2017-11-06 07:36:54,1756.3293775025409,77.9000024928,0.35999970196000003,0.925583029618656,1756.4293775057408,78.00000249600001,0.8063993323904,1.11357003563424,1024,-39.2,98,GPS_Atti,
0.355587320631776,36.9193492763348,26400,2017-11-06 07:36:54,1756.3293775025409,77.9000024928,0.35999970196000003,0.9253560296113921,1756.4293775057408,78.00000249600001,0.8063993323904,1.11357003563424,1024,-40.1,98,GPS_Atti,
0.355587245259246,36.9193491358991,26500,2017-11-06 07:36:54,1756.3293775025409,77.9000024928,0.35999970196000003,0.917971029375072,1756.4293775057408,78.00000249600001,0.8063993323904,1.11357003563424,1024,-40.6,98,GPS_Atti,
0.355587095170448,36.9193490198446,26600,2017-11-06 07:36:54,1756.3293775025409,77.9000024928,0.35999970196000003,0.9181940293822081,1756.4293775057408,78.00000249600001,0.8063993323904,1.11357003563424,1024,-41.1,98,GPS_Atti,
0.355586993408169,36.9193488884588,26700,2017-11-06 07:36:54,1756.3293775025409,77.9000024928,0.35999970196000003,0.914129029252128,1756.4293775057408,78.00000249600001,0.8063993323904,1.11357003563424,1024,-41.1,98,GPS_Atti,
0.355586848570288,36.9193487702801,26800,2017-11-06 07:36:55,1756.229377499341,77.8000024896,0.35999970196000003,0.9146880292700161,1756.4293775057408,78.00000249600001,0.8063993323904,1.11357003563424,1024,-41.1,98,GPS_Atti,
0.355586787002078,36.9193486248157,26900,2017-11-06 07:36:55,1756.229377499341,77.8000024896,0.35999970196000003,0.9072210290310719,1756.4293775057408,78.00000249600001,0.8063993323904,1.11357003563424,1024,-41.1,98,GPS_Atti,
0.355586613144511,36.919348498828,27000,2017-11-06 07:36:55,1756.229377499341,77.8000024896,0.35999970196000003,0.910223029127136,1756.4293775057408,78.00000249600001,0.8063993323904,1.11357003563424,1024,-41.1,98,GPS_Atti,
0.35558649765282,36.9193483616427,27100,2017-11-06 07:36:55,1756.1293774961407,77.70000248640001,0.35999970196000003,0.908352029067264,1756.4293775057408,78.00000249600001,0.8063993323904,1.11357003563424,1024,-41.1,98,GPS_Atti,
0.355586316869482,36.9193482933251,27200,2017-11-06 07:36:55,1756.1293774961407,77.70000248640001,0.35999970196000003,0.91745502935856,1756.4293775057408,78.00000249600001,0.8063993323904,1.11357003563424,1024,-41.1,98,GPS_Atti,
0.355586172255512,36.9193482516295,27300,2017-11-06 07:36:55,1756.1293774961407,77.70000248640001,0.0,0.9260090296322881,1756.4293775057408,78.00000249600001,0.8063993323904,1.11357003563424,1024,-41.1,98,GPS_Atti,
0.355585934722529,36.9193483069284,27400,2017-11-06 07:36:55,1756.0293774929407,77.6000024832,0.0,0.949678030389696,1756.4293775057408,78.00000249600001,0.8063993323904,1.11357003563424,1024,-41.1,98,GPS_Atti,
0.355585773281848,36.9193483427741,27500,2017-11-06 07:36:55,1756.0293774929407,77.6000024832,0.0,0.9657410309037121,1756.4293775057408,78.00000249600001,0.8063993323904,1.11357003563424,1024,-41.1,98,GPS_Atti,
0.355585509673405,36.9193484048061,27600,2017-11-06 07:36:55,1756.0293774929407,77.6000024832,0.0,0.9923960317566721,1756.4293775057408,78.00000249600001,0.8063993323904,1.11357003563424,1024,-41.1,98,GPS_Atti,
0.355585333916258,36.9193484378013,27700,2017-11-06 07:36:55,1756.0293774929407,77.6000024832,0.0,1.0096800323097601,1756.4293775057408,78.00000249600001,0.8063993323904,1.11357003563424,1024,-41.1,98,GPS_Atti,
0.355585107003987,36.9193485116507,27800,2017-11-06 07:36:56,1756.0293774929407,77.6000024832,0.0,1.03433003309856,1756.4293775057408,78.00000249600001,0.8063993323904,1.11357003563424,1024,-41.1,98,GPS_Atti,
0.355584964128381,36.9193485523972,27900,2017-11-06 07:36:56,1755.9293774897408,77.50000248,0.0,1.0495000335840001,1756.4293775057408,78.00000249600001,0.8063993323904,1.11357003563424,1024,-41.1,98,GPS_Atti,
0.355584759222087,36.9193486220589,28000,2017-11-06 07:36:56,1755.9293774897408,77.50000248,0.0,1.0721000343072,1756.4293775057408,78.00000249600001,0.8063993323904,1.11357003563424,1024,-41.1,98,GPS_Atti,
0.35558465029384,36.9193486545531,28100,2017-11-06 07:36:56,1755.9293774897408,77.50000248,0.0,1.08383003468256,1756.4293775057408,78.00000249600001,0.8063993323904,1.11357003563424,1024,-41.1,98,GPS_Atti,
0.35558446426854,36.9193487141981,28200,2017-11-06 07:36:56,1755.9293774897408,77.50000248,0.0,1.1041900353340801,1756.4293775057408,78.00000249600001,0.8063993323904,1.11357003563424,1024,-41.1,98,GPS_Atti,
0.355584370976612,36.9193487418049,28300,2017-11-06 07:36:56,1755.9293774897408,77.50000248,0.0,1.1142600356563201,1756.4293775057408,78.00000249600001,0.8063993323904,1.1142600356563201,1024,-41.1,98,GPS_Atti,
0.355584220803135,36.91934883655,28400,2017-11-06 07:36:56,1755.9293774897408,77.50000248,0.0,1.13392003628544,1756.4293775057408,78.00000249600001,0.8063993323904,1.13392003628544,1024,-41.1,98,GPS_Atti,
0.355584170907611,36.9193488856174,28500,2017-11-06 07:36:56,1755.9293774897408,77.50000248,0.35999970196000003,1.1416500365328002,1756.4293775057408,78.00000249600001,0.8063993323904,1.1416500365328002,1024,-41.1,98,GPS_Atti,
