latitude,longitude,time_millisecond,datetime_utc,altitude_m,ascent_m,speed_kph,distance_m,max_altitude_m,max_ascent_m,max_speed_kph,max_distance_m,rc_throttle,gimbal_pitch_degrees,battery_percent,flycState,message
0.305856189479275,36.8800514853307,0,2018-04-14 12:25:26,1776.0363117331553,0.0,0.0,0.0,1776.0363117331553,0.0,0.0,0.0,364,0.0,99,Motors_Started,
0.305856167671052,36.8800514469549,100,2018-04-14 12:25:26,1776.0363117331553,0.0,0.0,0.004908540157073281,1776.0363117331553,0.0,0.0,0.004908540157073281,364,0.0,99,Motors_Started,
0.305856140086177,36.880051423775,200,2018-04-14 12:25:27,1776.0363117331553,0.0,0.0,0.0087766002808512,1776.0363117331553,0.0,0.0,0.0087766002808512,364,0.0,99,Motors_Started,
0.30585611190040696,36.8800513748645,300,2018-04-14 12:25:27,1776.0363117331553,0.0,0.0,0.015011100480355201,1776.0363117331553,0.0,0.0,0.015011100480355201,364,0.0,99,Motors_Started,
0.30585609614714504,36.8800513315586,400,2018-04-14 12:25:27,1776.0363117331553,0.0,0.0,0.020003500640112002,1776.0363117331553,0.0,0.0,0.020003500640112002,452,0.0,99,Motors_Started,Setting new Return-To-Home altitude to 30m (98 ft). Setting new Maximum Flight Altitude to 150m (492 ft)
0.305856083771429,36.8800513168193,500,2018-04-14 12:25:27,1776.0363117331553,0.0,0.0,0.0221212007078784,1776.0363117331553,0.0,0.0,0.0221212007078784,988,0.0,99,Motors_Started,
0.30585607692494104,36.8800513222889,600,2018-04-14 12:25:27,1776.0363117331553,0.0,0.0,0.0220318007050176,1776.0363117331553,0.0,0.0,0.0221212007078784,1024,0.0,99,Motors_Started,
0.30585607423805894,36.8800513086464,700,2018-04-14 12:25:27,1776.0363117331553,0.0,0.0,0.023458200750662402,1776.0363117331553,0.0,0.0,0.023458200750662402,1024,0.0,99,Motors_Started,
0.305856073094892,36.8800512871067,800,2018-04-14 12:25:27,1776.0363117331553,0.0,0.0,0.0255622008179904,1776.0363117331553,0.0,0.0,0.0255622008179904,1024,0.0,99,Motors_Started,
0.305856074882516,36.8800512438152,900,2018-04-14 12:25:27,1776.0363117331553,0.0,0.0,0.0297277009512864,1776.0363117331553,0.0,0.0,0.0297277009512864,1024,0.0,99,Motors_Started,
0.3058560759264,36.8800512061288,1000,2018-04-14 12:25:27,1776.0363117331553,0.0,0.0,0.033518201072582396,1776.0363117331553,0.0,0.0,0.033518201072582396,1024,0.0,99,Motors_Started,
0.305856078880855,36.8800511733586,1100,2018-04-14 12:25:28,1776.0363117331553,0.0,0.0,0.0368083011778656,1776.0363117331553,0.0,0.0,0.0368083011778656,1024,0.0,99,Motors_Started,
0.305856083273227,36.8800511457625,1200,2018-04-14 12:25:28,1776.0363117331553,0.0,0.0,0.039565501266096,1776.0363117331553,0.0,0.0,0.039565501266096,1024,0.0,99,Motors_Started,
0.305856086490981,36.8800511110497,1300,2018-04-14 12:25:28,1776.0363117331553,0.0,0.0,0.043168701381398396,1776.0363117331553,0.0,0.0,0.043168701381398396,1024,0.0,99,Motors_Started,
0.30585608906509304,36.8800510697207,1400,2018-04-14 12:25:28,1776.0363117331553,0.0,0.0,0.04754760152152321,1776.0363117331553,0.0,0.0,0.04754760152152321,1024,0.0,99,Motors_Started,
0.305856091062125,36.880051042440904,1500,2018-04-14 12:25:28,1776.0363117331553,0.0,0.0,0.0504527016144864,1776.0363117331553,0.0,0.0,0.0504527016144864,1024,0.0,99,Assisted_Takeoff,
0.305856096316656,36.88005101460671,1600,2018-04-14 12:25:28,1776.0363117331553,0.0,0.0,0.053362001707584004,1776.0363117331553,0.0,0.0,0.053362001707584004,1024,0.0,99,Assisted_Takeoff,
0.305856099977347,36.880050974004504,1700,2018-04-14 12:25:28,1776.0363117331553,0.0,0.0,0.057726301847241604,1776.0363117331553,0.0,0.0,0.057726301847241604,1024,0.0,99,Assisted_Takeoff,
0.30585610356338394,36.8800509409372,1800,2018-04-14 12:25:28,1776.0363117331553,0.0,0.0,0.061288301961225596,1776.0363117331553,0.0,0.0,0.061288301961225596,1024,0.0,99,Assisted_Takeoff,
0.305856108392281,36.880050909216706,1900,2018-04-14 12:25:28,1776.0363117331553,0.0,0.0,0.06469800207033599,1776.0363117331553,0.0,0.0,0.06469800207033599,1024,0.0,99,Assisted_Takeoff,
0.305856111403935,36.8800509002163,2000,2018-04-14 12:25:28,1776.0363117331553,0.0,0.0,0.0656441021006112,1776.0363117331553,0.0,0.0,0.0656441021006112,1024,0.0,99,Assisted_Takeoff,
0.30585611452439004,36.8800508669177,2100,2018-04-14 12:25:29,1776.0363117331553,0.0,0.0,0.0692736022167552,1776.0363117331553,0.0,0.0,0.0692736022167552,1024,0.0,99,Assisted_Takeoff,
0.30585611665597195,36.880050837396205,2200,2018-04-14 12:25:29,1776.0363117331553,0.0,0.0,0.0725069023202208,1776.0363117331553,0.0,0.0,0.0725069023202208,1025,0.0,99,Assisted_Takeoff,
0.30585611845753996,36.8800507862118,2300,2018-04-14 12:25:29,1776.0363117331553,0.0,0.0,0.0781453025006496,1776.0363117331553,0.0,0.0,0.0781453025006496,1036,0.0,99,Assisted_Takeoff,
0.305856120416151,36.880050742601796,2400,2018-04-14 12:25:29,1776.0363117331553,0.0,0.0,0.08295110265443521,1776.0363117331553,0.0,0.0,0.08295110265443521,1064,0.0,99,Assisted_Takeoff,
0.305856120417627,36.88005068200479,2500,2018-04-14 12:25:29,1776.0363117331553,0.0,0.0,0.089663002869216,1776.0363117331553,0.0,0.0,0.089663002869216,1087,0.0,99,Assisted_Takeoff,
0.30585612128345,36.880050630161,2600,2018-04-14 12:25:29,1776.0363117331553,0.0,0.0,0.09540060305281921,1776.0363117331553,0.0,0.0,0.09540060305281921,1130,0.0,99,Assisted_Takeoff,
0.305856143705496,36.8800505678633,2700,2018-04-14 12:25:29,1776.0363117331553,0.0,0.0,0.10215300326889601,1776.0363117331553,0.0,0.0,0.10215300326889601,1156,0.0,99,Assisted_Takeoff,
0.30585617349289196,36.88005051391411,2800,2018-04-14 12:25:29,1776.0363117331553,0.0,0.0,0.108041003457312,1776.0363117331553,0.0,0.0,0.108041003457312,1184,0.0,99,Assisted_Takeoff,
0.305856201593474,36.8800504514002,2900,2018-04-14 12:25:29,1776.0363117331553,0.0,0.0,0.11498600367955202,1776.0363117331553,0.0,0.0,0.11498600367955202,1211,0.0,99,Assisted_Takeoff,
0.305856219993415,36.880050394562105,3000,2018-04-14 12:25:29,1776.0363117331553,0.0,0.0,0.12134600388307201,1776.0363117331553,0.0,0.0,0.12134600388307201,1234,0.0,99,Assisted_Takeoff,
0.30585623361631603,36.8800503504741,3100,2018-04-14 12:25:30,1776.0363117331553,0.0,0.0,0.126297004041504,1776.0363117331553,0.0,0.0,0.126297004041504,1245,0.0,99,Assisted_Takeoff,
0.305856243166326,36.8800503195774,3200,2018-04-14 12:25:30,1776.0363117331553,0.0,0.0,0.12977400415276802,1776.0363117331553,0.0,0.0,0.12977400415276802,1246,0.0,99,Assisted_Takeoff,
0.305856247140289,36.8800502761446,3300,2018-04-14 12:25:30,1776.0363117331553,0.0,0.0,0.13462000430784,1776.0363117331553,0.0,0.0,0.13462000430784,1246,0.0,99,Assisted_Takeoff,
0.30585624836040104,36.880050252752795,3400,2018-04-14 12:25:30,1776.0363117331553,0.0,0.0,0.1372250043912,1776.0363117331553,0.0,0.0,0.1372250043912,1246,0.0,99,Assisted_Takeoff,
0.305856213760597,36.880050242905,3500,2018-04-14 12:25:30,1776.0363117331553,0.0,0.0,0.13819000442208002,1776.0363117331553,0.0,0.0,0.13819000442208002,1249,0.0,99,P-GPS,Home Point Recorded. RTH Altitude:  30m.
0.30585616252191195,36.8800502122866,3600,2018-04-14 12:25:30,1776.0363117331553,0.0,0.0,0.1416000045312,1776.0363117331553,0.0,0.0,0.1416000045312,1261,0.0,99,P-GPS,
0.305856100371838,36.880050160416005,3700,2018-04-14 12:25:30,1776.0363117331553,0.0,0.0,0.14766900472540803,1776.0363117331553,0.0,0.0,0.14766900472540803,1262,0.0,99,P-GPS,
0.30585604746766104,36.8800500930095,3800,2018-04-14 12:25:30,1776.1363117363553,0.10000000320000002,0.0,0.155636004980352,1776.1363117363553,0.10000000320000002,0.0,0.155636004980352,1264,0.0,99,P-GPS,
0.305855972805642,36.880050012259105,3900,2018-04-14 12:25:30,1776.2363117395555,0.20000000640000004,0.0,0.1655750052984,1776.2363117395555,0.20000000640000004,0.0,0.1655750052984,1264,0.0,99,P-GPS,
0.305855885085333,36.880049908804295,4000,2018-04-14 12:25:30,1776.2363117395555,0.20000000640000004,0.0,0.17855500571375998,1776.2363117395555,0.20000000640000004,0.0,0.17855500571375998,1269,0.0,99,P-GPS,
0.30585581062529105,36.8800497617609,4100,2018-04-14 12:25:31,1776.3363117427555,0.3000000096,0.0,0.19624500627984,1776.3363117427555,0.3000000096,0.0,0.19624500627984,1285,0.0,99,P-GPS,
0.30585575001295096,36.8800495927045,4200,2018-04-14 12:25:31,1776.4363117459552,0.4000000128000001,0.0,0.21606800691417602,1776.4363117459552,0.4000000128000001,0.0,0.21606800691417602,1305,0.0,99,P-GPS,
0.30585570823725605,36.880049418057496,4300,2018-04-14 12:25:31,1776.5363117491552,0.500000016,0.0,0.23603700755318402,1776.5363117491552,0.500000016,0.0,0.23603700755318402,1313,0.0,99,P-GPS,
0.30585566071974396,36.8800492587387,4400,2018-04-14 12:25:31,1776.6363117523554,0.6000000192,0.0,0.254493008143776,1776.6363117523554,0.6000000192,0.0,0.254493008143776,1306,0.0,99,P-GPS,
0.305855610957778,36.8800491257543,4500,2018-04-14 12:25:31,1776.7363117555553,0.7000000224000001,0.0,0.270167008645344,1776.7363117555553,0.7000000224000001,0.0,0.270167008645344,1307,0.0,99,P-GPS,
0.30585556741695097,36.880049007177895,4600,2018-04-14 12:25:31,1776.8363117587553,0.8000000256000002,0.0,0.284132009092224,1776.8363117587553,0.8000000256000002,0.0,0.284132009092224,1321,0.0,99,P-GPS,
0.305855540235015,36.880048900902,4700,2018-04-14 12:25:31,1777.0363117651555,1.000000032,0.0,0.29633000948256,1777.0363117651555,1.000000032,0.0,0.29633000948256,1344,0.0,99,P-GPS,
0.30585553601109805,36.8800487972458,4800,2018-04-14 12:25:31,1777.1363117683554,1.1000000352,0.0,0.30763300984425607,1777.1363117683554,1.1000000352,0.0,0.30763300984425607,1350,0.0,99,P-GPS,
0.305855558990148,36.8800486907403,4900,2018-04-14 12:25:31,1777.3363117747551,1.3000000416000002,0.0,0.318582010194624,1777.3363117747551,1.3000000416000002,0.0,0.318582010194624,1346,0.0,99,P-GPS,
0.305855552597818,36.8800485652575,5000,2018-04-14 12:25:31,1777.5363117811553,1.5000000480000002,0.0,0.332359010635488,1777.5363117811553,1.5000000480000002,0.0,0.332359010635488,1347,0.0,99,P-GPS,
0.30585548256205497,36.88004841225471,5100,2018-04-14 12:25:31,1777.6363117843553,1.6000000512000003,0.0,0.35066501122128,1777.6363117843553,1.6000000512000003,0.0,0.35066501122128,1360,0.0,99,P-GPS,
0.305855366597326,36.8800482488296,5200,2018-04-14 12:25:32,1777.8363117907554,1.8000000576000001,0.503999582744,0.37136501188368,1777.8363117907554,1.8000000576000001,0.503999582744,0.37136501188368,1374,0.0,99,P-GPS,
0.305855246083756,36.88004811446039,5300,2018-04-14 12:25:32,1778.0363117971553,2.000000064,0.503999582744,0.38926001245632,1778.0363117971553,2.000000064,0.503999582744,0.38926001245632,1381,0.0,99,P-GPS,
0.305855141212115,36.8800479866721,5400,2018-04-14 12:25:32,1778.2363118035555,2.2000000704,0.503999582744,0.40615501299696,1778.2363118035555,2.2000000704,0.503999582744,0.40615501299696,1382,0.0,99,P-GPS,
0.30585502987178603,36.8800478155907,5500,2018-04-14 12:25:32,1778.4363118099552,2.4000000768,0.503999582744,0.42798201369542405,1778.4363118099552,2.4000000768,0.503999582744,0.42798201369542405,1386,0.0,99,P-GPS,
0.305854917676625,36.8800476337349,5600,2018-04-14 12:25:32,1778.6363118163554,2.6000000832000003,0.503999582744,0.451062014433984,1778.6363118163554,2.6000000832000003,0.503999582744,0.451062014433984,1388,0.0,99,P-GPS,
0.30585482000657505,36.8800474999754,5700,2018-04-14 12:25:32,1778.8363118227553,2.8000000896000006,0.35999970196000003,0.468626014996032,1778.8363118227553,2.8000000896000006,0.503999582744,0.468626014996032,1395,0.0,99,P-GPS,
0.305854752915496,36.8800474023691,5800,2018-04-14 12:25:32,1779.0363118291555,3.0000000960000004,0.35999970196000003,0.48132901540252804,1779.0363118291555,3.0000000960000004,0.503999582744,0.48132901540252804,1396,0.0,99,P-GPS,
0.305854746510113,36.8800473496634,5900,2018-04-14 12:25:32,1779.2363118355552,3.2000001024000007,0.0,0.48709601558707205,1779.2363118355552,3.2000001024000007,0.503999582744,0.48709601558707205,1406,0.0,99,P-GPS,
0.305854766562111,36.880047308802794,6000,2018-04-14 12:25:32,1779.4363118419553,3.4000001088000005,0.0,0.49066401570124796,1779.4363118419553,3.4000001088000005,0.503999582744,0.49066401570124796,1407,0.0,99,P-GPS,
0.30585477468799604,36.8800472546775,6100,2018-04-14 12:25:33,1779.6363118483553,3.6000001152000003,0.0,0.49607801587449607,1779.6363118483553,3.6000001152000003,0.503999582744,0.49607801587449607,1409,0.0,99,P-GPS,
0.305854769493972,36.880047188339894,6200,2018-04-14 12:25:33,1779.9363118579554,3.9000001248,0.0,0.503261016104352,1779.9363118579554,3.9000001248,0.503999582744,0.503261016104352,1409,0.0,99,P-GPS,
0.305854765068268,36.8800471137439,6300,2018-04-14 12:25:33,1780.1363118643553,4.100000131200001,0.0,0.511296016361472,1780.1363118643553,4.100000131200001,0.503999582744,0.511296016361472,1425,0.0,99,P-GPS,
0.30585483663624496,36.880046983558,6500,2018-04-14 12:25:33,1780.5363118771554,4.5000001439999995,0.0,0.5227340167274881,1780.5363118771554,4.5000001439999995,0.503999582744,0.5227340167274881,1446,0.0,99,P-GPS,
0.305854915362963,36.8800469375585,6600,2018-04-14 12:25:33,1780.8363118867555,4.8000001536,0.0,0.5252060168065921,1780.8363118867555,4.8000001536,0.503999582744,0.5252060168065921,1467,0.0,99,P-GPS,
0.305854980027939,36.880046902892204,6700,2018-04-14 12:25:33,1781.0363118931552,5.00000016,0.0,0.527039016865248,1781.0363118931552,5.00000016,0.503999582744,0.527039016865248,1490,0.0,99,P-GPS,
0.305855045128347,36.8800468818642,6800,2018-04-14 12:25:33,1781.3363119027554,5.3000001696,0.0,0.5275070168802241,1781.3363119027554,5.3000001696,0.503999582744,0.5275070168802241,1499,0.0,99,P-GPS,
0.3058551368802,36.880046888973,6900,2018-04-14 12:25:33,1781.5363119091553,5.500000176000001,0.0,0.524368016779776,1781.5363119091553,5.500000176000001,0.503999582744,0.5275070168802241,1516,0.0,99,P-GPS,
0.305855246383644,36.880046909829105,7000,2018-04-14 12:25:33,1781.8363119187552,5.8000001856,0.0,0.5195130166244161,1781.8363119187552,5.8000001856,0.503999582744,0.5275070168802241,1534,0.0,99,P-GPS,
0.305855345749547,36.8800469449911,7100,2018-04-14 12:25:33,1782.1363119283553,6.1000001952,0.0,0.5135500164336,1782.1363119283553,6.1000001952,0.503999582744,0.5275070168802241,1547,0.0,99,P-GPS,
0.305855443034735,36.8800469787414,7200,2018-04-14 12:25:34,1782.4363119379555,6.400000204800001,0.0,0.5079810162553919,1782.4363119379555,6.400000204800001,0.503999582744,0.5275070168802241,1556,0.0,99,P-GPS,
0.305855518287088,36.8800469879389,7300,2018-04-14 12:25:34,1782.7363119475551,6.7000002144,0.0,0.505669016181408,1782.7363119475551,6.7000002144,0.503999582744,0.5275070168802241,1570,0.0,99,P-GPS,
0.30585559411826696,36.8800469850397,7400,2018-04-14 12:25:34,1783.1363119603554,7.100000227200002,0.0,0.5048130161540161,1783.1363119603554,7.100000227200002,0.503999582744,0.5275070168802241,1590,0.0,99,P-GPS,
0.305855665177711,36.8800469985211,7500,2018-04-14 12:25:34,1783.4363119699553,7.4000002368,0.0,0.502349016075168,1783.4363119699553,7.4000002368,0.503999582744,0.5275070168802241,1625,0.0,99,P-GPS,
0.30585574193591997,36.88004701998,7600,2018-04-14 12:25:34,1783.8363119827552,7.8000002496,0.0,0.49905501596976,1783.8363119827552,7.8000002496,0.503999582744,0.5275070168802241,1671,0.0,99,P-GPS,
0.30585581377101195,36.8800470320413,7700,2018-04-14 12:25:34,1784.2363119955553,8.200000262400001,0.0,0.49698501590352007,1784.2363119955553,8.200000262400001,0.503999582744,0.5275070168802241,1684,0.0,99,P-GPS,
0.305855898650424,36.8800470190556,7800,2018-04-14 12:25:34,1784.6363120083552,8.6000002752,0.0,0.497722015927104,1784.6363120083552,8.6000002752,0.503999582744,0.5275070168802241,1684,0.0,99,P-GPS,
0.30585617471549703,36.880046821169294,8100,2018-04-14 12:25:35,1785.9363120499554,9.900000316799998,0.0,0.5186780165976961,1785.9363120499554,9.900000316799998,0.503999582744,0.5275070168802241,1684,0.0,99,P-GPS,
0.30585628934798,36.8800468378266,8200,2018-04-14 12:25:35,1786.4363120659552,10.400000332800001,0.0,0.5169430165421761,1786.4363120659552,10.400000332800001,0.503999582744,0.5275070168802241,1684,0.0,99,P-GPS,
0.30585644999672806,36.880046924191106,8300,2018-04-14 12:25:35,1786.9363120819553,10.9000003488,0.35999970196000003,0.508046016257472,1786.9363120819553,10.9000003488,0.503999582744,0.5275070168802241,1684,0.0,99,P-GPS,
0.30585701903164897,36.8800471931362,8600,2018-04-14 12:25:35,1788.4363121299552,12.4000003968,0.0,0.4861440155566081,1788.4363121299552,12.4000003968,0.503999582744,0.5275070168802241,1657,0.0,99,P-GPS,
0.305857166524809,36.8800472579385,8700,2018-04-14 12:25:35,1789.0363121491553,13.000000416,0.0,0.4824980154399361,1789.0363121491553,13.000000416,0.503999582744,0.5275070168802241,1649,0.0,99,P-GPS,
0.30585729384796,36.8800473049165,8800,2018-04-14 12:25:35,1789.5363121651553,13.500000432000002,0.0,0.48083001538656,1789.5363121651553,13.500000432000002,0.503999582744,0.5275070168802241,1672,0.0,99,P-GPS,
0.30585742090140006,36.8800473219437,8900,2018-04-14 12:25:35,1790.0363121811554,14.000000448,0.0,0.48281501545008004,1790.0363121811554,14.000000448,0.503999582744,0.5275070168802241,1684,0.0,99,P-GPS,
0.305857564176991,36.8800473337582,9000,2018-04-14 12:25:35,1790.4363121939555,14.400000460800001,0.0,0.48632601556243205,1790.4363121939555,14.400000460800001,0.503999582744,0.5275070168802241,1684,0.0,99,P-GPS,
0.305857691226564,36.880047307134795,9100,2018-04-14 12:25:35,1790.9363122099553,14.9000004768,0.0,0.49373601579955206,1790.9363122099553,14.9000004768,0.503999582744,0.5275070168802241,1684,0.0,99,P-GPS,
0.305857804690231,36.880047262398,9200,2018-04-14 12:25:36,1791.4363122259554,15.4000004928,0.0,0.502789016089248,1791.4363122259554,15.4000004928,0.503999582744,0.5275070168802241,1684,0.0,99,P-GPS,
0.30585791155564696,36.8800472128436,9300,2018-04-14 12:25:36,1791.9363122419554,15.900000508800002,0.0,0.5122630163924161,1791.9363122419554,15.900000508800002,0.503999582744,0.5275070168802241,1684,0.0,99,P-GPS,
0.30585821579845,36.8800471710365,9500,2018-04-14 12:25:36,1792.9363122739553,16.900000540799997,0.0,0.530053016961696,1792.9363122739553,16.900000540799997,0.503999582744,0.530053016961696,1684,0.0,99,P-GPS,
0.30585838015608097,36.8800471706977,9600,2018-04-14 12:25:36,1793.4363122899551,17.400000556800002,0.0,0.538111017219552,1793.4363122899551,17.400000556800002,0.503999582744,0.538111017219552,1684,0.0,99,P-GPS,
0.30585851666793,36.8800471685774,9700,2018-04-14 12:25:36,1793.9363123059554,17.9000005728,0.0,0.545359017451488,1793.9363123059554,17.9000005728,0.503999582744,0.545359017451488,1684,-0.2,99,P-GPS,
0.30585862760343896,36.880047159071104,9800,2018-04-14 12:25:36,1794.4363123219553,18.4000005888,0.0,0.5522410176717121,1794.4363123219553,18.4000005888,0.503999582744,0.5522410176717121,1684,-0.7,99,P-GPS,
0.30585872888369897,36.8800471486291,9900,2018-04-14 12:25:36,1794.9363123379553,18.900000604800002,0.0,0.558859017883488,1794.9363123379553,18.900000604800002,0.503999582744,0.558859017883488,1684,-1.4,99,P-GPS,
0.30585883152330295,36.880047137477796,10000,2018-04-14 12:25:36,1795.4363123539554,19.4000006208,0.0,0.565772018104704,1795.4363123539554,19.4000006208,0.503999582744,0.565772018104704,1684,-3.0,99,P-GPS,
0.305858922514239,36.8800471094637,10100,2018-04-14 12:25:37,1796.0363123731552,20.00000064,0.0,0.5737320183594241,1796.0363123731552,20.00000064,0.503999582744,0.5737320183594241,1684,-4.8,99,P-GPS,
0.305859009321704,36.88004707458921,10200,2018-04-14 12:25:37,1796.5363123891555,20.500000655999997,0.0,0.5821680186293761,1796.5363123891555,20.500000655999997,0.503999582744,0.5821680186293761,1684,-6.5,99,P-GPS,
0.305859108544018,36.880047046158104,10300,2018-04-14 12:25:37,1797.0363124051553,21.000000672,0.0,0.590824018906368,1797.0363124051553,21.000000672,0.503999582744,0.590824018906368,1684,-8.6,99,P-GPS,
0.305859202944916,36.88004703384521,10400,2018-04-14 12:25:37,1797.5363124211553,21.500000688,0.0,0.5977900191292801,1797.5363124211553,21.500000688,0.503999582744,0.5977900191292801,1684,-10.8,99,P-GPS,
0.305859285311206,36.8800470359222,10500,2018-04-14 12:25:37,1798.0363124371552,22.000000704000005,0.0,0.6027830192890561,1798.0363124371552,22.000000704000005,0.503999582744,0.6027830192890561,1684,-12.9,99,P-GPS,
0.30585935084101395,36.8800470434099,10600,2018-04-14 12:25:37,1798.6363124563554,22.6000007232,0.0,0.6062960194014722,1798.6363124563554,22.6000007232,0.503999582744,0.6062960194014722,1684,-15.0,99,P-GPS,
0.30585939740799895,36.8800470590635,10700,2018-04-14 12:25:37,1799.1363124723553,23.100000739200006,0.0,0.607903019452896,1799.1363124723553,23.100000739200006,0.503999582744,0.607903019452896,1684,-15.4,99,P-GPS,
0.305859432354407,36.8800470684521,10800,2018-04-14 12:25:37,1799.6363124883555,23.6000007552,0.0,0.6093500194992001,1799.6363124883555,23.6000007552,0.503999582744,0.6093500194992001,1684,-15.4,99,P-GPS,
0.305859459551457,36.88004707245771,10900,2018-04-14 12:25:37,1800.1363125043554,24.100000771199998,0.0,0.6107860195451521,1800.1363125043554,24.100000771199998,0.503999582744,0.6107860195451521,1670,-15.4,99,P-GPS,
0.305859482260516,36.880047069540296,11000,2018-04-14 12:25:37,1800.6363125203552,24.600000787200003,0.0,0.6125530196016962,1800.6363125203552,24.600000787200003,0.503999582744,0.6125530196016962,1663,-15.4,99,P-GPS,
0.305859508066875,36.8800470662054,11100,2018-04-14 12:25:37,1801.1363125363555,25.100000803199997,0.0,0.61457001966624,1801.1363125363555,25.100000803199997,0.503999582744,0.61457001966624,1662,-15.4,99,P-GPS,
0.30585952279493,36.88004705958971,11200,2018-04-14 12:25:38,1801.6363125523553,25.600000819200005,0.0,0.616142019716544,1801.6363125523553,25.600000819200005,0.503999582744,0.616142019716544,1665,-15.4,99,P-GPS,
0.305859509331769,36.8800470299981,11300,2018-04-14 12:25:38,1802.1363125683554,26.100000835200003,0.0,0.617878019772096,1802.1363125683554,26.100000835200003,0.503999582744,0.617878019772096,1667,-15.4,99,P-GPS,
0.305859486947992,36.8800469810796,11400,2018-04-14 12:25:38,1802.6363125843552,26.6000008512,0.0,0.6207750198648,1802.6363125843552,26.6000008512,0.503999582744,0.6207750198648,1668,-15.4,99,P-GPS,
0.305859464835758,36.88004694655471,11500,2018-04-14 12:25:38,1803.1363126003555,27.100000867200002,0.0,0.62243501991792,1803.1363126003555,27.100000867200002,0.503999582744,0.62243501991792,1668,-16.0,99,P-GPS,
0.305859449409915,36.8800468952948,11600,2018-04-14 12:25:38,1803.7363126195553,27.700000886400005,0.0,0.6260710200342722,1803.7363126195553,27.700000886400005,0.503999582744,0.6260710200342722,1669,-16.9,99,P-GPS,
0.305859404400537,36.8800468117524,11700,2018-04-14 12:25:38,1804.2363126355554,28.200000902400003,0.0,0.630818020186176,1804.2363126355554,28.200000902400003,0.503999582744,0.630818020186176,1669,-18.2,99,P-GPS,
0.30585934121894603,36.880046728930395,11800,2018-04-14 12:25:38,1804.7363126515554,28.7000009184,0.0,0.6345200203046399,1804.7363126515554,28.7000009184,0.503999582744,0.6345200203046399,1667,-20.0,99,P-GPS,
0.305859249890921,36.8800466678618,11900,2018-04-14 12:25:38,1805.2363126675552,29.200000934400002,0.0,0.634688020310016,1805.2363126675552,29.200000934400002,0.503999582744,0.634688020310016,1660,-21.7,99,P-GPS,
0.305859177919396,36.8800466456631,12000,2018-04-14 12:25:38,1805.7363126835555,29.7000009504,0.0,0.6325320202410241,1805.7363126835555,29.7000009504,0.503999582744,0.634688020310016,1654,-21.9,99,P-GPS,
0.305859091048015,36.8800466591504,12100,2018-04-14 12:25:39,1806.2363126995554,30.200000966400005,0.0,0.626224020039168,1806.2363126995554,30.200000966400005,0.503999582744,0.634688020310016,1661,-21.9,99,P-GPS,
0.305858996624319,36.880046676615,12200,2018-04-14 12:25:39,1806.7363127155552,30.700000982400002,0.0,0.6192010198144321,1806.7363127155552,30.700000982400002,0.503999582744,0.634688020310016,1661,-21.9,99,P-GPS,
0.305858869450577,36.8800466923387,12300,2018-04-14 12:25:39,1807.2363127315552,31.2000009984,0.0,0.610666019541312,1807.2363127315552,31.2000009984,0.503999582744,0.634688020310016,1649,-21.9,99,P-GPS,
0.30585876871788203,36.8800467089179,12400,2018-04-14 12:25:39,1807.7363127475553,31.7000010144,0.0,0.6036550193169601,1807.7363127475553,31.7000010144,0.503999582744,0.634688020310016,1634,-21.9,99,P-GPS,
0.30585865746788,36.8800467254981,12500,2018-04-14 12:25:39,1808.2363127635554,32.2000010304,0.0,0.596238019079616,1808.2363127635554,32.2000010304,0.503999582744,0.634688020310016,1622,-21.9,99,P-GPS,
0.30585857724279,36.8800467379009,12600,2018-04-14 12:25:39,1808.7363127795552,32.700001046400004,0.0,0.590952018910464,1808.7363127795552,32.700001046400004,0.503999582744,0.634688020310016,1624,-21.9,99,P-GPS,
0.305858511437979,36.880046742103,12700,2018-04-14 12:25:39,1809.2363127955555,33.2000010624,0.0,0.5872800187929601,1809.2363127955555,33.2000010624,0.503999582744,0.634688020310016,1622,-21.9,99,P-GPS,
0.30585846766418295,36.8800467479944,12800,2018-04-14 12:25:39,1809.6363128083553,33.6000010752,0.0,0.5845660187061121,1809.6363128083553,33.6000010752,0.503999582744,0.634688020310016,1615,-21.9,99,P-GPS,
0.30585840364170397,36.8800467477803,12900,2018-04-14 12:25:39,1810.1363128243554,34.1000010912,0.0,0.5815370186091839,1810.1363128243554,34.1000010912,0.503999582744,0.634688020310016,1605,-21.9,99,P-GPS,
0.30585834952281,36.880046756645896,13000,2018-04-14 12:25:39,1810.5363128371553,34.500001104,0.0,0.5781180184997761,1810.5363128371553,34.500001104,0.503999582744,0.634688020310016,1602,-21.9,99,P-GPS,
0.305858275209786,36.88004676784001,13100,2018-04-14 12:25:39,1810.9363128499554,34.9000011168,0.0,0.57359501835504,1810.9363128499554,34.9000011168,0.503999582744,0.634688020310016,1602,-21.9,99,P-GPS,
0.305858217325523,36.880046782926705,13200,2018-04-14 12:25:40,1811.4363128659552,35.40000113280001,0.0,0.569481018223392,1811.4363128659552,35.40000113280001,0.503999582744,0.634688020310016,1604,-21.9,99,P-GPS,
0.305858147545273,36.880046783389204,13300,2018-04-14 12:25:40,1811.8363128787553,35.8000011456,0.0,0.56640501812496,1811.8363128787553,35.8000011456,0.503999582744,0.634688020310016,1609,-21.9,99,P-GPS,
0.305858107182253,36.8800467926423,13400,2018-04-14 12:25:40,1812.2363128915554,36.200001158400006,0.0,0.563742018039744,1812.2363128915554,36.200001158400006,0.503999582744,0.634688020310016,1612,-21.9,99,P-GPS,
0.305858043808912,36.8800468016246,13500,2018-04-14 12:25:40,1812.6363129043555,36.6000011712,0.0,0.56018501792592,1812.6363129043555,36.6000011712,0.503999582744,0.634688020310016,1615,-22.1,99,P-GPS,
0.30585799915473805,36.880046810124,13600,2018-04-14 12:25:40,1813.1363129203553,37.1000011872,0.0,0.5574950178398401,1813.1363129203553,37.1000011872,0.503999582744,0.634688020310016,1609,-22.5,99,P-GPS,
0.305857946168835,36.8800468014222,13700,2018-04-14 12:25:40,1813.5363129331554,37.5000012,0.0,0.5563010178016321,1813.5363129331554,37.5000012,0.503999582744,0.634688020310016,1608,-23.1,99,P-GPS,
0.30585793499058506,36.880046790836204,13800,2018-04-14 12:25:40,1813.9363129459553,37.90000121280001,0.0,0.556969017823008,1813.9363129459553,37.90000121280001,0.503999582744,0.634688020310016,1610,-23.8,99,P-GPS,
0.30585788519846696,36.880046766366796,13900,2018-04-14 12:25:40,1814.3363129587553,38.3000012256,0.0,0.5576230178439361,1814.3363129587553,38.3000012256,0.503999582744,0.634688020310016,1615,-23.8,99,P-GPS,
0.305857846020547,36.880046754834396,14000,2018-04-14 12:25:40,1814.8363129747552,38.8000012416,0.0,0.5573750178360001,1814.8363129747552,38.8000012416,0.503999582744,0.634688020310016,1613,-24.6,99,P-GPS,
0.30585777488502397,36.88004676725539,14100,2018-04-14 12:25:41,1815.2363129875553,39.2000012544,0.0,0.553502017712064,1815.2363129875553,39.2000012544,0.503999582744,0.634688020310016,1614,-25.6,99,P-GPS,
0.30585772768050395,36.8800467895055,14200,2018-04-14 12:25:41,1815.6363130003551,39.60000126719999,0.0,0.549500017584,1815.6363130003551,39.60000126719999,0.503999582744,0.634688020310016,1607,-26.5,99,P-GPS,
0.30585766616399607,36.880046790948704,14300,2018-04-14 12:25:41,1816.1363130163554,40.10000128320001,0.0,0.5472560175121921,1816.1363130163554,40.10000128320001,0.503999582744,0.634688020310016,1608,-27.0,99,P-GPS,
0.305857630289986,36.8800467691407,14400,2018-04-14 12:25:41,1816.5363130291553,40.500001296,0.0,0.548391017548512,1816.5363130291553,40.500001296,0.503999582744,0.634688020310016,1604,-27.1,99,P-GPS,
0.305857561411079,36.8800467281104,14500,2018-04-14 12:25:41,1816.9363130419554,40.90000130880001,0.0,0.55058501761872,1816.9363130419554,40.90000130880001,0.503999582744,0.634688020310016,1602,-27.1,99,P-GPS,
0.305857499261921,36.8800466804081,14600,2018-04-14 12:25:41,1817.4363130579552,41.4000013248,0.0,0.5538260177224321,1817.4363130579552,41.4000013248,0.503999582744,0.634688020310016,1594,-27.1,99,P-GPS,
0.30585742980898806,36.880046634631796,14700,2018-04-14 12:25:41,1817.8363130707553,41.80000133760001,0.0,0.5567750178167999,1817.8363130707553,41.80000133760001,0.503999582744,0.634688020310016,1586,-27.1,99,P-GPS,
0.305857398292897,36.8800466044433,14800,2018-04-14 12:25:41,1818.2363130835552,42.2000013504,0.0,0.559176017893632,1818.2363130835552,42.2000013504,0.503999582744,0.634688020310016,1595,-27.1,99,P-GPS,
0.305857362145308,36.8800466061198,14900,2018-04-14 12:25:41,1818.7363130995554,42.7000013664,0.0,0.558042017857344,1818.7363130995554,42.7000013664,0.503999582744,0.634688020310016,1613,-27.0,99,P-GPS,
0.305857350165049,36.8800466255489,15000,2018-04-14 12:25:41,1819.1363131123555,43.1000013792,0.0,0.55563001778016,1819.1363131123555,43.1000013792,0.503999582744,0.634688020310016,1615,-27.1,99,P-GPS,
0.305857327032595,36.8800466585895,15100,2018-04-14 12:25:41,1819.5363131251554,43.500001391999994,0.0,0.551461017646752,1819.5363131251554,43.500001391999994,0.503999582744,0.634688020310016,1599,-27.1,99,P-GPS,
0.305857333241852,36.8800466833811,15200,2018-04-14 12:25:42,1819.9363131379555,43.9000014048,0.0,0.548938017566016,1819.9363131379555,43.9000014048,0.503999582744,0.634688020310016,1598,-27.1,99,P-GPS,
0.305857317635659,36.8800467045092,15300,2018-04-14 12:25:42,1820.3363131507554,44.30000141760001,0.0,0.5462510174800321,1820.3363131507554,44.30000141760001,0.503999582744,0.634688020310016,1607,-27.1,99,P-GPS,
0.30585730767100705,36.8800467266394,15400,2018-04-14 12:25:42,1820.7363131635555,44.7000014304,0.0,0.543602017395264,1820.7363131635555,44.7000014304,0.503999582744,0.634688020310016,1638,-27.1,98,P-GPS,
0.305857280050968,36.880046753889104,15500,2018-04-14 12:25:42,1821.2363131795553,45.2000014464,0.0,0.539954017278528,1821.2363131795553,45.2000014464,0.503999582744,0.634688020310016,1654,-27.0,98,P-GPS,
0.30585728037319604,36.88004679105679,15600,2018-04-14 12:25:42,1821.6363131923554,45.6000014592,0.0,0.53593501714992,1821.6363131923554,45.6000014592,0.503999582744,0.634688020310016,1652,-27.1,98,P-GPS,
0.305857255855751,36.8800468433765,15700,2018-04-14 12:25:42,1822.0363132051552,46.000001471999994,0.0,0.529653016948896,1822.0363132051552,46.000001471999994,0.503999582744,0.634688020310016,1652,-27.0,98,P-GPS,
0.305857246811373,36.8800468888937,15800,2018-04-14 12:25:42,1822.5363132211553,46.50000148800001,0.0,0.524494016783808,1822.5363132211553,46.50000148800001,0.503999582744,0.634688020310016,1653,-27.1,98,P-GPS,
0.3058572194413,36.8800469285987,15900,2018-04-14 12:25:42,1822.9363132339552,46.9000015008,0.0,0.5195130166244161,1822.9363132339552,46.9000015008,0.503999582744,0.634688020310016,1666,-27.0,98,P-GPS,
0.305857216069403,36.8800469768026,16000,2018-04-14 12:25:42,1823.4363132499554,47.400001516799996,0.0,0.514202016454464,1823.4363132499554,47.400001516799996,0.503999582744,0.634688020310016,1675,-27.0,98,P-GPS,
0.30585719312910603,36.8800470265754,16100,2018-04-14 12:25:43,1823.8363132627553,47.8000015296,0.0,0.5082400162636801,1823.8363132627553,47.8000015296,0.503999582744,0.634688020310016,1684,-27.1,98,P-GPS,
0.30585719054557897,36.880047070594294,16200,2018-04-14 12:25:43,1824.3363132787554,48.300001545600004,0.0,0.503402016108864,1824.3363132787554,48.300001545600004,0.503999582744,0.634688020310016,1684,-27.1,98,P-GPS,
0.305857170609964,36.8800471127814,16300,2018-04-14 12:25:43,1824.8363132947552,48.8000015616,0.0,0.4983380159468161,1824.8363132947552,48.8000015616,0.503999582744,0.634688020310016,1684,-27.0,98,P-GPS,
0.3058571824286,36.88004715258379,16400,2018-04-14 12:25:43,1825.3363133107555,49.30000157760001,0.0,0.494312015817984,1825.3363133107555,49.30000157760001,0.503999582744,0.634688020310016,1673,-27.1,98,P-GPS,
0.305857164181275,36.8800471808908,16500,2018-04-14 12:25:43,1825.8363133267553,49.8000015936,0.0,0.49079201570534403,1825.8363133267553,49.8000015936,0.503999582744,0.634688020310016,1642,-27.1,98,P-GPS,
0.305857158816162,36.8800472143457,16600,2018-04-14 12:25:43,1826.3363133427551,50.3000016096,0.0,0.487032015585024,1826.3363133427551,50.3000016096,0.503999582744,0.634688020310016,1631,-27.1,98,P-GPS,
0.30585715164286603,36.88004723226471,16700,2018-04-14 12:25:43,1826.8363133587554,50.800001625600004,0.0,0.48491201551718394,1826.8363133587554,50.800001625600004,0.503999582744,0.634688020310016,1634,-27.0,98,P-GPS,
0.305857174755983,36.8800472546287,16800,2018-04-14 12:25:43,1827.3363133747553,51.3000016416,0.0,0.483063015458016,1827.3363133747553,51.3000016416,0.503999582744,0.634688020310016,1626,-27.0,98,P-GPS,
0.30585715762271604,36.880047289924505,16900,2018-04-14 12:25:43,1827.8363133907553,51.800001657600006,0.0,0.47881001532191997,1827.8363133907553,51.800001657600006,0.503999582744,0.634688020310016,1634,-27.0,98,P-GPS,
0.305857138920037,36.880047330819394,17000,2018-04-14 12:25:43,1828.2363134035552,52.200001670400006,0.0,0.473912015165184,1828.2363134035552,52.200001670400006,0.503999582744,0.634688020310016,1635,-27.1,98,P-GPS,
0.305857105929288,36.880047338275,17100,2018-04-14 12:25:43,1828.7363134195555,52.7000016864,0.0,0.47229801511353603,1828.7363134195555,52.7000016864,0.503999582744,0.634688020310016,1632,-27.0,98,P-GPS,
0.305857104165989,36.8800473329868,17200,2018-04-14 12:25:44,1829.1363134323553,53.1000016992,0.0,0.47283001513056006,1829.1363134323553,53.1000016992,0.503999582744,0.634688020310016,1635,-27.1,98,P-GPS,
0.30585710791711,36.88004730184021,17300,2018-04-14 12:25:44,1829.6363134483554,53.6000017152,0.0,0.4763030152416961,1829.6363134483554,53.6000017152,0.503999582744,0.634688020310016,1648,-27.1,98,P-GPS,
0.305857137118367,36.8800472865018,17400,2018-04-14 12:25:44,1830.0363134611553,54.00000172800001,0.0,0.4786730153175361,1830.0363134611553,54.00000172800001,0.503999582744,0.634688020310016,1665,-27.1,98,P-GPS,
0.30585713817319204,36.880047280377,17500,2018-04-14 12:25:44,1830.4363134739554,54.40000174080001,0.0,0.47936301533961606,1830.4363134739554,54.40000174080001,0.503999582744,0.634688020310016,1684,-27.0,98,P-GPS,
0.30585715497507004,36.88004729616179,17600,2018-04-14 12:25:44,1830.9363134899552,54.9000017568,0.0,0.478067015298144,1830.9363134899552,54.9000017568,0.503999582744,0.634688020310016,1684,-27.1,98,P-GPS,
0.305857176490886,36.880047331993296,17700,2018-04-14 12:25:44,1831.4363135059555,55.40000177280001,0.0,0.474733015191456,1831.4363135059555,55.40000177280001,0.503999582744,0.634688020310016,1684,-27.1,98,P-GPS,
0.30585721522057696,36.880047375550795,17800,2018-04-14 12:25:44,1831.8363135187553,55.8000017856,0.0,0.47104601507347205,1831.8363135187553,55.8000017856,0.503999582744,0.634688020310016,1684,-27.1,98,P-GPS,
0.305857237776765,36.880047388844396,17900,2018-04-14 12:25:44,1832.3363135347554,56.3000018016,0.0,0.47022801504729606,1832.3363135347554,56.3000018016,0.503999582744,0.634688020310016,1684,-27.1,98,P-GPS,
0.305857266694878,36.8800474006417,18000,2018-04-14 12:25:44,1832.8363135507552,56.80000181760001,0.0,0.469766015032512,1832.8363135507552,56.80000181760001,0.503999582744,0.634688020310016,1684,-27.1,98,P-GPS,
0.305857275855282,36.880047418298396,18100,2018-04-14 12:25:45,1833.3363135667555,57.3000018336,0.0,0.46813001498016,1833.3363135667555,57.3000018336,0.503999582744,0.634688020310016,1684,-27.0,98,P-GPS,
0.305857289246588,36.8800474434557,18200,2018-04-14 12:25:45,1833.8363135827553,57.8000018496,0.0,0.465817014906144,1833.8363135827553,57.8000018496,0.503999582744,0.634688020310016,1684,-27.1,98,P-GPS,
0.305857285134563,36.8800474654745,18300,2018-04-14 12:25:45,1834.3363135987552,58.30000186560001,0.0,0.463334014826688,1834.3363135987552,58.30000186560001,0.503999582744,0.634688020310016,1684,-27.1,98,P-GPS,
0.305857291393081,36.8800474929063,18400,2018-04-14 12:25:45,1834.8363136147555,58.8000018816,0.0,0.46057601473843207,1834.8363136147555,58.8000018816,0.503999582744,0.634688020310016,1684,-27.1,98,P-GPS,
0.3058572717068211,36.8800475015968,18500,2018-04-14 12:25:45,1835.3363136307553,59.30000189760001,0.0,0.45906601469011205,1835.3363136307553,59.30000189760001,0.503999582744,0.634688020310016,1684,-27.1,98,P-GPS,
0.305857264476123,36.8800475081456,18600,2018-04-14 12:25:45,1835.8363136467553,59.800001913600006,0.0,0.45815301466089603,1835.8363136467553,59.800001913600006,0.503999582744,0.634688020310016,1684,-27.1,98,P-GPS,
0.30585724295135,36.880047507371,18700,2018-04-14 12:25:45,1836.3363136627552,60.30000192960001,0.0,0.457617014643744,1836.3363136627552,60.30000192960001,0.503999582744,0.634688020310016,1684,-27.1,98,P-GPS,
0.305857231452703,36.8800475124868,18800,2018-04-14 12:25:45,1836.8363136787555,60.800001945599995,0.0,0.456741014615712,1836.8363136787555,60.800001945599995,0.503999582744,0.634688020310016,1684,-27.1,98,P-GPS,
0.305857214332261,36.8800475053936,18900,2018-04-14 12:25:45,1837.3363136947553,61.3000019616,0.0,0.457026014624832,1837.3363136947553,61.3000019616,0.503999582744,0.634688020310016,1684,-27.0,98,P-GPS,
0.305857215538531,36.8800474975039,19000,2018-04-14 12:25:45,1837.9363137139553,61.9000019808,0.0,0.45790901465308803,1837.9363137139553,61.9000019808,0.503999582744,0.634688020310016,1684,-27.1,98,P-GPS,
0.305857186549581,36.8800474517132,19100,2018-04-14 12:25:45,1838.4363137299554,62.4000019968,0.0,0.46205801478585606,1838.4363137299554,62.4000019968,0.503999582744,0.634688020310016,1684,-27.1,98,P-GPS,
0.30585717256165507,36.880047415587704,19200,2018-04-14 12:25:46,1838.9363137459552,62.9000020128,0.0,0.46559101489891197,1838.9363137459552,62.9000020128,0.503999582744,0.634688020310016,1680,-27.1,98,P-GPS,
0.30585714729247804,36.8800473840444,19300,2018-04-14 12:25:46,1839.3363137587553,63.3000020256,0.0,0.46835401498732804,1839.3363137587553,63.3000020256,0.503999582744,0.634688020310016,1666,-27.1,98,P-GPS,
0.305857130814254,36.880047378334396,19400,2018-04-14 12:25:46,1839.8363137747554,63.8000020416,0.0,0.46856001499392,1839.8363137747554,63.8000020416,0.503999582744,0.634688020310016,1637,-27.1,98,P-GPS,
0.305857074252592,36.8800473695036,19500,2018-04-14 12:25:46,1840.3363137907554,64.30000205760001,0.0,0.46815501498096,1840.3363137907554,64.30000205760001,0.503999582744,0.634688020310016,1589,-27.1,98,P-GPS,
0.305857031104933,36.880047374522,19600,2018-04-14 12:25:46,1840.8363138067552,64.8000020736,0.0,0.46662301493193603,1840.8363138067552,64.8000020736,0.503999582744,0.634688020310016,1570,-27.1,98,P-GPS,
0.305856987297652,36.8800473683431,19700,2018-04-14 12:25:46,1841.3363138227555,65.3000020896,0.0,0.46634501492304004,1841.3363138227555,65.3000020896,0.503999582744,0.634688020310016,1563,-27.1,98,P-GPS,
0.305856971952417,36.8800473685674,19800,2018-04-14 12:25:46,1841.7363138355554,65.7000021024,0.0,0.4659990149119681,1841.7363138355554,65.7000021024,0.503999582744,0.634688020310016,1557,-27.1,98,P-GPS,
0.305856942961025,36.880047397252795,19900,2018-04-14 12:25:46,1842.2363138515555,66.20000211840001,0.0,0.46227001479264007,1842.2363138515555,66.20000211840001,0.503999582744,0.634688020310016,1554,-27.1,98,P-GPS,
0.30585691917464897,36.88004744357129,20000,2018-04-14 12:25:46,1842.6363138643553,66.6000021312,0.0,0.45672801461529605,1842.6363138643553,66.6000021312,0.503999582744,0.634688020310016,1546,-27.1,98,P-GPS,
0.305856861059249,36.8800474789897,20100,2018-04-14 12:25:47,1842.9363138739554,66.9000021408,0.0,0.45174001445568,1842.9363138739554,66.9000021408,0.503999582744,0.634688020310016,1478,-27.1,98,P-GPS,
0.30585674582159494,36.8800475079154,20300,2018-04-14 12:25:47,1843.7363138995554,67.70000216640001,0.0,0.44661301429161604,1843.7363138995554,67.70000216640001,0.503999582744,0.634688020310016,1437,-27.1,98,P-GPS,
0.305856697355336,36.8800475138186,20400,2018-04-14 12:25:47,1844.0363139091555,68.00000217600001,0.0,0.445247014247904,1844.0363139091555,68.00000217600001,0.503999582744,0.634688020310016,1334,-27.1,98,P-GPS,
0.30585661990094104,36.880047518408205,20500,2018-04-14 12:25:47,1844.3363139187552,68.30000218560001,0.0,0.44372901419932803,1844.3363139187552,68.30000218560001,0.503999582744,0.634688020310016,1234,-27.1,98,P-GPS,
0.30585654122419603,36.8800475422797,20600,2018-04-14 12:25:47,1844.6363139283553,68.6000021952,0.0,0.440226014087232,1844.6363139283553,68.6000021952,0.503999582744,0.634688020310016,1194,-27.1,98,P-GPS,
0.30585642959792303,36.8800475510757,20700,2018-04-14 12:25:47,1844.9363139379554,68.9000022048,0.0,0.43832101402627194,1844.9363139379554,68.9000022048,0.503999582744,0.634688020310016,1180,-27.1,98,P-GPS,
0.30585633916808697,36.8800475718671,20800,2018-04-14 12:25:47,1845.1363139443552,69.1000022112,0.0,0.435513013936416,1845.1363139443552,69.1000022112,0.503999582744,0.634688020310016,1180,-27.0,98,P-GPS,
0.30585624607981604,36.8800476053161,20900,2018-04-14 12:25:47,1845.2363139475553,69.2000022144,0.0,0.431521013808672,1845.2363139475553,69.2000022144,0.503999582744,0.634688020310016,1190,-27.0,98,P-GPS,
0.305856164705909,36.880047655559395,21000,2018-04-14 12:25:47,1845.3363139507553,69.30000221760001,0.0,0.425897013628704,1845.3363139507553,69.30000221760001,0.503999582744,0.634688020310016,1184,-27.1,98,P-GPS,
0.30585605406973,36.8800477043237,21100,2018-04-14 12:25:48,1845.3363139507553,69.30000221760001,0.0,0.42073501346352005,1845.3363139507553,69.30000221760001,0.503999582744,0.634688020310016,1149,-27.1,98,P-GPS,
0.30585593979738696,36.8800477467234,21200,2018-04-14 12:25:48,1845.4363139539553,69.4000022208,0.0,0.4166760133336321,1845.4363139539553,69.4000022208,0.503999582744,0.634688020310016,1110,-27.1,98,P-GPS,
0.305855787212286,36.8800477531603,21300,2018-04-14 12:25:48,1845.5363139571555,69.500002224,0.0,0.417438013358016,1845.5363139571555,69.500002224,0.503999582744,0.634688020310016,1083,-27.1,98,P-GPS,
0.305855644636162,36.880047740639704,21400,2018-04-14 12:25:48,1845.6363139603554,69.60000222720001,0.0,0.420811013465952,1845.6363139603554,69.60000222720001,0.503999582744,0.634688020310016,1024,-27.1,98,P-GPS,
0.30585549995105704,36.8800477183875,21500,2018-04-14 12:25:48,1845.6363139603554,69.60000222720001,0.0,0.425861013627552,1845.6363139603554,69.60000222720001,0.503999582744,0.634688020310016,1024,-27.1,98,P-GPS,
0.305855394092604,36.8800477173367,21600,2018-04-14 12:25:48,1845.6363139603554,69.60000222720001,0.0,0.42825201370406396,1845.6363139603554,69.60000222720001,0.503999582744,0.634688020310016,1024,-27.1,98,P-GPS,
0.30585529365722,36.880047735786796,21700,2018-04-14 12:25:48,1845.6363139603554,69.60000222720001,0.0,0.42870201371846406,1845.6363139603554,69.60000222720001,0.503999582744,0.634688020310016,1024,-27.0,98,P-GPS,
0.305855215207694,36.8800477869358,21800,2018-04-14 12:25:48,1845.6363139603554,69.60000222720001,0.0,0.42531001360992005,1845.6363139603554,69.60000222720001,0.503999582744,0.634688020310016,1024,-27.1,98,P-GPS,
0.30585510014334305,36.8800478566596,21900,2018-04-14 12:25:48,1845.6363139603554,69.60000222720001,0.0,0.421316013482112,1845.6363139603554,69.60000222720001,0.503999582744,0.634688020310016,1024,-27.0,98,P-GPS,
0.305854976325239,36.880047935711396,22000,2018-04-14 12:25:48,1845.7363139635554,69.7000022304,0.0,0.4171520133488641,1845.7363139635554,69.7000022304,0.503999582744,0.634688020310016,1024,-27.1,98,P-GPS,
0.30585483654454304,36.8800480284888,22100,2018-04-14 12:25:49,1845.7363139635554,69.7000022304,0.0,0.41281101320995195,1845.7363139635554,69.7000022304,0.503999582744,0.634688020310016,1043,-27.1,98,P-GPS,
0.305854598581599,36.8800482196443,22300,2018-04-14 12:25:49,1845.7363139635554,69.7000022304,0.0,0.403961012926752,1845.7363139635554,69.7000022304,0.503999582744,0.634688020310016,1094,-27.0,98,P-GPS,
0.30585449672965304,36.8800483027461,22400,2018-04-14 12:25:49,1845.7363139635554,69.7000022304,0.0,0.40086601282771206,1845.7363139635554,69.7000022304,0.503999582744,0.634688020310016,1147,-27.0,98,P-GPS,
0.30585439636865003,36.8800483706355,22500,2018-04-14 12:25:49,1845.7363139635554,69.7000022304,0.0,0.39966601278931196,1845.7363139635554,69.7000022304,0.503999582744,0.634688020310016,1164,-27.1,98,P-GPS,
0.305854328062447,36.8800484245568,22600,2018-04-14 12:25:49,1845.7363139635554,69.7000022304,0.0,0.398375012748,1845.7363139635554,69.7000022304,0.503999582744,0.634688020310016,1175,-27.1,98,P-GPS,
0.305854232519093,36.8800484721076,22700,2018-04-14 12:25:49,1845.7363139635554,69.7000022304,0.0,0.39955301278569605,1845.7363139635554,69.7000022304,0.503999582744,0.634688020310016,1198,-27.1,98,P-GPS,
0.305854156536507,36.8800485326201,22800,2018-04-14 12:25:49,1845.8363139667551,69.8000022336,0.0,0.398657012757024,1845.8363139667551,69.8000022336,0.503999582744,0.634688020310016,1219,-27.1,98,P-GPS,
0.305854079332791,36.8800485713326,22900,2018-04-14 12:25:49,1845.8363139667551,69.8000022336,0.0,0.4000930128029761,1845.8363139667551,69.8000022336,0.503999582744,0.634688020310016,1226,-27.1,98,P-GPS,
0.305854035460067,36.880048615060296,23000,2018-04-14 12:25:49,1845.9363139699556,69.9000022368,0.0,0.399074012770368,1845.9363139699556,69.9000022368,0.503999582744,0.634688020310016,1228,-27.1,98,P-GPS,
0.305853973365666,36.8800486326201,23100,2018-04-14 12:25:50,1845.9363139699556,69.9000022368,0.0,0.401712012854784,1845.9363139699556,69.9000022368,0.503999582744,0.634688020310016,1228,-27.1,98,P-GPS,
0.30585394694711304,36.8800486604533,23200,2018-04-14 12:25:50,1846.0363139731553,70.00000224,0.0,0.40109301283497606,1846.0363139731553,70.00000224,0.503999582744,0.634688020310016,1232,-27.1,98,P-GPS,
0.30585389469126195,36.8800486223029,23300,2018-04-14 12:25:50,1846.1363139763553,70.1000022432,0.0,0.4080330130570561,1846.1363139763553,70.1000022432,0.503999582744,0.634688020310016,1236,-27.1,98,P-GPS,
0.305853867017484,36.8800485918451,23400,2018-04-14 12:25:50,1846.2363139795552,70.2000022464,0.0,0.41260101320323206,1846.2363139795552,70.2000022464,0.503999582744,0.634688020310016,1244,-27.0,98,P-GPS,
0.305853810033852,36.8800485787866,23500,2018-04-14 12:25:50,1846.2363139795552,70.2000022464,0.0,0.417719013367008,1846.2363139795552,70.2000022464,0.503999582744,0.634688020310016,1249,-27.1,98,P-GPS,
0.30585378739787,36.880048613655205,23600,2018-04-14 12:25:50,1846.3363139827554,70.30000224960001,0.0,0.416337013322784,1846.3363139827554,70.30000224960001,0.503999582744,0.634688020310016,1261,-27.1,98,P-GPS,
0.30585372973812897,36.8800485800022,23700,2018-04-14 12:25:50,1846.4363139859554,70.4000022528,0.0,0.4233290135465281,1846.4363139859554,70.4000022528,0.503999582744,0.634688020310016,1035,-27.1,98,P-GPS,
0.30585362759296103,36.8800484550644,23900,2018-04-14 12:25:50,1846.6363139923553,70.60000225920001,0.0,0.44127301412073605,1846.6363139923553,70.60000225920001,0.503999582744,0.634688020310016,1024,-27.1,98,P-GPS,
0.30585356521256396,36.8800484117269,24000,2018-04-14 12:25:50,1846.7363139955555,70.7000022624,0.0,0.449437014381984,1846.7363139955555,70.7000022624,0.503999582744,0.634688020310016,1024,-27.1,98,P-GPS,
0.305853485941539,36.8800483775397,24100,2018-04-14 12:25:51,1846.7363139955555,70.7000022624,0.0,0.45807201465830394,1846.7363139955555,70.7000022624,0.503999582744,0.634688020310016,1024,-27.1,98,P-GPS,
0.30585347062011997,36.8800483817311,24200,2018-04-14 12:25:51,1846.7363139955555,70.7000022624,0.0,0.458841014682912,1846.7363139955555,70.7000022624,0.503999582744,0.634688020310016,1024,-27.0,98,P-GPS,
0.305853431963709,36.8800483387121,24300,2018-04-14 12:25:51,1846.7363139955555,70.7000022624,0.0,0.46527301488873607,1846.7363139955555,70.7000022624,0.503999582744,0.634688020310016,1024,-27.1,98,P-GPS,
0.305853443557213,36.880048298114794,24400,2018-04-14 12:25:51,1846.7363139955555,70.7000022624,0.0,0.46783501497071994,1846.7363139955555,70.7000022624,0.503999582744,0.634688020310016,1024,-27.1,98,P-GPS,
0.305853422333498,36.8800482291131,24500,2018-04-14 12:25:51,1846.7363139955555,70.7000022624,0.0,0.475199015206368,1846.7363139955555,70.7000022624,0.503999582744,0.634688020310016,1024,-27.1,98,P-GPS,
0.305853415917226,36.88004817308,24600,2018-04-14 12:25:51,1846.7363139955555,70.7000022624,0.0,0.480422015373504,1846.7363139955555,70.7000022624,0.503999582744,0.634688020310016,1024,-27.1,98,P-GPS,
0.30585338184101696,36.8800481214438,24700,2018-04-14 12:25:51,1846.7363139955555,70.7000022624,0.0,0.48725801559225607,1846.7363139955555,70.7000022624,0.503999582744,0.634688020310016,1024,-27.0,98,P-GPS,
0.30585338405224105,36.8800480994775,24800,2018-04-14 12:25:51,1846.6363139923553,70.60000225920001,0.0,0.48897901564732804,1846.7363139955555,70.7000022624,0.503999582744,0.634688020310016,1024,-27.1,98,P-GPS,
0.305853361686784,36.8800480909989,24900,2018-04-14 12:25:51,1846.6363139923553,70.60000225920001,0.35999970196000003,0.491294015721408,1846.7363139955555,70.7000022624,0.503999582744,0.634688020310016,1024,-27.1,98,P-GPS,
0.30585337060740003,36.8800480962598,25000,2018-04-14 12:25:51,1846.6363139923553,70.60000225920001,0.35999970196000003,0.49021001568671996,1846.7363139955555,70.7000022624,0.503999582744,0.634688020310016,1024,-27.1,98,P-GPS,
0.30585334705032896,36.8800481148538,25100,2018-04-14 12:25:52,1846.6363139923553,70.60000225920001,0.35999970196000003,0.490307015689824,1846.7363139955555,70.7000022624,0.503999582744,0.634688020310016,1024,-27.1,98,P-GPS,
0.305853362276687,36.8800481554426,25200,2018-04-14 12:25:52,1846.7363139955555,70.7000022624,0.35999970196000003,0.485767015544544,1846.7363139955555,70.7000022624,0.503999582744,0.634688020310016,1024,-27.1,98,P-GPS,
0.30585338753365005,36.880048232076504,25300,2018-04-14 12:25:52,1846.7363139955555,70.7000022624,0.35999970196000003,0.47746501527888,1846.7363139955555,70.7000022624,0.503999582744,0.634688020310016,1024,-27.1,98,P-GPS,
0.30585346940082203,36.8800483460783,25400,2018-04-14 12:25:52,1846.7363139955555,70.7000022624,0.503999582744,0.46192001478144,1846.7363139955555,70.7000022624,0.503999582744,0.634688020310016,1024,-27.1,98,P-GPS,
0.30585356069526004,36.8800485146266,25500,2018-04-14 12:25:52,1846.6363139923553,70.60000225920001,0.7919993443119999,0.44113001411616,1846.7363139955555,70.7000022624,0.7919993443119999,0.634688020310016,1024,-27.1,98,P-GPS,
0.305853691315807,36.8800487201516,25600,2018-04-14 12:25:52,1846.6363139923553,70.60000225920001,0.7919993443119999,0.41441001326112004,1846.7363139955555,70.7000022624,0.7919993443119999,0.634688020310016,1024,-27.1,98,P-GPS,
0.305853814592478,36.880048956237005,25700,2018-04-14 12:25:52,1846.6363139923553,70.60000225920001,1.007999165488,0.38581001234592005,1846.7363139955555,70.7000022624,1.007999165488,0.634688020310016,1024,-27.1,98,P-GPS,
0.305853969618311,36.880049216416204,25800,2018-04-14 12:25:52,1846.6363139923553,70.60000225920001,1.007999165488,0.352992011295744,1846.7363139955555,70.7000022624,1.007999165488,0.634688020310016,1024,-27.1,98,P-GPS,
0.30585412214377,36.880049503239,25900,2018-04-14 12:25:52,1846.6363139923553,70.60000225920001,1.511998748232,0.318493010191776,1846.7363139955555,70.7000022624,1.511998748232,0.634688020310016,1024,-27.1,98,P-GPS,
0.305854318647801,36.880049827475794,26000,2018-04-14 12:25:52,1846.6363139923553,70.60000225920001,1.511998748232,0.27798000889536,1846.7363139955555,70.7000022624,1.511998748232,0.634688020310016,1024,-27.1,98,P-GPS,
0.305854518560065,36.8800501788253,26100,2018-04-14 12:25:53,1846.6363139923553,70.60000225920001,1.7999985098000002,0.23587400754796803,1846.7363139955555,70.7000022624,1.7999985098000002,0.634688020310016,1024,-27.1,98,P-GPS,
0.305854773994228,36.8800505752723,26200,2018-04-14 12:25:53,1846.6363139923553,70.60000225920001,1.7999985098000002,0.187136005988352,1846.7363139955555,70.7000022624,1.7999985098000002,0.634688020310016,1024,-27.1,98,P-GPS,
0.305855029660979,36.8800510051416,26300,2018-04-14 12:25:53,1846.6363139923553,70.60000225920001,2.051998301172,0.139596004467072,1846.7363139955555,70.7000022624,2.051998301172,0.634688020310016,1024,-27.1,98,P-GPS,
0.30585533204002696,36.880051480353295,26400,2018-04-14 12:25:53,1846.6363139923553,70.60000225920001,2.303998092544,0.0953541030513312,1846.7363139955555,70.7000022624,2.303998092544,0.634688020310016,1024,-27.0,98,P-GPS,
0.305855629957088,36.8800519772337,26500,2018-04-14 12:25:53,1846.6363139923553,70.60000225920001,2.303998092544,0.0828487026511584,1846.7363139955555,70.7000022624,2.303998092544,0.634688020310016,1024,-27.1,98,P-GPS,
0.30585598021699606,36.880052510557604,26600,2018-04-14 12:25:53,1846.6363139923553,70.60000225920001,2.5559978839159996,0.11636100372355201,1846.7363139955555,70.7000022624,2.5559978839159996,0.634688020310016,1024,-27.1,98,P-GPS,
0.305856346260571,36.880053064095996,26700,2018-04-14 12:25:53,1846.6363139923553,70.60000225920001,2.8079976752879996,0.17642900564572803,1846.7363139955555,70.7000022624,2.8079976752879996,0.634688020310016,1024,-27.1,98,P-GPS,
0.305856762387145,36.880053653561795,26800,2018-04-14 12:25:53,1846.6363139923553,70.60000225920001,2.8079976752879996,0.249392007980544,1846.7363139955555,70.7000022624,2.8079976752879996,0.634688020310016,1024,-27.1,98,P-GPS,
0.305857176530987,36.8800543059564,26900,2018-04-14 12:25:53,1846.6363139923553,70.60000225920001,3.0959974368559995,0.33231801063417604,1846.7363139955555,70.7000022624,3.0959974368559995,0.634688020310016,1024,-27.1,98,P-GPS,
0.305857636965385,36.8800550139595,27000,2018-04-14 12:25:53,1846.6363139923553,70.60000225920001,3.3119972580320005,0.4241330135722561,1846.7363139955555,70.7000022624,3.3119972580320005,0.634688020310016,1024,-27.1,98,P-GPS,
0.305858112915801,36.880055777361704,27100,2018-04-14 12:25:54,1846.6363139923553,70.60000225920001,3.5999970196000004,0.523031016736992,1846.7363139955555,70.7000022624,3.5999970196000004,0.634688020310016,1024,-27.1,98,P-GPS,
0.305858629071888,36.88005657902671,27200,2018-04-14 12:25:54,1846.6363139923553,70.60000225920001,3.5999970196000004,0.62806002009792,1846.7363139955555,70.7000022624,3.5999970196000004,0.634688020310016,1024,-27.1,98,P-GPS,
0.30585916768259,36.880057459914,27300,2018-04-14 12:25:54,1846.6363139923553,70.60000225920001,3.5999970196000004,0.7423730237559361,1846.7363139955555,70.7000022624,3.5999970196000004,0.7423730237559361,1024,-27.0,98,P-GPS,
0.305859749914014,36.880058376877706,27400,2018-04-14 12:25:54,1846.6363139923553,70.60000225920001,4.103996602344,0.8626090276034879,1846.7363139955555,70.7000022624,4.103996602344,0.8626090276034879,1024,-27.0,98,P-GPS,
0.30586038505399,36.880059401588,27500,2018-04-14 12:25:54,1846.6363139923553,70.60000225920001,4.391996363911999,0.9963230318823361,1846.7363139955555,70.7000022624,4.391996363911999,0.9963230318823361,1024,-27.1,98,P-GPS,
0.305861095152465,36.8800604814569,27600,2018-04-14 12:25:54,1846.6363139923553,70.60000225920001,4.895995946656,1.1394900364636802,1846.7363139955555,70.7000022624,4.895995946656,1.1394900364636802,1024,-27.1,98,P-GPS,
0.305861876953772,36.8800617007456,27700,2018-04-14 12:25:54,1846.6363139923553,70.60000225920001,5.3999955294,1.3002000416064001,1846.7363139955555,70.7000022624,5.3999955294,1.3002000416064001,1024,-27.1,98,P-GPS,
0.305862727163162,36.880062988819205,27800,2018-04-14 12:25:54,1846.7363139955555,70.7000022624,5.687995290968001,1.4714000470848,1846.7363139955555,70.7000022624,5.687995290968001,1.4714000470848,1024,-27.1,98,P-GPS,
0.30586367691078303,36.880064436830395,27900,2018-04-14 12:25:54,1846.6363139923553,70.60000225920001,6.191994873711999,1.6636300532361599,1846.7363139955555,70.7000022624,6.191994873711999,1.6636300532361599,1024,-27.1,98,P-GPS,
0.30586472406866805,36.880065968818705,28000,2018-04-14 12:25:54,1846.6363139923553,70.60000225920001,6.911994277631999,1.86947005982304,1846.7363139955555,70.7000022624,6.911994277631999,1.86947005982304,1024,-27.1,98,P-GPS,
0.30586589590511,36.8800677268209,28100,2018-04-14 12:25:55,1846.6363139923553,70.60000225920001,7.703993621944,2.1041000673312,1846.7363139955555,70.7000022624,7.703993621944,2.1041000673312,1024,-27.1,98,P-GPS,
0.305867165274763,36.880069584896496,28200,2018-04-14 12:25:55,1846.6363139923553,70.60000225920001,8.495992966256003,2.3539300753257604,1846.7363139955555,70.7000022624,8.495992966256003,2.3539300753257604,1024,-27.0,98,P-GPS,
0.305868562453658,36.8800716488112,28300,2018-04-14 12:25:55,1846.6363139923553,70.60000225920001,8.999992549,2.6307800841849605,1846.7363139955555,70.7000022624,8.999992549,2.6307800841849605,1024,-27.1,98,P-GPS,
0.305870054224793,36.8800737930984,28400,2018-04-14 12:25:55,1846.6363139923553,70.60000225920001,9.791991893312,2.92084009346688,1846.7363139955555,70.7000022624,9.791991893312,2.92084009346688,1024,-27.1,97,P-GPS,
0.30587165748816,36.880076176499706,28500,2018-04-14 12:25:55,1846.6363139923553,70.60000225920001,9.791991893312,3.24008010368256,1846.7363139955555,70.7000022624,9.791991893312,3.24008010368256,1024,-27.1,97,P-GPS,
0.305873358270896,36.8800786534599,28600,2018-04-14 12:25:55,1846.7363139955555,70.7000022624,11.303990641543999,3.5739501143664003,1846.7363139955555,70.7000022624,11.303990641543999,3.5739501143664003,1024,-27.1,97,P-GPS,
0.305875198191144,36.8800813994979,28700,2018-04-14 12:25:55,1846.7363139955555,70.7000022624,12.095989985856,3.94141012612512,1846.7363139955555,70.7000022624,12.095989985856,3.94141012612512,1024,-27.1,97,P-GPS,
0.305877152175752,36.880084248,28800,2018-04-14 12:25:55,1846.7363139955555,70.7000022624,13.103989151343999,4.3253301384105605,1846.7363139955555,70.7000022624,13.103989151343999,4.3253301384105605,1024,-27.1,97,P-GPS,
0.30587921801329304,36.880087320339,28900,2018-04-14 12:25:55,1846.7363139955555,70.7000022624,13.895988495656,4.73694015158208,1846.7363139955555,70.7000022624,13.895988495656,4.73694015158208,1024,-27.1,97,P-GPS,
0.305881389867423,36.8800904944011,29000,2018-04-14 12:25:55,1846.7363139955555,70.7000022624,14.903987661143999,5.16447016526304,1846.7363139955555,70.7000022624,14.903987661143999,5.16447016526304,1024,-27.1,97,P-GPS,
0.30588379766028995,36.8800940746152,29100,2018-04-14 12:25:56,1846.7363139955555,70.7000022624,15.695987005456,5.6442001806144,1846.7363139955555,70.7000022624,15.695987005456,5.6442001806144,1024,-27.1,97,P-GPS,
0.30588636213389697,36.8800977548973,29200,2018-04-14 12:25:56,1846.7363139955555,70.7000022624,16.703986170944,6.142770196568641,1846.7363139955555,70.7000022624,16.703986170944,6.142770196568641,1024,-27.1,97,P-GPS,
0.305889117343891,36.8801017858191,29300,2018-04-14 12:25:56,1846.8363139987553,70.80000226560001,17.495985515256002,6.685620213939839,1846.8363139987553,70.80000226560001,17.495985515256002,6.685620213939839,1024,-27.1,97,P-GPS,
0.30589197339039503,36.8801058882478,29400,2018-04-14 12:25:56,1846.8363139987553,70.80000226560001,18.791984442312,7.241290231721281,1846.8363139987553,70.80000226560001,18.791984442312,7.241290231721281,1024,-27.1,97,P-GPS,
0.30589506074434103,36.880110465496,29500,2018-04-14 12:25:56,1846.8363139987553,70.80000226560001,19.583983786624,7.85523025136736,1846.8363139987553,70.80000226560001,19.583983786624,7.85523025136736,1024,-27.1,97,P-GPS,
0.30589823862674603,36.8801150846257,29600,2018-04-14 12:25:56,1846.8363139987553,70.80000226560001,20.591982952112,8.47861027131552,1846.8363139987553,70.80000226560001,20.591982952112,8.47861027131552,1024,-27.1,97,P-GPS,
