latitude,longitude,time_millisecond,datetime_utc,altitude_m,ascent_m,speed_kph,distance_m,max_altitude_m,max_ascent_m,max_speed_kph,max_distance_m,rc_throttle,gimbal_pitch_degrees,battery_percent,flycState,message
0.30754933754041,36.8794063879839,0,2018-03-31 05:30:48,1770.4373125540058,0.0,0.0,0.0,1770.4373125540058,0.0,0.0,0.0,364,0.0,98,Motors_Started,
0.307549276181861,36.8794063571506,100,2018-03-31 05:30:48,1770.4373125540058,0.0,0.0,0.007636500244368001,1770.4373125540058,0.0,0.0,0.007636500244368001,364,0.0,98,Motors_Started,
0.307549215094856,36.8794063367259,200,2018-03-31 05:30:48,1770.4373125540058,0.0,0.0,0.014761600472371201,1770.4373125540058,0.0,0.0,0.014761600472371201,364,0.0,98,Motors_Started,
0.307549157401935,36.8794063203233,300,2018-03-31 05:30:48,1770.4373125540058,0.0,0.0,0.021398900684764802,1770.4373125540058,0.0,0.0,0.021398900684764802,364,0.0,98,Motors_Started,
0.307549129862504,36.87940631479321,400,2018-03-31 05:30:49,1770.4373125540058,0.0,0.0,0.024487300783593603,1770.4373125540058,0.0,0.0,0.024487300783593603,364,0.0,98,Motors_Started,
0.307549105427702,36.87940630870371,500,2018-03-31 05:30:49,1770.4373125540058,0.0,0.0,0.027276500872848,1770.4373125540058,0.0,0.0,0.027276500872848,364,0.0,98,Motors_Started,
0.30754908061347197,36.8794062830799,600,2018-03-31 05:30:49,1770.4373125540058,0.0,0.0,0.0308616009875712,1770.4373125540058,0.0,0.0,0.0308616009875712,364,0.0,98,Motors_Started,
0.307549045558365,36.879406252493894,700,2018-03-31 05:30:49,1770.4373125540058,0.0,0.0,0.035795701145462405,1770.4373125540058,0.0,0.0,0.035795701145462405,364,0.0,98,Motors_Started,
0.307549008307302,36.879406232206996,800,2018-03-31 05:30:49,1770.4373125540058,0.0,0.0,0.040504101296131204,1770.4373125540058,0.0,0.0,0.040504101296131204,364,0.0,98,Motors_Started,Setting new Return-To-Home altitude to 30m (98 ft). Setting new Maximum Flight Altitude to 120m (394 ft)
0.307548967086499,36.87940621643929,900,2018-03-31 05:30:49,1770.4373125540058,0.0,0.0,0.0453992014527744,1770.4373125540058,0.0,0.0,0.0453992014527744,364,0.0,98,Motors_Started,
0.307548922857553,36.87940621193,1000,2018-03-31 05:30:49,1770.4373125540058,0.0,0.0,0.0500991016031712,1770.4373125540058,0.0,0.0,0.0500991016031712,364,0.0,98,Motors_Started,
0.307548877663347,36.8794062053266,1100,2018-03-31 05:30:49,1770.4373125540058,0.0,0.0,0.0550273017608736,1770.4373125540058,0.0,0.0,0.0550273017608736,364,0.0,98,Motors_Started,
0.307548857493032,36.879406179129205,1200,2018-03-31 05:30:49,1770.4373125540058,0.0,0.0,0.058217701862966396,1770.4373125540058,0.0,0.0,0.058217701862966396,364,0.0,98,Motors_Started,
0.307548837047104,36.8794061490357,1300,2018-03-31 05:30:49,1770.4373125540058,0.0,0.0,0.0616756019736192,1770.4373125540058,0.0,0.0,0.0616756019736192,364,0.0,98,Motors_Started,
0.307548813290548,36.879406129401296,1400,2018-03-31 05:30:50,1770.4373125540058,0.0,0.0,0.0650057020801824,1770.4373125540058,0.0,0.0,0.0650057020801824,364,0.0,98,Motors_Started,
0.307548782034194,36.8794061136505,1500,2018-03-31 05:30:50,1770.4373125540058,0.0,0.0,0.0688979022047328,1770.4373125540058,0.0,0.0,0.0688979022047328,364,0.0,98,Assisted_Takeoff,
0.307548741564104,36.8794060797808,1600,2018-03-31 05:30:50,1770.4373125540058,0.0,0.0,0.0746138023876416,1770.4373125540058,0.0,0.0,0.0746138023876416,383,0.0,98,Assisted_Takeoff,
0.30754870047601895,36.879406043886206,1700,2018-03-31 05:30:50,1770.4373125540058,0.0,0.0,0.08051900257660802,1770.4373125540058,0.0,0.0,0.08051900257660802,414,0.0,98,Assisted_Takeoff,
0.307548681901173,36.879406020950704,1800,2018-03-31 05:30:50,1770.4373125540058,0.0,0.0,0.0835581026738592,1770.4373125540058,0.0,0.0,0.0835581026738592,495,0.0,98,Assisted_Takeoff,
0.30754866370453304,36.8794060031465,1900,2018-03-31 05:30:50,1770.4373125540058,0.0,0.0,0.0862941027614112,1770.4373125540058,0.0,0.0,0.0862941027614112,613,0.0,98,Assisted_Takeoff,
0.30754863778703195,36.87940599886171,2000,2018-03-31 05:30:50,1770.4373125540058,0.0,0.0,0.08903900284924801,1770.4373125540058,0.0,0.0,0.08903900284924801,770,0.0,98,Assisted_Takeoff,
0.307548605401352,36.8794059924245,2100,2018-03-31 05:30:50,1770.4373125540058,0.0,0.0,0.0925413029613216,1770.4373125540058,0.0,0.0,0.0925413029613216,1024,0.0,98,Assisted_Takeoff,
0.307548563703008,36.879405998372505,2200,2018-03-31 05:30:50,1770.4373125540058,0.0,0.0,0.09634690308310082,1770.4373125540058,0.0,0.0,0.09634690308310082,1024,0.0,98,Assisted_Takeoff,
0.307548521688339,36.879405999475395,2300,2018-03-31 05:30:51,1770.4373125540058,0.0,0.0,0.10048900321564799,1770.4373125540058,0.0,0.0,0.10048900321564799,1024,0.0,98,Assisted_Takeoff,
0.30754848037105104,36.8794059545184,2500,2018-03-31 05:30:51,1770.4373125540058,0.0,0.0,0.106817003418144,1770.4373125540058,0.0,0.0,0.106817003418144,1024,0.0,98,Assisted_Takeoff,
0.30754845023872995,36.8794059388744,2600,2018-03-31 05:30:51,1770.4373125540058,0.0,0.0,0.110593003538976,1770.4373125540058,0.0,0.0,0.110593003538976,1024,0.0,98,Assisted_Takeoff,
0.307548414983325,36.87940592611321,2700,2018-03-31 05:30:51,1770.4373125540058,0.0,0.0,0.11473300367145599,1770.4373125540058,0.0,0.0,0.11473300367145599,1024,0.0,98,Assisted_Takeoff,
0.307548370285794,36.879405923426,2800,2018-03-31 05:30:51,1770.4373125540058,0.0,0.0,0.11932700381846402,1770.4373125540058,0.0,0.0,0.11932700381846402,1024,0.0,98,Assisted_Takeoff,
0.307548325608618,36.879405919839,2900,2018-03-31 05:30:51,1770.4373125540058,0.0,0.0,0.12399200396774401,1770.4373125540058,0.0,0.0,0.12399200396774401,1024,0.0,98,Assisted_Takeoff,
0.307548271842283,36.879405894906796,3000,2018-03-31 05:30:51,1770.4373125540058,0.0,0.0,0.130582004178624,1770.4373125540058,0.0,0.0,0.130582004178624,1024,0.0,98,Assisted_Takeoff,
0.307548220592708,36.8794058660022,3100,2018-03-31 05:30:51,1770.4373125540058,0.0,0.0,0.13710500438736,1770.4373125540058,0.0,0.0,0.13710500438736,1024,0.0,98,Assisted_Takeoff,
0.30754819163408803,36.879405876426794,3200,2018-03-31 05:30:51,1770.4373125540058,0.0,0.0,0.13955300446569602,1770.4373125540058,0.0,0.0,0.13955300446569602,1024,0.0,98,Assisted_Takeoff,
0.307548165578984,36.879405890114796,3300,2018-03-31 05:30:51,1770.4373125540058,0.0,0.0,0.14160200453126404,1770.4373125540058,0.0,0.0,0.14160200453126404,1024,0.0,98,Assisted_Takeoff,
0.30754813289082106,36.8794059124096,3400,2018-03-31 05:30:51,1770.4373125540058,0.0,0.0,0.14402600460883197,1770.4373125540058,0.0,0.0,0.14402600460883197,1024,0.0,98,Assisted_Takeoff,
0.307548095518845,36.8794059257026,3500,2018-03-31 05:30:52,1770.4373125540058,0.0,0.0,0.14737700471606402,1770.4373125540058,0.0,0.0,0.14737700471606402,1024,0.0,98,Assisted_Takeoff,
0.307548051309033,36.8794059125868,3600,2018-03-31 05:30:52,1770.4373125540058,0.0,0.0,0.15249400487980805,1770.4373125540058,0.0,0.0,0.15249400487980805,1024,0.0,98,Assisted_Takeoff,
0.307548006455986,36.879405893188206,3700,2018-03-31 05:30:52,1770.4373125540058,0.0,0.0,0.15792100505347198,1770.4373125540058,0.0,0.0,0.15792100505347198,1024,0.0,98,Assisted_Takeoff,
0.307547983096771,36.8794058756851,3800,2018-03-31 05:30:52,1770.4373125540058,0.0,0.0,0.161036005153152,1770.4373125540058,0.0,0.0,0.161036005153152,1024,0.0,98,Assisted_Takeoff,
0.30754796472833,36.8794058649275,3900,2018-03-31 05:30:52,1770.4373125540058,0.0,0.0,0.163371005227872,1770.4373125540058,0.0,0.0,0.163371005227872,1024,0.0,98,Assisted_Takeoff,
0.307547967816674,36.879405889197294,4000,2018-03-31 05:30:52,1770.4373125540058,0.0,0.0,0.16210600518739202,1770.4373125540058,0.0,0.0,0.163371005227872,1024,0.0,98,Assisted_Takeoff,
0.30754796351269703,36.879405912797395,4100,2018-03-31 05:30:52,1770.4373125540058,0.0,0.0,0.16168000517376002,1770.4373125540058,0.0,0.0,0.163371005227872,1024,0.0,98,Assisted_Takeoff,
0.307547979023219,36.879405940071294,4200,2018-03-31 05:30:52,1770.4373125540058,0.0,0.0,0.15907500509039998,1770.4373125540058,0.0,0.0,0.163371005227872,1024,0.0,98,Assisted_Takeoff,
0.307547984122691,36.879405957074106,4300,2018-03-31 05:30:52,1770.4373125540058,0.0,0.0,0.15795200505446402,1770.4373125540058,0.0,0.0,0.163371005227872,1024,0.0,98,Assisted_Takeoff,
0.307548003144138,36.879405972719496,4400,2018-03-31 05:30:53,1770.4373125540058,0.0,0.0,0.15541200497318403,1770.4373125540058,0.0,0.0,0.163371005227872,1024,0.0,98,Assisted_Takeoff,
0.307548012752772,36.879405982774,4500,2018-03-31 05:30:53,1770.4373125540058,0.0,0.0,0.15406200492998404,1770.4373125540058,0.0,0.0,0.163371005227872,1024,0.0,98,Assisted_Takeoff,
0.30754800258436,36.8794059906749,4600,2018-03-31 05:30:53,1770.4373125540058,0.0,0.0,0.15489000495648,1770.4373125540058,0.0,0.0,0.163371005227872,1024,0.0,98,Assisted_Takeoff,
0.307547982558163,36.8794059947662,4700,2018-03-31 05:30:53,1770.4373125540058,0.0,0.0,0.156899005020768,1770.4373125540058,0.0,0.0,0.163371005227872,1024,0.0,98,Assisted_Takeoff,
0.307547972340899,36.8794059960862,4800,2018-03-31 05:30:53,1770.4373125540058,0.0,0.0,0.1579500050544,1770.4373125540058,0.0,0.0,0.163371005227872,1024,0.0,98,Assisted_Takeoff,
0.307547962532373,36.879405997054796,4900,2018-03-31 05:30:53,1770.4373125540058,0.0,0.0,0.158969005087008,1770.4373125540058,0.0,0.0,0.163371005227872,1024,0.0,98,Assisted_Takeoff,
0.307547932395574,36.8794059964443,5000,2018-03-31 05:30:53,1770.4373125540058,0.0,0.0,0.162213005190816,1770.4373125540058,0.0,0.0,0.163371005227872,1024,0.0,98,Assisted_Takeoff,
0.30754789996470505,36.879405995963396,5100,2018-03-31 05:30:53,1770.4373125540058,0.0,0.0,0.16570500530256002,1770.4373125540058,0.0,0.0,0.16570500530256002,1024,0.0,98,Assisted_Takeoff,
0.307547877517419,36.8794059656779,5200,2018-03-31 05:30:53,1770.4373125540058,0.0,0.0,0.169019005408608,1770.4373125540058,0.0,0.0,0.169019005408608,1024,0.0,98,Assisted_Takeoff,
0.307547859955058,36.8794059339874,5300,2018-03-31 05:30:53,1770.4373125540058,0.0,0.0,0.17189800550073597,1770.4373125540058,0.0,0.0,0.17189800550073597,1024,0.0,98,Assisted_Takeoff,
0.307547852934021,36.879405902975,5400,2018-03-31 05:30:54,1770.4373125540058,0.0,0.0,0.17368400555788802,1770.4373125540058,0.0,0.0,0.17368400555788802,1024,0.0,98,Assisted_Takeoff,
0.30754784548999703,36.87940588181179,5500,2018-03-31 05:30:54,1770.4373125540058,0.0,0.0,0.175213005606816,1770.4373125540058,0.0,0.0,0.175213005606816,1024,0.0,98,Assisted_Takeoff,
0.30754784898545195,36.8794058651612,5600,2018-03-31 05:30:54,1770.4373125540058,0.0,0.0,0.1754500056144,1770.4373125540058,0.0,0.0,0.1754500056144,1024,0.0,98,Assisted_Takeoff,
0.30754784751618797,36.8794058533652,5700,2018-03-31 05:30:54,1770.4373125540058,0.0,0.0,0.17604200563334402,1770.4373125540058,0.0,0.0,0.17604200563334402,1024,0.0,98,Assisted_Takeoff,
0.30754785504244897,36.8794058781271,5800,2018-03-31 05:30:54,1770.4373125540058,0.0,0.0,0.17434000557888,1770.4373125540058,0.0,0.0,0.17604200563334402,1024,0.0,98,Assisted_Takeoff,
0.307547857660987,36.8794059033516,5900,2018-03-31 05:30:54,1770.4373125540058,0.0,0.0,0.173171005541472,1770.4373125540058,0.0,0.0,0.17604200563334402,1024,0.0,98,Assisted_Takeoff,
0.30754783815833503,36.8794059028559,6000,2018-03-31 05:30:54,1770.4373125540058,0.0,0.0,0.175251005608032,1770.4373125540058,0.0,0.0,0.17604200563334402,1024,0.0,98,Assisted_Takeoff,
0.30754781311164503,36.8794058915965,6100,2018-03-31 05:30:54,1770.4373125540058,0.0,0.0,0.17828700570518402,1770.4373125540058,0.0,0.0,0.17828700570518402,1024,0.0,98,Assisted_Takeoff,
0.307547766947293,36.87940588219001,6200,2018-03-31 05:30:54,1770.4373125540058,0.0,0.0,0.18349300587177603,1770.4373125540058,0.0,0.0,0.18349300587177603,1024,0.0,98,Assisted_Takeoff,
0.30754772316657597,36.87940587477829,6300,2018-03-31 05:30:54,1770.4373125540058,0.0,0.0,0.188381006028192,1770.4373125540058,0.0,0.0,0.188381006028192,1024,0.0,98,Assisted_Takeoff,
0.307547687294804,36.879405869405296,6400,2018-03-31 05:30:55,1770.4373125540058,0.0,0.0,0.19236500615568,1770.4373125540058,0.0,0.0,0.19236500615568,1024,0.0,98,Assisted_Takeoff,
0.307547661715206,36.8794058646018,6500,2018-03-31 05:30:55,1770.4373125540058,0.0,0.0,0.195239006247648,1770.4373125540058,0.0,0.0,0.195239006247648,1024,0.0,98,Assisted_Takeoff,
0.307547648842356,36.879405862902004,6600,2018-03-31 05:30:55,1770.4373125540058,0.0,0.0,0.19666200629318403,1770.4373125540058,0.0,0.0,0.19666200629318403,1024,0.0,98,Assisted_Takeoff,
0.307547636912376,36.879405861083896,6700,2018-03-31 05:30:55,1770.4373125540058,0.0,0.0,0.19798900633564803,1770.4373125540058,0.0,0.0,0.19798900633564803,1024,0.0,98,Assisted_Takeoff,
0.30754760805634807,36.8794058623753,6800,2018-03-31 05:30:55,1770.4373125540058,0.0,0.0,0.20101500643248,1770.4373125540058,0.0,0.0,0.20101500643248,1024,0.0,98,Assisted_Takeoff,
0.30754757550741696,36.879405862586395,6900,2018-03-31 05:30:55,1770.4373125540058,0.0,0.0,0.20447400654316805,1770.4373125540058,0.0,0.0,0.20447400654316805,1024,0.0,98,Assisted_Takeoff,
0.307547556256359,36.879405866066705,7000,2018-03-31 05:30:55,1770.4373125540058,0.0,0.0,0.206417006605344,1770.4373125540058,0.0,0.0,0.206417006605344,1024,0.0,98,Assisted_Takeoff,
0.307547540036242,36.879405868453496,7100,2018-03-31 05:30:55,1770.4373125540058,0.0,0.0,0.2080750066584,1770.4373125540058,0.0,0.0,0.2080750066584,1024,0.0,98,Assisted_Takeoff,
0.307547537634695,36.8794058727466,7200,2018-03-31 05:30:55,1770.4373125540058,0.0,0.0,0.2082000066624,1770.4373125540058,0.0,0.0,0.2082000066624,1024,0.0,98,Assisted_Takeoff,
0.30754753300869203,36.8794058752799,7300,2018-03-31 05:30:55,1770.4373125540058,0.0,0.0,0.20861700667574404,1770.4373125540058,0.0,0.0,0.20861700667574404,1024,0.0,98,Assisted_Takeoff,
0.30754754114847,36.879405908078,7400,2018-03-31 05:30:56,1770.4373125540058,0.0,0.0,0.2067750066168,1770.4373125540058,0.0,0.0,0.20861700667574404,1024,0.0,98,Assisted_Takeoff,
0.307547544120787,36.8794059397712,7500,2018-03-31 05:30:56,1770.4373125540058,0.0,0.0,0.205573006578336,1770.4373125540058,0.0,0.0,0.20861700667574404,1024,0.0,98,Assisted_Takeoff,
0.30754752795929496,36.8794059410578,7600,2018-03-31 05:30:56,1770.4373125540058,0.0,0.0,0.20728300663305602,1770.4373125540058,0.0,0.0,0.20861700667574404,1024,0.0,98,Assisted_Takeoff,
0.30754750486714394,36.8794059312619,7700,2018-03-31 05:30:56,1770.4373125540058,0.0,0.0,0.21003800672121603,1770.4373125540058,0.0,0.0,0.21003800672121603,1024,0.0,98,Assisted_Takeoff,
0.307547489499518,36.8794058885809,7800,2018-03-31 05:30:56,1770.4373125540058,0.0,0.0,0.21288500681232003,1770.4373125540058,0.0,0.0,0.21288500681232003,1024,0.0,98,Assisted_Takeoff,
0.307547477622055,36.8794058513217,7900,2018-03-31 05:30:56,1770.4373125540058,0.0,0.0,0.21527200688870404,1770.4373125540058,0.0,0.0,0.21527200688870404,1024,0.0,98,Assisted_Takeoff,
0.30754744587960997,36.8794058157165,8000,2018-03-31 05:30:56,1770.4373125540058,0.0,0.0,0.21977900703292802,1770.4373125540058,0.0,0.0,0.21977900703292802,1024,0.0,98,Assisted_Takeoff,
0.30754741211015996,36.8794057916295,8100,2018-03-31 05:30:56,1770.4373125540058,0.0,0.0,0.22415400717292802,1770.4373125540058,0.0,0.0,0.22415400717292802,1024,0.0,98,Assisted_Takeoff,
0.307547387718919,36.8794057721817,8200,2018-03-31 05:30:56,1770.4373125540058,0.0,0.0,0.22738900727644804,1770.4373125540058,0.0,0.0,0.22738900727644804,1024,0.0,98,Assisted_Takeoff,
0.307547370429729,36.8794057584685,8300,2018-03-31 05:30:56,1770.4373125540058,0.0,0.0,0.229683007349856,1770.4373125540058,0.0,0.0,0.229683007349856,1024,0.0,98,Assisted_Takeoff,
0.307547363764915,36.879405750712294,8400,2018-03-31 05:30:57,1770.4373125540058,0.0,0.0,0.230653007380896,1770.4373125540058,0.0,0.0,0.230653007380896,1024,0.0,98,Assisted_Takeoff,
0.30754735746812895,36.8794057442438,8500,2018-03-31 05:30:57,1770.4373125540058,0.0,0.0,0.23154000740928002,1770.4373125540058,0.0,0.0,0.23154000740928002,1024,0.0,98,Assisted_Takeoff,
0.30754733283302804,36.8794057436609,8600,2018-03-31 05:30:57,1770.4373125540058,0.0,0.0,0.234167007493344,1770.4373125540058,0.0,0.0,0.234167007493344,1024,0.0,98,Assisted_Takeoff,
0.30754730331096697,36.879405741758205,8700,2018-03-31 05:30:57,1770.4373125540058,0.0,0.0,0.23735900759548803,1770.4373125540058,0.0,0.0,0.23735900759548803,1024,0.0,98,Assisted_Takeoff,
0.30754728321149,36.879405745708105,8800,2018-03-31 05:30:57,1770.4373125540058,0.0,0.0,0.239359007659488,1770.4373125540058,0.0,0.0,0.239359007659488,1024,0.0,98,Assisted_Takeoff,
0.307547268218406,36.8794057469944,8900,2018-03-31 05:30:57,1770.4373125540058,0.0,0.0,0.24090800770905602,1770.4373125540058,0.0,0.0,0.24090800770905602,1024,0.0,98,Assisted_Takeoff,
0.30754726389610804,36.8794057530989,9000,2018-03-31 05:30:57,1770.4373125540058,0.0,0.0,0.24116800771737604,1770.4373125540058,0.0,0.0,0.24116800771737604,1024,0.0,98,Assisted_Takeoff,
0.307547258625242,36.8794057564309,9100,2018-03-31 05:30:57,1770.4373125540058,0.0,0.0,0.24162000773184,1770.4373125540058,0.0,0.0,0.24162000773184,1024,0.0,98,Assisted_Takeoff,
0.307547262570555,36.8794057622999,9200,2018-03-31 05:30:57,1770.4373125540058,0.0,0.0,0.241011007712352,1770.4373125540058,0.0,0.0,0.24162000773184,1024,0.0,98,Assisted_Takeoff,
0.307547263841963,36.879405766043504,9300,2018-03-31 05:30:57,1770.4373125540058,0.0,0.0,0.240756007704192,1770.4373125540058,0.0,0.0,0.24162000773184,1024,0.0,98,Assisted_Takeoff,
0.30754727302109397,36.8794057421497,9400,2018-03-31 05:30:58,1770.4373125540058,0.0,0.0,0.24055800769785599,1770.4373125540058,0.0,0.0,0.24162000773184,1024,0.0,98,Assisted_Takeoff,
0.30754727747529603,36.8794057159901,9500,2018-03-31 05:30:58,1770.4373125540058,0.0,0.0,0.240972007711104,1770.4373125540058,0.0,0.0,0.24162000773184,1024,0.0,98,Assisted_Takeoff,
0.307547257689294,36.8794056922931,9600,2018-03-31 05:30:58,1770.4373125540058,0.0,0.0,0.24388800780441597,1770.4373125540058,0.0,0.0,0.24388800780441597,1024,0.0,98,Assisted_Takeoff,
0.30754723318324795,36.8794056761274,9700,2018-03-31 05:30:58,1770.4373125540058,0.0,0.0,0.24704400790540804,1770.4373125540058,0.0,0.0,0.24704400790540804,1024,0.0,98,Assisted_Takeoff,
0.30754724383205,36.879405694534704,9800,2018-03-31 05:30:58,1770.4373125540058,0.0,0.0,0.245271007848672,1770.4373125540058,0.0,0.0,0.24704400790540804,1024,0.0,98,Assisted_Takeoff,
0.307547260055016,36.8794057158686,9900,2018-03-31 05:30:58,1770.4373125540058,0.0,0.0,0.242818007770176,1770.4373125540058,0.0,0.0,0.24704400790540804,1024,0.0,98,Assisted_Takeoff,
0.307547251771122,36.87940571079611,10000,2018-03-31 05:30:58,1770.4373125540058,0.0,0.0,0.24386900780380805,1770.4373125540058,0.0,0.0,0.24704400790540804,1024,0.0,98,Assisted_Takeoff,
0.30754723578957205,36.8794056960297,10100,2018-03-31 05:30:58,1770.4373125540058,0.0,0.0,0.24606800787417601,1770.4373125540058,0.0,0.0,0.24704400790540804,1024,0.0,98,Assisted_Takeoff,
0.307547223925136,36.879405683245295,10200,2018-03-31 05:30:58,1770.4373125540058,0.0,0.0,0.24776800792857598,1770.4373125540058,0.0,0.0,0.24776800792857598,1024,0.0,98,Assisted_Takeoff,
0.307547216012527,36.8794056732551,10300,2018-03-31 05:30:58,1770.4373125540058,0.0,0.0,0.24895500796656,1770.4373125540058,0.0,0.0,0.24895500796656,1024,0.0,98,Assisted_Takeoff,
0.307547182792269,36.87940566590171,10400,2018-03-31 05:30:59,1770.4373125540058,0.0,0.0,0.252718008086976,1770.4373125540058,0.0,0.0,0.252718008086976,1024,0.0,98,Assisted_Takeoff,
0.30754715025025897,36.8794056591808,10500,2018-03-31 05:30:59,1770.4373125540058,0.0,0.0,0.25638700820438404,1770.4373125540058,0.0,0.0,0.25638700820438404,1024,0.0,98,Assisted_Takeoff,
0.307547122874487,36.879405656262605,10600,2018-03-31 05:30:59,1770.4373125540058,0.0,0.0,0.25937800830009605,1770.4373125540058,0.0,0.0,0.25937800830009605,1024,0.0,98,Assisted_Takeoff,
0.307547103653962,36.8794056519503,10700,2018-03-31 05:30:59,1770.4373125540058,0.0,0.0,0.26155900836988805,1770.4373125540058,0.0,0.0,0.26155900836988805,1024,0.0,98,Assisted_Takeoff,
0.307547062812994,36.87940565168179,10800,2018-03-31 05:30:59,1770.4373125540058,0.0,0.0,0.26588500850832003,1770.4373125540058,0.0,0.0,0.26588500850832003,1024,0.0,98,Assisted_Takeoff,
0.30754702429011604,36.8794056491943,10900,2018-03-31 05:30:59,1770.4373125540058,0.0,0.0,0.27004800864153605,1770.4373125540058,0.0,0.0,0.27004800864153605,1024,0.0,98,Assisted_Takeoff,
0.307546966301632,36.8794056510076,11000,2018-03-31 05:30:59,1770.4373125540058,0.0,0.0,0.27613800883641604,1770.4373125540058,0.0,0.0,0.27613800883641604,1024,0.0,98,Assisted_Takeoff,
0.30754691636214004,36.879405650825895,11100,2018-03-31 05:30:59,1770.4373125540058,0.0,0.0,0.281452009006464,1770.4373125540058,0.0,0.0,0.281452009006464,1024,0.0,98,Assisted_Takeoff,
0.30754687970342304,36.8794056240392,11200,2018-03-31 05:30:59,1770.4373125540058,0.0,0.0,0.2862250091592,1770.4373125540058,0.0,0.0,0.2862250091592,1024,0.0,98,Assisted_Takeoff,
0.30754685308813395,36.8794055937583,11300,2018-03-31 05:30:59,1770.4373125540058,0.0,0.0,0.29006000928192005,1770.4373125540058,0.0,0.0,0.29006000928192005,1024,0.0,98,Assisted_Takeoff,
0.307546841925151,36.8794055979331,11400,2018-03-31 05:31:00,1770.4373125540058,0.0,0.0,0.291102009315264,1770.4373125540058,0.0,0.0,0.291102009315264,1024,0.0,98,Assisted_Takeoff,
0.307546831582903,36.87940560818,11500,2018-03-31 05:31:00,1770.4373125540058,0.0,0.0,0.29185800933945605,1770.4373125540058,0.0,0.0,0.29185800933945605,1024,0.0,98,Assisted_Takeoff,
0.30754680602528806,36.8794055942082,11600,2018-03-31 05:31:00,1770.4373125540058,0.0,0.0,0.29503400944108804,1770.4373125540058,0.0,0.0,0.29503400944108804,1024,0.0,98,Assisted_Takeoff,
0.307546776054591,36.879405570778104,11700,2018-03-31 05:31:00,1770.4373125540058,0.0,0.0,0.29899800956793604,1770.4373125540058,0.0,0.0,0.29899800956793604,1024,0.0,98,Assisted_Takeoff,
0.307546759820633,36.8794055521658,11800,2018-03-31 05:31:00,1770.4373125540058,0.0,0.0,0.3013500096432,1770.4373125540058,0.0,0.0,0.3013500096432,1024,0.0,98,Assisted_Takeoff,
0.30754674596094606,36.879405536213206,11900,2018-03-31 05:31:00,1770.4373125540058,0.0,0.0,0.30336600970771205,1770.4373125540058,0.0,0.0,0.30336600970771205,1024,0.0,98,Assisted_Takeoff,
0.30754671611400997,36.879405527922,12000,2018-03-31 05:31:00,1770.4373125540058,0.0,0.0,0.30680700981782394,1770.4373125540058,0.0,0.0,0.30680700981782394,1024,0.0,98,Assisted_Takeoff,
0.307546683459637,36.8794055185535,12100,2018-03-31 05:31:00,1770.4373125540058,0.0,0.0,0.31058200993862395,1770.4373125540058,0.0,0.0,0.31058200993862395,1024,0.0,98,Assisted_Takeoff,
0.307546664457324,36.879405517420295,12200,2018-03-31 05:31:00,1770.4373125540058,0.0,0.0,0.31263001000416,1770.4373125540058,0.0,0.0,0.31263001000416,1024,0.0,98,Assisted_Takeoff,
0.307546649570089,36.8794055134305,12300,2018-03-31 05:31:00,1770.4373125540058,0.0,0.0,0.31434201005894397,1770.4373125540058,0.0,0.0,0.31434201005894397,1024,0.0,98,Assisted_Takeoff,
0.30754661941130607,36.8794055170279,12400,2018-03-31 05:31:01,1770.4373125540058,0.0,0.0,0.31741001015712006,1770.4373125540058,0.0,0.0,0.31741001015712006,1024,0.0,98,Assisted_Takeoff,
0.30754658582871996,36.8794055155848,12500,2018-03-31 05:31:01,1770.4373125540058,0.0,0.0,0.321017010272544,1770.4373125540058,0.0,0.0,0.321017010272544,1024,0.0,98,Assisted_Takeoff,
0.30754656501150607,36.879405521479995,12600,2018-03-31 05:31:01,1770.4373125540058,0.0,0.0,0.32302901033692805,1770.4373125540058,0.0,0.0,0.32302901033692805,1024,0.0,98,Assisted_Takeoff,
0.30754654856584995,36.8794055210213,12700,2018-03-31 05:31:01,1770.4373125540058,0.0,0.0,0.32479001039328004,1770.4373125540058,0.0,0.0,0.32479001039328004,1024,0.0,98,Assisted_Takeoff,
0.30754651698462104,36.879405526502104,12800,2018-03-31 05:31:01,1770.4373125540058,0.0,0.0,0.327967010494944,1770.4373125540058,0.0,0.0,0.327967010494944,1024,0.0,98,Assisted_Takeoff,
0.30754648257559997,36.8794055272644,12900,2018-03-31 05:31:01,1770.4373125540058,0.0,0.0,0.331604010611328,1770.4373125540058,0.0,0.0,0.331604010611328,1028,0.0,98,Assisted_Takeoff,
0.30754646095230603,36.8794055335718,13000,2018-03-31 05:31:01,1770.4373125540058,0.0,0.0,0.333706010678592,1770.4373125540058,0.0,0.0,0.333706010678592,1044,0.0,98,Assisted_Takeoff,
0.307546443612634,36.8794055339251,13100,2018-03-31 05:31:01,1770.4373125540058,0.0,0.0,0.335544010737408,1770.4373125540058,0.0,0.0,0.335544010737408,1069,0.0,98,Assisted_Takeoff,
0.30754644070749,36.8794055382974,13200,2018-03-31 05:31:01,1770.4373125540058,0.0,0.0,0.33571701074294397,1770.4373125540058,0.0,0.0,0.33571701074294397,1097,0.0,98,Assisted_Takeoff,
0.30754643687331895,36.8794055382655,13300,2018-03-31 05:31:01,1770.4373125540058,0.0,0.0,0.336127010756064,1770.4373125540058,0.0,0.0,0.336127010756064,1109,0.0,98,Assisted_Takeoff,
0.3075464181372561,36.8794055424186,13400,2018-03-31 05:31:02,1770.4373125540058,0.0,0.0,0.33799801081593606,1770.4373125540058,0.0,0.0,0.33799801081593606,1128,0.0,98,Assisted_Takeoff,
0.307546392986753,36.879405542452396,13500,2018-03-31 05:31:02,1770.4373125540058,0.0,0.0,0.34068501090192005,1770.4373125540058,0.0,0.0,0.34068501090192005,1141,0.0,98,Assisted_Takeoff,
0.307546379039944,36.87940551795,13600,2018-03-31 05:31:02,1770.4373125540058,0.0,0.0,0.342934010973888,1770.4373125540058,0.0,0.0,0.342934010973888,1149,0.0,98,Assisted_Takeoff,
0.307546368797846,36.879405488664204,13700,2018-03-31 05:31:02,1770.4373125540058,0.0,0.0,0.344957011038624,1770.4373125540058,0.0,0.0,0.344957011038624,1157,0.0,98,Assisted_Takeoff,
0.30754634133006703,36.8794054643447,13800,2018-03-31 05:31:02,1770.4373125540058,0.0,0.0,0.34866901115740806,1770.4373125540058,0.0,0.0,0.34866901115740806,1161,0.0,98,Assisted_Takeoff,
0.307546312363305,36.8794054455663,13900,2018-03-31 05:31:02,1770.4373125540058,0.0,0.0,0.35236401127564804,1770.4373125540058,0.0,0.0,0.35236401127564804,1162,0.0,98,Assisted_Takeoff,
0.3075462911454939,36.879405432868204,14000,2018-03-31 05:31:02,1770.4373125540058,0.0,0.0,0.355037011361184,1770.4373125540058,0.0,0.0,0.355037011361184,1182,0.0,98,Assisted_Takeoff,
0.307546282501713,36.879405423921796,14100,2018-03-31 05:31:02,1770.4373125540058,0.0,0.0,0.356253011400096,1770.4373125540058,0.0,0.0,0.356253011400096,1206,0.0,98,Assisted_Takeoff,
0.3075462611349,36.8794054218979,14200,2018-03-31 05:31:02,1770.4373125540058,0.0,0.0,0.358587011474784,1770.4373125540058,0.0,0.0,0.358587011474784,1224,0.0,98,Assisted_Takeoff,
0.307546276866483,36.879405428394,14300,2018-03-31 05:31:03,1770.4373125540058,0.0,0.0,0.35670101141443206,1770.4373125540058,0.0,0.0,0.358587011474784,1234,0.0,98,Assisted_Takeoff,
0.30754632000803495,36.879405460297605,14400,2018-03-31 05:31:03,1770.4373125540058,0.0,0.0,0.3510680112341761,1770.4373125540058,0.0,0.0,0.358587011474784,1250,0.0,98,P-GPS,
0.30754634120793395,36.8794054943325,14500,2018-03-31 05:31:03,1770.4373125540058,0.0,0.0,0.347714011126848,1770.4373125540058,0.0,0.0,0.358587011474784,1259,0.0,98,P-GPS,Obstacle Avoided. Revise Flight Route
0.307546369453295,36.879405542091,14600,2018-03-31 05:31:03,1770.4373125540058,0.0,0.0,0.34321201098278403,1770.4373125540058,0.0,0.0,0.358587011474784,1272,0.0,98,P-GPS,
0.307546428037382,36.879405568590606,14700,2018-03-31 05:31:03,1770.4373125540058,0.0,0.35999970196000003,0.33614001075648003,1770.4373125540058,0.0,0.35999970196000003,0.358587011474784,1278,0.0,98,P-GPS,
0.30754656532823804,36.8794055578376,14800,2018-03-31 05:31:03,1770.5373125572055,0.10000000320000002,0.35999970196000003,0.321812010297984,1770.5373125572055,0.10000000320000002,0.35999970196000003,0.358587011474784,1286,0.0,98,P-GPS,
0.307546720194891,36.879405489189104,14900,2018-03-31 05:31:03,1770.6373125604055,0.20000000640000004,0.35999970196000003,0.30774800984793604,1770.6373125604055,0.20000000640000004,0.35999970196000003,0.358587011474784,1284,0.0,98,P-GPS,Home Point Recorded. RTH Altitude:  30m.
0.307546905537873,36.879405376718104,15000,2018-03-31 05:31:03,1770.7373125636054,0.3000000096,0.503999582744,0.292902009372864,1770.7373125636054,0.3000000096,0.503999582744,0.358587011474784,1284,0.0,98,P-GPS,
0.307547094603885,36.8794052330662,15100,2018-03-31 05:31:03,1770.8373125668056,0.4000000128000001,0.503999582744,0.28055200897766397,1770.8373125668056,0.4000000128000001,0.503999582744,0.358587011474784,1292,0.0,98,P-GPS,
0.307547337489564,36.8794050942683,15200,2018-03-31 05:31:03,1770.9373125700056,0.500000016,0.7919993443119999,0.26489100847651204,1770.9373125700056,0.500000016,0.7919993443119999,0.358587011474784,1294,0.0,98,P-GPS,
0.30754758166212104,36.879404955895204,15300,2018-03-31 05:31:03,1771.0373125732056,0.6000000192,0.7919993443119999,0.251973008063136,1771.0373125732056,0.6000000192,0.7919993443119999,0.358587011474784,1303,0.0,98,P-GPS,
0.30754776011882,36.879404811593396,15400,2018-03-31 05:31:04,1771.1373125764055,0.7000000224000001,0.503999582744,0.247997007935904,1771.1373125764055,0.7000000224000001,0.7919993443119999,0.358587011474784,1309,-0.1,98,P-GPS,
0.307547889226338,36.8794046838344,15500,2018-03-31 05:31:04,1771.3373125828057,0.9000000288000001,0.35999970196000003,0.248706007958592,1771.3373125828057,0.9000000288000001,0.7919993443119999,0.358587011474784,1310,-1.1,98,P-GPS,
0.307547993870964,36.87940457664279,15600,2018-03-31 05:31:04,1771.4373125860054,1.000000032,0.35999970196000003,0.250801008025632,1771.4373125860054,1.000000032,0.7919993443119999,0.358587011474784,1307,-3.2,98,P-GPS,
0.307548089170763,36.879404484432,15700,2018-03-31 05:31:04,1771.6373125924056,1.2000000384,0.35999970196000003,0.253146008100672,1771.6373125924056,1.2000000384,0.7919993443119999,0.358587011474784,1307,-6.9,98,P-GPS,
0.30754812090180894,36.879404389766606,15800,2018-03-31 05:31:04,1771.7373125956055,1.3000000416000002,0.35999970196000003,0.26016000832512,1771.7373125956055,1.3000000416000002,0.7919993443119999,0.358587011474784,1306,-12.2,98,P-GPS,
0.30754813388865,36.879404292583104,15900,2018-03-31 05:31:04,1771.9373126020055,1.5000000480000002,0.0,0.26872700859926396,1771.9373126020055,1.5000000480000002,0.7919993443119999,0.358587011474784,1304,-17.8,98,P-GPS,
0.307548132006576,36.879404230866704,16000,2018-03-31 05:31:04,1772.0373126052057,1.6000000512000003,0.0,0.274801008793632,1772.0373126052057,1.6000000512000003,0.7919993443119999,0.358587011474784,1302,-23.4,98,P-GPS,
0.307548142872368,36.87940418982829,16100,2018-03-31 05:31:04,1772.2373126116054,1.8000000576000001,0.0,0.27821500890288003,1772.2373126116054,1.8000000576000001,0.7919993443119999,0.358587011474784,1301,-23.4,98,P-GPS,
0.307548116809529,36.879404154635296,16200,2018-03-31 05:31:04,1772.3373126148056,1.9000000607999998,0.0,0.28303800905721604,1772.3373126148056,1.9000000607999998,0.7919993443119999,0.358587011474784,1301,-29.2,98,P-GPS,
0.307548088800292,36.879404118197705,16300,2018-03-31 05:31:04,1772.5373126212055,2.1000000672,0.0,0.28808900921884806,1772.5373126212055,2.1000000672,0.7919993443119999,0.358587011474784,1302,-34.8,98,P-GPS,
0.30754806946537,36.8794040544916,16400,2018-03-31 05:31:05,1772.6373126244055,2.2000000704,0.0,0.295336009450752,1772.6373126244055,2.2000000704,0.7919993443119999,0.358587011474784,1302,-40.4,98,P-GPS,
0.30754806680693497,36.879403999177896,16500,2018-03-31 05:31:05,1772.8373126308056,2.4000000768,0.0,0.300894009628608,1772.8373126308056,2.4000000768,0.7919993443119999,0.358587011474784,1302,-46.1,98,P-GPS,
0.307548093295205,36.879403987076,16600,2018-03-31 05:31:05,1772.9373126340056,2.50000008,0.0,0.300716009622912,1772.9373126340056,2.50000008,0.7919993443119999,0.358587011474784,1301,-51.7,98,P-GPS,
0.30754811953147304,36.8794039877911,16700,2018-03-31 05:31:05,1773.0373126372056,2.6000000832000003,0.0,0.29931400957804805,1773.0373126372056,2.6000000832000003,0.7919993443119999,0.358587011474784,1302,-57.3,98,P-GPS,
0.307548138833827,36.8794039463421,16800,2018-03-31 05:31:05,1773.2373126436055,2.8000000896000006,0.0,0.302479009679328,1773.2373126436055,2.8000000896000006,0.7919993443119999,0.358587011474784,1302,-63.0,98,P-GPS,
0.30754814615001896,36.879403895038294,16900,2018-03-31 05:31:05,1773.3373126468055,2.9000000928,0.0,0.30725900983228804,1773.3373126468055,2.9000000928,0.7919993443119999,0.358587011474784,1301,-68.6,98,P-GPS,
0.307548145906974,36.879403847917295,17000,2018-03-31 05:31:05,1773.5373126532056,3.1000000992,0.0,0.312007009984224,1773.5373126532056,3.1000000992,0.7919993443119999,0.358587011474784,1302,-74.3,98,P-GPS,
0.30754813983817,36.8794038044824,17100,2018-03-31 05:31:05,1773.6373126564056,3.2000001024000007,0.0,0.31667001013344004,1773.6373126564056,3.2000001024000007,0.7919993443119999,0.358587011474784,1302,-79.9,98,P-GPS,
0.307548133188826,36.879403772940606,17200,2018-03-31 05:31:05,1773.8373126628055,3.4000001088000005,0.0,0.32016401024524804,1773.8373126628055,3.4000001088000005,0.7919993443119999,0.358587011474784,1304,-85.5,98,P-GPS,
0.30754812656513003,36.879403744483795,17300,2018-03-31 05:31:05,1773.9373126660057,3.500000112,0.0,0.32334701034710395,1773.9373126660057,3.500000112,0.7919993443119999,0.358587011474784,1306,-89.9,98,P-GPS,
0.307548123116493,36.8794037366856,17400,2018-03-31 05:31:06,1774.0373126692054,3.6000001152000003,0.0,0.32429501037744,1774.0373126692054,3.6000001152000003,0.7919993443119999,0.358587011474784,1310,-89.9,98,P-GPS,
0.307548114769496,36.8794037240799,17500,2018-03-31 05:31:06,1774.2373126756054,3.8000001215999997,0.0,0.32595601043059197,1774.2373126756054,3.8000001215999997,0.7919993443119999,0.358587011474784,1317,-89.9,98,P-GPS,
0.307548077908445,36.879403669994105,17600,2018-03-31 05:31:06,1774.3373126788056,3.9000001248,0.0,0.33313501066032003,1774.3373126788056,3.9000001248,0.7919993443119999,0.358587011474784,1326,-89.9,98,P-GPS,
0.30754803138054304,36.8794035979669,17700,2018-03-31 05:31:06,1774.5373126852055,4.100000131200001,0.0,0.34258001096256,1774.5373126852055,4.100000131200001,0.7919993443119999,0.358587011474784,1328,-89.9,98,P-GPS,
0.307547987314034,36.8794035499868,17800,2018-03-31 05:31:06,1774.6373126884057,4.2000001344,0.0,0.349497011183904,1774.6373126884057,4.2000001344,0.7919993443119999,0.358587011474784,1328,-89.9,98,P-GPS,
0.307547957708515,36.8794035291697,17900,2018-03-31 05:31:06,1774.8373126948056,4.4000001408,0.0,0.353007011296224,1774.8373126948056,4.4000001408,0.7919993443119999,0.358587011474784,1328,-89.9,98,P-GPS,
0.30754795606297197,36.879403519945996,18000,2018-03-31 05:31:06,1774.9373126980054,4.5000001439999995,0.0,0.354011011328352,1774.9373126980054,4.5000001439999995,0.7919993443119999,0.358587011474784,1326,-89.9,98,P-GPS,
0.307547964278065,36.879403509144794,18100,2018-03-31 05:31:06,1775.1373127044055,4.700000150400001,0.0,0.3546990113503681,1775.1373127044055,4.700000150400001,0.7919993443119999,0.358587011474784,1322,-90.0,98,P-GPS,
0.30754796258285494,36.8794035098209,18200,2018-03-31 05:31:06,1775.3373127108055,4.9000001568,0.0,0.354712011350784,1775.3373127108055,4.9000001568,0.7919993443119999,0.358587011474784,1322,-89.9,98,P-GPS,
0.307547956285662,36.8794035087535,18300,2018-03-31 05:31:06,1775.4373127140057,5.00000016,0.0,0.35512201136390403,1775.4373127140057,5.00000016,0.7919993443119999,0.358587011474784,1323,-89.9,98,P-GPS,
0.307547983803516,36.8794035199326,18400,2018-03-31 05:31:07,1775.6373127204056,5.200000166400001,0.0,0.352684011285888,1775.6373127204056,5.200000166400001,0.7919993443119999,0.358587011474784,1326,-89.9,98,P-GPS,
0.307548016645567,36.8794035239264,18500,2018-03-31 05:31:07,1775.7373127236053,5.3000001696,0.0,0.35073801122361603,1775.7373127236053,5.3000001696,0.7919993443119999,0.358587011474784,1329,-89.9,98,P-GPS,
0.307548021748297,36.879403529676,18600,2018-03-31 05:31:07,1775.9373127300055,5.500000176000001,0.0,0.34991901119740804,1775.9373127300055,5.500000176000001,0.7919993443119999,0.358587011474784,1329,-89.9,98,P-GPS,
0.307548016190417,36.8794035220839,18700,2018-03-31 05:31:07,1776.1373127364054,5.7000001824,0.0,0.35094501123024,1776.1373127364054,5.7000001824,0.7919993443119999,0.358587011474784,1332,-89.9,98,P-GPS,
0.307548005222847,36.8794035135219,18800,2018-03-31 05:31:07,1776.2373127396056,5.8000001856,0.0,0.352321011274272,1776.2373127396056,5.8000001856,0.7919993443119999,0.358587011474784,1334,-89.9,98,P-GPS,
0.307548001804743,36.87940350000729,18900,2018-03-31 05:31:07,1776.4373127460055,6.000000192000001,0.0,0.353844011323008,1776.4373127460055,6.000000192000001,0.7919993443119999,0.358587011474784,1336,-89.9,98,P-GPS,
0.30754799252586895,36.8794034702234,19000,2018-03-31 05:31:07,1776.6373127524057,6.2000001984,0.0,0.357284011433088,1776.6373127524057,6.2000001984,0.7919993443119999,0.358587011474784,1340,-90.0,98,P-GPS,
0.307547984745164,36.8794034325322,19100,2018-03-31 05:31:07,1776.7373127556054,6.300000201600001,0.0,0.36145401156652807,1776.7373127556054,6.300000201600001,0.7919993443119999,0.36145401156652807,1344,-90.0,98,P-GPS,
0.30754797571177805,36.879403403054496,19200,2018-03-31 05:31:07,1776.9373127620056,6.500000208,0.0,0.36485301167529605,1776.9373127620056,6.500000208,0.7919993443119999,0.36485301167529605,1348,-89.9,98,P-GPS,
0.30754796861705397,36.879403375349796,19300,2018-03-31 05:31:07,1777.1373127684055,6.7000002144,0.0,0.367984011775488,1777.1373127684055,6.7000002144,0.7919993443119999,0.367984011775488,1348,-89.9,98,P-GPS,
0.307547927573345,36.8794033577712,19400,2018-03-31 05:31:08,1777.2373127716055,6.800000217600001,0.0,0.371667011893344,1777.2373127716055,6.800000217600001,0.7919993443119999,0.371667011893344,1348,-89.9,98,P-GPS,
0.307547879673479,36.8794033246846,19500,2018-03-31 05:31:08,1777.4373127780057,7.000000224,0.0,0.37726401207244803,1777.4373127780057,7.000000224,0.7919993443119999,0.37726401207244803,1355,-90.0,98,P-GPS,
0.30754780429524897,36.8794032838619,19600,2018-03-31 05:31:08,1777.6373127844054,7.200000230400001,0.0,0.385007012320224,1777.6373127844054,7.200000230400001,0.7919993443119999,0.385007012320224,1360,-89.9,98,P-GPS,
0.307547742361045,36.8794032386117,19700,2018-03-31 05:31:08,1777.8373127908055,7.4000002368,0.0,0.392588012562816,1777.8373127908055,7.4000002368,0.7919993443119999,0.392588012562816,1361,-89.9,98,P-GPS,
0.307547669265487,36.87940318692839,19800,2018-03-31 05:31:08,1778.0373127972055,7.600000243199999,0.0,0.401416012845312,1778.0373127972055,7.600000243199999,0.7919993443119999,0.401416012845312,1363,-89.9,98,P-GPS,
0.30754760900898803,36.8794031248759,19900,2018-03-31 05:31:08,1778.1373128004057,7.7000002464,0.0,0.410641013140512,1778.1373128004057,7.7000002464,0.7919993443119999,0.410641013140512,1369,-89.9,98,P-GPS,
0.30754754145787394,36.8794030488558,20000,2018-03-31 05:31:08,1778.3373128068056,7.9000002528,0.0,0.421636013492352,1778.3373128068056,7.9000002528,0.7919993443119999,0.421636013492352,1369,-89.9,98,P-GPS,
0.30754748178110103,36.879402962234295,20100,2018-03-31 05:31:08,1778.5373128132055,8.1000002592,0.0,0.43326501386447996,1778.5373128132055,8.1000002592,0.7919993443119999,0.43326501386447996,1386,-90.0,98,P-GPS,
0.307547440221989,36.87940290528471,20200,2018-03-31 05:31:08,1778.7373128196054,8.3000002656,0.0,0.44103601411315196,1778.7373128196054,8.3000002656,0.7919993443119999,0.44103601411315196,1386,-89.9,98,P-GPS,
0.307547406110972,36.8794028536796,20300,2018-03-31 05:31:08,1778.9373128260056,8.500000272000001,0.0,0.447891014332512,1778.9373128260056,8.500000272000001,0.7919993443119999,0.447891014332512,1393,-89.9,98,P-GPS,
0.307547370499752,36.879402807531704,20400,2018-03-31 05:31:09,1779.1373128324055,8.700000278400001,0.0,0.45429501453744,1779.1373128324055,8.700000278400001,0.7919993443119999,0.45429501453744,1393,-89.9,98,P-GPS,
0.30754733671808804,36.8794027579489,20500,2018-03-31 05:31:09,1779.3373128388057,8.9000002848,0.0,0.46093601474995194,1779.3373128388057,8.9000002848,0.7919993443119999,0.46093601474995194,1391,-89.9,98,P-GPS,
0.307547269323305,36.8794027206083,20600,2018-03-31 05:31:09,1779.5373128452054,9.1000002912,0.0,0.46821301498281603,1779.5373128452054,9.1000002912,0.7919993443119999,0.46821301498281603,1391,-89.9,98,P-GPS,
0.307547206459667,36.879402688000795,20700,2018-03-31 05:31:09,1779.7373128516056,9.3000002976,0.0,0.47482501519440007,1779.7373128516056,9.3000002976,0.7919993443119999,0.47482501519440007,1414,-89.9,98,P-GPS,
0.307547141839346,36.8794026377247,20800,2018-03-31 05:31:09,1780.0373128612057,9.6000003072,0.0,0.48326901546460804,1780.0373128612057,9.6000003072,0.7919993443119999,0.48326901546460804,1414,-89.9,98,P-GPS,
0.307547085478899,36.879402595109795,20900,2018-03-31 05:31:09,1780.2373128676054,9.8000003136,0.0,0.49053401569708804,1780.2373128676054,9.8000003136,0.7919993443119999,0.49053401569708804,1411,-90.0,98,P-GPS,
0.307547017598432,36.8794026025162,21000,2018-03-31 05:31:09,1780.4373128740056,10.00000032,0.0,0.49372901579932804,1780.4373128740056,10.00000032,0.7919993443119999,0.49372901579932804,1410,-89.9,98,P-GPS,
0.307546953354688,36.8794026193015,21100,2018-03-31 05:31:10,1780.6373128804055,10.2000003264,0.0,0.49592101586947196,1780.6373128804055,10.2000003264,0.7919993443119999,0.49592101586947196,1409,-90.0,98,P-GPS,
0.30754688986002804,36.879402600938704,21200,2018-03-31 05:31:10,1780.8373128868056,10.400000332800001,0.0,0.50144501604624,1780.8373128868056,10.400000332800001,0.7919993443119999,0.50144501604624,1407,-89.9,98,P-GPS,
0.307546858922035,36.879402568063504,21300,2018-03-31 05:31:10,1781.1373128964053,10.700000342400001,0.0,0.5063840162042881,1781.1373128964053,10.700000342400001,0.7919993443119999,0.5063840162042881,1410,-89.9,98,P-GPS,
0.30754680650567895,36.879402536943005,21400,2018-03-31 05:31:10,1781.3373129028055,10.9000003488,0.0,0.512469016399008,1781.3373129028055,10.9000003488,0.7919993443119999,0.512469016399008,1410,-90.0,98,P-GPS,
0.307546770724694,36.879402513291,21500,2018-03-31 05:31:10,1781.5373129092056,11.1000003552,0.0,0.51685501653936,1781.5373129092056,11.1000003552,0.7919993443119999,0.51685501653936,1406,-89.9,98,P-GPS,
0.30754676673174897,36.8794025021322,21600,2018-03-31 05:31:10,1781.8373129188055,11.4000003648,0.35999970196000003,0.51813501658032,1781.8373129188055,11.4000003648,0.7919993443119999,0.51813501658032,1407,-89.9,98,P-GPS,
0.307546790170758,36.879402481814,21700,2018-03-31 05:31:10,1782.0373129252057,11.6000003712,0.0,0.518593016594976,1782.0373129252057,11.6000003712,0.7919993443119999,0.518593016594976,1407,-89.9,98,P-GPS,
0.30754682084901397,36.879402453299896,21800,2018-03-31 05:31:10,1782.3373129348056,11.900000380800002,0.0,0.5194050166209601,1782.3373129348056,11.900000380800002,0.7919993443119999,0.5194050166209601,1407,-89.9,98,P-GPS,
0.30754684402258603,36.879402389808995,21900,2018-03-31 05:31:10,1782.5373129412055,12.1000003872,0.0,0.523999016767968,1782.5373129412055,12.1000003872,0.7919993443119999,0.523999016767968,1411,-89.9,98,P-GPS,
0.30754685108921903,36.8794022944557,22000,2018-03-31 05:31:10,1782.7373129476057,12.300000393600001,0.0,0.532617017043744,1782.7373129476057,12.300000393600001,0.7919993443119999,0.532617017043744,1411,-89.9,98,P-GPS,
0.30754685718855607,36.8794021728606,22100,2018-03-31 05:31:10,1783.0373129572054,12.600000403200003,0.0,0.543875017404,1783.0373129572054,12.600000403200003,0.7919993443119999,0.543875017404,1411,-89.9,98,P-GPS,
0.307546852611,36.879402063344,22200,2018-03-31 05:31:10,1783.2373129636055,12.800000409600003,0.0,0.5546590177490879,1783.2373129636055,12.800000409600003,0.7919993443119999,0.5546590177490879,1414,-89.9,98,P-GPS,
0.30754685740106796,36.879401960401296,22300,2018-03-31 05:31:10,1783.4373129700057,13.000000416,0.0,0.564353018059296,1783.4373129700057,13.000000416,0.7919993443119999,0.564353018059296,1414,-89.9,98,P-GPS,
0.307546859297391,36.8794018742326,22400,2018-03-31 05:31:11,1783.7373129796053,13.3000004256,0.0,0.572631018324192,1783.7373129796053,13.3000004256,0.7919993443119999,0.572631018324192,1411,-89.9,98,P-GPS,
0.30754687329712393,36.879401780028,22500,2018-03-31 05:31:11,1783.9373129860055,13.500000432000002,0.0,0.5811000185952,1783.9373129860055,13.500000432000002,0.7919993443119999,0.5811000185952,1411,-89.9,98,P-GPS,
0.307546880077151,36.8794016948122,22600,2018-03-31 05:31:11,1784.2373129956056,13.8000004416,0.0,0.5891230188519361,1784.2373129956056,13.8000004416,0.7919993443119999,0.5891230188519361,1409,-89.9,98,P-GPS,
0.307546893418178,36.879401606278,22700,2018-03-31 05:31:11,1784.4373130020056,14.000000448,0.0,0.5971860191099521,1784.4373130020056,14.000000448,0.7919993443119999,0.5971860191099521,1406,-89.9,98,P-GPS,
0.307546911734916,36.8794015196255,22800,2018-03-31 05:31:11,1784.6373130084057,14.200000454400003,0.0,0.6048710193558721,1784.6373130084057,14.200000454400003,0.7919993443119999,0.6048710193558721,1406,-89.9,98,P-GPS,
0.30754692009941903,36.8794014183593,22900,2018-03-31 05:31:11,1784.9373130180054,14.500000464,0.0,0.614563019666016,1784.9373130180054,14.500000464,0.7919993443119999,0.614563019666016,1405,-89.9,98,P-GPS,
0.307546898502995,36.8794013220778,23000,2018-03-31 05:31:11,1785.1373130244056,14.7000004704,0.0,0.6252470200079041,1785.1373130244056,14.7000004704,0.7919993443119999,0.6252470200079041,1407,-90.0,98,P-GPS,
0.30754687058088,36.8794012325662,23100,2018-03-31 05:31:11,1785.3373130308055,14.9000004768,0.0,0.6355650203380802,1785.3373130308055,14.9000004768,0.7919993443119999,0.6355650203380802,1411,-89.9,98,P-GPS,
0.307546806979557,36.8794011246271,23200,2018-03-31 05:31:11,1785.6373130404054,15.200000486399999,0.0,0.6494460207822721,1785.6373130404054,15.200000486399999,0.7919993443119999,0.6494460207822721,1414,-90.0,98,P-GPS,
0.307546741536463,36.879401023392504,23300,2018-03-31 05:31:11,1785.8373130468055,15.4000004928,0.0,0.6627480212079361,1785.8373130468055,15.4000004928,0.7919993443119999,0.6627480212079361,1415,-89.9,98,P-GPS,
0.307546688128386,36.8794009317188,23400,2018-03-31 05:31:12,1786.1373130564057,15.700000502400002,0.0,0.6745120215843841,1786.1373130564057,15.700000502400002,0.7919993443119999,0.6745120215843841,1416,-90.0,98,P-GPS,
0.307546649436556,36.8794008618456,23500,2018-03-31 05:31:12,1786.3373130628056,15.900000508800002,0.0,0.683381021868192,1786.3373130628056,15.900000508800002,0.7919993443119999,0.683381021868192,1417,-90.0,98,P-GPS,
0.30754662568081503,36.8794008038212,23600,2018-03-31 05:31:12,1786.6373130724055,16.2000005184,0.0,0.6903400220908801,1786.6373130724055,16.2000005184,0.7919993443119999,0.6903400220908801,1415,-89.9,98,P-GPS,
0.307546635384713,36.8794007581091,23700,2018-03-31 05:31:12,1786.8373130788054,16.400000524800003,0.0,0.694448022222336,1786.8373130788054,16.400000524800003,0.7919993443119999,0.694448022222336,1416,-90.0,98,P-GPS,
0.307546688581907,36.8794006935294,23800,2018-03-31 05:31:12,1787.1373130884056,16.7000005344,0.0,0.6984140223492481,1787.1373130884056,16.7000005344,0.7919993443119999,0.6984140223492481,1417,-89.9,98,P-GPS,
0.307546763139402,36.8794006256737,23900,2018-03-31 05:31:12,1787.4373130980055,17.000000544000002,0.0,0.7018400224588801,1787.4373130980055,17.000000544000002,0.7919993443119999,0.7018400224588801,1417,-89.9,98,P-GPS,
0.30754682027905894,36.8794005356868,24000,2018-03-31 05:31:12,1787.7373131076056,17.3000005536,0.0,0.708454022670528,1787.7373131076056,17.3000005536,0.7919993443119999,0.708454022670528,1419,-89.9,98,P-GPS,
0.30754685412301,36.879400444083295,24100,2018-03-31 05:31:12,1787.9373131140055,17.50000056,0.0,0.7163630229236161,1787.9373131140055,17.50000056,0.7919993443119999,0.7163630229236161,1419,-89.9,98,P-GPS,
0.307546835881995,36.87940035307229,24200,2018-03-31 05:31:12,1788.1373131204057,17.700000566400004,0.0,0.726487023247584,1788.1373131204057,17.700000566400004,0.7919993443119999,0.726487023247584,1418,-89.9,98,P-GPS,
0.307546800692949,36.8794002721051,24300,2018-03-31 05:31:12,1788.4373131300056,18.000000575999998,0.0,0.7363030235616961,1788.4373131300056,18.000000575999998,0.7919993443119999,0.7363030235616961,1418,-89.9,98,P-GPS,
0.30754676351394394,36.8794001771795,24400,2018-03-31 05:31:13,1788.6373131364055,18.2000005824,0.0,0.747637023924384,1788.6373131364055,18.2000005824,0.7919993443119999,0.747637023924384,1418,-90.0,98,P-GPS,
0.30754673764204,36.879400100264505,24500,2018-03-31 05:31:13,1788.9373131460056,18.500000592000003,0.0,0.756641024212512,1788.9373131460056,18.500000592000003,0.7919993443119999,0.756641024212512,1418,-89.9,98,P-GPS,
0.30754669534076395,36.8794000277057,24600,2018-03-31 05:31:13,1789.2373131556055,18.800000601600004,0.0,0.7658960245086721,1789.2373131556055,18.800000601600004,0.7919993443119999,0.7658960245086721,1419,-90.0,98,P-GPS,
0.307546660518932,36.8793999694682,24700,2018-03-31 05:31:13,1789.4373131620055,19.000000608,0.0,0.7733630247476161,1789.4373131620055,19.000000608,0.7919993443119999,0.7733630247476161,1419,-89.9,98,P-GPS,
0.30754661286089,36.879399927249395,24800,2018-03-31 05:31:13,1789.7373131716056,19.300000617600002,0.0,0.7797420249517439,1789.7373131716056,19.300000617600002,0.7919993443119999,0.7797420249517439,1419,-89.9,98,P-GPS,
0.30754657087471804,36.879399907638394,24900,2018-03-31 05:31:13,1789.9373131780053,19.500000624000002,0.0,0.783574025074368,1789.9373131780053,19.500000624000002,0.7919993443119999,0.783574025074368,1419,-89.9,98,P-GPS,
0.30754650673763695,36.879399890771204,25000,2018-03-31 05:31:13,1790.2373131876054,19.800000633599996,0.0,0.788121025219872,1790.2373131876054,19.800000633599996,0.7919993443119999,0.788121025219872,1419,-89.9,98,P-GPS,
0.307546451170243,36.879399892103,25100,2018-03-31 05:31:13,1790.4373131940056,20.00000064,0.0,0.790474025295168,1790.4373131940056,20.00000064,0.7919993443119999,0.790474025295168,1419,-90.0,98,P-GPS,
0.30754641450664,36.879399897698995,25200,2018-03-31 05:31:13,1790.6373132004055,20.200000646400003,0.0,0.7915710253302721,1790.6373132004055,20.200000646400003,0.7919993443119999,0.7915710253302721,1419,-90.0,98,P-GPS,
0.3075464057106,36.8793999302771,25300,2018-03-31 05:31:13,1790.9373132100054,20.500000655999997,0.0,0.788673025237536,1790.9373132100054,20.500000655999997,0.7919993443119999,0.7915710253302721,1420,-89.9,98,P-GPS,
0.307546398775057,36.879399991901394,25400,2018-03-31 05:31:14,1791.1373132164056,20.7000006624,0.0,0.7827600250483201,1791.1373132164056,20.7000006624,0.7919993443119999,0.7915710253302721,1420,-89.9,98,P-GPS,
0.30754639677532797,36.8794000814799,25500,2018-03-31 05:31:14,1791.3373132228055,20.900000668800004,0.0,0.7738130247620161,1791.3373132228055,20.900000668800004,0.7919993443119999,0.7915710253302721,1419,-89.9,98,P-GPS,
0.307546368672456,36.8794001655101,25600,2018-03-31 05:31:14,1791.6373132324056,21.2000006784,0.0,0.7666950245342401,1791.6373132324056,21.2000006784,0.7919993443119999,0.7915710253302721,1420,-89.9,98,P-GPS,
0.307546341843841,36.8794002308921,25700,2018-03-31 05:31:14,1791.8373132388053,21.400000684800002,0.0,0.76144002436608,1791.8373132388053,21.400000684800002,0.7919993443119999,0.7915710253302721,1420,-89.9,98,P-GPS,
0.307546267484203,36.879400307554995,25800,2018-03-31 05:31:14,1792.1373132484055,21.700000694400003,0.0,0.757474024239168,1792.1373132484055,21.700000694400003,0.7919993443119999,0.7915710253302721,1420,-90.0,98,P-GPS,
0.30754619014614,36.8794003977406,25900,2018-03-31 05:31:14,1792.3373132548056,21.900000700799996,0.0,0.752497024079904,1792.3373132548056,21.900000700799996,0.7919993443119999,0.7915710253302721,1420,-90.0,98,P-GPS,
0.30754610047912895,36.8794004927497,26000,2018-03-31 05:31:14,1792.5373132612056,22.1000007072,0.35999970196000003,0.7479080239330561,1792.5373132612056,22.1000007072,0.7919993443119999,0.7915710253302721,1420,-90.0,98,P-GPS,
0.30754604620879,36.8794006084479,26100,2018-03-31 05:31:14,1792.8373132708055,22.400000716800005,0.35999970196000003,0.7396250236680001,1792.8373132708055,22.400000716800005,0.7919993443119999,0.7915710253302721,1419,-89.9,98,P-GPS,
0.30754596831868497,36.8794007844205,26200,2018-03-31 05:31:14,1793.0373132772056,22.6000007232,0.35999970196000003,0.7271100232675201,1793.0373132772056,22.6000007232,0.7919993443119999,0.7915710253302721,1420,-89.9,98,P-GPS,
0.30754589618594397,36.8794009682217,26300,2018-03-31 05:31:14,1793.2373132836055,22.8000007296,0.35999970196000003,0.713939022846048,1793.2373132836055,22.8000007296,0.7919993443119999,0.7915710253302721,1420,-90.0,98,P-GPS,
0.307545768250498,36.87940115538029,26400,2018-03-31 05:31:15,1793.4373132900057,23.000000735999997,0.35999970196000003,0.7043760225400321,1793.4373132900057,23.000000735999997,0.7919993443119999,0.7915710253302721,1420,-90.0,98,P-GPS,
0.307545644856783,36.879401322353,26500,2018-03-31 05:31:15,1793.7373132996054,23.300000745600002,0.35999970196000003,0.6971100223075201,1793.7373132996054,23.300000745600002,0.7919993443119999,0.7915710253302721,1420,-89.9,98,P-GPS,
0.307545509295334,36.87940147759829,26600,2018-03-31 05:31:15,1793.9373133060055,23.500000752000002,0.35999970196000003,0.6924010221568321,1793.9373133060055,23.500000752000002,0.7919993443119999,0.7915710253302721,1421,-89.9,98,P-GPS,
0.30754539147578197,36.8794016157967,26700,2018-03-31 05:31:15,1794.1373133124055,23.700000758399998,0.35999970196000003,0.688621022035872,1794.1373133124055,23.700000758399998,0.7919993443119999,0.7915710253302721,1421,-90.0,98,P-GPS,
0.30754522792708,36.8794017571891,26800,2018-03-31 05:31:15,1794.4373133220054,24.000000768000003,0.35999970196000003,0.688514022032448,1794.4373133220054,24.000000768000003,0.7919993443119999,0.7915710253302721,1420,-90.0,98,P-GPS,
0.307545077978329,36.8794018813402,26900,2018-03-31 05:31:15,1794.6373133284055,24.2000007744,0.35999970196000003,0.68959502206704,1794.6373133284055,24.2000007744,0.7919993443119999,0.7915710253302721,1420,-89.9,98,P-GPS,
0.307544936803633,36.8794019939225,27000,2018-03-31 05:31:15,1794.8373133348055,24.4000007808,0.0,0.6915710221302721,1794.8373133348055,24.4000007808,0.7919993443119999,0.7915710253302721,1419,-89.9,98,P-GPS,
0.307544829654461,36.879402085566795,27100,2018-03-31 05:31:15,1795.1373133444056,24.7000007904,0.0,0.6929780221752961,1795.1373133444056,24.7000007904,0.7919993443119999,0.7915710253302721,1419,-90.0,98,P-GPS,
0.307544704260202,36.8794021883746,27200,2018-03-31 05:31:15,1795.3373133508057,24.9000007968,0.0,0.695403022252896,1795.3373133508057,24.9000007968,0.7919993443119999,0.7915710253302721,1418,-90.0,98,P-GPS,
0.307544602974242,36.8794022814721,27300,2018-03-31 05:31:16,1795.6373133604054,25.200000806400006,0.0,0.696962022302784,1795.6373133604054,25.200000806400006,0.7919993443119999,0.7915710253302721,1417,-89.9,98,P-GPS,
0.30754450253181703,36.8794023762141,27400,2018-03-31 05:31:16,1795.8373133668056,25.400000812800002,0.0,0.698664022357248,1795.8373133668056,25.400000812800002,0.7919993443119999,0.7915710253302721,1417,-89.9,98,P-GPS,
0.30754442241644303,36.879402455221,27500,2018-03-31 05:31:16,1796.0373133732055,25.600000819200005,0.0,0.7000210224006721,1796.0373133732055,25.600000819200005,0.7919993443119999,0.7915710253302721,1419,-90.0,98,P-GPS,
0.30754433494294503,36.8794025767765,27600,2018-03-31 05:31:16,1796.3373133828054,25.900000828800003,0.0,0.699369022379808,1796.3373133828054,25.900000828800003,0.7919993443119999,0.7915710253302721,1420,-90.0,98,P-GPS,
0.30754427582798605,36.8794026948467,27700,2018-03-31 05:31:16,1796.6373133924055,26.200000838399998,0.0,0.696791022297312,1796.6373133924055,26.200000838399998,0.7919993443119999,0.7915710253302721,1420,-89.9,98,P-GPS,
0.30754421308892405,36.8794028520737,27800,2018-03-31 05:31:16,1796.8373133988057,26.4000008448,0.0,0.6923620221555841,1796.8373133988057,26.4000008448,0.7919993443119999,0.7915710253302721,1421,-89.9,98,P-GPS,
0.307544174274147,36.879402977283604,27900,2018-03-31 05:31:16,1797.1373134084054,26.700000854400002,0.0,0.688148022020736,1797.1373134084054,26.700000854400002,0.7919993443119999,0.7915710253302721,1421,-90.0,98,P-GPS,
0.307544129410515,36.879403129287795,28000,2018-03-31 05:31:16,1797.3373134148055,26.9000008608,0.0,0.683202021862464,1797.3373134148055,26.9000008608,0.7919993443119999,0.7915710253302721,1422,-90.0,98,P-GPS,
0.307544115189313,36.8794032506612,28100,2018-03-31 05:31:16,1797.6373134244056,27.200000870400004,0.0,0.6774950216798401,1797.6373134244056,27.200000870400004,0.7919993443119999,0.7915710253302721,1424,-89.9,98,P-GPS,
0.307544093744334,36.8794033775188,28200,2018-03-31 05:31:16,1797.8373134308056,27.4000008768,0.0,0.672406021516992,1797.8373134308056,27.4000008768,0.7919993443119999,0.7915710253302721,1423,-89.9,98,P-GPS,
0.30754406227384,36.879403453582704,28300,2018-03-31 05:31:16,1798.1373134404055,27.700000886400005,0.0,0.671292021481344,1798.1373134404055,27.700000886400005,0.7919993443119999,0.7915710253302721,1424,-89.9,98,P-GPS,
0.307544005128483,36.8794035189364,28400,2018-03-31 05:31:17,1798.3373134468054,27.9000008928,0.0,0.673379021548128,1798.3373134468054,27.9000008928,0.7919993443119999,0.7915710253302721,1425,-90.0,98,P-GPS,
0.30754395253299893,36.8794035462327,28500,2018-03-31 05:31:17,1798.6373134564055,28.200000902400003,0.0,0.6771130216676161,1798.6373134564055,28.200000902400003,0.7919993443119999,0.7915710253302721,1425,-90.0,98,P-GPS,
0.307543865105912,36.8794035727165,28600,2018-03-31 05:31:17,1798.8373134628057,28.400000908800006,0.0,0.684374021899968,1798.8373134628057,28.400000908800006,0.7919993443119999,0.7915710253302721,1426,-90.0,98,P-GPS,
0.307543803631337,36.879403567629,28700,2018-03-31 05:31:17,1799.1373134724056,28.7000009184,0.0,0.690717022102944,1799.1373134724056,28.7000009184,0.7919993443119999,0.7915710253302721,1427,-89.9,98,P-GPS,
0.30754375391657,36.87940355696271,28800,2018-03-31 05:31:17,1799.3373134788055,28.9000009248,0.0,0.6961830222778561,1799.3373134788055,28.9000009248,0.7919993443119999,0.7915710253302721,1428,-89.9,97,P-GPS,
0.307543735645428,36.8794035245838,28900,2018-03-31 05:31:17,1799.6373134884057,29.200000934400002,0.0,0.699627022388064,1799.6373134884057,29.200000934400002,0.7919993443119999,0.7915710253302721,1428,-89.9,97,P-GPS,
0.307543736676233,36.879403537996104,29000,2018-03-31 05:31:17,1799.8373134948054,29.4000009408,0.0,0.698848022363136,1799.8373134948054,29.4000009408,0.7919993443119999,0.7915710253302721,1429,-89.9,97,P-GPS,
0.307543753629964,36.879403545149295,29100,2018-03-31 05:31:17,1800.1373135044055,29.7000009504,0.0,0.6968070222978241,1800.1373135044055,29.7000009504,0.7919993443119999,0.7915710253302721,1430,-89.9,97,P-GPS,
0.307543762155682,36.8794035678191,29200,2018-03-31 05:31:17,1800.4373135140056,30.00000096,0.0,0.69482002223424,1800.4373135140056,30.00000096,0.7919993443119999,0.7915710253302721,1430,-89.9,97,P-GPS,
0.307543769030973,36.879403566426795,29300,2018-03-31 05:31:17,1800.6373135204053,30.200000966400005,0.0,0.694208022214656,1800.6373135204053,30.200000966400005,0.7919993443119999,0.7915710253302721,1430,-89.9,97,P-GPS,
0.30754375904616804,36.8794035494076,29400,2018-03-31 05:31:18,1800.9373135300054,30.500000976,0.0,0.69605502227376,1800.9373135300054,30.500000976,0.7919993443119999,0.7915710253302721,1429,-89.9,97,P-GPS,
0.307543752699308,36.879403511749004,29500,2018-03-31 05:31:18,1801.2373135396056,30.8000009856,0.0,0.698592022354944,1801.2373135396056,30.8000009856,0.7919993443119999,0.7915710253302721,1424,-89.9,97,P-GPS,
0.307543743612591,36.8794034707309,29600,2018-03-31 05:31:18,1801.5373135492057,31.100000995200002,0.0,0.7015870224507841,1801.5373135492057,31.100000995200002,0.7919993443119999,0.7915710253302721,1429,-89.9,97,P-GPS,
0.30754374301820797,36.879403425767705,29700,2018-03-31 05:31:18,1801.7373135556054,31.300001001600002,0.0,0.703972022527104,1801.7373135556054,31.300001001600002,0.7919993443119999,0.7915710253302721,1431,-89.9,97,P-GPS,
0.30754370881437104,36.8794033724292,29800,2018-03-31 05:31:18,1801.9373135620056,31.500001007999998,0.0,0.7101170227237439,1801.9373135620056,31.500001007999998,0.7919993443119999,0.7915710253302721,1431,-89.9,97,P-GPS,
