latitude,longitude,time_millisecond,datetime_utc,altitude_m,ascent_m,speed_kph,distance_m,max_altitude_m,max_ascent_m,max_speed_kph,max_distance_m,rc_throttle,gimbal_pitch_degrees,battery_percent,flycState,message
0.354429987637012,36.9190253468193,0,2018-04-16 05:09:03,1675.6241991199668,0.0,0.0,0.0,1675.6241991199668,0.0,0.0,0.0,364,0.0,99,Motors_Started,
0.354429947192061,36.9190253530014,100,2018-04-16 05:09:03,1675.6241991199668,0.0,0.0,0.00454996014559872,1675.6241991199668,0.0,0.0,0.00454996014559872,364,0.0,99,Motors_Started,
0.354429925977049,36.9190253493248,200,2018-04-16 05:09:03,1675.6241991199668,0.0,0.0,0.00686262021960384,1675.6241991199668,0.0,0.0,0.00686262021960384,364,0.0,99,Motors_Started,
0.354429905366139,36.9190253481453,300,2018-04-16 05:09:03,1675.6241991199668,0.0,0.0,0.00915021029280672,1675.6241991199668,0.0,0.0,0.00915021029280672,364,0.0,99,Motors_Started,
0.354429903947357,36.919025377209,400,2018-04-16 05:09:03,1675.6241991199668,0.0,0.0,0.00990137031684384,1675.6241991199668,0.0,0.0,0.00990137031684384,364,0.0,99,Motors_Started,
0.35442989763103,36.9190254015285,500,2018-04-16 05:09:03,1675.6241991199668,0.0,0.0,0.0117132003748224,1675.6241991199668,0.0,0.0,0.0117132003748224,364,0.0,99,Motors_Started,
0.354429869038352,36.9190254174478,600,2018-04-16 05:09:04,1675.6241991199668,0.0,0.0,0.0153504004912128,1675.6241991199668,0.0,0.0,0.0153504004912128,364,0.0,99,Motors_Started,
0.354429840270209,36.9190254297034,700,2018-04-16 05:09:04,1675.6241991199668,0.0,0.0,0.0188022006016704,1675.6241991199668,0.0,0.0,0.0188022006016704,364,0.0,99,Motors_Started,
0.354429790356467,36.9190254329046,800,2018-04-16 05:09:04,1675.6241991199668,0.0,0.0,0.023936500765968,1675.6241991199668,0.0,0.0,0.023936500765968,364,0.0,99,Motors_Started,
0.354429741651946,36.9190254504859,900,2018-04-16 05:09:04,1675.6241991199668,0.0,0.0,0.0296849009499168,1675.6241991199668,0.0,0.0,0.0296849009499168,364,0.0,99,Motors_Started,
0.354429724841086,36.9190254724112,1000,2018-04-16 05:09:04,1675.6241991199668,0.0,0.0,0.0323903010364896,1675.6241991199668,0.0,0.0,0.0323903010364896,364,0.0,99,Motors_Started,
0.354429701858271,36.9190255007188,1100,2018-04-16 05:09:04,1675.6241991199668,0.0,0.0,0.036095501155056005,1675.6241991199668,0.0,0.0,0.036095501155056005,364,0.0,99,Motors_Started,
0.354429661205235,36.9190255194714,1200,2018-04-16 05:09:04,1675.6241991199668,0.0,0.0,0.0410658013141056,1675.6241991199668,0.0,0.0,0.0410658013141056,364,0.0,99,Motors_Started,
0.354429622853395,36.9190255340966,1300,2018-04-16 05:09:04,1675.6241991199668,0.0,0.0,0.04559970145919041,1675.6241991199668,0.0,0.0,0.04559970145919041,364,0.0,99,Motors_Started,
0.354429607660343,36.9190255385715,1400,2018-04-16 05:09:04,1675.6241991199668,0.0,0.0,0.0473312015145984,1675.6241991199668,0.0,0.0,0.0473312015145984,638,0.0,99,Motors_Started,
0.354429589723872,36.9190255444476,1500,2018-04-16 05:09:05,1675.6241991199668,0.0,0.0,0.049407301581033604,1675.6241991199668,0.0,0.0,0.049407301581033604,1024,0.0,99,Motors_Started,
0.354429553936474,36.9190255416814,1600,2018-04-16 05:09:05,1675.6241991199668,0.0,0.0,0.052874501691984,1675.6241991199668,0.0,0.0,0.052874501691984,1024,0.0,99,Assisted_Takeoff,
0.354429519813893,36.919025540497,1700,2018-04-16 05:09:05,1675.6241991199668,0.0,0.0,0.05630680180181761,1675.6241991199668,0.0,0.0,0.05630680180181761,1024,0.0,99,Assisted_Takeoff,
0.354429507173364,36.9190255335448,1800,2018-04-16 05:09:05,1675.6241991199668,0.0,0.0,0.057323501834352,1675.6241991199668,0.0,0.0,0.057323501834352,1024,0.0,99,Assisted_Takeoff,
0.354429491056794,36.9190255291537,1900,2018-04-16 05:09:05,1675.6241991199668,0.0,0.0,0.05882750188248,1675.6241991199668,0.0,0.0,0.05882750188248,1024,0.0,99,Assisted_Takeoff,
0.354429456435769,36.9190255202878,2000,2018-04-16 05:09:05,1675.6241991199668,0.0,0.0,0.0621427019885664,1675.6241991199668,0.0,0.0,0.0621427019885664,1024,0.0,99,Assisted_Takeoff,
0.354429422488971,36.9190255134716,2100,2018-04-16 05:09:05,1675.6241991199668,0.0,0.0,0.0655233020967456,1675.6241991199668,0.0,0.0,0.0655233020967456,1024,0.0,99,Assisted_Takeoff,
0.354429409032362,36.9190255047019,2200,2018-04-16 05:09:05,1675.6241991199668,0.0,0.0,0.0666967021342944,1675.6241991199668,0.0,0.0,0.0666967021342944,1024,0.0,99,Assisted_Takeoff,
0.354429391563833,36.9190254975106,2300,2018-04-16 05:09:05,1675.6241991199668,0.0,0.0,0.06837230218791361,1675.6241991199668,0.0,0.0,0.06837230218791361,1024,0.0,99,Assisted_Takeoff,
0.354429354944352,36.9190254911636,2400,2018-04-16 05:09:05,1675.6241991199668,0.0,0.0,0.0721671023093472,1675.6241991199668,0.0,0.0,0.0721671023093472,1024,0.0,99,Assisted_Takeoff,
0.354429320501276,36.919025484059,2500,2018-04-16 05:09:05,1675.6241991199668,0.0,0.0,0.075743002423776,1675.6241991199668,0.0,0.0,0.075743002423776,1024,0.0,99,Assisted_Takeoff,
0.354429309135124,36.9190254392479,2600,2018-04-16 05:09:06,1675.6241991199668,0.0,0.0,0.0761504024368128,1675.6241991199668,0.0,0.0,0.0761504024368128,1024,0.0,99,Assisted_Takeoff,
0.354429294078866,36.9190254010627,2700,2018-04-16 05:09:06,1675.6241991199668,0.0,0.0,0.07736340247562881,1675.6241991199668,0.0,0.0,0.07736340247562881,1024,0.0,99,Assisted_Takeoff,
0.354429298490145,36.9190253717403,2800,2018-04-16 05:09:06,1675.6241991199668,0.0,0.0,0.0766874024539968,1675.6241991199668,0.0,0.0,0.07736340247562881,1024,0.0,99,Assisted_Takeoff,
0.354429294668016,36.9190253452765,2900,2018-04-16 05:09:06,1675.6241991199668,0.0,0.0,0.0770626024660032,1675.6241991199668,0.0,0.0,0.07736340247562881,1024,0.0,99,Assisted_Takeoff,
0.354429267309158,36.9190252909259,3000,2018-04-16 05:09:06,1675.6241991199668,0.0,0.0,0.0803456025710592,1675.6241991199668,0.0,0.0,0.0803456025710592,1024,0.0,99,Assisted_Takeoff,
0.354429240180944,36.9190252436251,3100,2018-04-16 05:09:06,1675.6241991199668,0.0,0.0,0.0839101026851232,1675.6241991199668,0.0,0.0,0.0839101026851232,1024,0.0,99,Assisted_Takeoff,
0.354429190632552,36.9190252151676,3200,2018-04-16 05:09:06,1675.6241991199668,0.0,0.0,0.0898328028746496,1675.6241991199668,0.0,0.0,0.0898328028746496,1024,0.0,99,Assisted_Takeoff,
0.354429147250791,36.9190251849943,3300,2018-04-16 05:09:06,1675.6241991199668,0.0,0.0,0.0951729030455328,1675.6241991199668,0.0,0.0,0.0951729030455328,1024,0.0,99,Assisted_Takeoff,
0.354429125268833,36.9190251760515,3400,2018-04-16 05:09:06,1675.6241991199668,0.0,0.0,0.09776270312840642,1675.6241991199668,0.0,0.0,0.09776270312840642,1024,0.0,99,Assisted_Takeoff,
0.354429101230748,36.9190251582817,3500,2018-04-16 05:09:07,1675.6241991199668,0.0,0.0,0.10077900322492801,1675.6241991199668,0.0,0.0,0.10077900322492801,1024,0.0,99,Assisted_Takeoff,
0.354429097782594,36.9190251598792,3600,2018-04-16 05:09:07,1675.6241991199668,0.0,0.0,0.101117003235744,1675.6241991199668,0.0,0.0,0.101117003235744,1024,0.0,99,Assisted_Takeoff,
0.35442908750729,36.9190251503502,3700,2018-04-16 05:09:07,1675.6241991199668,0.0,0.0,0.102457003278624,1675.6241991199668,0.0,0.0,0.102457003278624,1024,0.0,99,Assisted_Takeoff,
0.354429056324802,36.9190251191929,3800,2018-04-16 05:09:07,1675.6241991199668,0.0,0.0,0.106616003411712,1675.6241991199668,0.0,0.0,0.106616003411712,1024,0.0,99,Assisted_Takeoff,
0.354429024375188,36.9190250835395,3900,2018-04-16 05:09:07,1675.6241991199668,0.0,0.0,0.11105000355360001,1675.6241991199668,0.0,0.0,0.11105000355360001,1024,0.0,99,Assisted_Takeoff,
0.354429012413936,36.919025068891,4000,2018-04-16 05:09:07,1675.6241991199668,0.0,0.0,0.112769003608608,1675.6241991199668,0.0,0.0,0.112769003608608,1024,0.0,99,Assisted_Takeoff,
0.354428996013979,36.919025046304,4100,2018-04-16 05:09:07,1675.6241991199668,0.0,0.0,0.115227003687264,1675.6241991199668,0.0,0.0,0.115227003687264,1024,0.0,99,Assisted_Takeoff,
0.354428998308456,36.9190250450857,4200,2018-04-16 05:09:07,1675.6241991199668,0.0,0.0,0.115022003680704,1675.6241991199668,0.0,0.0,0.115227003687264,1024,0.0,99,Assisted_Takeoff,
0.354428991922208,36.9190250313239,4300,2018-04-16 05:09:07,1675.6241991199668,0.0,0.0,0.11615500371696001,1675.6241991199668,0.0,0.0,0.11615500371696001,1024,0.0,99,Assisted_Takeoff,
0.354428962313483,36.9190249993898,4400,2018-04-16 05:09:07,1675.6241991199668,0.0,0.0,0.12039000385248001,1675.6241991199668,0.0,0.0,0.12039000385248001,1024,0.0,99,Assisted_Takeoff,
0.354428931322896,36.9190249615477,4500,2018-04-16 05:09:07,1675.6241991199668,0.0,0.0,0.125038004001216,1675.6241991199668,0.0,0.0,0.125038004001216,1024,0.0,99,Assisted_Takeoff,
0.354428917950826,36.9190249471905,4600,2018-04-16 05:09:08,1675.6241991199668,0.0,0.0,0.126986004063552,1675.6241991199668,0.0,0.0,0.126986004063552,1024,0.0,99,Assisted_Takeoff,
0.354428900406022,36.919024923932,4700,2018-04-16 05:09:08,1675.6241991199668,0.0,0.0,0.12973000415136,1675.6241991199668,0.0,0.0,0.12973000415136,1024,0.0,99,Assisted_Takeoff,
0.354428900673595,36.9190248852745,4800,2018-04-16 05:09:08,1675.6241991199668,0.0,0.0,0.13132200420230403,1675.6241991199668,0.0,0.0,0.13132200420230403,1024,0.0,99,Assisted_Takeoff,
0.35442889146477,36.9190248401988,4900,2018-04-16 05:09:08,1675.6241991199668,0.0,0.0,0.13429000429728,1675.6241991199668,0.0,0.0,0.13429000429728,1024,0.0,99,Assisted_Takeoff,
0.354428859953132,36.9190248238329,5000,2018-04-16 05:09:08,1675.6241991199668,0.0,0.0,0.13823500442352002,1675.6241991199668,0.0,0.0,0.13823500442352002,1024,0.0,99,Assisted_Takeoff,
0.354428827731263,36.919024796167,5100,2018-04-16 05:09:08,1675.6241991199668,0.0,0.0,0.142786004569152,1675.6241991199668,0.0,0.0,0.142786004569152,1024,0.0,99,Assisted_Takeoff,
0.354428814359244,36.9190247965165,5200,2018-04-16 05:09:08,1675.6241991199668,0.0,0.0,0.144114004611648,1675.6241991199668,0.0,0.0,0.144114004611648,1024,0.0,99,Assisted_Takeoff,
0.354428796134259,36.9190247804046,5300,2018-04-16 05:09:08,1675.6241991199668,0.0,0.0,0.14671200469478402,1675.6241991199668,0.0,0.0,0.14671200469478402,1024,0.0,99,Assisted_Takeoff,
0.35442875750314,36.9190247907786,5400,2018-04-16 05:09:08,1675.6241991199668,0.0,0.0,0.150124004803968,1675.6241991199668,0.0,0.0,0.150124004803968,1024,0.0,99,Assisted_Takeoff,
0.354428718333057,36.9190247814681,5500,2018-04-16 05:09:09,1675.6241991199668,0.0,0.0,0.15452200494470403,1675.6241991199668,0.0,0.0,0.15452200494470403,1024,0.0,99,Assisted_Takeoff,
0.35442870074693,36.9190247922336,5600,2018-04-16 05:09:09,1675.6241991199668,0.0,0.0,0.15583300498665603,1675.6241991199668,0.0,0.0,0.15583300498665603,1024,0.0,99,Assisted_Takeoff,
0.354428679982081,36.9190247886528,5700,2018-04-16 05:09:09,1675.6241991199668,0.0,0.0,0.158112005059584,1675.6241991199668,0.0,0.0,0.158112005059584,1024,0.0,99,Assisted_Takeoff,
0.354428642140859,36.919024694994,5800,2018-04-16 05:09:09,1675.6241991199668,0.0,0.0,0.16626000532032,1675.6241991199668,0.0,0.0,0.16626000532032,1024,0.0,99,Assisted_Takeoff,
0.354428600817159,36.919024599429,5900,2018-04-16 05:09:09,1675.6241991199668,0.0,0.0,0.175193005606176,1675.6241991199668,0.0,0.0,0.175193005606176,1051,0.0,99,Assisted_Takeoff,
0.354428582889009,36.9190244612695,6000,2018-04-16 05:09:09,1675.6241991199668,0.0,0.0,0.18466500590928,1675.6241991199668,0.0,0.0,0.18466500590928,1399,0.0,99,Assisted_Takeoff,
0.354428559173775,36.9190243378529,6100,2018-04-16 05:09:09,1675.6241991199668,0.0,0.0,0.19448300622345602,1675.6241991199668,0.0,0.0,0.19448300622345602,1399,0.0,99,Assisted_Takeoff,
0.354428559236623,36.9190241877688,6200,2018-04-16 05:09:09,1675.6241991199668,0.0,0.0,0.20456100654595202,1675.6241991199668,0.0,0.0,0.20456100654595202,1684,0.0,99,Assisted_Takeoff,
0.354428548468181,36.9190240506273,6300,2018-04-16 05:09:09,1675.6241991199668,0.0,0.0,0.21538600689235202,1675.6241991199668,0.0,0.0,0.21538600689235202,1684,0.0,99,Assisted_Takeoff,
0.354428558971237,36.9190239027736,6400,2018-04-16 05:09:09,1675.6241991199668,0.0,0.0,0.225896007228672,1675.6241991199668,0.0,0.0,0.225896007228672,1684,0.0,99,Assisted_Takeoff,
0.354428555632317,36.9190237650072,6500,2018-04-16 05:09:09,1675.6241991199668,0.0,0.0,0.23728000759296,1675.6241991199668,0.0,0.0,0.23728000759296,1684,0.0,99,Assisted_Takeoff,
0.354428547053521,36.9190236301423,6600,2018-04-16 05:09:10,1675.6241991199668,0.0,0.0,0.24921500797488,1675.6241991199668,0.0,0.0,0.24921500797488,1684,0.0,99,Assisted_Takeoff,
0.354428504147736,36.9190235148993,6700,2018-04-16 05:09:10,1675.6241991199668,0.0,0.0,0.262139008388448,1675.6241991199668,0.0,0.0,0.262139008388448,1684,0.0,99,P-GPS,
0.354428447069044,36.9190234410664,6800,2018-04-16 05:09:10,1675.6241991199668,0.0,0.0,0.272514008720448,1675.6241991199668,0.0,0.0,0.272514008720448,1684,0.0,99,P-GPS,
0.354428390583105,36.9190233823552,6900,2018-04-16 05:09:10,1675.7241991231665,0.1000000032,0.0,0.281542009009344,1675.7241991231665,0.1000000032,0.0,0.281542009009344,1684,0.0,99,P-GPS,Setting new Return-To-Home altitude to 45m (148 ft). Setting new Maximum Flight Altitude to 150m (492 ft)
0.354428378621268,36.9190233516699,7000,2018-04-16 05:09:10,1675.8241991263665,0.2000000064,0.0,0.285031009120992,1675.8241991263665,0.2000000064,0.0,0.285031009120992,1684,0.0,99,P-GPS,Home Point Recorded. RTH Altitude:  45m.
0.354428363865428,36.9190232907967,7100,2018-04-16 05:09:10,1675.9241991295667,0.3000000096,0.0,0.29134500932304,1675.9241991295667,0.3000000096,0.0,0.29134500932304,1684,0.0,99,P-GPS,
0.354428365599721,36.9190232272985,7200,2018-04-16 05:09:10,1676.1241991359666,0.500000016,0.0,0.29680200949766405,1676.1241991359666,0.500000016,0.0,0.29680200949766405,1684,0.0,99,P-GPS,
0.354428370762398,36.9190231393401,7300,2018-04-16 05:09:10,1676.3241991423668,0.7000000224,0.0,0.30428800973721604,1676.3241991423668,0.7000000224,0.0,0.30428800973721604,1684,0.0,99,P-GPS,
0.354428404634949,36.9190230544495,7400,2018-04-16 05:09:10,1676.6241991519669,1.000000032,0.0,0.309797009913504,1676.6241991519669,1.000000032,0.0,0.309797009913504,1684,0.0,99,P-GPS,
0.354428421725163,36.9190229445786,7500,2018-04-16 05:09:10,1676.9241991615665,1.3000000416000002,0.0,0.31888501020432,1676.9241991615665,1.3000000416000002,0.0,0.31888501020432,1684,0.0,99,P-GPS,
0.354428440316396,36.9190228699509,7600,2018-04-16 05:09:11,1677.3241991743666,1.7000000544000002,0.0,0.324768010392576,1677.3241991743666,1.7000000544000002,0.0,0.324768010392576,1684,0.0,99,P-GPS,
0.354428445569044,36.9190227834042,7700,2018-04-16 05:09:11,1677.7241991871665,2.1000000672000003,0.0,0.332668010645376,1677.7241991871665,2.1000000672000003,0.0,0.332668010645376,1684,0.0,99,P-GPS,
0.354428552048111,36.9190227503832,7800,2018-04-16 05:09:11,1678.2241992031668,2.6000000832000003,0.0,0.329931010557792,1678.2241992031668,2.6000000832000003,0.0,0.332668010645376,1684,0.0,99,P-GPS,
0.354428616095526,36.9190226914452,7900,2018-04-16 05:09:11,1678.7241992191666,3.1000000992000003,0.0,0.33235301063529604,1678.7241992191666,3.1000000992000003,0.0,0.332668010645376,1684,0.0,99,P-GPS,
0.354428773676133,36.9190227457119,8000,2018-04-16 05:09:11,1679.2241992351665,3.6000001152000003,0.0,0.31920601021459205,1679.2241992351665,3.6000001152000003,0.0,0.332668010645376,1684,0.0,99,P-GPS,
0.354428881587519,36.9190227558205,8100,2018-04-16 05:09:11,1679.7241992511667,4.100000131200001,0.0,0.31328501002512,1679.7241992511667,4.100000131200001,0.0,0.332668010645376,1684,0.0,99,P-GPS,
0.354429087244882,36.9190228582684,8200,2018-04-16 05:09:11,1680.2241992671666,4.6000001472,0.0,0.294294009417408,1680.2241992671666,4.6000001472,0.0,0.332668010645376,1684,0.0,99,P-GPS,
0.354429239251039,36.9190229064319,8300,2018-04-16 05:09:11,1680.7241992831666,5.1000001632,0.0,0.28385500908336003,1680.7241992831666,5.1000001632,0.0,0.332668010645376,1684,0.0,99,P-GPS,
0.354429437327124,36.9190230299174,8400,2018-04-16 05:09:11,1681.2241992991667,5.6000001792,0.0,0.264817008474144,1681.2241992991667,5.6000001792,0.0,0.332668010645376,1684,0.0,99,P-GPS,
0.354429588407122,36.9190230940899,8500,2018-04-16 05:09:12,1681.7241993151667,6.100000195200001,0.0,0.254416008141312,1681.7241993151667,6.100000195200001,0.0,0.332668010645376,1684,0.0,99,P-GPS,
0.354429769029754,36.9190232201217,8600,2018-04-16 05:09:12,1682.2241993311666,6.6000002112,0.0,0.237743007607776,1682.2241993311666,6.6000002112,0.0,0.332668010645376,1684,0.0,99,P-GPS,
0.354429916037027,36.9190232977565,8700,2018-04-16 05:09:12,1682.7241993471666,7.1000002272,0.0,0.22800300729609602,1682.7241993471666,7.1000002272,0.0,0.332668010645376,1684,0.0,99,P-GPS,
0.354430002148687,36.9190234172221,8800,2018-04-16 05:09:12,1683.2241993631667,7.600000243200001,0.0,0.21458500686672,1683.2241993631667,7.600000243200001,0.0,0.332668010645376,1684,0.0,99,P-GPS,
0.354430068794336,36.9190234919662,8900,2018-04-16 05:09:12,1683.7241993791665,8.1000002592,0.0,0.20646400660684802,1683.7241993791665,8.1000002592,0.0,0.332668010645376,1684,0.0,99,P-GPS,
0.354430145348048,36.9190236007038,9000,2018-04-16 05:09:12,1684.1241993919666,8.500000272,0.0,0.19496500623888002,1684.1241993919666,8.500000272,0.0,0.332668010645376,1684,0.0,99,P-GPS,
0.354430220953751,36.9190236807156,9100,2018-04-16 05:09:12,1684.6241994079664,9.000000288,0.0,0.18708500598672,1684.6241994079664,9.000000288,0.0,0.332668010645376,1684,0.0,99,P-GPS,
0.354430333845529,36.9190239567647,9300,2018-04-16 05:09:12,1685.6241994399666,10.00000032,0.0,0.159302005097664,1685.6241994399666,10.00000032,0.0,0.332668010645376,1684,0.0,99,P-GPS,
0.354430373112097,36.919024116413,9400,2018-04-16 05:09:12,1686.0241994527667,10.400000332800001,0.0,0.143384004588288,1686.0241994527667,10.400000332800001,0.0,0.332668010645376,1684,0.0,99,P-GPS,
0.35443041021253,36.9190242314883,9500,2018-04-16 05:09:12,1686.5241994687665,10.9000003488,0.0,0.132633004244256,1686.5241994687665,10.9000003488,0.0,0.332668010645376,1684,0.0,99,P-GPS,
0.354430436250535,36.9190243987345,9600,2018-04-16 05:09:13,1687.0241994847668,11.4000003648,0.0,0.116638003732416,1687.0241994847668,11.4000003648,0.0,0.332668010645376,1684,0.0,99,P-GPS,
0.354430466032333,36.9190245238926,9700,2018-04-16 05:09:13,1687.5241995007666,11.9000003808,0.0,0.10585300338729602,1687.5241995007666,11.9000003808,0.0,0.332668010645376,1684,0.0,99,P-GPS,
0.354430498294964,36.919024669133,9800,2018-04-16 05:09:13,1687.9241995135667,12.300000393600001,0.0,0.0943623030195936,1687.9241995135667,12.300000393600001,0.0,0.332668010645376,1684,0.0,99,P-GPS,
0.354430530493373,36.9190247816391,9900,2018-04-16 05:09:13,1688.4241995295665,12.8000004096,0.0,0.08714680278869762,1688.4241995295665,12.8000004096,0.0,0.332668010645376,1684,0.0,99,P-GPS,
0.354430535678949,36.9190249585132,10000,2018-04-16 05:09:13,1688.9241995455668,13.3000004256,0.0,0.0746926023901632,1688.9241995455668,13.3000004256,0.0,0.332668010645376,1684,0.0,99,P-GPS,
0.354430562080912,36.9190253393952,10200,2018-04-16 05:09:13,1689.8241995743667,14.2000004544,0.0,0.06388700204438401,1689.8241995743667,14.2000004544,0.0,0.332668010645376,1684,0.0,99,P-GPS,
0.35443058299227,36.9190255359449,10300,2018-04-16 05:09:13,1690.3241995903666,14.7000004704,0.0,0.06946730222295361,1690.3241995903666,14.7000004704,0.0,0.332668010645376,1684,0.0,99,P-GPS,
0.354430614048936,36.9190257645346,10400,2018-04-16 05:09:14,1690.8241996063668,15.200000486400002,0.0,0.083728002679296,1690.8241996063668,15.200000486400002,0.0,0.332668010645376,1684,0.0,99,P-GPS,
0.354430689066059,36.9190262283028,10600,2018-04-16 05:09:14,1691.8241996383665,16.2000005184,0.0,0.125273004008736,1691.8241996383665,16.2000005184,0.0,0.332668010645376,1684,0.0,99,P-GPS,
0.354430728169477,36.9190264594379,10700,2018-04-16 05:09:14,1692.3241996543668,16.7000005344,0.0,0.148628004756096,1692.3241996543668,16.7000005344,0.0,0.332668010645376,1684,0.0,99,P-GPS,
0.354430814393958,36.9190267664634,10800,2018-04-16 05:09:14,1692.8241996703666,17.2000005504,0.0,0.182691005846112,1692.8241996703666,17.2000005504,0.0,0.332668010645376,1684,0.0,99,P-GPS,
0.354431008242914,36.9190273280823,11000,2018-04-16 05:09:14,1693.9241997055667,18.3000005856,0.0,0.24784000793088,1693.9241997055667,18.3000005856,0.0,0.332668010645376,1684,0.0,99,P-GPS,
0.354431108146528,36.9190275830746,11100,2018-04-16 05:09:14,1694.4241997215665,18.8000006016,0.0,0.278153008900896,1694.4241997215665,18.8000006016,0.0,0.332668010645376,1684,0.0,99,P-GPS,
0.354431265702149,36.9190279202966,11200,2018-04-16 05:09:14,1694.9241997375666,19.300000617600002,0.0,0.31953101022499203,1694.9241997375666,19.300000617600002,0.0,0.332668010645376,1684,0.0,99,P-GPS,
0.354431387644921,36.9190281948463,11300,2018-04-16 05:09:14,1695.5241997567666,19.900000636799998,0.0,0.35291001129312,1695.5241997567666,19.900000636799998,0.0,0.35291001129312,1684,0.0,99,P-GPS,
0.354431551953699,36.9190285343879,11400,2018-04-16 05:09:14,1696.0241997727667,20.4000006528,0.0,0.394857012635424,1696.0241997727667,20.4000006528,0.0,0.394857012635424,1684,0.0,99,P-GPS,
0.354431773146875,36.9190291182731,11600,2018-04-16 05:09:15,1697.1241998079665,21.500000688,0.0,0.46402901484892806,1697.1241998079665,21.500000688,0.0,0.46402901484892806,1684,0.0,99,P-GPS,
0.354431847165151,36.9190293697971,11700,2018-04-16 05:09:15,1697.6241998239666,22.000000703999998,0.0,0.49285201577126403,1697.6241998239666,22.000000703999998,0.0,0.49285201577126403,1684,0.0,99,P-GPS,
0.354431937733099,36.9190296359783,11800,2018-04-16 05:09:15,1698.2241998431666,22.6000007232,0.0,0.523957016766624,1698.2241998431666,22.6000007232,0.0,0.523957016766624,1684,0.0,99,P-GPS,
0.35443200062951,36.9190298301287,11900,2018-04-16 05:09:15,1698.7241998591667,23.1000007392,0.0,0.5465120174883841,1698.7241998591667,23.1000007392,0.0,0.5465120174883841,1684,0.0,99,P-GPS,
0.354432133094269,36.9190300514282,12000,2018-04-16 05:09:15,1699.3241998783667,23.7000007584,0.0,0.575006018400192,1699.3241998783667,23.7000007584,0.0,0.575006018400192,1684,0.0,99,P-GPS,
0.354432227688545,36.9190302074091,12100,2018-04-16 05:09:15,1699.8241998943665,24.2000007744,0.0,0.595158019045056,1699.8241998943665,24.2000007744,0.0,0.595158019045056,1684,0.0,99,P-GPS,
0.354432420728571,36.919030569543,12300,2018-04-16 05:09:15,1700.9241999295666,25.3000008096,0.0,0.6407220205031041,1700.9241999295666,25.3000008096,0.0,0.6407220205031041,1684,0.0,99,P-GPS,
0.354432523097853,36.9190307259119,12400,2018-04-16 05:09:15,1701.5241999487669,25.9000008288,0.0,0.661299021161568,1701.5241999487669,25.9000008288,0.0,0.661299021161568,1684,0.0,99,P-GPS,
0.354432585933604,36.9190308225669,12500,2018-04-16 05:09:16,1702.1241999679667,26.500000848000003,0.0,0.6740030215680961,1702.1241999679667,26.500000848000003,0.0,0.6740030215680961,1684,0.0,99,P-GPS,
0.354432695644319,36.9190310000296,12600,2018-04-16 05:09:16,1702.7241999871667,27.100000867200002,0.0,0.697067022306144,1702.7241999871667,27.100000867200002,0.0,0.697067022306144,1684,0.0,99,P-GPS,
0.354432756102948,36.919031112125,12700,2018-04-16 05:09:16,1703.2242000031667,27.600000883200003,0.0,0.711214022758848,1703.2242000031667,27.600000883200003,0.0,0.711214022758848,1684,0.0,99,P-GPS,
0.354432939383506,36.9190312962566,12900,2018-04-16 05:09:16,1704.4242000415666,28.800000921600002,0.0,0.738556023633792,1704.4242000415666,28.800000921600002,0.0,0.738556023633792,1684,0.0,99,P-GPS,
0.354433069844668,36.9190313865285,13000,2018-04-16 05:09:16,1705.0242000607668,29.4000009408,0.0,0.75404502412944,1705.0242000607668,29.4000009408,0.0,0.75404502412944,1684,0.0,99,P-GPS,
0.354433158949867,36.9190314228898,13100,2018-04-16 05:09:16,1705.6242000799666,30.00000096,0.0,0.7621830243898561,1705.6242000799666,30.00000096,0.0,0.7621830243898561,1684,0.0,99,P-GPS,
0.354433377368582,36.9190314617948,13300,2018-04-16 05:09:16,1706.7242001151667,31.100000995200002,0.0,0.7775030248800959,1706.7242001151667,31.100000995200002,0.0,0.7775030248800959,1684,0.0,99,P-GPS,
0.354433494123131,36.9190314909845,13400,2018-04-16 05:09:16,1707.3242001343667,31.7000010144,0.0,0.7866980251743361,1707.3242001343667,31.7000010144,0.0,0.7866980251743361,1684,0.0,99,P-GPS,
0.354433563533521,36.9190314805825,13500,2018-04-16 05:09:17,1707.8242001503666,32.2000010304,0.35999970196000003,0.789553025265696,1707.8242001503666,32.2000010304,0.35999970196000003,0.789553025265696,1684,0.0,99,P-GPS,
0.35443379897029,36.9190314436447,13700,2018-04-16 05:09:17,1709.0242001887666,33.4000010688,0.35999970196000003,0.799572025586304,1709.0242001887666,33.4000010688,0.35999970196000003,0.799572025586304,1684,0.0,99,P-GPS,
0.354433890728631,36.9190314329295,13800,2018-04-16 05:09:17,1709.5242002047664,33.9000010848,0.35999970196000003,0.804024025728768,1709.5242002047664,33.9000010848,0.35999970196000003,0.804024025728768,1684,0.0,99,P-GPS,
0.354433932425754,36.9190313810957,13900,2018-04-16 05:09:17,1710.1242002239667,34.500001104,0.35999970196000003,0.8017060256545921,1710.1242002239667,34.500001104,0.35999970196000003,0.804024025728768,1684,0.0,99,P-GPS,
0.354434020060061,36.9190313308695,14000,2018-04-16 05:09:17,1710.7242002431667,35.1000011232,0.35999970196000003,0.802442025678144,1710.7242002431667,35.1000011232,0.35999970196000003,0.804024025728768,1684,0.0,99,P-GPS,
0.354434065338132,36.9190312507635,14100,2018-04-16 05:09:17,1711.3242002623665,35.700001142400005,0.35999970196000003,0.797921025533472,1711.3242002623665,35.700001142400005,0.35999970196000003,0.804024025728768,1684,0.0,99,P-GPS,
0.354434135756528,36.9190311972345,14200,2018-04-16 05:09:17,1711.8242002783666,36.2000011584,0.35999970196000003,0.797534025521088,1711.8242002783666,36.2000011584,0.35999970196000003,0.804024025728768,1684,0.0,99,P-GPS,
0.354434168839182,36.919031122435,14300,2018-04-16 05:09:17,1712.4242002975666,36.8000011776,0.35999970196000003,0.79291502537328,1712.4242002975666,36.8000011776,0.35999970196000003,0.804024025728768,1684,0.0,99,P-GPS,
0.354434238018333,36.9190310810333,14400,2018-04-16 05:09:17,1712.9242003135666,37.3000011936,0.35999970196000003,0.793747025399904,1712.9242003135666,37.3000011936,0.35999970196000003,0.804024025728768,1684,0.0,99,P-GPS,
0.354434275817368,36.9190310112711,14500,2018-04-16 05:09:18,1713.5242003327667,37.9000012128,0.35999970196000003,0.790059025281888,1713.5242003327667,37.9000012128,0.35999970196000003,0.804024025728768,1684,0.0,99,P-GPS,
0.354434386432683,36.9190309369593,14600,2018-04-16 05:09:18,1714.0242003487665,38.4000012288,0.35999970196000003,0.791033025313056,1714.0242003487665,38.4000012288,0.35999970196000003,0.804024025728768,1684,0.0,99,P-GPS,
0.35443445564196,36.9190308401089,14700,2018-04-16 05:09:18,1714.6242003679668,39.000001248000004,0.35999970196000003,0.7874310251977921,1714.6242003679668,39.000001248000004,0.35999970196000003,0.804024025728768,1684,0.0,99,P-GPS,
0.354434547292417,36.9190307808553,14800,2018-04-16 05:09:18,1715.1242003839666,39.500001264,0.35999970196000003,0.788843025242976,1715.1242003839666,39.500001264,0.35999970196000003,0.804024025728768,1684,0.0,99,P-GPS,
0.354434591376024,36.9190307045355,14900,2018-04-16 05:09:18,1715.7242004031668,40.10000128320001,0.35999970196000003,0.7855470251375041,1715.7242004031668,40.10000128320001,0.35999970196000003,0.804024025728768,1684,0.0,99,P-GPS,
0.354434692868389,36.9190306670507,15000,2018-04-16 05:09:18,1716.3242004223666,40.700001302400004,0.35999970196000003,0.789822025274304,1716.3242004223666,40.700001302400004,0.35999970196000003,0.804024025728768,1684,0.0,99,P-GPS,
0.354434750670823,36.9190306039482,15100,2018-04-16 05:09:18,1716.8242004383667,41.2000013184,0.35999970196000003,0.78888002524416,1716.8242004383667,41.2000013184,0.35999970196000003,0.804024025728768,1684,0.0,99,P-GPS,
0.354434864330108,36.9190305751872,15200,2018-04-16 05:09:18,1717.4242004575667,41.80000133760001,0.35999970196000003,0.7950800254425601,1717.4242004575667,41.80000133760001,0.35999970196000003,0.804024025728768,1684,0.0,99,P-GPS,
0.354434934378033,36.9190305230703,15300,2018-04-16 05:09:18,1717.9242004735665,42.300001353599995,0.35999970196000003,0.796214025478848,1717.9242004735665,42.300001353599995,0.35999970196000003,0.804024025728768,1684,0.0,99,P-GPS,
0.354435029760476,36.9190304633783,15400,2018-04-16 05:09:18,1718.5242004927666,42.900001372800006,0.35999970196000003,0.798837025562784,1718.5242004927666,42.900001372800006,0.35999970196000003,0.804024025728768,1684,0.0,99,P-GPS,
0.354435140716544,36.9190302873368,15600,2018-04-16 05:09:19,1719.5242005247667,43.9000014048,0.35999970196000003,0.793875025404,1719.5242005247667,43.9000014048,0.35999970196000003,0.804024025728768,1684,0.0,99,P-GPS,
0.354435169298178,36.9190301948701,15700,2018-04-16 05:09:19,1720.1242005439667,44.500001424,0.35999970196000003,0.789111025251552,1720.1242005439667,44.500001424,0.35999970196000003,0.804024025728768,1684,0.0,99,P-GPS,
0.354435226538392,36.9190301425358,15800,2018-04-16 05:09:19,1720.6242005599665,45.00000144,0.35999970196000003,0.78983002527456,1720.6242005599665,45.00000144,0.35999970196000003,0.804024025728768,1684,0.0,99,P-GPS,
0.354435330805218,36.9190300468042,16000,2018-04-16 05:09:19,1721.7242005951666,46.1000014752,0.0,0.7913500253232,1721.7242005951666,46.1000014752,0.35999970196000003,0.804024025728768,1684,0.0,99,P-GPS,
0.354435377861958,36.9190299961037,16100,2018-04-16 05:09:19,1722.2242006111667,46.600001491200004,0.0,0.7915930253309761,1722.2242006111667,46.600001491200004,0.35999970196000003,0.804024025728768,1684,0.0,99,P-GPS,
0.354435463851943,36.9190299728077,16200,2018-04-16 05:09:19,1722.7242006271667,47.100001507200005,0.0,0.79718502550992,1722.7242006271667,47.100001507200005,0.35999970196000003,0.804024025728768,1684,0.0,99,P-GPS,
0.354435507253232,36.9190299343176,16300,2018-04-16 05:09:19,1723.3242006463665,47.70000152640001,0.0,0.7981350255403201,1723.3242006463665,47.70000152640001,0.35999970196000003,0.804024025728768,1684,0.0,99,P-GPS,
0.354435632815221,36.9190299447314,16500,2018-04-16 05:09:20,1724.3242006783667,48.7000015584,0.0,0.809654025908928,1724.3242006783667,48.7000015584,0.35999970196000003,0.809654025908928,1684,0.0,99,P-GPS,
0.354435743383718,36.9190299749693,16600,2018-04-16 05:09:20,1724.8242006943665,49.200001574400005,0.0,0.8213270262824641,1724.8242006943665,49.200001574400005,0.35999970196000003,0.8213270262824641,1684,0.0,99,P-GPS,
0.354435802169325,36.9190299722986,16700,2018-04-16 05:09:20,1725.3242007103668,49.70000159040001,0.0,0.8262470264399041,1725.3242007103668,49.70000159040001,0.35999970196000003,0.8262470264399041,1684,0.0,99,P-GPS,
0.354435884268958,36.9190300001662,16800,2018-04-16 05:09:20,1725.8242007263666,50.20000160640001,0.0,0.8353280267304961,1725.8242007263666,50.20000160640001,0.35999970196000003,0.8353280267304961,1684,0.0,99,P-GPS,
0.354435918912883,36.9190299999462,16900,2018-04-16 05:09:20,1726.4242007455668,50.800001625600004,0.0,0.8383410268269121,1726.4242007455668,50.800001625600004,0.35999970196000003,0.8383410268269121,1684,0.0,98,P-GPS,
0.3544360221143,36.9190300273972,17000,2018-04-16 05:09:20,1726.9242007615667,51.300001641600005,0.0,0.8492670271765441,1726.9242007615667,51.300001641600005,0.35999970196000003,0.8492670271765441,1684,0.0,98,P-GPS,
0.354436077178505,36.9190300260911,17100,2018-04-16 05:09:20,1727.4242007775665,51.8000016576,0.0,0.854026027328832,1727.4242007775665,51.8000016576,0.35999970196000003,0.854026027328832,1684,0.0,98,P-GPS,
0.354436164382902,36.9190300850401,17200,2018-04-16 05:09:20,1727.9242007935668,52.3000016736,0.0,0.86571002770272,1727.9242007935668,52.3000016736,0.35999970196000003,0.86571002770272,1684,0.0,98,P-GPS,
0.354436201134441,36.9190301074357,17300,2018-04-16 05:09:20,1728.5242008127666,52.9000016928,0.0,0.8704690278550081,1728.5242008127666,52.9000016928,0.35999970196000003,0.8704690278550081,1684,0.0,98,P-GPS,
0.354436267946241,36.9190301829461,17400,2018-04-16 05:09:20,1729.0242008287667,53.400001708800005,0.0,0.881476028207232,1729.0242008287667,53.400001708800005,0.35999970196000003,0.881476028207232,1684,0.0,98,P-GPS,
0.354436293574693,36.9190302218731,17500,2018-04-16 05:09:20,1729.5242008447667,53.900001724800006,0.0,0.886377028364064,1729.5242008447667,53.900001724800006,0.35999970196000003,0.886377028364064,1684,0.0,98,P-GPS,
0.3544363960714,36.9190303096949,17600,2018-04-16 05:09:21,1730.0242008607665,54.40000174080001,0.0,0.901368028843776,1730.0242008607665,54.40000174080001,0.35999970196000003,0.901368028843776,1684,0.0,98,P-GPS,
0.354436450086888,36.9190303575262,17700,2018-04-16 05:09:21,1730.5242008767666,54.9000017568,0.0,0.9093740290999681,1730.5242008767666,54.9000017568,0.35999970196000003,0.9093740290999681,1684,0.0,98,P-GPS,
0.354436575573154,36.9190304949689,17900,2018-04-16 05:09:21,1731.5242009087667,55.900001788800004,0.0,0.929774029752768,1731.5242009087667,55.900001788800004,0.35999970196000003,0.929774029752768,1684,0.0,98,P-GPS,
0.354436640274491,36.919030569596,18000,2018-04-16 05:09:21,1732.0242009247665,56.400001804800006,0.0,0.9405560300977921,1732.0242009247665,56.400001804800006,0.35999970196000003,0.9405560300977921,1684,0.0,98,P-GPS,
0.354436661178826,36.9190306058282,18100,2018-04-16 05:09:21,1732.5242009407668,56.90000182080001,0.0,0.944874030235968,1732.5242009407668,56.90000182080001,0.35999970196000003,0.944874030235968,1684,0.0,98,P-GPS,
0.354436756406974,36.9190307031705,18200,2018-04-16 05:09:21,1733.0242009567667,57.4000018368,0.0,0.9598940307166081,1733.0242009567667,57.4000018368,0.35999970196000003,0.9598940307166081,1684,0.0,98,P-GPS,
0.354436800165707,36.9190307532313,18300,2018-04-16 05:09:21,1733.6242009759665,58.000001856000004,0.0,0.9671650309492801,1733.6242009759665,58.000001856000004,0.35999970196000003,0.9671650309492801,1684,0.0,98,P-GPS,
0.354436886026231,36.9190308319583,18400,2018-04-16 05:09:21,1734.1242009919667,58.500001872,0.0,0.980087031362784,1734.1242009919667,58.500001872,0.35999970196000003,0.980087031362784,1684,0.0,98,P-GPS,
0.354436922028685,36.9190308670156,18500,2018-04-16 05:09:22,1734.6242010079666,59.000001888,0.0,0.985647031540704,1734.6242010079666,59.000001888,0.35999970196000003,0.985647031540704,1684,0.0,98,P-GPS,
0.354437002192098,36.9190309356799,18600,2018-04-16 05:09:22,1735.1242010239666,59.500001904,0.0,0.9973780319160961,1735.1242010239666,59.500001904,0.35999970196000003,0.9973780319160961,1684,0.0,98,P-GPS,
0.354437028249644,36.919030964231,18700,2018-04-16 05:09:22,1735.6242010399667,60.00000192,0.0,1.00162003205184,1735.6242010399667,60.00000192,0.35999970196000003,1.00162003205184,1684,0.0,98,P-GPS,
0.354437127569258,36.9190310315988,18800,2018-04-16 05:09:22,1736.1242010559668,60.500001936000004,0.35999970196000003,1.0149300324777601,1736.1242010559668,60.500001936000004,0.35999970196000003,1.0149300324777601,1684,0.0,98,P-GPS,
0.354437170857371,36.9190310556539,18900,2018-04-16 05:09:22,1736.6242010719666,61.000001952,0.35999970196000003,1.02036003265152,1736.6242010719666,61.000001952,0.35999970196000003,1.02036003265152,1684,0.0,98,P-GPS,
0.354437254730379,36.9190311501104,19000,2018-04-16 05:09:22,1737.1242010879669,61.500001968,0.35999970196000003,1.0342000330944001,1737.1242010879669,61.500001968,0.35999970196000003,1.0342000330944001,1684,0.0,98,P-GPS,
0.35443735480559,36.9190313078717,19200,2018-04-16 05:09:22,1738.1242011199665,62.50000200000001,0.35999970196000003,1.05387003372384,1738.1242011199665,62.50000200000001,0.35999970196000003,1.05387003372384,1684,0.0,98,P-GPS,
0.354437377117716,36.9190313603306,19300,2018-04-16 05:09:22,1738.6242011359666,63.000002015999996,0.35999970196000003,1.05947003390304,1738.6242011359666,63.000002015999996,0.35999970196000003,1.05947003390304,1684,0.0,98,P-GPS,
0.354437487528661,36.9190314437544,19400,2018-04-16 05:09:22,1739.1242011519666,63.500002032,0.35999970196000003,1.0748500343952,1739.1242011519666,63.500002032,0.35999970196000003,1.0748500343952,1684,0.0,98,P-GPS,
0.354437633516223,36.919031563904,19600,2018-04-16 05:09:23,1740.1242011839665,64.500002064,0.35999970196000003,1.09587003506784,1740.1242011839665,64.500002064,0.35999970196000003,1.09587003506784,1684,0.0,98,P-GPS,
0.354437666353796,36.9190316065278,19700,2018-04-16 05:09:23,1740.7242012031666,65.10000208320001,0.35999970196000003,1.1017000352544,1740.7242012031666,65.10000208320001,0.35999970196000003,1.1017000352544,1684,0.0,98,P-GPS,
0.354437769967617,36.9190316923476,19800,2018-04-16 05:09:23,1741.2242012191666,65.60000209920001,0.35999970196000003,1.11666003573312,1741.2242012191666,65.60000209920001,0.35999970196000003,1.11666003573312,1684,0.0,98,P-GPS,
0.354437812798136,36.9190317171564,19900,2018-04-16 05:09:23,1741.7242012351667,66.10000211520001,0.35999970196000003,1.1221000359072,1741.7242012351667,66.10000211520001,0.35999970196000003,1.1221000359072,1684,0.0,98,P-GPS,
0.354437899588502,36.9190318166667,20000,2018-04-16 05:09:23,1742.2242012511667,66.6000021312,0.35999970196000003,1.13657003637024,1742.2242012511667,66.6000021312,0.35999970196000003,1.13657003637024,1684,0.0,98,P-GPS,
0.354437924135667,36.9190318558308,20100,2018-04-16 05:09:23,1742.7242012671666,67.1000021472,0.503999582744,1.14144003652608,1742.7242012671666,67.1000021472,0.503999582744,1.14144003652608,1684,0.0,98,P-GPS,
0.35443799372315,36.9190319412818,20200,2018-04-16 05:09:23,1743.2242012831666,67.6000021632,0.503999582744,1.1534500369104002,1743.2242012831666,67.6000021632,0.503999582744,1.1534500369104002,1684,0.0,98,P-GPS,
0.35443799996579,36.9190319619623,20300,2018-04-16 05:09:23,1743.7242012991667,68.1000021792,0.503999582744,1.1554500369744,1743.7242012991667,68.1000021792,0.503999582744,1.1554500369744,1684,0.0,98,P-GPS,
0.354438059833905,36.9190320522739,20500,2018-04-16 05:09:24,1744.6242013279666,69.000002208,0.503999582744,1.16698003734336,1744.6242013279666,69.000002208,0.503999582744,1.16698003734336,1684,0.0,98,P-GPS,
0.354438120223936,36.919032123649,20600,2018-04-16 05:09:24,1745.1242013439664,69.500002224,0.503999582744,1.17722003767104,1745.1242013439664,69.500002224,0.503999582744,1.17722003767104,1684,-1.7,98,P-GPS,
0.35443811862969,36.919032140167,20700,2018-04-16 05:09:24,1745.6242013599667,70.00000224,0.503999582744,1.1782600377043202,1745.6242013599667,70.00000224,0.503999582744,1.1782600377043202,1684,-7.3,98,P-GPS,
0.354438217226274,36.9190322212445,20800,2018-04-16 05:09:24,1746.1242013759665,70.500002256,0.503999582744,1.19246003815872,1746.1242013759665,70.500002256,0.503999582744,1.19246003815872,1684,-12.9,98,P-GPS,
0.354438251631225,36.9190322442943,20900,2018-04-16 05:09:24,1746.7242013951668,71.1000022752,0.503999582744,1.1970400383052802,1746.7242013951668,71.1000022752,0.503999582744,1.1970400383052802,1684,-18.6,98,P-GPS,
0.354438357003765,36.919032326534,21000,2018-04-16 05:09:24,1747.2242014111666,71.6000022912,0.503999582744,1.2119000387808,1747.2242014111666,71.6000022912,0.503999582744,1.2119000387808,1684,-24.2,98,P-GPS,
0.354438394295946,36.9190323518604,21100,2018-04-16 05:09:24,1747.7242014271667,72.1000023072,0.503999582744,1.2168800389401602,1747.7242014271667,72.1000023072,0.503999582744,1.2168800389401602,1684,-29.9,98,P-GPS,
0.354438465598181,36.9190324352639,21200,2018-04-16 05:09:24,1748.2242014431667,72.6000023232,0.503999582744,1.22892003932544,1748.2242014431667,72.6000023232,0.503999582744,1.22892003932544,1684,-35.5,98,P-GPS,
0.354438471515946,36.9190324587034,21300,2018-04-16 05:09:24,1748.7242014591668,73.1000023392,0.503999582744,1.2310900393948803,1748.7242014591668,73.1000023392,0.503999582744,1.2310900393948803,1684,-41.1,98,P-GPS,
0.35443855823466,36.9190325311175,21400,2018-04-16 05:09:24,1749.2242014751666,73.6000023552,0.503999582744,1.2436600397971203,1749.2242014751666,73.6000023552,0.503999582744,1.2436600397971203,1684,-46.8,98,P-GPS,
0.354438584381771,36.9190325514126,21500,2018-04-16 05:09:24,1749.7242014911665,74.1000023712,0.503999582744,1.24733003991456,1749.7242014911665,74.1000023712,0.503999582744,1.24733003991456,1684,-46.8,98,P-GPS,
0.354438639454933,36.9190326310047,21600,2018-04-16 05:09:25,1750.2242015071668,74.6000023872,0.503999582744,1.25772004024704,1750.2242015071668,74.6000023872,0.503999582744,1.25772004024704,1684,-52.5,98,P-GPS,
0.354438620593481,36.919032651205,21700,2018-04-16 05:09:25,1750.7242015231666,75.10000240320001,0.503999582744,1.25756004024192,1750.7242015231666,75.10000240320001,0.503999582744,1.25772004024704,1684,-58.1,98,P-GPS,
0.354438704868714,36.9190327588777,21900,2018-04-16 05:09:25,1751.7242015551667,76.1000024352,0.503999582744,1.27246004071872,1751.7242015551667,76.1000024352,0.503999582744,1.27246004071872,1684,-69.4,98,P-GPS,
0.354438756557969,36.9190328425996,22000,2018-04-16 05:09:25,1752.2242015711668,76.6000024512,0.503999582744,1.28287004105184,1752.2242015711668,76.6000024512,0.503999582744,1.28287004105184,1684,-69.4,98,P-GPS,
0.354438742027364,36.9190328665691,22100,2018-04-16 05:09:25,1752.7242015871666,77.1000024672,0.503999582744,1.28338004106816,1752.7242015871666,77.1000024672,0.503999582744,1.28338004106816,1684,-80.7,98,P-GPS,
0.354438807013678,36.9190329086575,22300,2018-04-16 05:09:25,1753.7242016191667,78.1000024992,0.503999582744,1.2919100413411202,1753.7242016191667,78.1000024992,0.503999582744,1.2919100413411202,1684,-89.9,98,P-GPS,
0.354438861205852,36.9190329671997,22400,2018-04-16 05:09:25,1754.2242016351665,78.6000025152,0.503999582744,1.30072004162304,1754.2242016351665,78.6000025152,0.503999582744,1.30072004162304,1684,-89.9,98,P-GPS,
0.354438845616757,36.9190329704357,22500,2018-04-16 05:09:26,1754.7242016511666,79.1000025312,0.503999582744,1.29964004158848,1754.7242016511666,79.1000025312,0.503999582744,1.30072004162304,1684,-89.9,98,P-GPS,
0.354438908100154,36.9190330628521,22600,2018-04-16 05:09:26,1755.2242016671667,79.60000254719999,0.503999582744,1.3116200419718402,1755.2242016671667,79.60000254719999,0.503999582744,1.3116200419718402,1684,-89.9,98,P-GPS,
0.354438982050238,36.9190331807181,22800,2018-04-16 05:09:26,1756.2242016991665,80.6000025792,0.503999582744,1.3264200424454402,1756.2242016991665,80.6000025792,0.503999582744,1.3264200424454402,1684,-90.0,98,P-GPS,
0.354438993774221,36.9190332066606,22900,2018-04-16 05:09:26,1756.7242017151668,81.1000025952,0.503999582744,1.3293000425376003,1756.7242017151668,81.1000025952,0.503999582744,1.3293000425376003,1684,-90.0,98,P-GPS,
0.35443908873449,36.919033292277,23000,2018-04-16 05:09:26,1757.3242017343666,81.7000026144,0.503999582744,1.3435100429923201,1757.3242017343666,81.7000026144,0.503999582744,1.3435100429923201,1684,-90.0,98,P-GPS,
0.354439111310423,36.9190333120695,23100,2018-04-16 05:09:26,1757.8242017503667,82.20000263040001,0.503999582744,1.3468500430992,1757.8242017503667,82.20000263040001,0.503999582744,1.3468500430992,1684,-89.9,98,P-GPS,
0.354439201102825,36.9190333867035,23200,2018-04-16 05:09:26,1758.3242017663667,82.70000264640001,0.503999582744,1.35983004351456,1758.3242017663667,82.70000264640001,0.503999582744,1.35983004351456,1684,-90.0,98,P-GPS,
0.354439226793158,36.919033403874,23300,2018-04-16 05:09:26,1758.8242017823666,83.20000266240001,0.503999582744,1.3632400436236802,1758.8242017823666,83.20000266240001,0.503999582744,1.3632400436236802,1684,-89.9,98,P-GPS,
0.35443932034238,36.9190334777817,23400,2018-04-16 05:09:26,1759.3242017983669,83.70000267840001,0.503999582744,1.37648004404736,1759.3242017983669,83.70000267840001,0.503999582744,1.37648004404736,1684,-90.0,98,P-GPS,
0.354439452773959,36.9190335518103,23600,2018-04-16 05:09:27,1760.3242018303665,84.70000271040001,0.503999582744,1.393000044576,1760.3242018303665,84.70000271040001,0.503999582744,1.393000044576,1684,-89.9,98,P-GPS,
0.354439496351121,36.9190335604753,23700,2018-04-16 05:09:27,1760.8242018463666,85.2000027264,0.503999582744,1.3973000447136,1760.8242018463666,85.2000027264,0.503999582744,1.3973000447136,1684,-90.0,98,P-GPS,
0.354439598365809,36.9190336012159,23800,2018-04-16 05:09:27,1761.3242018623666,85.7000027424,0.503999582744,1.4088500450832,1761.3242018623666,85.7000027424,0.503999582744,1.4088500450832,1684,-90.0,98,P-GPS,
0.354439624872806,36.9190335860046,23900,2018-04-16 05:09:27,1761.8242018783667,86.2000027584,0.503999582744,1.40999004511968,1761.8242018783667,86.2000027584,0.503999582744,1.40999004511968,1684,-89.9,98,P-GPS,
0.354439716559089,36.919033641851,24000,2018-04-16 05:09:27,1762.3242018943665,86.7000027744,0.503999582744,1.42177004549664,1762.3242018943665,86.7000027744,0.503999582744,1.42177004549664,1684,-89.9,98,P-GPS,
0.354439835183092,36.9190337123482,24200,2018-04-16 05:09:27,1763.3242019263666,87.70000280640001,0.503999582744,1.4369000459808,1763.3242019263666,87.70000280640001,0.503999582744,1.4369000459808,1684,-89.9,98,P-GPS,
0.354439858688867,36.9190337172142,24300,2018-04-16 05:09:27,1763.7242019391667,88.10000281920001,0.503999582744,1.4392400460556802,1763.7242019391667,88.10000281920001,0.503999582744,1.4392400460556802,1684,-89.9,98,P-GPS,
0.354439973965603,36.9190337602914,24400,2018-04-16 05:09:27,1764.2242019551666,88.60000283520002,0.503999582744,1.4521300464681601,1764.2242019551666,88.60000283520002,0.503999582744,1.4521300464681601,1684,-89.9,98,P-GPS,
0.354440026958427,36.9190337485237,24500,2018-04-16 05:09:28,1764.7242019711668,89.1000028512,0.503999582744,1.4558000465856,1764.7242019711668,89.1000028512,0.503999582744,1.4558000465856,1449,-90.0,98,P-GPS,
0.354440134742693,36.9190338121214,24600,2018-04-16 05:09:28,1765.2242019871667,89.6000028672,0.503999582744,1.46953004702496,1765.2242019871667,89.6000028672,0.503999582744,1.46953004702496,993,-90.0,98,P-GPS,
0.35444016480784,36.9190338247525,24700,2018-04-16 05:09:28,1765.7242020031665,90.1000028832,0.503999582744,1.473000047136,1765.7242020031665,90.1000028832,0.503999582744,1.473000047136,1024,-90.0,98,P-GPS,
0.354440290228154,36.9190338886295,24800,2018-04-16 05:09:28,1766.2242020191668,90.6000028992,0.503999582744,1.48826004762432,1766.2242020191668,90.6000028992,0.503999582744,1.48826004762432,1024,-90.0,98,P-GPS,
0.354440342477594,36.9190338844766,24900,2018-04-16 05:09:28,1766.6242020319667,91.00000291200001,0.503999582744,1.4924500477584002,1766.6242020319667,91.00000291200001,0.503999582744,1.4924500477584002,1024,-89.9,98,P-GPS,
0.354440458107703,36.9190339507037,25000,2018-04-16 05:09:28,1766.9242020415666,91.3000029216,0.503999582744,1.5070600482259202,1766.9242020415666,91.3000029216,0.503999582744,1.5070600482259202,1024,-90.0,98,P-GPS,
0.35444051615766,36.9190339827086,25100,2018-04-16 05:09:28,1767.2242020511667,91.60000293120001,0.503999582744,1.5143000484576,1767.2242020511667,91.60000293120001,0.503999582744,1.5143000484576,1024,-90.0,98,P-GPS,
0.354440652154718,36.9190340576676,25200,2018-04-16 05:09:28,1767.4242020575668,91.8000029376,0.503999582744,1.5312900490012802,1767.4242020575668,91.8000029376,0.503999582744,1.5312900490012802,1024,-90.0,98,P-GPS,
0.354440743110643,36.9190340915354,25300,2018-04-16 05:09:28,1767.5242020607666,91.9000029408,0.35999970196000003,1.54151004932832,1767.5242020607666,91.9000029408,0.503999582744,1.54151004932832,1024,-90.0,98,P-GPS,
0.35444089038549,36.9190341914365,25400,2018-04-16 05:09:28,1767.6242020639665,92.00000294400002,0.35999970196000003,1.56123004995936,1767.6242020639665,92.00000294400002,0.503999582744,1.56123004995936,1024,-90.0,98,P-GPS,
0.35444094206416,36.9190342215325,25500,2018-04-16 05:09:28,1767.6242020639665,92.00000294400002,0.35999970196000003,1.5678000501696,1767.6242020639665,92.00000294400002,0.503999582744,1.5678000501696,1024,-90.0,98,P-GPS,
0.354440994691399,36.9190342865615,25600,2018-04-16 05:09:29,1767.7242020671665,92.10000294720001,0.35999970196000003,1.5769000504608002,1767.7242020671665,92.10000294720001,0.503999582744,1.5769000504608002,908,-90.0,98,P-GPS,
0.354440989762913,36.9190342817159,25700,2018-04-16 05:09:29,1767.7242020671665,92.10000294720001,0.7199994039200001,1.57613005043616,1767.7242020671665,92.10000294720001,0.7199994039200001,1.5769000504608002,891,-89.9,98,P-GPS,
0.354440995931459,36.9190342713064,25800,2018-04-16 05:09:29,1767.7242020671665,92.10000294720001,0.7199994039200001,1.57594005043008,1767.7242020671665,92.10000294720001,0.7199994039200001,1.5769000504608002,890,-90.0,98,P-GPS,
0.354440970385244,36.9190341920146,25900,2018-04-16 05:09:29,1767.7242020671665,92.10000294720001,0.7199994039200001,1.56818005018176,1767.7242020671665,92.10000294720001,0.7199994039200001,1.5769000504608002,893,-90.0,98,P-GPS,
0.354440978485124,36.9190340932687,26000,2018-04-16 05:09:29,1767.7242020671665,92.10000294720001,0.7199994039200001,1.56202004998464,1767.7242020671665,92.10000294720001,0.7199994039200001,1.5769000504608002,883,-90.0,98,P-GPS,
0.354440958649862,36.9190339199493,26100,2018-04-16 05:09:29,1767.7242020671665,92.10000294720001,0.7199994039200001,1.54836004954752,1767.7242020671665,92.10000294720001,0.7199994039200001,1.5769000504608002,891,-89.9,98,P-GPS,
0.354441010087523,36.9190337614268,26200,2018-04-16 05:09:29,1767.6242020639665,92.00000294400002,0.7919993443119999,1.54211004934752,1767.7242020671665,92.10000294720001,0.7919993443119999,1.5769000504608002,894,-90.0,98,P-GPS,
0.354441038061748,36.9190335425607,26300,2018-04-16 05:09:29,1767.6242020639665,92.00000294400002,0.7919993443119999,1.5299600489587202,1767.7242020671665,92.10000294720001,0.7919993443119999,1.5769000504608002,895,-89.9,98,P-GPS,
0.354441161874788,36.9190333544186,26400,2018-04-16 05:09:29,1767.6242020639665,92.00000294400002,0.503999582744,1.5287600489203201,1767.7242020671665,92.10000294720001,0.7919993443119999,1.5769000504608002,897,-90.0,98,P-GPS,
0.354441248527549,36.9190331015601,26500,2018-04-16 05:09:29,1767.6242020639665,92.00000294400002,0.503999582744,1.52048004865536,1767.7242020671665,92.10000294720001,0.7919993443119999,1.5769000504608002,893,-90.0,98,P-GPS,
0.354441447538062,36.9190328974814,26600,2018-04-16 05:09:30,1767.5242020607666,91.9000029408,0.503999582744,1.52616004883712,1767.7242020671665,92.10000294720001,0.7919993443119999,1.5769000504608002,899,-90.0,98,P-GPS,
0.354441819868754,36.9190324292524,26800,2018-04-16 05:09:30,1767.5242020607666,91.9000029408,0.7919993443119999,1.53352004907264,1767.7242020671665,92.10000294720001,0.7919993443119999,1.5769000504608002,897,-90.0,98,P-GPS,
0.354441987658738,36.9190321668788,26900,2018-04-16 05:09:30,1767.4242020575668,91.8000029376,0.7919993443119999,1.5349300491177602,1767.7242020671665,92.10000294720001,0.7919993443119999,1.5769000504608002,897,-89.9,98,P-GPS,
0.354442288762919,36.9190320136264,27000,2018-04-16 05:09:30,1767.4242020575668,91.8000029376,0.7919993443119999,1.5559400497900802,1767.7242020671665,92.10000294720001,0.7919993443119999,1.5769000504608002,902,-90.0,98,P-GPS,
0.354442500957314,36.9190317794961,27100,2018-04-16 05:09:30,1767.3242020543664,91.7000029344,0.7919993443119999,1.5646500500688,1767.7242020671665,92.10000294720001,0.7919993443119999,1.5769000504608002,899,-90.0,98,P-GPS,
0.354442813271703,36.9190315964111,27200,2018-04-16 05:09:30,1767.3242020543664,91.7000029344,0.7919993443119999,1.5866000507712001,1767.7242020671665,92.10000294720001,0.7919993443119999,1.5866000507712001,901,-90.0,98,P-GPS,
0.354443032936584,36.9190313425221,27300,2018-04-16 05:09:30,1767.3242020543664,91.7000029344,0.7199994039200001,1.5966000510912,1767.7242020671665,92.10000294720001,0.7919993443119999,1.5966000510912,905,-90.0,98,P-GPS,
0.354443377810083,36.9190311799676,27400,2018-04-16 05:09:30,1767.2242020511667,91.60000293120001,0.7199994039200001,1.62422005197504,1767.7242020671665,92.10000294720001,0.7919993443119999,1.62422005197504,911,-90.0,98,P-GPS,
0.354443617974632,36.9190309530923,27500,2018-04-16 05:09:30,1767.2242020511667,91.60000293120001,0.7199994039200001,1.6389800524473601,1767.7242020671665,92.10000294720001,0.7919993443119999,1.6389800524473601,891,-90.0,98,P-GPS,
0.354443936793026,36.9190307889095,27600,2018-04-16 05:09:31,1767.1242020479667,91.50000292800001,0.7199994039200001,1.6651000532832,1767.7242020671665,92.10000294720001,0.7919993443119999,1.6651000532832,904,-90.0,98,P-GPS,
0.354444140809375,36.9190305608148,27700,2018-04-16 05:09:31,1767.1242020479667,91.50000292800001,0.7919993443119999,1.67732005367424,1767.7242020671665,92.10000294720001,0.7919993443119999,1.67732005367424,948,-90.0,98,P-GPS,
0.35444445601588,36.9190304172263,27800,2018-04-16 05:09:31,1767.1242020479667,91.50000292800001,0.7919993443119999,1.7049100545571203,1767.7242020671665,92.10000294720001,0.7919993443119999,1.7049100545571203,1024,-90.0,98,P-GPS,
0.354444659934523,36.9190302160243,27900,2018-04-16 05:09:31,1767.1242020479667,91.50000292800001,0.7919993443119999,1.7191500550128,1767.7242020671665,92.10000294720001,0.7919993443119999,1.7191500550128,1024,-90.0,98,P-GPS,
0.354445022873979,36.9190300865759,28000,2018-04-16 05:09:31,1767.0242020447668,91.4000029248,0.7919993443119999,1.7531200560998401,1767.7242020671665,92.10000294720001,0.7919993443119999,1.7531200560998401,1024,-90.0,98,P-GPS,
0.354445250120082,36.9190298918838,28100,2018-04-16 05:09:31,1767.0242020447668,91.4000029248,0.7919993443119999,1.7709400566700801,1767.7242020671665,92.10000294720001,0.7919993443119999,1.7709400566700801,1024,-90.0,98,P-GPS,
0.354445565320073,36.9190297934489,28200,2018-04-16 05:09:31,1767.0242020447668,91.4000029248,0.7919993443119999,1.80152005764864,1767.7242020671665,92.10000294720001,0.7919993443119999,1.80152005764864,1024,-90.0,98,P-GPS,
0.354445746176692,36.9190296400177,28300,2018-04-16 05:09:31,1767.0242020447668,91.4000029248,0.7919993443119999,1.81631005812192,1767.7242020671665,92.10000294720001,0.7919993443119999,1.81631005812192,1024,-90.0,98,P-GPS,
0.354446026531239,36.9190295376896,28400,2018-04-16 05:09:31,1766.9242020415666,91.3000029216,0.7919993443119999,1.843500058992,1767.7242020671665,92.10000294720001,0.7919993443119999,1.843500058992,915,-90.0,98,P-GPS,
0.354446449141768,36.9190292984316,28600,2018-04-16 05:09:32,1766.9242020415666,91.3000029216,0.7919993443119999,1.88262006024384,1767.7242020671665,92.10000294720001,0.7919993443119999,1.88262006024384,830,-90.0,98,P-GPS,
0.354446589570636,36.9190291728968,28700,2018-04-16 05:09:32,1766.8242020383666,91.2000029184,0.503999582744,1.8946300606281603,1767.7242020671665,92.10000294720001,0.7919993443119999,1.8946300606281603,809,-90.0,98,P-GPS,
0.354446826725821,36.9190291046104,28800,2018-04-16 05:09:32,1766.8242020383666,91.2000029184,0.503999582744,1.91867006139744,1767.7242020671665,92.10000294720001,0.7919993443119999,1.91867006139744,816,-90.0,98,P-GPS,
0.354446937795472,36.9190289891234,28900,2018-04-16 05:09:32,1766.7242020351666,91.10000291520001,0.503999582744,1.92799006169568,1767.7242020671665,92.10000294720001,0.7919993443119999,1.92799006169568,821,-90.0,98,P-GPS,
0.354447112393981,36.9190289683588,29000,2018-04-16 05:09:32,1766.6242020319667,91.00000291200001,0.7919993443119999,1.9465000622880002,1767.7242020671665,92.10000294720001,0.7919993443119999,1.9465000622880002,827,-90.0,98,P-GPS,
0.35444716748587,36.9190289100465,29100,2018-04-16 05:09:32,1766.6242020319667,91.00000291200001,0.7919993443119999,1.95116006243712,1767.7242020671665,92.10000294720001,0.7919993443119999,1.95116006243712,848,-90.0,98,P-GPS,
0.354447306548473,36.9190289334865,29200,2018-04-16 05:09:32,1766.5242020287665,90.9000029088,0.7919993443119999,1.9668300629385602,1767.7242020671665,92.10000294720001,0.7919993443119999,1.9668300629385602,848,-90.0,98,P-GPS,
0.354447328262145,36.9190289033699,29300,2018-04-16 05:09:32,1766.4242020255667,90.8000029056,0.7919993443119999,1.96852006299264,1767.7242020671665,92.10000294720001,0.7919993443119999,1.96852006299264,949,-90.0,98,P-GPS,
0.354447424236121,36.9190288955081,29500,2018-04-16 05:09:33,1766.3242020223668,90.7000029024,0.7919993443119999,1.97881006332192,1767.7242020671665,92.10000294720001,0.7919993443119999,1.97881006332192,1024,-90.0,98,P-GPS,
0.354447521327209,36.9190289308421,29600,2018-04-16 05:09:33,1766.3242020223668,90.7000029024,1.151999046272,1.9901700636854402,1767.7242020671665,92.10000294720001,1.151999046272,1.9901700636854402,1024,-90.0,98,P-GPS,
0.354447501027026,36.9190289136176,29700,2018-04-16 05:09:33,1766.3242020223668,90.7000029024,1.151999046272,1.98757006360224,1767.7242020671665,92.10000294720001,1.151999046272,1.9901700636854402,1024,-90.0,98,P-GPS,
0.35444753881344,36.9190290124705,29900,2018-04-16 05:09:33,1766.2242020191668,90.6000028992,1.151999046272,1.9939100638051201,1767.7242020671665,92.10000294720001,1.151999046272,1.9939100638051201,1024,-90.0,98,P-GPS,
0.354447619808988,36.9190291117388,30000,2018-04-16 05:09:33,1766.2242020191668,90.6000028992,1.151999046272,2.0050000641600003,1767.7242020671665,92.10000294720001,1.151999046272,2.0050000641600003,1024,-89.7,98,P-GPS,
0.354447593097621,36.9190291389244,30100,2018-04-16 05:09:33,1766.2242020191668,90.6000028992,1.151999046272,2.00273006408736,1767.7242020671665,92.10000294720001,1.151999046272,2.0050000641600003,1024,-88.1,98,P-GPS,
0.35444766094674,36.9190292730867,30200,2018-04-16 05:09:33,1766.2242020191668,90.6000028992,1.151999046272,2.0132900644252802,1767.7242020671665,92.10000294720001,1.151999046272,2.0132900644252802,1024,-86.0,98,P-GPS,
0.354447620987981,36.91902933224,30300,2018-04-16 05:09:33,1766.2242020191668,90.6000028992,1.151999046272,2.0104000643328,1767.7242020671665,92.10000294720001,1.151999046272,2.0132900644252802,1024,-83.7,98,P-GPS,
0.354447709808202,36.9190294948324,30400,2018-04-16 05:09:33,1766.2242020191668,90.6000028992,0.7919993443119999,2.02408006477056,1767.7242020671665,92.10000294720001,1.151999046272,2.02408006477056,1024,-81.2,98,P-GPS,
0.35444769127651,36.9190295788172,30500,2018-04-16 05:09:33,1766.2242020191668,90.6000028992,0.7919993443119999,2.02422006477504,1767.7242020671665,92.10000294720001,1.151999046272,2.02422006477504,1024,-78.7,98,P-GPS,
0.354447767725441,36.9190297798334,30600,2018-04-16 05:09:34,1766.2242020191668,90.6000028992,0.7919993443119999,2.03778006520896,1767.7242020671665,92.10000294720001,1.151999046272,2.03778006520896,1024,-76.0,98,P-GPS,
0.354447733611168,36.9190298931118,30700,2018-04-16 05:09:34,1766.2242020191668,90.6000028992,0.7919993443119999,2.0371900651900803,1767.7242020671665,92.10000294720001,1.151999046272,2.03778006520896,1024,-73.5,98,P-GPS,
0.354447800370858,36.9190301203736,30800,2018-04-16 05:09:34,1766.2242020191668,90.6000028992,0.7919993443119999,2.05078006562496,1767.7242020671665,92.10000294720001,1.151999046272,2.05078006562496,1024,-73.5,98,P-GPS,
0.354447752486463,36.9190302414562,30900,2018-04-16 05:09:34,1766.2242020191668,90.6000028992,0.7919993443119999,2.04917006557344,1767.7242020671665,92.10000294720001,1.151999046272,2.05078006562496,1024,-70.8,98,P-GPS,
0.354447826331512,36.9190304509576,31000,2018-04-16 05:09:34,1766.2242020191668,90.6000028992,0.7919993443119999,2.0633800660281603,1767.7242020671665,92.10000294720001,1.151999046272,2.0633800660281603,1024,-68.2,98,P-GPS,
0.354447806940001,36.9190305709551,31100,2018-04-16 05:09:34,1766.3242020223668,90.7000029024,0.7919993443119999,2.06502006608064,1767.7242020671665,92.10000294720001,1.151999046272,2.06502006608064,1024,-65.3,98,P-GPS,
0.354447881960788,36.9190307785583,31200,2018-04-16 05:09:34,1766.3242020223668,90.7000029024,0.7919993443119999,2.07961006654752,1767.7242020671665,92.10000294720001,1.151999046272,2.07961006654752,1024,-62.2,98,P-GPS,
0.354447848784498,36.9190308924582,31300,2018-04-16 05:09:34,1766.3242020223668,90.7000029024,0.7919993443119999,2.0798000665536,1767.7242020671665,92.10000294720001,1.151999046272,2.0798000665536,1024,-59.1,98,P-GPS,
0.354447907478505,36.9190311228477,31400,2018-04-16 05:09:34,1766.3242020223668,90.7000029024,0.7919993443119999,2.093750067,1767.7242020671665,92.10000294720001,1.151999046272,2.093750067,1024,-56.0,98,P-GPS,
0.354447859857917,36.9190312569319,31500,2018-04-16 05:09:35,1766.3242020223668,90.7000029024,0.7919993443119999,2.0933500669872003,1767.7242020671665,92.10000294720001,1.151999046272,2.093750067,1024,-52.9,98,P-GPS,
