latitude,longitude,time_millisecond,datetime_utc,altitude_m,ascent_m,speed_kph,distance_m,max_altitude_m,max_ascent_m,max_speed_kph,max_distance_m,rc_throttle,gimbal_pitch_degrees,battery_percent,flycState,message
0.318045825061427,36.886931090957,100,2017-11-11 05:39:20,1779.4475667423108,0.0,0.0,0.0,1779.4475667423108,0.0,0.0,0.0,364,-12.0,99,Motors_Started,
0.318045824066854,36.8869310965749,200,2017-11-11 05:39:20,1779.4475667423108,0.0,0.0,0.0006344530203024961,1779.4475667423108,0.0,0.0,0.0006344530203024961,364,-12.0,99,Motors_Started,
0.318045825180914,36.8869311178133,300,2017-11-11 05:39:20,1779.4475667423108,0.0,0.0,0.00298657009557024,1779.4475667423108,0.0,0.0,0.00298657009557024,364,-12.0,99,Motors_Started,
0.318045824877616,36.8869311332138,400,2017-11-11 05:39:20,1779.4475667423108,0.0,0.0,0.00469918015037376,1779.4475667423108,0.0,0.0,0.00469918015037376,364,-12.0,99,Motors_Started,
0.318045826314311,36.8869311479922,500,2017-11-11 05:39:20,1779.4475667423108,0.0,0.0,0.00634409020301088,1779.4475667423108,0.0,0.0,0.00634409020301088,364,-12.0,99,Motors_Started,
0.318045825775499,36.8869311539918,600,2017-11-11 05:39:21,1779.4475667423108,0.0,0.0,0.00701019022432608,1779.4475667423108,0.0,0.0,0.00701019022432608,364,-12.0,99,Motors_Started,
0.318045826529265,36.8869311632642,700,2017-11-11 05:39:21,1779.4475667423108,0.0,0.0,0.008042530257360962,1779.4475667423108,0.0,0.0,0.008042530257360962,364,-12.0,99,Motors_Started,
0.318045825132671,36.8869311364277,800,2017-11-11 05:39:21,1779.4475667423108,0.0,0.0,0.00505654016180928,1779.4475667423108,0.0,0.0,0.008042530257360962,364,-12.0,99,Motors_Started,
0.318045824833648,36.8869311111157,900,2017-11-11 05:39:21,1779.4475667423108,0.0,0.0,0.00224188007174016,1779.4475667423108,0.0,0.0,0.008042530257360962,364,-12.0,99,Motors_Started,
0.318045823073911,36.8869310783674,1000,2017-11-11 05:39:21,1779.4475667423108,0.0,0.0,0.00141736004535552,1779.4475667423108,0.0,0.0,0.008042530257360962,457,-12.0,99,Motors_Started,Setting new Return-To-Home altitude to 30m (98 ft). Setting new Maximum Flight Altitude to 150m (492 ft)
0.318045821216467,36.8869310638818,1100,2017-11-11 05:39:21,1779.4475667423108,0.0,0.0,0.0030411000973152,1779.4475667423108,0.0,0.0,0.008042530257360962,457,-12.0,99,Motors_Started,
0.318045819744964,36.8869310434827,1200,2017-11-11 05:39:21,1779.4475667423108,0.0,0.0,0.0053123501699952,1779.4475667423108,0.0,0.0,0.008042530257360962,1024,-12.0,99,Motors_Started,
0.31804582599025,36.8869310330573,1300,2017-11-11 05:39:21,1779.4475667423108,0.0,0.0,0.006439530206064961,1779.4475667423108,0.0,0.0,0.008042530257360962,1024,-12.0,99,Motors_Started,
0.318045820302503,36.8869310512434,1400,2017-11-11 05:39:21,1779.4475667423108,0.0,0.0,0.00444792014233344,1779.4475667423108,0.0,0.0,0.008042530257360962,1024,-12.0,99,Motors_Started,
0.318045821988349,36.8869310782357,1500,2017-11-11 05:39:21,1779.4475667423108,0.0,0.0,0.0014553600465715202,1779.4475667423108,0.0,0.0,0.008042530257360962,1024,-12.0,99,Motors_Started,
0.318045824235195,36.8869311021388,1600,2017-11-11 05:39:22,1779.4475667423108,0.0,0.0,0.0012468500398992001,1779.4475667423108,0.0,0.0,0.008042530257360962,1024,-12.0,99,Assisted_Takeoff,
0.318045829590536,36.8869311203817,1700,2017-11-11 05:39:22,1779.4475667423108,0.0,0.0,0.0033106901059420804,1779.4475667423108,0.0,0.0,0.008042530257360962,1024,-12.0,99,Assisted_Takeoff,
0.318045827382774,36.8869311350814,1800,2017-11-11 05:39:22,1779.4475667423108,0.0,0.0,0.00491361015723552,1779.4475667423108,0.0,0.0,0.008042530257360962,1024,-12.0,99,Assisted_Takeoff,
0.318045829979124,36.8869311486613,1900,2017-11-11 05:39:22,1779.4475667423108,0.0,0.0,0.00644023020608736,1779.4475667423108,0.0,0.0,0.008042530257360962,1024,-12.0,99,Assisted_Takeoff,
0.318045829948998,36.886931154844,2000,2017-11-11 05:39:22,1779.4475667423108,0.0,0.0,0.007125270228008641,1779.4475667423108,0.0,0.0,0.008042530257360962,1024,-12.0,99,Assisted_Takeoff,
0.318045830964943,36.8869311653765,2100,2017-11-11 05:39:22,1779.4475667423108,0.0,0.0,0.00830177026565664,1779.4475667423108,0.0,0.0,0.00830177026565664,1024,-12.0,99,Assisted_Takeoff,
0.318045831221627,36.8869311661141,2200,2017-11-11 05:39:22,1779.4475667423108,0.0,0.0,0.00838582026834624,1779.4475667423108,0.0,0.0,0.00838582026834624,1024,-12.0,99,Assisted_Takeoff,
0.318045831698964,36.886931172801,2300,2017-11-11 05:39:22,1779.4475667423108,0.0,0.0,0.00913129029220128,1779.4475667423108,0.0,0.0,0.00913129029220128,1024,-12.0,99,Assisted_Takeoff,
0.318045858881969,36.8869311700298,2400,2017-11-11 05:39:22,1779.4475667423108,0.0,0.0,0.00956381030604192,1779.4475667423108,0.0,0.0,0.00956381030604192,1024,-12.0,99,Assisted_Takeoff,
0.318045888983349,36.8869311747157,2500,2017-11-11 05:39:22,1779.4475667423108,0.0,0.0,0.011717000374944001,1779.4475667423108,0.0,0.0,0.011717000374944001,1024,-12.0,99,Assisted_Takeoff,
0.318045916037707,36.8869311712941,2600,2017-11-11 05:39:23,1779.4475667423108,0.0,0.0,0.013497000431904,1779.4475667423108,0.0,0.0,0.013497000431904,1024,-12.0,99,Assisted_Takeoff,
0.318045949890412,36.886931169336,2800,2017-11-11 05:39:23,1779.4475667423108,0.0,0.0,0.0163912005245184,1779.4475667423108,0.0,0.0,0.0163912005245184,1024,-12.0,99,Assisted_Takeoff,
0.318045962289792,36.8869311729755,2900,2017-11-11 05:39:23,1779.4475667423108,0.0,0.0,0.017778500568912,1779.4475667423108,0.0,0.0,0.017778500568912,1024,-12.0,99,Assisted_Takeoff,
0.318045967948024,36.88693116797,3000,2017-11-11 05:39:23,1779.4475667423108,0.0,0.0,0.018050800577625602,1779.4475667423108,0.0,0.0,0.018050800577625602,1024,-12.0,99,Assisted_Takeoff,
0.318045975220248,36.8869311711485,3100,2017-11-11 05:39:23,1779.4475667423108,0.0,0.0,0.0189306006057792,1779.4475667423108,0.0,0.0,0.0189306006057792,1024,-12.0,99,Assisted_Takeoff,
0.318045974750238,36.8869311664727,3200,2017-11-11 05:39:23,1779.4475667423108,0.0,0.0,0.0186446005966272,1779.4475667423108,0.0,0.0,0.0189306006057792,1024,-12.0,99,Assisted_Takeoff,
0.318045977425364,36.8869311694404,3300,2017-11-11 05:39:23,1779.4475667423108,0.0,0.0,0.019059500609904,1779.4475667423108,0.0,0.0,0.019059500609904,1024,-12.0,99,Assisted_Takeoff,
0.318045973163116,36.8869311384752,3400,2017-11-11 05:39:23,1779.4475667423108,0.0,0.0,0.0172968005534976,1779.4475667423108,0.0,0.0,0.019059500609904,1024,-12.0,99,Assisted_Takeoff,
0.318045973401886,36.8869311111548,3500,2017-11-11 05:39:23,1779.4475667423108,0.0,0.0,0.0166486005327552,1779.4475667423108,0.0,0.0,0.019059500609904,1024,-12.0,99,Assisted_Takeoff,
0.318045967923801,36.8869310771806,3600,2017-11-11 05:39:24,1779.4475667423108,0.0,0.0,0.0159609005107488,1779.4475667423108,0.0,0.0,0.019059500609904,1024,-12.0,99,Assisted_Takeoff,
0.318045967793729,36.8869310613487,3700,2017-11-11 05:39:24,1779.4475667423108,0.0,0.0,0.0162106005187392,1779.4475667423108,0.0,0.0,0.019059500609904,1024,-12.0,99,Assisted_Takeoff,
0.318045962677972,36.8869310407399,3800,2017-11-11 05:39:24,1779.4475667423108,0.0,0.0,0.0162908005213056,1779.4475667423108,0.0,0.0,0.019059500609904,1024,-12.0,99,Assisted_Takeoff,
0.318045962375692,36.886931034106,3900,2017-11-11 05:39:24,1779.4475667423108,0.0,0.0,0.0165272005288704,1779.4475667423108,0.0,0.0,0.019059500609904,1024,-12.0,99,Assisted_Takeoff,
0.318045983359618,36.886931000142,4000,2017-11-11 05:39:24,1779.4475667423108,0.0,0.0,0.0202949006494368,1779.4475667423108,0.0,0.0,0.0202949006494368,1024,-12.0,99,Assisted_Takeoff,
0.318046012904884,36.8869309692303,4100,2017-11-11 05:39:24,1779.4475667423108,0.0,0.0,0.024891800796537602,1779.4475667423108,0.0,0.0,0.024891800796537602,1024,-12.0,99,Assisted_Takeoff,
0.318046038068822,36.8869309359628,4200,2017-11-11 05:39:24,1779.4475667423108,0.0,0.0,0.029294900937436804,1779.4475667423108,0.0,0.0,0.029294900937436804,1024,-12.0,99,Assisted_Takeoff,
0.318046056999687,36.8869309207325,4300,2017-11-11 05:39:24,1779.4475667423108,0.0,0.0,0.031993901023804804,1779.4475667423108,0.0,0.0,0.031993901023804804,1024,-12.0,99,Assisted_Takeoff,
0.318046068765602,36.8869309074128,4400,2017-11-11 05:39:24,1779.4475667423108,0.0,0.0,0.0339277010856864,1779.4475667423108,0.0,0.0,0.0339277010856864,1024,-12.0,99,Assisted_Takeoff,
0.318046079085459,36.8869309027439,4500,2017-11-11 05:39:24,1779.4475667423108,0.0,0.0,0.0351579011250528,1779.4475667423108,0.0,0.0,0.0351579011250528,1024,-12.0,99,Assisted_Takeoff,
0.318046080973233,36.8869308984701,4600,2017-11-11 05:39:25,1779.4475667423108,0.0,0.0,0.0356104011395328,1779.4475667423108,0.0,0.0,0.0356104011395328,1024,-12.0,99,Assisted_Takeoff,
0.318046087999765,36.8869309008752,4700,2017-11-11 05:39:25,1779.4475667423108,0.0,0.0,0.0360806011545792,1779.4475667423108,0.0,0.0,0.0360806011545792,1024,-12.0,99,Assisted_Takeoff,
0.318046086571213,36.8869309028505,4800,2017-11-11 05:39:25,1779.4475667423108,0.0,0.0,0.035823301146345604,1779.4475667423108,0.0,0.0,0.0360806011545792,1024,-12.0,99,Assisted_Takeoff,
0.318046090322944,36.8869309084807,4900,2017-11-11 05:39:25,1779.4475667423108,0.0,0.0,0.0358043011457376,1779.4475667423108,0.0,0.0,0.0360806011545792,1024,-12.0,99,Assisted_Takeoff,
0.318046115415841,36.8869309119237,5000,2017-11-11 05:39:25,1779.4475667423108,0.0,0.0,0.0379338012138816,1779.4475667423108,0.0,0.0,0.0379338012138816,1024,-12.0,99,Assisted_Takeoff,
0.318046148113165,36.8869309187455,5100,2017-11-11 05:39:25,1779.4475667423108,0.0,0.0,0.040710901302748806,1779.4475667423108,0.0,0.0,0.040710901302748806,1034,-12.0,99,Assisted_Takeoff,
0.318046172897268,36.8869309218973,5200,2017-11-11 05:39:25,1779.4475667423108,0.0,0.0,0.043008201376262406,1779.4475667423108,0.0,0.0,0.043008201376262406,1024,-12.0,99,Assisted_Takeoff,
0.318046194098591,36.8869309292175,5300,2017-11-11 05:39:25,1779.4475667423108,0.0,0.0,0.044807501433840005,1779.4475667423108,0.0,0.0,0.044807501433840005,1024,-12.0,99,Assisted_Takeoff,
0.318046204277587,36.8869309320658,5400,2017-11-11 05:39:25,1779.4475667423108,0.0,0.0,0.0457232014631424,1779.4475667423108,0.0,0.0,0.0457232014631424,1024,-12.0,99,Assisted_Takeoff,
0.318046216613254,36.8869309396252,5500,2017-11-11 05:39:25,1779.4475667423108,0.0,0.0,0.0466819014938208,1779.4475667423108,0.0,0.0,0.0466819014938208,1024,-12.0,99,Assisted_Takeoff,
0.318046218061348,36.8869309701885,5600,2017-11-11 05:39:26,1779.4475667423108,0.0,0.0,0.0457209014630688,1779.4475667423108,0.0,0.0,0.0466819014938208,1024,-12.0,99,Assisted_Takeoff,
0.31804622486458,36.8869310078187,5700,2017-11-11 05:39:26,1779.4475667423108,0.0,0.0,0.0454116014531712,1779.4475667423108,0.0,0.0,0.0466819014938208,1024,-12.0,99,Assisted_Takeoff,
0.318046220592968,36.8869310375393,5800,2017-11-11 05:39:26,1779.4475667423108,0.0,0.0,0.044384801420313605,1779.4475667423108,0.0,0.0,0.0466819014938208,1024,-12.0,99,Assisted_Takeoff,
0.318046224508358,36.8869310636221,5900,2017-11-11 05:39:26,1779.4475667423108,0.0,0.0,0.044524801424793606,1779.4475667423108,0.0,0.0,0.0466819014938208,1024,-12.0,99,Assisted_Takeoff,
0.318046219197188,36.8869310485311,6000,2017-11-11 05:39:26,1779.4475667423108,0.0,0.0,0.04408350141067201,1779.4475667423108,0.0,0.0,0.0466819014938208,1024,-12.0,99,Assisted_Takeoff,
0.318046220754184,36.886931034767,6100,2017-11-11 05:39:26,1779.4475667423108,0.0,0.0,0.0444449014222368,1779.4475667423108,0.0,0.0,0.0466819014938208,1035,-12.0,99,Assisted_Takeoff,
0.318046214072271,36.8869310105433,6200,2017-11-11 05:39:26,1779.4475667423108,0.0,0.0,0.044174901413596805,1779.4475667423108,0.0,0.0,0.0466819014938208,1035,-12.0,99,Assisted_Takeoff,
0.318046214783494,36.8869310006297,6300,2017-11-11 05:39:26,1779.4475667423108,0.0,0.0,0.0444883014236256,1779.4475667423108,0.0,0.0,0.0466819014938208,1041,-12.0,99,Assisted_Takeoff,
0.318046211536173,36.8869309757695,6500,2017-11-11 05:39:26,1779.4475667423108,0.0,0.0,0.0448466014350912,1779.4475667423108,0.0,0.0,0.0466819014938208,1063,-12.0,99,Assisted_Takeoff,
0.318046232598264,36.8869309641568,6600,2017-11-11 05:39:27,1779.4475667423108,0.0,0.0,0.047463501518832,1779.4475667423108,0.0,0.0,0.047463501518832,1112,-12.0,99,Assisted_Takeoff,
0.318046265464335,36.8869309622131,6700,2017-11-11 05:39:27,1779.4475667423108,0.0,0.0,0.051025201632806404,1779.4475667423108,0.0,0.0,0.051025201632806404,1160,-12.0,99,Assisted_Takeoff,
0.318046288960339,36.8869309552404,6800,2017-11-11 05:39:27,1779.4475667423108,0.0,0.0,0.0537507017200224,1779.4475667423108,0.0,0.0,0.0537507017200224,1220,-12.0,99,Assisted_Takeoff,
0.318046309705698,36.8869309570293,6900,2017-11-11 05:39:27,1779.4475667423108,0.0,0.0,0.055915301789289606,1779.4475667423108,0.0,0.0,0.055915301789289606,1220,-12.0,99,Assisted_Takeoff,
0.318046318309378,36.8869309280821,7000,2017-11-11 05:39:27,1779.4475667423108,0.0,0.0,0.05776520184848641,1779.4475667423108,0.0,0.0,0.05776520184848641,1275,-12.0,99,Assisted_Takeoff,
0.318046329275931,36.8869309046003,7100,2017-11-11 05:39:27,1779.4475667423108,0.0,0.0,0.0597788019129216,1779.4475667423108,0.0,0.0,0.0597788019129216,1343,-12.0,99,Assisted_Takeoff,
0.318046329367938,36.8869308875276,7200,2017-11-11 05:39:27,1779.4475667423108,0.0,0.0,0.060472701935126404,1779.4475667423108,0.0,0.0,0.060472701935126404,1411,-12.0,99,Assisted_Takeoff,
0.318046341644777,36.8869309180148,7300,2017-11-11 05:39:27,1779.4475667423108,0.0,0.0,0.0605809019385888,1779.4475667423108,0.0,0.0,0.0605809019385888,1457,-12.0,99,Assisted_Takeoff,
0.318046317993664,36.8869309681725,7400,2017-11-11 05:39:27,1779.4475667423108,0.0,0.0,0.056492001807744004,1779.4475667423108,0.0,0.0,0.0605809019385888,1491,-12.0,99,GPS_Atti,
0.318046221112441,36.8869309823097,7500,2017-11-11 05:39:27,1779.4475667423108,0.0,0.35999970196000003,0.045670401461452806,1779.4475667423108,0.0,0.35999970196000003,0.0605809019385888,1509,-12.0,99,GPS_Atti,
0.318046040680236,36.8869309459449,7600,2017-11-11 05:39:28,1779.4475667423108,0.0,0.35999970196000003,0.028896300924681602,1779.4475667423108,0.0,0.35999970196000003,0.0605809019385888,1537,-12.0,99,GPS_Atti,
0.318045860686896,36.8869308818936,7700,2017-11-11 05:39:28,1779.5475667455107,0.1000000032,0.35999970196000003,0.023583900754684802,1779.5475667455107,0.1000000032,0.35999970196000003,0.0605809019385888,1545,-12.0,99,GPS_Atti,
0.318045685527388,36.8869307646623,7800,2017-11-11 05:39:28,1779.7475667519104,0.3000000096,0.35999970196000003,0.039464001262848006,1779.7475667519104,0.3000000096,0.35999970196000003,0.0605809019385888,1545,-12.0,99,GPS_Atti,
0.318045516097358,36.8869306407216,7900,2017-11-11 05:39:28,1779.8475667551106,0.4000000128,0.7199994039200001,0.060723501943152,1779.8475667551106,0.4000000128,0.7199994039200001,0.060723501943152,1540,-12.0,99,GPS_Atti,
0.318045322113852,36.8869305156927,8000,2017-11-11 05:39:28,1780.1475667647107,0.7000000224,0.8063993323904,0.084974502719184,1780.1475667647107,0.7000000224,0.8063993323904,0.084974502719184,1539,-12.0,99,GPS_Atti,Home Point Recorded. RTH Altitude:  30m.
0.31804515217534,36.8869303872753,8100,2017-11-11 05:39:28,1780.3475667711107,0.9000000288000001,0.5075995797636,0.108272003464704,1780.3475667711107,0.9000000288000001,0.8063993323904,0.108272003464704,1538,-12.0,99,GPS_Atti,
0.318045044795946,36.886930204116,8200,2017-11-11 05:39:28,1780.6475667807108,1.2000000384,0.35999970196000003,0.131359004203488,1780.6475667807108,1.2000000384,0.8063993323904,0.131359004203488,1537,-12.0,99,GPS_Atti,
0.318045001679024,36.8869300152456,8300,2017-11-11 05:39:28,1781.0475667935107,1.6000000512,0.35999970196000003,0.15064500482064,1781.0475667935107,1.6000000512,0.8063993323904,0.15064500482064,1533,-12.0,99,GPS_Atti,
0.318045014960002,36.8869298198215,8400,2017-11-11 05:39:28,1781.3475668031108,1.9000000608000003,0.35999970196000003,0.167623005363936,1781.3475668031108,1.9000000608000003,0.8063993323904,0.167623005363936,1534,-12.0,99,GPS_Atti,
0.318045037091981,36.8869296404847,8500,2017-11-11 05:39:28,1781.7475668159107,2.3000000736,0.35999970196000003,0.183564005874048,1781.7475668159107,2.3000000736,0.8063993323904,0.183564005874048,1534,-12.0,99,GPS_Atti,
0.318045016463463,36.8869294787784,8600,2017-11-11 05:39:29,1782.0475668255108,2.6000000832000003,0.35999970196000003,0.200568006418176,1782.0475668255108,2.6000000832000003,0.8063993323904,0.200568006418176,1531,-12.0,99,GPS_Atti,
0.318044934838318,36.8869293468966,8700,2017-11-11 05:39:29,1782.4475668383109,3.0000000960000004,0.5075995797636,0.21775300696809602,1782.4475668383109,3.0000000960000004,0.8063993323904,0.21775300696809602,1532,-12.0,99,GPS_Atti,
0.318044810093402,36.8869292096966,8800,2017-11-11 05:39:29,1782.8475668511107,3.4000001088000005,0.5075995797636,0.23771000760672,1782.8475668511107,3.4000001088000005,0.8063993323904,0.23771000760672,1534,-12.0,99,GPS_Atti,
0.318044682771879,36.8869290819661,8900,2017-11-11 05:39:29,1783.1475668607106,3.7000001184,0.5075995797636,0.256998008223936,1783.1475668607106,3.7000001184,0.8063993323904,0.256998008223936,1537,-12.0,99,GPS_Atti,
0.318044509288041,36.8869289511243,9000,2017-11-11 05:39:29,1783.5475668735105,4.100000131200001,0.35999970196000003,0.279347008939104,1783.5475668735105,4.100000131200001,0.8063993323904,0.279347008939104,1538,-12.0,99,GPS_Atti,
0.31804432310926,36.8869288629441,9100,2017-11-11 05:39:29,1783.8475668831106,4.4000001408000005,0.7199994039200001,0.298806009561792,1783.8475668831106,4.4000001408000005,0.8063993323904,0.298806009561792,1539,-12.0,99,GPS_Atti,
0.318044104407195,36.8869288098754,9200,2017-11-11 05:39:29,1784.2475668959105,4.8000001536,0.7199994039200001,0.31774301016777606,1784.2475668959105,4.8000001536,0.8063993323904,0.31774301016777606,1523,-12.0,99,GPS_Atti,
0.318043904699302,36.8869288008359,9300,2017-11-11 05:39:29,1784.6475669087106,5.200000166400001,0.7199994039200001,0.332361010635552,1784.6475669087106,5.200000166400001,0.8063993323904,0.332361010635552,1516,-12.0,99,GPS_Atti,
0.318043682782282,36.8869288421189,9400,2017-11-11 05:39:29,1784.9475669183107,5.5000001759999995,0.7199994039200001,0.345393011052576,1784.9475669183107,5.5000001759999995,0.8063993323904,0.345393011052576,1529,-12.0,99,GPS_Atti,
0.318043485817502,36.8869289232815,9500,2017-11-11 05:39:29,1785.2475669279106,5.8000001856,0.7199994039200001,0.354654011348928,1785.2475669279106,5.8000001856,0.8063993323904,0.354654011348928,1530,-12.0,99,GPS_Atti,
0.318043289065235,36.8869289981634,9600,2017-11-11 05:39:30,1785.6475669407107,6.200000198400001,0.35999970196000003,0.36564501170064,1785.6475669407107,6.200000198400001,0.8063993323904,0.36564501170064,1540,-12.0,99,GPS_Atti,
0.318043153643832,36.8869290697479,9700,2017-11-11 05:39:30,1785.9475669503108,6.500000208,0.35999970196000003,0.372526011920832,1785.9475669503108,6.500000208,0.8063993323904,0.372526011920832,1565,-12.0,99,GPS_Atti,
0.318043033776105,36.8869291175402,9800,2017-11-11 05:39:30,1786.3475669631107,6.900000220800001,0.35999970196000003,0.380148012164736,1786.3475669631107,6.900000220800001,0.8063993323904,0.380148012164736,1559,-12.0,99,GPS_Atti,
0.318042957893871,36.8869291521872,9900,2017-11-11 05:39:30,1786.6475669727108,7.200000230400001,0.0,0.38489801231673604,1786.6475669727108,7.200000230400001,0.8063993323904,0.38489801231673604,1568,-12.0,99,GPS_Atti,
0.318042887778772,36.8869291530891,10000,2017-11-11 05:39:30,1786.9475669823105,7.50000024,0.0,0.39132601252243204,1786.9475669823105,7.50000024,0.8063993323904,0.39132601252243204,1565,-12.0,99,GPS_Atti,
0.318042857179903,36.8869291281578,10100,2017-11-11 05:39:30,1787.3475669951106,7.9000002528,0.0,0.395693012662176,1787.3475669951106,7.9000002528,0.8063993323904,0.395693012662176,1578,-12.0,99,GPS_Atti,
0.318042817393352,36.8869290581508,10200,2017-11-11 05:39:30,1787.7475670079104,8.300000265600001,0.0,0.403699012918368,1787.7475670079104,8.300000265600001,0.8063993323904,0.403699012918368,1578,-12.0,99,GPS_Atti,
0.31804279756094,36.8869289887358,10300,2017-11-11 05:39:30,1788.0475670175106,8.6000002752,0.0,0.409881013116192,1788.0475670175106,8.6000002752,0.8063993323904,0.409881013116192,1580,-12.2,99,GPS_Atti,
0.318042772643304,36.8869289460711,10400,2017-11-11 05:39:30,1788.4475670303107,9.000000288,0.0,0.41487001327584,1788.4475670303107,9.000000288,0.8063993323904,0.41487001327584,1579,-13.2,99,GPS_Atti,
0.318042768304315,36.8869289414457,10500,2017-11-11 05:39:30,1788.8475670431105,9.4000003008,0.0,0.41556001329792,1788.8475670431105,9.4000003008,0.8063993323904,0.41556001329792,1580,-15.9,99,GPS_Atti,
0.318042765730966,36.8869289292425,10600,2017-11-11 05:39:31,1789.2475670559106,9.8000003136,0.0,0.41657601333043204,1789.2475670559106,9.8000003136,0.8063993323904,0.41657601333043204,1580,-19.5,99,GPS_Atti,
0.318042781630686,36.8869289062768,10700,2017-11-11 05:39:31,1789.6475670687105,10.2000003264,0.0,0.416617013331744,1789.6475670687105,10.2000003264,0.8063993323904,0.416617013331744,1582,-23.6,99,GPS_Atti,
0.318042761888652,36.8869288770544,10800,2017-11-11 05:39:31,1790.0475670815106,10.600000339200001,0.0,0.420298013449536,1790.0475670815106,10.600000339200001,0.8063993323904,0.420298013449536,1586,-28.2,99,GPS_Atti,
0.318042754460505,36.8869288513228,10900,2017-11-11 05:39:31,1790.3475670911107,10.9000003488,0.0,0.4226480135247361,1790.3475670911107,10.9000003488,0.8063993323904,0.4226480135247361,1585,-33.2,99,GPS_Atti,
0.318042717412183,36.8869287997487,11000,2017-11-11 05:39:31,1790.7475671039106,11.3000003616,0.0,0.429361013739552,1790.7475671039106,11.3000003616,0.8063993323904,0.429361013739552,1584,-38.2,99,GPS_Atti,
0.318042709017961,36.8869287389011,11100,2017-11-11 05:39:31,1791.1475671167107,11.7000003744,0.0,0.434156013892992,1791.1475671167107,11.7000003744,0.8063993323904,0.434156013892992,1584,-43.2,99,GPS_Atti,
0.318042707111053,36.8869286653895,11200,2017-11-11 05:39:31,1791.5475671295105,12.1000003872,0.0,0.43929701405750404,1791.5475671295105,12.1000003872,0.8063993323904,0.43929701405750404,1583,-48.2,99,GPS_Atti,
0.318042742800032,36.8869285949522,11300,2017-11-11 05:39:31,1791.9475671423106,12.500000400000001,0.0,0.44105801411385603,1791.9475671423106,12.500000400000001,0.8063993323904,0.44105801411385603,1582,-53.2,99,GPS_Atti,
0.31804278800523,36.8869284967801,11400,2017-11-11 05:39:31,1792.3475671551105,12.9000004128,0.0,0.444174014213568,1792.3475671551105,12.9000004128,0.8063993323904,0.444174014213568,1581,-58.2,99,GPS_Atti,
0.318042868637228,36.8869283876066,11500,2017-11-11 05:39:31,1792.7475671679106,13.3000004256,0.0,0.445496014255872,1792.7475671679106,13.3000004256,0.8063993323904,0.445496014255872,1581,-63.3,99,GPS_Atti,
0.318042957323102,36.8869282542409,11600,2017-11-11 05:39:32,1793.1475671807104,13.7000004384,0.0,0.44857101435427205,1793.1475671807104,13.7000004384,0.8063993323904,0.44857101435427205,1576,-69.0,99,GPS_Atti,
0.318043072257458,36.8869281212222,11700,2017-11-11 05:39:32,1793.5475671935108,14.100000451200001,0.0,0.450309014409888,1793.5475671935108,14.100000451200001,0.8063993323904,0.450309014409888,1576,-69.0,99,GPS_Atti,
0.318043191621181,36.8869279819426,11800,2017-11-11 05:39:32,1793.9475672063109,14.500000464000001,0.35999970196000003,0.45309701449910406,1793.9475672063109,14.500000464000001,0.8063993323904,0.45309701449910406,1576,-74.6,99,GPS_Atti,
0.318043327771313,36.8869278688711,11900,2017-11-11 05:39:32,1794.3475672191107,14.9000004768,0.35999970196000003,0.45333301450665603,1794.3475672191107,14.9000004768,0.8063993323904,0.45333301450665603,1576,-80.2,99,GPS_Atti,
0.318043429651248,36.8869277975954,12000,2017-11-11 05:39:32,1794.7475672319108,15.3000004896,0.0,0.45286801449177605,1794.7475672319108,15.3000004896,0.8063993323904,0.45333301450665603,1578,-85.9,99,GPS_Atti,
0.318043510674072,36.8869277719087,12100,2017-11-11 05:39:32,1795.1475672447107,15.700000502400002,0.0,0.449968014398976,1795.1475672447107,15.700000502400002,0.8063993323904,0.45333301450665603,1579,-89.9,99,GPS_Atti,
0.318043538479753,36.8869277576335,12200,2017-11-11 05:39:32,1795.5475672575108,16.1000005152,0.0,0.44951401438444805,1795.5475672575108,16.1000005152,0.8063993323904,0.45333301450665603,1578,-90.0,99,GPS_Atti,
0.31804355776338,36.8869277428614,12300,2017-11-11 05:39:32,1795.9475672703106,16.500000528,0.0,0.449664014389248,1795.9475672703106,16.500000528,0.8063993323904,0.45333301450665603,1578,-90.0,99,GPS_Atti,
0.318043543252315,36.8869277319832,12400,2017-11-11 05:39:32,1796.3475672831107,16.9000005408,0.0,0.451571014450272,1796.3475672831107,16.9000005408,0.8063993323904,0.45333301450665603,1576,-90.0,99,GPS_Atti,
0.318043532391408,36.8869277431344,12500,2017-11-11 05:39:32,1796.7475672959106,17.3000005536,0.0,0.451227014439264,1796.7475672959106,17.3000005536,0.8063993323904,0.45333301450665603,1575,-90.0,99,GPS_Atti,
0.318043488922131,36.886927733937,12600,2017-11-11 05:39:33,1797.2475673119106,17.8000005696,0.0,0.45481501455408,1797.2475673119106,17.8000005696,0.8063993323904,0.45481501455408,1576,-90.0,99,GPS_Atti,
0.318043456468056,36.8869277242257,12700,2017-11-11 05:39:33,1797.6475673247105,18.2000005824,0.0,0.45776901464860803,1797.6475673247105,18.2000005824,0.8063993323904,0.45776901464860803,1580,-90.0,99,GPS_Atti,
0.318043414708238,36.8869276938562,12800,2017-11-11 05:39:33,1798.0475673375106,18.6000005952,0.0,0.46320701482262405,1798.0475673375106,18.6000005952,0.8063993323904,0.46320701482262405,1585,-90.0,99,GPS_Atti,
0.318043396677292,36.8869276702529,12900,2017-11-11 05:39:33,1798.4475673503105,19.000000608,0.0,0.466508014928256,1798.4475673503105,19.000000608,0.8063993323904,0.466508014928256,1600,-90.0,99,GPS_Atti,
0.318043385802136,36.8869276482897,13000,2017-11-11 05:39:33,1798.8475673631106,19.4000006208,0.0,0.46920001501440006,1798.8475673631106,19.4000006208,0.8063993323904,0.46920001501440006,1612,-90.0,99,GPS_Atti,
0.31804339210625,36.8869276474086,13100,2017-11-11 05:39:33,1799.2475673759104,19.800000633600003,0.0,0.4688750150040001,1799.2475673759104,19.800000633600003,0.8063993323904,0.46920001501440006,1637,-90.0,99,GPS_Atti,
0.318043394907174,36.8869276306517,13200,2017-11-11 05:39:33,1799.7475673919107,20.3000006496,0.0,0.470219015047008,1799.7475673919107,20.3000006496,0.8063993323904,0.470219015047008,1661,-90.0,99,GPS_Atti,
0.318043403214273,36.8869276287557,13300,2017-11-11 05:39:33,1800.1475674047108,20.7000006624,0.0,0.469861015035552,1800.1475674047108,20.7000006624,0.8063993323904,0.470219015047008,1684,-89.9,99,GPS_Atti,
0.318043399217665,36.886927609301,13400,2017-11-11 05:39:33,1800.6475674207106,21.200000678400002,0.0,0.47189001510048,1800.6475674207106,21.200000678400002,0.8063993323904,0.47189001510048,1684,-90.0,99,GPS_Atti,
0.318043388451614,36.8869276106917,13500,2017-11-11 05:39:33,1801.1475674367105,21.7000006944,0.0,0.472448015118336,1801.1475674367105,21.7000006944,0.8063993323904,0.472448015118336,1684,-90.0,99,GPS_Atti,
0.318043351558401,36.8869276170424,13600,2017-11-11 05:39:34,1801.6475674527107,22.2000007104,0.0,0.474238015175616,1801.6475674527107,22.2000007104,0.8063993323904,0.474238015175616,1684,-90.0,99,GPS_Atti,
0.318043327718796,36.8869276488143,13700,2017-11-11 05:39:34,1802.1475674687106,22.7000007264,0.0,0.472916015133312,1802.1475674687106,22.7000007264,0.8063993323904,0.474238015175616,1684,-90.0,99,GPS_Atti,
0.318043307057098,36.886927656438,13800,2017-11-11 05:39:34,1802.6475674847106,23.2000007424,0.0,0.47358501515472007,1802.6475674847106,23.2000007424,0.8063993323904,0.474238015175616,1684,-89.9,99,GPS_Atti,
0.318043309861686,36.8869276667681,13900,2017-11-11 05:39:34,1803.1475675007107,23.7000007584,0.0,0.4724750151192,1803.1475675007107,23.7000007584,0.8063993323904,0.474238015175616,1684,-90.0,99,GPS_Atti,
0.318043300722858,36.886927663111,14000,2017-11-11 05:39:34,1803.7475675199105,24.3000007776,0.0,0.47340401514892805,1803.7475675199105,24.3000007776,0.8063993323904,0.474238015175616,1684,-90.0,99,GPS_Atti,
0.31804330217828,36.8869276741841,14100,2017-11-11 05:39:34,1804.2475675359105,24.800000793600002,0.0,0.472317015114144,1804.2475675359105,24.800000793600002,0.8063993323904,0.474238015175616,1684,-89.9,99,GPS_Atti,
0.318043267148821,36.886927705728,14200,2017-11-11 05:39:34,1804.7475675519106,25.3000008096,0.0,0.471838015098816,1804.7475675519106,25.3000008096,0.8063993323904,0.474238015175616,1684,-90.0,99,GPS_Atti,
0.31804322537394,36.8869277667891,14300,2017-11-11 05:39:34,1805.3475675711106,25.9000008288,0.0,0.469286015017152,1805.3475675711106,25.9000008288,0.8063993323904,0.474238015175616,1684,-90.0,99,GPS_Atti,
0.318043153304708,36.8869278141499,14400,2017-11-11 05:39:34,1805.8475675871107,26.4000008448,0.0,0.47017201504550404,1805.8475675871107,26.4000008448,0.8063993323904,0.474238015175616,1684,-90.0,99,GPS_Atti,
0.318043096152024,36.886927864335,14500,2017-11-11 05:39:34,1806.3475676031107,26.900000860800002,0.0,0.469939015038048,1806.3475676031107,26.900000860800002,0.8063993323904,0.474238015175616,1684,-90.0,99,GPS_Atti,
0.318043015361253,36.8869279340443,14600,2017-11-11 05:39:35,1806.8475676191106,27.4000008768,0.0,0.4699720150391041,1806.8475676191106,27.4000008768,0.8063993323904,0.474238015175616,1684,-90.0,99,GPS_Atti,
0.318042955995513,36.8869280395468,14700,2017-11-11 05:39:35,1807.4475676383106,28.000000896,0.0,0.46577101490467204,1807.4475676383106,28.000000896,0.8063993323904,0.474238015175616,1684,-89.9,99,GPS_Atti,
0.318042874695853,36.8869281552669,14800,2017-11-11 05:39:35,1807.9475676543107,28.500000912,0.0,0.46284501481104,1807.9475676543107,28.500000912,0.8063993323904,0.474238015175616,1684,-89.9,99,GPS_Atti,
0.318042829084358,36.8869282973247,14900,2017-11-11 05:39:35,1808.4475676703105,29.000000928000002,0.35999970196000003,0.45553801457721604,1808.4475676703105,29.000000928000002,0.8063993323904,0.474238015175616,1684,-89.9,99,GPS_Atti,
0.318042784113249,36.8869284840721,15000,2017-11-11 05:39:35,1808.9475676863108,29.500000944,0.5075995797636,0.44542201425350403,1808.9475676863108,29.500000944,0.8063993323904,0.474238015175616,1684,-89.9,99,GPS_Atti,
0.31804277367248,36.8869286729774,15100,2017-11-11 05:39:35,1809.4475677023106,30.00000096,0.5075995797636,0.432953013854496,1809.4475677023106,30.00000096,0.8063993323904,0.474238015175616,1684,-89.9,99,GPS_Atti,
0.318042737028826,36.8869288294271,15200,2017-11-11 05:39:35,1809.9475677183104,30.500000976,0.35999970196000003,0.42564901362076807,1809.9475677183104,30.500000976,0.8063993323904,0.474238015175616,1684,-90.0,99,GPS_Atti,
0.318042701836523,36.8869289633275,15300,2017-11-11 05:39:35,1810.4475677343107,31.000000992,0.0,0.42025301344809607,1810.4475677343107,31.000000992,0.8063993323904,0.474238015175616,1684,-90.0,99,GPS_Atti,
0.318042640197068,36.8869290918583,15400,2017-11-11 05:39:35,1810.9475677503106,31.500001007999998,0.0,0.41816501338128,1810.9475677503106,31.500001007999998,0.8063993323904,0.474238015175616,1684,-89.9,99,GPS_Atti,
0.318042600021726,36.8869292197966,15500,2017-11-11 05:39:35,1811.5475677695108,32.1000010272,0.0,0.414636013268352,1811.5475677695108,32.1000010272,0.8063993323904,0.474238015175616,1684,-90.0,99,GPS_Atti,
0.318042532953039,36.8869293375627,15600,2017-11-11 05:39:36,1812.0475677855106,32.6000010432,0.0,0.414789013273248,1812.0475677855106,32.6000010432,0.8063993323904,0.474238015175616,1684,-90.0,99,GPS_Atti,
0.31804247389996,36.8869294367582,15700,2017-11-11 05:39:36,1812.5475678015107,33.100001059200004,0.0,0.41559801329913604,1812.5475678015107,33.100001059200004,0.8063993323904,0.474238015175616,1684,-90.0,99,GPS_Atti,
0.318042382608982,36.8869295096719,15800,2017-11-11 05:39:36,1813.1475678207107,33.7000010784,0.0,0.42127701348086405,1813.1475678207107,33.7000010784,0.8063993323904,0.474238015175616,1684,-89.9,99,GPS_Atti,
0.318042301964772,36.8869295778412,15900,2017-11-11 05:39:36,1813.6475678367106,34.2000010944,0.0,0.42639501364464,1813.6475678367106,34.2000010944,0.8063993323904,0.474238015175616,1684,-90.0,99,GPS_Atti,
0.318042200833514,36.886929659082,16000,2017-11-11 05:39:36,1814.1475678527106,34.7000011104,0.0,0.43335101386723207,1814.1475678527106,34.7000011104,0.8063993323904,0.474238015175616,1684,-90.0,99,GPS_Atti,
0.318042123683944,36.8869297500211,16100,2017-11-11 05:39:36,1814.6475678687107,35.200001126400004,0.0,0.437794014009408,1814.6475678687107,35.200001126400004,0.8063993323904,0.474238015175616,1684,-90.0,99,GPS_Atti,
0.318042017149102,36.8869298197466,16200,2017-11-11 05:39:36,1815.2475678879107,35.8000011456,0.0,0.44643601428595203,1815.2475678879107,35.8000011456,0.8063993323904,0.474238015175616,1684,-90.0,99,GPS_Atti,
0.318041941964657,36.8869298867153,16300,2017-11-11 05:39:36,1815.7475679039107,36.3000011616,0.0,0.45211301446761604,1815.7475679039107,36.3000011616,0.8063993323904,0.474238015175616,1684,-89.9,99,GPS_Atti,
0.318041877785644,36.8869299498796,16400,2017-11-11 05:39:36,1816.2475679199108,36.8000011776,0.0,0.456934014621888,1816.2475679199108,36.8000011776,0.8063993323904,0.474238015175616,1684,-90.0,99,GPS_Atti,
0.318041837101006,36.8869300139491,16500,2017-11-11 05:39:36,1816.7475679359106,37.3000011936,0.0,0.4593730146999361,1816.7475679359106,37.3000011936,0.8063993323904,0.474238015175616,1684,-90.0,99,GPS_Atti,
0.318041772606482,36.8869300672238,16600,2017-11-11 05:39:37,1817.2475679519105,37.800001209600005,0.0,0.46481501487408006,1817.2475679519105,37.800001209600005,0.8063993323904,0.474238015175616,1684,-90.0,99,GPS_Atti,
0.318041738795506,36.8869301300579,16700,2017-11-11 05:39:37,1817.7475679679108,38.3000012256,0.0,0.466812014937984,1817.7475679679108,38.3000012256,0.8063993323904,0.474238015175616,1684,-89.9,99,GPS_Atti,
0.318041671652317,36.886930221307,16800,2017-11-11 05:39:37,1818.2475679839106,38.8000012416,0.0,0.47190001510080004,1818.2475679839106,38.8000012416,0.8063993323904,0.474238015175616,1684,-89.9,99,GPS_Atti,
0.318041627465304,36.8869303325821,16900,2017-11-11 05:39:37,1818.7475679999106,39.3000012576,0.0,0.47435501517936,1818.7475679999106,39.3000012576,0.8063993323904,0.47435501517936,1684,-89.9,99,GPS_Atti,
0.318041547237975,36.8869304463259,17000,2017-11-11 05:39:37,1819.3475680191107,39.900001276800005,0.0,0.481091015394912,1819.3475680191107,39.900001276800005,0.8063993323904,0.481091015394912,1684,-89.9,99,GPS_Atti,
0.318041477956639,36.8869305482483,17100,2017-11-11 05:39:37,1819.8475680351105,40.400001292800006,0.0,0.48717701558966403,1819.8475680351105,40.400001292800006,0.8063993323904,0.48717701558966403,1684,-90.0,99,GPS_Atti,
0.318041379788335,36.8869306370345,17200,2017-11-11 05:39:37,1820.3475680511108,40.9000013088,0.0,0.49691201590118406,1820.3475680511108,40.9000013088,0.8063993323904,0.49691201590118406,1684,-90.0,99,GPS_Atti,
0.318041313896606,36.8869307050154,17300,2017-11-11 05:39:37,1820.8475680671106,41.4000013248,0.0,0.503502016112064,1820.8475680671106,41.4000013248,0.8063993323904,0.503502016112064,1684,-90.0,99,GPS_Atti,
0.318041250912463,36.8869307469141,17400,2017-11-11 05:39:37,1821.4475680863106,42.000001344,0.0,0.51011001632352,1821.4475680863106,42.000001344,0.8063993323904,0.51011001632352,1684,-90.0,99,GPS_Atti,
0.318041219108138,36.8869307678447,17500,2017-11-11 05:39:37,1821.9475681023107,42.50000136,0.0,0.5134690164310081,1821.9475681023107,42.50000136,0.8063993323904,0.5134690164310081,1684,-90.0,99,GPS_Atti,
0.318041160432044,36.8869307779312,17600,2017-11-11 05:39:38,1822.4475681183108,43.000001376,0.0,0.519902016636864,1822.4475681183108,43.000001376,0.8063993323904,0.519902016636864,1684,-90.0,99,GPS_Atti,
0.318041124169039,36.88693079019,17700,2017-11-11 05:39:38,1823.0475681375108,43.6000013952,0.0,0.523837016762784,1823.0475681375108,43.6000013952,0.8063993323904,0.523837016762784,1684,-90.0,99,GPS_Atti,
0.318041062120437,36.8869307837296,17800,2017-11-11 05:39:38,1823.5475681535106,44.100001411200004,0.0,0.530769016984608,1823.5475681535106,44.100001411200004,0.8063993323904,0.530769016984608,1684,-90.0,99,GPS_Atti,
0.318041033244868,36.8869307693944,17900,2017-11-11 05:39:38,1824.0475681695107,44.600001427200006,0.0,0.5340780170904961,1824.0475681695107,44.600001427200006,0.8063993323904,0.5340780170904961,1684,-90.0,99,GPS_Atti,
0.318040975969236,36.8869307357815,18000,2017-11-11 05:39:38,1824.5475681855107,45.1000014432,0.0,0.540693017302176,1824.5475681855107,45.1000014432,0.8063993323904,0.540693017302176,1684,-90.0,99,GPS_Atti,
0.318040937386512,36.8869307058253,18100,2017-11-11 05:39:38,1825.1475682047105,45.7000014624,0.0,0.545224017447168,1825.1475682047105,45.7000014624,0.8063993323904,0.545224017447168,1684,-90.0,99,GPS_Atti,
0.318040866330987,36.8869306521989,18200,2017-11-11 05:39:38,1825.6475682207106,46.2000014784,0.0,0.55359501771504,1825.6475682207106,46.2000014784,0.8063993323904,0.55359501771504,1684,-90.0,99,GPS_Atti,
0.318040824568726,36.8869305979644,18300,2017-11-11 05:39:38,1826.1475682367106,46.7000014944,0.0,0.5587810178809921,1826.1475682367106,46.7000014944,0.8063993323904,0.5587810178809921,1684,-90.0,99,GPS_Atti,
0.318040763658407,36.88693052275,18400,2017-11-11 05:39:38,1826.6475682527107,47.2000015104,0.0,0.56639501812464,1826.6475682527107,47.2000015104,0.8063993323904,0.56639501812464,1684,-90.0,99,GPS_Atti,
0.318040741192394,36.8869304561689,18500,2017-11-11 05:39:38,1827.1475682687105,47.70000152640001,0.0,0.569747018231904,1827.1475682687105,47.70000152640001,0.8063993323904,0.569747018231904,1684,-90.0,99,GPS_Atti,
0.318040706813498,36.8869303637272,18600,2017-11-11 05:39:39,1827.7475682879108,48.300001545600004,0.0,0.574897018396704,1827.7475682879108,48.300001545600004,0.8063993323904,0.574897018396704,1684,-89.9,99,GPS_Atti,
0.318040692548329,36.8869302768621,18700,2017-11-11 05:39:39,1828.2475683039106,48.800001561600006,0.0,0.577902018492864,1828.2475683039106,48.800001561600006,0.8063993323904,0.577902018492864,1684,-90.0,99,GPS_Atti,
0.318040630388993,36.8869301594584,18800,2017-11-11 05:39:39,1828.7475683199104,49.3000015776,0.0,0.5868930187805761,1828.7475683199104,49.3000015776,0.8063993323904,0.5868930187805761,1684,-90.0,99,GPS_Atti,
0.318040600840062,36.8869300678432,18900,2017-11-11 05:39:39,1829.2475683359107,49.8000015936,0.0,0.592001018944032,1829.2475683359107,49.8000015936,0.8063993323904,0.592001018944032,1684,-90.0,99,GPS_Atti,
0.318040559235761,36.8869299726987,19000,2017-11-11 05:39:39,1829.7475683519106,50.3000016096,0.0,0.5986500191568,1829.7475683519106,50.3000016096,0.8063993323904,0.5986500191568,1684,-90.0,99,GPS_Atti,
0.318040550698643,36.8869299001223,19100,2017-11-11 05:39:39,1830.2475683679106,50.800001625600004,0.0,0.60130501924176,1830.2475683679106,50.800001625600004,0.8063993323904,0.60130501924176,1684,-90.0,99,GPS_Atti,
0.31804051297411,36.886929783574,19200,2017-11-11 05:39:39,1830.7475683839107,51.300001641600005,0.0,0.6083640194676481,1830.7475683839107,51.300001641600005,0.8063993323904,0.6083640194676481,1684,-90.0,99,GPS_Atti,
0.318040491348373,36.8869296749909,19300,2017-11-11 05:39:39,1831.3475684031105,51.90000166080001,0.0,0.613686019637952,1831.3475684031105,51.90000166080001,0.8063993323904,0.613686019637952,1684,-90.0,99,GPS_Atti,
0.318040432769172,36.8869295691759,19400,2017-11-11 05:39:39,1831.8475684191108,52.40000167680001,0.0,0.623077019938464,1831.8475684191108,52.40000167680001,0.8063993323904,0.623077019938464,1684,-90.0,99,GPS_Atti,
0.318040396344136,36.8869295067685,19500,2017-11-11 05:39:39,1832.3475684351106,52.9000016928,0.0,0.6288850201243201,1832.3475684351106,52.9000016928,0.8063993323904,0.6288850201243201,1684,-90.0,99,GPS_Atti,
0.318040323170005,36.8869294285366,19600,2017-11-11 05:39:40,1832.8475684511106,53.400001708800005,0.0,0.639163020453216,1832.8475684511106,53.400001708800005,0.8063993323904,0.639163020453216,1684,-90.0,99,GPS_Atti,
0.318040284314517,36.8869293635919,19700,2017-11-11 05:39:40,1833.3475684671105,53.900001724800006,0.0,0.645413020653216,1833.3475684671105,53.900001724800006,0.8063993323904,0.645413020653216,1684,-90.0,99,GPS_Atti,
0.318040221606396,36.8869292463194,19800,2017-11-11 05:39:40,1833.8475684831108,54.40000174080001,0.0,0.6560340209930879,1833.8475684831108,54.40000174080001,0.8063993323904,0.6560340209930879,1684,-90.0,99,GPS_Atti,
0.318040197014449,36.8869291329417,19900,2017-11-11 05:39:40,1834.4475685023106,55.00000176,0.0,0.662667021205344,1834.4475685023106,55.00000176,0.8063993323904,0.662667021205344,1684,-89.9,99,GPS_Atti,
0.318040136674899,36.8869289874249,20000,2017-11-11 05:39:40,1834.9475685183108,55.500001776000005,0.0,0.6744490215823681,1834.9475685183108,55.500001776000005,0.8063993323904,0.6744490215823681,1684,-90.0,98,GPS_Atti,
0.318040102756853,36.8869288795816,20100,2017-11-11 05:39:40,1835.4475685343107,56.000001792,0.0,0.682218021830976,1835.4475685343107,56.000001792,0.8063993323904,0.682218021830976,1684,-90.0,98,GPS_Atti,
0.318040058223795,36.8869287682112,20200,2017-11-11 05:39:40,1835.9475685503105,56.500001808,0.0,0.6913710221238721,1835.9475685503105,56.500001808,0.8063993323904,0.6913710221238721,1684,-90.0,98,GPS_Atti,
0.318040045943699,36.8869286990414,20300,2017-11-11 05:39:40,1836.4475685663108,57.000001824,0.0,0.6955430222573761,1836.4475685663108,57.000001824,0.8063993323904,0.6955430222573761,1684,-90.0,98,GPS_Atti,
0.318040006382281,36.8869286182835,20400,2017-11-11 05:39:40,1836.9475685823106,57.50000184,0.0,0.703074022498368,1836.9475685823106,57.50000184,0.8063993323904,0.703074022498368,1684,-90.0,98,GPS_Atti,
0.318039991191341,36.886928563768,20500,2017-11-11 05:39:40,1837.5475686015104,58.100001859200006,0.0,0.7070170226245441,1837.5475686015104,58.100001859200006,0.8063993323904,0.7070170226245441,1684,-90.0,98,GPS_Atti,
0.318039938591786,36.8869284721003,20600,2017-11-11 05:39:41,1838.0475686175107,58.60000187520001,0.0,0.7164700229270401,1838.0475686175107,58.60000187520001,0.8063993323904,0.7164700229270401,1684,-90.0,98,GPS_Atti,
0.318039914048692,36.8869284052001,20700,2017-11-11 05:39:41,1838.5475686335105,59.10000189120001,0.0,0.7220110231043521,1838.5475686335105,59.10000189120001,0.8063993323904,0.7220110231043521,1684,-90.0,98,GPS_Atti,
0.318039860003078,36.8869283241082,20800,2017-11-11 05:39:41,1839.0475686495106,59.6000019072,0.0,0.7312350233995201,1839.0475686495106,59.6000019072,0.8063993323904,0.7312350233995201,1684,-90.0,98,GPS_Atti,
0.318039830445191,36.8869282755467,20900,2017-11-11 05:39:41,1839.5475686655107,60.100001923200004,0.0,0.736498023567936,1839.5475686655107,60.100001923200004,0.8063993323904,0.736498023567936,1684,-89.9,98,GPS_Atti,
0.318039770315711,36.8869281881544,21000,2017-11-11 05:39:41,1840.0475686815107,60.600001939200006,0.0,0.7467050238945601,1840.0475686815107,60.600001939200006,0.8063993323904,0.7467050238945601,1684,-89.9,98,GPS_Atti,
0.318039744280963,36.8869281168049,21100,2017-11-11 05:39:41,1840.5475686975105,61.10000195520001,0.0,0.752769024088608,1840.5475686975105,61.10000195520001,0.8063993323904,0.752769024088608,1684,-90.0,98,GPS_Atti,
0.318039698304289,36.8869280330676,21200,2017-11-11 05:39:41,1841.0475687135108,61.6000019712,0.0,0.761478024367296,1841.0475687135108,61.6000019712,0.8063993323904,0.761478024367296,1684,-90.0,98,GPS_Atti,
0.31803969442045,36.8869279844338,21300,2017-11-11 05:39:41,1841.5475687295107,62.1000019872,0.35999970196000003,0.764294024457408,1841.5475687295107,62.1000019872,0.8063993323904,0.764294024457408,1684,-90.0,98,GPS_Atti,
0.318039670422071,36.886927875604,21400,2017-11-11 05:39:41,1842.0475687455105,62.600002003200004,0.35999970196000003,0.772204024710528,1842.0475687455105,62.600002003200004,0.8063993323904,0.772204024710528,1684,-89.9,98,GPS_Atti,
0.318039701370649,36.8869277695063,21500,2017-11-11 05:39:41,1842.4475687583106,63.000002015999996,0.35999970196000003,0.774711024790752,1842.4475687583106,63.000002015999996,0.8063993323904,0.774711024790752,1684,-90.0,98,GPS_Atti,
0.318039723091649,36.8869276522338,21600,2017-11-11 05:39:42,1843.0475687775106,63.600002035200006,0.35999970196000003,0.7789070249250241,1843.0475687775106,63.600002035200006,0.8063993323904,0.7789070249250241,1684,-90.0,98,GPS_Atti,
0.318039760778729,36.886927573525,21700,2017-11-11 05:39:42,1843.5475687935107,64.1000020512,0.35999970196000003,0.779613024947616,1843.5475687935107,64.1000020512,0.8063993323904,0.779613024947616,1684,-90.0,98,GPS_Atti,
0.318039782330371,36.8869275068861,21800,2017-11-11 05:39:42,1844.0475688095105,64.6000020672,0.35999970196000003,0.7812950250014401,1844.0475688095105,64.6000020672,0.8063993323904,0.7812950250014401,1684,-90.0,98,GPS_Atti,
0.318039847825574,36.886927484272,21900,2017-11-11 05:39:42,1844.5475688255108,65.10000208320001,0.35999970196000003,0.776336024842752,1844.5475688255108,65.10000208320001,0.8063993323904,0.7812950250014401,1684,-89.9,98,GPS_Atti,
0.31803988652066,36.8869274596345,22000,2017-11-11 05:39:42,1844.9475688383106,65.500002096,0.35999970196000003,0.77408002477056,1844.9475688383106,65.500002096,0.8063993323904,0.7812950250014401,1684,-89.9,98,GPS_Atti,
0.318039922733184,36.8869274441195,22100,2017-11-11 05:39:42,1845.4475688543107,66.000002112,0.35999970196000003,0.771553024689696,1845.4475688543107,66.000002112,0.8063993323904,0.7812950250014401,1684,-90.0,98,GPS_Atti,
0.318039893178554,36.8869274113327,22200,2017-11-11 05:39:42,1845.9475688703105,66.500002128,0.35999970196000003,0.7762670248405441,1845.9475688703105,66.500002128,0.8063993323904,0.7812950250014401,1684,-90.0,98,GPS_Atti,
0.318039876272048,36.8869273937139,22300,2017-11-11 05:39:42,1846.4475688863108,67.000002144,0.35999970196000003,0.778898024924736,1846.4475688863108,67.000002144,0.8063993323904,0.7812950250014401,1684,-90.0,98,GPS_Atti,
0.318039827687422,36.8869273869724,22400,2017-11-11 05:39:42,1846.9475689023106,67.50000216000001,0.0,0.78388502508432,1846.9475689023106,67.50000216000001,0.8063993323904,0.78388502508432,1684,-90.0,98,GPS_Atti,
0.318039789319652,36.8869274017434,22500,2017-11-11 05:39:42,1847.5475689215107,68.1000021792,0.0,0.7866610251731521,1847.5475689215107,68.1000021792,0.8063993323904,0.7866610251731521,1684,-89.9,98,GPS_Atti,
0.318039719938168,36.8869273874467,22600,2017-11-11 05:39:43,1847.9475689343108,68.500002192,0.0,0.7940780254104961,1847.9475689343108,68.500002192,0.8063993323904,0.7940780254104961,1684,-89.9,98,GPS_Atti,
0.318039698905185,36.8869273790875,22700,2017-11-11 05:39:43,1848.4475689503106,69.000002208,0.0,0.79656002548992,1848.4475689503106,69.000002208,0.8063993323904,0.79656002548992,1684,-90.0,98,GPS_Atti,
0.318039622310507,36.8869273550763,22800,2017-11-11 05:39:43,1848.9475689663107,69.500002224,0.0,0.8052310257673921,1848.9475689663107,69.500002224,0.8063993323904,0.8052310257673921,1684,-90.0,98,GPS_Atti,
0.318039577412678,36.8869273475651,22900,2017-11-11 05:39:43,1849.4475689823107,70.00000224,0.0,0.809941025918112,1849.4475689823107,70.00000224,0.8063993323904,0.809941025918112,1684,-89.9,98,GPS_Atti,
0.318039519782859,36.8869273095494,23000,2017-11-11 05:39:43,1849.9475689983108,70.500002256,0.0,0.8176120261635841,1849.9475689983108,70.500002256,0.8063993323904,0.8176120261635841,1684,-90.0,98,GPS_Atti,
0.318039497700344,36.8869272808962,23100,2017-11-11 05:39:43,1850.5475690175106,71.1000022752,0.0,0.821358026283456,1850.5475690175106,71.1000022752,0.8063993323904,0.821358026283456,1684,-90.0,98,GPS_Atti,
0.318039423308137,36.8869272363157,23200,2017-11-11 05:39:43,1851.0475690335106,71.6000022912,0.0,0.831002026592064,1851.0475690335106,71.6000022912,0.8063993323904,0.831002026592064,1684,-90.0,98,GPS_Atti,
0.318039364836413,36.8869272246473,23300,2017-11-11 05:39:43,1851.5475690495107,72.1000023072,0.0,0.83724502679184,1851.5475690495107,72.1000023072,0.8063993323904,0.83724502679184,1684,-90.0,98,GPS_Atti,
0.318039282619532,36.8869271926281,23400,2017-11-11 05:39:43,1852.1475690687107,72.7000023264,0.0,0.8469210271014721,1852.1475690687107,72.7000023264,0.8063993323904,0.8469210271014721,1684,-90.0,98,GPS_Atti,
0.318039235448395,36.8869271903263,23500,2017-11-11 05:39:43,1852.6475690847108,73.2000023424,0.0,0.8515620272499841,1852.6475690847108,73.2000023424,0.8063993323904,0.8515620272499841,1684,-90.0,98,GPS_Atti,
0.318039150919938,36.886927196903,23600,2017-11-11 05:39:44,1853.1475691007106,73.7000023584,0.35999970196000003,0.85929502749744,1853.1475691007106,73.7000023584,0.8063993323904,0.85929502749744,1684,-90.0,98,GPS_Atti,
0.318039083669272,36.8869272317057,23700,2017-11-11 05:39:44,1853.6475691167109,74.20000237440001,0.35999970196000003,0.863834027642688,1853.6475691167109,74.20000237440001,0.8063993323904,0.863834027642688,1684,-89.9,98,GPS_Atti,
0.318038952957329,36.8869272442156,23800,2017-11-11 05:39:44,1854.1475691327107,74.7000023904,0.0,0.8757990280255681,1854.1475691327107,74.7000023904,0.8063993323904,0.8757990280255681,1684,-90.0,98,GPS_Atti,
0.318038848283392,36.8869272485761,23900,2017-11-11 05:39:44,1854.6475691487105,75.2000024064,0.0,0.8857400283436802,1854.6475691487105,75.2000024064,0.8063993323904,0.8857400283436802,1684,-90.0,98,GPS_Atti,
0.318038693455822,36.8869272200234,24000,2017-11-11 05:39:44,1855.2475691679108,75.8000024256,0.0,0.9023710288758721,1855.2475691679108,75.8000024256,0.8063993323904,0.9023710288758721,1684,-90.0,98,GPS_Atti,
0.318038585783105,36.8869271978065,24100,2017-11-11 05:39:44,1855.7475691839106,76.3000024416,0.0,0.91408002925056,1855.7475691839106,76.3000024416,0.8063993323904,0.91408002925056,1684,-90.0,98,GPS_Atti,
0.318038463225596,36.8869271748167,24200,2017-11-11 05:39:44,1856.2475691999105,76.8000024576,0.0,0.927304029673728,1856.2475691999105,76.8000024576,0.8063993323904,0.927304029673728,1684,-90.0,98,GPS_Atti,
0.318038383933401,36.8869271851618,24300,2017-11-11 05:39:44,1856.7475692159107,77.3000024736,0.0,0.9345620299059841,1856.7475692159107,77.3000024736,0.8063993323904,0.9345620299059841,1684,-90.0,98,GPS_Atti,
0.318038262806479,36.8869272195716,24400,2017-11-11 05:39:44,1857.2475692319106,77.8000024896,0.0,0.9447600302323201,1857.2475692319106,77.8000024896,0.8063993323904,0.9447600302323201,1684,-90.0,98,GPS_Atti,
0.318038161839694,36.8869272777026,24500,2017-11-11 05:39:44,1857.7475692479106,78.3000025056,0.35999970196000003,0.9518710304598721,1857.7475692479106,78.3000025056,0.8063993323904,0.9518710304598721,1684,-90.0,98,GPS_Atti,
0.318038003782106,36.886927322252,24600,2017-11-11 05:39:45,1858.2475692639107,78.8000025216,0.35999970196000003,0.965478030895296,1858.2475692639107,78.8000025216,0.8063993323904,0.965478030895296,1684,-90.0,98,GPS_Atti,
0.318037876755332,36.8869273602387,24700,2017-11-11 05:39:45,1858.7475692799107,79.30000253760001,0.35999970196000003,0.976421031245472,1858.7475692799107,79.30000253760001,0.8063993323904,0.976421031245472,1684,-90.0,98,GPS_Atti,
0.318037708816345,36.8869273798198,24800,2017-11-11 05:39:45,1859.2475692959106,79.80000255360001,0.0,0.9924520317584641,1859.2475692959106,79.80000255360001,0.8063993323904,0.9924520317584641,1684,-90.0,98,GPS_Atti,
0.318037605577067,36.8869274105329,24900,2017-11-11 05:39:45,1859.7475693119106,80.30000256960001,0.0,1.001500032048,1859.7475693119106,80.30000256960001,0.8063993323904,1.001500032048,1684,-90.0,98,GPS_Atti,
0.318037459519482,36.8869274256368,25000,2017-11-11 05:39:45,1860.3475693311107,80.9000025888,0.0,1.01567003250144,1860.3475693311107,80.9000025888,0.8063993323904,1.01567003250144,1684,-90.0,98,GPS_Atti,
0.318037372539403,36.8869274501255,25100,2017-11-11 05:39:45,1860.8475693471105,81.40000260480001,0.0,1.0234600327507202,1860.8475693471105,81.40000260480001,0.8063993323904,1.0234600327507202,1641,-90.0,98,GPS_Atti,
0.318037269028174,36.8869274783945,25200,2017-11-11 05:39:45,1861.3475693631108,81.90000262080001,0.0,1.03282003305024,1861.3475693631108,81.90000262080001,0.8063993323904,1.03282003305024,1561,-89.9,98,GPS_Atti,
0.318037221884721,36.8869275110154,25300,2017-11-11 05:39:45,1861.7475693759106,82.3000026336,0.0,1.0362500331600002,1861.7475693759106,82.3000026336,0.8063993323904,1.0362500331600002,1546,-90.0,98,GPS_Atti,
0.318037132282032,36.8869275132904,25400,2017-11-11 05:39:45,1862.2475693919107,82.8000026496,0.0,1.04536003345152,1862.2475693919107,82.8000026496,0.8063993323904,1.04536003345152,1511,-89.9,98,GPS_Atti,
0.318037111933811,36.8869275211539,25500,2017-11-11 05:39:45,1862.6475694047106,83.20000266240001,0.35999970196000003,1.04712003350784,1862.6475694047106,83.20000266240001,0.8063993323904,1.04712003350784,1434,-89.9,98,GPS_Atti,
0.318037068875309,36.8869275235145,25600,2017-11-11 05:39:46,1863.0475694175107,83.60000267520002,0.35999970196000003,1.0514500336464,1863.0475694175107,83.60000267520002,0.8063993323904,1.0514500336464,1411,-90.0,98,GPS_Atti,
0.318037053335882,36.8869275251536,25700,2017-11-11 05:39:46,1863.3475694271108,83.9000026848,0.0,1.0529900336956801,1863.3475694271108,83.9000026848,0.8063993323904,1.0529900336956801,1416,-89.9,98,GPS_Atti,
0.31803697116704,36.8869275356336,25800,2017-11-11 05:39:46,1863.6475694367107,84.20000269440001,0.35999970196000003,1.06102003395264,1863.6475694367107,84.20000269440001,0.8063993323904,1.06102003395264,1424,-89.9,98,GPS_Atti,
0.318036930203532,36.8869275536666,25900,2017-11-11 05:39:46,1863.9475694463106,84.500002704,0.0,1.06451003406432,1863.9475694463106,84.500002704,0.8063993323904,1.06451003406432,1435,-89.9,98,GPS_Atti,
0.318036835608848,36.886927541539,26000,2017-11-11 05:39:46,1864.1475694527107,84.70000271040001,0.0,1.07478003439296,1864.1475694527107,84.70000271040001,0.8063993323904,1.07478003439296,1432,-89.9,98,GPS_Atti,
0.318036788670578,36.8869275066206,26100,2017-11-11 05:39:46,1864.4475694623106,85.00000272,0.0,1.0810700345942401,1864.4475694623106,85.00000272,0.8063993323904,1.0810700345942401,1432,-90.0,98,GPS_Atti,
0.318036690595096,36.8869274419087,26200,2017-11-11 05:39:46,1864.7475694719108,85.30000272960001,0.0,1.0938600350035201,1864.7475694719108,85.30000272960001,0.8063993323904,1.0938600350035201,1427,-90.0,98,GPS_Atti,
0.318036641201947,36.8869273555731,26300,2017-11-11 05:39:46,1864.9475694783107,85.500002736,0.0,1.1025500352816,1864.9475694783107,85.500002736,0.8063993323904,1.1025500352816,1306,-90.0,98,GPS_Atti,
0.318036578076944,36.8869271979928,26400,2017-11-11 05:39:46,1865.2475694879106,85.80000274560001,0.0,1.11573003570336,1865.2475694879106,85.80000274560001,0.8063993323904,1.11573003570336,1111,-90.0,98,GPS_Atti,
0.318036580098657,36.8869269829989,26500,2017-11-11 05:39:46,1865.5475694975107,86.10000275520001,0.0,1.12502003600064,1865.5475694975107,86.10000275520001,0.8063993323904,1.12502003600064,1024,-90.0,98,GPS_Atti,
0.318036546117102,36.8869267011177,26600,2017-11-11 05:39:47,1865.7475695039107,86.3000027616,0.0,1.1415200365286402,1865.7475695039107,86.3000027616,0.8063993323904,1.1415200365286402,1024,-90.0,98,GPS_Atti,
0.318036589892934,36.8869264260883,26700,2017-11-11 05:39:47,1865.8475695071106,86.4000027648,0.0,1.1505900368188802,1865.8475695071106,86.4000027648,0.8063993323904,1.1505900368188802,1024,-89.9,98,GPS_Atti,
0.318036661241579,36.8869261565189,26800,2017-11-11 05:39:47,1865.9475695103108,86.500002768,0.35999970196000003,1.1574200370374401,1865.9475695103108,86.500002768,0.8063993323904,1.1574200370374401,1024,-89.9,98,GPS_Atti,
0.318036789306486,36.8869258936631,26900,2017-11-11 05:39:47,1865.9475695103108,86.500002768,0.35999970196000003,1.15919003709408,1865.9475695103108,86.500002768,0.8063993323904,1.15919003709408,1024,-89.9,98,GPS_Atti,
0.318036895760313,36.8869256045726,27000,2017-11-11 05:39:47,1865.8475695071106,86.4000027648,0.35999970196000003,1.1654500372944,1865.9475695103108,86.500002768,0.8063993323904,1.1654500372944,1024,-89.9,98,GPS_Atti,
0.318037048014941,36.8869252984446,27100,2017-11-11 05:39:47,1865.8475695071106,86.4000027648,0.35999970196000003,1.16946003742272,1865.9475695103108,86.500002768,0.8063993323904,1.16946003742272,956,-89.9,98,GPS_Atti,
0.318037151743567,36.8869249503688,27200,2017-11-11 05:39:47,1865.8475695071106,86.4000027648,0.35999970196000003,1.18178003781696,1865.9475695103108,86.500002768,0.8063993323904,1.18178003781696,856,-89.9,98,GPS_Atti,
0.318037295834805,36.8869245858455,27300,2017-11-11 05:39:47,1865.8475695071106,86.4000027648,0.35999970196000003,1.19288003817216,1865.9475695103108,86.500002768,0.8063993323904,1.19288003817216,783,-90.0,98,GPS_Atti,
0.318037425375897,36.8869242143686,27400,2017-11-11 05:39:47,1865.8475695071106,86.4000027648,0.35999970196000003,1.2071900386300802,1865.9475695103108,86.500002768,0.8063993323904,1.2071900386300802,708,-90.0,98,GPS_Atti,
0.318037623916603,36.8869238525347,27500,2017-11-11 05:39:47,1865.7475695039107,86.3000027616,0.35999970196000003,1.21643003892576,1865.9475695103108,86.500002768,0.8063993323904,1.21643003892576,629,-90.0,98,GPS_Atti,
0.318037800472501,36.886923478178,27600,2017-11-11 05:39:48,1865.7475695039107,86.3000027616,0.35999970196000003,1.23006003936192,1865.9475695103108,86.500002768,0.8063993323904,1.23006003936192,601,-89.9,98,GPS_Atti,
0.318038044973597,36.8869231098936,27700,2017-11-11 05:39:48,1865.5475694975107,86.10000275520001,0.35999970196000003,1.23946003966272,1865.9475695103108,86.500002768,0.8063993323904,1.23946003966272,589,-89.9,98,GPS_Atti,
0.318038258343728,36.8869227654974,27800,2017-11-11 05:39:48,1865.4475694943105,86.000002752,0.7199994039200001,1.2510900400348801,1865.9475695103108,86.500002768,0.8063993323904,1.2510900400348801,584,-89.9,98,GPS_Atti,
0.318038526404337,36.8869224421672,27900,2017-11-11 05:39:48,1865.2475694879106,85.80000274560001,0.7199994039200001,1.258500040272,1865.9475695103108,86.500002768,0.8063993323904,1.258500040272,585,-89.9,98,GPS_Atti,
0.318038750847074,36.8869221114949,28000,2017-11-11 05:39:48,1865.0475694815107,85.60000273920001,0.7199994039200001,1.27122004067904,1865.9475695103108,86.500002768,0.8063993323904,1.27122004067904,584,-89.9,98,GPS_Atti,
0.318039027307197,36.8869217731261,28100,2017-11-11 05:39:48,1864.8475694751107,85.4000027328,0.35999970196000003,1.28263004104416,1865.9475695103108,86.500002768,0.8063993323904,1.28263004104416,587,-90.0,98,GPS_Atti,
0.318039218257726,36.88692141499,28200,2017-11-11 05:39:48,1864.6475694687106,85.2000027264,0.35999970196000003,1.30292004169344,1865.9475695103108,86.500002768,0.8063993323904,1.30292004169344,600,-90.0,98,GPS_Atti,
0.318039447837389,36.8869210298556,28300,2017-11-11 05:39:48,1864.5475694655106,85.1000027232,0.7199994039200001,1.32467004238944,1865.9475695103108,86.500002768,0.8063993323904,1.32467004238944,792,-89.9,98,GPS_Atti,
0.318039639501991,36.8869206211704,28400,2017-11-11 05:39:48,1864.3475694591104,84.9000027168,0.35999970196000003,1.3523100432739201,1865.9475695103108,86.500002768,0.8063993323904,1.3523100432739201,1077,-89.9,98,GPS_Atti,
0.318039844794226,36.8869202340587,28500,2017-11-11 05:39:48,1864.1475694527107,84.70000271040001,0.35999970196000003,1.37838004410816,1865.9475695103108,86.500002768,0.8063993323904,1.37838004410816,1066,-89.9,98,GPS_Atti,
0.318039899185884,36.88691985949,28600,2017-11-11 05:39:49,1864.0475694495108,84.60000270719999,0.0,1.4121800451897601,1865.9475695103108,86.500002768,0.8063993323904,1.4121800451897601,1035,-89.9,98,GPS_Atti,
0.318039862272315,36.88691946975,28700,2017-11-11 05:39:49,1863.9475694463106,84.500002704,0.35999970196000003,1.45252004648064,1865.9475695103108,86.500002768,0.8063993323904,1.45252004648064,1024,-90.0,98,GPS_Atti,
0.318039651966915,36.8869190276966,28800,2017-11-11 05:39:49,1863.8475694431106,84.4000027008,0.0,1.50693004822176,1865.9475695103108,86.500002768,0.8063993323904,1.50693004822176,1024,-89.9,98,GPS_Atti,
0.31803963817318,36.886918618352,28900,2017-11-11 05:39:49,1863.8475694431106,84.4000027008,0.35999970196000003,1.5482800495449602,1865.9475695103108,86.500002768,0.8063993323904,1.5482800495449602,1024,-89.9,98,GPS_Atti,
0.318039805378553,36.88691816176,29000,2017-11-11 05:39:49,1863.9475694463106,84.500002704,1.07999910588,1.5859900507516802,1865.9475695103108,86.500002768,1.07999910588,1.5859900507516802,1024,-89.9,98,GPS_Atti,
