latitude,longitude,time_millisecond,datetime_utc,altitude_m,ascent_m,speed_kph,distance_m,max_altitude_m,max_ascent_m,max_speed_kph,max_distance_m,rc_throttle,gimbal_pitch_degrees,battery_percent,flycState,message
0.375908110423716,36.9254399232334,0,2018-04-17 07:47:34,1630.518728976594,0.0,0.0,0.0,1630.518728976594,0.0,0.0,0.0,364,0.0,99,Motors_Started,
0.375908113701469,36.9254399715038,100,2018-04-17 07:47:34,1630.518728976594,0.0,0.0,0.005380200172166401,1630.518728976594,0.0,0.0,0.005380200172166401,364,0.0,99,Motors_Started,
0.375908074175367,36.9254400499994,200,2018-04-17 07:47:35,1630.518728976594,0.0,0.0,0.014661900469180802,1630.518728976594,0.0,0.0,0.014661900469180802,364,0.0,99,Motors_Started,
0.375908047351638,36.9254401243458,300,2018-04-17 07:47:35,1630.518728976594,0.0,0.0,0.023438500750032,1630.518728976594,0.0,0.0,0.023438500750032,364,0.0,99,Motors_Started,Setting new Return-To-Home altitude to 45m (148 ft). Setting new Maximum Flight Altitude to 150m (492 ft)
0.37590802463576,36.9254401845236,400,2018-04-17 07:47:35,1630.518728976594,0.0,0.0,0.030582500978640004,1630.518728976594,0.0,0.0,0.030582500978640004,364,0.0,99,Motors_Started,
0.375908007888536,36.9254402465322,500,2018-04-17 07:47:35,1630.518728976594,0.0,0.0,0.0377169012069408,1630.518728976594,0.0,0.0,0.0377169012069408,364,0.0,99,Motors_Started,
0.375907996650644,36.9254402959781,600,2018-04-17 07:47:35,1630.518728976594,0.0,0.0,0.0433386013868352,1630.518728976594,0.0,0.0,0.0433386013868352,364,0.0,99,Motors_Started,
0.375907987362203,36.9254403502353,700,2018-04-17 07:47:35,1630.518728976594,0.0,0.0,0.0494169015813408,1630.518728976594,0.0,0.0,0.0494169015813408,364,0.0,99,Motors_Started,
0.375907983892295,36.9254404359598,800,2018-04-17 07:47:35,1630.518728976594,0.0,0.0,0.05872770187928641,1630.518728976594,0.0,0.0,0.05872770187928641,364,0.0,99,Motors_Started,
0.375907979968966,36.9254405158994,900,2018-04-17 07:47:35,1630.518728976594,0.0,0.0,0.067484502159504,1630.518728976594,0.0,0.0,0.067484502159504,364,0.0,99,Motors_Started,
0.375907980721103,36.9254405814531,1000,2018-04-17 07:47:35,1630.518728976594,0.0,0.0,0.0746041023873312,1630.518728976594,0.0,0.0,0.0746041023873312,364,0.0,99,Motors_Started,
0.375907979999906,36.9254406470978,1100,2018-04-17 07:47:36,1630.518728976594,0.0,0.0,0.0817926026173632,1630.518728976594,0.0,0.0,0.0817926026173632,364,0.0,99,Motors_Started,
0.375907983650674,36.9254406974176,1200,2018-04-17 07:47:36,1630.518728976594,0.0,0.0,0.08723880279164162,1630.518728976594,0.0,0.0,0.08723880279164162,364,0.0,99,Motors_Started,
0.375907985761952,36.9254407518708,1300,2018-04-17 07:47:36,1630.518728976594,0.0,0.0,0.093184502981904,1630.518728976594,0.0,0.0,0.093184502981904,364,0.0,99,Motors_Started,
0.375907990497772,36.9254407943849,1400,2018-04-17 07:47:36,1630.518728976594,0.0,0.0,0.097789003129248,1630.518728976594,0.0,0.0,0.097789003129248,364,0.0,99,Motors_Started,
0.375907993738885,36.9254408431215,1500,2018-04-17 07:47:36,1630.518728976594,0.0,0.0,0.10311500329968,1630.518728976594,0.0,0.0,0.10311500329968,364,0.0,99,Assisted_Takeoff,
0.375907956011705,36.9254409251066,1600,2018-04-17 07:47:36,1630.518728976594,0.0,0.0,0.11272800360729601,1630.518728976594,0.0,0.0,0.11272800360729601,364,0.0,99,Assisted_Takeoff,
0.375907929153778,36.9254410010214,1700,2018-04-17 07:47:36,1630.518728976594,0.0,0.0,0.121537003889184,1630.518728976594,0.0,0.0,0.121537003889184,375,0.0,99,Assisted_Takeoff,
0.375907909286965,36.9254410650762,1800,2018-04-17 07:47:36,1630.518728976594,0.0,0.0,0.128932004125824,1630.518728976594,0.0,0.0,0.128932004125824,399,0.0,99,Assisted_Takeoff,
0.375907894123912,36.9254411290114,1900,2018-04-17 07:47:36,1630.518728976594,0.0,0.0,0.136227004359264,1630.518728976594,0.0,0.0,0.136227004359264,431,0.0,99,Assisted_Takeoff,
0.375907886934332,36.9254411404218,2000,2018-04-17 07:47:36,1630.518728976594,0.0,0.0,0.137619004403808,1630.518728976594,0.0,0.0,0.137619004403808,508,0.0,99,Assisted_Takeoff,
0.375907880943083,36.9254411670629,2100,2018-04-17 07:47:36,1630.518728976594,0.0,0.0,0.140653004500896,1630.518728976594,0.0,0.0,0.140653004500896,664,0.0,99,Assisted_Takeoff,
0.375907881620108,36.9254411894788,2200,2018-04-17 07:47:37,1630.518728976594,0.0,0.0,0.143092004578944,1630.518728976594,0.0,0.0,0.143092004578944,919,0.0,99,Assisted_Takeoff,
0.375907883441116,36.9254412150817,2300,2018-04-17 07:47:37,1630.518728976594,0.0,0.0,0.14585900466748802,1630.518728976594,0.0,0.0,0.14585900466748802,1024,0.0,99,Assisted_Takeoff,
0.375907885827601,36.925441252414,2400,2018-04-17 07:47:37,1630.518728976594,0.0,0.0,0.14990500479696,1630.518728976594,0.0,0.0,0.14990500479696,1024,0.0,99,Assisted_Takeoff,
0.375907888576821,36.9254412903448,2500,2018-04-17 07:47:37,1630.518728976594,0.0,0.0,0.154017004928544,1630.518728976594,0.0,0.0,0.154017004928544,1024,0.0,99,Assisted_Takeoff,
0.375907894094193,36.9254412875805,2600,2018-04-17 07:47:37,1630.518728976594,0.0,0.0,0.153616004915712,1630.518728976594,0.0,0.0,0.154017004928544,1024,0.0,99,Assisted_Takeoff,
0.375907898586052,36.9254412983017,2700,2018-04-17 07:47:37,1630.518728976594,0.0,0.0,0.154717004950944,1630.518728976594,0.0,0.0,0.154717004950944,1024,0.0,99,Assisted_Takeoff,
0.375907903272714,36.9254413195011,2800,2018-04-17 07:47:37,1630.518728976594,0.0,0.0,0.15697000502304,1630.518728976594,0.0,0.0,0.15697000502304,1024,0.0,99,Assisted_Takeoff,
0.375907907547787,36.9254413459433,2900,2018-04-17 07:47:37,1630.518728976594,0.0,0.0,0.159811005113952,1630.518728976594,0.0,0.0,0.159811005113952,1024,0.0,99,Assisted_Takeoff,
0.375907910750122,36.925441384869,3000,2018-04-17 07:47:37,1630.518728976594,0.0,0.0,0.164049005249568,1630.518728976594,0.0,0.0,0.164049005249568,1024,0.0,99,Assisted_Takeoff,
0.375907914550706,36.9254414224891,3100,2018-04-17 07:47:38,1630.518728976594,0.0,0.0,0.16814000538048002,1630.518728976594,0.0,0.0,0.16814000538048002,1024,0.0,99,Assisted_Takeoff,
0.375907917377482,36.9254414300353,3200,2018-04-17 07:47:38,1630.518728976594,0.0,0.0,0.168932005405824,1630.518728976594,0.0,0.0,0.168932005405824,1024,0.0,99,Assisted_Takeoff,
0.375907921718506,36.9254414455016,3300,2018-04-17 07:47:38,1630.518728976594,0.0,0.0,0.170578005458496,1630.518728976594,0.0,0.0,0.170578005458496,1028,0.0,99,Assisted_Takeoff,
0.375907964198707,36.9254414764334,3400,2018-04-17 07:47:38,1630.518728976594,0.0,0.0,0.17348500555152002,1630.518728976594,0.0,0.0,0.17348500555152002,1087,0.0,99,Assisted_Takeoff,
0.375907997878084,36.9254415070217,3500,2018-04-17 07:47:38,1630.518728976594,0.0,0.0,0.17656700565014402,1630.518728976594,0.0,0.0,0.17656700565014402,1104,0.0,99,Assisted_Takeoff,
0.375908023158863,36.9254415125429,3600,2018-04-17 07:47:38,1630.518728976594,0.0,0.0,0.17700300566409602,1630.518728976594,0.0,0.0,0.17700300566409602,1150,0.0,99,Assisted_Takeoff,
0.375908045246263,36.925441525348,3700,2018-04-17 07:47:38,1630.518728976594,0.0,0.0,0.178308005705856,1630.518728976594,0.0,0.0,0.178308005705856,1235,0.0,99,Assisted_Takeoff,
0.37590807003403,36.9254414466177,3900,2018-04-17 07:47:38,1630.518728976594,0.0,0.0,0.169466005422912,1630.518728976594,0.0,0.0,0.178308005705856,1259,0.0,99,Assisted_Takeoff,
0.375908073007162,36.9254414067225,4000,2018-04-17 07:47:38,1630.518728976594,0.0,0.0,0.165022005280704,1630.518728976594,0.0,0.0,0.178308005705856,1259,0.0,99,Assisted_Takeoff,
0.375908080383199,36.9254413791192,4100,2018-04-17 07:47:38,1630.518728976594,0.0,0.0,0.16193400518188802,1630.518728976594,0.0,0.0,0.178308005705856,1294,0.0,99,Assisted_Takeoff,
0.375908086770262,36.9254414348301,4200,2018-04-17 07:47:39,1630.518728976594,0.0,0.0,0.16811600537971202,1630.518728976594,0.0,0.0,0.178308005705856,1294,0.0,99,Assisted_Takeoff,
0.375908132242118,36.9254415030844,4300,2018-04-17 07:47:39,1630.518728976594,0.0,0.0,0.175702005622464,1630.518728976594,0.0,0.0,0.178308005705856,1326,0.0,99,Assisted_Takeoff,
0.375908183041021,36.9254416740125,4400,2018-04-17 07:47:39,1630.518728976594,0.0,0.35999970196000003,0.19486100623555203,1630.518728976594,0.0,0.35999970196000003,0.19486100623555203,1335,0.0,99,P-GPS,Home Point Recorded. RTH Altitude:  45m.
0.375908228081645,36.9254418589433,4500,2018-04-17 07:47:39,1630.518728976594,0.0,0.35999970196000003,0.21565500690096,1630.518728976594,0.0,0.35999970196000003,0.21565500690096,1335,0.0,99,P-GPS,
0.37590822576498,36.9254421591629,4600,2018-04-17 07:47:39,1630.618728979794,0.1000000032,0.7199994039200001,0.24897400796716804,1630.618728979794,0.1000000032,0.7199994039200001,0.24897400796716804,1339,0.0,99,P-GPS,
0.375908237668702,36.92544247909,4700,2018-04-17 07:47:39,1630.7187289829942,0.2000000064,0.7199994039200001,0.28457300910633604,1630.7187289829942,0.2000000064,0.7199994039200001,0.28457300910633604,1360,0.0,99,P-GPS,
0.375908269149272,36.9254428493118,4800,2018-04-17 07:47:39,1630.8187289861942,0.3000000096,0.7199994039200001,0.325869010427808,1630.8187289861942,0.3000000096,0.7199994039200001,0.325869010427808,1380,0.0,99,P-GPS,
0.375908338593147,36.925443214523,4900,2018-04-17 07:47:39,1630.918728989394,0.4000000128,0.7919993443119999,0.366882011740224,1630.918728989394,0.4000000128,0.7919993443119999,0.366882011740224,1388,0.0,99,P-GPS,
0.3759084641302,36.9254435423261,5000,2018-04-17 07:47:39,1631.018728992594,0.500000016,0.7919993443119999,0.404374012939968,1631.018728992594,0.500000016,0.7919993443119999,0.404374012939968,1397,0.0,99,P-GPS,
0.375908597815172,36.9254438675159,5100,2018-04-17 07:47:40,1631.218728998994,0.7000000224,0.7919993443119999,0.44195501414256005,1631.218728998994,0.7000000224,0.7919993443119999,0.44195501414256005,1404,0.0,99,P-GPS,
0.375908732586419,36.9254441111537,5200,2018-04-17 07:47:40,1631.4187290053942,0.9000000288000001,0.7919993443119999,0.470824015066368,1631.4187290053942,0.9000000288000001,0.7919993443119999,0.470824015066368,1426,0.0,99,P-GPS,
0.375908861313696,36.9254443754989,5300,2018-04-17 07:47:40,1631.6187290117941,1.1000000352000001,0.7919993443119999,0.502101016067232,1631.6187290117941,1.1000000352000001,0.7919993443119999,0.502101016067232,1452,0.0,99,P-GPS,
0.375909060714322,36.9254445565074,5400,2018-04-17 07:47:40,1631.8187290181943,1.3000000416000002,1.151999046272,0.525963016830816,1631.8187290181943,1.3000000416000002,1.151999046272,0.525963016830816,1481,0.0,99,P-GPS,
0.375909221964068,36.9254447923998,5500,2018-04-17 07:47:40,1632.018729024594,1.5000000480000002,1.151999046272,0.555399017772768,1632.018729024594,1.5000000480000002,1.151999046272,0.555399017772768,1521,0.0,99,P-GPS,
0.375909361325237,36.9254450313038,5600,2018-04-17 07:47:40,1632.3187290341941,1.8000000576000001,0.7199994039200001,0.5848220187143041,1632.3187290341941,1.8000000576000001,1.151999046272,0.5848220187143041,1537,0.0,99,P-GPS,
0.375909444725309,36.9254452599695,5700,2018-04-17 07:47:40,1632.518729040594,2.000000064,0.7199994039200001,0.6117330195754561,1632.518729040594,2.000000064,1.151999046272,0.6117330195754561,1549,0.0,99,P-GPS,
0.375909380685833,36.9254454021813,5800,2018-04-17 07:47:40,1632.818729050194,2.3000000736,0.7199994039200001,0.6254410200141121,1632.818729050194,2.3000000736,1.151999046272,0.6254410200141121,1592,0.0,99,P-GPS,
0.375909318327496,36.9254455712032,5900,2018-04-17 07:47:40,1633.218729062994,2.7000000864,1.07999910588,0.6422790205529281,1633.218729062994,2.7000000864,1.151999046272,0.6422790205529281,1683,0.0,99,P-GPS,
0.375909221023082,36.9254457321782,6000,2018-04-17 07:47:40,1633.5187290725942,3.0000000960000004,0.7199994039200001,0.6576770210456641,1633.5187290725942,3.0000000960000004,1.151999046272,0.6576770210456641,1684,0.0,99,P-GPS,
0.375909186222063,36.9254458729629,6100,2018-04-17 07:47:40,1633.918729085394,3.4000001088000005,0.7199994039200001,0.672361021515552,1633.918729085394,3.4000001088000005,1.151999046272,0.672361021515552,1684,0.0,99,P-GPS,
0.375909157660275,36.9254459415941,6200,2018-04-17 07:47:41,1634.2187290949942,3.7000001184,0.35999970196000003,0.679321021738272,1634.2187290949942,3.7000001184,1.151999046272,0.679321021738272,1684,0.0,99,P-GPS,
0.375909182518524,36.9254459673704,6300,2018-04-17 07:47:41,1634.718729110994,4.200000134400001,0.35999970196000003,0.6826230218439361,1634.718729110994,4.200000134400001,1.151999046272,0.6826230218439361,1684,0.0,99,P-GPS,
0.375909308155039,36.9254459211612,6400,2018-04-17 07:47:41,1635.118729123794,4.6000001472,0.35999970196000003,0.680161021765152,1635.118729123794,4.6000001472,1.151999046272,0.6826230218439361,1684,0.0,99,P-GPS,
0.375909508459528,36.9254458546981,6500,2018-04-17 07:47:41,1635.6187291397941,5.1000001632,0.7199994039200001,0.677676021685632,1635.6187291397941,5.1000001632,1.151999046272,0.6826230218439361,1684,0.0,99,P-GPS,
0.375909775678015,36.9254457240468,6600,2018-04-17 07:47:41,1636.1187291557942,5.6000001792,0.7199994039200001,0.6711270214760641,1636.1187291557942,5.6000001792,1.151999046272,0.6826230218439361,1684,0.0,99,P-GPS,
0.375910009044689,36.9254455929288,6700,2018-04-17 07:47:41,1636.618729171794,6.100000195200001,0.35999970196000003,0.66490502127696,1636.618729171794,6.100000195200001,1.151999046272,0.6826230218439361,1684,0.0,99,P-GPS,
0.375910226880217,36.9254455309997,6800,2018-04-17 07:47:41,1637.1187291877939,6.6000002112,0.35999970196000003,0.666542021329344,1637.1187291877939,6.6000002112,1.151999046272,0.6826230218439361,1684,0.0,99,P-GPS,
0.375910396770182,36.9254455177866,6900,2018-04-17 07:47:41,1637.6187292037941,7.1000002272,0.503999582744,0.67208502150672,1637.6187292037941,7.1000002272,1.151999046272,0.6826230218439361,1684,-0.1,99,P-GPS,
0.375910443740613,36.9254456160215,7000,2018-04-17 07:47:41,1638.0187292165942,7.50000024,0.35999970196000003,0.684173021893536,1638.0187292165942,7.50000024,1.151999046272,0.684173021893536,1684,-1.8,99,P-GPS,
0.375910422664731,36.9254457205518,7100,2018-04-17 07:47:42,1638.518729232594,8.000000256,0.35999970196000003,0.6940710222102721,1638.518729232594,8.000000256,1.151999046272,0.6940710222102721,1684,-1.8,99,P-GPS,
0.375910275853737,36.9254459131401,7200,2018-04-17 07:47:42,1639.018729248594,8.500000272,0.35999970196000003,0.7082920226653441,1639.018729248594,8.500000272,1.151999046272,0.7082920226653441,1684,-6.1,99,P-GPS,
0.375910169125161,36.9254460715312,7300,2018-04-17 07:47:42,1639.5187292645942,9.000000288,0.35999970196000003,0.7210250230728,1639.5187292645942,9.000000288,1.151999046272,0.7210250230728,1684,-11.7,99,P-GPS,
0.375909998724374,36.9254462224751,7400,2018-04-17 07:47:42,1639.918729277394,9.4000003008,0.35999970196000003,0.731297023401504,1639.918729277394,9.4000003008,1.151999046272,0.731297023401504,1684,-17.4,99,P-GPS,
0.375909892544317,36.9254463754124,7500,2018-04-17 07:47:42,1640.418729293394,9.900000316800002,0.35999970196000003,0.7443730238199361,1640.418729293394,9.900000316800002,1.151999046272,0.7443730238199361,1684,-21.3,99,P-GPS,
0.375909773363857,36.9254465870744,7600,2018-04-17 07:47:42,1640.918729309394,10.400000332800001,0.35999970196000003,0.76377002444064,1640.918729309394,10.400000332800001,1.151999046272,0.76377002444064,1684,-21.3,99,P-GPS,
0.375909685360901,36.9254467930493,7700,2018-04-17 07:47:42,1641.4187293253942,10.9000003488,0.35999970196000003,0.7837680250805761,1641.4187293253942,10.9000003488,1.151999046272,0.7837680250805761,1684,-21.3,99,P-GPS,
0.375909609420009,36.925447014348,7800,2018-04-17 07:47:42,1641.818729338194,11.3000003616,0.35999970196000003,0.8059850257915201,1641.818729338194,11.3000003616,1.151999046272,0.8059850257915201,1684,-21.3,99,P-GPS,
0.375909558620934,36.9254472143456,7900,2018-04-17 07:47:42,1642.3187293541941,11.8000003776,0.35999970196000003,0.8266380264524161,1642.3187293541941,11.8000003776,1.151999046272,0.8266380264524161,1684,-21.3,99,P-GPS,
0.375909463039452,36.9254473753148,8000,2018-04-17 07:47:42,1642.818729370194,12.300000393600001,0.35999970196000003,0.84224002695168,1642.818729370194,12.300000393600001,1.151999046272,0.84224002695168,1684,-21.3,99,P-GPS,
0.37590939014727,36.9254475243551,8100,2018-04-17 07:47:42,1643.218729382994,12.700000406400001,0.35999970196000003,0.857169027429408,1643.218729382994,12.700000406400001,1.151999046272,0.857169027429408,1684,-21.3,99,P-GPS,
0.375909309336042,36.9254476502806,8200,2018-04-17 07:47:43,1643.7187293989941,13.2000004224,0.35999970196000003,0.8695580278258561,1643.7187293989941,13.2000004224,1.151999046272,0.8695580278258561,1684,-21.3,99,P-GPS,
0.375909238742944,36.925447776523,8300,2018-04-17 07:47:43,1644.2187294149942,13.7000004384,0.35999970196000003,0.882283028233056,1644.2187294149942,13.7000004384,1.151999046272,0.882283028233056,1684,-21.3,99,P-GPS,
0.375909154544451,36.9254479325866,8400,2018-04-17 07:47:43,1644.718729430994,14.2000004544,0.35999970196000003,0.8982060287425921,1644.718729430994,14.2000004544,1.151999046272,0.8982060287425921,1684,-21.3,99,P-GPS,
0.375909084037101,36.9254480624445,8500,2018-04-17 07:47:43,1645.2187294469943,14.7000004704,0.35999970196000003,0.9115630291700161,1645.2187294469943,14.7000004704,1.151999046272,0.9115630291700161,1684,-21.3,99,P-GPS,
0.375908976222607,36.9254481521841,8600,2018-04-17 07:47:43,1645.7187294629941,15.200000486400002,0.35999970196000003,0.920141029444512,1645.7187294629941,15.200000486400002,1.151999046272,0.920141029444512,1684,-21.3,99,P-GPS,
0.375908890425593,36.9254482335374,8700,2018-04-17 07:47:43,1646.218729478994,15.700000502400002,0.35999970196000003,0.928198029702336,1646.218729478994,15.700000502400002,1.151999046272,0.928198029702336,1684,-21.3,99,P-GPS,
0.37590877726848,36.9254483264257,8800,2018-04-17 07:47:43,1646.7187294949942,16.2000005184,0.0,0.9374040299969281,1646.7187294949942,16.2000005184,1.151999046272,0.9374040299969281,1684,-21.3,99,P-GPS,
0.375908682759391,36.9254483989946,8900,2018-04-17 07:47:43,1647.218729510994,16.7000005344,0.0,0.944683030229856,1647.218729510994,16.7000005344,1.151999046272,0.944683030229856,1684,-21.3,99,P-GPS,
0.37590855333626,36.9254484678956,9000,2018-04-17 07:47:43,1647.7187295269941,17.2000005504,0.0,0.951474030447168,1647.7187295269941,17.2000005504,1.151999046272,0.951474030447168,1684,-21.3,99,P-GPS,
0.375908435385314,36.9254485200199,9100,2018-04-17 07:47:44,1648.3187295461942,17.8000005696,0.0,0.956677030613664,1648.3187295461942,17.8000005696,1.151999046272,0.956677030613664,1684,-21.3,99,P-GPS,
0.375908302839845,36.9254485593171,9200,2018-04-17 07:47:44,1648.818729562194,18.3000005856,0.0,0.9606030307392961,1648.818729562194,18.3000005856,1.151999046272,0.9606030307392961,1684,-21.3,99,P-GPS,
0.375908194603177,36.9254485989055,9300,2018-04-17 07:47:44,1649.318729578194,18.8000006016,0.0,0.964812030873984,1649.318729578194,18.8000006016,1.151999046272,0.964812030873984,1684,-21.3,99,P-GPS,
0.375908034682547,36.9254486680442,9400,2018-04-17 07:47:44,1649.918729597394,19.4000006208,0.0,0.9724920311197441,1649.918729597394,19.4000006208,1.151999046272,0.9724920311197441,1684,-21.3,99,P-GPS,
0.375907879675136,36.9254487187317,9500,2018-04-17 07:47:44,1650.4187296133941,19.900000636799998,0.0,0.978429031309728,1650.4187296133941,19.900000636799998,1.151999046272,0.978429031309728,1684,-21.3,99,P-GPS,
0.375907683078181,36.9254487309475,9600,2018-04-17 07:47:44,1651.0187296325942,20.500000656,0.0,0.980603031379296,1651.0187296325942,20.500000656,1.151999046272,0.980603031379296,1684,-21.3,99,P-GPS,
0.375907544351647,36.9254487540505,9700,2018-04-17 07:47:44,1651.518729648594,21.000000672,0.0,0.9840350314891201,1651.518729648594,21.000000672,1.151999046272,0.9840350314891201,1684,-21.3,99,P-GPS,
0.375907381492592,36.9254488281151,9800,2018-04-17 07:47:44,1652.1187296677942,21.6000006912,0.0,0.9935680317941761,1652.1187296677942,21.6000006912,1.151999046272,0.9935680317941761,1684,-21.3,99,P-GPS,
0.37590727259671,36.9254489302653,9900,2018-04-17 07:47:44,1652.718729686994,22.2000007104,0.35999970196000003,1.00594003219008,1652.718729686994,22.2000007104,1.151999046272,1.00594003219008,1684,-21.3,99,P-GPS,
0.375907173516477,36.9254490486761,10000,2018-04-17 07:47:44,1653.2187297029943,22.7000007264,0.0,1.02012003264384,1653.2187297029943,22.7000007264,1.151999046272,1.02012003264384,1684,-21.3,99,P-GPS,
0.375907083603163,36.9254491465813,10100,2018-04-17 07:47:44,1653.8187297221941,23.300000745600002,0.0,1.03201003302432,1653.8187297221941,23.300000745600002,1.151999046272,1.03201003302432,1684,-21.3,99,P-GPS,
0.375906957386947,36.9254492139481,10200,2018-04-17 07:47:45,1654.4187297413941,23.9000007648,0.0,1.04109003331488,1654.4187297413941,23.9000007648,1.151999046272,1.04109003331488,1684,-21.3,99,P-GPS,
0.375906863409444,36.9254492830386,10300,2018-04-17 07:47:45,1655.018729760594,24.500000784,0.0,1.05004003360128,1655.018729760594,24.500000784,1.151999046272,1.05004003360128,1684,-21.3,99,P-GPS,
0.375906716714527,36.9254493043557,10400,2018-04-17 07:47:45,1655.5187297765942,25.000000800000002,0.0,1.0546700337494401,1655.5187297765942,25.000000800000002,1.151999046272,1.0546700337494401,1684,-21.3,99,P-GPS,
0.375906616138976,36.9254493291342,10500,2018-04-17 07:47:45,1656.118729795794,25.6000008192,0.0,1.05909003389088,1656.118729795794,25.6000008192,1.151999046272,1.05909003389088,1684,-21.3,99,P-GPS,
0.375906479059207,36.9254493313558,10600,2018-04-17 07:47:45,1656.7187298149943,26.200000838400005,0.0,1.06183003397856,1656.7187298149943,26.200000838400005,1.151999046272,1.06183003397856,1684,-21.3,99,P-GPS,
0.375906394068272,36.9254493333696,10700,2018-04-17 07:47:45,1657.318729834194,26.8000008576,0.0,1.06371003403872,1657.318729834194,26.8000008576,1.151999046272,1.06371003403872,1684,-21.3,99,P-GPS,
0.375906302619539,36.9254492902578,10800,2018-04-17 07:47:45,1658.018729856594,27.50000088,0.0,1.06087003394784,1658.018729856594,27.50000088,1.151999046272,1.06371003403872,1684,-21.3,99,P-GPS,
0.375906244706981,36.9254492619762,10900,2018-04-17 07:47:45,1658.518729872594,28.000000896,0.0,1.05903003388896,1658.518729872594,28.000000896,1.151999046272,1.06371003403872,1684,-21.3,99,P-GPS,
0.375906144770595,36.9254492617707,11000,2018-04-17 07:47:45,1659.1187298917941,28.600000915200003,0.0,1.0612400339596801,1659.1187298917941,28.600000915200003,1.151999046272,1.06371003403872,1684,-21.3,99,P-GPS,
0.375906076935724,36.9254492651388,11100,2018-04-17 07:47:46,1659.718729910994,29.200000934400002,0.0,1.06318003402176,1659.718729910994,29.200000934400002,1.151999046272,1.06371003403872,1684,-21.3,99,P-GPS,
0.375906000699712,36.9254492657662,11200,2018-04-17 07:47:46,1660.318729930194,29.8000009536,0.0,1.0650900340828802,1660.318729930194,29.8000009536,1.151999046272,1.0650900340828802,1684,-21.3,99,P-GPS,
0.375905959148742,36.9254492623616,11300,2018-04-17 07:47:46,1660.9187299493942,30.400000972800004,0.0,1.06574003410368,1660.9187299493942,30.400000972800004,1.151999046272,1.06574003410368,1684,-21.3,99,P-GPS,
0.375905868553517,36.925449243341,11400,2018-04-17 07:47:46,1661.518729968594,31.000000992,0.0,1.0659900341116801,1661.518729968594,31.000000992,1.151999046272,1.0659900341116801,1684,-21.3,99,P-GPS,
0.375905817193207,36.9254492197948,11500,2018-04-17 07:47:46,1662.118729987794,31.6000010112,0.0,1.0648000340736001,1662.118729987794,31.6000010112,1.151999046272,1.0659900341116801,1684,-21.3,99,P-GPS,
0.375905751256696,36.925449156597,11600,2018-04-17 07:47:46,1662.718730006994,32.2000010304,0.0,1.05977003391264,1662.718730006994,32.2000010304,1.151999046272,1.0659900341116801,1684,-21.3,99,P-GPS,
0.375905715845367,36.9254491121405,11700,2018-04-17 07:47:46,1663.318730026194,32.800001049600006,0.0,1.05597003379104,1663.318730026194,32.800001049600006,1.151999046272,1.0659900341116801,1684,-21.3,99,P-GPS,
0.37590566907442,36.9254490873877,11800,2018-04-17 07:47:46,1663.9187300453939,33.4000010688,0.0,1.0546300337481602,1663.9187300453939,33.4000010688,1.151999046272,1.0659900341116801,1684,-21.3,99,P-GPS,
0.375905666306472,36.9254490524565,11900,2018-04-17 07:47:46,1664.5187300645941,34.000001088,0.0,1.05096003363072,1664.5187300645941,34.000001088,1.151999046272,1.0659900341116801,1684,-21.3,99,P-GPS,
0.375905651861767,36.9254489818864,12000,2018-04-17 07:47:46,1665.018730080594,34.500001104,0.0,1.0438000334016002,1665.018730080594,34.500001104,1.151999046272,1.0659900341116801,1684,-21.3,99,P-GPS,
0.375905673391017,36.9254489107275,12100,2018-04-17 07:47:46,1665.6187300997942,35.1000011232,0.0,1.0355400331372802,1665.6187300997942,35.1000011232,1.151999046272,1.0659900341116801,1684,-21.3,99,P-GPS,
0.375905725180015,36.9254488282221,12200,2018-04-17 07:47:47,1666.218730118994,35.700001142400005,0.0,1.02518003280576,1666.218730118994,35.700001142400005,1.151999046272,1.0659900341116801,1684,-21.3,99,P-GPS,
0.37590577487809,36.9254487572677,12300,2018-04-17 07:47:47,1666.718730134994,36.2000011584,0.0,1.01613003251616,1666.718730134994,36.2000011584,1.151999046272,1.0659900341116801,1684,-21.3,99,P-GPS,
0.375905775265253,36.9254487008951,12400,2018-04-17 07:47:47,1667.318730154194,36.8000011776,0.0,1.01006003232192,1667.318730154194,36.8000011776,1.151999046272,1.0659900341116801,1684,-21.3,99,P-GPS,
0.375905796119921,36.925448651245,12500,2018-04-17 07:47:47,1667.8187301701942,37.3000011936,0.0,1.00413003213216,1667.8187301701942,37.3000011936,1.151999046272,1.0659900341116801,1684,-21.3,99,P-GPS,
0.375905777060205,36.9254486108462,12600,2018-04-17 07:47:47,1668.418730189394,37.9000012128,0.0,1.0003400320108802,1668.418730189394,37.9000012128,1.151999046272,1.0659900341116801,1684,-21.3,99,P-GPS,
0.375905756894776,36.9254485669046,12700,2018-04-17 07:47:47,1669.0187302085942,38.500001232,0.0,0.9962040318785281,1669.0187302085942,38.500001232,1.151999046272,1.0659900341116801,1684,-21.3,99,P-GPS,
0.375905756267825,36.9254485122515,12800,2018-04-17 07:47:47,1669.618730227794,39.100001251200005,0.0,0.990359031691488,1669.618730227794,39.100001251200005,1.151999046272,1.0659900341116801,1684,-21.3,99,P-GPS,
0.375905761845653,36.9254484525729,12900,2018-04-17 07:47:47,1670.1187302437943,39.60000126720001,0.0,0.983796031481472,1670.1187302437943,39.60000126720001,1.151999046272,1.0659900341116801,1684,-21.3,99,P-GPS,
0.375905700453721,36.9254483896556,13000,2018-04-17 07:47:47,1670.718730262994,40.2000012864,0.0,0.9788990313247681,1670.718730262994,40.2000012864,1.151999046272,1.0659900341116801,1684,-21.3,99,P-GPS,
0.375905675744119,36.9254483301108,13100,2018-04-17 07:47:48,1671.2187302789941,40.700001302400004,0.0,0.973293031145376,1671.2187302789941,40.700001302400004,1.151999046272,1.0659900341116801,1684,-21.3,99,P-GPS,
0.375905638309449,36.9254482405586,13200,2018-04-17 07:47:48,1671.8187302981942,41.30000132160001,0.0,0.9649090308770881,1671.8187302981942,41.30000132160001,1.151999046272,1.0659900341116801,1684,-21.3,99,P-GPS,
0.375905621762829,36.9254481660037,13300,2018-04-17 07:47:48,1672.318730314194,41.80000133760001,0.0,0.95749503063984,1672.318730314194,41.80000133760001,1.151999046272,1.0659900341116801,1684,-21.3,99,P-GPS,
0.375905590730793,36.9254481054974,13400,2018-04-17 07:47:48,1672.918730333394,42.400001356800004,0.0,0.952066030466112,1672.918730333394,42.400001356800004,1.151999046272,1.0659900341116801,1684,-21.3,99,P-GPS,
0.375905579455854,36.9254480541697,13500,2018-04-17 07:47:48,1673.418730349394,42.900001372800006,0.0,0.9469840303034881,1673.418730349394,42.900001372800006,1.151999046272,1.0659900341116801,1684,-21.3,99,P-GPS,
0.375905520531422,36.9254479716729,13600,2018-04-17 07:47:48,1674.018730368594,43.500001392,0.0,0.9402150300868801,1674.018730368594,43.500001392,1.151999046272,1.0659900341116801,1684,-21.3,99,P-GPS,
0.375905492829147,36.9254479013512,13700,2018-04-17 07:47:48,1674.618730387794,44.100001411200004,0.0,0.9337300298793599,1674.618730387794,44.100001411200004,1.151999046272,1.0659900341116801,1684,-21.3,99,P-GPS,
0.375905432060095,36.9254478354169,13800,2018-04-17 07:47:48,1675.1187304037942,44.600001427200006,0.0,0.928911029725152,1675.1187304037942,44.600001427200006,1.151999046272,1.0659900341116801,1684,-21.3,99,P-GPS,
0.375905409699524,36.9254477831694,13900,2018-04-17 07:47:48,1675.718730422994,45.2000014464,0.0,0.92421502957488,1675.718730422994,45.2000014464,1.151999046272,1.0659900341116801,1684,-21.3,99,P-GPS,
0.375905350506806,36.9254477427021,14000,2018-04-17 07:47:48,1676.2187304389943,45.7000014624,0.0,0.9221300295081601,1676.2187304389943,45.7000014624,1.151999046272,1.0659900341116801,1684,-21.3,99,P-GPS,
0.375905316825291,36.9254477087815,14100,2018-04-17 07:47:49,1676.718730454994,46.2000014784,0.0,0.9198320294346239,1676.718730454994,46.2000014784,1.151999046272,1.0659900341116801,1684,-21.3,99,P-GPS,
0.3759052845821,36.9254476771007,14200,2018-04-17 07:47:49,1677.318730474194,46.8000014976,0.0,0.9177380293676161,1677.318730474194,46.8000014976,1.151999046272,1.0659900341116801,1684,-21.3,99,P-GPS,
0.375905280143369,36.925447659413,14300,2018-04-17 07:47:49,1677.8187304901942,47.3000015136,0.0,0.91606002931392,1677.8187304901942,47.3000015136,1.151999046272,1.0659900341116801,1684,-21.3,99,P-GPS,
0.375905273886073,36.9254476752743,14400,2018-04-17 07:47:49,1678.418730509394,47.9000015328,0.0,0.9179560293745921,1678.418730509394,47.9000015328,1.151999046272,1.0659900341116801,1684,-21.3,99,P-GPS,
0.375905277730015,36.9254476859559,14500,2018-04-17 07:47:49,1678.9187305253943,48.4000015488,0.0,0.9189250294056,1678.9187305253943,48.4000015488,1.151999046272,1.0659900341116801,1684,-21.3,99,P-GPS,
0.375905222205774,36.9254476712648,14600,2018-04-17 07:47:49,1679.518730544594,49.000001568,0.0,0.9195290294249281,1679.518730544594,49.000001568,1.151999046272,1.0659900341116801,1684,-21.3,99,P-GPS,
0.375905187474728,36.925447665568,14700,2018-04-17 07:47:49,1680.0187305605941,49.500001584,0.0,0.9202920294493441,1680.0187305605941,49.500001584,1.151999046272,1.0659900341116801,1684,-21.3,99,P-GPS,
0.375905108910447,36.9254476662168,14800,2018-04-17 07:47:49,1680.5187305765942,50.000001600000004,0.0,0.923481029551392,1680.5187305765942,50.000001600000004,1.151999046272,1.0659900341116801,1684,-21.3,99,P-GPS,
0.375905058344819,36.9254476713301,14900,2018-04-17 07:47:49,1681.018730592594,50.500001616000006,0.0,0.926058029633856,1681.018730592594,50.500001616000006,1.151999046272,1.0659900341116801,1684,-21.3,99,P-GPS,
0.375904981220082,36.9254476781917,15000,2018-04-17 07:47:49,1681.518730608594,51.00000163200001,0.0,0.9299430297581761,1681.518730608594,51.00000163200001,1.151999046272,1.0659900341116801,1684,-21.3,99,P-GPS,
0.375904940740629,36.9254476881817,15100,2018-04-17 07:47:49,1682.118730627794,51.6000016512,0.0,0.9326650298452801,1682.118730627794,51.6000016512,1.151999046272,1.0659900341116801,1684,-21.3,99,P-GPS,
0.375904880972256,36.9254477261524,15200,2018-04-17 07:47:50,1682.618730643794,52.1000016672,0.0,0.939098030051136,1682.618730643794,52.1000016672,1.151999046272,1.0659900341116801,1684,-21.3,99,P-GPS,
0.375904846185435,36.9254477520539,15300,2018-04-17 07:47:50,1683.1187306597942,52.6000016832,0.0,0.9432420301837441,1683.1187306597942,52.6000016832,1.151999046272,1.0659900341116801,1684,-21.3,98,P-GPS,
0.375904776920384,36.925447805069,15400,2018-04-17 07:47:50,1683.718730678994,53.2000017024,0.0,0.95166003045312,1683.718730678994,53.2000017024,1.151999046272,1.0659900341116801,1684,-21.3,98,P-GPS,
0.375904729557904,36.9254478515918,15500,2018-04-17 07:47:50,1684.218730694994,53.7000017184,0.0,0.958481030671392,1684.218730694994,53.7000017184,1.151999046272,1.0659900341116801,1684,-21.3,98,P-GPS,
0.375904656907725,36.9254478837202,15600,2018-04-17 07:47:50,1684.7187307109941,54.200001734400004,0.0,0.96495503087856,1684.7187307109941,54.200001734400004,1.151999046272,1.0659900341116801,1684,-21.3,98,P-GPS,
0.375904618159715,36.9254479120734,15700,2018-04-17 07:47:50,1685.218730726994,54.700001750400006,0.0,0.9695660310261119,1685.218730726994,54.700001750400006,1.151999046272,1.0659900341116801,1684,-21.3,98,P-GPS,
0.375904531774832,36.9254479583072,15800,2018-04-17 07:47:50,1685.8187307461942,55.3000017696,0.0,0.978148031300736,1685.8187307461942,55.3000017696,1.151999046272,1.0659900341116801,1684,-21.3,98,P-GPS,
0.375904491129684,36.9254479843951,15900,2018-04-17 07:47:50,1686.318730762194,55.8000017856,0.0,0.982642031444544,1686.318730762194,55.8000017856,1.151999046272,1.0659900341116801,1684,-21.3,98,P-GPS,
0.375904405720646,36.9254480230028,16100,2018-04-17 07:47:51,1687.3187307941942,56.8000018176,0.0,0.9904730316951361,1687.3187307941942,56.8000018176,1.151999046272,1.0659900341116801,1684,-21.3,98,P-GPS,
0.375904308242802,36.9254480409453,16200,2018-04-17 07:47:51,1687.918730813394,57.4000018368,0.0,0.9968370318987841,1687.918730813394,57.4000018368,1.151999046272,1.0659900341116801,1684,-21.3,98,P-GPS,
0.375904257294082,36.925448044988,16300,2018-04-17 07:47:51,1688.418730829394,57.9000018528,0.0,0.99966003198912,1688.418730829394,57.9000018528,1.151999046272,1.0659900341116801,1684,-21.3,98,P-GPS,
0.375904174682304,36.9254480933394,16400,2018-04-17 07:47:51,1688.918730845394,58.400001868800004,0.0,1.00847003227104,1688.918730845394,58.400001868800004,1.151999046272,1.0659900341116801,1684,-21.3,98,P-GPS,
0.375904122792343,36.925448126017,16500,2018-04-17 07:47:51,1689.518730864594,59.000001888,0.0,1.01426003245632,1689.518730864594,59.000001888,1.151999046272,1.0659900341116801,1684,-21.3,98,P-GPS,
0.375904030706278,36.9254481611473,16600,2018-04-17 07:47:51,1690.0187308805941,59.500001904,0.0,1.02228003271296,1690.0187308805941,59.500001904,1.151999046272,1.0659900341116801,1684,-21.3,98,P-GPS,
0.375903977886068,36.9254481711683,16700,2018-04-17 07:47:51,1690.5187308965942,60.00000192,0.0,1.02589003282848,1690.5187308965942,60.00000192,1.151999046272,1.0659900341116801,1684,-21.3,98,P-GPS,
0.375903902276599,36.9254482139194,16800,2018-04-17 07:47:51,1691.018730912594,60.500001936000004,0.0,1.0339200330854401,1691.018730912594,60.500001936000004,1.151999046272,1.0659900341116801,1684,-21.3,98,P-GPS,
0.375903859100849,36.9254482400554,16900,2018-04-17 07:47:51,1691.618730931794,61.10000195520001,0.0,1.0386900332380802,1691.618730931794,61.10000195520001,1.151999046272,1.0659900341116801,1684,-21.3,98,P-GPS,
0.375903757057256,36.9254483029427,17000,2018-04-17 07:47:51,1692.1187309477941,61.6000019712,0.0,1.05011003360352,1692.1187309477941,61.6000019712,1.151999046272,1.0659900341116801,1684,-21.3,98,P-GPS,
0.375903696734398,36.9254483409369,17100,2018-04-17 07:47:51,1692.618730963794,62.1000019872,0.0,1.05696003382272,1692.618730963794,62.1000019872,1.151999046272,1.0659900341116801,1684,-21.3,98,P-GPS,
0.375903579477474,36.9254484114492,17200,2018-04-17 07:47:52,1693.1187309797942,62.600002003200004,0.0,1.06999003423968,1693.1187309797942,62.600002003200004,1.151999046272,1.06999003423968,1684,-21.3,98,P-GPS,
0.375903503136834,36.9254484539165,17300,2018-04-17 07:47:52,1693.618730995794,63.100002019200005,0.0,1.0781600345011202,1693.618730995794,63.100002019200005,1.151999046272,1.0781600345011202,1684,-21.3,98,P-GPS,
0.37590336131931,36.9254485287658,17400,2018-04-17 07:47:52,1694.118731011794,63.600002035200006,0.0,1.09303003497696,1694.118731011794,63.600002035200006,1.151999046272,1.09303003497696,1684,-21.3,98,P-GPS,
0.375903261884077,36.9254485762404,17500,2018-04-17 07:47:52,1694.6187310277942,64.1000020512,0.0,1.1030100352963201,1694.6187310277942,64.1000020512,1.151999046272,1.1030100352963201,1684,-21.3,98,P-GPS,
0.375903117629994,36.9254486371813,17600,2018-04-17 07:47:52,1695.118731043794,64.6000020672,0.0,1.11682003573824,1695.118731043794,64.6000020672,1.151999046272,1.11682003573824,1684,-21.3,98,P-GPS,
0.375903028655071,36.9254486672605,17700,2018-04-17 07:47:52,1695.618731059794,65.10000208320001,0.0,1.1246600359891201,1695.618731059794,65.10000208320001,1.151999046272,1.1246600359891201,1684,-21.3,98,P-GPS,
0.375902959208041,36.9254487227658,17800,2018-04-17 07:47:52,1696.1187310757941,65.60000209920001,0.0,1.1338800362841601,1696.1187310757941,65.60000209920001,1.151999046272,1.1338800362841601,1684,-21.3,98,P-GPS,
0.375902934309132,36.9254487608853,17900,2018-04-17 07:47:52,1696.6187310917942,66.10000211520001,0.0,1.13894003644608,1696.6187310917942,66.10000211520001,1.151999046272,1.13894003644608,1684,-21.3,98,P-GPS,
0.375902817302988,36.9254488319093,18000,2018-04-17 07:47:52,1697.118731107794,66.6000021312,0.0,1.15236003687552,1697.118731107794,66.6000021312,1.151999046272,1.15236003687552,1684,-21.3,98,P-GPS,
0.375902747577087,36.9254488716305,18100,2018-04-17 07:47:53,1697.6187311237939,67.1000021472,0.0,1.16012003712384,1697.6187311237939,67.1000021472,1.151999046272,1.16012003712384,1684,-21.3,98,P-GPS,
0.375902656308501,36.9254489290223,18200,2018-04-17 07:47:53,1698.1187311397941,67.6000021632,0.0,1.1708300374665601,1698.1187311397941,67.6000021632,1.151999046272,1.1708300374665601,1682,-21.3,98,P-GPS,
0.375902614467261,36.9254489695496,18300,2018-04-17 07:47:53,1698.618731155794,68.1000021792,0.0,1.17709003766688,1698.618731155794,68.1000021792,1.151999046272,1.17709003766688,1014,-21.3,98,P-GPS,
0.375902508234902,36.9254490318085,18400,2018-04-17 07:47:53,1699.2187311749942,68.7000021984,0.0,1.1891600380531202,1699.2187311749942,68.7000021984,1.151999046272,1.1891600380531202,1024,-21.3,98,P-GPS,
0.375902458476168,36.9254490948874,18500,2018-04-17 07:47:53,1699.718731190994,69.2000022144,0.0,1.19804003833728,1699.718731190994,69.2000022144,1.151999046272,1.19804003833728,976,-21.3,98,P-GPS,
0.375902354961682,36.9254492050566,18600,2018-04-17 07:47:53,1700.1187312037941,69.60000222720001,0.0,1.21451003886432,1700.1187312037941,69.60000222720001,1.151999046272,1.21451003886432,725,-21.3,98,P-GPS,
0.375902300230494,36.9254492962608,18700,2018-04-17 07:47:53,1700.418731213394,69.9000022368,0.0,1.22634003924288,1700.418731213394,69.9000022368,1.151999046272,1.22634003924288,559,-21.3,98,P-GPS,
0.375902226472566,36.9254494814313,18800,2018-04-17 07:47:53,1700.7187312229942,70.2000022464,0.0,1.24817003994144,1700.7187312229942,70.2000022464,1.151999046272,1.24817003994144,507,-21.3,98,P-GPS,
0.375902201320434,36.9254496832747,18900,2018-04-17 07:47:53,1700.918731229394,70.40000225280001,0.35999970196000003,1.26878004060096,1700.918731229394,70.40000225280001,1.151999046272,1.26878004060096,493,-21.3,98,P-GPS,
0.375902139757923,36.9254499352981,19000,2018-04-17 07:47:53,1701.018731232594,70.500002256,0.35999970196000003,1.29633004148256,1701.018731232594,70.500002256,1.151999046272,1.29633004148256,484,-21.3,98,P-GPS,
0.375902136663065,36.925450185889,19100,2018-04-17 07:47:53,1701.018731232594,70.500002256,0.7199994039200001,1.32052004225664,1701.018731232594,70.500002256,1.151999046272,1.32052004225664,490,-21.3,98,P-GPS,
0.375902102784102,36.9254504897381,19200,2018-04-17 07:47:54,1700.918731229394,70.40000225280001,0.7199994039200001,1.3516800432537601,1701.018731232594,70.500002256,1.151999046272,1.3516800432537601,486,-21.3,98,P-GPS,
0.375902117620041,36.9254507597223,19300,2018-04-17 07:47:54,1700.8187312261941,70.30000224960001,0.35999970196000003,1.3770600440659202,1701.018731232594,70.500002256,1.151999046272,1.3770600440659202,476,-21.3,98,P-GPS,
0.375902075767402,36.9254510125348,19400,2018-04-17 07:47:54,1700.618731219794,70.10000224320001,0.35999970196000003,1.4039500449264,1701.018731232594,70.500002256,1.151999046272,1.4039500449264,463,-21.3,98,P-GPS,
0.375902082339802,36.9254512004418,19500,2018-04-17 07:47:54,1700.418731213394,69.9000022368,0.0,1.42199004550368,1701.018731232594,70.500002256,1.151999046272,1.42199004550368,459,-21.3,98,P-GPS,
0.375902135970976,36.9254513042901,19600,2018-04-17 07:47:54,1700.218731206994,69.7000022304,0.0,1.42941004574112,1701.018731232594,70.500002256,1.151999046272,1.42941004574112,467,-21.3,98,P-GPS,
0.375902223082145,36.9254513367963,19700,2018-04-17 07:47:54,1700.0187312005942,69.500002224,0.0,1.42814004570048,1701.018731232594,70.500002256,1.151999046272,1.42941004574112,481,-21.3,98,P-GPS,
0.37590227430648,36.9254512971929,19800,2018-04-17 07:47:54,1699.718731190994,69.2000022144,0.35999970196000003,1.4216200454918402,1701.018731232594,70.500002256,1.151999046272,1.42941004574112,468,-21.3,98,P-GPS,
0.375902363521598,36.9254511982856,19900,2018-04-17 07:47:54,1699.518731184594,69.000002208,0.35999970196000003,1.4073100450339202,1701.018731232594,70.500002256,1.151999046272,1.42941004574112,479,-21.3,98,P-GPS,
0.375902481803628,36.9254510171181,20000,2018-04-17 07:47:54,1699.2187311749942,68.7000021984,0.7199994039200001,1.38339004426848,1701.018731232594,70.500002256,1.151999046272,1.42941004574112,492,-21.3,98,P-GPS,
0.375902631928252,36.9254508053361,20100,2018-04-17 07:47:55,1699.018731168594,68.500002192,0.7199994039200001,1.3548400433548802,1701.018731232594,70.500002256,1.151999046272,1.42941004574112,489,-21.3,98,P-GPS,
0.375902772411673,36.925450491374,20200,2018-04-17 07:47:55,1698.718731158994,68.2000021824,0.7199994039200001,1.31663004213216,1701.018731232594,70.500002256,1.151999046272,1.42941004574112,490,-21.3,98,P-GPS,
0.375902946226899,36.9254501639681,20300,2018-04-17 07:47:55,1698.4187311493943,67.9000021728,1.151999046272,1.2754200408134402,1701.018731232594,70.500002256,1.151999046272,1.42941004574112,491,-21.3,98,P-GPS,
0.375903076094494,36.92544980377,20400,2018-04-17 07:47:55,1698.218731142994,67.7000021664,1.475998778036,1.23316003946112,1701.018731232594,70.500002256,1.475998778036,1.42941004574112,492,-21.3,98,P-GPS,
0.375903231395127,36.9254494285543,20500,2018-04-17 07:47:55,1697.918731133394,67.4000021568,1.475998778036,1.1881500380208,1701.018731232594,70.500002256,1.475998778036,1.42941004574112,499,-21.3,98,P-GPS,
0.375903369862534,36.9254490349357,20600,2018-04-17 07:47:55,1697.6187311237939,67.1000021472,1.475998778036,1.14219003655008,1701.018731232594,70.500002256,1.475998778036,1.42941004574112,540,-21.3,98,P-GPS,
0.375903533574894,36.9254486576923,20700,2018-04-17 07:47:55,1697.3187311141942,66.8000021376,1.475998778036,1.0965800350905601,1701.018731232594,70.500002256,1.475998778036,1.42941004574112,621,-21.3,98,P-GPS,
0.375903592097101,36.9254483778991,20800,2018-04-17 07:47:55,1697.018731104594,66.500002128,1.151999046272,1.06603003411296,1701.018731232594,70.500002256,1.475998778036,1.42941004574112,641,-21.3,98,P-GPS,
0.375903695396224,36.9254481027524,20900,2018-04-17 07:47:55,1696.818731098194,66.3000021216,1.151999046272,1.0336400330764801,1701.018731232594,70.500002256,1.475998778036,1.42941004574112,667,-21.3,98,P-GPS,
0.375903755525297,36.9254479248181,21000,2018-04-17 07:47:55,1696.6187310917942,66.10000211520001,0.7919993443119999,1.01306003241792,1701.018731232594,70.500002256,1.475998778036,1.42941004574112,693,-21.3,98,P-GPS,
0.375903847851558,36.9254477874755,21100,2018-04-17 07:47:56,1696.5187310885942,66.000002112,0.7919993443119999,0.9947390318316481,1701.018731232594,70.500002256,1.475998778036,1.42941004574112,716,-21.3,98,P-GPS,
0.37590383926233,36.925447699178,21200,2018-04-17 07:47:56,1696.318731082194,65.8000021056,0.35999970196000003,0.9865780315704961,1701.018731232594,70.500002256,1.475998778036,1.42941004574112,742,-21.3,98,P-GPS,
0.375903860246053,36.9254476027021,21300,2018-04-17 07:47:56,1696.218731078994,65.7000021024,0.35999970196000003,0.976056031233792,1701.018731232594,70.500002256,1.475998778036,1.42941004574112,834,-21.3,98,P-GPS,
0.375903764065265,36.9254474998838,21400,2018-04-17 07:47:56,1696.218731078994,65.7000021024,0.35999970196000003,0.971346031083072,1701.018731232594,70.500002256,1.475998778036,1.42941004574112,867,-21.3,98,P-GPS,
0.375903732507242,36.9254473793896,21500,2018-04-17 07:47:56,1696.1187310757941,65.60000209920001,0.35999970196000003,0.9615180307685761,1701.018731232594,70.500002256,1.475998778036,1.42941004574112,1024,-21.3,98,P-GPS,
0.37590364785828,36.9254472614702,21600,2018-04-17 07:47:56,1696.1187310757941,65.60000209920001,0.35999970196000003,0.9550910305629121,1701.018731232594,70.500002256,1.475998778036,1.42941004574112,1024,-21.3,98,P-GPS,
0.375903626706421,36.9254471737658,21700,2018-04-17 07:47:56,1696.1187310757941,65.60000209920001,0.35999970196000003,0.9480060303361921,1701.018731232594,70.500002256,1.475998778036,1.42941004574112,1024,-21.3,98,P-GPS,
0.37590353866826,36.9254470470994,21800,2018-04-17 07:47:56,1696.1187310757941,65.60000209920001,0.35999970196000003,0.941307030121824,1701.018731232594,70.500002256,1.475998778036,1.42941004574112,1024,-21.3,98,P-GPS,
0.375903522323568,36.9254469539489,21900,2018-04-17 07:47:56,1696.1187310757941,65.60000209920001,0.35999970196000003,0.9335980298751361,1701.018731232594,70.500002256,1.475998778036,1.42941004574112,1024,-21.3,98,P-GPS,
0.375903410179958,36.9254468777056,22000,2018-04-17 07:47:56,1696.218731078994,65.7000021024,0.35999970196000003,0.9334350298699201,1701.018731232594,70.500002256,1.475998778036,1.42941004574112,1024,-21.3,98,P-GPS,
0.375903354136243,36.9254468063582,22100,2018-04-17 07:47:56,1696.318731082194,65.8000021056,0.0,0.9304010297728321,1701.018731232594,70.500002256,1.475998778036,1.42941004574112,1024,-21.3,98,P-GPS,
0.375903243241243,36.9254466830407,22200,2018-04-17 07:47:57,1696.318731082194,65.8000021056,0.35999970196000003,0.926304029641728,1701.018731232594,70.500002256,1.475998778036,1.42941004574112,1024,-21.3,98,P-GPS,
0.375903198040523,36.9254465823069,22300,2018-04-17 07:47:57,1696.318731082194,65.8000021056,0.35999970196000003,0.920212029446784,1701.018731232594,70.500002256,1.475998778036,1.42941004574112,1024,-21.3,98,P-GPS,
0.37590309074479,36.9254464340696,22400,2018-04-17 07:47:57,1696.318731082194,65.8000021056,0.503999582744,0.91423502925552,1701.018731232594,70.500002256,1.475998778036,1.42941004574112,1024,-21.3,98,P-GPS,
0.375903080683449,36.9254462422569,22500,2018-04-17 07:47:57,1696.318731082194,65.8000021056,0.7919993443119999,0.898134028740288,1701.018731232594,70.500002256,1.475998778036,1.42941004574112,1024,-21.3,98,P-GPS,
0.375903078452074,36.9254458046293,22600,2018-04-17 07:47:57,1696.318731082194,65.8000021056,2.087998271368,0.860753027544096,1701.018731232594,70.500002256,2.087998271368,1.42941004574112,1024,-21.3,98,P-GPS,
0.37590338714521,36.9254450906549,22700,2018-04-17 07:47:57,1696.418731085394,65.90000210880001,3.887996781168,0.778526024912832,1701.018731232594,70.500002256,3.887996781168,1.42941004574112,1024,-21.3,98,P-GPS,
0.375903951412047,36.925443898117,22800,2018-04-17 07:47:57,1696.418731085394,65.90000210880001,5.615995350576,0.6397630204724161,1701.018731232594,70.500002256,5.615995350576,1.42941004574112,1024,-21.3,98,P-GPS,
0.375904839448155,36.9254425198454,22900,2018-04-17 07:47:57,1696.418731085394,65.90000210880001,6.911994277632001,0.464429014861728,1701.018731232594,70.500002256,6.911994277632001,1.42941004574112,1024,-21.3,98,P-GPS,
0.375906059254079,36.9254407905465,23000,2018-04-17 07:47:57,1696.418731085394,65.90000210880001,8.171993234492,0.24765500792496,1701.018731232594,70.500002256,8.171993234492,1.42941004574112,1024,-21.3,98,P-GPS,
0.37590751773188,36.925438921314,23100,2018-04-17 07:47:58,1696.5187310885942,66.000002112,9.683991982724,0.129453004142496,1701.018731232594,70.500002256,9.683991982724,1.42941004574112,1024,-21.3,98,P-GPS,
0.375909286184531,36.9254367772087,23200,2018-04-17 07:47:58,1696.418731085394,65.90000210880001,10.691991148212,0.37348501195152006,1701.018731232594,70.500002256,10.691991148212,1.42941004574112,1024,-21.3,98,P-GPS,
0.375911234175218,36.9254345210039,23300,2018-04-17 07:47:58,1696.418731085394,65.90000210880001,11.735990283896,0.693953022206496,1701.018731232594,70.500002256,11.735990283896,1.42941004574112,1024,-21.3,98,P-GPS,
0.375913340642741,36.9254321246307,23400,2018-04-17 07:47:58,1696.418731085394,65.90000210880001,11.735990283896,1.04422003341504,1701.018731232594,70.500002256,11.735990283896,1.42941004574112,1024,-21.3,98,P-GPS,
0.375915623457824,36.9254296021727,23500,2018-04-17 07:47:58,1696.418731085394,65.90000210880001,13.499988823499999,1.41963004542816,1701.018731232594,70.500002256,13.499988823499999,1.42941004574112,1024,-21.3,98,P-GPS,
0.375918060879823,36.9254269947324,23600,2018-04-17 07:47:58,1696.418731085394,65.90000210880001,14.507987988988,1.81423005805536,1701.018731232594,70.500002256,14.507987988988,1.81423005805536,1024,-21.3,98,P-GPS,
0.375920678934122,36.925424245448,23700,2018-04-17 07:47:58,1696.418731085394,65.90000210880001,15.263987363103999,2.2345200715046403,1701.018731232594,70.500002256,15.263987363103999,2.2345200715046403,1024,-21.3,98,P-GPS,
0.375923498787644,36.9254213885779,23800,2018-04-17 07:47:58,1696.418731085394,65.90000210880001,16.307986498788,2.67894008572608,1701.018731232594,70.500002256,16.307986498788,2.67894008572608,1024,-21.3,98,P-GPS,
0.375926480786149,36.9254183749644,23900,2018-04-17 07:47:58,1696.418731085394,65.90000210880001,17.063985872904,3.1488801007641603,1701.018731232594,70.500002256,17.063985872904,3.1488801007641603,1024,-21.3,98,P-GPS,
0.375929638757569,36.9254152052542,24000,2018-04-17 07:47:58,1696.418731085394,65.90000210880001,17.81998524702,3.6451501166448006,1701.018731232594,70.500002256,17.81998524702,3.6451501166448006,1024,-21.3,98,P-GPS,
0.375932950257061,36.925411886509,24100,2018-04-17 07:47:58,1696.418731085394,65.90000210880001,18.827984412508,4.16547013329504,1701.018731232594,70.500002256,18.827984412508,4.16547013329504,1024,-21.3,98,P-GPS,
0.375936419881721,36.9254084253818,24200,2018-04-17 07:47:59,1696.418731085394,65.90000210880001,19.61998375682,4.7095501507056,1701.018731232594,70.500002256,19.61998375682,4.7095501507056,1024,-21.3,98,P-GPS,
0.375940048572792,36.9254048234699,24300,2018-04-17 07:47:59,1696.418731085394,65.90000210880001,20.627982922308,5.2773001688736,1701.018731232594,70.500002256,20.627982922308,5.2773001688736,1024,-21.3,98,P-GPS,
0.375943892433424,36.9254009858647,24400,2018-04-17 07:47:59,1696.418731085394,65.90000210880001,21.635982087796002,5.8807001881824,1701.018731232594,70.500002256,21.635982087796002,5.8807001881824,1024,-21.3,98,P-GPS,
0.375947870184722,36.9253970325146,24500,2018-04-17 07:47:59,1696.418731085394,65.90000210880001,22.13998167054,6.503770208120641,1701.018731232594,70.500002256,22.13998167054,6.503770208120641,1024,-21.3,98,P-GPS,
0.375952223943739,36.9253927349636,24600,2018-04-17 07:47:59,1696.418731085394,65.90000210880001,23.183980806224,7.18347022987104,1701.018731232594,70.500002256,23.183980806224,7.18347022987104,1024,-21.3,98,P-GPS,
0.375956648520528,36.9253883751496,24700,2018-04-17 07:47:59,1696.418731085394,65.90000210880001,24.191979971711998,7.873700251958401,1701.018731232594,70.500002256,24.191979971711998,7.873700251958401,1024,-21.3,98,P-GPS,
0.375961235039559,36.9253837974724,24800,2018-04-17 07:47:59,1696.418731085394,65.90000210880001,24.695979554456,8.594000275008,1701.018731232594,70.500002256,24.695979554456,8.594000275008,1024,-21.3,98,P-GPS,
0.375965890083514,36.925379154346,24900,2018-04-17 07:47:59,1696.5187310885942,66.000002112,25.703978719943997,9.32487029839584,1701.018731232594,70.500002256,25.703978719943997,9.32487029839584,1024,-21.3,98,P-GPS,
0.375970869480944,36.9253742309006,25000,2018-04-17 07:47:59,1696.5187310885942,66.000002112,26.45997809406,10.103200323302401,1701.018731232594,70.500002256,26.45997809406,10.103200323302401,1024,-21.3,98,P-GPS,
0.375975875233111,36.925369267444,25100,2018-04-17 07:47:59,1696.5187310885942,66.000002112,26.45997809406,10.8869003483808,1701.018731232594,70.500002256,26.45997809406,10.8869003483808,1024,-21.3,98,P-GPS,
0.375981116419198,36.9253640303748,25200,2018-04-17 07:48:00,1696.5187310885942,66.000002112,28.007976812488,11.7107003747424,1701.018731232594,70.500002256,28.007976812488,11.7107003747424,1024,-21.3,98,P-GPS,
0.37598637250229,36.9253587648314,25300,2018-04-17 07:48:00,1696.5187310885942,66.000002112,28.511976395232,12.5379004012128,1701.018731232594,70.500002256,28.511976395232,12.5379004012128,1024,-21.3,98,P-GPS,
0.375991878108599,36.9253531662901,25400,2018-04-17 07:48:00,1696.5187310885942,66.000002112,29.519975560720003,13.411000429151999,1701.018731232594,70.500002256,29.519975560720003,13.411000429151999,1024,-21.3,98,P-GPS,
0.375997389440518,36.9253475758171,25500,2018-04-17 07:48:00,1696.5187310885942,66.000002112,30.023975143464003,14.284000457088002,1701.018731232594,70.500002256,30.023975143464003,14.284000457088002,1024,-21.3,98,P-GPS,
0.376003131053958,36.9253417340047,25600,2018-04-17 07:48:00,1696.5187310885942,66.000002112,30.563974696404003,15.194900486236802,1701.018731232594,70.500002256,30.563974696404003,15.194900486236802,1024,-21.3,98,P-GPS,
0.376008863170314,36.9253359069584,25700,2018-04-17 07:48:00,1696.5187310885942,66.000002112,31.31997407052,16.103800515321602,1701.018731232594,70.500002256,31.31997407052,16.103800515321602,1024,-21.3,98,P-GPS,
0.376014903629283,36.9253297256303,25800,2018-04-17 07:48:00,1696.5187310885942,66.000002112,32.075973444636,17.0649005460768,1701.018731232594,70.500002256,32.075973444636,17.0649005460768,1024,-21.3,98,P-GPS,
0.376020923439582,36.925323603726,25900,2018-04-17 07:48:00,1696.5187310885942,66.000002112,32.57997302738,18.019700576630402,1701.018731232594,70.500002256,32.57997302738,18.019700576630402,1024,-21.3,98,P-GPS,
0.376027072913106,36.9253173770806,26000,2018-04-17 07:48:00,1696.5187310885942,66.000002112,33.083972610124,18.992800607769603,1701.018731232594,70.500002256,33.083972610124,18.992800607769603,1024,-21.3,98,P-GPS,
0.376033240117129,36.9253111472404,26100,2018-04-17 07:48:01,1696.418731085394,65.90000210880001,33.839971984239995,19.9676006389632,1701.018731232594,70.500002256,33.839971984239995,19.9676006389632,1024,-21.3,98,P-GPS,
0.376039440684712,36.925304836564,26200,2018-04-17 07:48:01,1696.418731085394,65.90000210880001,34.631971328552,20.9514006704448,1701.018731232594,70.500002256,34.631971328552,20.9514006704448,1024,-21.3,98,P-GPS,
0.37604568198945,36.9252985012119,26300,2018-04-17 07:48:01,1696.418731085394,65.90000210880001,34.883971119924006,21.940400702092802,1701.018731232594,70.500002256,34.883971119924006,21.940400702092802,1024,-21.3,98,P-GPS,
0.376052084197483,36.9252919415943,26400,2018-04-17 07:48:01,1696.5187310885942,66.000002112,35.387970702668,22.9597007347104,1701.018731232594,70.500002256,35.387970702668,22.9597007347104,1024,-21.3,98,P-GPS,
0.376058527754965,36.9252853707139,26500,2018-04-17 07:48:01,1696.5187310885942,66.000002112,36.143970076784,23.9831007674592,1701.018731232594,70.500002256,36.143970076784,23.9831007674592,1024,-21.3,98,P-GPS,
0.376065151144775,36.9252785828482,26600,2018-04-17 07:48:01,1696.418731085394,65.90000210880001,36.647969659528,25.037800801209602,1701.018731232594,70.500002256,36.647969659528,25.037800801209602,1024,-21.3,98,P-GPS,
0.37607180840622,36.9252718005155,26700,2018-04-17 07:48:01,1696.418731085394,65.90000210880001,37.151969242271996,26.0946008350272,1701.018731232594,70.500002256,37.151969242271996,26.0946008350272,1024,-21.3,98,P-GPS,
0.376078632146752,36.9252648572983,26800,2018-04-17 07:48:01,1696.418731085394,65.90000210880001,37.151969242271996,27.1772008696704,1701.018731232594,70.500002256,37.151969242271996,27.1772008696704,1024,-21.3,98,P-GPS,
0.376085484795421,36.9252579289498,26900,2018-04-17 07:48:01,1696.418731085394,65.90000210880001,38.195968377956,28.2608009043456,1701.018731232594,70.500002256,38.195968377956,28.2608009043456,1024,-21.3,98,P-GPS,
0.37609259789091,36.9252506999193,27000,2018-04-17 07:48:01,1696.418731085394,65.90000210880001,38.6999679607,29.3886009404352,1701.018731232594,70.500002256,38.6999679607,29.3886009404352,1024,-21.3,98,P-GPS,
0.376099702700876,36.9252435200003,27100,2018-04-17 07:48:01,1696.418731085394,65.90000210880001,38.951967752072,30.511900976380804,1701.018731232594,70.500002256,38.951967752072,30.511900976380804,1024,-21.3,98,P-GPS,
0.376106830517498,36.9252362956461,27200,2018-04-17 07:48:02,1696.418731085394,65.90000210880001,39.203967543444,31.640401012492802,1701.018731232594,70.500002256,39.203967543444,31.640401012492802,1024,-21.3,98,P-GPS,
0.376113954699434,36.9252290957022,27300,2018-04-17 07:48:02,1696.418731085394,65.90000210880001,39.707967126187995,32.7668010485376,1701.018731232594,70.500002256,39.707967126187995,32.7668010485376,1024,-21.3,98,P-GPS,
0.376121188977211,36.925221774187,27400,2018-04-17 07:48:02,1696.418731085394,65.90000210880001,40.211966708931996,33.911401085164805,1701.018731232594,70.500002256,40.211966708931996,33.911401085164805,1024,-21.3,98,P-GPS,
0.376128430185646,36.9252144635322,27500,2018-04-17 07:48:02,1696.5187310885942,66.000002112,40.211966708931996,35.055601121779205,1701.018731232594,70.500002256,40.211966708931996,35.055601121779205,1024,-21.3,98,P-GPS,
0.376135723139517,36.9252070640071,27600,2018-04-17 07:48:02,1696.5187310885942,66.000002112,40.715966291676,36.211001158752,1701.018731232594,70.500002256,40.715966291676,36.211001158752,1024,-21.3,98,P-GPS,
0.376143018803119,36.9251996726702,27700,2018-04-17 07:48:02,1696.5187310885942,66.000002112,40.715966291676,37.3659011957088,1701.018731232594,70.500002256,40.715966291676,37.3659011957088,1024,-21.3,98,P-GPS,
0.376150230595342,36.9251922847935,27800,2018-04-17 07:48:02,1696.5187310885942,66.000002112,40.967966083048,38.514001232448,1701.018731232594,70.500002256,40.967966083048,38.514001232448,1024,-21.3,98,P-GPS,
0.376157462267608,36.9251848858508,27900,2018-04-17 07:48:02,1696.5187310885942,66.000002112,41.507965635988,39.664501269264,1701.018731232594,70.500002256,41.507965635988,39.664501269264,1024,-21.3,98,P-GPS,
0.376164958868172,36.9251771155992,28000,2018-04-17 07:48:02,1696.5187310885942,66.000002112,41.507965635988,40.865201307686405,1701.018731232594,70.500002256,41.507965635988,40.865201307686405,1024,-21.3,98,P-GPS,
0.376172441190539,36.9251693982107,28100,2018-04-17 07:48:03,1696.5187310885942,66.000002112,41.507965635988,42.060501345936004,1701.018731232594,70.500002256,41.507965635988,42.060501345936004,1024,-21.3,98,P-GPS,
0.376179848552372,36.9251616964618,28200,2018-04-17 07:48:03,1696.5187310885942,66.000002112,41.75996542736,43.2488013839616,1701.018731232594,70.500002256,41.75996542736,43.2488013839616,1024,-21.3,98,P-GPS,
0.376187263939176,36.9251540218467,28300,2018-04-17 07:48:03,1696.5187310885942,66.000002112,42.263965010104,44.435501421936,1701.018731232594,70.500002256,42.263965010104,44.435501421936,1024,-21.3,98,P-GPS,
0.37619484323864,36.9251461575688,28400,2018-04-17 07:48:03,1696.418731085394,65.90000210880001,42.263965010104,45.65010146080321,1701.018731232594,70.500002256,42.263965010104,45.65010146080321,1024,-21.3,98,P-GPS,
0.376202419437546,36.9251383258549,28500,2018-04-17 07:48:03,1696.418731085394,65.90000210880001,42.515964801475995,46.8618014995776,1701.018731232594,70.500002256,42.515964801475995,46.8618014995776,1024,-21.3,98,P-GPS,
0.376209865048272,36.9251305816751,28600,2018-04-17 07:48:03,1696.418731085394,65.90000210880001,42.767964592848,48.056501537807996,1701.018731232594,70.500002256,42.767964592848,48.056501537807996,1024,-21.3,98,P-GPS,
0.37621733783447,36.9251228341378,28700,2018-04-17 07:48:03,1696.418731085394,65.90000210880001,42.767964592848,49.253501576112,1701.018731232594,70.500002256,42.767964592848,49.253501576112,1024,-21.3,98,P-GPS,
0.376224811584708,36.9251149714187,28800,2018-04-17 07:48:03,1696.418731085394,65.90000210880001,42.767964592848,50.459701614710404,1701.018731232594,70.500002256,42.767964592848,50.459701614710404,1024,-21.3,98,P-GPS,
0.376232317017952,36.9251071034921,28900,2018-04-17 07:48:03,1696.418731085394,65.90000210880001,43.019964384219996,51.6689016534048,1701.018731232594,70.500002256,43.019964384219996,51.6689016534048,1024,-21.3,98,P-GPS,
0.376239952283779,36.925099043847,29000,2018-04-17 07:48:03,1696.418731085394,65.90000210880001,43.271964175592004,52.9033016929056,1701.018731232594,70.500002256,43.271964175592004,52.9033016929056,1024,-21.3,98,P-GPS,
