latitude,longitude,time_millisecond,datetime_utc,altitude_m,ascent_m,speed_kph,distance_m,max_altitude_m,max_ascent_m,max_speed_kph,max_distance_m,rc_throttle,gimbal_pitch_degrees,battery_percent,flycState,message
0.339537164814267,36.9018892038465,0,2018-04-07 06:00:51,1679.5439990454208,0.0,0.0,0.0,1679.5439990454208,0.0,0.0,0.0,364,0.0,99,Motors_Started,
0.339537160005472,36.9018891700542,100,2018-04-07 06:00:51,1679.5439990454208,0.0,0.0,0.0037957101214627204,1679.5439990454208,0.0,0.0,0.0037957101214627204,364,0.0,99,Motors_Started,
0.3395371573564,36.9018891296722,200,2018-04-07 06:00:51,1679.5439990454208,0.0,0.0,0.00829008026528256,1679.5439990454208,0.0,0.0,0.00829008026528256,364,0.0,99,Motors_Started,
0.339537152919705,36.9018890886642,300,2018-04-07 06:00:52,1679.5439990454208,0.0,0.0,0.0128769004120608,1679.5439990454208,0.0,0.0,0.0128769004120608,364,0.0,99,Motors_Started,
0.339537150847917,36.9018890653527,400,2018-04-07 06:00:52,1679.5439990454208,0.0,0.0,0.0154792004953344,1679.5439990454208,0.0,0.0,0.0154792004953344,364,0.0,99,Motors_Started,
0.339537147578408,36.9018890481898,500,2018-04-07 06:00:52,1679.5439990454208,0.0,0.0,0.017415500557296,1679.5439990454208,0.0,0.0,0.017415500557296,606,0.0,99,Motors_Started,Setting new Return-To-Home altitude to 30m (98 ft). Setting new Maximum Flight Altitude to 150m (492 ft)
0.339537141376479,36.9018890187416,700,2018-04-07 06:00:52,1679.5439990454208,0.0,0.0,0.0207488006639616,1679.5439990454208,0.0,0.0,0.0207488006639616,928,0.0,99,Motors_Started,
0.339537138117149,36.9018889868371,800,2018-04-07 06:00:52,1679.5439990454208,0.0,0.0,0.0243143007780576,1679.5439990454208,0.0,0.0,0.0243143007780576,1024,0.0,99,Motors_Started,
0.339537150749803,36.9018889596722,900,2018-04-07 06:00:52,1679.5439990454208,0.0,0.0,0.0271982008703424,1679.5439990454208,0.0,0.0,0.0271982008703424,1024,0.0,99,Motors_Started,
0.339537178011991,36.901888943635,1000,2018-04-07 06:00:52,1679.5439990454208,0.0,0.0,0.028973800927161602,1679.5439990454208,0.0,0.0,0.028973800927161602,1024,0.0,99,Motors_Started,
0.339537208691469,36.9018889354376,1100,2018-04-07 06:00:52,1679.5439990454208,0.0,0.0,0.030244400967820804,1679.5439990454208,0.0,0.0,0.030244400967820804,1024,0.0,99,Motors_Started,
0.339537224297255,36.9018889308933,1200,2018-04-07 06:00:52,1679.5439990454208,0.0,0.0,0.031065900994108803,1679.5439990454208,0.0,0.0,0.031065900994108803,1024,0.0,99,Motors_Started,
0.339537225098856,36.9018889331357,1300,2018-04-07 06:00:52,1679.5439990454208,0.0,0.0,0.0308416009869312,1679.5439990454208,0.0,0.0,0.031065900994108803,1024,0.0,99,Motors_Started,
0.339537202719558,36.9018889341062,1400,2018-04-07 06:00:53,1679.5439990454208,0.0,0.0,0.030291000969312004,1679.5439990454208,0.0,0.0,0.031065900994108803,1024,0.0,99,Motors_Started,
0.339537195414358,36.9018889224177,1500,2018-04-07 06:00:53,1679.5439990454208,0.0,0.0,0.031480501007376004,1679.5439990454208,0.0,0.0,0.031480501007376004,1024,0.0,99,Assisted_Takeoff,
0.339537206515868,36.9018888973816,1600,2018-04-07 06:00:53,1679.5439990454208,0.0,0.0,0.0343942011006144,1679.5439990454208,0.0,0.0,0.0343942011006144,1024,0.0,99,Assisted_Takeoff,
0.339537202655234,36.9018888737184,1700,2018-04-07 06:00:53,1679.5439990454208,0.0,0.0,0.036952001182464,1679.5439990454208,0.0,0.0,0.036952001182464,1024,0.0,99,Assisted_Takeoff,
0.339537178826213,36.9018888589346,1800,2018-04-07 06:00:53,1679.5439990454208,0.0,0.0,0.0383873012283936,1679.5439990454208,0.0,0.0,0.0383873012283936,1024,0.0,99,Assisted_Takeoff,
0.339537169470802,36.9018888498607,1900,2018-04-07 06:00:53,1679.5439990454208,0.0,0.0,0.0393681012597792,1679.5439990454208,0.0,0.0,0.0393681012597792,1024,0.0,99,Assisted_Takeoff,
0.339537181429281,36.9018888436381,2000,2018-04-07 06:00:53,1679.5439990454208,0.0,0.0,0.040099301283177596,1679.5439990454208,0.0,0.0,0.040099301283177596,1024,0.0,99,Assisted_Takeoff,
0.339537196862045,36.9018888261421,2100,2018-04-07 06:00:53,1679.5439990454208,0.0,0.0,0.0421532013489024,1679.5439990454208,0.0,0.0,0.0421532013489024,1024,0.0,99,Assisted_Takeoff,
0.339537203867611,36.901888796359,2200,2018-04-07 06:00:53,1679.5439990454208,0.0,0.0,0.045521901456700806,1679.5439990454208,0.0,0.0,0.045521901456700806,1024,0.0,99,Assisted_Takeoff,
0.3395372134966,36.9018887697165,2300,2018-04-07 06:00:54,1679.5439990454208,0.0,0.0,0.0485797015545504,1679.5439990454208,0.0,0.0,0.0485797015545504,1024,0.0,99,Assisted_Takeoff,
0.339537218048915,36.901888754478,2400,2018-04-07 06:00:54,1679.5439990454208,0.0,0.0,0.0503211016102752,1679.5439990454208,0.0,0.0,0.0503211016102752,1024,0.0,99,Assisted_Takeoff,
0.339537223779002,36.9018887450421,2500,2018-04-07 06:00:54,1679.5439990454208,0.0,0.0,0.051440601646099204,1679.5439990454208,0.0,0.0,0.051440601646099204,1024,0.0,99,Assisted_Takeoff,
0.339537225800716,36.9018887399116,2600,2018-04-07 06:00:54,1679.5439990454208,0.0,0.0,0.0520353016651296,1679.5439990454208,0.0,0.0,0.0520353016651296,1024,0.0,99,Assisted_Takeoff,
0.339537228294678,36.9018887417657,2700,2018-04-07 06:00:54,1679.5439990454208,0.0,0.0,0.05186800165977601,1679.5439990454208,0.0,0.0,0.0520353016651296,1024,0.0,99,Assisted_Takeoff,
0.339537228353302,36.901888742823,2800,2018-04-07 06:00:54,1679.5439990454208,0.0,0.0,0.0517524016560768,1679.5439990454208,0.0,0.0,0.0520353016651296,1024,0.0,99,Assisted_Takeoff,
0.339537228822701,36.9018887511676,2900,2018-04-07 06:00:54,1679.5439990454208,0.0,0.0,0.050840501626896004,1679.5439990454208,0.0,0.0,0.0520353016651296,1024,0.0,99,Assisted_Takeoff,
0.339537228161959,36.9018887560999,3000,2018-04-07 06:00:54,1679.5439990454208,0.0,0.0,0.0502872016091904,1679.5439990454208,0.0,0.0,0.0520353016651296,1024,0.0,99,Assisted_Takeoff,
0.339537227980388,36.901888765283,3100,2018-04-07 06:00:54,1679.5439990454208,0.0,0.0,0.0492734015767488,1679.5439990454208,0.0,0.0,0.0520353016651296,1024,0.0,99,Assisted_Takeoff,
0.339537227797188,36.9018887721442,3200,2018-04-07 06:00:54,1679.5439990454208,0.0,0.0,0.048515301552489606,1679.5439990454208,0.0,0.0,0.0520353016651296,1024,0.0,99,Assisted_Takeoff,
0.339537228494162,36.9018887825037,3300,2018-04-07 06:00:55,1679.5439990454208,0.0,0.0,0.0473872015163904,1679.5439990454208,0.0,0.0,0.0520353016651296,1024,0.0,99,Assisted_Takeoff,
0.339537246742913,36.9018887969337,3500,2018-04-07 06:00:55,1679.5439990454208,0.0,0.0,0.046158501477072,1679.5439990454208,0.0,0.0,0.0520353016651296,1024,0.0,99,Assisted_Takeoff,
0.33953727589206,36.9018888027707,3600,2018-04-07 06:00:55,1679.5439990454208,0.0,0.0,0.046280201480966406,1679.5439990454208,0.0,0.0,0.0520353016651296,1026,0.0,99,Assisted_Takeoff,
0.339537290281806,36.9018887916239,3700,2018-04-07 06:00:55,1679.5439990454208,0.0,0.0,0.0479173015333536,1679.5439990454208,0.0,0.0,0.0520353016651296,1034,0.0,99,Assisted_Takeoff,
0.339537278008223,36.9018887670852,3800,2018-04-07 06:00:55,1679.5439990454208,0.0,0.0,0.0501744016055808,1679.5439990454208,0.0,0.0,0.0520353016651296,1031,0.0,99,Assisted_Takeoff,
0.339537263442606,36.9018887392117,3900,2018-04-07 06:00:55,1679.5439990454208,0.0,0.0,0.052820601690259206,1679.5439990454208,0.0,0.0,0.052820601690259206,1073,0.0,99,Assisted_Takeoff,
0.339537253901959,36.901888724817,4000,2018-04-07 06:00:55,1679.5439990454208,0.0,0.0,0.05418350173387201,1679.5439990454208,0.0,0.0,0.05418350173387201,1065,0.0,99,Assisted_Takeoff,
0.339537242611957,36.9018887108656,4100,2018-04-07 06:00:55,1679.5439990454208,0.0,0.0,0.05550000177600001,1679.5439990454208,0.0,0.0,0.05550000177600001,1066,0.0,99,Assisted_Takeoff,
0.339537235329963,36.9018887045348,4200,2018-04-07 06:00:55,1679.5439990454208,0.0,0.0,0.05607650179444801,1679.5439990454208,0.0,0.0,0.05607650179444801,1067,0.0,99,Assisted_Takeoff,
0.33953722899613,36.9018887002692,4300,2018-04-07 06:00:56,1679.5439990454208,0.0,0.0,0.0564529018064928,1679.5439990454208,0.0,0.0,0.0564529018064928,1051,0.0,99,Assisted_Takeoff,
0.339537226323853,36.9018886990039,4400,2018-04-07 06:00:56,1679.5439990454208,0.0,0.0,0.0565558018097856,1679.5439990454208,0.0,0.0,0.0565558018097856,1038,0.0,99,Assisted_Takeoff,
0.339537243068736,36.9018886826407,4500,2018-04-07 06:00:56,1679.5439990454208,0.0,0.0,0.058609901875516804,1679.5439990454208,0.0,0.0,0.058609901875516804,1042,0.0,99,Assisted_Takeoff,
0.339537272579805,36.9018886556876,4600,2018-04-07 06:00:56,1679.5439990454208,0.0,0.0,0.0621244019879808,1679.5439990454208,0.0,0.0,0.0621244019879808,1053,0.0,99,Assisted_Takeoff,
0.339537305773193,36.9018886282752,4700,2018-04-07 06:00:56,1679.5439990454208,0.0,0.0,0.06589750210872,1679.5439990454208,0.0,0.0,0.06589750210872,1061,0.0,99,Assisted_Takeoff,
0.339537327418064,36.9018886142003,4800,2018-04-07 06:00:56,1679.5439990454208,0.0,0.0,0.0680187021765984,1679.5439990454208,0.0,0.0,0.0680187021765984,1057,0.0,99,Assisted_Takeoff,
0.339537347551738,36.9018886028319,4900,2018-04-07 06:00:56,1679.5439990454208,0.0,0.0,0.0698564022354048,1679.5439990454208,0.0,0.0,0.0698564022354048,1061,0.0,99,Assisted_Takeoff,
0.339537361585669,36.9018885978545,5000,2018-04-07 06:00:56,1679.5439990454208,0.0,0.0,0.07085250226728,1679.5439990454208,0.0,0.0,0.07085250226728,1067,0.0,99,Assisted_Takeoff,
0.339537372563824,36.9018885954989,5100,2018-04-07 06:00:56,1679.5439990454208,0.0,0.0,0.07148690228758081,1679.5439990454208,0.0,0.0,0.07148690228758081,1066,0.0,99,Assisted_Takeoff,
0.339537380333537,36.9018885965185,5200,2018-04-07 06:00:56,1679.5439990454208,0.0,0.0,0.0716639022932448,1679.5439990454208,0.0,0.0,0.0716639022932448,1055,0.0,99,Assisted_Takeoff,
0.339537384493804,36.9018885835003,5300,2018-04-07 06:00:57,1679.5439990454208,0.0,0.0,0.073183002341856,1679.5439990454208,0.0,0.0,0.073183002341856,1053,0.0,99,Assisted_Takeoff,
0.339537387799139,36.9018885575879,5400,2018-04-07 06:00:57,1679.5439990454208,0.0,0.0,0.076024502432784,1679.5439990454208,0.0,0.0,0.076024502432784,1085,0.0,99,Assisted_Takeoff,
0.339537404787474,36.9018885300472,5500,2018-04-07 06:00:57,1679.5439990454208,0.0,0.0,0.07953970254527042,1679.5439990454208,0.0,0.0,0.07953970254527042,1085,0.0,99,Assisted_Takeoff,
0.339537435070425,36.9018885174534,5600,2018-04-07 06:00:57,1679.5439990454208,0.0,0.0,0.08203340262506881,1679.5439990454208,0.0,0.0,0.08203340262506881,1080,0.0,99,Assisted_Takeoff,
0.339537462344827,36.9018885074195,5700,2018-04-07 06:00:57,1679.5439990454208,0.0,0.0,0.08421750269495999,1679.5439990454208,0.0,0.0,0.08421750269495999,1095,0.0,99,Assisted_Takeoff,
0.339537480371295,36.9018885029776,5800,2018-04-07 06:00:57,1679.5439990454208,0.0,0.0,0.08547520273520641,1679.5439990454208,0.0,0.0,0.08547520273520641,1102,0.0,99,Assisted_Takeoff,
0.339537492921305,36.9018885008657,5900,2018-04-07 06:00:57,1679.5439990454208,0.0,0.0,0.0862703027606496,1679.5439990454208,0.0,0.0,0.0862703027606496,1131,0.0,99,Assisted_Takeoff,
0.339537502213614,36.9018885016339,6000,2018-04-07 06:00:57,1679.5439990454208,0.0,0.0,0.0866354027723328,1679.5439990454208,0.0,0.0,0.0866354027723328,1160,0.0,99,Assisted_Takeoff,
0.339537505031229,36.9018885048825,6100,2018-04-07 06:00:57,1679.5439990454208,0.0,0.0,0.08644660276629121,1679.5439990454208,0.0,0.0,0.0866354027723328,1165,0.0,99,Assisted_Takeoff,
0.339537508450147,36.9018885083465,6200,2018-04-07 06:00:57,1679.5439990454208,0.0,0.0,0.0862682027605824,1679.5439990454208,0.0,0.0,0.0866354027723328,1171,0.0,99,Assisted_Takeoff,
0.339537504040321,36.9018885122173,6300,2018-04-07 06:00:58,1679.5439990454208,0.0,0.0,0.0856654027412928,1679.5439990454208,0.0,0.0,0.0866354027723328,1184,0.0,99,Assisted_Takeoff,
0.339537505579608,36.9018885176579,6400,2018-04-07 06:00:58,1679.5439990454208,0.0,0.0,0.08519860272635521,1679.5439990454208,0.0,0.0,0.0866354027723328,1206,0.0,99,Assisted_Takeoff,
0.339537514810442,36.9018885186261,6500,2018-04-07 06:00:58,1679.5439990454208,0.0,0.0,0.0855642027380544,1679.5439990454208,0.0,0.0,0.0866354027723328,1215,0.0,99,Assisted_Takeoff,
0.339537518450829,36.9018885141536,6600,2018-04-07 06:00:58,1679.5439990454208,0.0,0.0,0.0861914027581248,1679.5439990454208,0.0,0.0,0.0866354027723328,1225,0.0,99,Assisted_Takeoff,
0.339537506059592,36.9018884891954,6700,2018-04-07 06:00:58,1679.5439990454208,0.0,0.0,0.08806770281816641,1679.5439990454208,0.0,0.0,0.08806770281816641,1225,0.0,99,Assisted_Takeoff,Home Point Recorded. RTH Altitude:  30m.
0.339537503340497,36.9018884142872,6800,2018-04-07 06:00:58,1679.5439990454208,0.0,0.35999970196000003,0.09553260305704321,1679.5439990454208,0.0,0.35999970196000003,0.09553260305704321,1244,0.0,99,P-GPS,Obstacle Avoided. Revise Flight Route
0.33953750681519,36.9018883008723,6900,2018-04-07 06:00:58,1679.5439990454208,0.0,0.35999970196000003,0.10737600343603201,1679.5439990454208,0.0,0.35999970196000003,0.10737600343603201,1232,0.0,99,P-GPS,
0.339537511575131,36.9018881977273,7000,2018-04-07 06:00:58,1679.5439990454208,0.0,0.35999970196000003,0.118344003787008,1679.5439990454208,0.0,0.35999970196000003,0.118344003787008,1235,0.0,99,P-GPS,
0.339537545138583,36.9018881179291,7100,2018-04-07 06:00:58,1679.6439990486208,0.1000000032,0.0,0.127951004094432,1679.6439990486208,0.1000000032,0.35999970196000003,0.127951004094432,1238,0.0,99,P-GPS,
0.339537621300909,36.9018880746125,7200,2018-04-07 06:00:58,1679.743999051821,0.2000000064,0.0,0.13544800433433601,1679.743999051821,0.2000000064,0.35999970196000003,0.13544800433433601,1247,0.0,99,P-GPS,
0.339537724516982,36.9018880627916,7300,2018-04-07 06:00:59,1679.743999051821,0.2000000064,0.0,0.14133400452268802,1679.743999051821,0.2000000064,0.35999970196000003,0.14133400452268802,1247,0.0,99,P-GPS,
0.339537844731161,36.9018880851735,7400,2018-04-07 06:00:59,1679.843999055021,0.3000000096,0.0,0.14557700465846402,1679.843999055021,0.3000000096,0.35999970196000003,0.14557700465846402,1248,0.0,99,P-GPS,
0.339537951472815,36.9018881059305,7500,2018-04-07 06:00:59,1679.943999058221,0.4000000128,0.0,0.15019900480636802,1679.943999058221,0.4000000128,0.35999970196000003,0.15019900480636802,1260,0.0,99,P-GPS,
0.33953803510746,36.9018881121914,7600,2018-04-07 06:00:59,1680.043999061421,0.500000016,0.0,0.155254004968128,1680.043999061421,0.500000016,0.35999970196000003,0.155254004968128,1281,0.0,99,P-GPS,
0.3395381143278,36.9018881097625,7700,2018-04-07 06:00:59,1680.143999064621,0.6000000192,0.0,0.161097005155104,1680.143999064621,0.6000000192,0.35999970196000003,0.161097005155104,1300,0.0,99,P-GPS,
0.339538212499156,36.9018881016266,7800,2018-04-07 06:00:59,1680.243999067821,0.7000000224,0.0,0.16911000541152,1680.243999067821,0.7000000224,0.35999970196000003,0.16911000541152,1305,0.0,99,P-GPS,
0.339538294420474,36.901888053124,7900,2018-04-07 06:00:59,1680.3439990710208,0.8000000256,0.0,0.179319005738208,1680.3439990710208,0.8000000256,0.35999970196000003,0.179319005738208,1316,0.0,99,P-GPS,
0.339538375320351,36.9018879731488,8000,2018-04-07 06:00:59,1680.443999074221,0.9000000288000001,0.0,0.19196800614297602,1680.443999074221,0.9000000288000001,0.35999970196000003,0.19196800614297602,1306,0.0,99,P-GPS,
0.339538459674768,36.9018878597562,8100,2018-04-07 06:00:59,1680.543999077421,1.000000032,0.0,0.20754700664150402,1680.543999077421,1.000000032,0.35999970196000003,0.20754700664150402,1309,0.0,99,P-GPS,
0.339538570588495,36.9018877632562,8200,2018-04-07 06:00:59,1680.7439990838209,1.2000000384,0.35999970196000003,0.223837007162784,1680.7439990838209,1.2000000384,0.35999970196000003,0.223837007162784,1312,0.0,99,P-GPS,
0.339538686762911,36.9018876945583,8300,2018-04-07 06:01:00,1680.843999087021,1.3000000416000002,0.35999970196000003,0.23836000762752002,1680.843999087021,1.3000000416000002,0.35999970196000003,0.23836000762752002,1279,0.0,99,P-GPS,
0.339538779394506,36.9018876802507,8400,2018-04-07 06:01:00,1681.043999093421,1.5000000480000002,0.0,0.24687100789987199,1681.043999093421,1.5000000480000002,0.35999970196000003,0.24687100789987199,1258,0.0,99,P-GPS,
0.339538844185407,36.9018876764243,8500,2018-04-07 06:01:00,1681.143999096621,1.6000000512,0.0,0.252446008078272,1681.143999096621,1.6000000512,0.35999970196000003,0.252446008078272,1277,0.0,99,P-GPS,
0.339538911759319,36.9018876954973,8600,2018-04-07 06:01:00,1681.343999103021,1.8000000576000001,0.0,0.256663008213216,1681.343999103021,1.8000000576000001,0.35999970196000003,0.256663008213216,1316,0.0,99,P-GPS,
0.339538985808332,36.9018877294193,8700,2018-04-07 06:01:00,1681.4439991062209,1.9000000608000003,0.0,0.26056100833795204,1681.4439991062209,1.9000000608000003,0.35999970196000003,0.26056100833795204,1335,0.0,99,P-GPS,
0.339539064247222,36.9018877791818,8800,2018-04-07 06:01:00,1681.5439991094208,2.000000064,0.0,0.26404000844928,1681.5439991094208,2.000000064,0.35999970196000003,0.26404000844928,1335,0.0,99,P-GPS,
0.339539136709927,36.9018878052305,8900,2018-04-07 06:01:00,1681.743999115821,2.2000000704000002,0.0,0.268844008603008,1681.743999115821,2.2000000704000002,0.35999970196000003,0.268844008603008,1325,0.0,99,P-GPS,
0.339539198502048,36.901887821279,9000,2018-04-07 06:01:00,1681.843999119021,2.3000000736,0.0,0.27347000875104005,1681.843999119021,2.3000000736,0.35999970196000003,0.27347000875104005,1326,0.0,99,P-GPS,
0.339539233292736,36.9018878603416,9100,2018-04-07 06:01:00,1682.0439991254211,2.50000008,0.0,0.27428800877721604,1682.0439991254211,2.50000008,0.35999970196000003,0.27428800877721604,1322,0.0,99,P-GPS,
0.339539242813231,36.901887949218,9200,2018-04-07 06:01:00,1682.1439991286209,2.6000000832000003,0.35999970196000003,0.269938008638016,1682.1439991286209,2.6000000832000003,0.35999970196000003,0.27428800877721604,1328,0.0,99,P-GPS,
0.339539264510211,36.9018880594909,9300,2018-04-07 06:01:00,1682.343999135021,2.8000000896,0.35999970196000003,0.26592500850960005,1682.343999135021,2.8000000896,0.35999970196000003,0.27428800877721604,1327,0.0,99,P-GPS,
0.339539302091646,36.9018881802445,9400,2018-04-07 06:01:01,1682.543999141421,3.0000000960000004,0.35999970196000003,0.26353000843296004,1682.543999141421,3.0000000960000004,0.35999970196000003,0.27428800877721604,1307,0.0,99,P-GPS,
0.339539331270716,36.9018882915487,9500,2018-04-07 06:01:01,1682.643999144621,3.1000000992000003,0.35999970196000003,0.261412008365184,1682.643999144621,3.1000000992000003,0.35999970196000003,0.27428800877721604,1303,-0.4,99,P-GPS,
0.339539343134337,36.9018883924237,9600,2018-04-07 06:01:01,1682.843999151021,3.3000001056,0.0,0.25850200827206404,1682.843999151021,3.3000001056,0.35999970196000003,0.27428800877721604,1306,-1.0,99,P-GPS,
0.339539356698462,36.9018884821897,9700,2018-04-07 06:01:01,1682.943999154221,3.4000001088000005,0.0,0.256622008211904,1682.943999154221,3.4000001088000005,0.35999970196000003,0.27428800877721604,1308,-1.6,99,P-GPS,
0.33953938048555,36.9018885679838,9800,2018-04-07 06:01:01,1683.143999160621,3.6000001152000003,0.0,0.256342008202944,1683.143999160621,3.6000001152000003,0.35999970196000003,0.27428800877721604,1305,-1.6,99,P-GPS,
0.33953940715987,36.9018886409619,9900,2018-04-07 06:01:01,1683.243999163821,3.7000001184,0.0,0.257099008227168,1683.243999163821,3.7000001184,0.35999970196000003,0.27428800877721604,1304,-3.8,99,P-GPS,
0.339539430480206,36.9018887182782,10000,2018-04-07 06:01:01,1683.4439991702209,3.9000001248,0.0,0.25767700824566403,1683.4439991702209,3.9000001248,0.35999970196000003,0.27428800877721604,1306,-3.8,99,P-GPS,
0.339539446871105,36.9018887718993,10100,2018-04-07 06:01:01,1683.543999173421,4.000000128,0.0,0.25828500826512,1683.543999173421,4.000000128,0.35999970196000003,0.27428800877721604,1322,-6.3,99,P-GPS,
0.339539436065362,36.9018887995658,10200,2018-04-07 06:01:02,1683.743999179821,4.200000134400001,0.0,0.256547008209504,1683.743999179821,4.200000134400001,0.35999970196000003,0.27428800877721604,1315,-7.5,99,P-GPS,
0.339539398680155,36.9018887091743,10400,2018-04-07 06:01:02,1684.043999189421,4.500000144,0.0,0.254437008141984,1684.043999189421,4.500000144,0.35999970196000003,0.27428800877721604,1312,-8.7,99,P-GPS,
0.33953940653353,36.9018886341814,10500,2018-04-07 06:01:02,1684.1439991926209,4.6000001472,0.0,0.257216008230912,1684.1439991926209,4.6000001472,0.35999970196000003,0.27428800877721604,1327,-10.0,99,P-GPS,
0.33953943670534,36.9018885885893,10600,2018-04-07 06:01:02,1684.343999199021,4.8000001536,0.0,0.261748008375936,1684.343999199021,4.8000001536,0.35999970196000003,0.27428800877721604,1332,-11.2,99,P-GPS,
0.339539450897637,36.9018885156083,10700,2018-04-07 06:01:02,1684.443999202221,4.9000001568,0.0,0.265497008495904,1684.443999202221,4.9000001568,0.35999970196000003,0.27428800877721604,1330,-12.4,99,P-GPS,
0.339539455587352,36.9018884241849,10800,2018-04-07 06:01:02,1684.6439992086212,5.1000001632,0.0,0.26909800861113603,1684.6439992086212,5.1000001632,0.35999970196000003,0.27428800877721604,1330,-13.7,99,P-GPS,
0.339539454378436,36.9018883189349,10900,2018-04-07 06:01:02,1684.7439992118211,5.200000166400001,0.0,0.272968008734976,1684.7439992118211,5.200000166400001,0.35999970196000003,0.27428800877721604,1331,-15.0,99,P-GPS,
0.339539465489106,36.9018882346115,11000,2018-04-07 06:01:02,1684.9439992182208,5.4000001728,0.0,0.27762600888403205,1684.9439992182208,5.4000001728,0.35999970196000003,0.27762600888403205,1330,-16.3,99,P-GPS,
0.339539479584917,36.9018881509002,11100,2018-04-07 06:01:02,1685.143999224621,5.6000001792,0.0,0.282796009049472,1685.143999224621,5.6000001792,0.35999970196000003,0.282796009049472,1329,-17.6,99,P-GPS,
0.339539489797907,36.9018880790017,11200,2018-04-07 06:01:02,1685.243999227821,5.7000001824,0.0,0.287221009191072,1685.243999227821,5.7000001824,0.35999970196000003,0.287221009191072,1315,-18.9,99,P-GPS,
0.339539480459798,36.9018880048689,11300,2018-04-07 06:01:03,1685.443999234221,5.9000001888,0.0,0.28998400927948803,1685.443999234221,5.9000001888,0.35999970196000003,0.28998400927948803,1271,-20.0,99,P-GPS,
0.339539464808416,36.9018879307155,11400,2018-04-07 06:01:03,1685.643999240621,6.100000195200001,0.0,0.292343009354976,1685.643999240621,6.100000195200001,0.35999970196000003,0.292343009354976,1244,-20.4,99,P-GPS,
0.339539439789002,36.9018878476532,11500,2018-04-07 06:01:03,1685.7439992438208,6.200000198400001,0.0,0.294533009425056,1685.7439992438208,6.200000198400001,0.35999970196000003,0.294533009425056,1275,-20.4,99,P-GPS,
0.339539395472731,36.9018877940483,11600,2018-04-07 06:01:03,1685.943999250221,6.4000002048,0.0,0.293451009390432,1685.943999250221,6.4000002048,0.35999970196000003,0.294533009425056,1297,-20.4,99,P-GPS,
0.339539344815095,36.901887770956,11700,2018-04-07 06:01:03,1686.043999253421,6.500000208,0.0,0.290107009283424,1686.043999253421,6.500000208,0.35999970196000003,0.294533009425056,1287,-20.4,99,P-GPS,
0.339539304577872,36.9018877746662,11800,2018-04-07 06:01:03,1686.1439992566209,6.6000002112,0.0,0.286149009156768,1686.1439992566209,6.6000002112,0.35999970196000003,0.294533009425056,1272,-20.4,99,P-GPS,
0.339539260563677,36.9018877639708,11900,2018-04-07 06:01:03,1686.343999263021,6.800000217600001,0.0,0.282764009048448,1686.343999263021,6.800000217600001,0.35999970196000003,0.294533009425056,1331,-20.4,99,P-GPS,
0.339539210269592,36.9018877309995,12000,2018-04-07 06:01:03,1686.443999266221,6.900000220800001,0.0,0.28029900896956805,1686.443999266221,6.900000220800001,0.35999970196000003,0.294533009425056,1365,-20.4,99,P-GPS,
0.339539164728323,36.9018877022346,12100,2018-04-07 06:01:03,1686.5439992694207,7.000000224,0.0,0.27811300889961604,1686.5439992694207,7.000000224,0.35999970196000003,0.294533009425056,1381,-20.4,99,P-GPS,
0.339539142019468,36.901887704363,12200,2018-04-07 06:01:03,1686.643999272621,7.1000002272,0.0,0.27595500883056,1686.643999272621,7.1000002272,0.35999970196000003,0.294533009425056,1372,-20.4,99,P-GPS,
0.339539149486902,36.9018877221916,12300,2018-04-07 06:01:04,1686.8439992790209,7.3000002336000005,0.0,0.275427008813664,1686.8439992790209,7.3000002336000005,0.35999970196000003,0.294533009425056,1384,-20.4,99,P-GPS,
0.339539190546896,36.9018877503104,12400,2018-04-07 06:01:04,1687.043999285421,7.50000024,0.0,0.277264008872448,1687.043999285421,7.50000024,0.35999970196000003,0.294533009425056,1415,-20.4,99,P-GPS,
0.339539232812345,36.9018877768232,12500,2018-04-07 06:01:04,1687.243999291821,7.7000002464,0.0,0.279412008941184,1687.243999291821,7.7000002464,0.35999970196000003,0.294533009425056,1418,-20.4,99,P-GPS,
0.339539274197418,36.9018877993138,12600,2018-04-07 06:01:04,1687.4439992982211,7.9000002528,0.0,0.281818009018176,1687.4439992982211,7.9000002528,0.35999970196000003,0.294533009425056,1417,-20.4,99,P-GPS,
0.339539321289779,36.9018878208708,12700,2018-04-07 06:01:04,1687.6439993046208,8.1000002592,0.0,0.28489000911648005,1687.6439993046208,8.1000002592,0.35999970196000003,0.294533009425056,1417,-20.4,99,P-GPS,
0.339539370795291,36.9018878472081,12800,2018-04-07 06:01:04,1687.843999311021,8.300000265600001,0.0,0.28799500921584004,1687.843999311021,8.300000265600001,0.35999970196000003,0.294533009425056,1421,-20.4,99,P-GPS,
0.339539394464928,36.901887879893,12900,2018-04-07 06:01:04,1688.043999317421,8.500000272,0.0,0.288368009227776,1688.043999317421,8.500000272,0.35999970196000003,0.294533009425056,1421,-20.4,99,P-GPS,
0.339539394277657,36.9018879073668,13000,2018-04-07 06:01:04,1688.243999323821,8.700000278400001,0.0,0.286802009177664,1688.243999323821,8.700000278400001,0.35999970196000003,0.294533009425056,1422,-20.4,99,P-GPS,
0.339539393549131,36.9018879295201,13100,2018-04-07 06:01:04,1688.543999333421,9.000000288,0.0,0.285501009136032,1688.543999333421,9.000000288,0.35999970196000003,0.294533009425056,1433,-20.4,99,P-GPS,
0.339539398152132,36.9018879445245,13200,2018-04-07 06:01:04,1688.743999339821,9.2000002944,0.0,0.285122009123904,1688.743999339821,9.2000002944,0.35999970196000003,0.294533009425056,1420,-20.4,99,P-GPS,
0.339539416543779,36.9018879461066,13300,2018-04-07 06:01:05,1689.043999349421,9.500000304,0.0,0.28682000917824,1689.043999349421,9.500000304,0.35999970196000003,0.294533009425056,1417,-20.4,99,P-GPS,
0.339539455104111,36.9018879522264,13400,2018-04-07 06:01:05,1689.2439993558212,9.7000003104,0.0,0.290244009287808,1689.2439993558212,9.7000003104,0.35999970196000003,0.294533009425056,1437,-20.4,99,P-GPS,
0.339539559312924,36.9018879331789,13700,2018-04-07 06:01:05,1690.0439993814211,10.500000336,0.0,0.301452009646464,1690.0439993814211,10.500000336,0.35999970196000003,0.301452009646464,1424,-20.4,99,P-GPS,
0.339539598733686,36.9018879340903,13800,2018-04-07 06:01:05,1690.2439993878208,10.700000342400001,0.0,0.30528400976908804,1690.2439993878208,10.700000342400001,0.35999970196000003,0.30528400976908804,1424,-20.4,99,P-GPS,
0.339539642139962,36.9018879193566,13900,2018-04-07 06:01:05,1690.543999397421,11.000000351999999,0.0,0.310323009930336,1690.543999397421,11.000000351999999,0.35999970196000003,0.310323009930336,1421,-20.4,99,P-GPS,
0.339539719760254,36.9018878797177,14100,2018-04-07 06:01:05,1691.0439994134208,11.500000368000002,0.0,0.32001501024048,1691.0439994134208,11.500000368000002,0.35999970196000003,0.32001501024048,1409,-20.4,99,P-GPS,
0.339539743415948,36.9018878825712,14200,2018-04-07 06:01:05,1691.243999419821,11.7000003744,0.0,0.322208010310656,1691.243999419821,11.7000003744,0.35999970196000003,0.322208010310656,1329,-20.4,99,P-GPS,
0.339539768682987,36.9018878762109,14300,2018-04-07 06:01:06,1691.543999429421,12.000000384000002,0.0,0.32503201040102403,1691.543999429421,12.000000384000002,0.35999970196000003,0.32503201040102403,1301,-20.4,99,P-GPS,
0.339539812159286,36.9018878816507,14400,2018-04-07 06:01:06,1691.743999435821,12.200000390400001,0.0,0.329076010530432,1691.743999435821,12.200000390400001,0.35999970196000003,0.329076010530432,1306,-20.4,99,P-GPS,
0.339539847665981,36.9018878957525,14500,2018-04-07 06:01:06,1691.9439994422212,12.400000396800001,0.0,0.331923010621536,1691.9439994422212,12.400000396800001,0.35999970196000003,0.331923010621536,1377,-20.4,99,P-GPS,
0.339539861469385,36.9018879398687,14600,2018-04-07 06:01:06,1692.143999448621,12.6000004032,0.0,0.331191010598112,1692.143999448621,12.6000004032,0.35999970196000003,0.331923010621536,1377,-20.4,99,P-GPS,
0.339539882051797,36.9018879693624,14700,2018-04-07 06:01:06,1692.343999455021,12.8000004096,0.0,0.33189501062064003,1692.343999455021,12.8000004096,0.35999970196000003,0.331923010621536,1387,-20.4,99,P-GPS,
0.339539924420348,36.9018879804884,14800,2018-04-07 06:01:06,1692.443999458221,12.9000004128,0.0,0.33568701074198404,1692.443999458221,12.9000004128,0.35999970196000003,0.33568701074198404,1382,-20.4,99,P-GPS,
0.339540030328239,36.9018879508148,15000,2018-04-07 06:01:06,1692.8439994710209,13.3000004256,0.0,0.34779601112947206,1692.8439994710209,13.3000004256,0.35999970196000003,0.34779601112947206,1396,-20.4,99,P-GPS,
0.339540085600885,36.9018879199363,15100,2018-04-07 06:01:06,1693.0439994774208,13.500000432,0.0,0.354804011353728,1693.0439994774208,13.500000432,0.35999970196000003,0.354804011353728,1425,-20.4,99,P-GPS,
0.339540131463567,36.9018878941025,15200,2018-04-07 06:01:06,1693.343999487021,13.800000441600002,0.0,0.36063001154016006,1693.343999487021,13.800000441600002,0.35999970196000003,0.36063001154016006,1485,-20.4,99,P-GPS,
0.339540161414927,36.9018878600233,15300,2018-04-07 06:01:07,1693.543999493421,14.000000448,0.0,0.36521401168684803,1693.543999493421,14.000000448,0.35999970196000003,0.36521401168684803,1500,-20.4,99,P-GPS,
0.339540167215852,36.9018878399349,15400,2018-04-07 06:01:07,1693.843999503021,14.300000457600001,0.0,0.366721011735072,1693.843999503021,14.300000457600001,0.35999970196000003,0.366721011735072,1480,-20.4,99,P-GPS,
0.339540169358884,36.9018877935218,15500,2018-04-07 06:01:07,1694.043999509421,14.500000464000001,0.0,0.369101011811232,1694.043999509421,14.500000464000001,0.35999970196000003,0.369101011811232,1469,-20.4,99,P-GPS,
0.3395401906113,36.9018877350071,15600,2018-04-07 06:01:07,1694.343999519021,14.8000004736,0.0,0.37403701196918404,1694.343999519021,14.8000004736,0.35999970196000003,0.37403701196918404,1471,-20.4,99,P-GPS,
0.339540213159549,36.9018876821751,15700,2018-04-07 06:01:07,1694.6439995286212,15.1000004832,0.0,0.378882012124224,1694.6439995286212,15.1000004832,0.35999970196000003,0.378882012124224,1476,-20.4,99,P-GPS,
0.339540234113654,36.9018876634911,15800,2018-04-07 06:01:07,1694.9439995382209,15.4000004928,0.0,0.381896012220672,1694.9439995382209,15.4000004928,0.35999970196000003,0.381896012220672,1477,-20.4,99,P-GPS,
0.339540255338692,36.9018876412168,15900,2018-04-07 06:01:07,1695.243999547821,15.700000502400002,0.0,0.38511801232377607,1695.243999547821,15.700000502400002,0.35999970196000003,0.38511801232377607,1480,-20.4,99,P-GPS,
0.339540264006288,36.9018876153752,16000,2018-04-07 06:01:07,1695.5439995574209,16.000000512,0.0,0.387281012392992,1695.5439995574209,16.000000512,0.35999970196000003,0.387281012392992,1475,-20.4,99,P-GPS,
0.339540261950174,36.9018875735352,16100,2018-04-07 06:01:07,1695.843999567021,16.3000005216,0.0,0.389223012455136,1695.843999567021,16.3000005216,0.35999970196000003,0.389223012455136,1476,-20.4,99,P-GPS,
0.339540235491114,36.9018875284296,16200,2018-04-07 06:01:07,1696.243999579821,16.7000005344,0.0,0.388999012447968,1696.243999579821,16.7000005344,0.35999970196000003,0.389223012455136,1473,-20.4,99,P-GPS,
0.339540200738491,36.901887453622,16300,2018-04-07 06:01:08,1696.543999589421,17.000000544,0.0,0.389698012470336,1696.543999589421,17.000000544,0.35999970196000003,0.389698012470336,1457,-20.4,99,P-GPS,
0.339540161150509,36.9018873665404,16400,2018-04-07 06:01:08,1696.843999599021,17.3000005536,0.0,0.390864012507648,1696.843999599021,17.3000005536,0.35999970196000003,0.390864012507648,1443,-20.4,99,P-GPS,
0.339540091968304,36.901887266657,16500,2018-04-07 06:01:08,1697.143999608621,17.600000563200002,0.0,0.39034501249104003,1697.143999608621,17.600000563200002,0.35999970196000003,0.390864012507648,1445,-20.4,99,P-GPS,
0.339540008703113,36.9018871951809,16600,2018-04-07 06:01:08,1697.343999615021,17.8000005696,0.0,0.38718701238998404,1697.343999615021,17.8000005696,0.35999970196000003,0.390864012507648,1439,-20.4,99,P-GPS,
0.339539915862264,36.9018871257957,16700,2018-04-07 06:01:08,1697.6439996246208,18.1000005792,0.0,0.383402012268864,1697.6439996246208,18.1000005792,0.35999970196000003,0.390864012507648,1456,-20.4,99,P-GPS,
0.339539827348903,36.9018870832943,16800,2018-04-07 06:01:08,1697.943999634221,18.4000005888,0.0,0.37852001211264,1697.943999634221,18.4000005888,0.35999970196000003,0.390864012507648,1487,-20.4,99,P-GPS,
0.33953972993864,36.9018870274013,16900,2018-04-07 06:01:08,1698.2439996438209,18.700000598400003,0.0,0.374099011971168,1698.2439996438209,18.700000598400003,0.35999970196000003,0.390864012507648,1546,-20.4,99,P-GPS,
0.33953951869892,36.9018868862207,17100,2018-04-07 06:01:08,1698.743999659821,19.2000006144,0.0,0.36735001175520005,1698.743999659821,19.2000006144,0.35999970196000003,0.390864012507648,1547,-20.4,99,P-GPS,
0.339539413059519,36.9018868262044,17200,2018-04-07 06:01:08,1699.1439996726208,19.6000006272,0.0,0.363894011644608,1699.1439996726208,19.6000006272,0.35999970196000003,0.390864012507648,1546,-20.4,99,P-GPS,
0.33953931160359,36.9018867589732,17300,2018-04-07 06:01:09,1699.443999682221,19.900000636799998,0.0,0.36182001157824,1699.443999682221,19.900000636799998,0.35999970196000003,0.390864012507648,1546,-20.4,99,P-GPS,
0.339539237172708,36.9018867055244,17400,2018-04-07 06:01:09,1699.843999695021,20.3000006496,0.0,0.36096701155094396,1699.843999695021,20.3000006496,0.35999970196000003,0.390864012507648,1548,-20.4,99,P-GPS,
0.339539160901073,36.9018866317919,17500,2018-04-07 06:01:09,1700.143999704621,20.6000006592,0.0,0.36205401158572803,1700.143999704621,20.6000006592,0.35999970196000003,0.390864012507648,1555,-20.4,99,P-GPS,
0.339539058808626,36.9018865660286,17600,2018-04-07 06:01:09,1700.543999717421,21.000000672,0.0,0.36112101155587206,1700.543999717421,21.000000672,0.35999970196000003,0.390864012507648,1555,-20.4,99,P-GPS,
0.339538960801335,36.9018865201088,17700,2018-04-07 06:01:09,1700.9439997302209,21.400000684800002,0.0,0.35910701149142404,1700.9439997302209,21.400000684800002,0.35999970196000003,0.390864012507648,1546,-20.4,99,P-GPS,
0.339538882048358,36.9018865189242,17800,2018-04-07 06:01:09,1701.343999743021,21.8000006976,0.0,0.354422011341504,1701.343999743021,21.8000006976,0.35999970196000003,0.390864012507648,1535,-20.4,99,P-GPS,
0.339538777820207,36.9018864817558,17900,2018-04-07 06:01:09,1701.643999752621,22.1000007072,0.0,0.351863011259616,1701.643999752621,22.1000007072,0.35999970196000003,0.390864012507648,1535,-20.5,99,P-GPS,
0.339538650987625,36.9018864245177,18000,2018-04-07 06:01:09,1702.043999765421,22.50000072,0.0,0.350486011215552,1702.043999765421,22.50000072,0.35999970196000003,0.390864012507648,1536,-20.6,99,P-GPS,
0.339538528250173,36.9018863492867,18100,2018-04-07 06:01:09,1702.343999775021,22.8000007296,0.0,0.351791011257312,1702.343999775021,22.8000007296,0.35999970196000003,0.390864012507648,1531,-21.2,99,P-GPS,
0.339538326770939,36.9018862225912,18300,2018-04-07 06:01:10,1703.143999800621,23.6000007552,0.0,0.35582001138624,1703.143999800621,23.6000007552,0.35999970196000003,0.390864012507648,1520,-21.6,99,P-GPS,
0.339538234873366,36.9018861869964,18400,2018-04-07 06:01:10,1703.543999813421,24.000000768000003,0.0,0.35596501139088,1703.543999813421,24.000000768000003,0.35999970196000003,0.390864012507648,1517,-22.0,99,P-GPS,
0.339538140337511,36.9018861494455,18500,2018-04-07 06:01:10,1703.843999823021,24.3000007776,0.0,0.356566011410112,1703.843999823021,24.3000007776,0.35999970196000003,0.390864012507648,1517,-22.4,99,P-GPS,
0.339538057904861,36.901886138096,18600,2018-04-07 06:01:10,1704.143999832621,24.600000787200003,0.0,0.355096011363072,1704.143999832621,24.600000787200003,0.35999970196000003,0.390864012507648,1519,-22.8,99,P-GPS,
0.339537955382302,36.9018861285234,18700,2018-04-07 06:01:10,1704.5439998454208,25.000000800000002,0.0,0.353108011299456,1704.5439998454208,25.000000800000002,0.35999970196000003,0.390864012507648,1512,-23.1,99,P-GPS,
0.339537838795075,36.9018861355097,18800,2018-04-07 06:01:10,1704.843999855021,25.3000008096,0.0,0.34934701117910405,1704.843999855021,25.3000008096,0.35999970196000003,0.390864012507648,1509,-23.5,99,P-GPS,
0.339537711845652,36.9018861294053,18900,2018-04-07 06:01:10,1705.2439998678208,25.7000008224,0.0,0.34726101111235197,1705.2439998678208,25.7000008224,0.35999970196000003,0.390864012507648,1500,-23.5,99,P-GPS,
0.339537607547478,36.9018861247214,19000,2018-04-07 06:01:10,1705.543999877421,26.000000832,0.0,0.34593301106985597,1705.543999877421,26.000000832,0.35999970196000003,0.390864012507648,1496,-23.7,99,P-GPS,
0.33953749883785,36.9018860983991,19100,2018-04-07 06:01:10,1705.843999887021,26.3000008416,0.0,0.347331011114592,1705.843999887021,26.3000008416,0.35999970196000003,0.390864012507648,1487,-23.9,99,P-GPS,
0.339537411392442,36.901886072835,19200,2018-04-07 06:01:10,1706.243999899821,26.700000854400002,0.0,0.34926001117632,1706.243999899821,26.700000854400002,0.35999970196000003,0.390864012507648,1455,-24.1,99,P-GPS,
0.33953732286412,36.9018860498758,19300,2018-04-07 06:01:11,1706.543999909421,27.000000864,0.0,0.3511750112376,1706.543999909421,27.000000864,0.35999970196000003,0.390864012507648,1433,-24.1,99,P-GPS,
0.339537241513572,36.9018860552642,19400,2018-04-07 06:01:11,1706.843999919021,27.3000008736,0.0,0.35023901120764805,1706.843999919021,27.3000008736,0.35999970196000003,0.390864012507648,1434,-24.1,99,P-GPS,
0.339537159540144,36.9018860497923,19500,2018-04-07 06:01:11,1707.1439999286208,27.600000883200003,0.0,0.350744011223808,1707.1439999286208,27.600000883200003,0.35999970196000003,0.390864012507648,1469,-24.1,99,P-GPS,
0.339537094355159,36.9018860614903,19600,2018-04-07 06:01:11,1707.443999938221,27.9000008928,0.0,0.349531011184992,1707.443999938221,27.9000008928,0.35999970196000003,0.390864012507648,1513,-24.1,99,P-GPS,
0.339537016084405,36.9018860659874,19700,2018-04-07 06:01:11,1707.743999947821,28.200000902400003,0.0,0.34933501117872,1707.743999947821,28.200000902400003,0.35999970196000003,0.390864012507648,1533,-24.1,99,P-GPS,
0.339536940952478,36.9018860753494,19800,2018-04-07 06:01:11,1708.043999957421,28.500000912,0.0,0.34879101116131206,1708.043999957421,28.500000912,0.35999970196000003,0.390864012507648,1535,-24.1,99,P-GPS,
0.339536889420367,36.9018860813218,19900,2018-04-07 06:01:11,1708.243999963821,28.7000009184,0.0,0.348586011154752,1708.243999963821,28.7000009184,0.35999970196000003,0.390864012507648,1535,-24.1,99,P-GPS,
0.339536866248831,36.9018861032741,20000,2018-04-07 06:01:11,1708.643999976621,29.1000009312,0.0,0.346391011084512,1708.643999976621,29.1000009312,0.35999970196000003,0.390864012507648,1529,-24.1,99,P-GPS,
0.339536840652948,36.9018861095639,20100,2018-04-07 06:01:11,1708.943999986221,29.4000009408,0.0,0.34598001107136,1708.943999986221,29.4000009408,0.35999970196000003,0.390864012507648,1530,-24.1,99,P-GPS,
0.339536810212851,36.9018861076941,20200,2018-04-07 06:01:11,1709.243999995821,29.700000950400003,0.0,0.346556011089792,1709.243999995821,29.700000950400003,0.35999970196000003,0.390864012507648,1534,-24.1,99,P-GPS,
0.339536772750904,36.9018860922345,20300,2018-04-07 06:01:12,1709.644000008621,30.1000009632,0.0,0.34876001116032,1709.644000008621,30.1000009632,0.35999970196000003,0.390864012507648,1535,-24.1,99,P-GPS,
0.339536734107521,36.9018860675221,20400,2018-04-07 06:01:12,1710.044000021421,30.500000976,0.0,0.352046011265472,1710.044000021421,30.500000976,0.35999970196000003,0.390864012507648,1542,-24.1,99,P-GPS,
0.339536709016456,36.9018860457245,20500,2018-04-07 06:01:12,1710.344000031021,30.8000009856,0.0,0.35483501135472,1710.344000031021,30.8000009856,0.35999970196000003,0.390864012507648,1546,-24.1,99,P-GPS,
0.339536678404966,36.9018860671437,20600,2018-04-07 06:01:12,1710.6440000406208,31.100000995200002,0.0,0.35298401129548806,1710.6440000406208,31.100000995200002,0.35999970196000003,0.390864012507648,1546,-24.1,99,P-GPS,
0.339536668280929,36.9018861006741,20700,2018-04-07 06:01:12,1711.0440000534209,31.500001007999998,0.0,0.3494750111832,1711.0440000534209,31.500001007999998,0.35999970196000003,0.390864012507648,1548,-24.1,99,P-GPS,
0.339536675838945,36.9018860835706,20800,2018-04-07 06:01:12,1711.4440000662212,31.9000010208,0.0,0.351223011239136,1711.4440000662212,31.9000010208,0.35999970196000003,0.390864012507648,1553,-24.1,99,P-GPS,
0.339536683953889,36.9018860825508,20900,2018-04-07 06:01:12,1711.7440000758208,32.2000010304,0.0,0.351196011238272,1711.7440000758208,32.2000010304,0.35999970196000003,0.390864012507648,1556,-24.1,99,P-GPS,
0.339536686495075,36.9018861078638,21000,2018-04-07 06:01:12,1712.144000088621,32.6000010432,0.0,0.348371011147872,1712.144000088621,32.6000010432,0.35999970196000003,0.390864012507648,1564,-24.1,99,P-GPS,
0.339536677519092,36.9018861337418,21100,2018-04-07 06:01:12,1712.5440001014208,33.000001056,0.0,0.345682011061824,1712.5440001014208,33.000001056,0.35999970196000003,0.390864012507648,1570,-24.1,99,P-GPS,
0.339536659527636,36.9018861597667,21200,2018-04-07 06:01:12,1712.844000111021,33.3000010656,0.0,0.343146010980672,1712.844000111021,33.3000010656,0.35999970196000003,0.390864012507648,1568,-24.1,99,P-GPS,
0.339536646832286,36.9018861881425,21300,2018-04-07 06:01:13,1713.2440001238208,33.7000010784,0.0,0.34027001088864,1713.2440001238208,33.7000010784,0.35999970196000003,0.390864012507648,1568,-24.1,99,P-GPS,
0.339536622868919,36.901886145958,21400,2018-04-07 06:01:13,1713.644000136621,34.1000010912,0.0,0.34534901105116805,1713.644000136621,34.1000010912,0.35999970196000003,0.390864012507648,1570,-24.1,99,P-GPS,
0.339536570962673,36.9018861534662,21600,2018-04-07 06:01:13,1714.4440001622208,34.900001116800006,0.35999970196000003,0.345584011058688,1714.4440001622208,34.900001116800006,0.35999970196000003,0.390864012507648,1569,-24.1,99,P-GPS,
0.339536548394882,36.9018862041235,21700,2018-04-07 06:01:13,1714.744000171821,35.200001126400004,0.0,0.340552010897664,1714.744000171821,35.200001126400004,0.35999970196000003,0.390864012507648,1564,-24.1,99,P-GPS,
0.339536524202311,36.9018862217409,21800,2018-04-07 06:01:13,1715.1440001846208,35.6000011392,0.0,0.339188010854016,1715.1440001846208,35.6000011392,0.35999970196000003,0.390864012507648,1578,-24.1,99,P-GPS,
0.339536419437588,36.9018862315838,22000,2018-04-07 06:01:13,1715.9440002102208,36.4000011648,0.0,0.340763010904416,1715.9440002102208,36.4000011648,0.35999970196000003,0.390864012507648,1578,-24.1,99,P-GPS,
0.339536361539483,36.9018862030976,22100,2018-04-07 06:01:13,1716.3440002230209,36.8000011776,0.0,0.34544501105424,1716.3440002230209,36.8000011776,0.35999970196000003,0.390864012507648,1569,-24.1,99,P-GPS,
0.339536337264268,36.9018860815552,22200,2018-04-07 06:01:13,1716.744000235821,37.2000011904,0.0,0.359201011494432,1716.744000235821,37.2000011904,0.35999970196000003,0.390864012507648,1570,-24.1,99,P-GPS,
0.339536321162621,36.9018860121223,22300,2018-04-07 06:01:14,1717.1440002486208,37.6000012032,0.0,0.36712301174793605,1717.1440002486208,37.6000012032,0.35999970196000003,0.390864012507648,1571,-24.1,99,P-GPS,
0.339536303902336,36.9018859409139,22400,2018-04-07 06:01:14,1717.544000261421,38.000001216,0.0,0.37527001200864,1717.544000261421,38.000001216,0.35999970196000003,0.390864012507648,1561,-24.1,99,P-GPS,
0.339536280417324,36.9018859158627,22500,2018-04-07 06:01:14,1717.9440002742208,38.4000012288,0.0,0.378634012116288,1717.9440002742208,38.4000012288,0.35999970196000003,0.390864012507648,1556,-24.1,99,P-GPS,
0.339536217714495,36.9018859241717,22600,2018-04-07 06:01:14,1718.244000283821,38.7000012384,0.0,0.379617012147744,1718.244000283821,38.7000012384,0.35999970196000003,0.390864012507648,1556,-24.1,98,P-GPS,
0.3395361528381,36.9018859540016,22700,2018-04-07 06:01:14,1718.6440002966208,39.100001251200005,0.0,0.37851301211241606,1718.6440002966208,39.100001251200005,0.35999970196000003,0.390864012507648,1547,-24.1,98,P-GPS,
0.339536108960491,36.9018859838786,22800,2018-04-07 06:01:14,1719.0440003094209,39.500001264,0.0,0.376834012058688,1719.0440003094209,39.500001264,0.35999970196000003,0.390864012507648,1544,-24.1,98,P-GPS,
0.339536075822063,36.9018860497586,22900,2018-04-07 06:01:14,1719.344000319021,39.800001273599996,0.35999970196000003,0.371066011874112,1719.344000319021,39.800001273599996,0.35999970196000003,0.390864012507648,1554,-24.1,98,P-GPS,
0.339536077323488,36.9018861221193,23000,2018-04-07 06:01:14,1719.7440003318209,40.2000012864,0.35999970196000003,0.363413011629216,1719.7440003318209,40.2000012864,0.35999970196000003,0.390864012507648,1553,-24.1,98,P-GPS,
0.339536105127948,36.90188620241,23100,2018-04-07 06:01:14,1720.144000344621,40.6000012992,0.35999970196000003,0.35396501132688,1720.144000344621,40.6000012992,0.35999970196000003,0.390864012507648,1522,-24.1,98,P-GPS,
0.339536140375211,36.9018862840925,23200,2018-04-07 06:01:14,1720.5440003574208,41.000001312,0.35999970196000003,0.34409501101104,1720.5440003574208,41.000001312,0.35999970196000003,0.390864012507648,1522,-24.1,98,P-GPS,
0.339536181783692,36.901886363721,23300,2018-04-07 06:01:15,1720.944000370221,41.4000013248,0.35999970196000003,0.33421801069497603,1720.944000370221,41.4000013248,0.35999970196000003,0.390864012507648,1534,-24.1,98,P-GPS,
0.339536249682072,36.9018864310105,23400,2018-04-07 06:01:15,1721.3440003830208,41.80000133760001,0.35999970196000003,0.324711010390752,1721.3440003830208,41.80000133760001,0.35999970196000003,0.390864012507648,1539,-24.1,98,P-GPS,
0.339536297451662,36.9018865006869,23500,2018-04-07 06:01:15,1721.644000392621,42.100001347200006,0.0,0.315699010102368,1721.644000392621,42.100001347200006,0.35999970196000003,0.390864012507648,1552,-24.1,98,P-GPS,
0.339536338036965,36.9018865790582,23600,2018-04-07 06:01:15,1722.044000405421,42.50000136,0.0,0.306026009792832,1722.044000405421,42.50000136,0.35999970196000003,0.390864012507648,1581,-24.1,98,P-GPS,
0.339536420497298,36.9018866220802,23700,2018-04-07 06:01:15,1722.4440004182209,42.900001372800006,0.35999970196000003,0.298797009561504,1722.4440004182209,42.900001372800006,0.35999970196000003,0.390864012507648,1595,-24.1,98,P-GPS,
0.339536554733601,36.9018866204451,23800,2018-04-07 06:01:15,1722.844000431021,43.300001385600005,0.35999970196000003,0.295187009445984,1722.844000431021,43.300001385600005,0.35999970196000003,0.390864012507648,1602,-24.1,98,P-GPS,
0.339536687019842,36.9018865628915,23900,2018-04-07 06:01:15,1723.2440004438208,43.7000013984,0.35999970196000003,0.29845300955049603,1723.2440004438208,43.7000013984,0.35999970196000003,0.390864012507648,1609,-24.1,98,P-GPS,
0.339536868899123,36.9018864422639,24100,2018-04-07 06:01:15,1723.9440004662208,44.4000014208,0.0,0.308858009883456,1723.9440004662208,44.4000014208,0.35999970196000003,0.390864012507648,1615,-24.1,98,P-GPS,
0.339536915480357,36.901886431682,24200,2018-04-07 06:01:15,1724.344000479021,44.8000014336,0.0,0.309521009904672,1724.344000479021,44.8000014336,0.35999970196000003,0.390864012507648,1610,-24.1,98,P-GPS,
0.33953694817422,36.9018864033191,24300,2018-04-07 06:01:16,1724.8440004950212,45.3000014496,0.0,0.312361009995552,1724.8440004950212,45.3000014496,0.35999970196000003,0.390864012507648,1631,-24.1,98,P-GPS,
0.339536964974062,36.9018863694755,24400,2018-04-07 06:01:16,1725.244000507821,45.7000014624,0.0,0.31597601011123205,1725.244000507821,45.7000014624,0.35999970196000003,0.390864012507648,1635,-24.1,98,P-GPS,
0.339536975977458,36.9018862988329,24500,2018-04-07 06:01:16,1725.6440005206211,46.1000014752,0.0,0.323731010359392,1725.6440005206211,46.1000014752,0.35999970196000003,0.390864012507648,1637,-24.1,98,P-GPS,
0.339536987991304,36.9018862255402,24600,2018-04-07 06:01:16,1726.044000533421,46.500001487999995,0.0,0.331783010617056,1726.044000533421,46.500001487999995,0.35999970196000003,0.390864012507648,1645,-24.1,98,P-GPS,
0.339536993164056,36.9018861239056,24700,2018-04-07 06:01:16,1726.544000549421,47.000001504000004,0.0,0.343034010977088,1726.544000549421,47.000001504000004,0.35999970196000003,0.390864012507648,1652,-24.1,98,P-GPS,
0.339537007337218,36.9018860418634,24800,2018-04-07 06:01:16,1726.944000562221,47.4000015168,0.0,0.352061011265952,1726.944000562221,47.4000015168,0.35999970196000003,0.390864012507648,1651,-24.1,98,P-GPS,
0.339537006869855,36.9018859687123,24900,2018-04-07 06:01:16,1727.444000578221,47.9000015328,0.0,0.36018901152604804,1727.444000578221,47.9000015328,0.35999970196000003,0.390864012507648,1654,-24.1,98,P-GPS,
0.339536996928611,36.9018859349388,25000,2018-04-07 06:01:16,1727.8440005910209,48.300001545600004,0.0,0.36399501164784004,1727.8440005910209,48.300001545600004,0.35999970196000003,0.390864012507648,1657,-24.1,98,P-GPS,
0.339536996587045,36.9018858975884,25100,2018-04-07 06:01:16,1728.3440006070211,48.800001561600006,0.0,0.36814501178064,1728.3440006070211,48.800001561600006,0.35999970196000003,0.390864012507648,1665,-24.1,98,P-GPS,
0.339536988331241,36.9018858846662,25200,2018-04-07 06:01:16,1728.844000623021,49.3000015776,0.0,0.369628011828096,1728.844000623021,49.3000015776,0.35999970196000003,0.390864012507648,1662,-24.1,98,P-GPS,
0.339536960053311,36.9018858594779,25300,2018-04-07 06:01:17,1729.244000635821,49.70000159040001,0.0,0.372604011923328,1729.244000635821,49.70000159040001,0.35999970196000003,0.390864012507648,1650,-24.1,98,P-GPS,
0.339536909468955,36.9018858516309,25400,2018-04-07 06:01:17,1729.744000651821,50.20000160640001,0.0,0.37386001196352003,1729.744000651821,50.20000160640001,0.35999970196000003,0.390864012507648,1660,-24.1,98,P-GPS,
0.339536847486306,36.901885838328,25500,2018-04-07 06:01:17,1730.2440006678212,50.7000016224,0.0,0.37592001202944003,1730.2440006678212,50.7000016224,0.35999970196000003,0.390864012507648,1666,-24.1,98,P-GPS,
0.33953673626928,36.9018857612408,25600,2018-04-07 06:01:17,1730.744000683821,51.2000016384,0.0,0.38578701234518403,1730.744000683821,51.2000016384,0.35999970196000003,0.390864012507648,1668,-24.1,98,P-GPS,
0.339536636593445,36.9018856917004,25700,2018-04-07 06:01:17,1731.1440006966209,51.6000016512,0.0,0.39495801263865604,1731.1440006966209,51.6000016512,0.35999970196000003,0.39495801263865604,1669,-24.1,98,P-GPS,
0.339536550824114,36.9018855660364,25800,2018-04-07 06:01:17,1731.644000712621,52.1000016672,0.0,0.410261013128352,1731.644000712621,52.1000016672,0.35999970196000003,0.410261013128352,1672,-24.1,98,P-GPS,
0.33953646368404,36.9018854543364,25900,2018-04-07 06:01:17,1732.144000728621,52.6000016832,0.0,0.424188013574016,1732.144000728621,52.6000016832,0.35999970196000003,0.424188013574016,1667,-24.1,98,P-GPS,
0.339536344006841,36.9018853108296,26000,2018-04-07 06:01:17,1732.544000741421,53.000001696000005,0.0,0.44243801415801604,1732.544000741421,53.000001696000005,0.35999970196000003,0.44243801415801604,1670,-24.1,98,P-GPS,
0.33953622091968,36.901885258799,26100,2018-04-07 06:01:17,1733.044000757421,53.500001712,0.0,0.451088014434816,1733.044000757421,53.500001712,0.35999970196000003,0.451088014434816,1684,-24.1,98,P-GPS,
0.339536079854497,36.901885208657,26200,2018-04-07 06:01:17,1733.544000773421,54.000001728,0.0,0.46037301473193604,1733.544000773421,54.000001728,0.35999970196000003,0.46037301473193604,1684,-24.1,98,P-GPS,
0.339535920880502,36.901885175308,26300,2018-04-07 06:01:18,1734.044000789421,54.500001744,0.35999970196000003,0.46886201500358404,1734.044000789421,54.500001744,0.35999970196000003,0.46886201500358404,1674,-24.1,98,P-GPS,
0.339535602658932,36.9018851401101,26500,2018-04-07 06:01:18,1735.044000821421,55.500001776000005,0.35999970196000003,0.48414501549264005,1735.044000821421,55.500001776000005,0.35999970196000003,0.48414501549264005,1668,-24.1,98,P-GPS,
0.339535449294519,36.9018850725482,26600,2018-04-07 06:01:18,1735.5440008374208,56.000001792,0.35999970196000003,0.497454015918528,1735.5440008374208,56.000001792,0.35999970196000003,0.497454015918528,1667,-24.1,98,P-GPS,
0.339535296356759,36.9018850623699,26700,2018-04-07 06:01:18,1736.044000853421,56.500001808,0.35999970196000003,0.505252016168064,1736.044000853421,56.500001808,0.35999970196000003,0.505252016168064,1667,-24.1,98,P-GPS,
0.339535143977147,36.9018850873087,26800,2018-04-07 06:01:18,1736.4440008662211,56.90000182080001,0.503999582744,0.509963016318816,1736.4440008662211,56.90000182080001,0.503999582744,0.509963016318816,1667,-24.1,98,P-GPS,
0.339534992360462,36.9018851747208,26900,2018-04-07 06:01:18,1736.944000882221,57.4000018368,0.503999582744,0.5090380162892161,1736.944000882221,57.4000018368,0.503999582744,0.509963016318816,1655,-24.1,98,P-GPS,
0.339534813004454,36.9018852718476,27000,2018-04-07 06:01:18,1737.4440008982208,57.9000018528,0.503999582744,0.509502016304064,1737.4440008982208,57.9000018528,0.503999582744,0.509963016318816,1655,-24.1,98,P-GPS,
0.339534655420336,36.9018853799076,27100,2018-04-07 06:01:18,1737.944000914221,58.400001868800004,0.503999582744,0.5086270162760641,1737.944000914221,58.400001868800004,0.503999582744,0.509963016318816,1642,-24.1,98,P-GPS,
0.339534518604578,36.9018854485396,27200,2018-04-07 06:01:18,1738.444000930221,58.900001884800005,0.35999970196000003,0.510874016347968,1738.444000930221,58.900001884800005,0.503999582744,0.510874016347968,1640,-24.1,98,P-GPS,
0.33953439515061,36.9018855355015,27300,2018-04-07 06:01:19,1738.844000943021,59.3000018976,0.35999970196000003,0.511153016356896,1738.844000943021,59.3000018976,0.503999582744,0.511153016356896,1637,-24.1,98,P-GPS,
0.339534226157206,36.9018855642945,27400,2018-04-07 06:01:19,1739.3440009590208,59.800001913600006,0.35999970196000003,0.520197016646304,1739.3440009590208,59.800001913600006,0.503999582744,0.520197016646304,1632,-24.1,98,P-GPS,
0.339534079196649,36.9018856064766,27500,2018-04-07 06:01:19,1739.8440009750211,60.30000192960001,0.0,0.527047016865504,1739.8440009750211,60.30000192960001,0.503999582744,0.527047016865504,1632,-24.1,98,P-GPS,
0.339533922607103,36.9018856387191,27600,2018-04-07 06:01:19,1740.244000987821,60.7000019424,0.0,0.535889017148448,1740.244000987821,60.7000019424,0.503999582744,0.535889017148448,1608,-24.1,98,P-GPS,
0.339533565381043,36.9018857257678,27900,2018-04-07 06:01:19,1741.644001032621,62.1000019872,0.0,0.556614017811648,1741.644001032621,62.1000019872,0.503999582744,0.556614017811648,1659,-24.1,98,P-GPS,
0.339533481263768,36.9018856865904,28000,2018-04-07 06:01:19,1742.0440010454208,62.50000200000001,0.0,0.566379018124128,1742.0440010454208,62.50000200000001,0.503999582744,0.566379018124128,1667,-24.1,98,P-GPS,
0.339533426092899,36.901885667799,28100,2018-04-07 06:01:19,1742.544001061421,63.000002015999996,0.0,0.572266018312512,1742.544001061421,63.000002015999996,0.503999582744,0.572266018312512,1668,-24.1,98,P-GPS,
0.339533345151905,36.9018856563638,28200,2018-04-07 06:01:19,1742.944001074221,63.4000020288,0.0,0.579703018550496,1742.944001074221,63.4000020288,0.503999582744,0.579703018550496,1670,-24.1,98,P-GPS,
0.339533301764457,36.9018856729315,28300,2018-04-07 06:01:20,1743.444001090221,63.900002044800004,0.0,0.582003018624096,1743.444001090221,63.900002044800004,0.503999582744,0.582003018624096,1684,-24.1,98,P-GPS,
0.33953326534675,36.9018856801796,28400,2018-04-07 06:01:20,1743.9440011062209,64.4000020608,0.0,0.584458018702656,1743.9440011062209,64.4000020608,0.503999582744,0.584458018702656,1684,-24.1,98,P-GPS,
0.339533238099625,36.9018857034129,28500,2018-04-07 06:01:20,1744.4440011222212,64.9000020768,0.0,0.584987018719584,1744.4440011222212,64.9000020768,0.503999582744,0.584987018719584,1684,-24.1,98,P-GPS,
0.339533184795768,36.9018857138963,28600,2018-04-07 06:01:20,1744.944001138221,65.40000209280001,0.0,0.588656018836992,1744.944001138221,65.40000209280001,0.503999582744,0.588656018836992,1684,-24.1,98,P-GPS,
0.339533150392445,36.9018857479503,28700,2018-04-07 06:01:20,1745.3440011510208,65.8000021056,0.0,0.58906001884992,1745.3440011510208,65.8000021056,0.503999582744,0.58906001884992,1684,-24.1,98,P-GPS,
0.339533102549575,36.9018857518462,28800,2018-04-07 06:01:20,1745.844001167021,66.3000021216,0.0,0.5928220189703041,1745.844001167021,66.3000021216,0.503999582744,0.5928220189703041,1684,-24.1,98,P-GPS,
0.339533083603443,36.9018857489588,28900,2018-04-07 06:01:20,1746.344001183021,66.8000021376,0.0,0.5946370190283841,1746.344001183021,66.8000021376,0.503999582744,0.5946370190283841,1684,-24.1,98,P-GPS,
0.339533116004594,36.9018857653461,29000,2018-04-07 06:01:20,1746.844001199021,67.3000021536,0.0,0.59071001890272,1746.844001199021,67.3000021536,0.503999582744,0.5946370190283841,1684,-24.1,98,P-GPS,
0.339533161127148,36.901885798845,29100,2018-04-07 06:01:20,1747.444001218221,67.9000021728,0.0,0.584474018703168,1747.444001218221,67.9000021728,0.503999582744,0.5946370190283841,1684,-24.1,98,P-GPS,
0.339533227887653,36.9018857920439,29200,2018-04-07 06:01:20,1747.944001234221,68.4000021888,0.0,0.579333018538656,1747.944001234221,68.4000021888,0.503999582744,0.5946370190283841,1684,-24.1,98,P-GPS,
0.33953328111253,36.9018857978744,29300,2018-04-07 06:01:21,1748.444001250221,68.9000022048,0.0,0.574446018382272,1748.444001250221,68.9000022048,0.503999582744,0.5946370190283841,1684,-24.1,98,P-GPS,
0.339533290693481,36.9018857644473,29400,2018-04-07 06:01:21,1748.9440012662208,69.4000022208,0.0,0.5761060184353921,1748.9440012662208,69.4000022208,0.503999582744,0.5946370190283841,1684,-24.1,98,P-GPS,
0.339533336331438,36.9018857615331,29500,2018-04-07 06:01:21,1749.444001282221,69.9000022368,0.35999970196000003,0.572537018321184,1749.444001282221,69.9000022368,0.503999582744,0.5946370190283841,1684,-24.1,98,P-GPS,
0.339533384421018,36.9018857324692,29600,2018-04-07 06:01:21,1749.9440012982209,70.40000225280001,0.0,0.570753018264096,1749.9440012982209,70.40000225280001,0.503999582744,0.5946370190283841,1684,-24.1,98,P-GPS,
0.339533429931956,36.9018856330224,29800,2018-04-07 06:01:21,1751.044001333421,71.500002288,0.0,0.574621018387872,1751.044001333421,71.500002288,0.503999582744,0.5946370190283841,1684,-24.1,98,P-GPS,
0.33953350517014,36.9018854986511,30000,2018-04-07 06:01:21,1752.044001365421,72.50000232,0.0,0.5791370185323841,1752.044001365421,72.50000232,0.503999582744,0.5946370190283841,1684,-24.1,98,P-GPS,
0.339533555993877,36.9018854535592,30100,2018-04-07 06:01:21,1752.544001381421,73.00000233600001,0.0,0.5787820185210241,1752.544001381421,73.00000233600001,0.503999582744,0.5946370190283841,1684,-24.1,98,P-GPS,
0.339533617098795,36.9018854476745,30200,2018-04-07 06:01:21,1753.144001400621,73.6000023552,0.0,0.574567018386144,1753.144001400621,73.6000023552,0.503999582744,0.5946370190283841,1684,-24.1,98,P-GPS,
0.339533687835146,36.9018854236452,30300,2018-04-07 06:01:22,1753.5440014134208,74.00000236800001,0.0,0.571158018277056,1753.5440014134208,74.00000236800001,0.503999582744,0.5946370190283841,1684,-24.1,98,P-GPS,
0.339533755264941,36.9018854151837,30400,2018-04-07 06:01:22,1754.044001429421,74.50000238400001,0.0,0.566807018137824,1754.044001429421,74.50000238400001,0.503999582744,0.5946370190283841,1684,-24.1,98,P-GPS,
0.339533831980937,36.9018853535144,30500,2018-04-07 06:01:22,1754.544001445421,75.0000024,0.35999970196000003,0.566303018121696,1754.544001445421,75.0000024,0.503999582744,0.5946370190283841,1684,-24.1,98,P-GPS,
0.339533928673871,36.9018852627084,30600,2018-04-07 06:01:22,1755.044001461421,75.500002416,0.35999970196000003,0.5670930181469761,1755.044001461421,75.500002416,0.503999582744,0.5946370190283841,1684,-24.1,98,P-GPS,
0.339534020068662,36.9018851226656,30700,2018-04-07 06:01:22,1755.544001477421,76.000002432,0.0,0.572953018334496,1755.544001477421,76.000002432,0.503999582744,0.5946370190283841,1684,-24.1,98,P-GPS,
0.339534121797558,36.9018850147785,30800,2018-04-07 06:01:22,1756.0440014934209,76.500002448,0.35999970196000003,0.5757820184250241,1756.0440014934209,76.500002448,0.503999582744,0.5946370190283841,1684,-24.1,98,P-GPS,
