latitude,longitude,time_millisecond,datetime_utc,altitude_m,ascent_m,speed_kph,distance_m,max_altitude_m,max_ascent_m,max_speed_kph,max_distance_m,rc_throttle,gimbal_pitch_degrees,battery_percent,flycState,message
0.371696891331428,36.9135383655162,0,2018-04-18 06:18:41,1649.5147011844822,0.0,0.0,0.0,1649.5147011844822,0.0,0.0,0.0,364,0.0,99,Motors_Started,
0.371696861484288,36.9135383659762,100,2018-04-18 06:18:41,1649.5147011844822,0.0,0.0,0.0033195801062265605,1649.5147011844822,0.0,0.0,0.0033195801062265605,364,0.0,99,Motors_Started,
0.371696838770955,36.9135383667201,200,2018-04-18 06:18:41,1649.5147011844822,0.0,0.0,0.00584658018709056,1649.5147011844822,0.0,0.0,0.00584658018709056,364,0.0,99,Motors_Started,
0.3716968327164,36.9135383695844,300,2018-04-18 06:18:41,1649.5147011844822,0.0,0.0,0.00653403020908896,1649.5147011844822,0.0,0.0,0.00653403020908896,364,0.0,99,Motors_Started,
0.371696825179961,36.9135383723145,400,2018-04-18 06:18:42,1649.5147011844822,0.0,0.0,0.00739519023664608,1649.5147011844822,0.0,0.0,0.00739519023664608,868,0.0,99,Motors_Started,
0.371696836432306,36.9135383179519,600,2018-04-18 06:18:42,1649.5147011844822,0.0,0.0,0.00807771025848672,1649.5147011844822,0.0,0.0,0.00807771025848672,1024,0.0,99,Motors_Started,Setting new Return-To-Home altitude to 30m (98 ft). Setting new Maximum Flight Altitude to 120m (394 ft)
0.371696819890368,36.913538293644,700,2018-04-18 06:18:42,1649.5147011844822,0.0,0.0,0.011269300360617601,1649.5147011844822,0.0,0.0,0.011269300360617601,1024,0.0,99,Motors_Started,
0.371696797335808,36.9135382790587,800,2018-04-18 06:18:42,1649.5147011844822,0.0,0.0,0.0142021004544672,1649.5147011844822,0.0,0.0,0.0142021004544672,1024,0.0,99,Motors_Started,
0.37169677340562,36.9135382645401,1000,2018-04-18 06:18:42,1649.5147011844822,0.0,0.0,0.017264600552467202,1649.5147011844822,0.0,0.0,0.017264600552467202,1024,0.0,99,Motors_Started,
0.371696770848352,36.91353826424,1100,2018-04-18 06:18:42,1649.5147011844822,0.0,0.0,0.0175031005600992,1649.5147011844822,0.0,0.0,0.0175031005600992,1024,0.0,99,Motors_Started,
0.37169677420254,36.9135382594903,1200,2018-04-18 06:18:43,1649.5147011844822,0.0,0.0,0.0175692005622144,1649.5147011844822,0.0,0.0,0.0175692005622144,1024,0.0,99,Motors_Started,
0.371696781056864,36.9135382613888,1300,2018-04-18 06:18:43,1649.5147011844822,0.0,0.0,0.0168662005397184,1649.5147011844822,0.0,0.0,0.0175692005622144,1024,0.0,99,Motors_Started,
0.371696783717131,36.9135382647242,1400,2018-04-18 06:18:43,1649.5147011844822,0.0,0.0,0.0163966005246912,1649.5147011844822,0.0,0.0,0.0175692005622144,1024,0.0,99,Motors_Started,
0.371696790501025,36.9135382700837,1500,2018-04-18 06:18:43,1649.5147011844822,0.0,0.0,0.015438700494038402,1649.5147011844822,0.0,0.0,0.0175692005622144,1024,0.0,99,Assisted_Takeoff,
0.3716967953373,36.9135382731149,1600,2018-04-18 06:18:43,1649.5147011844822,0.0,0.0,0.0148169004741408,1649.5147011844822,0.0,0.0,0.0175692005622144,1024,0.0,99,Assisted_Takeoff,
0.371696782563175,36.9135382736822,1700,2018-04-18 06:18:43,1649.5147011844822,0.0,0.0,0.015830200506566403,1649.5147011844822,0.0,0.0,0.0175692005622144,1024,0.0,99,Assisted_Takeoff,
0.371696755614666,36.9135382794619,1800,2018-04-18 06:18:43,1649.5147011844822,0.0,0.0,0.0178707005718624,1649.5147011844822,0.0,0.0,0.0178707005718624,1024,0.0,99,Assisted_Takeoff,
0.371696740054069,36.9135382490725,1900,2018-04-18 06:18:43,1649.5147011844822,0.0,0.0,0.0212294006793408,1649.5147011844822,0.0,0.0,0.0212294006793408,1024,0.0,99,Assisted_Takeoff,
0.37169672260692,36.9135382262306,2000,2018-04-18 06:18:43,1649.5147011844822,0.0,0.0,0.024330400778572802,1649.5147011844822,0.0,0.0,0.024330400778572802,1024,0.0,99,Assisted_Takeoff,
0.371696717079371,36.9135382010003,2100,2018-04-18 06:18:43,1649.5147011844822,0.0,0.0,0.0266496008527872,1649.5147011844822,0.0,0.0,0.0266496008527872,1024,0.0,99,Assisted_Takeoff,
0.371696708927787,36.9135381878576,2200,2018-04-18 06:18:43,1649.5147011844822,0.0,0.0,0.028315500906096,1649.5147011844822,0.0,0.0,0.028315500906096,1024,0.0,99,Assisted_Takeoff,
0.371696709513823,36.9135381756404,2300,2018-04-18 06:18:43,1649.5147011844822,0.0,0.0,0.029234500935504,1649.5147011844822,0.0,0.0,0.029234500935504,1024,0.0,99,Assisted_Takeoff,
0.371696707037164,36.9135381688239,2400,2018-04-18 06:18:44,1649.5147011844822,0.0,0.0,0.029974200959174403,1649.5147011844822,0.0,0.0,0.029974200959174403,1024,0.0,99,Assisted_Takeoff,
0.371696709406957,36.9135381639855,2500,2018-04-18 06:18:44,1649.5147011844822,0.0,0.0,0.0301919009661408,1649.5147011844822,0.0,0.0,0.0301919009661408,1024,0.0,99,Assisted_Takeoff,
0.371696709740788,36.9135381609086,2600,2018-04-18 06:18:44,1649.5147011844822,0.0,0.0,0.030422100973507202,1649.5147011844822,0.0,0.0,0.030422100973507202,1024,0.0,99,Assisted_Takeoff,
0.371696682011033,36.9135381610953,2700,2018-04-18 06:18:44,1649.5147011844822,0.0,0.0,0.032536301041161605,1649.5147011844822,0.0,0.0,0.032536301041161605,1024,0.0,99,Assisted_Takeoff,
0.371696653823889,36.913538160806,2800,2018-04-18 06:18:44,1649.5147011844822,0.0,0.0,0.0348688011158016,1649.5147011844822,0.0,0.0,0.0348688011158016,1024,0.0,99,Assisted_Takeoff,
0.371696630377348,36.9135381629736,2900,2018-04-18 06:18:44,1649.5147011844822,0.0,0.0,0.0367349011755168,1649.5147011844822,0.0,0.0,0.0367349011755168,1024,0.0,99,Assisted_Takeoff,
0.371696614608107,36.9135381645825,3000,2018-04-18 06:18:44,1649.5147011844822,0.0,0.0,0.03803000121696,1649.5147011844822,0.0,0.0,0.03803000121696,1024,0.0,99,Assisted_Takeoff,
0.371696574061887,36.9135381677823,3100,2018-04-18 06:18:44,1649.5147011844822,0.0,0.0,0.0415734013303488,1649.5147011844822,0.0,0.0,0.0415734013303488,1024,0.0,99,Assisted_Takeoff,
0.37169650856933,36.9135381725591,3300,2018-04-18 06:18:45,1649.5147011844822,0.0,0.0,0.0476681015253792,1649.5147011844822,0.0,0.0,0.0476681015253792,1024,0.0,99,Assisted_Takeoff,
0.371696486995501,36.9135381746646,3400,2018-04-18 06:18:45,1649.5147011844822,0.0,0.0,0.0497217015910944,1649.5147011844822,0.0,0.0,0.0497217015910944,1024,0.0,99,Assisted_Takeoff,
0.371696475458993,36.913538176967,3500,2018-04-18 06:18:45,1649.5147011844822,0.0,0.0,0.0507786016249152,1649.5147011844822,0.0,0.0,0.0507786016249152,1024,0.0,99,Assisted_Takeoff,
0.371696465144632,36.9135381790477,3600,2018-04-18 06:18:45,1649.5147011844822,0.0,0.0,0.0517323016554336,1649.5147011844822,0.0,0.0,0.0517323016554336,1038,0.0,99,Assisted_Takeoff,
0.371696465671434,36.9135381811412,3700,2018-04-18 06:18:45,1649.5147011844822,0.0,0.0,0.0515856016507392,1649.5147011844822,0.0,0.0,0.0517323016554336,1064,0.0,99,Assisted_Takeoff,
0.371696463696335,36.9135381834127,3800,2018-04-18 06:18:45,1649.5147011844822,0.0,0.0,0.0516878016540096,1649.5147011844822,0.0,0.0,0.0517323016554336,1078,0.0,99,Assisted_Takeoff,
0.37169650404877,36.9135381847719,3900,2018-04-18 06:18:45,1649.5147011844822,0.0,0.0,0.0475274015208768,1649.5147011844822,0.0,0.0,0.0517323016554336,1132,0.0,99,Assisted_Takeoff,
0.371696536026525,36.9135381871976,4000,2018-04-18 06:18:45,1649.5147011844822,0.0,0.0,0.0442088014146816,1649.5147011844822,0.0,0.0,0.0517323016554336,1181,0.0,99,Assisted_Takeoff,
0.371696540431466,36.9135381885771,4100,2018-04-18 06:18:45,1649.5147011844822,0.0,0.0,0.0437023013984736,1649.5147011844822,0.0,0.0,0.0517323016554336,1228,0.0,99,Assisted_Takeoff,
0.371696534430242,36.9135381902223,4200,2018-04-18 06:18:45,1649.5147011844822,0.0,0.0,0.0442182014149824,1649.5147011844822,0.0,0.0,0.0517323016554336,1240,0.0,99,Assisted_Takeoff,
0.371696529545114,36.9135381903222,4300,2018-04-18 06:18:45,1649.5147011844822,0.0,0.0,0.044701701430454405,1649.5147011844822,0.0,0.0,0.0517323016554336,1230,0.0,99,Assisted_Takeoff,
0.371696523464097,36.9135381934196,4400,2018-04-18 06:18:46,1649.5147011844822,0.0,0.0,0.0451642014452544,1649.5147011844822,0.0,0.0,0.0517323016554336,1225,0.0,99,Assisted_Takeoff,
0.371696511929828,36.9135382042086,4500,2018-04-18 06:18:46,1649.5147011844822,0.0,0.0,0.0458467014670944,1649.5147011844822,0.0,0.0,0.0517323016554336,1238,0.0,99,Assisted_Takeoff,
0.371696460741523,36.9135382626452,4600,2018-04-18 06:18:46,1649.5147011844822,0.0,0.0,0.049231701575414406,1649.5147011844822,0.0,0.0,0.0517323016554336,1245,0.0,99,Assisted_Takeoff,Home Point Recorded. RTH Altitude:  30m.
0.371696324610322,36.9135383263082,4700,2018-04-18 06:18:46,1649.5147011844822,0.0,0.0,0.063173502021552,1649.5147011844822,0.0,0.0,0.063173502021552,1237,0.0,99,P-GPS,
0.371696132504412,36.9135383520284,4800,2018-04-18 06:18:46,1649.5147011844822,0.0,0.7199994039200001,0.084399502700784,1649.5147011844822,0.0,0.7199994039200001,0.084399502700784,1228,0.0,99,P-GPS,Obstacle Avoided. Revise Flight Route
0.371695911016487,36.9135383825155,4900,2018-04-18 06:18:46,1649.5147011844822,0.0,0.7199994039200001,0.10903300348905601,1649.5147011844822,0.0,0.7199994039200001,0.10903300348905601,1260,0.0,99,P-GPS,
0.3716957098548,36.9135383914291,5000,2018-04-18 06:18:46,1649.6147011876822,0.1000000032,0.35999970196000003,0.131419004205408,1649.6147011876822,0.1000000032,0.7199994039200001,0.131419004205408,1286,0.0,99,P-GPS,
0.371695573554852,36.9135383608096,5100,2018-04-18 06:18:46,1649.6147011876822,0.1000000032,0.35999970196000003,0.14654600468947201,1649.6147011876822,0.1000000032,0.7199994039200001,0.14654600468947201,1319,0.0,99,P-GPS,
0.371695474356965,36.9135383052152,5200,2018-04-18 06:18:46,1649.7147011908821,0.2000000064,0.35999970196000003,0.157719005047008,1649.7147011908821,0.2000000064,0.7199994039200001,0.157719005047008,1368,0.0,99,P-GPS,
0.371695384931777,36.9135382092444,5300,2018-04-18 06:18:47,1649.8147011940823,0.3000000096,0.0,0.16842000538944002,1649.8147011940823,0.3000000096,0.7199994039200001,0.16842000538944002,1355,0.0,99,P-GPS,
0.371695313985357,36.9135380988535,5400,2018-04-18 06:18:47,1649.9147011972823,0.4000000128,0.0,0.177899005692768,1649.9147011972823,0.4000000128,0.7199994039200001,0.177899005692768,1326,0.0,99,P-GPS,
0.371695302990511,36.91353802373,5500,2018-04-18 06:18:47,1650.0147012004822,0.500000016,0.0,0.18067600578163198,1650.0147012004822,0.500000016,0.7199994039200001,0.18067600578163198,1303,0.0,99,P-GPS,
0.371695309643518,36.9135379589704,5600,2018-04-18 06:18:47,1650.2147012068824,0.7000000224,0.0,0.18161000581152,1650.2147012068824,0.7000000224,0.7199994039200001,0.18161000581152,1314,0.0,99,P-GPS,
0.3716954246194,36.9135378542997,5700,2018-04-18 06:18:47,1650.3147012100824,0.8000000256,0.0,0.172731005527392,1650.3147012100824,0.8000000256,0.7199994039200001,0.18161000581152,1381,0.0,99,P-GPS,
0.371695529700855,36.913537742561,5800,2018-04-18 06:18:47,1650.514701216482,1.000000032,0.0,0.166516005328512,1650.514701216482,1.000000032,0.7199994039200001,0.18161000581152,1506,0.0,99,P-GPS,
0.37169564364186,36.9135376317867,5900,2018-04-18 06:18:47,1650.7147012228822,1.2000000384,0.0,0.16096400515084802,1650.7147012228822,1.2000000384,0.7199994039200001,0.18161000581152,1522,0.0,99,P-GPS,
0.37169572210477,36.9135375303375,6000,2018-04-18 06:18:47,1650.8147012260822,1.3000000416000002,0.0,0.159788005113216,1650.8147012260822,1.3000000416000002,0.7199994039200001,0.18161000581152,1523,0.0,99,P-GPS,
0.371695809891336,36.9135374176743,6100,2018-04-18 06:18:47,1651.0147012324824,1.5000000480000002,0.0,0.159916005117312,1651.0147012324824,1.5000000480000002,0.7199994039200001,0.18161000581152,1501,0.0,99,P-GPS,
0.371695875695944,36.9135373063673,6200,2018-04-18 06:18:47,1651.3147012420823,1.8000000576000001,0.0,0.163184005221888,1651.3147012420823,1.8000000576000001,0.7199994039200001,0.18161000581152,1494,0.0,99,P-GPS,
0.371696043536003,36.9135371753293,6300,2018-04-18 06:18:48,1651.5147012484822,2.000000064,0.0,0.16250000520000002,1651.5147012484822,2.000000064,0.7199994039200001,0.18161000581152,1536,0.0,99,P-GPS,
0.371696336589767,36.9135370289326,6500,2018-04-18 06:18:48,1652.1147012676824,2.6000000832000003,0.0,0.16092700514966402,1652.1147012676824,2.6000000832000003,0.7199994039200001,0.18161000581152,1587,0.0,99,P-GPS,
0.371696428941676,36.913536993575,6600,2018-04-18 06:18:48,1652.4147012772821,2.9000000928,0.0,0.160997005151904,1652.4147012772821,2.9000000928,0.7199994039200001,0.18161000581152,1587,0.0,99,P-GPS,
0.371696539781513,36.9135369252295,6700,2018-04-18 06:18:48,1652.8147012900822,3.3000001056,0.0,0.164868005275776,1652.8147012900822,3.3000001056,0.7199994039200001,0.18161000581152,1628,0.0,99,P-GPS,
0.37169675671183,36.9135367649085,6900,2018-04-18 06:18:48,1653.5147013124822,4.000000128,0.0,0.17862200571590403,1653.5147013124822,4.000000128,0.7199994039200001,0.18161000581152,1641,0.0,99,P-GPS,
0.371696846666873,36.9135366779879,7000,2018-04-18 06:18:48,1653.914701325282,4.4000001408000005,0.0,0.18772500600720002,1653.914701325282,4.4000001408000005,0.7199994039200001,0.18772500600720002,1652,0.0,99,P-GPS,
0.371696836240353,36.9135366162555,7100,2018-04-18 06:18:49,1654.3147013380822,4.8000001536,0.0,0.194621006227872,1654.3147013380822,4.8000001536,0.7199994039200001,0.194621006227872,1684,0.0,99,P-GPS,
0.371696800026405,36.913536580982,7300,2018-04-18 06:18:49,1655.2147013668823,5.7000001824,0.0,0.198706006358592,1655.2147013668823,5.7000001824,0.7199994039200001,0.198706006358592,1684,0.0,99,P-GPS,
0.371696784847882,36.9135365775599,7400,2018-04-18 06:18:49,1655.7147013828821,6.200000198400001,0.0,0.19918000637376002,1655.7147013828821,6.200000198400001,0.7199994039200001,0.19918000637376002,1684,0.0,99,P-GPS,
0.371696712573059,36.9135365949949,7500,2018-04-18 06:18:49,1656.2147013988822,6.7000002144,0.0,0.19789000633248002,1656.2147013988822,6.7000002144,0.7199994039200001,0.19918000637376002,1684,0.0,99,P-GPS,
0.371696691783122,36.9135365997229,7600,2018-04-18 06:18:49,1656.7147014148823,7.200000230400001,0.0,0.19761300632361603,1656.7147014148823,7.200000230400001,0.7199994039200001,0.19918000637376002,1684,0.0,99,P-GPS,
0.37169672587765,36.9135366074434,7700,2018-04-18 06:18:49,1657.2147014308823,7.7000002464,0.0,0.19636800628377601,1657.2147014308823,7.7000002464,0.7199994039200001,0.19918000637376002,1684,0.0,99,P-GPS,
0.371696814143182,36.9135365965037,7800,2018-04-18 06:18:49,1657.6147014436822,8.1000002592,0.0,0.196908006301056,1657.6147014436822,8.1000002592,0.7199994039200001,0.19918000637376002,1684,0.0,99,P-GPS,
0.371696942008401,36.9135365931896,7900,2018-04-18 06:18:49,1658.1147014596822,8.6000002752,0.0,0.19717000630944,1658.1147014596822,8.6000002752,0.7199994039200001,0.19918000637376002,1684,-0.6,99,P-GPS,
0.371697077918744,36.913536572379,8000,2018-04-18 06:18:49,1658.6147014756823,9.1000002912,0.0,0.20048000641536,1658.6147014756823,9.1000002912,0.7199994039200001,0.20048000641536,1684,-1.3,99,P-GPS,
0.371697240296391,36.9135365144979,8100,2018-04-18 06:18:49,1659.1147014916824,9.6000003072,0.0,0.20946600670291202,1659.1147014916824,9.6000003072,0.7199994039200001,0.20946600670291202,1684,-2.9,99,P-GPS,
0.371697553393858,36.9135363668839,8300,2018-04-18 06:18:49,1660.1147015236825,10.600000339200001,0.35999970196000003,0.23413300749225602,1660.1147015236825,10.600000339200001,0.7199994039200001,0.23413300749225602,1684,-4.2,99,P-GPS,
0.371697691067603,36.9135363098671,8400,2018-04-18 06:18:50,1660.6147015396823,11.1000003552,0.35999970196000003,0.245287007849184,1660.6147015396823,11.1000003552,0.7199994039200001,0.245287007849184,1684,-4.2,99,P-GPS,
0.37169779172824,36.9135362725405,8500,2018-04-18 06:18:50,1661.1147015556821,11.6000003712,0.35999970196000003,0.253371008107872,1661.1147015556821,11.6000003712,0.7199994039200001,0.253371008107872,1684,-7.7,99,P-GPS,
0.371697859570031,36.9135362513568,8600,2018-04-18 06:18:50,1661.6147015716822,12.1000003872,0.35999970196000003,0.258586008274752,1661.6147015716822,12.1000003872,0.7199994039200001,0.258586008274752,1684,-7.7,99,P-GPS,
0.371697882872861,36.9135362446522,8700,2018-04-18 06:18:50,1662.2147015908822,12.700000406400001,0.35999970196000003,0.26035100833123204,1662.2147015908822,12.700000406400001,0.7199994039200001,0.26035100833123204,1684,-11.0,99,P-GPS,
0.371697869291435,36.913536253976,8800,2018-04-18 06:18:50,1662.7147016068823,13.2000004224,0.35999970196000003,0.258774008280768,1662.7147016068823,13.2000004224,0.7199994039200001,0.26035100833123204,1674,-11.6,99,P-GPS,
0.371697810549388,36.9135362563311,8900,2018-04-18 06:18:50,1663.2147016228823,13.7000004384,0.35999970196000003,0.255857008187424,1663.2147016228823,13.7000004384,0.7199994039200001,0.26035100833123204,1672,-11.6,99,P-GPS,
0.371697722096382,36.9135362703891,9000,2018-04-18 06:18:50,1663.7147016388822,14.2000004544,0.0,0.25063500802032,1663.7147016388822,14.2000004544,0.7199994039200001,0.26035100833123204,1671,-11.6,99,P-GPS,
0.371697613218209,36.9135362906342,9100,2018-04-18 06:18:50,1664.2147016548822,14.7000004704,0.0,0.24430100781763203,1664.2147016548822,14.7000004704,0.7199994039200001,0.26035100833123204,1667,-11.6,99,P-GPS,
0.371697477313769,36.9135363336663,9200,2018-04-18 06:18:51,1664.7147016708823,15.200000486400002,0.0,0.235159007525088,1664.7147016708823,15.200000486400002,0.7199994039200001,0.26035100833123204,1663,-11.6,99,P-GPS,
0.37169730517075,36.9135364142065,9300,2018-04-18 06:18:51,1665.2147016868823,15.700000502400002,0.0,0.22182000709823999,1665.2147016868823,15.700000502400002,0.7199994039200001,0.26035100833123204,1664,-11.6,99,P-GPS,
0.371697116273893,36.9135365134383,9400,2018-04-18 06:18:51,1665.7147017028822,16.2000005184,0.0,0.20747200663910403,1665.7147017028822,16.2000005184,0.7199994039200001,0.26035100833123204,1668,-11.6,99,P-GPS,
0.371696906385782,36.9135366173416,9500,2018-04-18 06:18:51,1666.2147017188822,16.7000005344,0.0,0.194411006221152,1666.2147017188822,16.7000005344,0.7199994039200001,0.26035100833123204,1621,-11.6,99,P-GPS,
0.371696471124482,36.9135368632237,9700,2018-04-18 06:18:51,1667.2147017508823,17.7000005664,0.0,0.173473005551136,1667.2147017508823,17.7000005664,0.7199994039200001,0.26035100833123204,1552,-11.6,99,P-GPS,
0.371696255952681,36.913536991671,9800,2018-04-18 06:18:51,1667.7147017668822,18.2000005824,0.0,0.16832500538640002,1667.7147017668822,18.2000005824,0.7199994039200001,0.26035100833123204,1555,-11.6,99,P-GPS,
0.371696020782569,36.9135370993206,9900,2018-04-18 06:18:51,1668.2147017828822,18.700000598400003,0.0,0.170876005468032,1668.2147017828822,18.700000598400003,0.7199994039200001,0.26035100833123204,1599,-11.6,99,P-GPS,
0.371695794868126,36.9135372160788,10000,2018-04-18 06:18:51,1668.6147017956823,19.1000006112,0.0,0.176653005652896,1668.6147017956823,19.1000006112,0.7199994039200001,0.26035100833123204,1669,-11.6,99,P-GPS,
0.371695564449408,36.9135373506491,10100,2018-04-18 06:18:51,1669.0147018084824,19.500000624000002,0.0,0.18576800594457601,1669.0147018084824,19.500000624000002,0.7199994039200001,0.26035100833123204,1671,-11.6,99,P-GPS,
0.371695333323537,36.913537469582,10200,2018-04-18 06:18:51,1669.5147018244822,20.00000064,0.35999970196000003,0.19986300639561602,1669.5147018244822,20.00000064,0.7199994039200001,0.26035100833123204,1684,-11.6,99,P-GPS,
0.371695110177042,36.9135375476667,10300,2018-04-18 06:18:51,1669.914701837282,20.4000006528,0.35999970196000003,0.217957006974624,1669.914701837282,20.4000006528,0.7199994039200001,0.26035100833123204,1684,-11.6,99,P-GPS,
0.371694905285404,36.9135376074328,10400,2018-04-18 06:18:52,1670.4147018532822,20.900000668800004,0.35999970196000003,0.23640200756486401,1670.4147018532822,20.900000668800004,0.7199994039200001,0.26035100833123204,1684,-11.6,99,P-GPS,
0.371694704707514,36.9135376726679,10500,2018-04-18 06:18:52,1670.9147018692822,21.400000684800002,0.35999970196000003,0.25508000816256,1670.9147018692822,21.400000684800002,0.7199994039200001,0.26035100833123204,1684,-11.6,99,P-GPS,
0.371694523350963,36.9135377415825,10600,2018-04-18 06:18:52,1671.4147018852823,21.900000700800003,0.35999970196000003,0.272321008714272,1671.4147018852823,21.900000700800003,0.7199994039200001,0.272321008714272,1684,-11.6,99,P-GPS,
0.371694369071364,36.9135378144214,10700,2018-04-18 06:18:52,1671.9147019012821,22.4000007168,0.35999970196000003,0.287108009187456,1671.9147019012821,22.4000007168,0.7199994039200001,0.287108009187456,1684,-11.6,99,P-GPS,
0.37169425402261,36.913537906831,10800,2018-04-18 06:18:52,1672.4147019172824,22.900000732800002,0.0,0.29768700952598404,1672.4147019172824,22.900000732800002,0.7199994039200001,0.29768700952598404,1684,-11.6,99,P-GPS,
0.371694147289505,36.9135380206471,10900,2018-04-18 06:18:52,1672.9147019332822,23.4000007488,0.0,0.30755500984176,1672.9147019332822,23.4000007488,0.7199994039200001,0.30755500984176,1684,-11.6,99,P-GPS,
0.371694065305492,36.9135381347383,11000,2018-04-18 06:18:52,1673.414701949282,23.9000007648,0.0,0.315317010090144,1673.414701949282,23.9000007648,0.7199994039200001,0.315317010090144,1684,-11.6,99,P-GPS,
0.371693989165558,36.9135382337791,11100,2018-04-18 06:18:53,1673.9147019652823,24.400000780800003,0.0,0.323071010338272,1673.9147019652823,24.400000780800003,0.7199994039200001,0.323071010338272,1643,-11.6,99,P-GPS,
0.371693935791677,36.9135384728016,11400,2018-04-18 06:18:53,1675.5147020164823,26.000000832,0.0,0.328891010524512,1675.5147020164823,26.000000832,0.7199994039200001,0.328891010524512,1593,-11.6,99,P-GPS,
0.37169394101939,36.9135385321078,11500,2018-04-18 06:18:53,1676.0147020324823,26.500000848000003,0.0,0.32861501051568004,1676.0147020324823,26.500000848000003,0.7199994039200001,0.328891010524512,1547,-11.6,99,P-GPS,
0.371693940723013,36.9135385795453,11600,2018-04-18 06:18:53,1676.5147020484821,27.000000864,0.0,0.328988010527616,1676.5147020484821,27.000000864,0.7199994039200001,0.328988010527616,1524,-11.6,99,P-GPS,
0.371693909160104,36.9135386204063,11700,2018-04-18 06:18:53,1676.9147020612822,27.4000008768,0.0,0.33284501065104,1676.9147020612822,27.4000008768,0.7199994039200001,0.33284501065104,1556,-11.6,99,P-GPS,
0.371693886797904,36.913538667645,11800,2018-04-18 06:18:53,1677.4147020772823,27.9000008928,0.0,0.33580701074582403,1677.4147020772823,27.9000008928,0.7199994039200001,0.33580701074582403,1587,-11.6,99,P-GPS,
0.371693847956258,36.9135387221358,11900,2018-04-18 06:18:53,1677.7147020868822,28.200000902400003,0.0,0.340757010904224,1677.7147020868822,28.200000902400003,0.7199994039200001,0.340757010904224,1612,-11.6,99,P-GPS,
0.37169381674835,36.9135387814952,12000,2018-04-18 06:18:53,1678.1147020996823,28.600000915200003,0.0,0.34502701104086403,1678.1147020996823,28.600000915200003,0.7199994039200001,0.34502701104086403,1642,-11.6,99,P-GPS,
0.371693728334833,36.9135388528961,12100,2018-04-18 06:18:53,1678.5147021124824,29.000000928000002,0.0,0.35589601138867205,1678.5147021124824,29.000000928000002,0.7199994039200001,0.35589601138867205,1676,-11.6,99,P-GPS,
0.37169350587432,36.9135389678381,12300,2018-04-18 06:18:53,1679.3147021380823,29.8000009536,0.0,0.38239501223664,1679.3147021380823,29.8000009536,0.7199994039200001,0.38239501223664,1683,-11.6,99,P-GPS,
0.371693417522277,36.9135389924238,12400,2018-04-18 06:18:54,1679.7147021508824,30.2000009664,0.0,0.392549012561568,1679.7147021508824,30.2000009664,0.7199994039200001,0.392549012561568,1684,-11.6,99,P-GPS,
0.371693353247999,36.9135390015292,12500,2018-04-18 06:18:54,1680.2147021668823,30.700000982400002,0.0,0.39976301279241605,1680.2147021668823,30.700000982400002,0.7199994039200001,0.39976301279241605,1684,-11.6,99,P-GPS,
0.371693349891776,36.9135389881108,12600,2018-04-18 06:18:54,1680.714702182882,31.2000009984,0.0,0.39986901279580805,1680.714702182882,31.2000009984,0.7199994039200001,0.39986901279580805,1684,-11.6,99,P-GPS,
0.371693375067927,36.9135389867482,12700,2018-04-18 06:18:54,1681.2147021988824,31.7000010144,0.0,0.397086012706752,1681.2147021988824,31.7000010144,0.7199994039200001,0.39986901279580805,1684,-11.6,99,P-GPS,
0.371693440559874,36.9135389909686,12800,2018-04-18 06:18:54,1681.7147022148822,32.2000010304,0.0,0.38999901247996804,1681.7147022148822,32.2000010304,0.7199994039200001,0.39986901279580805,1684,-11.6,99,P-GPS,
0.371693556800649,36.9135389878512,12900,2018-04-18 06:18:54,1682.2147022308823,32.700001046400004,0.0,0.377223012071136,1682.2147022308823,32.700001046400004,0.7199994039200001,0.39986901279580805,1684,-11.6,99,P-GPS,
0.371693689255841,36.9135389772373,13000,2018-04-18 06:18:54,1682.7147022468823,33.200001062400005,0.0,0.36253001160096004,1682.7147022468823,33.200001062400005,0.7199994039200001,0.39986901279580805,1684,-11.6,99,P-GPS,
0.371693822735324,36.9135389648018,13100,2018-04-18 06:18:55,1683.2147022628824,33.7000010784,0.0,0.347693011126176,1683.2147022628824,33.7000010784,0.7199994039200001,0.39986901279580805,1684,-11.6,99,P-GPS,
0.37169402838541,36.9135389411695,13300,2018-04-18 06:18:55,1684.3147022980822,34.800001113600004,0.35999970196000003,0.324749010391968,1684.3147022980822,34.800001113600004,0.7199994039200001,0.39986901279580805,1684,-11.6,99,P-GPS,
0.371694103962717,36.9135389367966,13400,2018-04-18 06:18:55,1684.8147023140823,35.300001129600005,0.35999970196000003,0.31641501012528006,1684.8147023140823,35.300001129600005,0.7199994039200001,0.39986901279580805,1684,-11.6,99,P-GPS,
0.371694145207947,36.9135389447245,13500,2018-04-18 06:18:55,1685.3147023300821,35.8000011456,0.35999970196000003,0.312104009987328,1685.3147023300821,35.8000011456,0.7199994039200001,0.39986901279580805,1684,-11.6,99,P-GPS,
0.371694207699485,36.9135389856235,13700,2018-04-18 06:18:55,1686.3147023620822,36.8000011776,0.35999970196000003,0.3063000098016,1686.3147023620822,36.8000011776,0.7199994039200001,0.39986901279580805,1684,-11.6,99,P-GPS,
0.371694234667739,36.9135390150203,13800,2018-04-18 06:18:55,1686.9147023812823,37.400001196800005,0.0,0.304138009732416,1686.9147023812823,37.400001196800005,0.7199994039200001,0.39986901279580805,1684,-11.6,99,P-GPS,
0.371694247010123,36.913539069518,13900,2018-04-18 06:18:55,1687.4147023972823,37.9000012128,0.0,0.304307009737824,1687.4147023972823,37.9000012128,0.7199994039200001,0.39986901279580805,1684,-11.6,99,P-GPS,
0.37169424285067,36.9135391230967,14000,2018-04-18 06:18:55,1687.9147024132822,38.4000012288,0.0,0.306339009802848,1687.9147024132822,38.4000012288,0.7199994039200001,0.39986901279580805,1684,-11.6,99,P-GPS,
0.371694215907657,36.9135391634328,14100,2018-04-18 06:18:55,1688.4147024292822,38.9000012448,0.0,0.310473009935136,1688.4147024292822,38.9000012448,0.7199994039200001,0.39986901279580805,1684,-11.6,99,P-GPS,
0.371694172210805,36.9135391954229,14200,2018-04-18 06:18:55,1688.9147024452823,39.4000012608,0.0,0.31615301011689606,1688.9147024452823,39.4000012608,0.7199994039200001,0.39986901279580805,1684,-11.6,99,P-GPS,
0.371694127154203,36.9135392382835,14300,2018-04-18 06:18:56,1689.514702464482,40.00000128,0.0,0.322351010315232,1689.514702464482,40.00000128,0.7199994039200001,0.39986901279580805,1684,-11.6,99,P-GPS,
0.371694005085633,36.9135393628067,14500,2018-04-18 06:18:56,1690.5147024964822,41.000001312,0.0,0.33958801086681606,1690.5147024964822,41.000001312,0.7199994039200001,0.39986901279580805,1684,-11.6,99,P-GPS,
0.371693933412521,36.9135394427049,14600,2018-04-18 06:18:56,1691.0147025124822,41.500001328,0.0,0.350071011202272,1691.0147025124822,41.500001328,0.7199994039200001,0.39986901279580805,1684,-11.6,99,P-GPS,
0.37169389879058,36.9135395292886,14700,2018-04-18 06:18:56,1691.5147025284823,42.000001344,0.0,0.35706701142614405,1691.5147025284823,42.000001344,0.7199994039200001,0.39986901279580805,1684,-11.6,99,P-GPS,
0.371693874522286,36.9135396127375,14800,2018-04-18 06:18:56,1692.0147025444824,42.50000136,0.0,0.363027011616864,1692.0147025444824,42.50000136,0.7199994039200001,0.39986901279580805,1684,-11.6,99,P-GPS,
0.371693833601931,36.9135397104722,14900,2018-04-18 06:18:56,1692.6147025636822,43.1000013792,0.0,0.371477011887264,1692.6147025636822,43.1000013792,0.7199994039200001,0.39986901279580805,1684,-11.6,99,P-GPS,
0.371693779499322,36.9135398064695,15000,2018-04-18 06:18:56,1693.1147025796822,43.6000013952,0.0,0.38135401220332804,1693.1147025796822,43.6000013952,0.7199994039200001,0.39986901279580805,1684,-11.6,99,P-GPS,
0.371693730154212,36.9135398863669,15100,2018-04-18 06:18:56,1693.6147025956823,44.100001411200004,0.0,0.390109012483488,1693.6147025956823,44.100001411200004,0.7199994039200001,0.39986901279580805,1684,-11.6,99,P-GPS,
0.371693686248919,36.913539949996,15200,2018-04-18 06:18:57,1694.114702611682,44.600001427200006,0.0,0.397599012723168,1694.114702611682,44.600001427200006,0.7199994039200001,0.39986901279580805,1684,-11.6,99,P-GPS,
0.371693610697667,36.9135400887236,15400,2018-04-18 06:18:57,1695.1147026436822,45.6000014592,0.0,0.41209101318691205,1695.1147026436822,45.6000014592,0.7199994039200001,0.41209101318691205,1684,-11.6,99,P-GPS,
0.371693580255535,36.9135401754476,15500,2018-04-18 06:18:57,1695.714702662882,46.2000014784,0.0,0.41963101342819203,1695.714702662882,46.2000014784,0.7199994039200001,0.41963101342819203,1684,-11.6,99,P-GPS,
0.371693558521914,36.9135402568002,15600,2018-04-18 06:18:57,1696.2147026788823,46.7000014944,0.0,0.42614501363664004,1696.2147026788823,46.7000014944,0.7199994039200001,0.42614501363664004,1684,-11.6,99,P-GPS,
0.371693537363134,36.9135403233922,15700,2018-04-18 06:18:57,1696.7147026948821,47.2000015104,0.0,0.43187801382009605,1696.7147026948821,47.2000015104,0.7199994039200001,0.43187801382009605,1677,-11.6,99,P-GPS,
0.371693523640237,36.9135403738703,15800,2018-04-18 06:18:57,1697.2147027108822,47.70000152640001,0.0,0.43604501395344003,1697.2147027108822,47.70000152640001,0.7199994039200001,0.43604501395344003,1672,-11.6,99,P-GPS,
0.371693495766161,36.913540416149,15900,2018-04-18 06:18:57,1697.7147027268823,48.20000154240001,0.0,0.44112201411590407,1697.7147027268823,48.20000154240001,0.7199994039200001,0.44112201411590407,1684,-11.6,99,P-GPS,
0.371693468121289,36.9135404563963,16000,2018-04-18 06:18:57,1698.2147027428823,48.7000015584,0.0,0.44607301427433604,1698.2147027428823,48.7000015584,0.7199994039200001,0.44607301427433604,1684,-11.6,99,P-GPS,
0.371693448942289,36.9135405149817,16100,2018-04-18 06:18:57,1698.7147027588821,49.200001574400005,0.0,0.45131101444195204,1698.7147027588821,49.200001574400005,0.7199994039200001,0.45131101444195204,1684,-11.6,99,P-GPS,
0.371693428815943,36.9135406119683,16300,2018-04-18 06:18:57,1699.7147027908823,50.20000160640001,0.0,0.45899101468771203,1699.7147027908823,50.20000160640001,0.7199994039200001,0.45899101468771203,1684,-11.6,99,P-GPS,
0.371693414801961,36.9135406341694,16400,2018-04-18 06:18:58,1700.214702806882,50.7000016224,0.0,0.461644014772608,1700.214702806882,50.7000016224,0.7199994039200001,0.461644014772608,1684,-11.6,99,P-GPS,
0.371693405489297,36.9135406661973,16500,2018-04-18 06:18:58,1700.7147028228824,51.2000016384,0.0,0.46446401486284805,1700.7147028228824,51.2000016384,0.7199994039200001,0.46446401486284805,1684,-11.6,99,P-GPS,
0.37169341649595,36.9135406958925,16600,2018-04-18 06:18:58,1701.2147028388822,51.700001654400005,0.0,0.465274014888768,1701.2147028388822,51.700001654400005,0.7199994039200001,0.465274014888768,1684,-11.6,98,P-GPS,
0.371693402716871,36.9135407192898,16700,2018-04-18 06:18:58,1701.6147028516823,52.1000016672,0.0,0.46799701497590407,1701.6147028516823,52.1000016672,0.7199994039200001,0.46799701497590407,1684,-11.6,98,P-GPS,
0.37169339468335,36.913540733653,16800,2018-04-18 06:18:58,1702.1147028676821,52.6000016832,0.0,0.469632015028224,1702.1147028676821,52.6000016832,0.7199994039200001,0.469632015028224,1684,-11.6,98,P-GPS,
0.371693406282756,36.9135407737643,16900,2018-04-18 06:18:58,1702.6147028836824,53.1000016992,0.0,0.471086015074752,1702.6147028836824,53.1000016992,0.7199994039200001,0.471086015074752,1684,-11.6,98,P-GPS,
0.37169344127069,36.9135408123794,17000,2018-04-18 06:18:58,1703.1147028996822,53.6000017152,0.0,0.470361015051552,1703.1147028996822,53.6000017152,0.7199994039200001,0.471086015074752,1684,-11.6,98,P-GPS,
0.371693439091424,36.9135408312421,17100,2018-04-18 06:18:59,1703.6147029156823,54.1000017312,0.0,0.47177501509680003,1703.6147029156823,54.1000017312,0.7199994039200001,0.47177501509680003,1684,-11.6,98,P-GPS,
0.371693490669131,36.9135408355412,17300,2018-04-18 06:18:59,1704.6147029476824,55.1000017632,0.0,0.46740001495680006,1704.6147029476824,55.1000017632,0.7199994039200001,0.47177501509680003,1684,-11.6,98,P-GPS,
0.371693572249697,36.9135408342489,17400,2018-04-18 06:18:59,1705.1147029636822,55.6000017792,0.0,0.46000501472016003,1705.1147029636822,55.6000017792,0.7199994039200001,0.47177501509680003,1684,-11.6,98,P-GPS,
0.371693661969633,36.9135408377102,17500,2018-04-18 06:18:59,1705.614702979682,56.10000179520001,0.0,0.452272014472704,1705.614702979682,56.10000179520001,0.7199994039200001,0.47177501509680003,1684,-11.6,98,P-GPS,
0.371693739735977,36.9135408513167,17600,2018-04-18 06:18:59,1706.2147029988823,56.700001814400004,0.0,0.446372014283904,1706.2147029988823,56.700001814400004,0.7199994039200001,0.47177501509680003,1684,-11.6,98,P-GPS,
0.37169379313062,36.913540848334,17700,2018-04-18 06:18:59,1706.7147030148822,57.200001830400005,0.0,0.441517014128544,1706.7147030148822,57.200001830400005,0.7199994039200001,0.47177501509680003,1683,-11.6,98,P-GPS,
0.371693825257377,36.9135408374608,17800,2018-04-18 06:18:59,1707.2147030308824,57.700001846400006,0.0,0.4379750140152,1707.2147030308824,57.700001846400006,0.7199994039200001,0.47177501509680003,1672,-11.6,98,P-GPS,
0.371693845353597,36.9135408186061,17900,2018-04-18 06:18:59,1707.7147030468823,58.2000018624,0.0,0.434919013917408,1707.7147030468823,58.2000018624,0.7199994039200001,0.47177501509680003,1673,-11.6,98,P-GPS,
0.371693872654054,36.9135408000223,18000,2018-04-18 06:18:59,1708.214703062882,58.7000018784,0.0,0.431259013800288,1708.214703062882,58.7000018784,0.7199994039200001,0.47177501509680003,1684,-11.6,98,P-GPS,
0.371693918161736,36.9135407526926,18100,2018-04-18 06:18:59,1708.7147030788822,59.2000018944,0.0,0.42401601356851204,1708.7147030788822,59.2000018944,0.7199994039200001,0.47177501509680003,1684,-11.6,98,P-GPS,
0.371693973002437,36.9135407104045,18200,2018-04-18 06:18:59,1709.2147030948822,59.700001910400005,0.0,0.416317013322144,1709.2147030948822,59.700001910400005,0.7199994039200001,0.47177501509680003,1684,-11.9,98,P-GPS,
0.371694033892401,36.913540685511,18300,2018-04-18 06:19:00,1709.7147031108823,60.2000019264,0.0,0.40931001309792,1709.7147031108823,60.2000019264,0.7199994039200001,0.47177501509680003,1684,-12.4,98,P-GPS,
0.371694091021473,36.913540680561,18400,2018-04-18 06:19:00,1710.2147031268821,60.7000019424,0.0,0.404046012929472,1710.2147031268821,60.7000019424,0.7199994039200001,0.47177501509680003,1684,-13.4,98,P-GPS,
0.371694142929347,36.913540666334,18500,2018-04-18 06:19:00,1710.7147031428824,61.2000019584,0.0,0.39859701275510406,1710.7147031428824,61.2000019584,0.7199994039200001,0.47177501509680003,1684,-14.6,98,P-GPS,
0.371694186345699,36.9135406561567,18600,2018-04-18 06:19:00,1711.1147031556823,61.6000019712,0.0,0.394174012613568,1711.1147031556823,61.6000019712,0.7199994039200001,0.47177501509680003,1684,-15.7,98,P-GPS,
0.371694201856628,36.9135406496492,18700,2018-04-18 06:19:00,1711.6147031716823,62.1000019872,0.0,0.392391012556512,1711.6147031716823,62.1000019872,0.7199994039200001,0.47177501509680003,1684,-16.9,98,P-GPS,
0.371694216027348,36.9135406575183,18800,2018-04-18 06:19:00,1712.1147031876822,62.600002003200004,0.0,0.39176001253632003,1712.1147031876822,62.600002003200004,0.7199994039200001,0.47177501509680003,1670,-16.9,98,P-GPS,
0.371694238295912,36.9135406378695,18900,2018-04-18 06:19:00,1712.6147032036824,63.100002019200005,0.0,0.388458012430656,1712.6147032036824,63.100002019200005,0.7199994039200001,0.47177501509680003,1670,-18.0,98,P-GPS,
0.37169427598747,36.9135406202321,19000,2018-04-18 06:19:00,1713.1147032196823,63.600002035200006,0.0,0.384000012288,1713.1147032196823,63.600002035200006,0.7199994039200001,0.47177501509680003,1668,-18.2,98,P-GPS,
0.371694302168371,36.9135406155837,19100,2018-04-18 06:19:00,1713.7147032388823,64.2000020544,0.0,0.381461012206752,1713.7147032388823,64.2000020544,0.7199994039200001,0.47177501509680003,1672,-18.2,98,P-GPS,
0.371694336909188,36.9135406252613,19200,2018-04-18 06:19:01,1714.2147032548824,64.7000020704,0.0,0.37926501213648,1714.2147032548824,64.7000020704,0.7199994039200001,0.47177501509680003,1674,-18.2,98,P-GPS,
0.371694377810816,36.9135406280136,19300,2018-04-18 06:19:01,1714.7147032708822,65.2000020864,0.0,0.3760750120344,1714.7147032708822,65.2000020864,0.7199994039200001,0.47177501509680003,1678,-18.2,98,P-GPS,
0.371694436788173,36.9135406290851,19400,2018-04-18 06:19:01,1715.2147032868822,65.7000021024,0.0,0.371307011881824,1715.2147032868822,65.7000021024,0.7199994039200001,0.47177501509680003,1678,-18.2,98,P-GPS,
0.371694497051185,36.913540632158,19500,2018-04-18 06:19:01,1715.7147033028823,66.20000211840001,0.0,0.366643011732576,1715.7147033028823,66.20000211840001,0.7199994039200001,0.47177501509680003,1672,-18.2,98,P-GPS,
0.371694545419229,36.9135406420867,19600,2018-04-18 06:19:01,1716.2147033188821,66.70000213440001,0.0,0.363524011632768,1716.2147033188821,66.70000213440001,0.7199994039200001,0.47177501509680003,1637,-18.2,98,P-GPS,
0.371694598009014,36.9135406502464,19700,2018-04-18 06:19:01,1716.7147033348822,67.20000215040001,0.0,0.35999001151968,1716.7147033348822,67.20000215040001,0.7199994039200001,0.47177501509680003,1587,-18.2,98,P-GPS,
0.371694654869393,36.9135406575793,19800,2018-04-18 06:19:01,1717.2147033508822,67.7000021664,0.0,0.356122011395904,1717.2147033508822,67.7000021664,0.7199994039200001,0.47177501509680003,1527,-18.2,98,P-GPS,
0.371694693114214,36.9135406490842,19900,2018-04-18 06:19:01,1717.7147033668823,68.2000021824,0.0,0.352483011279456,1717.7147033668823,68.2000021824,0.7199994039200001,0.47177501509680003,1527,-18.2,98,P-GPS,
0.371694729709015,36.9135406397064,20000,2018-04-18 06:19:01,1718.2147033828821,68.7000021984,0.0,0.348917011165344,1718.2147033828821,68.7000021984,0.7199994039200001,0.47177501509680003,1484,-18.2,98,P-GPS,
0.371694773835369,36.9135406298923,20100,2018-04-18 06:19:01,1718.6147033956822,69.1000022112,0.0,0.344756011032192,1718.6147033956822,69.1000022112,0.7199994039200001,0.47177501509680003,1471,-18.2,98,P-GPS,
0.37169487961217,36.913540628902,20300,2018-04-18 06:19:02,1719.3147034180822,69.80000223360001,0.0,0.33674901077596797,1719.3147034180822,69.80000223360001,0.7199994039200001,0.47177501509680003,1471,-18.2,98,P-GPS,
0.371694929448256,36.9135406281568,20400,2018-04-18 06:19:02,1719.5147034244824,70.00000224,0.0,0.33303001065696,1719.5147034244824,70.00000224,0.7199994039200001,0.47177501509680003,1466,-18.2,98,P-GPS,
0.371694966485586,36.9135406177809,20500,2018-04-18 06:19:02,1719.814703434082,70.30000224960001,0.0,0.32946901054300803,1719.814703434082,70.30000224960001,0.7199994039200001,0.47177501509680003,1457,-18.2,98,P-GPS,
0.37169500250351,36.9135406013555,20600,2018-04-18 06:19:02,1720.1147034436822,70.60000225920001,0.0,0.325483010415456,1720.1147034436822,70.60000225920001,0.7199994039200001,0.47177501509680003,1463,-18.2,98,P-GPS,
0.371695017698114,36.9135405760043,20700,2018-04-18 06:19:02,1720.4147034532823,70.90000226880001,0.0,0.32224001031168,1720.4147034532823,70.90000226880001,0.7199994039200001,0.47177501509680003,1500,-18.2,98,P-GPS,
0.371695138746056,36.9135405057725,20900,2018-04-18 06:19:02,1721.0147034724823,71.500002288,0.35999970196000003,0.307622009843904,1721.0147034724823,71.500002288,0.7199994039200001,0.47177501509680003,1486,-18.2,98,P-GPS,
0.371695272905008,36.9135404554833,21000,2018-04-18 06:19:02,1721.3147034820822,71.8000022976,0.0,0.29395200940646404,1721.3147034820822,71.8000022976,0.7199994039200001,0.47177501509680003,1486,-18.2,98,P-GPS,
0.371695450771396,36.9135404037004,21100,2018-04-18 06:19:02,1721.6147034916821,72.1000023072,0.0,0.27755300888169604,1721.6147034916821,72.1000023072,0.7199994039200001,0.47177501509680003,1473,-18.2,98,P-GPS,
0.371695649779466,36.9135403476369,21200,2018-04-18 06:19:02,1721.9147035012822,72.4000023168,0.0,0.26009100832291204,1721.9147035012822,72.4000023168,0.7199994039200001,0.47177501509680003,1452,-18.2,98,P-GPS,
0.37169586709206,36.9135402731111,21300,2018-04-18 06:19:03,1722.2147035108824,72.7000023264,0.0,0.24077700770486402,1722.2147035108824,72.7000023264,0.7199994039200001,0.47177501509680003,1451,-18.2,98,P-GPS,
0.371696108814623,36.9135401898849,21400,2018-04-18 06:19:03,1722.514703520482,73.00000233600001,0.0,0.220752007064064,1722.514703520482,73.00000233600001,0.7199994039200001,0.47177501509680003,1451,-18.2,98,P-GPS,
0.371696416300269,36.9135400833398,21500,2018-04-18 06:19:03,1722.8147035300822,73.3000023456,0.0,0.198198006342336,1722.8147035300822,73.3000023456,0.7199994039200001,0.47177501509680003,1451,-18.2,98,P-GPS,
0.371696766068666,36.9135399687404,21600,2018-04-18 06:19:03,1723.0147035364823,73.50000235200001,0.0,0.17882800572249602,1723.0147035364823,73.50000235200001,0.7199994039200001,0.47177501509680003,1450,-18.2,98,P-GPS,
0.371697163315162,36.9135398334144,21700,2018-04-18 06:19:03,1723.3147035460825,73.80000236160001,0.0,0.166014005312448,1723.3147035460825,73.80000236160001,0.7199994039200001,0.47177501509680003,1448,-18.2,98,P-GPS,
0.37169757326861,36.9135396982912,21800,2018-04-18 06:19:03,1723.6147035556821,74.1000023712,0.35999970196000003,0.16648500532752003,1723.6147035556821,74.1000023712,0.7199994039200001,0.47177501509680003,1438,-18.2,98,P-GPS,
0.371698034555295,36.9135395341776,21900,2018-04-18 06:19:03,1723.8147035620823,74.30000237760001,0.35999970196000003,0.181803005817696,1723.8147035620823,74.30000237760001,0.7199994039200001,0.47177501509680003,1437,-18.2,98,P-GPS,
0.371698495318333,36.9135393822139,22000,2018-04-18 06:19:04,1724.1147035716824,74.6000023872,0.35999970196000003,0.21118600675795202,1724.1147035716824,74.6000023872,0.7199994039200001,0.47177501509680003,1440,-18.2,98,P-GPS,
0.371699784269281,36.9135389797843,22300,2018-04-18 06:19:04,1724.9147035972824,75.4000024128,0.35999970196000003,0.328884010524288,1724.9147035972824,75.4000024128,0.7199994039200001,0.47177501509680003,1434,-18.2,98,P-GPS,
0.371700205839215,36.9135388428189,22400,2018-04-18 06:19:04,1725.114703603682,75.60000241920001,0.35999970196000003,0.37239501191664004,1725.114703603682,75.60000241920001,0.7199994039200001,0.47177501509680003,1443,-18.2,98,P-GPS,
0.371701320659915,36.9135384685776,22700,2018-04-18 06:19:04,1725.9147036292823,76.4000024448,0.35999970196000003,0.49270201576646405,1725.9147036292823,76.4000024448,0.7199994039200001,0.49270201576646405,1438,-18.2,98,P-GPS,
0.371701689346862,36.9135383414784,22800,2018-04-18 06:19:04,1726.1147036356822,76.6000024512,0.35999970196000003,0.5335750170744,1726.1147036356822,76.6000024512,0.7199994039200001,0.5335750170744,1427,-18.2,98,P-GPS,
0.371702048415303,36.9135381949181,22900,2018-04-18 06:19:04,1726.4147036452823,76.9000024608,0.35999970196000003,0.573813018362016,1726.4147036452823,76.9000024608,0.7199994039200001,0.573813018362016,1435,-18.2,98,P-GPS,
0.371702383799044,36.9135380586792,23000,2018-04-18 06:19:04,1726.6147036516822,77.1000024672,0.35999970196000003,0.6117480195759359,1726.6147036516822,77.1000024672,0.7199994039200001,0.6117480195759359,1423,-18.2,98,P-GPS,
0.371702715855059,36.9135379220973,23100,2018-04-18 06:19:04,1726.9147036612821,77.4000024768,0.35999970196000003,0.649597020787104,1726.9147036612821,77.4000024768,0.7199994039200001,0.649597020787104,1406,-18.2,98,P-GPS,
0.3717030211535,36.9135378082977,23200,2018-04-18 06:19:04,1727.1147036676823,77.6000024832,0.35999970196000003,0.684484021903488,1727.1147036676823,77.6000024832,0.7199994039200001,0.684484021903488,1377,-18.2,98,P-GPS,
0.371703349143698,36.9135376834773,23300,2018-04-18 06:19:05,1727.4147036772822,77.9000024928,0.35999970196000003,0.7221420231085441,1727.4147036772822,77.9000024928,0.7199994039200001,0.7221420231085441,1360,-18.2,98,P-GPS,
0.371703654020983,36.9135375773909,23400,2018-04-18 06:19:05,1727.6147036836824,78.1000024992,0.35999970196000003,0.757142024228544,1727.6147036836824,78.1000024992,0.7199994039200001,0.757142024228544,1297,-18.2,98,P-GPS,
0.371703978094366,36.9135374782081,23500,2018-04-18 06:19:05,1727.814703690082,78.3000025056,0.35999970196000003,0.7942440254158081,1727.814703690082,78.3000025056,0.7199994039200001,0.7942440254158081,1228,-18.2,98,P-GPS,
0.371704269130285,36.9135373929371,23600,2018-04-18 06:19:05,1728.1147036996822,78.6000025152,0.35999970196000003,0.827554026481728,1728.1147036996822,78.6000025152,0.7199994039200001,0.827554026481728,1202,-18.2,98,P-GPS,
0.371704591247906,36.9135372664628,23700,2018-04-18 06:19:05,1728.2147037028822,78.70000251840001,0.35999970196000003,0.864956027678592,1728.2147037028822,78.70000251840001,0.7199994039200001,0.864956027678592,1190,-18.2,98,P-GPS,
0.371705194779785,36.9135370395278,23900,2018-04-18 06:19:05,1728.5147037124823,79.000002528,0.0,0.935093029922976,1728.5147037124823,79.000002528,0.7199994039200001,0.935093029922976,1188,-18.2,98,P-GPS,
0.371705448979079,36.9135369533074,24000,2018-04-18 06:19:05,1728.614703715682,79.1000025312,0.0,0.964533030865056,1728.614703715682,79.1000025312,0.7199994039200001,0.964533030865056,1188,-18.2,98,P-GPS,
0.371705658076173,36.9135368848684,24100,2018-04-18 06:19:05,1728.614703715682,79.1000025312,0.0,0.9887220316391041,1728.614703715682,79.1000025312,0.7199994039200001,0.9887220316391041,1172,-18.2,98,P-GPS,
0.3717058120826,36.913536841772,24200,2018-04-18 06:19:06,1728.7147037188824,79.20000253440001,0.0,1.00641003220512,1728.7147037188824,79.20000253440001,0.7199994039200001,1.00641003220512,1167,-18.2,98,P-GPS,
0.371705968473883,36.9135368087716,24300,2018-04-18 06:19:06,1728.8147037220822,79.30000253760001,0.35999970196000003,1.02417003277344,1728.8147037220822,79.30000253760001,0.7199994039200001,1.02417003277344,1141,-18.2,98,P-GPS,
0.371706114324249,36.9135367802409,24400,2018-04-18 06:19:06,1728.8147037220822,79.30000253760001,0.35999970196000003,1.04069003330208,1728.8147037220822,79.30000253760001,0.7199994039200001,1.04069003330208,1126,-18.2,98,P-GPS,
0.371706288735893,36.913536719176,24500,2018-04-18 06:19:06,1728.9147037252822,79.4000025408,0.35999970196000003,1.06096003395072,1728.9147037252822,79.4000025408,0.7199994039200001,1.06096003395072,1104,-18.2,98,P-GPS,
0.371706460596173,36.9135366536246,24600,2018-04-18 06:19:06,1729.0147037284821,79.500002544,0.35999970196000003,1.0810500345936,1729.0147037284821,79.500002544,0.7199994039200001,1.0810500345936,1096,-18.2,98,P-GPS,
0.371706630461609,36.9135365746217,24700,2018-04-18 06:19:06,1729.0147037284821,79.500002544,0.35999970196000003,1.1012100352387202,1729.0147037284821,79.500002544,0.7199994039200001,1.1012100352387202,1072,-18.2,98,P-GPS,
0.371706785850178,36.9135365069189,24800,2018-04-18 06:19:06,1729.0147037284821,79.500002544,0.35999970196000003,1.1195700358262402,1729.0147037284821,79.500002544,0.7199994039200001,1.1195700358262402,1055,-18.2,98,P-GPS,
0.371706987344882,36.9135364019723,24900,2018-04-18 06:19:06,1729.0147037284821,79.500002544,0.35999970196000003,1.14377003660064,1729.0147037284821,79.500002544,0.7199994039200001,1.14377003660064,1055,-18.2,98,P-GPS,
0.371707209458129,36.9135362896534,25000,2018-04-18 06:19:06,1729.0147037284821,79.500002544,0.35999970196000003,1.1704300374537602,1729.0147037284821,79.500002544,0.7199994039200001,1.1704300374537602,1058,-18.2,98,P-GPS,
0.371707478008085,36.91353616543,25100,2018-04-18 06:19:06,1729.0147037284821,79.500002544,0.35999970196000003,1.20246003847872,1729.0147037284821,79.500002544,0.7199994039200001,1.20246003847872,1058,-18.2,98,P-GPS,
0.371707749459115,36.9135360505487,25200,2018-04-18 06:19:06,1729.0147037284821,79.500002544,0.35999970196000003,1.2346300395081602,1729.0147037284821,79.500002544,0.7199994039200001,1.2346300395081602,1069,-18.2,98,P-GPS,
0.371708085854933,36.9135359205912,25300,2018-04-18 06:19:06,1729.0147037284821,79.500002544,0.35999970196000003,1.27424004077568,1729.0147037284821,79.500002544,0.7199994039200001,1.27424004077568,1069,-18.2,98,P-GPS,
0.371708427186566,36.9135357924476,25400,2018-04-18 06:19:07,1729.0147037284821,79.500002544,0.0,1.3143800420601601,1729.0147037284821,79.500002544,0.7199994039200001,1.3143800420601601,1054,-18.2,98,P-GPS,
0.371708811719189,36.9135356357259,25500,2018-04-18 06:19:07,1729.0147037284821,79.500002544,0.0,1.3599300435177601,1729.0147037284821,79.500002544,0.7199994039200001,1.3599300435177601,1054,-18.2,98,P-GPS,
0.371709183603688,36.9135354795284,25600,2018-04-18 06:19:07,1729.0147037284821,79.500002544,0.0,1.4041400449324801,1729.0147037284821,79.500002544,0.7199994039200001,1.4041400449324801,1024,-18.2,98,P-GPS,
0.371709594214213,36.9135353011245,25700,2018-04-18 06:19:07,1729.0147037284821,79.500002544,0.0,1.45316004650112,1729.0147037284821,79.500002544,0.7199994039200001,1.45316004650112,1024,-18.2,98,P-GPS,
0.371709989554005,36.9135351347479,25800,2018-04-18 06:19:07,1729.0147037284821,79.500002544,0.0,1.5002600480083201,1729.0147037284821,79.500002544,0.7199994039200001,1.5002600480083201,1024,-18.2,98,P-GPS,
0.371710422432688,36.9135349337094,25900,2018-04-18 06:19:07,1729.0147037284821,79.500002544,0.0,1.5523800496761602,1729.0147037284821,79.500002544,0.7199994039200001,1.5523800496761602,1025,-18.2,98,P-GPS,
0.371710834953378,36.9135347451663,26000,2018-04-18 06:19:07,1729.0147037284821,79.500002544,0.0,1.60203005126496,1729.0147037284821,79.500002544,0.7199994039200001,1.60203005126496,1060,-18.2,98,P-GPS,
0.371711266529306,36.913534528818,26100,2018-04-18 06:19:07,1729.0147037284821,79.500002544,0.0,1.6545700529462402,1729.0147037284821,79.500002544,0.7199994039200001,1.6545700529462402,1060,-18.2,98,P-GPS,
0.371711668872221,36.9135343320154,26200,2018-04-18 06:19:07,1729.0147037284821,79.500002544,0.0,1.70347005451104,1729.0147037284821,79.500002544,0.7199994039200001,1.70347005451104,1138,-18.2,98,P-GPS,
0.371712110306748,36.9135340845913,26300,2018-04-18 06:19:08,1729.0147037284821,79.500002544,0.0,1.7581200562598402,1729.0147037284821,79.500002544,0.7199994039200001,1.7581200562598402,1178,-18.2,98,P-GPS,
0.371712523204423,36.9135338592349,26400,2018-04-18 06:19:08,1729.0147037284821,79.500002544,0.0,1.8091500578928001,1729.0147037284821,79.500002544,0.7199994039200001,1.8091500578928001,1197,-18.2,98,P-GPS,
0.371712931622249,36.913533614589,26500,2018-04-18 06:19:08,1729.0147037284821,79.500002544,0.0,1.8603700595318402,1729.0147037284821,79.500002544,0.7199994039200001,1.8603700595318402,1219,-18.2,98,P-GPS,
0.371713285268175,36.9135334049371,26600,2018-04-18 06:19:08,1729.0147037284821,79.500002544,0.0,1.90474006095168,1729.0147037284821,79.500002544,0.7199994039200001,1.90474006095168,1238,-18.2,98,P-GPS,
0.371713612118869,36.9135331841599,26700,2018-04-18 06:19:08,1729.1147037316823,79.60000254719999,0.0,1.9466800622937601,1729.1147037316823,79.60000254719999,0.7199994039200001,1.9466800622937601,1219,-18.2,98,P-GPS,
0.371713890882426,36.9135329977428,26800,2018-04-18 06:19:08,1729.1147037316823,79.60000254719999,0.0,1.9824500634384001,1729.1147037316823,79.60000254719999,0.7199994039200001,1.9824500634384001,1210,-18.2,98,P-GPS,
0.371714190408644,36.9135327558891,26900,2018-04-18 06:19:08,1729.2147037348823,79.70000255040001,0.0,2.02238006471616,1729.2147037348823,79.70000255040001,0.7199994039200001,2.02238006471616,1210,-18.2,98,P-GPS,
0.371714455810818,36.9135325427965,27000,2018-04-18 06:19:08,1729.3147037380822,79.80000255360001,0.0,2.0578000658496003,1729.3147037380822,79.80000255360001,0.7199994039200001,2.0578000658496003,1201,-18.2,98,P-GPS,
0.371714714472863,36.9135323492911,27100,2018-04-18 06:19:08,1729.3147037380822,79.80000255360001,0.0,2.09191006694112,1729.3147037380822,79.80000255360001,0.7199994039200001,2.09191006694112,1188,-18.2,98,P-GPS,
0.371714912978558,36.9135322160475,27200,2018-04-18 06:19:08,1729.4147037412824,79.9000025568,0.0,2.1175800677625602,1729.4147037412824,79.9000025568,0.7199994039200001,2.1175800677625602,1193,-18.2,98,P-GPS,
0.371715080328862,36.9135320991944,27300,2018-04-18 06:19:09,1729.5147037444824,80.00000256,0.0,2.13939006846048,1729.5147037444824,80.00000256,0.7199994039200001,2.13939006846048,1198,-18.2,98,P-GPS,
0.37171519515859,36.9135320153336,27400,2018-04-18 06:19:09,1729.5147037444824,80.00000256,0.0,2.15451006894432,1729.5147037444824,80.00000256,0.7199994039200001,2.15451006894432,1199,-18.2,98,P-GPS,
0.371715278678226,36.9135319378248,27500,2018-04-18 06:19:09,1729.6147037476821,80.1000025632,0.0,2.16612006931584,1729.6147037476821,80.1000025632,0.7199994039200001,2.16612006931584,1197,-18.2,98,P-GPS,
0.371715298463821,36.9135318948846,27600,2018-04-18 06:19:09,1729.714703750882,80.20000256640002,0.0,2.16977006943264,1729.714703750882,80.20000256640002,0.7199994039200001,2.16977006943264,1169,-18.2,98,P-GPS,
0.371715318252672,36.9135318194132,27700,2018-04-18 06:19:09,1729.714703750882,80.20000256640002,0.0,2.17464006958848,1729.714703750882,80.20000256640002,0.7199994039200001,2.17464006958848,1024,-18.2,98,P-GPS,
0.371715292440206,36.9135317638756,27800,2018-04-18 06:19:09,1729.8147037540823,80.30000256960001,0.35999970196000003,2.1740200695686402,1729.8147037540823,80.30000256960001,0.7199994039200001,2.17464006958848,1024,-18.2,98,P-GPS,
0.371715292964565,36.9135317099164,27900,2018-04-18 06:19:09,1729.9147037572823,80.4000025728,0.35999970196000003,2.17611006963552,1729.9147037572823,80.4000025728,0.7199994039200001,2.17611006963552,1024,-18.2,98,P-GPS,
0.371715261906881,36.9135316937811,28000,2018-04-18 06:19:09,1729.9147037572823,80.4000025728,0.35999970196000003,2.17347006955104,1729.9147037572823,80.4000025728,0.7199994039200001,2.17611006963552,1024,-18.2,98,P-GPS,
0.371715270565318,36.9135316511148,28100,2018-04-18 06:19:09,1729.9147037572823,80.4000025728,0.35999970196000003,2.1760000696320003,1729.9147037572823,80.4000025728,0.7199994039200001,2.17611006963552,1024,-18.2,98,P-GPS,
0.371715220583486,36.9135316332836,28200,2018-04-18 06:19:10,1729.9147037572823,80.4000025728,0.35999970196000003,2.17146006948672,1729.9147037572823,80.4000025728,0.7199994039200001,2.17611006963552,1024,-18.2,98,P-GPS,
0.371715172813082,36.9135316141773,28300,2018-04-18 06:19:10,1729.9147037572823,80.4000025728,0.35999970196000003,2.16721006935072,1729.9147037572823,80.4000025728,0.7199994039200001,2.17611006963552,1024,-18.2,98,P-GPS,
0.371715066915369,36.9135316340898,28400,2018-04-18 06:19:10,1729.9147037572823,80.4000025728,0.7919993443119999,2.1554000689728,1729.9147037572823,80.4000025728,0.7919993443119999,2.17611006963552,1024,-18.2,98,P-GPS,
0.371714990443639,36.91353161966,28500,2018-04-18 06:19:10,1729.9147037572823,80.4000025728,0.7919993443119999,2.14798006873536,1729.9147037572823,80.4000025728,0.7919993443119999,2.17611006963552,1024,-18.2,98,P-GPS,
0.371714885586501,36.913531622116,28600,2018-04-18 06:19:10,1729.9147037572823,80.4000025728,0.7919993443119999,2.13697006838304,1729.9147037572823,80.4000025728,0.7919993443119999,2.17611006963552,1024,-18.2,98,P-GPS,
0.371714811448331,36.9135316277753,28700,2018-04-18 06:19:10,1729.9147037572823,80.4000025728,0.7919993443119999,2.1290300681289605,1729.9147037572823,80.4000025728,0.7919993443119999,2.17611006963552,1024,-18.2,98,P-GPS,
0.371714704739653,36.9135316668143,28800,2018-04-18 06:19:10,1729.9147037572823,80.4000025728,0.7919993443119999,2.1163900677244802,1729.9147037572823,80.4000025728,0.7919993443119999,2.17611006963552,1024,-18.2,98,P-GPS,
0.371714611343505,36.9135317004505,28900,2018-04-18 06:19:10,1729.9147037572823,80.4000025728,0.7919993443119999,2.1053500673712002,1729.9147037572823,80.4000025728,0.7919993443119999,2.17611006963552,1024,-18.2,98,P-GPS,
0.371714492745557,36.9135317477194,29000,2018-04-18 06:19:10,1729.9147037572823,80.4000025728,0.7919993443119999,2.09116006691712,1729.9147037572823,80.4000025728,0.7919993443119999,2.17611006963552,1024,-18.2,98,P-GPS,
0.371714365391465,36.9135317862398,29100,2018-04-18 06:19:10,1729.9147037572823,80.4000025728,0.7919993443119999,2.07639006644448,1729.9147037572823,80.4000025728,0.7919993443119999,2.17611006963552,1024,-18.2,98,P-GPS,
0.371714225737737,36.9135318301167,29200,2018-04-18 06:19:11,1729.9147037572823,80.4000025728,0.7919993443119999,2.06014006592448,1729.9147037572823,80.4000025728,0.7919993443119999,2.17611006963552,1024,-18.2,98,P-GPS,
0.371713922848782,36.9135319020262,29400,2018-04-18 06:19:11,1729.9147037572823,80.4000025728,0.7919993443119999,2.02581006482592,1729.9147037572823,80.4000025728,0.7919993443119999,2.17611006963552,1024,-18.2,98,P-GPS,
0.371713723072901,36.913531959822,29500,2018-04-18 06:19:11,1729.9147037572823,80.4000025728,0.7919993443119999,2.0027600640883203,1729.9147037572823,80.4000025728,0.7919993443119999,2.17611006963552,1024,-18.2,98,P-GPS,
0.371713537212074,36.9135320234668,29600,2018-04-18 06:19:11,1729.9147037572823,80.4000025728,0.7919993443119999,1.98092006338944,1729.9147037572823,80.4000025728,0.7919993443119999,2.17611006963552,1024,-18.2,98,P-GPS,
0.371713210506311,36.9135321336644,29800,2018-04-18 06:19:11,1729.9147037572823,80.4000025728,0.7919993443119999,1.94261006216352,1729.9147037572823,80.4000025728,0.7919993443119999,2.17611006963552,1024,-18.2,98,P-GPS,
0.371713006712244,36.9135322090683,29900,2018-04-18 06:19:11,1729.9147037572823,80.4000025728,0.7919993443119999,1.91844006139008,1729.9147037572823,80.4000025728,0.7919993443119999,2.17611006963552,1024,-18.2,98,P-GPS,
0.371712822532785,36.9135322831817,30000,2018-04-18 06:19:11,1729.9147037572823,80.4000025728,0.7919993443119999,1.8963700606838403,1729.9147037572823,80.4000025728,0.7919993443119999,2.17611006963552,1024,-18.2,98,P-GPS,
0.371712604393756,36.913532355627,30100,2018-04-18 06:19:11,1729.9147037572823,80.4000025728,0.35999970196000003,1.87083005986656,1729.9147037572823,80.4000025728,0.7919993443119999,2.17611006963552,1024,-18.2,98,P-GPS,
0.371712424533745,36.9135324146961,30200,2018-04-18 06:19:12,1729.9147037572823,80.4000025728,0.35999970196000003,1.84981005919392,1729.9147037572823,80.4000025728,0.7919993443119999,2.17611006963552,1024,-18.2,98,P-GPS,
0.371712214677795,36.9135324965465,30300,2018-04-18 06:19:12,1729.9147037572823,80.4000025728,0.35999970196000003,1.82476005839232,1729.9147037572823,80.4000025728,0.7919993443119999,2.17611006963552,1024,-18.2,98,P-GPS,
0.371712038766761,36.9135325730618,30400,2018-04-18 06:19:12,1729.9147037572823,80.4000025728,0.35999970196000003,1.8034500577104,1729.9147037572823,80.4000025728,0.7919993443119999,2.17611006963552,1024,-18.2,98,P-GPS,
0.371711820997388,36.9135326507385,30500,2018-04-18 06:19:12,1729.9147037572823,80.4000025728,0.35999970196000003,1.7777400568876802,1729.9147037572823,80.4000025728,0.7919993443119999,2.17611006963552,1024,-18.2,98,P-GPS,
0.371711642229249,36.913532709788,30600,2018-04-18 06:19:12,1729.9147037572823,80.4000025728,0.35999970196000003,1.7568300562185601,1729.9147037572823,80.4000025728,0.7919993443119999,2.17611006963552,1024,-18.2,97,P-GPS,
0.371711399179911,36.9135327921689,30700,2018-04-18 06:19:12,1729.9147037572823,80.4000025728,0.35999970196000003,1.7283100553059203,1729.9147037572823,80.4000025728,0.7919993443119999,2.17611006963552,1024,-18.2,97,P-GPS,
0.371711189703389,36.9135328687203,30800,2018-04-18 06:19:12,1729.9147037572823,80.4000025728,0.35999970196000003,1.70351005451232,1729.9147037572823,80.4000025728,0.7919993443119999,2.17611006963552,1024,-18.2,97,P-GPS,
0.371710971815139,36.9135329477278,30900,2018-04-18 06:19:12,1729.9147037572823,80.4000025728,0.35999970196000003,1.6777400536876799,1729.9147037572823,80.4000025728,0.7919993443119999,2.17611006963552,1024,-18.2,97,P-GPS,
