latitude,longitude,time_millisecond,datetime_utc,altitude_m,ascent_m,speed_kph,distance_m,max_altitude_m,max_ascent_m,max_speed_kph,max_distance_m,rc_throttle,gimbal_pitch_degrees,battery_percent,flycState,message
0.352651647486192,36.896039406715104,0,2017-11-08 06:02:50,1769.145442312656,0.0,0.0,0.0,1769.145442312656,0.0,0.0,0.0,1024,0.0,99,GPS_Atti,
0.352651710691396,36.8960394589709,100,,1769.145442312656,0.0,0.0,0.00911989029183648,1769.145442312656,0.0,0.0,0.00911989029183648,1024,0.0,99,Motors_Started,
0.352651771735655,36.8960394997306,200,2017-11-08 06:02:50,1769.145442312656,0.0,0.0,0.0172601005523232,1769.145442312656,0.0,0.0,0.0172601005523232,1024,0.0,99,Motors_Started,
0.352651824987809,36.8960395224369,300,2017-11-08 06:02:50,1769.145442312656,0.0,0.0,0.023563600754035203,1769.145442312656,0.0,0.0,0.023563600754035203,1024,0.0,99,Motors_Started,Setting new Return-To-Home altitude to 30m (98 ft). Setting new Maximum Flight Altitude to 120m (394 ft)
0.352651893152439,36.896039547961,400,2017-11-08 06:02:50,1769.145442312656,0.0,0.0,0.0315131010084192,1769.145442312656,0.0,0.0,0.0315131010084192,1024,0.0,99,Motors_Started,
0.35265197025193395,36.896039581756504,500,2017-11-08 06:02:50,1769.145442312656,0.0,0.0,0.0408319013066208,1769.145442312656,0.0,0.0,0.0408319013066208,1024,0.0,99,Motors_Started,
0.352652048764105,36.8960396031406,600,2017-11-08 06:02:50,1769.145442312656,0.0,0.0,0.0496838015898816,1769.145442312656,0.0,0.0,0.0496838015898816,1024,0.0,99,Motors_Started,
0.35265211334493707,36.8960396140703,700,2017-11-08 06:02:50,1769.145442312656,0.0,0.0,0.0567063018146016,1769.145442312656,0.0,0.0,0.0567063018146016,1024,0.0,99,Motors_Started,
0.35265223216190994,36.896039656028,900,2017-11-08 06:02:50,1769.145442312656,0.0,0.0,0.07068370226187841,1769.145442312656,0.0,0.0,0.07068370226187841,1024,0.0,99,Motors_Started,
0.352652284564424,36.8960396735291,1000,2017-11-08 06:02:51,1769.145442312656,0.0,0.0,0.0768092024578944,1769.145442312656,0.0,0.0,0.0768092024578944,650,0.0,99,Motors_Started,
0.35265233329153906,36.896039682046705,1100,2017-11-08 06:02:51,1769.145442312656,0.0,0.0,0.08218230262983361,1769.145442312656,0.0,0.0,0.08218230262983361,1024,0.0,99,Motors_Started,
0.352652382069951,36.8960396984847,1200,2017-11-08 06:02:51,1769.145442312656,0.0,0.0,0.0878978028127296,1769.145442312656,0.0,0.0,0.0878978028127296,1024,0.0,99,Motors_Started,
0.352652428277864,36.8960397250526,1300,2017-11-08 06:02:51,1769.145442312656,0.0,0.0,0.09376790300057282,1769.145442312656,0.0,0.0,0.09376790300057282,1024,0.0,99,Motors_Started,
0.35265247429606295,36.8960397463864,1400,2017-11-08 06:02:51,1769.145442312656,0.0,0.0,0.09940270318088641,1769.145442312656,0.0,0.0,0.09940270318088641,1024,0.0,99,Motors_Started,
0.35265251604773795,36.896039755923205,1500,2017-11-08 06:02:51,1769.145442312656,0.0,0.0,0.10410300333129599,1769.145442312656,0.0,0.0,0.10410300333129599,1024,0.0,99,Motors_Started,
0.352652560796565,36.896039758881294,1600,,1769.145442312656,0.0,0.0,0.10885400348332801,1769.145442312656,0.0,0.0,0.10885400348332801,1024,0.0,99,Assisted_Takeoff,
0.35265260948134103,36.8960397590108,1700,2017-11-08 06:02:51,1769.145442312656,0.0,0.0,0.11392700364566402,1769.145442312656,0.0,0.0,0.11392700364566402,1024,0.0,99,Assisted_Takeoff,
0.35265265328241296,36.8960397673326,1800,2017-11-08 06:02:51,1769.145442312656,0.0,0.0,0.11882200380230401,1769.145442312656,0.0,0.0,0.11882200380230401,1024,0.0,99,Assisted_Takeoff,
0.35265269792132,36.8960397900196,1900,2017-11-08 06:02:51,1769.145442312656,0.0,0.0,0.124349003979168,1769.145442312656,0.0,0.0,0.124349003979168,1024,0.0,99,Assisted_Takeoff,
0.352652744470392,36.8960398107838,2000,2017-11-08 06:02:51,1769.145442312656,0.0,0.0,0.130004004160128,1769.145442312656,0.0,0.0,0.130004004160128,1024,0.0,99,Assisted_Takeoff,
0.35265278839604,36.8960398190916,2100,2017-11-08 06:02:52,1769.145442312656,0.0,0.0,0.13490900431708802,1769.145442312656,0.0,0.0,0.13490900431708802,1024,0.0,99,Assisted_Takeoff,
0.35265283351289506,36.8960398385337,2200,2017-11-08 06:02:52,1769.145442312656,0.0,0.0,0.140363004491616,1769.145442312656,0.0,0.0,0.140363004491616,1024,0.0,99,Assisted_Takeoff,
0.3526528789155421,36.896039866616505,2300,2017-11-08 06:02:52,1769.145442312656,0.0,0.0,0.146181004677792,1769.145442312656,0.0,0.0,0.146181004677792,1024,0.0,99,Assisted_Takeoff,
0.352652925755291,36.8960398935816,2400,2017-11-08 06:02:52,1769.145442312656,0.0,0.0,0.152113004867616,1769.145442312656,0.0,0.0,0.152113004867616,1024,0.0,99,Assisted_Takeoff,
0.3526529709959079,36.8960399044942,2500,2017-11-08 06:02:52,1769.145442312656,0.0,0.0,0.15724800503193598,1769.145442312656,0.0,0.0,0.15724800503193598,1024,0.0,99,Assisted_Takeoff,
0.35265301865395005,36.8960399113877,2600,2017-11-08 06:02:52,1769.145442312656,0.0,0.0,0.16248200519942405,1769.145442312656,0.0,0.0,0.16248200519942405,1061,0.0,99,Assisted_Takeoff,
0.35265306442381106,36.8960399113385,2700,,1769.145442312656,0.0,0.0,0.167266005352512,1769.145442312656,0.0,0.0,0.167266005352512,1135,0.0,99,Assisted_Takeoff,
0.35265309658883703,36.8960399238484,2800,2017-11-08 06:02:52,1769.145442312656,0.0,0.0,0.17110300547529597,1769.145442312656,0.0,0.0,0.17110300547529597,1169,0.0,99,Assisted_Takeoff,
0.35265311228866597,36.896039947183105,2900,2017-11-08 06:02:52,1769.145442312656,0.0,0.0,0.173629005556128,1769.145442312656,0.0,0.0,0.173629005556128,1240,0.0,99,Assisted_Takeoff,
0.352653128041419,36.896039970233105,3000,2017-11-08 06:02:52,1769.145442312656,0.0,0.0,0.176169005637408,1769.145442312656,0.0,0.0,0.176169005637408,1299,0.0,99,Assisted_Takeoff,
0.35265315410140796,36.8960399785591,3100,2017-11-08 06:02:53,1769.145442312656,0.0,0.0,0.17920700573462403,1769.145442312656,0.0,0.0,0.17920700573462403,1300,0.0,99,Assisted_Takeoff,
0.35265318229791603,36.8960399851283,3200,2017-11-08 06:02:53,1769.145442312656,0.0,0.0,0.182398005836736,1769.145442312656,0.0,0.0,0.182398005836736,1299,0.0,99,Assisted_Takeoff,
0.35265320766256,36.896039984439895,3300,2017-11-08 06:02:53,1769.145442312656,0.0,0.0,0.18501400592044803,1769.145442312656,0.0,0.0,0.18501400592044803,1293,0.0,99,Assisted_Takeoff,
0.35265317361016707,36.896040007672894,3400,2017-11-08 06:02:53,1769.145442312656,0.0,0.35999970196000003,0.182398005836736,1769.145442312656,0.0,0.35999970196000003,0.18501400592044803,1292,0.0,99,Assisted_Takeoff,
0.35265306567852706,36.8960400561731,3500,2017-11-08 06:02:53,1769.145442312656,0.0,0.35999970196000003,0.17346200555078398,1769.145442312656,0.0,0.35999970196000003,0.18501400592044803,1290,0.0,99,GPS_Atti,Obstacle Avoided. Revise Flight Route
0.352652895550098,36.896040124252295,3600,2017-11-08 06:02:53,1769.145442312656,0.0,0.7199994039200001,0.16009400512300803,1769.145442312656,0.0,0.7199994039200001,0.18501400592044803,1285,0.0,99,GPS_Atti,
0.35265271623642996,36.896040187244,3700,2017-11-08 06:02:53,1769.145442312656,0.0,0.35999970196000003,0.147172004709504,1769.145442312656,0.0,0.7199994039200001,0.18501400592044803,1292,0.0,99,GPS_Atti,
0.35265257551199897,36.8960402430371,3800,2017-11-08 06:02:53,1769.245442315856,0.10000000320000002,0.35999970196000003,0.13892500444560002,1769.245442315856,0.10000000320000002,0.7199994039200001,0.18501400592044803,1278,0.0,99,GPS_Atti,
0.352652506193209,36.8960402619535,3900,2017-11-08 06:02:53,1769.345442319056,0.20000000640000004,0.0,0.134774004312768,1769.345442319056,0.20000000640000004,0.7199994039200001,0.18501400592044803,1275,0.0,99,GPS_Atti,
0.352652515947589,36.8960402300839,4000,,1769.345442319056,0.20000000640000004,0.0,0.13308200425862401,1769.345442319056,0.20000000640000004,0.7199994039200001,0.18501400592044803,1282,0.0,99,GPS_Atti,
0.35265257363603203,36.8960401641855,4100,2017-11-08 06:02:54,1769.4454423222562,0.3000000096,0.0,0.133053004257696,1769.4454423222562,0.3000000096,0.7199994039200001,0.18501400592044803,1289,0.0,99,GPS_Atti,
0.352652661748694,36.8960400894836,4200,2017-11-08 06:02:54,1769.5454423254562,0.4000000128000001,0.0,0.13596700435094403,1769.5454423254562,0.4000000128000001,0.7199994039200001,0.18501400592044803,1290,0.0,99,GPS_Atti,
0.352652755419235,36.896040016194796,4300,2017-11-08 06:02:54,1769.6454423286561,0.500000016,0.0,0.14062000449984,1769.6454423286561,0.500000016,0.7199994039200001,0.18501400592044803,1300,0.0,99,GPS_Atti,
0.35265285589504397,36.896039948117796,4400,,1769.845442335056,0.7000000224000001,0.0,0.147253004712096,1769.845442335056,0.7000000224000001,0.7199994039200001,0.18501400592044803,1298,0.0,99,GPS_Atti,Home Point Recorded. RTH Altitude:  30m.
0.35265294305262296,36.8960398983714,4500,2017-11-08 06:02:54,1769.945442338256,0.8000000256000002,0.0,0.1541000049312,1769.945442338256,0.8000000256000002,0.7199994039200001,0.18501400592044803,1309,0.0,99,GPS_Atti,
0.35265306587719797,36.8960398378549,4600,2017-11-08 06:02:54,1770.045442341456,0.9000000288000001,0.0,0.16485900527548802,1770.045442341456,0.9000000288000001,0.7199994039200001,0.18501400592044803,1320,0.0,99,GPS_Atti,
0.352653193495097,36.8960397715668,4700,2017-11-08 06:02:54,1770.2454423478562,1.1000000352,0.0,0.17664800565273597,1770.2454423478562,1.1000000352,0.7199994039200001,0.18501400592044803,1334,0.0,99,GPS_Atti,
0.352653302803586,36.89603973435071,4800,2017-11-08 06:02:54,1770.3454423510561,1.2000000384,0.0,0.187652006004864,1770.3454423510561,1.2000000384,0.7199994039200001,0.187652006004864,1342,0.0,99,GPS_Atti,
0.35265336947696796,36.8960397030079,4900,2017-11-08 06:02:54,1770.5454423574563,1.4000000448000003,0.0,0.19431000621792,1770.5454423574563,1.4000000448000003,0.7199994039200001,0.19431000621792,1342,0.0,99,GPS_Atti,
0.35265339388083006,36.8960396586799,5000,2017-11-08 06:02:55,1770.645442360656,1.5000000480000002,0.0,0.196221006279072,1770.645442360656,1.5000000480000002,0.7199994039200001,0.196221006279072,1349,0.0,99,GPS_Atti,
0.352653307215041,36.896039484629796,5200,2017-11-08 06:02:55,1771.0454423734561,1.9000000607999998,0.5075995797636,0.18477500591280002,1771.0454423734561,1.9000000607999998,0.7199994039200001,0.196221006279072,1348,0.0,99,GPS_Atti,
0.3526532373197821,36.8960393827476,5300,2017-11-08 06:02:55,1771.145442376656,2.000000064,0.5075995797636,0.17681900565820802,1771.145442376656,2.000000064,0.7199994039200001,0.196221006279072,1351,0.0,99,GPS_Atti,
0.35265316819396203,36.896039281203706,5400,2017-11-08 06:02:55,1771.3454423830563,2.2000000704,0.5075995797636,0.16968700542998402,1771.3454423830563,2.2000000704,0.7199994039200001,0.196221006279072,1348,0.0,99,GPS_Atti,
0.35265312668004,36.8960391771225,5500,2017-11-08 06:02:55,1771.545442389456,2.4000000768,0.5075995797636,0.16646500532688,1771.545442389456,2.4000000768,0.7199994039200001,0.196221006279072,1352,0.0,99,GPS_Atti,
0.35265311121877796,36.8960391084801,5600,,1771.7454423958561,2.6000000832000003,0.0,0.16612000531584,1771.7454423958561,2.6000000832000003,0.7199994039200001,0.196221006279072,1352,0.0,99,GPS_Atti,
0.352653139749931,36.896039044697204,5700,2017-11-08 06:02:55,1771.845442399056,2.7000000863999998,0.0,0.17076200546438403,1771.845442399056,2.7000000863999998,0.7199994039200001,0.196221006279072,1354,0.0,99,GPS_Atti,
0.35265321107822095,36.896038987439496,5800,2017-11-08 06:02:55,1772.045442405456,2.9000000928,0.0,0.18002400576076802,1772.045442405456,2.9000000928,0.7199994039200001,0.196221006279072,1356,0.0,99,GPS_Atti,
0.35265330177848,36.8960389224062,5900,2017-11-08 06:02:55,1772.2454424118562,3.1000000992,0.0,0.191689006134048,1772.2454424118562,3.1000000992,0.7199994039200001,0.196221006279072,1356,0.0,99,GPS_Atti,
0.352653393002285,36.8960388825297,6000,2017-11-08 06:02:55,1772.4454424182563,3.3000001056,0.0,0.202676006485632,1772.4454424182563,3.3000001056,0.7199994039200001,0.202676006485632,1359,0.0,99,GPS_Atti,
0.35265345609878995,36.896038859408,6100,2017-11-08 06:02:56,1772.645442424656,3.500000112,0.0,0.210136006724352,1772.645442424656,3.500000112,0.7199994039200001,0.210136006724352,1353,0.0,99,GPS_Atti,
0.352653464874475,36.8960388399831,6200,2017-11-08 06:02:56,1772.745442427856,3.6000001152000003,0.0,0.21170300677449602,1772.745442427856,3.6000001152000003,0.7199994039200001,0.21170300677449602,1366,0.0,99,GPS_Atti,
0.35265341596253097,36.8960388067293,6300,2017-11-08 06:02:56,1772.9454424342562,3.8000001215999997,0.0,0.20767500664560004,1772.9454424342562,3.8000001215999997,0.7199994039200001,0.21170300677449602,1373,0.0,99,GPS_Atti,
0.352653360698841,36.8960388119244,6400,2017-11-08 06:02:56,1773.145442440656,4.000000128,0.0,0.2016750064536,1773.145442440656,4.000000128,0.7199994039200001,0.21170300677449602,1399,0.0,99,GPS_Atti,
0.352653321291311,36.8960388474478,6500,2017-11-08 06:02:56,1773.345442447056,4.2000001344,0.0,0.196253006280096,1773.345442447056,4.2000001344,0.7199994039200001,0.21170300677449602,1405,0.0,99,GPS_Atti,
0.352653285704924,36.89603889841621,6600,2017-11-08 06:02:56,1773.545442453456,4.4000001408,0.0,0.19074700610390402,1773.545442453456,4.4000001408,0.7199994039200001,0.21170300677449602,1420,0.0,99,GPS_Atti,
0.352653253286675,36.896038889162,6700,2017-11-08 06:02:56,1773.7454424598561,4.6000001472,0.0,0.18762000600384002,1773.7454424598561,4.6000001472,0.7199994039200001,0.21170300677449602,1430,0.0,99,GPS_Atti,
0.352653225758644,36.8960388672244,6800,2017-11-08 06:02:56,1773.945442466256,4.8000001536,0.0,0.185484005935488,1773.945442466256,4.8000001536,0.7199994039200001,0.21170300677449602,1443,0.0,99,GPS_Atti,
0.35265321545385,36.896038825885,6900,2017-11-08 06:02:56,1774.1454424726562,5.00000016,0.0,0.185946005950272,1774.1454424726562,5.00000016,0.7199994039200001,0.21170300677449602,1448,0.0,99,GPS_Atti,
0.35265324876529996,36.896038775662205,7000,2017-11-08 06:02:57,1774.345442479056,5.200000166400001,0.0,0.19140100612483196,1774.345442479056,5.200000166400001,0.7199994039200001,0.21170300677449602,1451,0.0,99,GPS_Atti,
0.35265328351466707,36.896038718815106,7100,2017-11-08 06:02:57,1774.645442488656,5.500000176000001,0.0,0.19736400631564802,1774.645442488656,5.500000176000001,0.7199994039200001,0.21170300677449602,1457,0.0,99,GPS_Atti,
0.35265332184661,36.896038694072104,7200,,1774.8454424950562,5.7000001824,0.0,0.20236200647558403,1774.8454424950562,5.7000001824,0.7199994039200001,0.21170300677449602,1467,0.0,99,GPS_Atti,
0.352653354512382,36.8960386938044,7300,2017-11-08 06:02:57,1775.145442504656,6.000000192000001,0.0,0.20572100658307202,1775.145442504656,6.000000192000001,0.7199994039200001,0.21170300677449602,1477,0.0,99,GPS_Atti,
0.352653393192813,36.8960387278221,7400,2017-11-08 06:02:57,1775.445442514256,6.300000201600001,0.0,0.208296006665472,1775.445442514256,6.300000201600001,0.7199994039200001,0.21170300677449602,1478,0.0,99,GPS_Atti,
0.3526534247602,36.8960387668726,7500,2017-11-08 06:02:57,1775.6454425206562,6.500000208,0.0,0.21006100672195202,1775.6454425206562,6.500000208,0.7199994039200001,0.21170300677449602,1480,0.0,99,GPS_Atti,
0.352653455888721,36.8960388167613,7600,2017-11-08 06:02:57,1775.9454425302563,6.800000217600001,0.0,0.211536006769152,1775.9454425302563,6.800000217600001,0.7199994039200001,0.21170300677449602,1512,0.0,99,GPS_Atti,
0.3526534470251,36.8960388398552,7700,2017-11-08 06:02:57,1776.245442539856,7.100000227200002,0.35999970196000003,0.20981300671401598,1776.245442539856,7.100000227200002,0.7199994039200001,0.21170300677449602,1517,0.0,99,GPS_Atti,
0.352653435608079,36.8960388865947,7800,2017-11-08 06:02:57,1776.545442549456,7.4000002368,0.35999970196000003,0.207091006626912,1776.545442549456,7.4000002368,0.7199994039200001,0.21170300677449602,1529,0.0,99,GPS_Atti,
0.352653427122258,36.896038905085,7900,2017-11-08 06:02:57,1776.845442559056,7.7000002464,0.0,0.20561800657977602,1776.845442559056,7.7000002464,0.7199994039200001,0.21170300677449602,1532,0.0,99,GPS_Atti,
0.3526534600233401,36.8960389315748,8000,2017-11-08 06:02:58,1777.145442568656,8.000000256,0.0,0.208375006668,1777.145442568656,8.000000256,0.7199994039200001,0.21170300677449602,1535,0.0,99,GPS_Atti,
0.35265350639979703,36.8960389529257,8100,2017-11-08 06:02:58,1777.4454425782562,8.3000002656,0.0,0.21279300680937602,1777.4454425782562,8.3000002656,0.7199994039200001,0.21279300680937602,1548,0.0,99,GPS_Atti,
0.35265359304034494,36.8960389699674,8200,2017-11-08 06:02:58,1777.745442587856,8.6000002752,0.0,0.22174200709574404,1777.745442587856,8.6000002752,0.7199994039200001,0.22174200709574404,1559,0.0,99,GPS_Atti,
0.35265368739727604,36.8960389600879,8300,2017-11-08 06:02:58,1778.145442600656,9.000000287999999,0.0,0.232224007431168,1778.145442600656,9.000000287999999,0.7199994039200001,0.232224007431168,1581,0.0,99,GPS_Atti,
0.35265380269355295,36.896038962258004,8400,2017-11-08 06:02:58,1778.4454426102561,9.3000002976,0.0,0.24471500783088004,1778.4454426102561,9.3000002976,0.7199994039200001,0.24471500783088004,1608,0.0,99,GPS_Atti,
0.35265390973769106,36.896038969599104,8500,,1778.845442623056,9.7000003104,0.0,0.256229008199328,1778.845442623056,9.7000003104,0.7199994039200001,0.256229008199328,1626,0.0,99,GPS_Atti,
0.352654039965986,36.8960389951136,8600,2017-11-08 06:02:58,1779.145442632656,10.00000032,0.0,0.26996700863894396,1779.145442632656,10.00000032,0.7199994039200001,0.26996700863894396,1647,0.0,99,GPS_Atti,
0.352654153576824,36.8960390113813,8700,2017-11-08 06:02:58,1779.545442645456,10.400000332800001,0.0,0.282139009028448,1779.545442645456,10.400000332800001,0.7199994039200001,0.282139009028448,1671,0.0,99,GPS_Atti,
0.35265427898655294,36.896039048006394,8800,2017-11-08 06:02:58,1779.945442658256,10.800000345599999,0.0,0.29534500945104003,1779.945442658256,10.800000345599999,0.7199994039200001,0.29534500945104003,1684,0.0,99,GPS_Atti,
0.35265439089485295,36.896039094089105,8900,,1780.3454426710562,11.200000358400002,0.0,0.307058009825856,1780.3454426710562,11.200000358400002,0.7199994039200001,0.307058009825856,1684,0.0,99,GPS_Atti,
0.352654548174045,36.89603917663,9000,2017-11-08 06:02:59,1780.845442687056,11.700000374400002,0.0,0.32358701035478404,1780.845442687056,11.700000374400002,0.7199994039200001,0.32358701035478404,1684,0.0,99,GPS_Atti,
0.35265471361744205,36.896039269445296,9100,2017-11-08 06:02:59,1781.2454426998559,12.1000003872,0.0,0.34131401092204805,1781.2454426998559,12.1000003872,0.7199994039200001,0.34131401092204805,1684,0.0,99,GPS_Atti,
0.35265488680815993,36.8960394214722,9200,2017-11-08 06:02:59,1781.7454427158561,12.600000403200003,0.0,0.360236011527552,1781.7454427158561,12.600000403200003,0.7199994039200001,0.360236011527552,1684,0.0,99,GPS_Atti,
0.352655044982183,36.896039581410704,9300,2017-11-08 06:02:59,1782.245442731856,13.100000419199999,0.35999970196000003,0.37832101210627206,1782.245442731856,13.100000419199999,0.7199994039200001,0.37832101210627206,1684,0.0,98,GPS_Atti,
0.35265524194574105,36.8960397734714,9400,2017-11-08 06:02:59,1782.745442747856,13.600000435200002,0.0,0.401801012857632,1782.745442747856,13.600000435200002,0.7199994039200001,0.401801012857632,1684,0.0,98,GPS_Atti,
0.352655453998461,36.8960399481445,9500,2017-11-08 06:02:59,1783.245442763856,14.100000451200001,0.0,0.42756801368217606,1783.245442763856,14.100000451200001,0.7199994039200001,0.42756801368217606,1684,0.0,98,GPS_Atti,
0.352655687218511,36.896040135545995,9600,,1783.7454427798561,14.600000467200001,0.0,0.4564950146078401,1783.7454427798561,14.600000467200001,0.7199994039200001,0.4564950146078401,1684,0.0,98,GPS_Atti,
0.3526559053184579,36.896040282796896,9700,2017-11-08 06:02:59,1784.245442795856,15.100000483200002,0.0,0.48341601546931207,1784.245442795856,15.100000483200002,0.7199994039200001,0.48341601546931207,1684,0.0,98,GPS_Atti,
0.3526561272371071,36.896040447287604,9800,2017-11-08 06:02:59,1784.7454428118563,15.6000004992,0.0,0.511438016366016,1784.7454428118563,15.6000004992,0.7199994039200001,0.511438016366016,1684,0.0,98,GPS_Atti,
0.352656319287649,36.8960405954838,9900,2017-11-08 06:02:59,1785.245442827856,16.1000005152,0.0,0.536088017154816,1785.245442827856,16.1000005152,0.7199994039200001,0.536088017154816,1684,0.0,98,GPS_Atti,
0.352656518824149,36.8960407430441,10000,2017-11-08 06:03:00,1785.8454428470561,16.7000005344,0.0,0.5617350179755201,1785.8454428470561,16.7000005344,0.7199994039200001,0.5617350179755201,1684,0.0,98,GPS_Atti,
0.3526566943785539,36.896040858773496,10100,,1786.3454428630562,17.2000005504,0.0,0.5840120186883839,1786.3454428630562,17.2000005504,0.7199994039200001,0.5840120186883839,1684,0.0,98,GPS_Atti,
0.35265687102564497,36.89604099736,10200,2017-11-08 06:03:00,1786.845442879056,17.700000566400004,0.0,0.607224019431168,1786.845442879056,17.700000566400004,0.7199994039200001,0.607224019431168,1684,0.0,98,GPS_Atti,
0.35265705086367205,36.8960411345998,10300,2017-11-08 06:03:00,1787.4454428982563,18.3000005856,0.0,0.6308630201876161,1787.4454428982563,18.3000005856,0.7199994039200001,0.6308630201876161,1684,0.0,98,GPS_Atti,
0.352657257632092,36.8960413042572,10400,2017-11-08 06:03:00,1787.945442914256,18.800000601600004,0.0,0.658602021075264,1787.945442914256,18.800000601600004,0.7199994039200001,0.658602021075264,1684,0.0,98,GPS_Atti,
0.35265743844555697,36.8960414685659,10500,2017-11-08 06:03:00,1788.445442930256,19.300000617600002,0.0,0.68359002187488,1788.445442930256,19.300000617600002,0.7199994039200001,0.68359002187488,1684,0.0,98,GPS_Atti,
0.35265762735401707,36.8960416520564,10600,2017-11-08 06:03:00,1789.0454429494562,19.900000636800005,0.0,0.7103290227305279,1789.0454429494562,19.900000636800005,0.7199994039200001,0.7103290227305279,1684,0.0,98,GPS_Atti,
0.35265779638568995,36.8960418106642,10700,2017-11-08 06:03:00,1789.545442965456,20.4000006528,0.0,0.7341940234942079,1789.545442965456,20.4000006528,0.7199994039200001,0.7341940234942079,1684,0.0,98,GPS_Atti,
0.35265796694647106,36.89604196903429,10800,2017-11-08 06:03:00,1790.1454429846563,21.000000672,0.0,0.758331024266592,1790.1454429846563,21.000000672,0.7199994039200001,0.758331024266592,1684,0.0,98,GPS_Atti,
0.352658107363126,36.8960420917878,10900,2017-11-08 06:03:00,1790.645443000656,21.500000688,0.0,0.7779610248947519,1790.645443000656,21.500000688,0.7199994039200001,0.7779610248947519,1684,0.0,98,GPS_Atti,
0.35265824024822706,36.8960422153871,11000,,1791.245443019856,22.1000007072,0.0,0.796913025501216,1791.245443019856,22.1000007072,0.7199994039200001,0.796913025501216,1684,0.0,98,GPS_Atti,
0.352658339587382,36.8960423199019,11100,2017-11-08 06:03:01,1791.7454430358562,22.6000007232,0.0,0.811656025972992,1791.7454430358562,22.6000007232,0.7199994039200001,0.811656025972992,1684,0.0,98,GPS_Atti,
0.352658449186548,36.8960424147065,11200,2017-11-08 06:03:01,1792.345443055056,23.2000007424,0.0,0.827053026465696,1792.345443055056,23.2000007424,0.7199994039200001,0.827053026465696,1684,0.0,98,GPS_Atti,
0.352658536157671,36.8960424597796,11300,2017-11-08 06:03:01,1792.945443074256,23.800000761600003,0.0,0.8379260268136322,1792.945443074256,23.800000761600003,0.7199994039200001,0.8379260268136322,1684,0.0,98,GPS_Atti,
0.352658623046558,36.896042494080504,11400,2017-11-08 06:03:01,1793.445443090256,24.3000007776,0.0,0.8483060271457921,1793.445443090256,24.3000007776,0.7199994039200001,0.8483060271457921,1684,0.0,98,GPS_Atti,
0.352658682848721,36.896042515714,11500,2017-11-08 06:03:01,1794.045443109456,24.9000007968,0.0,0.8553610273715521,1794.045443109456,24.9000007968,0.7199994039200001,0.8553610273715521,1684,0.0,98,GPS_Atti,
0.352658732076583,36.8960425308565,11600,2017-11-08 06:03:01,1794.6454431286559,25.500000816,0.0,0.861049027553568,1794.6454431286559,25.500000816,0.7199994039200001,0.861049027553568,1684,0.0,98,GPS_Atti,
0.352658740866109,36.8960425167022,11700,2017-11-08 06:03:01,1795.1454431446562,26.000000832,0.0,0.8613100275619201,1795.1454431446562,26.000000832,0.7199994039200001,0.8613100275619201,1684,0.0,98,GPS_Atti,
0.352658759082698,36.896042527158706,11800,2017-11-08 06:03:01,1795.745443163856,26.6000008512,0.0,0.863633027636256,1795.745443163856,26.6000008512,0.7199994039200001,0.863633027636256,1684,0.0,98,GPS_Atti,
0.35265876340865904,36.8960425446929,11900,2017-11-08 06:03:01,1796.3454431830562,27.200000870400004,0.0,0.8648580276754562,1796.3454431830562,27.200000870400004,0.7199994039200001,0.8648580276754562,1684,0.0,98,GPS_Atti,
0.35265878148683005,36.8960425618407,12000,2017-11-08 06:03:02,1796.845443199056,27.700000886400005,0.0,0.867467027758944,1796.845443199056,27.700000886400005,0.7199994039200001,0.867467027758944,1684,0.0,98,GPS_Atti,
0.352658794308384,36.896042553982504,12100,2017-11-08 06:03:02,1797.3454432150563,28.200000902400003,0.0,0.868419027789408,1797.3454432150563,28.200000902400003,0.7199994039200001,0.868419027789408,1684,0.0,98,GPS_Atti,
0.35265881109927,36.8960425639465,12200,2017-11-08 06:03:02,1797.9454432342561,28.800000921600002,0.0,0.8705750278584001,1797.9454432342561,28.800000921600002,0.7199994039200001,0.8705750278584001,1684,0.0,98,GPS_Atti,
0.35265880083355894,36.8960425781126,12300,,1798.445443250256,29.300000937600004,0.0,0.870167027845344,1798.445443250256,29.300000937600004,0.7199994039200001,0.8705750278584001,1684,0.0,98,GPS_Atti,
0.352658788823785,36.896042608918,12400,2017-11-08 06:03:02,1799.0454432694562,29.900000956800003,0.0,0.8703430278509761,1799.0454432694562,29.900000956800003,0.7199994039200001,0.8705750278584001,1684,-2.7,98,GPS_Atti,
0.35265874808663006,36.8960426186957,12500,2017-11-08 06:03:02,1799.545443285456,30.400000972799997,0.0,0.8666580277330561,1799.545443285456,30.400000972799997,0.7199994039200001,0.8705750278584001,1684,-7.5,98,GPS_Atti,
0.352658714354227,36.8960426170481,12600,2017-11-08 06:03:02,1800.045443301456,30.900000988800006,0.0,0.8631660276213121,1800.045443301456,30.900000988800006,0.7199994039200001,0.8705750278584001,1684,-10.3,98,GPS_Atti,
0.35265868543061896,36.8960425766459,12700,2017-11-08 06:03:02,1800.645443320656,31.500001007999998,0.0,0.858384027468288,1800.645443320656,31.500001007999998,0.7199994039200001,0.8705750278584001,1684,-10.3,98,GPS_Atti,
0.35265865705661,36.8960425381366,12800,2017-11-08 06:03:02,1801.145443336656,32.000001024,0.0,0.8537520273200639,1801.145443336656,32.000001024,0.7199994039200001,0.8705750278584001,1684,-10.3,98,GPS_Atti,
0.35265860623043105,36.896042500534,12900,2017-11-08 06:03:02,1801.6454433526562,32.50000104,0.0,0.8468870271003841,1801.6454433526562,32.50000104,0.7199994039200001,0.8705750278584001,1684,-10.3,98,GPS_Atti,
0.352658551295687,36.896042461414396,13000,2017-11-08 06:03:03,1802.245443371856,33.100001059200004,0.0,0.839539026865248,1802.245443371856,33.100001059200004,0.7199994039200001,0.8705750278584001,1684,-10.3,98,GPS_Atti,
0.352658495231617,36.8960424100172,13100,2017-11-08 06:03:03,1802.745443387856,33.6000010752,0.0,0.831529026608928,1802.745443387856,33.6000010752,0.7199994039200001,0.8705750278584001,1684,-10.3,98,GPS_Atti,
0.352658453131454,36.896042368504894,13200,2017-11-08 06:03:03,1803.2454434038561,34.1000010912,0.0,0.8253910264125122,1803.2454434038561,34.1000010912,0.7199994039200001,0.8705750278584001,1684,-10.3,98,GPS_Atti,
0.352658413435689,36.8960423319076,13300,2017-11-08 06:03:03,1803.8454434230562,34.7000011104,0.0,0.819722026231104,1803.8454434230562,34.7000011104,0.7199994039200001,0.8705750278584001,1684,-10.3,98,GPS_Atti,
0.352658373796105,36.8960423099283,13400,,1804.3454434390562,35.2000011264,0.0,0.8147060260705921,1804.3454434390562,35.2000011264,0.7199994039200001,0.8705750278584001,1684,-10.3,98,GPS_Atti,
0.35265832168101197,36.896042286283105,13500,2017-11-08 06:03:03,1804.945443458256,35.8000011456,0.0,0.808343025866976,1804.945443458256,35.8000011456,0.7199994039200001,0.8705750278584001,1684,-10.3,98,GPS_Atti,
0.35265826430604497,36.8960422482769,13600,2017-11-08 06:03:03,1805.445443474256,36.3000011616,0.0,0.800811025625952,1805.445443474256,36.3000011616,0.7199994039200001,0.8705750278584001,1684,-10.3,98,GPS_Atti,
0.35265821048597096,36.89604217930479,13700,2017-11-08 06:03:03,1806.045443493456,36.900001180800004,0.0,0.792299025353568,1806.045443493456,36.900001180800004,0.7199994039200001,0.8705750278584001,1684,-10.4,98,GPS_Atti,
0.35265817826639206,36.896042113446,13800,2017-11-08 06:03:03,1806.5454435094562,37.4000011968,0.0,0.786167025157344,1806.5454435094562,37.4000011968,0.7199994039200001,0.8705750278584001,1684,-10.6,98,GPS_Atti,
0.352658158427059,36.8960420477885,13900,2017-11-08 06:03:03,1807.0454435254562,37.90000121280001,0.0,0.7813550250033601,1807.0454435254562,37.90000121280001,0.7199994039200001,0.8705750278584001,1684,-11.4,98,GPS_Atti,
0.35265815857850397,36.8960419690857,14000,2017-11-08 06:03:04,1807.645443544656,38.500001232,0.0,0.7781230248999361,1807.645443544656,38.500001232,0.7199994039200001,0.8705750278584001,1684,-12.6,98,GPS_Atti,
0.352658162975303,36.896041876897705,14100,2017-11-08 06:03:04,1808.145443560656,39.000001248000004,0.0,0.7748850247963202,1808.145443560656,39.000001248000004,0.7199994039200001,0.8705750278584001,1684,-13.9,98,GPS_Atti,
0.35265815108847604,36.8960418010149,14200,2017-11-08 06:03:04,1808.6454435766561,39.500001264000005,0.0,0.770694024662208,1808.6454435766561,39.500001264000005,0.7199994039200001,0.8705750278584001,1684,-15.2,98,GPS_Atti,
0.3526581056638449,36.89604175062521,14300,2017-11-08 06:03:04,1809.2454435958562,40.10000128320001,0.0,0.7640250244487999,1809.2454435958562,40.10000128320001,0.7199994039200001,0.8705750278584001,1684,-16.6,98,GPS_Atti,
0.35265805616810403,36.8960416991166,14400,2017-11-08 06:03:04,1809.7454436118562,40.6000012992,0.0,0.7569050242209601,1809.7454436118562,40.6000012992,0.7199994039200001,0.8705750278584001,1684,-18.2,98,GPS_Atti,
0.352658014829238,36.8960416370167,14500,2017-11-08 06:03:04,1810.245443627856,41.100001315200004,0.0,0.7502670240085441,1810.245443627856,41.100001315200004,0.7199994039200001,0.8705750278584001,1684,-18.2,98,GPS_Atti,
0.352657994419136,36.8960415752294,14600,2017-11-08 06:03:04,1810.745443643856,41.600001331200005,0.0,0.7458760238680321,1810.745443643856,41.600001331200005,0.7199994039200001,0.8705750278584001,1684,-19.8,98,GPS_Atti,
0.35265799791459096,36.8960415221182,14700,,1811.3454436630561,42.2000013504,0.0,0.7443560238193921,1811.3454436630561,42.2000013504,0.7199994039200001,0.8705750278584001,1684,-20.7,98,GPS_Atti,
0.3526580031671371,36.8960414860733,14800,2017-11-08 06:03:04,1811.845443679056,42.7000013664,0.0,0.743654023796928,1811.845443679056,42.7000013664,0.7199994039200001,0.8705750278584001,1684,-20.7,98,GPS_Atti,
0.352657995238243,36.896041454830105,14900,2017-11-08 06:03:04,1812.3454436950562,43.200001382399996,0.0,0.741742023735744,1812.3454436950562,43.200001382399996,0.7199994039200001,0.8705750278584001,1684,-20.7,98,GPS_Atti,
0.352657985018943,36.8960414242924,15000,2017-11-08 06:03:04,1812.845443711056,43.700001398400005,0.0,0.739623023667936,1812.845443711056,43.700001398400005,0.7199994039200001,0.8705750278584001,1684,-20.7,98,GPS_Atti,
0.352657963873597,36.8960413794194,15100,2017-11-08 06:03:05,1813.445443730256,44.30000141760001,0.0,0.73588002354816,1813.445443730256,44.30000141760001,0.7199994039200001,0.8705750278584001,1684,-20.7,98,GPS_Atti,
0.35265793244055704,36.896041353769,15200,2017-11-08 06:03:05,1813.9454437462562,44.80000143360001,0.0,0.7316950234142401,1813.9454437462562,44.80000143360001,0.7199994039200001,0.8705750278584001,1684,-20.7,98,GPS_Atti,
0.35265790333782004,36.8960413421927,15300,2017-11-08 06:03:05,1814.445443762256,45.3000014496,0.0,0.7282230233031359,1814.445443762256,45.3000014496,0.7199994039200001,0.8705750278584001,1684,-21.0,98,GPS_Atti,
0.352657891853219,36.8960413444741,15400,2017-11-08 06:03:05,1815.0454437814562,45.9000014688,0.0,0.7270780232664962,1815.0454437814562,45.9000014688,0.7199994039200001,0.8705750278584001,1684,-22.0,98,GPS_Atti,
0.35265789521839797,36.8960413428436,15500,2017-11-08 06:03:05,1815.545443797456,46.4000014848,0.0,0.727381023276192,1815.545443797456,46.4000014848,0.7199994039200001,0.8705750278584001,1684,-23.2,98,GPS_Atti,
0.352657903151363,36.8960413495937,15600,2017-11-08 06:03:05,1816.045443813456,46.9000015008,0.0,0.7284460233102721,1816.045443813456,46.9000015008,0.7199994039200001,0.8705750278584001,1684,-24.3,98,GPS_Atti,
0.352657899738959,36.8960413522391,15700,2017-11-08 06:03:05,1816.5454438294562,47.400001516799996,0.0,0.7281710233014721,1816.5454438294562,47.400001516799996,0.7199994039200001,0.8705750278584001,1684,-25.4,98,GPS_Atti,
0.35265791086286,36.8960413707904,15800,2017-11-08 06:03:05,1817.045443845456,47.900001532800005,0.0,0.7299670233589439,1817.045443845456,47.900001532800005,0.7199994039200001,0.8705750278584001,1684,-27.2,98,GPS_Atti,
0.352657929686044,36.8960413851086,15900,,1817.545443861456,48.4000015488,0.0,0.732442023438144,1817.545443861456,48.4000015488,0.7199994039200001,0.8705750278584001,1684,-28.6,98,GPS_Atti,
0.35265794423293395,36.8960414067111,16000,2017-11-08 06:03:05,1818.0454438774561,48.9000015648,0.0,0.7347080235106561,1818.0454438774561,48.9000015648,0.7199994039200001,0.8705750278584001,1684,-29.4,98,GPS_Atti,
0.352657941835051,36.8960414117065,16100,2017-11-08 06:03:06,1818.5454438934562,49.4000015808,0.0,0.7346230235079361,1818.5454438934562,49.4000015808,0.7199994039200001,0.8705750278584001,1684,-29.4,98,GPS_Atti,
0.35265794440636405,36.896041429514796,16200,2017-11-08 06:03:06,1819.045443909456,49.900001596799996,0.0,0.7354980235359362,1819.045443909456,49.900001596799996,0.7199994039200001,0.8705750278584001,1684,-29.4,98,GPS_Atti,
0.352657938710881,36.8960414488573,16300,2017-11-08 06:03:06,1819.5454439254563,50.40000161280001,0.0,0.735557023537824,1819.5454439254563,50.40000161280001,0.7199994039200001,0.8705750278584001,1684,-29.4,98,GPS_Atti,
0.35265793565999104,36.8960414776285,16400,2017-11-08 06:03:06,1820.145443944656,51.000001632,0.0,0.7362280235592961,1820.145443944656,51.000001632,0.7199994039200001,0.8705750278584001,1684,-29.4,98,GPS_Atti,
0.352657931455349,36.896041496478404,16500,2017-11-08 06:03:06,1820.645443960656,51.50000164800001,0.0,0.736443023566176,1820.645443960656,51.50000164800001,0.7199994039200001,0.8705750278584001,1684,-29.4,98,GPS_Atti,
0.35265793703358295,36.896041545695894,16600,2017-11-08 06:03:06,1821.1454439766562,52.000001664,0.0,0.7387760236408321,1821.1454439766562,52.000001664,0.7199994039200001,0.8705750278584001,1684,-29.4,98,GPS_Atti,
0.352657939718073,36.8960416033111,16700,2017-11-08 06:03:06,1821.645443992656,52.500001680000004,0.0,0.74114502371664,1821.645443992656,52.500001680000004,0.7199994039200001,0.8705750278584001,1684,-29.4,98,GPS_Atti,
0.352657967216793,36.8960416901108,16800,2017-11-08 06:03:06,1822.145444008656,53.000001696000005,0.0,0.7472580239122562,1822.145444008656,53.000001696000005,0.7199994039200001,0.8705750278584001,1684,-29.8,98,GPS_Atti,
0.35265800657139895,36.8960417746911,16900,2017-11-08 06:03:06,1822.6454440246562,53.500001712,0.0,0.7546060241473921,1822.6454440246562,53.500001712,0.7199994039200001,0.8705750278584001,1684,-30.9,98,GPS_Atti,
0.3526580580001029,36.8960418770294,17000,2017-11-08 06:03:07,1823.145444040656,54.00000172800001,0.0,0.763986024447552,1823.145444040656,54.00000172800001,0.7199994039200001,0.8705750278584001,1684,-31.9,98,GPS_Atti,
0.35265808732512294,36.8960419537773,17100,2017-11-08 06:03:07,1823.645444056656,54.500001744,0.0,0.7701280246440961,1823.645444056656,54.500001744,0.7199994039200001,0.8705750278584001,1684,-33.0,98,GPS_Atti,
0.35265811843084605,36.8960420299823,17200,2017-11-08 06:03:07,1824.245444075856,55.1000017632,0.0,0.776489024847648,1824.245444075856,55.1000017632,0.7199994039200001,0.8705750278584001,1684,-34.0,98,GPS_Atti,
0.3526581290841261,36.896042068979895,17300,,1824.7454440918561,55.6000017792,0.0,0.7792250249352001,1824.7454440918561,55.6000017792,0.7199994039200001,0.8705750278584001,1684,-35.0,98,GPS_Atti,
0.35265815992441296,36.896042131025204,17400,2017-11-08 06:03:07,1825.245444107856,56.10000179520001,0.0,0.78503502512112,1825.245444107856,56.10000179520001,0.7199994039200001,0.8705750278584001,1684,-35.5,98,GPS_Atti,
0.3526582017705379,36.8960422060151,17500,2017-11-08 06:03:07,1825.7454441238563,56.600001811199995,0.0,0.7925680253621761,1825.7454441238563,56.600001811199995,0.7199994039200001,0.8705750278584001,1684,-35.6,98,GPS_Atti,
0.352658243147672,36.8960422829985,17600,,1826.245444139856,57.100001827199996,0.0,0.80018502560592,1826.245444139856,57.100001827199996,0.7199994039200001,0.8705750278584001,1684,-35.6,98,GPS_Atti,
0.352658256797289,36.8960423225206,17700,2017-11-08 06:03:07,1826.745444155856,57.600001843200005,0.0,0.803341025706912,1826.745444155856,57.600001843200005,0.7199994039200001,0.8705750278584001,1684,-35.6,98,GPS_Atti,
0.352658297559685,36.8960423649933,17800,2017-11-08 06:03:07,1827.2454441718562,58.100001859200006,0.0,0.8093980259007361,1827.2454441718562,58.100001859200006,0.7199994039200001,0.8705750278584001,1684,-35.6,98,GPS_Atti,
0.35265834988729,36.8960423914938,17900,2017-11-08 06:03:07,1827.745444187856,58.60000187520001,0.0,0.815913026109216,1827.745444187856,58.60000187520001,0.7199994039200001,0.8705750278584001,1684,-35.6,98,GPS_Atti,
0.352658411712795,36.8960424396182,18000,2017-11-08 06:03:08,1828.245444203856,59.1000018912,0.0,0.8243730263799361,1828.245444203856,59.1000018912,0.7199994039200001,0.8705750278584001,1684,-35.6,98,GPS_Atti,
0.352658429681046,36.8960424824527,18100,2017-11-08 06:03:08,1828.7454442198562,59.6000019072,0.0,0.8281530265008961,1828.7454442198562,59.6000019072,0.7199994039200001,0.8705750278584001,1684,-35.6,98,GPS_Atti,
0.352658421829504,36.896042540676,18200,2017-11-08 06:03:08,1829.2454442358562,60.100001923200004,0.0,0.8300550265617601,1829.2454442358562,60.100001923200004,0.7199994039200001,0.8705750278584001,1684,-35.7,98,GPS_Atti,
0.35265839476639294,36.8960425580839,18300,2017-11-08 06:03:08,1829.845444255056,60.7000019424,0.0,0.828142026500544,1829.845444255056,60.7000019424,0.7199994039200001,0.8705750278584001,1684,-35.8,98,GPS_Atti,
0.35265840233784296,36.896042540656794,18400,2017-11-08 06:03:08,1830.345444271056,61.2000019584,0.0,0.8280880264988161,1830.345444271056,61.2000019584,0.7199994039200001,0.8705750278584001,1684,-36.1,98,GPS_Atti,
0.3526584344719289,36.8960424778406,18500,2017-11-08 06:03:08,1830.8454442870561,61.7000019744,0.35999970196000003,0.8284270265096639,1830.8454442870561,61.7000019744,0.7199994039200001,0.8705750278584001,1684,-36.3,98,GPS_Atti,
0.35265848524762705,36.8960424316144,18600,2017-11-08 06:03:08,1831.4454443062561,62.300001993600006,0.0,0.8314810266073921,1831.4454443062561,62.300001993600006,0.7199994039200001,0.8705750278584001,1684,-36.6,98,GPS_Atti,
0.35265851741590903,36.896042394898295,18700,2017-11-08 06:03:08,1831.9454443222562,62.80000200960001,0.0,0.8331170266597441,1831.9454443222562,62.80000200960001,0.7199994039200001,0.8705750278584001,1684,-36.9,98,GPS_Atti,
0.352658564315911,36.89604237131729,18800,,1832.445444338256,63.3000020256,0.0,0.8368660267797121,1832.445444338256,63.3000020256,0.7199994039200001,0.8705750278584001,1684,-37.1,98,GPS_Atti,
0.352658600578916,36.8960423341184,18900,2017-11-08 06:03:08,1832.9454443542563,63.8000020416,0.0,0.83896002684672,1832.9454443542563,63.8000020416,0.7199994039200001,0.8705750278584001,1684,-37.4,98,GPS_Atti,
0.352658629627914,36.896042322620204,19000,2017-11-08 06:03:08,1833.4454443702562,64.30000205760001,0.0,0.84144502692624,1833.4454443702562,64.30000205760001,0.7199994039200001,0.8705750278584001,1684,-37.7,98,GPS_Atti,
0.352658625983456,36.8960423218686,19100,2017-11-08 06:03:09,1833.945444386256,64.8000020736,0.0,0.8410390269132478,1833.945444386256,64.8000020736,0.7199994039200001,0.8705750278584001,1684,-37.7,98,GPS_Atti,
0.352658636213341,36.8960423564446,19200,2017-11-08 06:03:09,1834.445444402256,65.3000020896,0.0,0.843576026994432,1834.445444402256,65.3000020896,0.7199994039200001,0.8705750278584001,1684,-37.9,98,GPS_Atti,
0.35265864161244803,36.8960423878238,19300,2017-11-08 06:03:09,1834.945444418256,65.8000021056,0.0,0.8454920270557441,1834.945444418256,65.8000021056,0.7199994039200001,0.8705750278584001,1684,-38.2,98,GPS_Atti,
0.352658663893633,36.896042429592,19400,2017-11-08 06:03:09,1835.4454444342562,66.3000021216,0.0,0.849599027187168,1835.4454444342562,66.3000021216,0.7199994039200001,0.8705750278584001,1684,-38.5,98,GPS_Atti,
0.352658682857677,36.896042444017205,19500,2017-11-08 06:03:09,1835.945444450256,66.8000021376,0.0,0.85217002726944,1835.945444450256,66.8000021376,0.7199994039200001,0.8705750278584001,1684,-38.8,98,GPS_Atti,
0.352658714662003,36.896042462212,19600,2017-11-08 06:03:09,1836.545444469456,67.40000215680001,0.0,0.8562200273990401,1836.545444469456,67.40000215680001,0.7199994039200001,0.8705750278584001,1684,-39.1,98,GPS_Atti,
0.352658732613969,36.896042464491295,19700,2017-11-08 06:03:09,1837.045444485456,67.9000021728,0.0,0.858153027460896,1837.045444485456,67.9000021728,0.7199994039200001,0.8705750278584001,1684,-39.5,98,GPS_Atti,
0.35265875238490796,36.8960424797516,19800,2017-11-08 06:03:09,1837.5454445014561,68.4000021888,0.0,0.860844027547008,1837.5454445014561,68.4000021888,0.7199994039200001,0.8705750278584001,1684,-39.8,98,GPS_Atti,
0.352658763592674,36.89604248384129,19900,2017-11-08 06:03:09,1838.0454445174562,68.9000022048,0.0,0.8621690275894079,1838.0454445174562,68.9000022048,0.7199994039200001,0.8705750278584001,1684,-40.1,98,GPS_Atti,
0.35265879181198,36.8960424889566,20000,2017-11-08 06:03:10,1838.545444533456,69.4000022208,0.0,0.8652750276888002,1838.545444533456,69.4000022208,0.7199994039200001,0.8705750278584001,1684,-40.4,98,GPS_Atti,
0.35265879842346204,36.8960424956564,20100,2017-11-08 06:03:10,1839.0454445494559,69.9000022368,0.0,0.8662460277198721,1839.0454445494559,69.9000022368,0.7199994039200001,0.8705750278584001,1684,-40.7,98,GPS_Atti,
0.352658816681576,36.896042531758,20200,2017-11-08 06:03:10,1839.5454445654561,70.4000022528,0.0,0.869706027830592,1839.5454445654561,70.4000022528,0.7199994039200001,0.8705750278584001,1684,-41.0,98,GPS_Atti,
0.352658828429171,36.896042572355,20300,2017-11-08 06:03:10,1840.045444581456,70.90000226880001,0.0,0.87271502792688,1840.045444581456,70.90000226880001,0.7199994039200001,0.87271502792688,1684,-41.4,98,GPS_Atti,
0.35265884594308705,36.8960426120516,20400,,1840.545444597456,71.4000022848,0.0,0.8762840280410881,1840.545444597456,71.4000022848,0.7199994039200001,0.8762840280410881,1684,-41.7,98,GPS_Atti,
0.35265884528682395,36.896042622866794,20500,2017-11-08 06:03:10,1840.945444610256,71.8000022976,0.0,0.8767070280546241,1840.945444610256,71.8000022976,0.7199994039200001,0.8767070280546241,1684,-41.7,98,GPS_Atti,
0.35265885551833703,36.896042631861896,20600,2017-11-08 06:03:10,1841.4454446262562,72.3000023136,0.0,0.878154028100928,1841.4454446262562,72.3000023136,0.7199994039200001,0.878154028100928,1684,-42.1,98,GPS_Atti,
0.35265884912180895,36.8960426263601,20700,2017-11-08 06:03:10,1841.945444642256,72.8000023296,0.0,0.87725502807216,1841.945444642256,72.8000023296,0.7199994039200001,0.878154028100928,1684,-42.4,98,GPS_Atti,
0.35265884071903797,36.8960426394311,20800,2017-11-08 06:03:10,1842.445444658256,73.3000023456,0.0,0.876997028063904,1842.445444658256,73.3000023456,0.7199994039200001,0.878154028100928,1684,-42.8,98,GPS_Atti,
0.3526588263675611,36.896042662781795,20900,2017-11-08 06:03:10,1843.045444677456,73.9000023648,0.0,0.876611028051552,1843.045444677456,73.9000023648,0.7199994039200001,0.878154028100928,1684,-43.1,98,GPS_Atti,
0.3526588142112271,36.896042701083495,21000,2017-11-08 06:03:11,1843.545444693456,74.4000023808,0.0,0.8771500280688002,1843.545444693456,74.4000023808,0.7199994039200001,0.878154028100928,1684,-43.5,98,GPS_Atti,
0.352658786444628,36.896042722605706,21100,2017-11-08 06:03:11,1844.0454447094562,74.9000023968,0.0,0.8753510280112322,1844.0454447094562,74.9000023968,0.7199994039200001,0.878154028100928,1684,-43.8,98,GPS_Atti,
0.352658769777504,36.896042741916,21200,2017-11-08 06:03:11,1844.545444725456,75.40000241279999,0.0,0.874579027986528,1844.545444725456,75.40000241279999,0.7199994039200001,0.878154028100928,1684,-44.2,98,GPS_Atti,
0.35265876111255295,36.8960427509219,21300,2017-11-08 06:03:11,1845.045444741456,75.90000242880001,0.0,0.8741320279722241,1845.045444741456,75.90000242880001,0.7199994039200001,0.878154028100928,1684,-44.5,98,GPS_Atti,
0.352658761758231,36.8960427799993,21400,2017-11-08 06:03:11,1845.545444757456,76.4000024448,0.0,0.875578028018496,1845.545444757456,76.4000024448,0.7199994039200001,0.878154028100928,1684,-44.9,98,GPS_Atti,
0.352658753637995,36.8960428169327,21500,2017-11-08 06:03:11,1846.0454447734562,76.9000024608,0.0,0.8765310280489921,1846.0454447734562,76.9000024608,0.7199994039200001,0.878154028100928,1684,-45.2,98,GPS_Atti,
0.35265875059931895,36.8960428549657,21600,2017-11-08 06:03:11,1846.545444789456,77.40000247680001,0.0,0.87806502809808,1846.545444789456,77.40000247680001,0.7199994039200001,0.878154028100928,1684,-45.6,98,GPS_Atti,
0.352658738618856,36.896042872010604,21700,,1847.045444805456,77.9000024928,0.0,0.877697028086304,1847.045444805456,77.9000024928,0.7199994039200001,0.878154028100928,1684,-45.9,98,GPS_Atti,
0.35265872112773905,36.896042879004796,21800,2017-11-08 06:03:11,1847.5454448214562,78.4000025088,0.0,0.8762920280413441,1847.5454448214562,78.4000025088,0.7199994039200001,0.878154028100928,1684,-46.3,98,GPS_Atti,
0.352658680279036,36.896042868703496,21900,2017-11-08 06:03:11,1848.045444837456,78.9000025248,0.0,0.8717100278947201,1848.045444837456,78.9000025248,0.7199994039200001,0.878154028100928,1684,-46.6,98,GPS_Atti,
0.352658654026076,36.8960428693641,22000,2017-11-08 06:03:11,1848.545444853456,79.4000025408,0.0,0.8691240278119681,1848.545444853456,79.4000025408,0.7199994039200001,0.878154028100928,1684,-46.6,98,GPS_Atti,
0.352658639667271,36.8960428778068,22100,2017-11-08 06:03:12,1849.045444869456,79.9000025568,0.0,0.8681100277795201,1849.045444869456,79.9000025568,0.7199994039200001,0.878154028100928,1684,-47.0,98,GPS_Atti,
0.3526586400743821,36.8960428923734,22200,2017-11-08 06:03:12,1849.5454448854562,80.4000025728,0.0,0.8688720278039039,1849.5454448854562,80.4000025728,0.7199994039200001,0.878154028100928,1684,-47.3,98,GPS_Atti,
0.352658632182128,36.8960429062751,22300,2017-11-08 06:03:12,1850.045444901456,80.9000025888,0.0,0.868778027800896,1850.045444901456,80.9000025888,0.7199994039200001,0.878154028100928,1684,-47.7,98,GPS_Atti,
0.35265861762221096,36.896042947438396,22400,2017-11-08 06:03:12,1850.545444917456,81.4000026048,0.0,0.8693940278206079,1850.545444917456,81.4000026048,0.7199994039200001,0.878154028100928,1684,-48.0,98,GPS_Atti,
0.3526585828793579,36.896042994985706,22500,2017-11-08 06:03:12,1851.045444933456,81.9000026208,0.0,0.868369027787808,1851.045444933456,81.9000026208,0.7199994039200001,0.878154028100928,1684,-48.4,98,GPS_Atti,
0.35265856131224604,36.896043040328706,22600,2017-11-08 06:03:12,1851.5454449494562,82.40000263680001,0.0,0.8685730277943361,1851.5454449494562,82.40000263680001,0.7199994039200001,0.878154028100928,1684,-48.8,98,GPS_Atti,
0.35265854905739,36.8960430529296,22700,2017-11-08 06:03:12,1852.045444965456,82.9000026528,0.0,0.868021027776672,1852.045444965456,82.9000026528,0.7199994039200001,0.878154028100928,1684,-49.1,98,GPS_Atti,
0.352658547427318,36.8960430567602,22800,2017-11-08 06:03:12,1852.545444981456,83.4000026688,0.0,0.8680600277779201,1852.545444981456,83.4000026688,0.7199994039200001,0.878154028100928,1684,-49.5,98,GPS_Atti,
0.352658542870932,36.896043040251605,22900,2017-11-08 06:03:12,1853.0454449974561,83.9000026848,0.0,0.866754027736128,1853.0454449974561,83.9000026848,0.7199994039200001,0.878154028100928,1684,-49.8,98,GPS_Atti,
0.35265854334480895,36.8960430185207,23000,,1853.545445013456,84.4000027008,0.0,0.865677027701664,1853.545445013456,84.4000027008,0.7199994039200001,0.878154028100928,1684,-50.2,98,GPS_Atti,
0.352658531957914,36.896042997189,23100,2017-11-08 06:03:13,1854.0454450294562,84.9000027168,0.0,0.8634560276305921,1854.0454450294562,84.9000027168,0.7199994039200001,0.878154028100928,1684,-50.5,98,GPS_Atti,
0.352658534501544,36.896042993686,23200,2017-11-08 06:03:13,1854.545445045456,85.4000027328,0.0,0.8635270276328642,1854.545445045456,85.4000027328,0.7199994039200001,0.878154028100928,1684,-50.8,98,GPS_Atti,
0.35265853080986104,36.8960429996182,23300,2017-11-08 06:03:13,1855.0454450614561,85.9000027488,0.0,0.8634680276309762,1855.0454450614561,85.9000027488,0.7199994039200001,0.878154028100928,1684,-51.2,97,GPS_Atti,
0.35265853968488103,36.8960430277674,23400,2017-11-08 06:03:13,1855.5454450774562,86.40000276479999,0.0,0.8657940277054079,1855.5454450774562,86.40000276479999,0.7199994039200001,0.878154028100928,1684,-51.2,97,GPS_Atti,
0.352658540699402,36.896043069872896,23500,2017-11-08 06:03:13,1856.145445096656,87.00000278399999,0.0,0.8680820277786241,1856.145445096656,87.00000278399999,0.7199994039200001,0.878154028100928,1684,-51.5,97,GPS_Atti,
0.35265853840492395,36.896043121325704,23600,2017-11-08 06:03:13,1856.645445112656,87.50000280000002,0.0,0.8705570278578241,1856.645445112656,87.50000280000002,0.7199994039200001,0.878154028100928,1684,-51.9,97,GPS_Atti,
0.35265851610664,36.896043145582205,23700,2017-11-08 06:03:13,1857.145445128656,88.00000281600002,0.0,0.869661027829152,1857.145445128656,88.00000281600002,0.7199994039200001,0.878154028100928,1684,-52.2,97,GPS_Atti,
0.352658503885982,36.8960431693891,23800,2017-11-08 06:03:13,1857.6454451446562,88.50000283199999,0.0,0.869738027831616,1857.6454451446562,88.50000283199999,0.7199994039200001,0.878154028100928,1684,-52.6,97,GPS_Atti,
0.35265849581622793,36.896043179596205,23900,2017-11-08 06:03:13,1858.145445160656,89.000002848,0.0,0.8694990278239682,1858.145445160656,89.000002848,0.7199994039200001,0.878154028100928,1684,-52.9,97,GPS_Atti,
0.35265848970874897,36.8960431986185,24000,2017-11-08 06:03:14,1858.6454451766563,89.500002864,0.0,0.869927027837664,1858.6454451766563,89.500002864,0.7199994039200001,0.878154028100928,1684,-53.3,97,GPS_Atti,
0.3526584745267651,36.89604322258379,24100,2017-11-08 06:03:14,1859.145445192656,90.00000288,0.0,0.869748027831936,1859.145445192656,90.00000288,0.7199994039200001,0.878154028100928,1684,-53.6,97,GPS_Atti,
0.35265846834844894,36.8960432461102,24200,2017-11-08 06:03:14,1859.645445208656,90.50000289600001,0.0,0.8704290278537281,1859.645445208656,90.50000289600001,0.7199994039200001,0.878154028100928,1684,-54.0,97,GPS_Atti,
0.35265846263830997,36.896043250273706,24300,2017-11-08 06:03:14,1860.1454452246562,91.00000291200001,0.0,0.8701030278432961,1860.1454452246562,91.00000291200001,0.7199994039200001,0.878154028100928,1684,-54.3,97,GPS_Atti,
0.3526584591168,36.8960432553109,24400,,1860.645445240656,91.50000292800001,0.0,0.870037027841184,1860.645445240656,91.50000292800001,0.7199994039200001,0.878154028100928,1684,-54.7,97,GPS_Atti,
0.35265844521314504,36.8960432530573,24500,2017-11-08 06:03:14,1861.145445256656,92.00000294399999,0.0,0.8685680277941761,1861.145445256656,92.00000294399999,0.7199994039200001,0.878154028100928,1684,-54.7,97,GPS_Atti,
0.35265844278757796,36.8960432439775,24600,2017-11-08 06:03:14,1861.645445272656,92.50000296000002,0.0,0.8678360277707522,1861.645445272656,92.50000296000002,0.7199994039200001,0.878154028100928,1684,-54.9,97,GPS_Atti,
0.35265844930705303,36.8960432226705,24700,2017-11-08 06:03:14,1862.1454452886562,93.00000297600002,0.0,0.867306027753792,1862.1454452886562,93.00000297600002,0.7199994039200001,0.878154028100928,1684,-54.9,97,GPS_Atti,
0.35265845218044295,36.8960432053205,24800,2017-11-08 06:03:14,1862.645445304656,93.500002992,0.0,0.866642027732544,1862.645445304656,93.500002992,0.7199994039200001,0.878154028100928,1684,-54.9,97,GPS_Atti,
0.35265844366938004,36.896043193768705,24900,2017-11-08 06:03:14,1863.1454453206559,94.00000300800001,0.0,0.86519002768608,1863.1454453206559,94.00000300800001,0.7199994039200001,0.878154028100928,1684,-54.9,97,GPS_Atti,
0.35265843345170794,36.896043198947204,25000,2017-11-08 06:03:15,1863.6454453366562,94.50000302400001,0.0,0.864479027663328,1863.6454453366562,94.50000302400001,0.7199994039200001,0.878154028100928,1684,-54.9,97,GPS_Atti,
0.35265842161699196,36.8960432052284,25100,2017-11-08 06:03:15,1864.145445352656,95.00000304000001,0.0,0.863671027637472,1864.145445352656,95.00000304000001,0.7199994039200001,0.878154028100928,1684,-54.9,97,GPS_Atti,
0.352658419320071,36.8960432061641,25200,2017-11-08 06:03:15,1864.645445368656,95.50000305600001,0.0,0.8634990276319681,1864.645445368656,95.50000305600001,0.7199994039200001,0.878154028100928,1684,-54.9,97,GPS_Atti,
0.352658419973077,36.896043187280895,25300,2017-11-08 06:03:15,1865.145445384656,96.00000307200001,0.0,0.862537027601184,1865.145445384656,96.00000307200001,0.7199994039200001,0.878154028100928,1493,-54.9,97,GPS_Atti,
0.35265844384932304,36.896043159021396,25400,2017-11-08 06:03:15,1865.6454454006562,96.50000308800001,0.0,0.8633330276266561,1865.6454454006562,96.50000308800001,0.7199994039200001,0.878154028100928,1064,-54.9,97,GPS_Atti,
0.352658470733305,36.8960431107461,25500,2017-11-08 06:03:15,1866.145445416656,97.000003104,0.0,0.8633780276280961,1866.145445416656,97.000003104,0.7199994039200001,0.878154028100928,1024,-55.0,97,GPS_Atti,
0.35265849837939894,36.8960430490252,25600,2017-11-08 06:03:15,1866.545445429456,97.40000311680002,0.0,0.8628380276108161,1866.545445429456,97.40000311680002,0.7199994039200001,0.878154028100928,1024,-54.9,97,GPS_Atti,
0.35265851817964894,36.8960429910823,25700,,1866.945445442256,97.8000031296,0.0,0.861784027577088,1866.945445442256,97.8000031296,0.7199994039200001,0.878154028100928,1024,-54.9,97,GPS_Atti,
0.352658560124296,36.896042921546,25800,2017-11-08 06:03:15,1867.245445451856,98.10000313920001,0.0,0.86239002759648,1867.245445451856,98.10000313920001,0.7199994039200001,0.878154028100928,1024,-54.9,97,GPS_Atti,
0.35265859156710705,36.8960428449674,25900,2017-11-08 06:03:15,1867.4454454582562,98.3000031456,0.0,0.861696027574272,1867.4454454582562,98.3000031456,0.7199994039200001,0.878154028100928,1024,-54.9,97,GPS_Atti,
0.352658619761986,36.8960427389248,26000,2017-11-08 06:03:15,1867.5454454614562,98.40000314880001,0.0,0.8593560274993922,1867.5454454614562,98.40000314880001,0.7199994039200001,0.878154028100928,1024,-55.0,97,GPS_Atti,
0.352658624386767,36.896042624134395,26100,2017-11-08 06:03:16,1867.645445464656,98.500003152,0.0,0.854397027340704,1867.645445464656,98.500003152,0.7199994039200001,0.878154028100928,1024,-54.9,97,GPS_Atti,
0.352658607345915,36.8960425150449,26200,2017-11-08 06:03:16,1867.645445464656,98.500003152,0.0,0.847657027125024,1867.645445464656,98.500003152,0.7199994039200001,0.878154028100928,1024,-54.9,97,GPS_Atti,
0.35265854952882497,36.8960424208495,26300,2017-11-08 06:03:16,1867.5454454614562,98.40000314880001,0.35999970196000003,0.837544026801408,1867.645445464656,98.500003152,0.7199994039200001,0.878154028100928,1024,-54.9,97,GPS_Atti,
0.3526584853371911,36.8960423383194,26400,2017-11-08 06:03:16,1867.5454454614562,98.40000314880001,0.35999970196000003,0.827348026475136,1867.645445464656,98.500003152,0.7199994039200001,0.878154028100928,1024,-54.9,97,GPS_Atti,
0.352658428982444,36.8960422690829,26500,2017-11-08 06:03:16,1867.5454454614562,98.40000314880001,0.35999970196000003,0.8185670261941441,1867.645445464656,98.500003152,0.7199994039200001,0.878154028100928,1024,-54.9,97,GPS_Atti,
0.35265835230471604,36.8960422012188,26600,2017-11-08 06:03:16,1867.5454454614562,98.40000314880001,0.35999970196000003,0.80778502584912,1867.645445464656,98.500003152,0.7199994039200001,0.878154028100928,1024,-54.9,97,GPS_Atti,
0.352658274097878,36.8960421197786,26700,2017-11-08 06:03:16,1867.5454454614562,98.40000314880001,0.35999970196000003,0.796289025481248,1867.645445464656,98.500003152,0.7199994039200001,0.878154028100928,1024,-54.9,97,GPS_Atti,
0.3526582348678479,36.8960420236326,26800,2017-11-08 06:03:16,1867.5454454614562,98.40000314880001,0.0,0.7882430252237761,1867.645445464656,98.500003152,0.7199994039200001,0.878154028100928,1024,-54.9,97,GPS_Atti,
0.35265824293027404,36.8960419000622,26900,2017-11-08 06:03:16,1867.645445464656,98.500003152,0.0,0.7841130250916161,1867.645445464656,98.500003152,0.7199994039200001,0.878154028100928,1024,-54.9,97,GPS_Atti,
0.352658289613693,36.8960417648823,27000,2017-11-08 06:03:17,1867.645445464656,98.500003152,0.0,0.783814025082048,1867.645445464656,98.500003152,0.7199994039200001,0.878154028100928,1024,-54.9,97,GPS_Atti,
0.35265835804498097,36.896041622728504,27100,2017-11-08 06:03:17,1867.645445464656,98.500003152,0.0,0.7858910251485121,1867.645445464656,98.500003152,0.7199994039200001,0.878154028100928,1024,-54.9,97,GPS_Atti,
0.352658448303932,36.8960414642225,27200,2017-11-08 06:03:17,1867.645445464656,98.500003152,0.0,0.79014502528464,1867.645445464656,98.500003152,0.7199994039200001,0.878154028100928,1024,-54.9,97,GPS_Atti,
0.35265853730979496,36.896041306738795,27300,2017-11-08 06:03:17,1867.645445464656,98.500003152,0.0,0.79479002543328,1867.645445464656,98.500003152,0.7199994039200001,0.878154028100928,1024,-54.9,97,GPS_Atti,
0.352658649548669,36.8960411377859,27400,2017-11-08 06:03:17,1867.645445464656,98.500003152,0.0,0.8021140256676479,1867.645445464656,98.500003152,0.7199994039200001,0.878154028100928,1024,-54.9,97,GPS_Atti,
0.352658759194246,36.896040986072705,27500,,1867.645445464656,98.500003152,0.0,0.8101320259242241,1867.645445464656,98.500003152,0.7199994039200001,0.878154028100928,1024,-54.9,97,GPS_Atti,
0.35265886824137005,36.8960408497515,27600,2017-11-08 06:03:17,1867.645445464656,98.500003152,0.0,0.818869026203808,1867.645445464656,98.500003152,0.7199994039200001,0.878154028100928,983,-54.9,97,GPS_Atti,
0.352658959466803,36.8960407525778,27700,2017-11-08 06:03:17,1867.645445464656,98.500003152,0.0,0.8267960264574722,1867.645445464656,98.500003152,0.7199994039200001,0.878154028100928,905,-54.9,97,GPS_Atti,
0.35265904654784597,36.896040665352004,27800,2017-11-08 06:03:17,1867.645445464656,98.500003152,0.0,0.83464002670848,1867.645445464656,98.500003152,0.7199994039200001,0.878154028100928,893,-54.9,97,GPS_Atti,
0.35265912143998496,36.8960405813445,27900,2017-11-08 06:03:17,1867.645445464656,98.500003152,0.0,0.8413510269232322,1867.645445464656,98.500003152,0.7199994039200001,0.878154028100928,893,-54.9,97,GPS_Atti,
0.35265919847678495,36.896040489529,28000,2017-11-08 06:03:18,1867.645445464656,98.500003152,0.0,0.8483060271457921,1867.645445464656,98.500003152,0.7199994039200001,0.878154028100928,889,-54.9,97,GPS_Atti,
0.3526592583155879,36.896040394266294,28100,2017-11-08 06:03:18,1867.745445467856,98.60000315520001,0.0,0.853466027310912,1867.745445467856,98.60000315520001,0.7199994039200001,0.878154028100928,884,-54.9,97,GPS_Atti,
0.35265932876696104,36.896040288318,28200,2017-11-08 06:03:18,1867.645445464656,98.500003152,0.0,0.859813027514016,1867.745445467856,98.60000315520001,0.7199994039200001,0.878154028100928,891,-54.9,97,GPS_Atti,
0.35265940137765006,36.896040192248,28300,2017-11-08 06:03:18,1867.645445464656,98.500003152,0.0,0.866693027734176,1867.745445467856,98.60000315520001,0.7199994039200001,0.878154028100928,887,-54.9,97,GPS_Atti,
0.352659479240072,36.8960400767135,28400,2017-11-08 06:03:18,1867.645445464656,98.500003152,0.0,0.8741200279718401,1867.745445467856,98.60000315520001,0.7199994039200001,0.878154028100928,890,-54.9,97,GPS_Atti,
0.35265954838868896,36.896039968748205,28500,2017-11-08 06:03:18,1867.645445464656,98.500003152,0.0,0.8808490281871679,1867.745445467856,98.60000315520001,0.7199994039200001,0.8808490281871679,893,-54.9,97,GPS_Atti,
0.35265960658113504,36.8960398553881,28600,2017-11-08 06:03:18,1867.5454454614562,98.40000314880001,0.0,0.88650502836816,1867.745445467856,98.60000315520001,0.7199994039200001,0.88650502836816,896,-55.0,97,GPS_Atti,
