latitude,longitude,time_millisecond,datetime_utc,altitude_m,ascent_m,speed_kph,distance_m,max_altitude_m,max_ascent_m,max_speed_kph,max_distance_m,rc_throttle,gimbal_pitch_degrees,battery_percent,flycState,message
0.0460924952797725,36.8669167414337,0,2018-04-12 12:09:57,1825.0848973027223,0.0,0.0,0.0,1825.0848973027223,0.0,0.0,0.0,364,0.0,100,Motors_Started,
0.0460926640036692,36.8669166549806,100,2018-04-12 12:09:57,1825.0848973027223,0.0,0.0,0.021082800674649602,1825.0848973027223,0.0,0.0,0.021082800674649602,364,0.0,100,Motors_Started,Setting new Return-To-Home altitude to 30m (98 ft). Setting new Maximum Flight Altitude to 150m (492 ft)
0.0460928367770991,36.8669165749542,200,2018-04-12 12:09:57,1825.0848973027223,0.0,0.0,0.0422489013519648,1825.0848973027223,0.0,0.0,0.0422489013519648,364,0.0,100,Motors_Started,
0.046093003158072,36.8669164887926,300,2018-04-12 12:09:58,1825.0848973027223,0.0,0.0,0.0630812020185984,1825.0848973027223,0.0,0.0,0.0630812020185984,364,0.0,100,Motors_Started,
0.0460931812915253,36.8669163999282,400,2018-04-12 12:09:58,1825.0848973027223,0.0,0.0,0.08521890272700482,1825.0848973027223,0.0,0.0,0.08521890272700482,364,0.0,100,Motors_Started,
0.0460933897531196,36.8669163040123,500,2018-04-12 12:09:58,1825.0848973027223,0.0,0.0,0.11072800354329598,1825.0848973027223,0.0,0.0,0.11072800354329598,364,0.0,100,Motors_Started,
0.0460936047757147,36.866916208495496,600,2018-04-12 12:09:58,1825.0848973027223,0.0,0.0,0.136879004380128,1825.0848973027223,0.0,0.0,0.136879004380128,364,0.0,100,Motors_Started,
0.0460938193480451,36.8669161378523,700,2018-04-12 12:09:58,1825.0848973027223,0.0,0.0,0.161822005178304,1825.0848973027223,0.0,0.0,0.161822005178304,364,0.0,100,Motors_Started,
0.0460940295418966,36.8669160680104,800,2018-04-12 12:09:58,1825.0848973027223,0.0,0.0,0.186331005962592,1825.0848973027223,0.0,0.0,0.186331005962592,364,0.0,100,Motors_Started,
0.0460942062736667,36.866915989792204,900,2018-04-12 12:09:58,1825.0848973027223,0.0,0.0,0.207823006650336,1825.0848973027223,0.0,0.0,0.207823006650336,364,0.0,100,Motors_Started,
0.0460943825258601,36.866915905766604,1000,2018-04-12 12:09:58,1825.0848973027223,0.0,0.0,0.229528007344896,1825.0848973027223,0.0,0.0,0.229528007344896,364,0.0,100,Motors_Started,
0.046094527770036996,36.866915843091896,1100,2018-04-12 12:09:58,1825.0848973027223,0.0,0.0,0.24711900790780802,1825.0848973027223,0.0,0.0,0.24711900790780802,364,0.0,100,Motors_Started,
0.0460946855923154,36.8669157793844,1200,2018-04-12 12:09:58,1825.0848973027223,0.0,0.0,0.26603600851315196,1825.0848973027223,0.0,0.0,0.26603600851315196,364,0.0,100,Motors_Started,
0.0460948147906195,36.8669157347873,1300,2018-04-12 12:09:59,1825.0848973027223,0.0,0.0,0.28118800899801605,1825.0848973027223,0.0,0.0,0.28118800899801605,364,0.0,100,Motors_Started,
0.0460949563496277,36.866915684313,1400,2018-04-12 12:09:59,1825.0848973027223,0.0,0.0,0.297866009531712,1825.0848973027223,0.0,0.0,0.297866009531712,364,0.0,100,Motors_Started,
0.0460950455199641,36.8669156815919,1500,2018-04-12 12:09:59,1825.0848973027223,0.0,0.0,0.30711800982777604,1825.0848973027223,0.0,0.0,0.30711800982777604,387,0.0,100,Motors_Started,
0.0460951516489162,36.866915667324704,1600,2018-04-12 12:09:59,1825.0848973027223,0.0,0.0,0.31864001019648003,1825.0848973027223,0.0,0.0,0.31864001019648003,404,0.0,100,Assisted_Takeoff,
0.0460952147136669,36.8669156642586,1700,2018-04-12 12:09:59,1825.0848973027223,0.0,0.0,0.32527801040889603,1825.0848973027223,0.0,0.0,0.32527801040889603,550,0.0,100,Assisted_Takeoff,
0.0460953013428164,36.86691564309,1800,2018-04-12 12:09:59,1825.0848973027223,0.0,0.0,0.335104010723328,1825.0848973027223,0.0,0.0,0.335104010723328,915,0.0,100,Assisted_Takeoff,
0.0460953861774207,36.8669156244113,1900,2018-04-12 12:09:59,1825.0848973027223,0.0,0.0,0.3446500110288,1825.0848973027223,0.0,0.0,0.3446500110288,1024,0.0,100,Assisted_Takeoff,
0.0460954944200932,36.866915594131996,2000,2018-04-12 12:09:59,1825.0848973027223,0.0,0.0,0.357094011427008,1825.0848973027223,0.0,0.0,0.357094011427008,1024,0.0,100,Assisted_Takeoff,
0.0460955457307351,36.86691556312061,2100,2018-04-12 12:09:59,1825.0848973027223,0.0,0.0,0.363657011637024,1825.0848973027223,0.0,0.0,0.363657011637024,1024,0.0,100,Assisted_Takeoff,
0.0460956114905605,36.8669155254313,2200,2018-04-12 12:10:00,1825.0848973027223,0.0,0.0,0.37199101190371203,1825.0848973027223,0.0,0.0,0.37199101190371203,1024,0.0,100,Assisted_Takeoff,
0.0460957278013588,36.866915504402996,2400,2018-04-12 12:10:00,1825.0848973027223,0.0,0.0,0.384899012316768,1825.0848973027223,0.0,0.0,0.384899012316768,1024,0.0,100,Assisted_Takeoff,
0.046095786474196,36.86691548742,2500,2018-04-12 12:10:00,1825.0848973027223,0.0,0.0,0.391668012533376,1825.0848973027223,0.0,0.0,0.391668012533376,1024,0.0,100,Assisted_Takeoff,
0.0460958630876007,36.8669154603708,2600,2018-04-12 12:10:00,1825.0848973027223,0.0,0.0,0.400701012822432,1825.0848973027223,0.0,0.0,0.400701012822432,1024,0.0,100,Assisted_Takeoff,
0.0460959067217576,36.866915454532,2700,2018-04-12 12:10:00,1825.0848973027223,0.0,0.0,0.40546901297500804,1825.0848973027223,0.0,0.0,0.40546901297500804,1024,0.0,100,Assisted_Takeoff,
0.0460959620579131,36.866915445873204,2800,2018-04-12 12:10:00,1825.0848973027223,0.0,0.0,0.41156801317017605,1825.0848973027223,0.0,0.0,0.41156801317017605,1024,0.0,100,Assisted_Takeoff,
0.0460959877946562,36.866915456693704,2900,2018-04-12 12:10:00,1825.0848973027223,0.0,0.0,0.41383301324265603,1825.0848973027223,0.0,0.0,0.41383301324265603,1024,0.0,100,Assisted_Takeoff,
0.04609603280729099,36.86691545784829,3000,2018-04-12 12:10:00,1825.0848973027223,0.0,0.0,0.418491013391712,1825.0848973027223,0.0,0.0,0.418491013391712,1024,0.0,100,Assisted_Takeoff,
0.0460960858750239,36.8669154437987,3100,2018-04-12 12:10:00,1825.0848973027223,0.0,0.0,0.424572013586304,1825.0848973027223,0.0,0.0,0.424572013586304,1024,0.0,100,Assisted_Takeoff,
0.0460961551189054,36.8669154214702,3200,2018-04-12 12:10:00,1825.0848973027223,0.0,0.0,0.4326580138450561,1825.0848973027223,0.0,0.0,0.4326580138450561,1024,0.0,100,Assisted_Takeoff,
0.0460962051951867,36.866915413207295,3300,2018-04-12 12:10:01,1825.0848973027223,0.0,0.0,0.438209014022688,1825.0848973027223,0.0,0.0,0.438209014022688,1050,0.0,100,Assisted_Takeoff,
0.0460962642979331,36.866915403884796,3400,2018-04-12 12:10:01,1825.0848973027223,0.0,0.0,0.44474801423193605,1825.0848973027223,0.0,0.0,0.44474801423193605,1074,0.0,100,Assisted_Takeoff,
0.046096305023689,36.866915408102,3500,2018-04-12 12:10:01,1825.0848973027223,0.0,0.0,0.44886401436364803,1825.0848973027223,0.0,0.0,0.44886401436364803,1169,0.0,100,Assisted_Takeoff,
0.046096356297691,36.8669154077868,3600,2018-04-12 12:10:01,1825.0848973027223,0.0,0.0,0.454261014536352,1825.0848973027223,0.0,0.0,0.454261014536352,1227,0.0,100,Assisted_Takeoff,
0.0460963595822625,36.86691541761861,3700,2018-04-12 12:10:01,1825.0848973027223,0.0,0.0,0.454251014536032,1825.0848973027223,0.0,0.0,0.454261014536352,1287,0.0,100,Assisted_Takeoff,
0.0460963772826345,36.8669154206857,3800,2018-04-12 12:10:01,1825.0848973027223,0.0,0.0,0.456004014592128,1825.0848973027223,0.0,0.0,0.456004014592128,1331,0.0,100,Assisted_Takeoff,
0.0460964174986875,36.866915399990894,3900,2018-04-12 12:10:01,1825.0848973027223,0.0,0.0,0.460979014751328,1825.0848973027223,0.0,0.0,0.460979014751328,1358,0.0,100,Assisted_Takeoff,
0.0460964728193727,36.8669153745965,4000,2018-04-12 12:10:01,1825.0848973027223,0.0,0.0,0.46771501496688,1825.0848973027223,0.0,0.0,0.46771501496688,1366,0.0,100,Assisted_Takeoff,
0.0460965183205407,36.8669153567039,4100,2018-04-12 12:10:01,1825.0848973027223,0.0,0.0,0.473147015140704,1825.0848973027223,0.0,0.0,0.473147015140704,1364,0.0,100,Assisted_Takeoff,
0.0460965563105107,36.866915348507106,4200,2018-04-12 12:10:01,1825.0848973027223,0.0,0.0,0.477438015278016,1825.0848973027223,0.0,0.0,0.477438015278016,1365,0.0,100,Assisted_Takeoff,Home Point Recorded. RTH Altitude:  30m.
0.0460965583200105,36.8669153285052,4300,2018-04-12 12:10:02,1825.0848973027223,0.0,0.0,0.47837601530803203,1825.0848973027223,0.0,0.0,0.47837601530803203,1368,0.0,100,P-GPS,Obstacle Avoided. Revise Flight Route
0.0460965417725769,36.8669153165625,4400,2018-04-12 12:10:02,1825.0848973027223,0.0,0.0,0.47707801526649607,1825.0848973027223,0.0,0.0,0.47837601530803203,1368,0.0,100,P-GPS,
0.0460965077152991,36.8669153020038,4500,2018-04-12 12:10:02,1825.1848973059223,0.10000000320000002,0.0,0.47405101516963205,1825.1848973059223,0.10000000320000002,0.0,0.47837601530803203,1369,0.0,100,P-GPS,
0.0460964879248192,36.8669152732452,4600,2018-04-12 12:10:02,1825.2848973091225,0.20000000640000004,0.0,0.473074015138368,1825.2848973091225,0.20000000640000004,0.0,0.47837601530803203,1368,0.0,100,P-GPS,
0.0460964767781201,36.86691520256021,4700,2018-04-12 12:10:02,1825.3848973123224,0.3000000096,0.0,0.474688015190016,1825.3848973123224,0.3000000096,0.0,0.47837601530803203,1369,0.0,100,P-GPS,
0.0460964878678237,36.866915130205996,4800,2018-04-12 12:10:02,1825.4848973155224,0.4000000128000001,0.0,0.478791015321312,1825.4848973155224,0.4000000128000001,0.0,0.478791015321312,1366,0.0,100,P-GPS,
0.0460965468883337,36.86691505222571,4900,2018-04-12 12:10:02,1825.6848973219226,0.6000000192,0.0,0.4881550156209601,1825.6848973219226,0.6000000192,0.0,0.4881550156209601,1366,0.0,100,P-GPS,
0.0460966328766905,36.8669149865804,5000,2018-04-12 12:10:02,1825.8848973283223,0.8000000256000002,0.0,0.49980001599359997,1825.8848973283223,0.8000000256000002,0.0,0.49980001599359997,1367,0.0,100,P-GPS,
0.0460967520462222,36.8669149084831,5100,2018-04-12 12:10:02,1825.9848973315222,0.9000000288000001,0.0,0.5153990164927681,1825.9848973315222,0.9000000288000001,0.0,0.5153990164927681,1369,0.0,100,P-GPS,
0.0460969652046561,36.866914756762704,5300,2018-04-12 12:10:03,1826.4848973475225,1.4000000448000003,0.0,0.543878017404096,1826.4848973475225,1.4000000448000003,0.0,0.543878017404096,1366,0.0,100,P-GPS,
0.0460970282213676,36.866914703133,5400,2018-04-12 12:10:03,1826.6848973539222,1.6000000512000003,0.0,0.552709017686688,1826.6848973539222,1.6000000512000003,0.0,0.552709017686688,1366,0.0,100,P-GPS,
0.0460970502485154,36.8669146812428,5500,2018-04-12 12:10:03,1826.8848973603224,1.8000000576000001,0.0,0.5559430177901761,1826.8848973603224,1.8000000576000001,0.0,0.5559430177901761,1366,0.0,100,P-GPS,
0.04609706087981201,36.866914668187796,5600,2018-04-12 12:10:03,1827.0848973667223,2.000000064,0.0,0.557619017843808,1827.0848973667223,2.000000064,0.0,0.557619017843808,1366,0.0,100,P-GPS,
0.0460970273224665,36.8669146661064,5700,2018-04-12 12:10:03,1827.2848973731225,2.2000000704,0.0,0.55432001773824,1827.2848973731225,2.2000000704,0.0,0.557619017843808,1366,0.0,100,P-GPS,
0.0460969967777425,36.866914650301105,5800,2018-04-12 12:10:03,1827.4848973795222,2.4000000768,0.0,0.551971017663072,1827.4848973795222,2.4000000768,0.0,0.557619017843808,1367,0.0,100,P-GPS,
0.0460969108219546,36.866914619879,5900,2018-04-12 12:10:03,1827.6848973859223,2.6000000832000003,0.0,0.544774017432768,1827.6848973859223,2.6000000832000003,0.0,0.557619017843808,1367,0.0,100,P-GPS,
0.046096839589743,36.8669145852211,6000,2018-04-12 12:10:03,1827.8848973923223,2.8000000896000006,0.0,0.5393470172591041,1827.8848973923223,2.8000000896000006,0.0,0.557619017843808,1364,0.0,100,P-GPS,
0.0460967390886933,36.866914598935296,6100,2018-04-12 12:10:03,1828.0848973987224,3.0000000960000004,0.0,0.5286700169174401,1828.0848973987224,3.0000000960000004,0.0,0.557619017843808,1365,0.0,100,P-GPS,
0.0460966711158124,36.8669146098618,6200,2018-04-12 12:10:03,1828.2848974051221,3.2000001024000007,0.0,0.52138001668416,1828.2848974051221,3.2000001024000007,0.0,0.557619017843808,1362,0.0,100,P-GPS,
0.046096599088106,36.866914575636,6300,2018-04-12 12:10:04,1828.4848974115223,3.4000001088000005,0.0,0.5160240165127681,1828.4848974115223,3.4000001088000005,0.0,0.557619017843808,1365,0.0,100,P-GPS,
0.0460965573006046,36.866914528700796,6400,2018-04-12 12:10:04,1828.6848974179225,3.6000001152000003,0.0,0.51439501646064,1828.6848974179225,3.6000001152000003,0.0,0.557619017843808,1366,0.0,100,P-GPS,
0.046096509317687995,36.866914500894104,6500,2018-04-12 12:10:04,1828.8848974243224,3.8000001215999997,0.0,0.511216016358912,1828.8848974243224,3.8000001215999997,0.0,0.557619017843808,1369,0.0,100,P-GPS,
0.0460964866318347,36.866914477937705,6600,2018-04-12 12:10:04,1828.9848974275224,3.9000001248,0.0,0.5102690163286081,1828.9848974275224,3.9000001248,0.0,0.557619017843808,1377,0.0,100,P-GPS,
0.0460965113801123,36.866914376050296,6700,2018-04-12 12:10:04,1829.1848974339225,4.100000131200001,0.0,0.518322016586304,1829.1848974339225,4.100000131200001,0.0,0.557619017843808,1387,0.0,100,P-GPS,
0.0460965590723517,36.86691426513671,6800,2018-04-12 12:10:04,1829.3848974403222,4.3000001376,0.0,0.529211016934752,1829.3848974403222,4.3000001376,0.0,0.557619017843808,1391,0.0,100,P-GPS,
0.046096583225432995,36.8669141375875,6900,2018-04-12 12:10:04,1829.5848974467224,4.5000001439999995,0.0,0.5389920172477439,1829.5848974467224,4.5000001439999995,0.0,0.557619017843808,1407,0.0,100,P-GPS,
0.0460966133622319,36.8669140244605,7000,2018-04-12 12:10:04,1829.7848974531223,4.700000150400001,0.0,0.5486480175567361,1829.7848974531223,4.700000150400001,0.0,0.557619017843808,1416,0.0,100,P-GPS,
0.0460966031437458,36.8669139537614,7100,2018-04-12 12:10:04,1829.9848974595225,4.9000001568,0.0,0.5520760176664321,1829.9848974595225,4.9000001568,0.0,0.557619017843808,1428,0.0,100,P-GPS,
0.0460966180497079,36.8669138896376,7200,2018-04-12 12:10:04,1830.1848974659222,5.1000001632,0.0,0.557474017839168,1830.1848974659222,5.1000001632,0.0,0.557619017843808,1445,0.0,100,P-GPS,
0.0460966843045804,36.866913777137206,7300,2018-04-12 12:10:05,1830.4848974755223,5.4000001727999996,0.0,0.5706830182618561,1830.4848974755223,5.4000001727999996,0.0,0.5706830182618561,1457,0.0,100,P-GPS,
0.046096781108248004,36.8669136538213,7400,2018-04-12 12:10:05,1830.6848974819225,5.600000179200001,0.0,0.5874130187972161,1830.6848974819225,5.600000179200001,0.0,0.5874130187972161,1468,0.0,100,P-GPS,
0.0460968444929879,36.86691358172779,7500,2018-04-12 12:10:05,1830.9848974915226,5.9000001888,0.0,0.5978230191303361,1830.9848974915226,5.9000001888,0.0,0.5978230191303361,1485,0.0,100,P-GPS,
0.0460969122948822,36.8669135179873,7600,2018-04-12 12:10:05,1831.1848974979223,6.1000001952,0.0,0.6080910194589121,1831.1848974979223,6.1000001952,0.0,0.6080910194589121,1500,0.0,100,P-GPS,
0.0460969912784871,36.866913450934504,7700,2018-04-12 12:10:05,1831.4848975075224,6.400000204800001,0.0,0.619582019826624,1831.4848975075224,6.400000204800001,0.0,0.619582019826624,1529,0.0,100,P-GPS,
0.0460970898408743,36.8669133713374,7800,2018-04-12 12:10:05,1831.7848975171225,6.7000002144,0.0,0.6336560202769921,1831.7848975171225,6.7000002144,0.0,0.6336560202769921,1559,0.0,100,P-GPS,
0.0460971832476077,36.8669132351586,7900,2018-04-12 12:10:05,1832.0848975267222,7.000000224,0.0,0.6510160208325121,1832.0848975267222,7.000000224,0.0,0.6510160208325121,1595,0.0,100,P-GPS,
0.046097269454176,36.866913082972296,8000,2018-04-12 12:10:05,1832.3848975363223,7.3000002336000005,0.0,0.6688760214040321,1832.3848975363223,7.3000002336000005,0.0,0.6688760214040321,1611,0.0,100,P-GPS,
0.0460973436249147,36.8669129401801,8100,2018-04-12 12:10:05,1832.7848975491222,7.7000002464,0.0,0.685123021923936,1832.7848975491222,7.7000002464,0.0,0.685123021923936,1627,0.0,100,P-GPS,
0.046097397970162005,36.8669128176468,8200,2018-04-12 12:10:05,1833.0848975587223,8.000000256,0.0,0.6983220223463039,1833.0848975587223,8.000000256,0.0,0.6983220223463039,1645,0.0,100,P-GPS,
0.0460974116808462,36.8669127411259,8300,2018-04-12 12:10:06,1833.4848975715224,8.4000002688,0.0,0.7048520225552639,1833.4848975715224,8.4000002688,0.0,0.7048520225552639,1680,0.0,100,P-GPS,
0.0460974251863465,36.8669126614223,8400,2018-04-12 12:10:06,1833.8848975843223,8.8000002816,0.0,0.711636022772352,1833.8848975843223,8.8000002816,0.0,0.711636022772352,1684,0.0,100,P-GPS,
0.0460974174903202,36.866912590010706,8500,2018-04-12 12:10:06,1834.3848976003223,9.3000002976,0.0,0.716071022914272,1834.3848976003223,9.3000002976,0.0,0.716071022914272,1684,0.0,100,P-GPS,
0.0460974297932146,36.866912507319604,8600,2018-04-12 12:10:06,1834.7848976131222,9.7000003104,0.0,0.723072023138304,1834.7848976131222,9.7000003104,0.0,0.723072023138304,1684,0.0,100,P-GPS,
0.0460974233804021,36.866912426967204,8700,2018-04-12 12:10:06,1835.2848976291225,10.2000003264,0.0,0.72838502330832,1835.2848976291225,10.2000003264,0.0,0.72838502330832,1684,0.0,100,P-GPS,
0.0460974499256677,36.866912345678,8800,2018-04-12 12:10:06,1835.7848976451223,10.700000342400001,0.0,0.7365770235704641,1835.7848976451223,10.700000342400001,0.0,0.7365770235704641,1684,0.0,100,P-GPS,
0.0460975105982342,36.8669122980838,8900,2018-04-12 12:10:06,1836.2848976611224,11.200000358400002,0.0,0.745137023844384,1836.2848976611224,11.200000358400002,0.0,0.745137023844384,1684,0.0,100,P-GPS,
0.0460975905002815,36.8669122362811,9000,2018-04-12 12:10:06,1836.7848976771224,11.700000374400002,0.0,0.7563460242030721,1836.7848976771224,11.700000374400002,0.0,0.7563460242030721,1684,0.0,100,P-GPS,
0.0460976186064107,36.8669121869933,9100,2018-04-12 12:10:06,1837.2848976931223,12.2000003904,0.0,0.7623210243942721,1837.2848976931223,12.2000003904,0.0,0.7623210243942721,1684,0.0,100,P-GPS,
0.0460976396581205,36.8669121189796,9200,2018-04-12 12:10:06,1837.7848977091223,12.700000406400001,0.0,0.769107024611424,1837.7848977091223,12.700000406400001,0.0,0.769107024611424,1684,0.0,100,P-GPS,
0.0460976399227426,36.8669121042957,9300,2018-04-12 12:10:07,1838.2848977251224,13.2000004224,0.0,0.7702210246470721,1838.2848977251224,13.2000004224,0.0,0.7702210246470721,1684,0.0,100,P-GPS,
0.0460976513014951,36.8669120726048,9400,2018-04-12 12:10:07,1838.7848977411224,13.7000004384,0.0,0.773522024752704,1838.7848977411224,13.7000004384,0.0,0.773522024752704,1684,0.0,100,P-GPS,
0.0460976403168261,36.8669120371193,9500,2018-04-12 12:10:07,1839.2848977571223,14.200000454400003,0.0,0.7752750248088,1839.2848977571223,14.200000454400003,0.0,0.7752750248088,1684,0.0,100,P-GPS,
0.0460976554491419,36.866911997215,9600,2018-04-12 12:10:07,1839.7848977731226,14.7000004704,0.0,0.7795140249444481,1839.7848977731226,14.7000004704,0.0,0.7795140249444481,1684,0.0,100,P-GPS,
0.0460976992127601,36.8669119598319,9700,2018-04-12 12:10:07,1840.2848977891224,15.200000486399999,0.0,0.78591002514912,1840.2848977891224,15.200000486399999,0.0,0.78591002514912,1684,0.0,100,P-GPS,
0.0460977736139237,36.866911916796205,9800,2018-04-12 12:10:07,1840.7848978051225,15.700000502400002,0.0,0.795244025447808,1840.7848978051225,15.700000502400002,0.0,0.795244025447808,1684,0.0,100,P-GPS,
0.0460978484922213,36.866911875457895,9900,2018-04-12 12:10:07,1841.2848978211223,16.2000005184,0.0,0.804494025743808,1841.2848978211223,16.2000005184,0.0,0.804494025743808,1684,0.0,100,P-GPS,
0.0460979267251136,36.8669118306274,10000,2018-04-12 12:10:07,1841.7848978371223,16.7000005344,0.0,0.814288026057216,1841.7848978371223,16.7000005344,0.0,0.814288026057216,1684,0.0,100,P-GPS,
0.0460979480129477,36.8669117838688,10100,2018-04-12 12:10:07,1842.2848978531224,17.2000005504,0.0,0.81953502622512,1842.2848978531224,17.2000005504,0.0,0.81953502622512,1684,0.0,100,P-GPS,
0.0460979506844101,36.866911703697795,10200,2018-04-12 12:10:07,1842.7848978691222,17.700000566400004,0.0,0.8257770264248641,1842.7848978691222,17.700000566400004,0.0,0.8257770264248641,1684,0.0,100,P-GPS,
0.046097916288415995,36.866911622394205,10300,2018-04-12 12:10:08,1843.2848978851225,18.2000005824,0.0,0.8291520265328641,1843.2848978851225,18.2000005824,0.0,0.8291520265328641,1684,0.0,100,P-GPS,
0.0460978948279668,36.8669115341817,10400,2018-04-12 12:10:08,1843.7848979011223,18.7000005984,0.0,0.8341980266943361,1843.7848979011223,18.7000005984,0.0,0.8341980266943361,1684,-0.1,100,P-GPS,
0.0460978535175995,36.8669114382584,10500,2018-04-12 12:10:08,1844.3848979203226,19.300000617600002,0.0,0.8383670268277441,1844.3848979203226,19.300000617600002,0.0,0.8383670268277441,1684,-0.3,100,P-GPS,
0.0460978463801294,36.86691132266179,10600,2018-04-12 12:10:08,1844.8848979363224,19.800000633599996,0.35999970196000003,0.846901027100832,1844.8848979363224,19.800000633599996,0.35999970196000003,0.846901027100832,1684,-1.1,100,P-GPS,
0.046097822193665004,36.866911174432296,10700,2018-04-12 12:10:08,1845.3848979523223,20.3000006496,0.0,0.856846027419072,1845.3848979523223,20.3000006496,0.35999970196000003,0.856846027419072,1684,-2.9,100,P-GPS,
0.0460978189416623,36.8669110381529,10800,2018-04-12 12:10:08,1845.8848979683223,20.800000665600002,0.0,0.8676130277636159,1845.8848979683223,20.800000665600002,0.35999970196000003,0.8676130277636159,1684,-6.6,100,P-GPS,
0.0460977624313987,36.8669109489961,10900,2018-04-12 12:10:08,1846.3848979843224,21.300000681600004,0.0,0.870646027860672,1846.3848979843224,21.300000681600004,0.35999970196000003,0.870646027860672,1684,-10.6,100,P-GPS,
0.0460977149744696,36.86691084953571,11000,2018-04-12 12:10:08,1846.9848980035224,21.900000700799996,0.35999970196000003,0.8753530280112961,1846.9848980035224,21.900000700799996,0.35999970196000003,0.8753530280112961,1684,-14.5,100,P-GPS,
0.0460976522598344,36.8669106983048,11100,2018-04-12 12:10:08,1847.4848980195225,22.400000716800005,0.35999970196000003,0.8834680282709761,1847.4848980195225,22.400000716800005,0.35999970196000003,0.8834680282709761,1684,-18.2,100,P-GPS,
0.0460976200321134,36.866910545638795,11200,2018-04-12 12:10:08,1847.9848980355223,22.900000732800002,0.35999970196000003,0.894162028613184,1847.9848980355223,22.900000732800002,0.35999970196000003,0.894162028613184,1684,-19.6,100,P-GPS,
0.0460975703238604,36.8669104214676,11300,2018-04-12 12:10:09,1848.4848980515224,23.400000748800004,0.0,0.901373028843936,1848.4848980515224,23.400000748800004,0.35999970196000003,0.901373028843936,1684,-19.6,100,P-GPS,
0.046097550751592005,36.8669103216586,11400,2018-04-12 12:10:09,1848.9848980675224,23.9000007648,0.0,0.9087060290785921,1848.9848980675224,23.9000007648,0.35999970196000003,0.9087060290785921,1684,-19.6,100,P-GPS,
0.0460975720475684,36.8669101869675,11500,2018-04-12 12:10:09,1849.5848980867224,24.500000784000004,0.0,0.921969029503008,1849.5848980867224,24.500000784000004,0.35999970196000003,0.921969029503008,1684,-19.6,100,P-GPS,
0.0460976015403176,36.8669100648067,11600,2018-04-12 12:10:09,1850.0848981027223,25.000000800000002,0.0,0.93473502991152,1850.0848981027223,25.000000800000002,0.35999970196000003,0.93473502991152,1684,-19.6,100,P-GPS,
0.0460976010257293,36.8669099639519,11700,2018-04-12 12:10:09,1850.5848981187225,25.500000816,0.0,0.943634030196288,1850.5848981187225,25.500000816,0.35999970196000003,0.943634030196288,1684,-19.6,100,P-GPS,
0.0460975911679436,36.8669099185385,11800,2018-04-12 12:10:09,1851.0848981347224,26.000000832,0.0,0.9470160303045122,1851.0848981347224,26.000000832,0.35999970196000003,0.9470160303045122,1684,-19.6,100,P-GPS,
0.04609753232493401,36.8669099131674,11900,2018-04-12 12:10:09,1851.5848981507222,26.500000848000003,0.0,0.9435950301950401,1851.5848981507222,26.500000848000003,0.35999970196000003,0.9470160303045122,1684,-19.6,100,P-GPS,
0.0460974750582582,36.8669099233474,12000,2018-04-12 12:10:09,1852.0848981667225,27.000000864000004,0.0,0.938914030045248,1852.0848981667225,27.000000864000004,0.35999970196000003,0.9470160303045122,1684,-19.6,100,P-GPS,
0.0460973968343223,36.866909947409,12100,2018-04-12 12:10:09,1852.5848981827223,27.50000088,0.0,0.9316390298124481,1852.5848981827223,27.50000088,0.35999970196000003,0.9470160303045122,1684,-19.6,99,P-GPS,
0.0460973592107522,36.866909959585,12200,2018-04-12 12:10:09,1853.1848982019226,28.1000008992,0.0,0.9280960296990721,1853.1848982019226,28.1000008992,0.35999970196000003,0.9470160303045122,1684,-19.6,99,P-GPS,
0.0460973132918884,36.8669099694626,12300,2018-04-12 12:10:10,1853.6848982179224,28.600000915200003,0.0,0.924234029575488,1853.6848982179224,28.600000915200003,0.35999970196000003,0.9470160303045122,1684,-19.6,99,P-GPS,
0.0460973100154591,36.866909974176295,12400,2018-04-12 12:10:10,1854.1848982339222,29.1000009312,0.0,0.9235960295550721,1854.1848982339222,29.1000009312,0.35999970196000003,0.9470160303045122,1684,-19.6,99,P-GPS,
0.0460972914349131,36.8669099770224,12500,2018-04-12 12:10:10,1854.6848982499223,29.6000009472,0.0,0.922142029508544,1854.6848982499223,29.6000009472,0.35999970196000003,0.9470160303045122,1684,-19.6,99,P-GPS,
0.0460973004442795,36.8669099782579,12600,2018-04-12 12:10:10,1855.1848982659224,30.1000009632,0.0,0.9226090295234879,1855.1848982659224,30.1000009632,0.35999970196000003,0.9470160303045122,1684,-19.6,99,P-GPS,
0.0460972855252898,36.86691001343021,12700,2018-04-12 12:10:10,1855.6848982819224,30.6000009792,0.0,0.91846002939072,1855.6848982819224,30.6000009792,0.35999970196000003,0.9470160303045122,1684,-19.6,99,P-GPS,
0.0460972959636158,36.8669100555073,12800,2018-04-12 12:10:10,1856.1848982979222,31.100000995200002,0.0,0.915329029290528,1856.1848982979222,31.100000995200002,0.35999970196000003,0.9470160303045122,1684,-19.6,99,P-GPS,
0.0460972604472523,36.8669100755649,12900,2018-04-12 12:10:10,1856.6848983139225,31.6000010112,0.0,0.911216029158912,1856.6848983139225,31.6000010112,0.35999970196000003,0.9470160303045122,1684,-19.6,99,P-GPS,
0.0460972427737496,36.8669100892344,13000,2018-04-12 12:10:10,1857.2848983331223,32.2000010304,0.0,0.9088360290827522,1857.2848983331223,32.2000010304,0.35999970196000003,0.9470160303045122,1684,-19.6,99,P-GPS,
0.0460971710155506,36.866910148105895,13100,2018-04-12 12:10:10,1857.7848983491226,32.700001046400004,0.0,0.8988760287640319,1857.7848983491226,32.700001046400004,0.35999970196000003,0.9470160303045122,1684,-19.6,99,P-GPS,
0.0460971236392294,36.866910213729504,13200,2018-04-12 12:10:10,1858.2848983651224,33.2000010624,0.0,0.8898750284760001,1858.2848983651224,33.2000010624,0.35999970196000003,0.9470160303045122,1684,-19.6,99,P-GPS,
0.0460970225788092,36.8669102943726,13300,2018-04-12 12:10:11,1858.7848983811223,33.70000107840001,0.0,0.8760680280341762,1858.7848983811223,33.70000107840001,0.35999970196000003,0.9470160303045122,1684,-19.6,99,P-GPS,
0.0460969624053608,36.8669103561223,13400,2018-04-12 12:10:11,1859.2848983971223,34.2000010944,0.0,0.866604027731328,1859.2848983971223,34.2000010944,0.35999970196000003,0.9470160303045122,1684,-19.6,99,P-GPS,
0.0460968986485215,36.866910416841606,13500,2018-04-12 12:10:11,1859.7848984131224,34.7000011104,0.0,0.8570090274242881,1859.7848984131224,34.7000011104,0.35999970196000003,0.9470160303045122,1684,-19.6,99,P-GPS,
0.0460968766230022,36.8669104677915,13600,2018-04-12 12:10:11,1860.3848984323222,35.300001129600005,0.0,0.8509610272307522,1860.3848984323222,35.300001129600005,0.35999970196000003,0.9470160303045122,1684,-19.6,99,P-GPS,
0.0460968048411908,36.866910561769,13700,2018-04-12 12:10:11,1860.8848984483225,35.8000011456,0.0,0.837822026810304,1860.8848984483225,35.8000011456,0.35999970196000003,0.9470160303045122,1684,-19.6,99,P-GPS,
0.046096760536115,36.86691065090871,13800,2018-04-12 12:10:11,1861.3848984643223,36.3000011616,0.0,0.8268750264600001,1861.3848984643223,36.3000011616,0.35999970196000003,0.9470160303045122,1684,-19.6,99,P-GPS,
0.046096684992597996,36.8669107701189,13900,2018-04-12 12:10:11,1861.8848984803224,36.8000011776,0.0,0.811197025958304,1861.8848984803224,36.8000011776,0.35999970196000003,0.9470160303045122,1684,-19.6,99,P-GPS,
0.0460966441422661,36.8669108601734,14000,2018-04-12 12:10:11,1862.3848984963224,37.3000011936,0.0,0.8003920256125441,1862.3848984963224,37.3000011936,0.35999970196000003,0.9470160303045122,1684,-19.6,99,P-GPS,
0.0460965689960894,36.866910936531504,14100,2018-04-12 12:10:11,1862.8848985123225,37.800001209600005,0.0,0.788639025236448,1862.8848985123225,37.800001209600005,0.35999970196000003,0.9470160303045122,1684,-19.6,99,P-GPS,
0.0460965278941629,36.866910992736294,14200,2018-04-12 12:10:11,1863.3848985283223,38.3000012256,0.0,0.7808970249887041,1863.3848985283223,38.3000012256,0.35999970196000003,0.9470160303045122,1684,-19.6,99,P-GPS,
0.0460964880575374,36.8669110816067,14300,2018-04-12 12:10:12,1863.9848985475226,38.9000012448,0.0,0.7702650246484799,1863.9848985475226,38.9000012448,0.35999970196000003,0.9470160303045122,1684,-19.6,99,P-GPS,
0.0460964783080432,36.8669111634868,14400,2018-04-12 12:10:12,1864.4848985635224,39.4000012608,0.0,0.7622120243907841,1864.4848985635224,39.4000012608,0.35999970196000003,0.9470160303045122,1684,-19.6,99,P-GPS,
0.0460964383354426,36.866911246933704,14500,2018-04-12 12:10:12,1864.9848985795222,39.900001276800005,0.0,0.7520790240665279,1864.9848985795222,39.900001276800005,0.35999970196000003,0.9470160303045122,1684,-19.6,99,P-GPS,
0.0460964241012137,36.8669113107935,14600,2018-04-12 12:10:12,1865.3848985923223,40.3000012896,0.0,0.7453920238525441,1865.3848985923223,40.3000012896,0.35999970196000003,0.9470160303045122,1684,-19.6,99,P-GPS,
0.0460964079161088,36.8669113979853,14700,2018-04-12 12:10:12,1865.8848986083224,40.8000013056,0.0,0.7364930235677761,1865.8848986083224,40.8000013056,0.35999970196000003,0.9470160303045122,1684,-19.6,99,P-GPS,
0.0460964180311887,36.866911485361705,14800,2018-04-12 12:10:12,1866.3848986243224,41.30000132160001,0.0,0.7293480233391361,1866.3848986243224,41.30000132160001,0.35999970196000003,0.9470160303045122,1684,-19.6,99,P-GPS,
0.0460963900032248,36.8669115713892,14900,2018-04-12 12:10:12,1866.8848986403223,41.80000133760001,0.0,0.7198240230343681,1866.8848986403223,41.80000133760001,0.35999970196000003,0.9470160303045122,1684,-19.6,99,P-GPS,
0.0460963710652353,36.8669116342614,15000,2018-04-12 12:10:12,1867.3848986563225,42.30000135360001,0.0,0.7129770228152641,1867.3848986563225,42.30000135360001,0.35999970196000003,0.9470160303045122,1684,-19.6,99,P-GPS,
0.0460963355741127,36.866911677804,15100,2018-04-12 12:10:12,1867.8848986723224,42.800001369600004,0.0,0.7067340226154879,1867.8848986723224,42.800001369600004,0.35999970196000003,0.9470160303045122,1684,-19.6,99,P-GPS,
0.0460962921182704,36.8669117418073,15300,2018-04-12 12:10:13,1868.9848987075225,43.9000014048,0.0,0.6981430223405761,1868.9848987075225,43.9000014048,0.35999970196000003,0.9470160303045122,1684,-19.6,99,P-GPS,
0.0460962762857236,36.8669117913788,15400,2018-04-12 12:10:13,1869.4848987235223,44.4000014208,0.0,0.69269002216608,1869.4848987235223,44.4000014208,0.35999970196000003,0.9470160303045122,1684,-19.6,99,P-GPS,
0.0460962765788435,36.866911847773,15500,2018-04-12 12:10:13,1869.9848987395224,44.9000014368,0.0,0.687737022007584,1869.9848987395224,44.9000014368,0.35999970196000003,0.9470160303045122,1684,-19.6,99,P-GPS,
0.0460963009558359,36.8669118983525,15600,2018-04-12 12:10:13,1870.4848987555224,45.400001452800005,0.0,0.6849660219189121,1870.4848987555224,45.400001452800005,0.35999970196000003,0.9470160303045122,1684,-19.6,99,P-GPS,
0.0460962825723317,36.8669120153857,15700,2018-04-12 12:10:13,1870.9848987715225,45.9000014688,0.0,0.6735010215520321,1870.9848987715225,45.9000014688,0.35999970196000003,0.9470160303045122,1684,-19.6,99,P-GPS,
0.0460962834020239,36.866912123461,15800,2018-04-12 12:10:13,1871.4848987875223,46.4000014848,0.0,0.664223021255136,1871.4848987875223,46.4000014848,0.35999970196000003,0.9470160303045122,1684,-19.6,99,P-GPS,
0.0460962807036922,36.866912213753096,15900,2018-04-12 12:10:13,1871.9848988035226,46.9000015008,0.0,0.6562980210015361,1871.9848988035226,46.9000015008,0.35999970196000003,0.9470160303045122,1684,-19.6,99,P-GPS,
0.0460963078392687,36.866912264769894,16000,2018-04-12 12:10:13,1872.4848988195224,47.400001516799996,0.0,0.6539080209250561,1872.4848988195224,47.400001516799996,0.35999970196000003,0.9470160303045122,1684,-19.6,99,P-GPS,
0.0460963054853529,36.866912327470295,16100,2018-04-12 12:10:13,1872.8848988323225,47.8000015296,0.0,0.648444020750208,1872.8848988323225,47.8000015296,0.35999970196000003,0.9470160303045122,1684,-19.6,99,P-GPS,
0.0460963063085314,36.8669123780246,16200,2018-04-12 12:10:13,1873.3848988483223,48.300001545600004,0.0,0.6442590206162879,1873.3848988483223,48.300001545600004,0.35999970196000003,0.9470160303045122,1684,-19.6,99,P-GPS,
0.0460962781714618,36.866912462166795,16300,2018-04-12 12:10:14,1873.8848988643224,48.8000015616,0.0,0.63516502032528,1873.8848988643224,48.8000015616,0.35999970196000003,0.9470160303045122,1684,-19.6,99,P-GPS,
0.0460962770063101,36.8669125420702,16400,2018-04-12 12:10:14,1874.3848988803225,49.30000157760001,0.0,0.6284480201103361,1874.3848988803225,49.30000157760001,0.35999970196000003,0.9470160303045122,1684,-19.6,99,P-GPS,
0.0460962693518091,36.8669125945354,16500,2018-04-12 12:10:14,1874.8848988963223,49.8000015936,0.0,0.623552019953664,1874.8848988963223,49.8000015936,0.35999970196000003,0.9470160303045122,1684,-19.6,99,P-GPS,
0.0460962681451321,36.8669126166501,16600,2018-04-12 12:10:14,1875.3848989123226,50.3000016096,0.0,0.621644019892608,1875.3848989123226,50.3000016096,0.35999970196000003,0.9470160303045122,1684,-19.6,99,P-GPS,
0.0460962309180881,36.8669126592105,16700,2018-04-12 12:10:14,1875.8848989283224,50.800001625600004,0.0,0.6153580196914561,1875.8848989283224,50.800001625600004,0.35999970196000003,0.9470160303045122,1684,-19.6,99,P-GPS,
0.0460962250402195,36.8669126997138,16800,2018-04-12 12:10:14,1876.3848989443225,51.3000016416,0.0,0.6115990195711679,1876.3848989443225,51.3000016416,0.35999970196000003,0.9470160303045122,1684,-19.6,99,P-GPS,
0.0460961909275746,36.8669127330844,16900,2018-04-12 12:10:14,1876.8848989603223,51.800001657600006,0.0,0.606299019401568,1876.8848989603223,51.800001657600006,0.35999970196000003,0.9470160303045122,1684,-19.6,99,P-GPS,
0.0460961700590648,36.8669127587057,17000,2018-04-12 12:10:14,1877.3848989763226,52.3000016736,0.0,0.602632019284224,1877.3848989763226,52.3000016736,0.35999970196000003,0.9470160303045122,1684,-19.6,99,P-GPS,
0.0460961128534556,36.8669127948759,17100,2018-04-12 12:10:14,1877.8848989923224,52.8000016896,0.0,0.59536501905168,1877.8848989923224,52.8000016896,0.35999970196000003,0.9470160303045122,1684,-19.6,99,P-GPS,
0.0460960693430605,36.86691281547839,17200,2018-04-12 12:10:14,1878.3848990083222,53.3000017056,0.0,0.5904100188931201,1878.3848990083222,53.3000017056,0.35999970196000003,0.9470160303045122,1684,-19.6,99,P-GPS,
0.0460959615319257,36.866912869088104,17300,2018-04-12 12:10:15,1878.8848990243225,53.8000017216,0.0,0.5779500184944001,1878.8848990243225,53.8000017216,0.35999970196000003,0.9470160303045122,1684,-19.6,99,P-GPS,
0.0460958827754887,36.8669128997191,17400,2018-04-12 12:10:15,1879.3848990403224,54.300001737600006,0.0,0.569587018226784,1879.3848990403224,54.300001737600006,0.35999970196000003,0.9470160303045122,1684,-19.6,99,P-GPS,
0.0460958293633398,36.8669129145652,17500,2018-04-12 12:10:15,1879.8848990563224,54.8000017536,0.0,0.5644300180617601,1879.8848990563224,54.8000017536,0.35999970196000003,0.9470160303045122,1684,-19.6,99,P-GPS,
0.0460958167152152,36.866912911286605,17600,2018-04-12 12:10:15,1880.3848990723225,55.3000017696,0.0,0.563783018041056,1880.3848990723225,55.3000017696,0.35999970196000003,0.9470160303045122,1684,-19.6,99,P-GPS,
0.0460957537050175,36.8669129155357,17700,2018-04-12 12:10:15,1880.8848990883225,55.8000017856,0.0,0.558857017883424,1880.8848990883225,55.8000017856,0.35999970196000003,0.9470160303045122,1684,-19.6,99,P-GPS,
0.0460957041449528,36.8669129145791,17800,2018-04-12 12:10:15,1881.4848991075223,56.400001804800006,0.0,0.5553810177721921,1881.4848991075223,56.400001804800006,0.35999970196000003,0.9470160303045122,1684,-19.6,99,P-GPS,
0.0460956183992342,36.8669129205539,17900,2018-04-12 12:10:15,1881.9848991235224,56.90000182080001,0.0,0.5487880175612161,1881.9848991235224,56.90000182080001,0.35999970196000003,0.9470160303045122,1684,-19.6,99,P-GPS,
0.0460955668141995,36.8669129242565,18000,2018-04-12 12:10:15,1882.3848991363225,57.3000018336,0.0,0.54485501743536,1882.3848991363225,57.3000018336,0.35999970196000003,0.9470160303045122,1684,-19.6,99,P-GPS,
0.0460954916444104,36.8669129437563,18100,2018-04-12 12:10:15,1882.8848991523223,57.8000018496,0.0,0.5379500172144001,1882.8848991523223,57.8000018496,0.35999970196000003,0.9470160303045122,1684,-19.6,99,P-GPS,
0.0460954433390619,36.8669129527496,18200,2018-04-12 12:10:15,1883.3848991683224,58.30000186560001,0.0,0.533849017083168,1883.3848991683224,58.30000186560001,0.35999970196000003,0.9470160303045122,1684,-19.6,99,P-GPS,
0.0460953455013323,36.866912979185706,18300,2018-04-12 12:10:16,1883.8848991843224,58.8000018816,0.0,0.5248910167965121,1883.8848991843224,58.8000018816,0.35999970196000003,0.9470160303045122,1684,-19.6,99,P-GPS,
0.0460952726276492,36.8669129968243,18400,2018-04-12 12:10:16,1884.4848992035222,59.4000019008,0.0,0.518461016590752,1884.4848992035222,59.4000019008,0.35999970196000003,0.9470160303045122,1684,-19.6,99,P-GPS,
0.0460951840696078,36.8669129618955,18500,2018-04-12 12:10:16,1884.9848992195225,59.9000019168,0.0,0.51581501650608,1884.9848992195225,59.9000019168,0.35999970196000003,0.9470160303045122,1684,-19.6,99,P-GPS,
0.0460951255270461,36.866912917441795,18600,2018-04-12 12:10:16,1885.4848992355223,60.40000193280001,0.0,0.5161340165162881,1885.4848992355223,60.40000193280001,0.35999970196000003,0.9470160303045122,1684,-19.6,99,P-GPS,
0.0460950241840908,36.8669129002159,18700,2018-04-12 12:10:16,1885.9848992515224,60.9000019488,0.0,0.511431016365792,1885.9848992515224,60.9000019488,0.35999970196000003,0.9470160303045122,1684,-19.6,99,P-GPS,
0.0460949526457318,36.8669128851921,18800,2018-04-12 12:10:16,1886.4848992675222,61.400001964800005,0.0,0.5085080162722562,1886.4848992675222,61.400001964800005,0.35999970196000003,0.9470160303045122,1684,-19.6,99,P-GPS,
0.0460948346185536,36.8669128414589,18900,2018-04-12 12:10:16,1886.9848992835225,61.9000019808,0.0,0.505741016183712,1886.9848992835225,61.9000019808,0.35999970196000003,0.9470160303045122,1684,-19.6,99,P-GPS,
0.0460947433597378,36.8669127754215,19000,2018-04-12 12:10:16,1887.4848992995223,62.4000019968,0.0,0.5069720162231041,1887.4848992995223,62.4000019968,0.35999970196000003,0.9470160303045122,1684,-19.6,99,P-GPS,
0.0460946537847331,36.866912689321204,19100,2018-04-12 12:10:16,1887.9848993155222,62.9000020128,0.0,0.51056501633808,1887.9848993155222,62.9000020128,0.35999970196000003,0.9470160303045122,1684,-19.6,99,P-GPS,
0.0460946228662811,36.86691261182929,19200,2018-04-12 12:10:16,1888.4848993315225,63.4000020288,0.0,0.516603016531296,1888.4848993315225,63.4000020288,0.35999970196000003,0.9470160303045122,1684,-19.6,99,P-GPS,
0.0460945722656408,36.8669125131659,19300,2018-04-12 12:10:17,1888.9848993475223,63.900002044800004,0.0,0.5238750167640001,1888.9848993475223,63.900002044800004,0.35999970196000003,0.9470160303045122,1684,-19.6,99,P-GPS,
0.0460945690421359,36.866912441119,19400,2018-04-12 12:10:17,1889.4848993635223,64.4000020608,0.0,0.530922016989504,1889.4848993635223,64.4000020608,0.35999970196000003,0.9470160303045122,1684,-19.6,99,P-GPS,
0.0460945380495898,36.8669124286977,19500,2018-04-12 12:10:17,1889.9848993795224,64.9000020768,0.0,0.530683016981856,1889.9848993795224,64.9000020768,0.35999970196000003,0.9470160303045122,1684,-19.6,99,P-GPS,
0.0460945087123569,36.8669124379656,19600,2018-04-12 12:10:17,1890.4848993955225,65.40000209280001,0.0,0.5283600169075201,1890.4848993955225,65.40000209280001,0.35999970196000003,0.9470160303045122,1684,-19.6,99,P-GPS,
0.0460943978926718,36.8669124810174,19700,2018-04-12 12:10:17,1890.9848994115223,65.90000210880001,0.0,0.5188820166042241,1890.9848994115223,65.90000210880001,0.35999970196000003,0.9470160303045122,1684,-19.6,99,P-GPS,
0.0460942895343798,36.8669125154682,19800,2018-04-12 12:10:17,1891.4848994275226,66.4000021248,0.0,0.510557016337824,1891.4848994275226,66.4000021248,0.35999970196000003,0.9470160303045122,1684,-19.6,99,P-GPS,
0.0460941196054345,36.866912576429996,19900,2018-04-12 12:10:17,1891.9848994435224,66.9000021408,0.0,0.49715101590883204,1891.9848994435224,66.9000021408,0.35999970196000003,0.9470160303045122,1684,-19.6,99,P-GPS,
0.0460939978271356,36.866912612896705,20000,2018-04-12 12:10:17,1892.4848994595222,67.40000215680001,0.0,0.48857901563452805,1892.4848994595222,67.40000215680001,0.35999970196000003,0.9470160303045122,1684,-19.6,99,P-GPS,
0.0460938687876048,36.8669126067179,20100,2018-04-12 12:10:17,1892.9848994755223,67.9000021728,0.0,0.48451101550435205,1892.9848994755223,67.9000021728,0.35999970196000003,0.9470160303045122,1684,-19.6,99,P-GPS,
0.0460937866155065,36.8669125807984,20200,2018-04-12 12:10:17,1893.4848994915224,68.4000021888,0.0,0.48446101550275206,1893.4848994915224,68.4000021888,0.35999970196000003,0.9470160303045122,1684,-19.6,99,P-GPS,
0.0460936694123209,36.8669125849399,20300,2018-04-12 12:10:18,1893.9848995075224,68.9000022048,0.0,0.4803150153700801,1893.9848995075224,68.9000022048,0.35999970196000003,0.9470160303045122,1684,-19.6,99,P-GPS,
0.0460936094306219,36.8669125898308,20400,2018-04-12 12:10:18,1894.4848995235222,69.4000022208,0.0,0.47802001529664007,1894.4848995235222,69.4000022208,0.35999970196000003,0.9470160303045122,1684,-19.6,99,P-GPS,
0.046093542158379006,36.8669125868364,20500,2018-04-12 12:10:18,1894.9848995395225,69.9000022368,0.0,0.47645801524665604,1894.9848995395225,69.9000022368,0.35999970196000003,0.9470160303045122,1684,-19.6,99,P-GPS,
0.0460935124999356,36.8669125939493,20600,2018-04-12 12:10:18,1895.4848995555224,70.4000022528,0.0,0.47489501519664,1895.4848995555224,70.4000022528,0.35999970196000003,0.9470160303045122,1684,-19.6,99,P-GPS,
0.0460934518220767,36.8669126117517,20700,2018-04-12 12:10:18,1895.9848995715222,70.90000226880001,0.0,0.471404015084928,1895.9848995715222,70.90000226880001,0.35999970196000003,0.9470160303045122,1684,-19.6,99,P-GPS,
0.0460934308672594,36.8669126207488,20800,2018-04-12 12:10:18,1896.4848995875225,71.4000022848,0.0,0.4699080150370561,1896.4848995875225,71.4000022848,0.35999970196000003,0.9470160303045122,1684,-19.6,99,P-GPS,
0.0460933655727618,36.8669126382392,20900,2018-04-12 12:10:18,1896.9848996035223,71.9000023008,0.0,0.46645101492643204,1896.9848996035223,71.9000023008,0.35999970196000003,0.9470160303045122,1684,-19.6,99,P-GPS,
0.0460933293215628,36.8669126486172,21000,2018-04-12 12:10:18,1897.4848996195224,72.40000231680001,0.0,0.464500014864,1897.4848996195224,72.40000231680001,0.35999970196000003,0.9470160303045122,1684,-19.6,99,P-GPS,
0.0460932866604012,36.866912670135605,21100,2018-04-12 12:10:18,1897.9848996355224,72.9000023328,0.35999970196000003,0.461227014759264,1897.9848996355224,72.9000023328,0.35999970196000003,0.9470160303045122,1684,-19.6,99,P-GPS,
0.0460933282011934,36.8669127085609,21200,2018-04-12 12:10:18,1898.4848996515225,73.4000023488,0.35999970196000003,0.45794501465424,1898.4848996515225,73.4000023488,0.35999970196000003,0.9470160303045122,1684,-19.6,99,P-GPS,
0.046093398854086,36.866912758407004,21300,2018-04-12 12:10:19,1898.8848996643223,73.80000236160001,0.7199994039200001,0.454191014534112,1898.8848996643223,73.80000236160001,0.7199994039200001,0.9470160303045122,1684,-19.6,99,P-GPS,
0.0460935066151461,36.8669127941158,21400,2018-04-12 12:10:19,1899.3848996803224,74.30000237760001,0.7199994039200001,0.45314401450060804,1899.3848996803224,74.30000237760001,0.7199994039200001,0.9470160303045122,1684,-19.6,99,P-GPS,
0.0460935377074345,36.8669128556455,21500,2018-04-12 12:10:19,1899.8848996963222,74.8000023936,0.35999970196000003,0.44740201431686405,1899.8848996963222,74.8000023936,0.7199994039200001,0.9470160303045122,1684,-19.6,99,P-GPS,
0.0460935674061819,36.8669129137291,21600,2018-04-12 12:10:19,1900.3848997123225,75.30000240960001,0.35999970196000003,0.44204601414547195,1900.3848997123225,75.30000240960001,0.7199994039200001,0.9470160303045122,1684,-19.6,99,P-GPS,
0.0460935314843357,36.866912949093596,21700,2018-04-12 12:10:19,1900.8848997283224,75.80000242560001,0.35999970196000003,0.43719101399011207,1900.8848997283224,75.80000242560001,0.7199994039200001,0.9470160303045122,1684,-19.6,99,P-GPS,
0.046093533011002,36.86691297349721,21800,2018-04-12 12:10:19,1901.3848997443222,76.3000024416,0.35999970196000003,0.434618013907776,1901.3848997443222,76.3000024416,0.7199994039200001,0.9470160303045122,1684,-19.6,99,P-GPS,
0.0460935215960167,36.8669129912477,21900,2018-04-12 12:10:19,1901.8848997603225,76.8000024576,0.35999970196000003,0.432379013836128,1901.8848997603225,76.8000024576,0.7199994039200001,0.9470160303045122,1684,-19.6,99,P-GPS,
0.0460935585498892,36.8669130164237,22000,2018-04-12 12:10:19,1902.3848997763223,77.3000024736,0.35999970196000003,0.430789013785248,1902.3848997763223,77.3000024736,0.7199994039200001,0.9470160303045122,1684,-19.6,99,P-GPS,
0.0460935691392534,36.866913063674204,22100,2018-04-12 12:10:19,1902.8848997923224,77.8000024896,0.35999970196000003,0.42606701363414395,1902.8848997923224,77.8000024896,0.7199994039200001,0.9470160303045122,1684,-19.6,99,P-GPS,
0.0460935964087694,36.8669131200267,22200,2018-04-12 12:10:19,1903.3848998083224,78.3000025056,0.35999970196000003,0.420927013469664,1903.3848998083224,78.3000025056,0.7199994039200001,0.9470160303045122,1684,-19.6,99,P-GPS,
0.0460935725838195,36.86691317523471,22300,2018-04-12 12:10:20,1903.8848998243225,78.8000025216,0.35999970196000003,0.4142830132570561,1903.8848998243225,78.8000025216,0.7199994039200001,0.9470160303045122,1684,-19.6,99,P-GPS,
0.0460935765857207,36.8669132158863,22400,2018-04-12 12:10:20,1904.3848998403223,79.30000253760001,0.0,0.41008801312281606,1904.3848998403223,79.30000253760001,0.7199994039200001,0.9470160303045122,1684,-19.6,99,P-GPS,
0.0460935107929192,36.8669132728233,22500,2018-04-12 12:10:20,1904.8848998563226,79.80000255360001,0.0,0.40192201286150403,1904.8848998563226,79.80000255360001,0.7199994039200001,0.9470160303045122,1684,-19.6,99,P-GPS,
0.0460934710902332,36.866913311248105,22600,2018-04-12 12:10:20,1905.3848998723224,80.30000256960001,0.0,0.39659201269094396,1905.3848998723224,80.30000256960001,0.7199994039200001,0.9470160303045122,1684,-19.6,99,P-GPS,
0.0460933864372005,36.866913324616206,22700,2018-04-12 12:10:20,1905.8848998883223,80.80000258560001,0.0,0.39268201256582397,1905.8848998883223,80.80000258560001,0.7199994039200001,0.9470160303045122,1684,-19.6,99,P-GPS,
0.0460933343172219,36.8669133270084,22800,2018-04-12 12:10:20,1906.3848999043223,81.3000026016,0.0,0.39100101251203195,1906.3848999043223,81.3000026016,0.7199994039200001,0.9470160303045122,1684,-19.6,99,P-GPS,
0.0460932599930023,36.8669133204121,22900,2018-04-12 12:10:20,1906.8848999203224,81.80000261760001,0.0,0.389827012474464,1906.8848999203224,81.80000261760001,0.7199994039200001,0.9470160303045122,1684,-19.6,99,P-GPS,
0.0460932273402575,36.8669133074759,23000,2018-04-12 12:10:20,1907.3848999363224,82.3000026336,0.0,0.39045801249465606,1907.3848999363224,82.3000026336,0.7199994039200001,0.9470160303045122,1684,-19.6,99,P-GPS,
0.0460931759290592,36.8669133169611,23100,2018-04-12 12:10:20,1907.8848999523223,82.8000026496,0.0,0.388272012424704,1907.8848999523223,82.8000026496,0.7199994039200001,0.9470160303045122,1684,-19.6,99,P-GPS,
0.0460931693916708,36.8669133303138,23200,2018-04-12 12:10:20,1908.3848999683225,83.3000026656,0.0,0.386674012373568,1908.3848999683225,83.3000026656,0.7199994039200001,0.9470160303045122,1684,-19.6,99,P-GPS,
0.0460931453595014,36.866913341927294,23300,2018-04-12 12:10:21,1908.8848999843224,83.8000026816,0.0,0.38489601231667203,1908.8848999843224,83.8000026816,0.7199994039200001,0.9470160303045122,1684,-19.6,99,P-GPS,
0.0460931496504513,36.8669133453108,23400,2018-04-12 12:10:21,1909.2848999971225,84.2000026944,0.0,0.38461601230771203,1909.2848999971225,84.2000026944,0.7199994039200001,0.9470160303045122,1684,-19.6,99,P-GPS,
0.0460931447516847,36.866913384199705,23500,2018-04-12 12:10:21,1909.7849000131223,84.70000271040001,0.35999970196000003,0.38026701216854397,1909.7849000131223,84.70000271040001,0.7199994039200001,0.9470160303045122,1684,-19.6,99,P-GPS,
0.0460931901649166,36.866913417728206,23600,2018-04-12 12:10:21,1910.2849000291226,85.20000272640002,0.35999970196000003,0.37760801208345607,1910.2849000291226,85.20000272640002,0.7199994039200001,0.9470160303045122,1684,-19.6,99,P-GPS,
0.0460932161870446,36.8669134665749,23700,2018-04-12 12:10:21,1910.7849000451224,85.7000027424,0.35999970196000003,0.37290401193292805,1910.7849000451224,85.7000027424,0.7199994039200001,0.9470160303045122,1684,-19.6,99,P-GPS,
0.0460932535736761,36.866913504797395,23800,2018-04-12 12:10:21,1911.2849000611222,86.2000027584,0.35999970196000003,0.36968001182976,1911.2849000611222,86.2000027584,0.7199994039200001,0.9470160303045122,1684,-19.6,99,P-GPS,
0.0460932542938555,36.866913580027706,23900,2018-04-12 12:10:21,1911.7849000771225,86.7000027744,0.35999970196000003,0.36155801156985606,1911.7849000771225,86.7000027744,0.7199994039200001,0.9470160303045122,1684,-19.6,99,P-GPS,
0.0460932832764946,36.866913653787606,24000,2018-04-12 12:10:21,1912.2849000931224,87.2000027904,0.35999970196000003,0.354371011339872,1912.2849000931224,87.2000027904,0.7199994039200001,0.9470160303045122,1684,-19.6,99,P-GPS,
0.0460932467875429,36.8669137115446,24100,2018-04-12 12:10:21,1912.7849001091224,87.70000280640001,0.0,0.347152011108864,1912.7849001091224,87.70000280640001,0.7199994039200001,0.9470160303045122,1684,-19.6,98,P-GPS,
0.0460932011687198,36.866913729060705,24200,2018-04-12 12:10:21,1913.2849001251222,88.20000282240001,0.0,0.34406901101020804,1913.2849001251222,88.20000282240001,0.7199994039200001,0.9470160303045122,1684,-19.6,98,P-GPS,
0.046093086113859004,36.866913742189105,24300,2018-04-12 12:10:22,1913.7849001411225,88.70000283840001,0.0,0.339944010878208,1913.7849001411225,88.70000283840001,0.7199994039200001,0.9470160303045122,1684,-19.6,98,P-GPS,
0.0460930161265929,36.866913747076204,24400,2018-04-12 12:10:22,1914.3849001603223,89.3000028576,0.0,0.33799101081571203,1914.3849001603223,89.3000028576,0.7199994039200001,0.9470160303045122,1684,-19.6,98,P-GPS,
0.0460929182998554,36.8669137122319,24500,2018-04-12 12:10:22,1914.8849001763224,89.8000028736,0.0,0.340134010884288,1914.8849001763224,89.8000028736,0.7199994039200001,0.9470160303045122,1684,-19.6,98,P-GPS,
0.0460928586751926,36.8669136526983,24600,2018-04-12 12:10:22,1915.3849001923224,90.30000288960001,0.0,0.34585501106736,1915.3849001923224,90.30000288960001,0.7199994039200001,0.9470160303045122,1684,-19.6,98,P-GPS,
0.0460927781795774,36.8669135993846,24700,2018-04-12 12:10:22,1915.8849002083223,90.80000290560001,0.0,0.35082801122649604,1915.8849002083223,90.80000290560001,0.7199994039200001,0.9470160303045122,1684,-19.6,98,P-GPS,
0.0460927365581773,36.86691356522871,24800,2018-04-12 12:10:22,1916.3849002243226,91.3000029216,0.0,0.35423101133539203,1916.3849002243226,91.3000029216,0.7199994039200001,0.9470160303045122,1684,-19.6,98,P-GPS,
0.0460926483478087,36.866913559345996,24900,2018-04-12 12:10:22,1916.8849002403224,91.8000029376,0.0,0.354277011336864,1916.8849002403224,91.8000029376,0.7199994039200001,0.9470160303045122,1684,-19.6,98,P-GPS,
0.0460925814085826,36.8669135467919,25000,2018-04-12 12:10:22,1917.3849002563222,92.3000029536,0.0,0.35539301137257606,1917.3849002563222,92.3000029536,0.7199994039200001,0.9470160303045122,1684,-19.6,98,P-GPS,
0.0460924729147226,36.8669135054847,25100,2018-04-12 12:10:22,1917.8849002723225,92.8000029696,0.0,0.35986601151571207,1917.8849002723225,92.8000029696,0.7199994039200001,0.9470160303045122,1684,-19.6,98,P-GPS,
0.0460923963798903,36.866913446747496,25200,2018-04-12 12:10:22,1918.3849002883223,93.3000029856,0.0,0.366554011729728,1918.3849002883223,93.3000029856,0.7199994039200001,0.9470160303045122,1684,-19.6,98,P-GPS,
0.0460922924297962,36.866913388813295,25300,2018-04-12 12:10:23,1918.8849003043224,93.8000030016,0.0,0.37351401195244804,1918.8849003043224,93.8000030016,0.7199994039200001,0.9470160303045122,1684,-19.6,98,P-GPS,
0.0460922484996697,36.8669133444474,25400,2018-04-12 12:10:23,1919.3849003203222,94.3000030176,0.0,0.378761012120352,1919.3849003203222,94.3000030176,0.7199994039200001,0.9470160303045122,1684,-19.6,98,P-GPS,
0.0460921542428884,36.8669133314919,25500,2018-04-12 12:10:23,1919.8849003363225,94.80000303359999,0.0,0.38109801219513606,1919.8849003363225,94.80000303359999,0.7199994039200001,0.9470160303045122,1684,-19.6,98,P-GPS,
0.0460920840655015,36.8669133204603,25600,2018-04-12 12:10:23,1920.3849003523223,95.30000304960001,0.0,0.383172012261504,1920.3849003523223,95.30000304960001,0.7199994039200001,0.9470160303045122,1684,-19.6,98,P-GPS,
0.046091975177150996,36.86691329383,25700,2018-04-12 12:10:23,1920.8849003683224,95.80000306560001,0.0,0.38773301240745606,1920.8849003683224,95.80000306560001,0.7199994039200001,0.9470160303045122,1684,-19.6,98,P-GPS,
0.0460919209629935,36.866913250192106,25800,2018-04-12 12:10:23,1921.3849003843225,96.3000030816,0.0,0.39346501259088007,1921.3849003843225,96.3000030816,0.7199994039200001,0.9470160303045122,1684,-19.6,98,P-GPS,
0.0460917866143281,36.8669132270528,25900,2018-04-12 12:10:23,1921.8849004003223,96.8000030976,0.0,0.398687012757984,1921.8849004003223,96.8000030976,0.7199994039200001,0.9470160303045122,1684,-19.6,98,P-GPS,
0.0460916908276238,36.866913210627104,26000,2018-04-12 12:10:23,1922.3849004163224,97.3000031136,0.0,0.4027090128866881,1922.3849004163224,97.3000031136,0.7199994039200001,0.9470160303045122,1684,-19.6,98,P-GPS,
0.0460915435645834,36.8669132233904,26100,2018-04-12 12:10:23,1922.8849004323224,97.8000031296,0.0,0.40529101296931197,1922.8849004323224,97.8000031296,0.7199994039200001,0.9470160303045122,1684,-19.6,98,P-GPS,
0.0460914615174682,36.866913236220604,26200,2018-04-12 12:10:23,1923.3849004483225,98.3000031456,0.0,0.4064000130048,1923.3849004483225,98.3000031456,0.7199994039200001,0.9470160303045122,1684,-19.6,98,P-GPS,
0.0460913472336756,36.866913251284,26300,2018-04-12 12:10:24,1923.8849004643223,98.8000031616,0.0,0.408584013074688,1923.8849004643223,98.8000031616,0.7199994039200001,0.9470160303045122,1684,-19.6,98,P-GPS,
0.0460913172902545,36.866913267158395,26400,2018-04-12 12:10:24,1924.3849004803224,99.3000031776,0.35999970196000003,0.40796501305488003,1924.3849004803224,99.3000031776,0.7199994039200001,0.9470160303045122,1684,-19.6,98,P-GPS,
0.0460912622891514,36.866913314919,26500,2018-04-12 12:10:24,1924.8849004963224,99.80000319359999,0.35999970196000003,0.40496801295897605,1924.8849004963224,99.80000319359999,0.7199994039200001,0.9470160303045122,1684,-19.6,98,P-GPS,
0.0460912580087863,36.8669133496214,26600,2018-04-12 12:10:24,1925.3849005123225,100.30000320960002,0.35999970196000003,0.40150201284806397,1925.3849005123225,100.30000320960002,0.7199994039200001,0.9470160303045122,1684,-19.6,98,P-GPS,
0.0460911855137165,36.8669133395324,26700,2018-04-12 12:10:24,1925.8849005283223,100.80000322560002,0.35999970196000003,0.40538301297225604,1925.8849005283223,100.80000322560002,0.7199994039200001,0.9470160303045122,1684,-19.6,98,P-GPS,
0.0460911493500464,36.8669133148334,26800,2018-04-12 12:10:24,1926.3849005443224,101.3000032416,0.35999970196000003,0.40940001310080004,1926.3849005443224,101.3000032416,0.7199994039200001,0.9470160303045122,1684,-19.6,98,P-GPS,
0.0460910534013119,36.866913316529704,26900,2018-04-12 12:10:24,1926.8849005603224,101.8000032576,0.35999970196000003,0.413247013223904,1926.8849005603224,101.8000032576,0.7199994039200001,0.9470160303045122,1684,-19.6,98,P-GPS,
0.0460910057416414,36.866913324748396,27000,2018-04-12 12:10:24,1927.3849005763223,102.3000032736,0.0,0.41449401326380797,1927.3849005763223,102.3000032736,0.7199994039200001,0.9470160303045122,1684,-19.6,98,P-GPS,
0.0460909097167771,36.86691331326929,27100,2018-04-12 12:10:24,1927.8849005923225,102.8000032896,0.0,0.4200340134410881,1927.8849005923225,102.8000032896,0.7199994039200001,0.9470160303045122,1684,-19.6,98,P-GPS,
0.046090872316710996,36.866913305366396,27200,2018-04-12 12:10:24,1928.3849006083224,103.30000330560001,0.35999970196000003,0.422591013522912,1928.3849006083224,103.30000330560001,0.7199994039200001,0.9470160303045122,1684,-19.6,98,P-GPS,
0.0460907974233502,36.866913308725294,27300,2018-04-12 12:10:24,1928.8849006243224,103.80000332160002,0.35999970196000003,0.42588001362815997,1928.8849006243224,103.80000332160002,0.7199994039200001,0.9470160303045122,1684,-19.6,98,P-GPS,
0.0460907619831164,36.866913307502706,27400,2018-04-12 12:10:25,1929.3849006403225,104.30000333760002,0.0,0.427763013688416,1929.3849006403225,104.30000333760002,0.7199994039200001,0.9470160303045122,1684,-19.6,98,P-GPS,
0.0460906617739653,36.8669132933867,27500,2018-04-12 12:10:25,1929.8849006563225,104.80000335359999,0.0,0.43428501389712,1929.8849006563225,104.80000335359999,0.7199994039200001,0.9470160303045122,1684,-19.6,98,P-GPS,
0.0460906091324775,36.866913272944295,27600,2018-04-12 12:10:25,1930.3849006723224,105.30000336959999,0.0,0.439059014049888,1930.3849006723224,105.30000336959999,0.7199994039200001,0.9470160303045122,1684,-19.6,98,P-GPS,
0.0460905008364735,36.86691324837,27700,2018-04-12 12:10:25,1930.8849006883222,105.80000338560002,0.0,0.44731001431392,1930.8849006883222,105.80000338560002,0.7199994039200001,0.9470160303045122,1684,-19.6,98,P-GPS,
0.046090445419303,36.8669132250402,27800,2018-04-12 12:10:25,1931.3849007043225,106.30000340160001,0.0,0.452637014484384,1931.3849007043225,106.30000340160001,0.7199994039200001,0.9470160303045122,1684,-19.6,98,P-GPS,
0.0460903700402588,36.8669132161293,27900,2018-04-12 12:10:25,1931.8849007203223,106.80000341760001,0.35999970196000003,0.457764014648448,1931.8849007203223,106.80000341760001,0.7199994039200001,0.9470160303045122,1684,-19.6,98,P-GPS,
0.046090359965890004,36.8669132138629,28000,2018-04-12 12:10:25,1932.3849007363224,107.30000343360001,0.35999970196000003,0.458559014673888,1932.3849007363224,107.30000343360001,0.7199994039200001,0.9470160303045122,1684,-19.6,98,P-GPS,
0.0460903097235074,36.8669132009658,28100,2018-04-12 12:10:25,1932.8849007523224,107.80000344960001,0.35999970196000003,0.462697014806304,1932.8849007523224,107.80000344960001,0.7199994039200001,0.9470160303045122,1684,-19.6,98,P-GPS,
0.0460903013382421,36.866913185700604,28200,2018-04-12 12:10:25,1933.3849007683225,108.30000346560001,0.35999970196000003,0.464631014868192,1933.3849007683225,108.30000346560001,0.7199994039200001,0.9470160303045122,1684,-19.6,98,P-GPS,
0.0460902366820946,36.8669132309732,28300,2018-04-12 12:10:26,1933.8849007843223,108.80000348160002,0.35999970196000003,0.46420501485456,1933.8849007843223,108.80000348160002,0.7199994039200001,0.9470160303045122,1684,-19.6,98,P-GPS,
0.0460902192180505,36.8669132863365,28400,2018-04-12 12:10:26,1934.3849008003226,109.30000349760002,0.35999970196000003,0.46010501472336,1934.3849008003226,109.30000349760002,0.7199994039200001,0.9470160303045122,1684,-19.6,98,P-GPS,
0.0460901246272347,36.8669133701576,28500,2018-04-12 12:10:26,1934.8849008163224,109.8000035136,0.35999970196000003,0.45831901466620806,1934.8849008163224,109.8000035136,0.7199994039200001,0.9470160303045122,1684,-19.6,98,P-GPS,
0.0460900756595166,36.8669134323382,28600,2018-04-12 12:10:26,1935.3849008323223,110.3000035296,0.35999970196000003,0.4558730145879361,1935.3849008323223,110.3000035296,0.7199994039200001,0.9470160303045122,1684,-19.6,98,P-GPS,
0.0460899777890146,36.8669134787714,28700,2018-04-12 12:10:26,1935.8849008483226,110.80000354560002,0.35999970196000003,0.45828101466499205,1935.8849008483226,110.80000354560002,0.7199994039200001,0.9470160303045122,1684,-19.6,98,P-GPS,
0.0460899505805652,36.8669134965428,28800,2018-04-12 12:10:26,1936.3849008643224,111.30000356160001,0.35999970196000003,0.45857901467452805,1936.3849008643224,111.30000356160001,0.7199994039200001,0.9470160303045122,1684,-19.6,98,P-GPS,
