latitude,longitude,time_millisecond,datetime_utc,altitude_m,ascent_m,speed_kph,distance_m,max_altitude_m,max_ascent_m,max_speed_kph,max_distance_m,rc_throttle,gimbal_pitch_degrees,battery_percent,flycState,message
0.0603317509717302,36.9454250860028,100,2017-11-03 06:16:18,1796.13555547633,0.0,0.0,0.0,1796.13555547633,0.0,0.0,0.0,1024,0.0,99,Motors_Started,
0.0603317499498815,36.945425069015,200,2017-11-03 06:16:18,1796.13555547633,0.0,0.0,0.0018925600605619202,1796.13555547633,0.0,0.0,0.0018925600605619202,1024,0.0,99,Motors_Started,
0.0603317486324704,36.9454250492886,300,2017-11-03 06:16:18,1796.13555547633,0.0,0.0,0.00409112013091584,1796.13555547633,0.0,0.0,0.00409112013091584,1024,0.0,99,Motors_Started,
0.0603317475389702,36.9454250138559,400,2017-11-03 06:16:18,1796.13555547633,0.0,0.0,0.008032250257032001,1796.13555547633,0.0,0.0,0.008032250257032001,1024,0.0,99,Motors_Started,
0.0603317459129689,36.9454249875979,500,2017-11-03 06:16:18,1796.13555547633,0.0,0.0,0.010957700350646402,1796.13555547633,0.0,0.0,0.010957700350646402,1024,0.0,99,Motors_Started,Setting new Return-To-Home altitude to 30m (98 ft). Setting new Maximum Flight Altitude to 100m (328 ft)
0.0603317449033336,36.94542497079,600,2017-11-03 06:16:18,1796.13555547633,0.0,0.0,0.0128301004105632,1796.13555547633,0.0,0.0,0.0128301004105632,1024,0.0,99,Motors_Started,
0.0603317424272845,36.9454249517841,700,2017-11-03 06:16:18,1796.13555547633,0.0,0.0,0.014956100478595202,1796.13555547633,0.0,0.0,0.014956100478595202,1024,0.0,99,Motors_Started,
0.0603317396800995,36.9454249608668,800,2017-11-03 06:16:18,1796.13555547633,0.0,0.0,0.0139724004471168,1796.13555547633,0.0,0.0,0.014956100478595202,1024,0.0,99,Motors_Started,
0.0603317360519263,36.9454249560289,900,2017-11-03 06:16:18,1796.13555547633,0.0,0.0,0.014548800465561602,1796.13555547633,0.0,0.0,0.014956100478595202,1024,0.0,99,Motors_Started,
0.060331730831949,36.9454249265346,1000,2017-11-03 06:16:19,1796.13555547633,0.0,0.0,0.0178747005719904,1796.13555547633,0.0,0.0,0.0178747005719904,364,0.0,99,Motors_Started,
0.0603317258676375,36.9454249034328,1100,2017-11-03 06:16:19,1796.13555547633,0.0,0.0,0.020493900655804802,1796.13555547633,0.0,0.0,0.020493900655804802,704,0.0,99,Motors_Started,
0.0603317191934598,36.9454248863732,1200,2017-11-03 06:16:19,1796.13555547633,0.0,0.0,0.022479500719344,1796.13555547633,0.0,0.0,0.022479500719344,899,0.0,99,Motors_Started,
0.0603317139539412,36.9454248787389,1300,2017-11-03 06:16:19,1796.13555547633,0.0,0.0,0.0234137007492384,1796.13555547633,0.0,0.0,0.0234137007492384,1024,0.0,99,Motors_Started,
0.0603317075793972,36.9454248723648,1400,2017-11-03 06:16:19,1796.13555547633,0.0,0.0,0.024242900775772805,1796.13555547633,0.0,0.0,0.024242900775772805,1024,0.0,99,Motors_Started,
0.0603317034016241,36.9454248629191,1500,2017-11-03 06:16:19,1796.13555547633,0.0,0.0,0.025366000811712003,1796.13555547633,0.0,0.0,0.025366000811712003,1024,0.0,99,Motors_Started,
0.0603316979373803,36.9454248312633,1600,2017-11-03 06:16:19,1796.13555547633,0.0,0.0,0.028936000925952002,1796.13555547633,0.0,0.0,0.028936000925952002,1024,0.0,99,Assisted_Takeoff,
0.0603316896355728,36.9454247993496,1700,2017-11-03 06:16:19,1796.13555547633,0.0,0.0,0.0325992010431744,1796.13555547633,0.0,0.0,0.0325992010431744,1024,0.0,99,Assisted_Takeoff,
0.0603316896038181,36.9454247895057,1800,2017-11-03 06:16:19,1796.13555547633,0.0,0.0,0.0336711010774752,1796.13555547633,0.0,0.0,0.0336711010774752,1024,0.0,99,Assisted_Takeoff,
0.0603316902470535,36.9454247848316,1900,2017-11-03 06:16:19,1796.13555547633,0.0,0.0,0.0341661010933152,1796.13555547633,0.0,0.0,0.0341661010933152,1024,0.0,99,Assisted_Takeoff,
0.0603316860114707,36.9454247766909,2000,2017-11-03 06:16:20,1796.13555547633,0.0,0.0,0.035147701124726406,1796.13555547633,0.0,0.0,0.035147701124726406,1024,0.0,99,Assisted_Takeoff,
0.0603316704858856,36.9454247634972,2100,2017-11-03 06:16:20,1796.13555547633,0.0,0.0,0.0369646011828672,1796.13555547633,0.0,0.0,0.0369646011828672,1024,0.0,99,Assisted_Takeoff,
0.0603316370807997,36.9454247325694,2200,2017-11-03 06:16:20,1796.13555547633,0.0,0.0,0.041294201321414405,1796.13555547633,0.0,0.0,0.041294201321414405,1024,0.0,99,Assisted_Takeoff,
0.0603316044801651,36.9454247073681,2300,2017-11-03 06:16:20,1796.13555547633,0.0,0.0,0.045148001444736005,1796.13555547633,0.0,0.0,0.045148001444736005,1024,0.0,99,Assisted_Takeoff,
0.0603315822706316,36.9454246896941,2400,2017-11-03 06:16:20,1796.13555547633,0.0,0.0,0.0478988015327616,1796.13555547633,0.0,0.0,0.0478988015327616,1024,0.0,99,Assisted_Takeoff,
0.0603315653950665,36.9454246661629,2500,2017-11-03 06:16:20,1796.13555547633,0.0,0.0,0.051046401633484804,1796.13555547633,0.0,0.0,0.051046401633484804,1024,0.0,99,Assisted_Takeoff,
0.0603315520947501,36.9454246274938,2600,2017-11-03 06:16:20,1796.13555547633,0.0,0.0,0.055578801778521605,1796.13555547633,0.0,0.0,0.055578801778521605,1024,0.0,99,Assisted_Takeoff,
0.0603315463129597,36.9454245954741,2700,2017-11-03 06:16:20,1796.13555547633,0.0,0.0,0.05910720189143041,1796.13555547633,0.0,0.0,0.05910720189143041,1024,0.0,99,Assisted_Takeoff,
0.0603315394270843,36.945424574235,2800,2017-11-03 06:16:20,1796.13555547633,0.0,0.0,0.061582201970630406,1796.13555547633,0.0,0.0,0.061582201970630406,1024,0.0,99,Assisted_Takeoff,
0.0603315410905398,36.9454245640003,2900,2017-11-03 06:16:20,1796.13555547633,0.0,0.0,0.06256630200212161,1796.13555547633,0.0,0.0,0.06256630200212161,1024,0.0,99,Assisted_Takeoff,
0.0603315386576445,36.9454245548202,3000,2017-11-03 06:16:21,1796.13555547633,0.0,0.0,0.063614502035664,1796.13555547633,0.0,0.0,0.063614502035664,1024,0.0,99,Assisted_Takeoff,
0.0603315447081282,36.9454245577236,3100,2017-11-03 06:16:21,1796.13555547633,0.0,0.0,0.06306700201814401,1796.13555547633,0.0,0.0,0.063614502035664,1024,0.0,99,Assisted_Takeoff,
0.0603315449874063,36.94542455641,3200,2017-11-03 06:16:21,1796.13555547633,0.0,0.0,0.06319190202214081,1796.13555547633,0.0,0.0,0.063614502035664,1024,0.0,99,Assisted_Takeoff,
0.0603315533307391,36.9454245666789,3300,2017-11-03 06:16:21,1796.13555547633,0.0,0.0,0.061792901977372805,1796.13555547633,0.0,0.0,0.063614502035664,1024,0.0,99,Assisted_Takeoff,
0.0603315553687368,36.9454245690855,3400,2017-11-03 06:16:21,1796.13555547633,0.0,0.0,0.0614622019667904,1796.13555547633,0.0,0.0,0.063614502035664,1024,0.0,99,Assisted_Takeoff,
0.0603315639954189,36.9454245668973,3500,2017-11-03 06:16:21,1796.13555547633,0.0,0.0,0.06135820196346241,1796.13555547633,0.0,0.0,0.063614502035664,1024,0.0,99,Assisted_Takeoff,
0.0603315654944016,36.9454245402593,3600,2017-11-03 06:16:21,1796.13555547633,0.0,0.0,0.0640992020511744,1796.13555547633,0.0,0.0,0.0640992020511744,1024,0.0,99,Assisted_Takeoff,
0.0603315727255071,36.9454245191027,3700,2017-11-03 06:16:21,1796.13555547633,0.0,0.0,0.066085502114736,1796.13555547633,0.0,0.0,0.066085502114736,1024,0.0,99,Assisted_Takeoff,
0.0603315731472741,36.9454245043887,3800,2017-11-03 06:16:21,1796.13555547633,0.0,0.0,0.067634502164304,1796.13555547633,0.0,0.0,0.067634502164304,1024,0.0,99,Assisted_Takeoff,
0.0603315783639945,36.9454244977683,3900,2017-11-03 06:16:21,1796.13555547633,0.0,0.0,0.0681733021815456,1796.13555547633,0.0,0.0,0.0681733021815456,1024,0.0,99,Assisted_Takeoff,
0.0603315783452674,36.9454244917795,4000,2017-11-03 06:16:22,1796.13555547633,0.0,0.0,0.0688132022020224,1796.13555547633,0.0,0.0,0.0688132022020224,1024,0.0,99,Assisted_Takeoff,
0.0603315831304501,36.945424495337,4100,2017-11-03 06:16:22,1796.13555547633,0.0,0.0,0.068286002185152,1796.13555547633,0.0,0.0,0.0688132022020224,1024,0.0,99,Assisted_Takeoff,
0.0603315824619738,36.9454244949645,4200,2017-11-03 06:16:22,1796.13555547633,0.0,0.0,0.0683462021870784,1796.13555547633,0.0,0.0,0.0688132022020224,1024,0.0,99,Assisted_Takeoff,
0.0603315859737133,36.9454244885111,4300,2017-11-03 06:16:22,1796.13555547633,0.0,0.0,0.0689317022058144,1796.13555547633,0.0,0.0,0.0689317022058144,1024,0.0,99,Assisted_Takeoff,
0.0603315842532622,36.945424461113,4400,2017-11-03 06:16:22,1796.13555547633,0.0,0.0,0.0719222023015104,1796.13555547633,0.0,0.0,0.0719222023015104,1024,0.0,99,Assisted_Takeoff,
0.0603315872333147,36.9454244378291,4500,2017-11-03 06:16:22,1796.13555547633,0.0,0.0,0.0743452023790464,1796.13555547633,0.0,0.0,0.0743452023790464,1024,0.0,99,Assisted_Takeoff,
0.0603315852343997,36.9454244228336,4600,2017-11-03 06:16:22,1796.13555547633,0.0,0.0,0.07601660243253121,1796.13555547633,0.0,0.0,0.07601660243253121,1024,0.0,99,Assisted_Takeoff,
0.0603316027833264,36.9454244154916,4700,2017-11-03 06:16:22,1796.13555547633,0.0,0.0,0.0763642024436544,1796.13555547633,0.0,0.0,0.0763642024436544,1024,0.0,99,Assisted_Takeoff,
0.0603316327817075,36.9454244109716,4800,2017-11-03 06:16:22,1796.13555547633,0.0,0.0,0.07620950243870402,1796.13555547633,0.0,0.0,0.0763642024436544,1024,0.0,99,Assisted_Takeoff,
0.0603316697001614,36.9454244132488,4900,2017-11-03 06:16:22,1796.13555547633,0.0,0.0,0.0753582024114624,1796.13555547633,0.0,0.0,0.0763642024436544,1024,0.0,99,Assisted_Takeoff,
0.0603316890916725,36.945424413359,5000,2017-11-03 06:16:23,1796.13555547633,0.0,0.0,0.07511790240377281,1796.13555547633,0.0,0.0,0.0763642024436544,1024,0.0,99,Assisted_Takeoff,
0.0603317127057389,36.945424421293,5100,2017-11-03 06:16:23,1796.13555547633,0.0,0.0,0.0740421023693472,1796.13555547633,0.0,0.0,0.0763642024436544,1024,0.0,99,Assisted_Takeoff,
0.060331722653089,36.9454244234427,5200,2017-11-03 06:16:23,1796.13555547633,0.0,0.0,0.0737479023599328,1796.13555547633,0.0,0.0,0.0763642024436544,1024,0.0,99,Assisted_Takeoff,
0.0603317338217722,36.9454244330715,5300,2017-11-03 06:16:23,1796.13555547633,0.0,0.0,0.07263500232432,1796.13555547633,0.0,0.0,0.0763642024436544,1024,0.0,99,Assisted_Takeoff,
0.060331739003481,36.9454244380111,5400,2017-11-03 06:16:23,1796.13555547633,0.0,0.0,0.0720729023063328,1796.13555547633,0.0,0.0,0.0763642024436544,1024,0.0,99,Assisted_Takeoff,
0.060331744512507,36.9454244481526,5500,2017-11-03 06:16:23,1796.13555547633,0.0,0.0,0.07093640226996481,1796.13555547633,0.0,0.0,0.0763642024436544,1024,0.0,99,Assisted_Takeoff,
0.0603317466514682,36.9454244542635,5600,2017-11-03 06:16:23,1796.13555547633,0.0,0.0,0.07025490224815681,1796.13555547633,0.0,0.0,0.0763642024436544,1024,0.0,99,Assisted_Takeoff,
0.0603317478801292,36.9454244640528,5700,2017-11-03 06:16:23,1796.13555547633,0.0,0.35999970196000003,0.069165502213296,1796.13555547633,0.0,0.35999970196000003,0.0763642024436544,1024,0.0,99,Assisted_Takeoff,
0.0603317469641295,36.9454244684742,5800,2017-11-03 06:16:23,1796.13555547633,0.0,0.35999970196000003,0.0686743021975776,1796.13555547633,0.0,0.35999970196000003,0.0763642024436544,1024,0.0,99,Assisted_Takeoff,
0.0603317456540463,36.9454244748912,5900,2017-11-03 06:16:23,1796.13555547633,0.0,0.35999970196000003,0.0679619021747808,1796.13555547633,0.0,0.35999970196000003,0.0763642024436544,1024,0.0,99,Assisted_Takeoff,
0.060331743742253,36.9454244753837,6000,2017-11-03 06:16:24,1796.13555547633,0.0,0.0,0.06790930217309761,1796.13555547633,0.0,0.35999970196000003,0.0763642024436544,1030,0.0,99,Assisted_Takeoff,
0.0603317571125925,36.9454244763087,6100,2017-11-03 06:16:24,1796.13555547633,0.0,0.0,0.06780510216976321,1796.13555547633,0.0,0.35999970196000003,0.0763642024436544,1056,0.0,99,Assisted_Takeoff,
0.0603317855989633,36.9454244736975,6200,2017-11-03 06:16:24,1796.13555547633,0.0,0.0,0.06820080218242561,1796.13555547633,0.0,0.35999970196000003,0.0763642024436544,1253,0.0,99,Assisted_Takeoff,
0.0603318179691731,36.9454244725563,6300,2017-11-03 06:16:24,1796.13555547633,0.0,0.0,0.0686246021959872,1796.13555547633,0.0,0.35999970196000003,0.0763642024436544,1606,0.0,99,Assisted_Takeoff,
0.0603318362085601,36.9454244693596,6400,2017-11-03 06:16:24,1796.13555547633,0.0,0.0,0.06922650221524801,1796.13555547633,0.0,0.35999970196000003,0.0763642024436544,1684,0.0,99,Assisted_Takeoff,
0.060331854528555,36.9454244691401,6500,2017-11-03 06:16:24,1796.13555547633,0.0,0.0,0.06955880222588161,1796.13555547633,0.0,0.35999970196000003,0.0763642024436544,1684,0.0,99,Assisted_Takeoff,
0.0603318639425898,36.94542446879,6600,2017-11-03 06:16:24,1796.13555547633,0.0,0.0,0.069778002232896,1796.13555547633,0.0,0.35999970196000003,0.0763642024436544,1684,0.0,99,Assisted_Takeoff,
0.0603318709391994,36.9454244632348,6700,2017-11-03 06:16:24,1796.13555547633,0.0,0.0,0.07052880225692161,1796.13555547633,0.0,0.35999970196000003,0.0763642024436544,1684,0.0,99,Assisted_Takeoff,
0.0603318697895179,36.9454244123473,6800,2017-11-03 06:16:24,1796.13555547633,0.0,0.0,0.0760709024342688,1796.13555547633,0.0,0.35999970196000003,0.0763642024436544,1684,0.0,99,Assisted_Takeoff,
0.0603319016475821,36.9454243676531,6900,2017-11-03 06:16:24,1796.13555547633,0.0,0.0,0.0816232026119424,1796.13555547633,0.0,0.35999970196000003,0.0816232026119424,1684,0.0,99,GPS_Atti,
0.0603320153276291,36.9454243691091,7000,2017-11-03 06:16:25,1796.13555547633,0.0,0.35999970196000003,0.08497050271905601,1796.13555547633,0.0,0.35999970196000003,0.08497050271905601,1684,0.0,99,GPS_Atti,
0.0603322290120503,36.9454244121461,7100,2017-11-03 06:16:25,1796.23555547953,0.1000000032,0.7199994039200001,0.09187840294010881,1796.23555547953,0.1000000032,0.7199994039200001,0.09187840294010881,1684,0.0,99,GPS_Atti,
0.0603325206899826,36.9454244929122,7200,2017-11-03 06:16:25,1796.33555548273,0.2000000064,1.07999910588,0.10806000345792001,1796.33555548273,0.2000000064,1.07999910588,0.10806000345792001,1684,0.0,99,GPS_Atti,
0.0603328909895982,36.9454245893568,7300,2017-11-03 06:16:25,1796.4355554859299,0.3000000096,1.4831987720752,0.13828500442512,1796.4355554859299,0.3000000096,1.4831987720752,0.13828500442512,1684,0.0,99,GPS_Atti,
0.0603333165268483,36.9454246935642,7400,2017-11-03 06:16:25,1796.63555549233,0.500000016,1.4831987720752,0.179486005743552,1796.63555549233,0.500000016,1.4831987720752,0.179486005743552,1684,0.0,99,GPS_Atti,
0.0603338084655309,36.945424808427,7500,2017-11-03 06:16:25,1796.8355554987297,0.7000000224,1.8359984799959999,0.23087900738812803,1796.8355554987297,0.7000000224,1.8359984799959999,0.23087900738812803,1684,0.0,99,GPS_Atti,Home Point Recorded. RTH Altitude:  30m.
0.0603348644280052,36.945425108138,7700,2017-11-03 06:16:25,1797.43555551793,1.3000000416000002,1.4831987720752,0.346244011079808,1797.43555551793,1.3000000416000002,1.8359984799959999,0.346244011079808,1684,0.0,99,GPS_Atti,
0.0603353543286901,36.9454252821327,7800,2017-11-03 06:16:25,1797.8355555307298,1.7000000544000002,1.4831987720752,0.401308012841856,1797.8355555307298,1.7000000544000002,1.8359984799959999,0.401308012841856,1684,0.0,99,GPS_Atti,
0.0603357878261816,36.9454254345726,7900,2017-11-03 06:16:25,1798.23555554353,2.1000000672000003,1.4399988078400001,0.450593014418976,1798.23555554353,2.1000000672000003,1.8359984799959999,0.450593014418976,1684,0.0,99,GPS_Atti,
0.0603361468610358,36.945425517133,8000,2017-11-03 06:16:26,1798.6355555563298,2.50000008,1.07999910588,0.49119501571824004,1798.6355555563298,2.50000008,1.8359984799959999,0.49119501571824004,1684,0.0,99,GPS_Atti,
0.0603364637279434,36.9454255494878,8100,2017-11-03 06:16:26,1799.1355555723298,3.0000000960000004,1.07999910588,0.526616016851712,1799.1355555723298,3.0000000960000004,1.8359984799959999,0.526616016851712,1684,0.0,99,GPS_Atti,
0.0603367858225633,36.9454254909382,8200,2017-11-03 06:16:26,1799.63555558833,3.500000112,1.1375990581936,0.561714017974848,1799.63555558833,3.500000112,1.8359984799959999,0.561714017974848,1684,0.0,99,GPS_Atti,
0.0603371182620773,36.9454253369664,8300,2017-11-03 06:16:26,1800.23555560753,4.100000131200001,1.2995989240756,0.597528019120896,1800.23555560753,4.100000131200001,1.8359984799959999,0.597528019120896,1684,0.0,99,GPS_Atti,
0.0603374628683071,36.9454251367693,8400,2017-11-03 06:16:26,1800.73555562353,4.6000001472,1.6091986677612,0.635223020327136,1800.73555562353,4.6000001472,1.8359984799959999,0.635223020327136,1684,0.0,99,GPS_Atti,
0.0603378538695169,36.9454249608251,8500,2017-11-03 06:16:26,1801.23555563953,5.1000001632,1.4831987720752,0.678822021722304,1801.23555563953,5.1000001632,1.8359984799959999,0.678822021722304,1684,0.0,99,GPS_Atti,
0.0603383259625561,36.9454248291275,8600,2017-11-03 06:16:26,1801.83555565873,5.7000001824,1.7999985098000002,0.7317370234155841,1801.83555565873,5.7000001824,1.8359984799959999,0.7317370234155841,1684,0.0,99,GPS_Atti,
0.0603388885182546,36.9454247520731,8700,2017-11-03 06:16:26,1802.33555567473,6.200000198400001,1.7999985098000002,0.794607025427424,1802.33555567473,6.200000198400001,1.8359984799959999,0.794607025427424,1684,0.0,99,GPS_Atti,
0.0603394676115907,36.9454246827321,8800,2017-11-03 06:16:26,1802.83555569073,6.7000002144,1.8359984799959999,0.8593080274978561,1802.83555569073,6.7000002144,1.8359984799959999,0.8593080274978561,1684,0.0,99,GPS_Atti,
0.0603400792240373,36.9454245952717,8900,2017-11-03 06:16:26,1803.2355557035298,7.1000002272,1.8359984799959999,0.927759029688288,1803.2355557035298,7.1000002272,1.8359984799959999,0.927759029688288,1684,0.0,99,GPS_Atti,
0.0603406470558435,36.9454245038042,9000,2017-11-03 06:16:27,1803.73555571953,7.600000243200001,1.7999985098000002,0.99141503172528,1803.73555571953,7.600000243200001,1.8359984799959999,0.99141503172528,1684,0.0,99,GPS_Atti,
0.0603411874012452,36.9454244595553,9100,2017-11-03 06:16:27,1804.23555573553,8.1000002592,1.7999985098000002,1.0517000336544,1804.23555573553,8.1000002592,1.8359984799959999,1.0517000336544,1684,0.0,99,GPS_Atti,
0.0603416646505488,36.9454244792313,9200,2017-11-03 06:16:27,1804.73555575153,8.6000002752,1.7999985098000002,1.10452003534464,1804.73555575153,8.6000002752,1.8359984799959999,1.10452003534464,1684,0.0,99,GPS_Atti,
0.060342169054563,36.9454244737008,9300,2017-11-03 06:16:27,1805.2355557675298,9.1000002912,2.15999821176,1.1605500371376,1805.2355557675298,9.1000002912,2.15999821176,1.1605500371376,1684,0.0,99,GPS_Atti,
0.0603427167513716,36.9454244097116,9400,2017-11-03 06:16:27,1805.7355557835301,9.6000003072,2.5451978928572,1.22178003909696,1805.7355557835301,9.6000003072,2.5451978928572,1.22178003909696,1684,0.0,99,GPS_Atti,
0.0603432975809089,36.9454243064217,9500,2017-11-03 06:16:27,1806.33555580273,10.2000003264,2.5451978928572,1.28698004118336,1806.33555580273,10.2000003264,2.5451978928572,1.28698004118336,1684,0.0,99,GPS_Atti,
0.0603438471270192,36.9454242194409,9600,2017-11-03 06:16:27,1806.83555581873,10.700000342400001,2.15999821176,1.34861004315552,1806.83555581873,10.700000342400001,2.5451978928572,1.34861004315552,1684,0.0,99,GPS_Atti,
0.0603443553012884,36.9454241620861,9700,2017-11-03 06:16:27,1807.33555583473,11.2000003584,1.7999985098000002,1.40544004497408,1807.33555583473,11.2000003584,2.5451978928572,1.40544004497408,1684,0.0,99,GPS_Atti,
0.0603447995689014,36.9454241541745,9800,2017-11-03 06:16:27,1807.8355558507299,11.7000003744,1.7999985098000002,1.45478004655296,1807.8355558507299,11.7000003744,2.5451978928572,1.45478004655296,1684,0.0,99,GPS_Atti,
0.0603452049309518,36.9454241746824,9900,2017-11-03 06:16:27,1808.3355558667301,12.200000390400001,1.7999985098000002,1.49959004798688,1808.3355558667301,12.200000390400001,2.5451978928572,1.49959004798688,1684,0.0,99,GPS_Atti,
0.0603456322379135,36.9454241912292,10000,2017-11-03 06:16:28,1808.83555588273,12.700000406400001,2.15999821176,1.5468900495004803,1808.83555588273,12.700000406400001,2.5451978928572,1.5468900495004803,1684,0.0,99,GPS_Atti,
0.060346096551265,36.9454242038213,10100,2017-11-03 06:16:28,1809.3355558987298,13.2000004224,2.51999791372,1.5983300511465601,1809.3355558987298,13.2000004224,2.5451978928572,1.5983300511465601,1684,0.0,99,GPS_Atti,
0.0603465680957221,36.9454242329794,10200,2017-11-03 06:16:28,1809.8355559147299,13.7000004384,2.51999791372,1.65048005281536,1809.8355559147299,13.7000004384,2.5451978928572,1.65048005281536,1684,0.0,99,GPS_Atti,
0.0603470211190713,36.945424273947,10300,2017-11-03 06:16:28,1810.43555593393,14.300000457600001,2.15999821176,1.70053005441696,1810.43555593393,14.300000457600001,2.5451978928572,1.70053005441696,1684,0.0,99,GPS_Atti,
0.0603474193460943,36.9454243307248,10400,2017-11-03 06:16:28,1810.93555594993,14.8000004736,1.7999985098000002,1.74444005582208,1810.93555594993,14.8000004736,2.5451978928572,1.74444005582208,1684,0.0,99,GPS_Atti,
0.0603477347545268,36.9454243862393,10500,2017-11-03 06:16:28,1811.43555596593,15.3000004896,1.4399988078400001,1.7792000569344002,1811.43555596593,15.3000004896,2.5451978928572,1.7792000569344002,1684,0.0,99,GPS_Atti,
0.0603479653022998,36.9454244426916,10600,2017-11-03 06:16:28,1811.93555598193,15.8000005056,1.4399988078400001,1.8045500577456,1811.93555598193,15.8000005056,2.5451978928572,1.8045500577456,1684,0.0,99,GPS_Atti,
0.0603481665755352,36.9454245193981,10700,2017-11-03 06:16:28,1812.43555599793,16.3000005216,1.4399988078400001,1.8266000584512,1812.43555599793,16.3000005216,2.5451978928572,1.8266000584512,1684,0.0,99,GPS_Atti,
0.0603483967479519,36.9454246160505,10800,2017-11-03 06:16:28,1813.03555601713,16.9000005408,1.4831987720752,1.8518500592592,1813.03555601713,16.9000005408,2.5451978928572,1.8518500592592,1684,0.0,99,GPS_Atti,
0.0603486389097876,36.9454247200159,10900,2017-11-03 06:16:28,1813.53555603313,17.400000556800002,1.4831987720752,1.87848006011136,1813.53555603313,17.400000556800002,2.5451978928572,1.87848006011136,1684,0.0,99,GPS_Atti,
0.0603488610026795,36.9454248444335,11000,2017-11-03 06:16:29,1814.0355560491298,17.9000005728,1.4399988078400001,1.9029300608937603,1814.0355560491298,17.9000005728,2.5451978928572,1.9029300608937603,1684,0.0,99,GPS_Atti,
0.0603491109207939,36.9454249303641,11100,2017-11-03 06:16:29,1814.6355560683298,18.500000592000003,1.4399988078400001,1.93061006177952,1814.6355560683298,18.500000592000003,2.5451978928572,1.93061006177952,1684,0.0,99,GPS_Atti,
0.0603493854275985,36.9454249695877,11200,2017-11-03 06:16:29,1815.13555608433,19.000000608,1.4399988078400001,1.9611000627552002,1815.13555608433,19.000000608,2.5451978928572,1.9611000627552002,1684,0.0,99,GPS_Atti,
0.0603496405713897,36.9454249807345,11300,2017-11-03 06:16:29,1815.63555610033,19.500000624000002,1.4399988078400001,1.9894700636630402,1815.63555610033,19.500000624000002,2.5451978928572,1.9894700636630402,1684,0.0,99,GPS_Atti,
0.0603499064197575,36.9454249851453,11400,2017-11-03 06:16:29,1816.13555611633,20.00000064,1.4399988078400001,2.0190300646089603,1816.13555611633,20.00000064,2.5451978928572,2.0190300646089603,1684,0.0,99,GPS_Atti,
0.0603501636048033,36.945424987189,11500,2017-11-03 06:16:29,1816.6355561323298,20.500000656,1.07999910588,2.04763006552416,1816.6355561323298,20.500000656,2.5451978928572,2.04763006552416,1684,0.0,99,GPS_Atti,
0.0603504187958193,36.9454250185364,11600,2017-11-03 06:16:29,1817.1355561483301,21.000000672,1.07999910588,2.07599006643168,1817.1355561483301,21.000000672,2.5451978928572,2.07599006643168,1684,0.0,99,GPS_Atti,
0.0603506683972014,36.9454250519971,11700,2017-11-03 06:16:29,1817.63555616433,21.500000688,1.07999910588,2.10374006731968,1817.63555616433,21.500000688,2.5451978928572,2.10374006731968,1684,0.0,99,GPS_Atti,
0.060350931780105,36.9454250923695,11800,2017-11-03 06:16:29,1818.1355561803298,22.000000703999998,1.07999910588,2.13302006825664,1818.1355561803298,22.000000703999998,2.5451978928572,2.13302006825664,1684,0.0,99,GPS_Atti,
0.0603512198827885,36.9454251366013,11900,2017-11-03 06:16:29,1818.6355561963298,22.50000072,1.07999910588,2.16507006928224,1818.6355561963298,22.50000072,2.5451978928572,2.16507006928224,1684,0.0,99,GPS_Atti,
0.060351554029726,36.9454251892306,12000,2017-11-03 06:16:30,1819.13555621233,23.000000736000004,1.4399988078400001,2.202250070472,1819.13555621233,23.000000736000004,2.5451978928572,2.202250070472,1684,0.0,99,GPS_Atti,
0.0603518926508134,36.9454252394619,12100,2017-11-03 06:16:30,1819.63555622833,23.500000752000002,1.07999910588,2.23994007167808,1819.63555622833,23.500000752000002,2.5451978928572,2.23994007167808,1684,0.0,99,GPS_Atti,
0.0603522050124271,36.9454252910013,12200,2017-11-03 06:16:30,1820.1355562443298,24.000000768000003,1.07999910588,2.27473007279136,1820.1355562443298,24.000000768000003,2.5451978928572,2.27473007279136,1684,0.0,99,GPS_Atti,
0.060352478034905,36.9454253292186,12300,2017-11-03 06:16:30,1820.63555626033,24.500000784,1.07999910588,2.3051300737641602,1820.63555626033,24.500000784,2.5451978928572,2.3051300737641602,1684,0.0,99,GPS_Atti,
0.0603526908977762,36.9454253633185,12400,2017-11-03 06:16:30,1821.13555627633,25.000000800000002,0.7199994039200001,2.3288500745232,1821.13555627633,25.000000800000002,2.5451978928572,2.3288500745232,1684,0.0,99,GPS_Atti,
0.0603528646568218,36.9454253905228,12500,2017-11-03 06:16:30,1821.7355562955302,25.6000008192,0.7199994039200001,2.34821007514272,1821.7355562955302,25.6000008192,2.5451978928572,2.34821007514272,1684,0.0,99,GPS_Atti,
0.0603530209793033,36.9454254102428,12600,2017-11-03 06:16:30,1822.23555631153,26.100000835200003,0.35999970196000003,2.3656300757001603,1822.23555631153,26.100000835200003,2.5451978928572,2.3656300757001603,1684,0.0,99,GPS_Atti,
0.0603531541689236,36.9454254151738,12700,2017-11-03 06:16:30,1822.7355563275298,26.6000008512,0.35999970196000003,2.3804500761744,1822.7355563275298,26.6000008512,2.5451978928572,2.3804500761744,1684,0.0,99,GPS_Atti,
0.0603532208325355,36.945425385247,12800,2017-11-03 06:16:30,1823.2355563435299,27.100000867200002,0.35999970196000003,2.38781007640992,1823.2355563435299,27.100000867200002,2.5451978928572,2.38781007640992,1684,0.0,99,GPS_Atti,
0.0603532953924723,36.9454253675601,12900,2017-11-03 06:16:30,1823.73555635953,27.600000883200003,0.35999970196000003,2.39608007667456,1823.73555635953,27.600000883200003,2.5451978928572,2.39608007667456,1684,0.0,99,GPS_Atti,
0.0603533934459707,36.9454253517253,13000,2017-11-03 06:16:31,1824.23555637553,28.1000008992,0.35999970196000003,2.40696007702272,1824.23555637553,28.1000008992,2.5451978928572,2.40696007702272,1684,0.0,99,GPS_Atti,
0.0603535380550545,36.9454253516118,13100,2017-11-03 06:16:31,1824.83555639473,28.7000009184,0.7199994039200001,2.42304007753728,1824.83555639473,28.7000009184,2.5451978928572,2.42304007753728,1684,0.0,99,GPS_Atti,
0.0603537060290528,36.9454253673867,13200,2017-11-03 06:16:31,1825.3355564107299,29.200000934400002,0.7199994039200001,2.4417400781356804,1825.3355564107299,29.200000934400002,2.5451978928572,2.4417400781356804,1684,0.0,99,GPS_Atti,
0.0603538861919544,36.9454253863197,13300,2017-11-03 06:16:31,1825.83555642673,29.700000950400003,0.7199994039200001,2.4618000787776,1825.83555642673,29.700000950400003,2.5451978928572,2.4618000787776,1684,0.0,99,GPS_Atti,
0.060354049927113,36.945425399825,13400,2017-11-03 06:16:31,1826.43555644593,30.300000969600003,0.35999970196000003,2.48003007936096,1826.43555644593,30.300000969600003,2.5451978928572,2.48003007936096,1684,0.0,99,GPS_Atti,
0.0603542097377215,36.9454254124053,13500,2017-11-03 06:16:31,1826.93555646193,30.8000009856,0.7199994039200001,2.49782007993024,1826.93555646193,30.8000009856,2.5451978928572,2.49782007993024,1684,0.0,99,GPS_Atti,
0.0603543411352392,36.9454253893313,13600,2017-11-03 06:16:31,1827.4355564779298,31.300001001600002,0.35999970196000003,2.51239008039648,1827.4355564779298,31.300001001600002,2.5451978928572,2.51239008039648,1684,0.0,99,GPS_Atti,
0.0603544421671616,36.9454253416608,13700,2017-11-03 06:16:31,1827.93555649393,31.800001017600003,0.35999970196000003,2.52356008075392,1827.93555649393,31.800001017600003,2.5451978928572,2.52356008075392,1684,0.0,99,GPS_Atti,
0.060354491458533,36.9454252981913,13800,2017-11-03 06:16:31,1828.53555651313,32.4000010368,0.0,2.5289900809276804,1828.53555651313,32.4000010368,2.5451978928572,2.5289900809276804,1684,0.0,99,GPS_Atti,
0.060354518265978,36.9454252486367,13900,2017-11-03 06:16:31,1829.03555652913,32.9000010528,0.0,2.53193008102176,1829.03555652913,32.9000010528,2.5451978928572,2.53193008102176,1684,0.0,99,GPS_Atti,
0.0603545172840263,36.9454251838039,14000,2017-11-03 06:16:32,1829.53555654513,33.4000010688,0.0,2.53178008101696,1829.53555654513,33.4000010688,2.5451978928572,2.53193008102176,1684,0.0,99,GPS_Atti,
0.0603545188961859,36.9454251354065,14100,2017-11-03 06:16:32,1830.0355565611299,33.9000010848,0.0,2.5319400810220802,1830.0355565611299,33.9000010848,2.5451978928572,2.5319400810220802,1684,0.0,99,GPS_Atti,
0.060354519839055,36.9454251074731,14200,2017-11-03 06:16:32,1830.5355565771301,34.4000011008,0.0,2.53204008102528,1830.5355565771301,34.4000011008,2.5451978928572,2.53204008102528,1684,0.0,99,GPS_Atti,
0.0603545215147238,36.9454250943576,14300,2017-11-03 06:16:32,1831.03555659313,34.900001116800006,0.0,2.53222008103104,1831.03555659313,34.900001116800006,2.5451978928572,2.53222008103104,1684,0.0,99,GPS_Atti,
0.0603545196615546,36.9454250696723,14400,2017-11-03 06:16:32,1831.5355566091298,35.4000011328,0.0,2.5320200810246405,1831.5355566091298,35.4000011328,2.5451978928572,2.53222008103104,1684,0.0,99,GPS_Atti,
0.0603545273184982,36.9454250285131,14500,2017-11-03 06:16:32,1832.13555662833,36.000001152,0.0,2.53288008105216,1832.13555662833,36.000001152,2.5451978928572,2.53288008105216,1684,0.0,99,GPS_Atti,
0.0603545472995061,36.9454249817772,14600,2017-11-03 06:16:32,1832.6355566443299,36.500001168000004,0.0,2.53512008112384,1832.6355566443299,36.500001168000004,2.5451978928572,2.53512008112384,1684,0.0,99,GPS_Atti,
0.0603545697622626,36.9454249408107,14700,2017-11-03 06:16:32,1833.13555666033,37.000001184000006,0.0,2.53764008120448,1833.13555666033,37.000001184000006,2.5451978928572,2.53764008120448,1684,0.0,99,GPS_Atti,
0.0603545447216792,36.9454249247671,14800,2017-11-03 06:16:32,1833.63555667633,37.5000012,0.0,2.5348700811158404,1833.63555667633,37.5000012,2.5451978928572,2.53764008120448,1684,0.0,99,GPS_Atti,
0.0603545048703977,36.9454248974515,14900,2017-11-03 06:16:32,1834.2355566955298,38.1000012192,0.0,2.5304600809747204,1834.2355566955298,38.1000012192,2.5451978928572,2.53764008120448,1684,0.0,99,GPS_Atti,
0.0603544498973853,36.9454248514832,15000,2017-11-03 06:16:33,1834.7355567115299,38.600001235200004,0.0,2.52439008078048,1834.7355567115299,38.600001235200004,2.5451978928572,2.53764008120448,1684,0.0,99,GPS_Atti,
0.060354356406787,36.9454247904874,15100,2017-11-03 06:16:33,1835.23555672753,39.100001251200005,0.0,2.5140800804505603,1835.23555672753,39.100001251200005,2.5451978928572,2.53764008120448,1684,0.0,99,GPS_Atti,
0.0603542465405558,36.9454247259886,15200,2017-11-03 06:16:33,1835.73555674353,39.60000126720001,0.0,2.50196008006272,1835.73555674353,39.60000126720001,2.5451978928572,2.53764008120448,1684,0.0,99,GPS_Atti,
0.060354125745837,36.9454246490776,15300,2017-11-03 06:16:33,1836.2355567595298,40.10000128320001,0.0,2.48869007963808,1836.2355567595298,40.10000128320001,2.5451978928572,2.53764008120448,1684,0.0,99,GPS_Atti,
0.0603540416041357,36.9454245671317,15400,2017-11-03 06:16:33,1836.73555677553,40.6000012992,0.0,2.4795300793449604,1836.73555677553,40.6000012992,2.5451978928572,2.53764008120448,1684,0.0,99,GPS_Atti,
0.0603539542592851,36.9454244607008,15500,2017-11-03 06:16:33,1837.23555679153,41.100001315200004,0.0,2.4701200790438405,1837.23555679153,41.100001315200004,2.5451978928572,2.53764008120448,1684,0.0,99,GPS_Atti,
0.0603538782402624,36.9454243566294,15600,2017-11-03 06:16:33,1837.83555681073,41.7000013344,0.0,2.46202007878464,1837.83555681073,41.7000013344,2.5451978928572,2.53764008120448,1684,0.0,99,GPS_Atti,
0.0603537959517303,36.9454242326796,15700,2017-11-03 06:16:33,1838.33555682673,42.2000013504,0.0,2.45337007850784,1838.33555682673,42.2000013504,2.5451978928572,2.53764008120448,1684,0.0,99,GPS_Atti,
0.0603537259172394,36.945424131397,15800,2017-11-03 06:16:33,1838.8355568427298,42.7000013664,0.0,2.4460500782736,1838.8355568427298,42.7000013664,2.5451978928572,2.53764008120448,1684,0.0,99,GPS_Atti,
0.0603536555244907,36.9454240386876,15900,2017-11-03 06:16:33,1839.33555685873,43.2000013824,0.0,2.4387000780384,1839.33555685873,43.2000013824,2.5451978928572,2.53764008120448,1684,0.0,99,GPS_Atti,
0.0603536054351818,36.9454239756266,16000,2017-11-03 06:16:34,1839.83555687473,43.7000013984,0.0,2.4334800778713603,1839.83555687473,43.7000013984,2.5451978928572,2.53764008120448,1684,0.0,99,GPS_Atti,
0.0603535441731186,36.9454239011073,16100,2017-11-03 06:16:34,1840.33555689073,44.2000014144,0.0,2.42712007766784,1840.33555689073,44.2000014144,2.5451978928572,2.53764008120448,1684,0.0,99,GPS_Atti,
0.0603534842561502,36.945423826103,16200,2017-11-03 06:16:34,1840.8355569067298,44.7000014304,0.0,2.42093007746976,1840.8355569067298,44.7000014304,2.5451978928572,2.53764008120448,1684,0.0,99,GPS_Atti,
0.0603534168776514,36.9454237540824,16300,2017-11-03 06:16:34,1841.4355569259299,45.3000014496,0.0,2.41393007724576,1841.4355569259299,45.3000014496,2.5451978928572,2.53764008120448,1684,0.0,99,GPS_Atti,
0.0603533663519195,36.9454237058949,16400,2017-11-03 06:16:34,1841.93555694193,45.800001465600005,0.0,2.40866007707712,1841.93555694193,45.800001465600005,2.5451978928572,2.53764008120448,1684,0.0,99,GPS_Atti,
0.0603533223139085,36.9454236445918,16500,2017-11-03 06:16:34,1842.43555695793,46.300001481600006,0.0,2.4042100769347203,1842.43555695793,46.300001481600006,2.5451978928572,2.53764008120448,1684,0.0,99,GPS_Atti,
0.0603532875922256,36.9454235714288,16600,2017-11-03 06:16:34,1842.93555697393,46.8000014976,0.0,2.40092007682944,1842.93555697393,46.8000014976,2.5451978928572,2.53764008120448,1684,0.0,99,GPS_Atti,
0.0603531495376289,36.9454234690511,16800,2017-11-03 06:16:34,1844.03555700913,47.9000015328,0.0,2.38644007636608,1844.03555700913,47.9000015328,2.5451978928572,2.53764008120448,1684,0.0,99,GPS_Atti,
0.0603530698497219,36.9454234493943,16900,2017-11-03 06:16:34,1844.53555702513,48.4000015488,0.0,2.37776007608832,1844.53555702513,48.4000015488,2.5451978928572,2.53764008120448,1684,0.0,99,GPS_Atti,
0.0603530062199012,36.9454234453315,17000,2017-11-03 06:16:35,1845.0355570411298,48.9000015648,0.0,2.3707400758636803,1845.0355570411298,48.9000015648,2.5451978928572,2.53764008120448,1684,0.0,99,GPS_Atti,
0.0603529383439127,36.9454234669752,17100,2017-11-03 06:16:35,1845.53555705713,49.4000015808,0.0,2.36303007561696,1845.53555705713,49.4000015808,2.5451978928572,2.53764008120448,1684,0.0,99,GPS_Atti,
0.0603528925813795,36.9454235108944,17200,2017-11-03 06:16:35,1846.03555707313,49.9000015968,0.0,2.35759007544288,1846.03555707313,49.9000015968,2.5451978928572,2.53764008120448,1684,0.0,99,GPS_Atti,
0.0603528301199673,36.9454235671059,17300,2017-11-03 06:16:35,1846.53555708913,50.4000016128,0.0,2.35021007520672,1846.53555708913,50.4000016128,2.5451978928572,2.53764008120448,1684,0.0,99,GPS_Atti,
0.0603527841530644,36.9454236198326,17400,2017-11-03 06:16:35,1847.03555710513,50.9000016288,0.0,2.3446900750300803,1847.03555710513,50.9000016288,2.5451978928572,2.53764008120448,1684,0.0,99,GPS_Atti,
0.0603527354324627,36.9454236610101,17500,2017-11-03 06:16:35,1847.6355571243298,51.500001648,0.0,2.33897007484704,1847.6355571243298,51.500001648,2.5451978928572,2.53764008120448,1684,0.0,99,GPS_Atti,
0.0603526939543656,36.94542369232,17600,2017-11-03 06:16:35,1848.1355571403299,52.000001664,0.0,2.33414007469248,1848.1355571403299,52.000001664,2.5451978928572,2.53764008120448,1684,0.0,99,GPS_Atti,
0.0603526764884895,36.9454237242723,17700,2017-11-03 06:16:35,1848.63555715633,52.500001680000004,0.0,2.33197007462304,1848.63555715633,52.500001680000004,2.5451978928572,2.53764008120448,1684,0.0,99,GPS_Atti,
0.060352690482523,36.9454237476268,17800,2017-11-03 06:16:35,1849.13555717233,53.000001696000005,0.0,2.3333500746672002,1849.13555717233,53.000001696000005,2.5451978928572,2.53764008120448,1684,0.0,99,GPS_Atti,
0.0603527186904299,36.9454237657184,17900,2017-11-03 06:16:35,1849.73555719153,53.6000017152,0.0,2.3363600747635203,1849.73555719153,53.6000017152,2.5451978928572,2.53764008120448,1684,0.0,99,GPS_Atti,
0.0603527354723596,36.9454237800737,18000,2017-11-03 06:16:36,1850.2355572075298,54.1000017312,0.0,2.33812007481984,1850.2355572075298,54.1000017312,2.5451978928572,2.53764008120448,1684,0.0,99,GPS_Atti,
0.0603527502236195,36.9454237892122,18100,2017-11-03 06:16:36,1850.73555722353,54.6000017472,0.0,2.33969007487008,1850.73555722353,54.6000017472,2.5451978928572,2.53764008120448,1684,0.0,99,GPS_Atti,
0.0603527678319844,36.9454238020879,18200,2017-11-03 06:16:36,1851.23555723953,55.1000017632,0.0,2.3415600749299204,1851.23555723953,55.1000017632,2.5451978928572,2.53764008120448,1684,0.0,99,GPS_Atti,
0.0603527917497556,36.9454238055577,18300,2017-11-03 06:16:36,1851.83555725873,55.7000017824,0.0,2.34419007501408,1851.83555725873,55.7000017824,2.5451978928572,2.53764008120448,1684,0.0,99,GPS_Atti,
0.0603528035364333,36.9454238103431,18400,2017-11-03 06:16:36,1852.3355572747298,56.2000017984,0.0,2.34547007505504,1852.3355572747298,56.2000017984,2.5451978928572,2.53764008120448,1684,0.0,99,GPS_Atti,
0.0603528461047736,36.9454238217158,18500,2017-11-03 06:16:36,1852.83555729073,56.700001814400004,0.0,2.35012007520384,1852.83555729073,56.700001814400004,2.5451978928572,2.53764008120448,1684,0.0,98,GPS_Atti,
0.0603529632436356,36.9454238339182,18600,2017-11-03 06:16:36,1853.33555730673,57.200001830400005,0.0,2.3630400756172802,1853.33555730673,57.200001830400005,2.5451978928572,2.53764008120448,1684,0.0,98,GPS_Atti,
0.0603530764563192,36.9454238565747,18700,2017-11-03 06:16:36,1853.8355573227298,57.700001846400006,0.0,2.37546007601472,1853.8355573227298,57.700001846400006,2.5451978928572,2.53764008120448,1684,0.0,98,GPS_Atti,
0.0603531258177136,36.9454239128493,18800,2017-11-03 06:16:36,1854.43555734193,58.30000186560001,0.0,2.38059007617888,1854.43555734193,58.30000186560001,2.5451978928572,2.53764008120448,1684,0.0,98,GPS_Atti,
0.0603531533970411,36.9454239576849,18900,2017-11-03 06:16:36,1854.9355573579298,58.8000018816,0.0,2.3833900762684803,1854.9355573579298,58.8000018816,2.5451978928572,2.53764008120448,1684,0.0,98,GPS_Atti,
0.0603531855718376,36.9454240054613,19000,2017-11-03 06:16:37,1855.4355573739301,59.3000018976,0.0,2.38669007637408,1855.4355573739301,59.3000018976,2.5451978928572,2.53764008120448,1684,0.0,98,GPS_Atti,
0.0603532270483062,36.945424028089,19100,2017-11-03 06:16:37,1855.93555738993,59.800001913600006,0.0,2.39117007651744,1855.93555738993,59.800001913600006,2.5451978928572,2.53764008120448,1684,0.0,98,GPS_Atti,
0.0603532824007461,36.945424028651,19200,2017-11-03 06:16:37,1856.4355574059298,60.30000192960001,0.0,2.39731007671392,1856.4355574059298,60.30000192960001,2.5451978928572,2.53764008120448,1684,0.0,98,GPS_Atti,
0.0603533397236033,36.9454240382669,19300,2017-11-03 06:16:37,1857.03555742513,60.9000019488,0.0,2.4036300769161603,1857.03555742513,60.9000019488,2.5451978928572,2.53764008120448,1684,0.0,98,GPS_Atti,
0.0603534029805103,36.9454240831142,19400,2017-11-03 06:16:37,1857.5355574411299,61.400001964800005,0.0,2.4104200771334403,1857.5355574411299,61.400001964800005,2.5451978928572,2.53764008120448,1684,0.0,98,GPS_Atti,
0.0603535069012924,36.9454241688617,19600,2017-11-03 06:16:37,1858.53555747313,62.4000019968,0.0,2.42154007748928,1858.53555747313,62.4000019968,2.5451978928572,2.53764008120448,1684,0.0,98,GPS_Atti,
0.0603535560070212,36.945424206275,19700,2017-11-03 06:16:37,1859.03555748913,62.9000020128,0.0,2.4268300776585603,1859.03555748913,62.9000020128,2.5451978928572,2.53764008120448,1684,0.0,98,GPS_Atti,
0.0603536177543606,36.9454242556787,19800,2017-11-03 06:16:37,1859.5355575051299,63.4000020288,0.0,2.43347007787104,1859.5355575051299,63.4000020288,2.5451978928572,2.53764008120448,1684,0.0,98,GPS_Atti,
0.0603536801400502,36.9454242930213,19900,2017-11-03 06:16:37,1860.13555752433,64.000002048,0.0,2.440250078088,1860.13555752433,64.000002048,2.5451978928572,2.53764008120448,1684,0.0,98,GPS_Atti,
0.0603537393079343,36.9454243358485,20000,2017-11-03 06:16:38,1860.63555754033,64.500002064,0.0,2.44666007829312,1860.63555754033,64.500002064,2.5451978928572,2.53764008120448,1684,0.0,98,GPS_Atti,
0.0603537698966264,36.9454243952481,20100,2017-11-03 06:16:38,1861.1355575563298,65.00000208,0.0,2.44984007839488,1861.1355575563298,65.00000208,2.5451978928572,2.53764008120448,1684,0.0,98,GPS_Atti,
0.0603537996092156,36.9454244951497,20200,2017-11-03 06:16:38,1861.63555757233,65.500002096,0.0,2.45282007849024,1861.63555757233,65.500002096,2.5451978928572,2.53764008120448,1684,0.0,98,GPS_Atti,
0.0603538305691928,36.9454245709077,20300,2017-11-03 06:16:38,1862.13555758833,66.000002112,0.0,2.4560500785936,1862.13555758833,66.000002112,2.5451978928572,2.53764008120448,1684,0.0,98,GPS_Atti,
0.0603538856936506,36.945424622051,20400,2017-11-03 06:16:38,1862.6355576043297,66.500002128,0.0,2.46206007878592,1862.6355576043297,66.500002128,2.5451978928572,2.53764008120448,1684,0.0,98,GPS_Atti,
0.0603539240581627,36.9454246597266,20500,2017-11-03 06:16:38,1863.23555762353,67.1000021472,0.0,2.4662400789196806,1863.23555762353,67.1000021472,2.5451978928572,2.53764008120448,1684,0.0,98,GPS_Atti,
0.0603538820980462,36.9454247366943,20600,2017-11-03 06:16:38,1863.7355576395298,67.6000021632,0.0,2.4614200787654403,1863.7355576395298,67.6000021632,2.5451978928572,2.53764008120448,1684,0.0,98,GPS_Atti,
0.060353849550336,36.9454248030238,20700,2017-11-03 06:16:38,1864.23555765553,68.1000021792,0.0,2.4577000786464005,1864.23555765553,68.1000021792,2.5451978928572,2.53764008120448,1684,0.0,98,GPS_Atti,
0.0603538553557389,36.9454248604557,20800,2017-11-03 06:16:38,1864.73555767153,68.6000021952,0.0,2.4582700786646403,1864.73555767153,68.6000021952,2.5451978928572,2.53764008120448,1684,0.0,98,GPS_Atti,
0.0603538577479231,36.9454248923063,20900,2017-11-03 06:16:38,1865.23555768753,69.1000022112,0.0,2.4585000786720004,1865.23555768753,69.1000022112,2.5451978928572,2.53764008120448,1684,0.0,98,GPS_Atti,
0.0603538412713268,36.9454249517937,21000,2017-11-03 06:16:39,1865.83555770673,69.7000022304,0.0,2.45662007861184,1865.83555770673,69.7000022304,2.5451978928572,2.53764008120448,1684,0.0,98,GPS_Atti,
0.060353816445698,36.9454249913011,21100,2017-11-03 06:16:39,1866.3355577227298,70.2000022464,0.0,2.45384007852288,1866.3355577227298,70.2000022464,2.5451978928572,2.53764008120448,1684,0.0,98,GPS_Atti,
0.0603538133255993,36.9454250454602,21200,2017-11-03 06:16:39,1866.83555773873,70.7000022624,0.0,2.4534700785110406,1866.83555773873,70.7000022624,2.5451978928572,2.53764008120448,1684,0.0,98,GPS_Atti,
0.0603538083051065,36.9454250959666,21300,2017-11-03 06:16:39,1867.33555775473,71.2000022784,0.0,2.45291007849312,1867.33555775473,71.2000022784,2.5451978928572,2.53764008120448,1684,0.0,98,GPS_Atti,
0.0603537767279489,36.945425172929,21500,2017-11-03 06:16:39,1868.4355577899298,72.3000023136,0.0,2.44942007838144,1868.4355577899298,72.3000023136,2.5451978928572,2.53764008120448,1684,0.0,98,GPS_Atti,
0.0603537541267747,36.9454251894897,21600,2017-11-03 06:16:39,1868.93555780593,72.8000023296,0.0,2.44691007830112,1868.93555780593,72.8000023296,2.5451978928572,2.53764008120448,1684,0.0,98,GPS_Atti,
0.0603537240298728,36.9454252054776,21700,2017-11-03 06:16:39,1869.43555782193,73.3000023456,0.0,2.44357007819424,1869.43555782193,73.3000023456,2.5451978928572,2.53764008120448,1684,0.0,98,GPS_Atti,
0.0603537118719099,36.9454252479611,21800,2017-11-03 06:16:39,1869.9355578379298,73.80000236160001,0.0,2.4422500781520005,1869.9355578379298,73.80000236160001,2.5451978928572,2.53764008120448,1684,0.0,98,GPS_Atti,
0.0603536850823777,36.9454252963253,21900,2017-11-03 06:16:39,1870.43555785393,74.30000237760001,0.0,2.43932007805824,1870.43555785393,74.30000237760001,2.5451978928572,2.53764008120448,1684,0.0,98,GPS_Atti,
0.0603536405444344,36.9454253497683,22000,2017-11-03 06:16:40,1870.9355578699299,74.80000239360001,0.0,2.43443007790176,1870.9355578699299,74.80000239360001,2.5451978928572,2.53764008120448,1684,0.0,98,GPS_Atti,
0.0603535931502003,36.9454253736345,22100,2017-11-03 06:16:40,1871.43555788593,75.3000024096,0.0,2.42919007773408,1871.43555788593,75.3000024096,2.5451978928572,2.53764008120448,1684,0.0,98,GPS_Atti,
0.0603535762681214,36.9454254033247,22200,2017-11-03 06:16:40,1871.93555790193,75.8000024256,0.0,2.42736007767552,1871.93555790193,75.8000024256,2.5451978928572,2.53764008120448,1684,0.0,98,GPS_Atti,
0.0603535533640566,36.9454254213403,22300,2017-11-03 06:16:40,1872.43555791793,76.3000024416,0.0,2.4248500775952,1872.43555791793,76.3000024416,2.5451978928572,2.53764008120448,1684,0.0,98,GPS_Atti,
0.0603535303183171,36.945425417316,22400,2017-11-03 06:16:40,1873.03555793713,76.9000024608,0.0,2.42228007751296,1873.03555793713,76.9000024608,2.5451978928572,2.53764008120448,1684,0.0,98,GPS_Atti,
0.0603535012522202,36.945425413644,22500,2017-11-03 06:16:40,1873.53555795313,77.4000024768,0.0,2.41904007740928,1873.53555795313,77.4000024768,2.5451978928572,2.53764008120448,1684,0.0,98,GPS_Atti,
0.060353493611561,36.9454254057399,22600,2017-11-03 06:16:40,1874.03555796913,77.9000024928,0.0,2.41818007738176,1874.03555796913,77.9000024928,2.5451978928572,2.53764008120448,1684,0.0,98,GPS_Atti,
0.0603534683397386,36.9454253982213,22700,2017-11-03 06:16:40,1874.5355579851298,78.4000025088,0.0,2.4153500772912,1874.5355579851298,78.4000025088,2.5451978928572,2.53764008120448,1684,0.0,98,GPS_Atti,
0.0603534463199189,36.9454253989504,22800,2017-11-03 06:16:40,1875.03555800113,78.9000025248,0.0,2.41291007721312,1875.03555800113,78.9000025248,2.5451978928572,2.53764008120448,1684,0.0,98,GPS_Atti,
0.0603534396840096,36.9454254020154,22900,2017-11-03 06:16:40,1875.53555801713,79.4000025408,0.0,2.4121700771894403,1875.53555801713,79.4000025408,2.5451978928572,2.53764008120448,1684,0.0,98,GPS_Atti,
0.0603534623307802,36.945425394257,23000,2017-11-03 06:16:41,1876.0355580331297,79.9000025568,0.0,2.41468007726976,1876.0355580331297,79.9000025568,2.5451978928572,2.53764008120448,1684,0.0,98,GPS_Atti,
0.0603534656837464,36.9454253761911,23100,2017-11-03 06:16:41,1876.63555805233,80.500002576,0.0,2.41502007728064,1876.63555805233,80.500002576,2.5451978928572,2.53764008120448,1684,0.0,98,GPS_Atti,
0.0603535134655502,36.9454253500156,23200,2017-11-03 06:16:41,1877.1355580683298,81.000002592,0.0,2.4203000774496,1877.1355580683298,81.000002592,2.5451978928572,2.53764008120448,1684,0.0,98,GPS_Atti,
0.0603535477149843,36.9454253185193,23300,2017-11-03 06:16:41,1877.6355580843301,81.500002608,0.0,2.4240700775702404,1877.6355580843301,81.500002608,2.5451978928572,2.53764008120448,1684,0.0,98,GPS_Atti,
0.0603535883707172,36.9454253069379,23400,2017-11-03 06:16:41,1878.13555810033,82.000002624,0.0,2.42858007771456,1878.13555810033,82.000002624,2.5451978928572,2.53764008120448,1684,0.0,98,GPS_Atti,
0.0603536080537198,36.9454253011001,23500,2017-11-03 06:16:41,1878.63555811633,82.50000264,0.0,2.43076007778432,1878.63555811633,82.50000264,2.5451978928572,2.53764008120448,1684,0.0,98,GPS_Atti,
0.0603536172951394,36.945425283002,23600,2017-11-03 06:16:41,1879.1355581323298,83.000002656,0.0,2.4317700778166405,1879.1355581323298,83.000002656,2.5451978928572,2.53764008120448,1684,0.0,98,GPS_Atti,
0.0603536197540899,36.9454252626494,23700,2017-11-03 06:16:41,1879.7355581515299,83.60000267520002,0.0,2.43202007782464,1879.7355581515299,83.60000267520002,2.5451978928572,2.53764008120448,1684,0.0,98,GPS_Atti,
0.0603536130123317,36.9454252506643,23800,2017-11-03 06:16:41,1880.23555816753,84.10000269119999,0.0,2.43126007780032,1880.23555816753,84.10000269119999,2.5451978928572,2.53764008120448,1684,0.0,98,GPS_Atti,
0.0603535910853333,36.9454252379309,23900,2017-11-03 06:16:41,1880.73555818353,84.60000270719999,0.0,2.42881007772192,1880.73555818353,84.60000270719999,2.5451978928572,2.53764008120448,1684,0.0,98,GPS_Atti,
0.0603535673002803,36.9454252460673,24000,2017-11-03 06:16:42,1881.23555819953,85.1000027232,0.0,2.42617007763744,1881.23555819953,85.1000027232,2.5451978928572,2.53764008120448,1684,0.0,98,GPS_Atti,
0.0603535368483775,36.9454252529457,24100,2017-11-03 06:16:42,1881.7355582155299,85.60000273920001,0.0,2.4227900775292803,1881.7355582155299,85.60000273920001,2.5451978928572,2.53764008120448,1684,0.0,98,GPS_Atti,
0.060353491821901,36.9454252639394,24200,2017-11-03 06:16:42,1882.2355582315301,86.10000275520001,0.0,2.4178000773696002,1882.2355582315301,86.10000275520001,2.5451978928572,2.53764008120448,1684,0.0,98,GPS_Atti,
0.0603534599744218,36.9454252634277,24300,2017-11-03 06:16:42,1882.73555824753,86.60000277120001,0.0,2.4142500772560003,1882.73555824753,86.60000277120001,2.5451978928572,2.53764008120448,1684,0.0,98,GPS_Atti,
0.0603534718278656,36.9454252585234,24400,2017-11-03 06:16:42,1883.3355582667298,87.2000027904,0.0,2.41557007729824,1883.3355582667298,87.2000027904,2.5451978928572,2.53764008120448,1684,0.0,98,GPS_Atti,
0.0603534783334994,36.9454252464045,24500,2017-11-03 06:16:42,1883.83555828273,87.70000280640001,0.0,2.4162800773209603,1883.83555828273,87.70000280640001,2.5451978928572,2.53764008120448,1684,0.0,98,GPS_Atti,
0.0603534916460291,36.9454252443383,24600,2017-11-03 06:16:42,1884.33555829873,88.20000282240001,0.0,2.41776007736832,1884.33555829873,88.20000282240001,2.5451978928572,2.53764008120448,1684,0.0,98,GPS_Atti,
0.0603534797649017,36.9454252439401,24700,2017-11-03 06:16:42,1884.83555831473,88.70000283840001,0.0,2.4164400773260803,1884.83555831473,88.70000283840001,2.5451978928572,2.53764008120448,1684,0.0,98,GPS_Atti,
0.0603534961030803,36.9454252574592,24800,2017-11-03 06:16:42,1885.33555833073,89.20000285440001,0.0,2.41827007738464,1885.33555833073,89.20000285440001,2.5451978928572,2.53764008120448,1684,0.0,98,GPS_Atti,
0.0603534954093632,36.9454252726196,24900,2017-11-03 06:16:42,1885.8355583467298,89.70000287040001,0.0,2.4182000773824,1885.8355583467298,89.70000287040001,2.5451978928572,2.53764008120448,1684,0.0,98,GPS_Atti,
0.0603535160091797,36.9454252900282,25000,2017-11-03 06:16:43,1886.33555836273,90.2000028864,0.0,2.42051007745632,1886.33555836273,90.2000028864,2.5451978928572,2.53764008120448,1684,0.0,98,GPS_Atti,
0.0603535272373011,36.9454252907894,25100,2017-11-03 06:16:43,1886.93555838193,90.8000029056,0.0,2.42176007749632,1886.93555838193,90.8000029056,2.5451978928572,2.53764008120448,1684,0.0,98,GPS_Atti,
0.0603535687821643,36.9454252706423,25200,2017-11-03 06:16:43,1887.43555839793,91.3000029216,0.0,2.4263600776435204,1887.43555839793,91.3000029216,2.5451978928572,2.53764008120448,1684,0.0,98,GPS_Atti,
0.0603535851724532,36.9454252383592,25300,2017-11-03 06:16:43,1887.9355584139298,91.8000029376,0.0,2.4281600777011203,1887.9355584139298,91.8000029376,2.5451978928572,2.53764008120448,1684,0.0,98,GPS_Atti,
0.0603536461544239,36.9454252082108,25400,2017-11-03 06:16:43,1888.33555842673,92.2000029504,0.0,2.43492007791744,1888.33555842673,92.2000029504,2.5451978928572,2.53764008120448,1684,0.0,98,GPS_Atti,
0.0603537069947201,36.9454251678984,25500,2017-11-03 06:16:43,1888.83555844273,92.7000029664,0.0,2.44166007813312,1888.83555844273,92.7000029664,2.5451978928572,2.53764008120448,1684,0.0,98,GPS_Atti,
0.0603537894884361,36.945425146776,25600,2017-11-03 06:16:43,1889.23555845553,93.10000297920001,0.0,2.45083007842656,1889.23555845553,93.10000297920001,2.5451978928572,2.53764008120448,1684,0.0,98,GPS_Atti,
0.060353884213395,36.9454251196819,25700,2017-11-03 06:16:43,1889.7355584715299,93.6000029952,0.0,2.4613500787632003,1889.7355584715299,93.6000029952,2.5451978928572,2.53764008120448,1684,0.0,98,GPS_Atti,
0.0603540095465872,36.9454250924541,25800,2017-11-03 06:16:43,1890.13555848433,94.00000300800001,0.0,2.4752900792092802,1890.13555848433,94.00000300800001,2.5451978928572,2.53764008120448,1684,0.0,98,GPS_Atti,
0.0603541188640327,36.9454250717085,25900,2017-11-03 06:16:43,1890.5355584971298,94.4000030208,0.0,2.4874500795984,1890.5355584971298,94.4000030208,2.5451978928572,2.53764008120448,1684,0.0,98,GPS_Atti,
0.0603542697621672,36.945425046261,26000,2017-11-03 06:16:44,1890.93555850993,94.8000030336,0.0,2.50423008013536,1890.93555850993,94.8000030336,2.5451978928572,2.53764008120448,1684,0.0,98,GPS_Atti,
0.0603543847791667,36.945425027253,26100,2017-11-03 06:16:44,1891.3355585227298,95.2000030464,0.0,2.51703008054496,1891.3355585227298,95.2000030464,2.5451978928572,2.53764008120448,1684,0.0,98,GPS_Atti,
0.0603544897258686,36.9454250328328,26200,2017-11-03 06:16:44,1891.73555853553,95.6000030592,0.0,2.5287000809184,1891.73555853553,95.6000030592,2.5451978928572,2.53764008120448,1684,0.0,98,GPS_Atti,
0.0603545850566086,36.9454250363614,26300,2017-11-03 06:16:44,1892.0355585451298,95.90000306880002,0.0,2.5393000812576,1892.0355585451298,95.90000306880002,2.5451978928572,2.5393000812576,1684,0.0,98,GPS_Atti,
0.0603546926983852,36.9454250181746,26400,2017-11-03 06:16:44,1892.33555855473,96.2000030784,0.0,2.55127008164064,1892.33555855473,96.2000030784,2.5451978928572,2.55127008164064,1684,0.0,98,GPS_Atti,
0.0603547831828759,36.9454250006514,26500,2017-11-03 06:16:44,1892.63555856433,96.50000308800001,0.0,2.5613400819628804,1892.63555856433,96.50000308800001,2.5451978928572,2.5613400819628804,1684,0.0,98,GPS_Atti,
0.0603549291321691,36.9454249868518,26600,2017-11-03 06:16:44,1892.9355585739297,96.8000030976,0.0,2.57758008248256,1892.9355585739297,96.8000030976,2.5451978928572,2.57758008248256,1684,0.0,98,GPS_Atti,
0.0603550538742362,36.945424976252,26700,2017-11-03 06:16:44,1893.1355585803299,97.00000310400002,0.0,2.5914500829264,1893.1355585803299,97.00000310400002,2.5451978928572,2.5914500829264,1684,0.0,98,GPS_Atti,
0.060355184729482,36.9454249752393,26800,2017-11-03 06:16:44,1893.43555858993,97.3000031136,0.0,2.60601008339232,1893.43555858993,97.3000031136,2.5451978928572,2.60601008339232,1684,0.0,98,GPS_Atti,
0.0603552862173688,36.9454249718413,26900,2017-11-03 06:16:44,1893.63555859633,97.50000312,0.0,2.61729008375328,1893.63555859633,97.50000312,2.5451978928572,2.61729008375328,1684,0.0,98,GPS_Atti,
0.0603553899948478,36.9454249589976,27000,2017-11-03 06:16:45,1893.83555860273,97.7000031264,0.0,2.62884008412288,1893.83555860273,97.7000031264,2.5451978928572,2.62884008412288,1684,0.0,98,GPS_Atti,
0.0603554771312576,36.9454249312409,27100,2017-11-03 06:16:45,1894.0355586091298,97.9000031328,0.0,2.6385500844336,1894.0355586091298,97.9000031328,2.5451978928572,2.6385500844336,1684,0.0,98,GPS_Atti,
0.0603555713123162,36.9454249126654,27200,2017-11-03 06:16:45,1894.23555861553,98.10000313920001,0.0,2.64904008476928,1894.23555861553,98.10000313920001,2.5451978928572,2.64904008476928,1684,0.0,98,GPS_Atti,
0.0603556434784404,36.9454249072761,27300,2017-11-03 06:16:45,1894.33555861873,98.2000031424,0.0,2.6570700850262403,1894.33555861873,98.2000031424,2.5451978928572,2.6570700850262403,1684,0.0,98,GPS_Atti,
0.0603557156103672,36.9454249370477,27400,2017-11-03 06:16:45,1894.53555862513,98.40000314880001,0.0,2.66507008528224,1894.53555862513,98.40000314880001,2.5451978928572,2.66507008528224,1024,0.0,98,GPS_Atti,
0.0603557523106096,36.9454249652701,27500,2017-11-03 06:16:45,1894.63555862833,98.500003152,0.0,2.66913008541216,1894.63555862833,98.500003152,2.5451978928572,2.66913008541216,1024,0.0,98,GPS_Atti,
0.0603558065605929,36.9454249987265,27600,2017-11-03 06:16:45,1894.7355586315298,98.6000031552,0.0,2.6751500856048005,1894.7355586315298,98.6000031552,2.5451978928572,2.6751500856048005,1024,0.0,98,GPS_Atti,
0.0603558714605999,36.9454250126922,27700,2017-11-03 06:16:45,1894.8355586347298,98.70000315840001,0.0,2.68236008583552,1894.8355586347298,98.70000315840001,2.5451978928572,2.68236008583552,1024,0.0,98,GPS_Atti,
0.0603559362922123,36.9454250003003,27800,2017-11-03 06:16:45,1894.93555863793,98.8000031616,0.0,2.68957008606624,1894.93555863793,98.8000031616,2.5451978928572,2.68957008606624,1024,0.0,98,GPS_Atti,
0.0603559300552718,36.9454249758623,27900,2017-11-03 06:16:45,1895.03555864113,98.90000316480001,0.0,2.68889008604448,1895.03555864113,98.90000316480001,2.5451978928572,2.68957008606624,1024,0.0,98,GPS_Atti,
0.0603559519269032,36.9454248953071,28000,2017-11-03 06:16:46,1895.03555864113,98.90000316480001,0.0,2.69138008612416,1895.03555864113,98.90000316480001,2.5451978928572,2.69138008612416,1024,0.0,98,GPS_Atti,
0.0603559868374856,36.9454248145207,28100,2017-11-03 06:16:46,1895.03555864113,98.90000316480001,0.0,2.6953500862512003,1895.03555864113,98.90000316480001,2.5451978928572,2.6953500862512003,1024,0.0,98,GPS_Atti,
0.0603560600800112,36.9454247455994,28200,2017-11-03 06:16:46,1895.1355586443299,99.000003168,0.0,2.7035900865148803,1895.1355586443299,99.000003168,2.5451978928572,2.7035900865148803,1024,0.0,98,GPS_Atti,
0.0603561092834466,36.9454246642198,28300,2017-11-03 06:16:46,1895.1355586443299,99.000003168,0.0,2.7092000866944,1895.1355586443299,99.000003168,2.5451978928572,2.7092000866944,1024,0.0,98,GPS_Atti,
0.0603561274666522,36.9454245831154,28400,2017-11-03 06:16:46,1895.1355586443299,99.000003168,0.0,2.71139008676448,1895.1355586443299,99.000003168,2.5451978928572,2.71139008676448,1024,0.0,98,GPS_Atti,
0.0603561097133558,36.9454245006717,28500,2017-11-03 06:16:46,1895.1355586443299,99.000003168,0.0,2.70962008670784,1895.1355586443299,99.000003168,2.5451978928572,2.71139008676448,1024,0.0,97,GPS_Atti,Warning:Max Flight Altitude Reached. Adjust in Main Controller Settings if necessary
0.0603560695510415,36.9454244077813,28600,2017-11-03 06:16:46,1895.2355586475298,99.1000031712,0.0,2.70543008657376,1895.2355586475298,99.1000031712,2.5451978928572,2.71139008676448,1024,0.0,97,GPS_Atti,
0.0603560042553226,36.9454243303158,28700,2017-11-03 06:16:46,1895.2355586475298,99.1000031712,0.0,2.69842008634944,1895.2355586475298,99.1000031712,2.5451978928572,2.71139008676448,1024,0.0,97,GPS_Atti,
0.0603558890152262,36.9454242453177,28800,2017-11-03 06:16:46,1895.2355586475298,99.1000031712,0.35999970196000003,2.68593008594976,1895.2355586475298,99.1000031712,2.5451978928572,2.71139008676448,1024,0.0,97,GPS_Atti,
0.0603557459759624,36.9454241592544,28900,2017-11-03 06:16:46,1895.2355586475298,99.1000031712,0.35999970196000003,2.67038008545216,1895.2355586475298,99.1000031712,2.5451978928572,2.71139008676448,1024,0.0,97,GPS_Atti,
0.060355561489542,36.9454240517861,29000,2017-11-03 06:16:47,1895.33555865073,99.20000317440001,0.35999970196000003,2.65037008481184,1895.33555865073,99.20000317440001,2.5451978928572,2.71139008676448,1024,0.0,97,GPS_Atti,
0.0603553641726114,36.9454239570276,29100,2017-11-03 06:16:47,1895.33555865073,99.20000317440001,0.35999970196000003,2.62893008412576,1895.33555865073,99.20000317440001,2.5451978928572,2.71139008676448,1024,0.0,97,GPS_Atti,
0.0603551824301191,36.945423849404,29200,2017-11-03 06:16:47,1895.33555865073,99.20000317440001,0.35999970196000003,2.6093500834992,1895.33555865073,99.20000317440001,2.5451978928572,2.71139008676448,1024,0.0,97,GPS_Atti,
0.0603549983654657,36.9454237551283,29300,2017-11-03 06:16:47,1895.33555865073,99.20000317440001,0.35999970196000003,2.58948008286336,1895.33555865073,99.20000317440001,2.5451978928572,2.71139008676448,1024,0.0,97,GPS_Atti,
0.0603548366072381,36.9454236485293,29400,2017-11-03 06:16:47,1895.33555865073,99.20000317440001,0.35999970196000003,2.57224008231168,1895.33555865073,99.20000317440001,2.5451978928572,2.71139008676448,1024,0.0,97,GPS_Atti,
0.0603546760442885,36.9454235575842,29500,2017-11-03 06:16:47,1895.33555865073,99.20000317440001,0.35999970196000003,2.5550700817622403,1895.33555865073,99.20000317440001,2.5451978928572,2.71139008676448,1024,0.0,97,GPS_Atti,
0.0603545494588228,36.94542349807,29600,2017-11-03 06:16:47,1895.33555865073,99.20000317440001,0.35999970196000003,2.54147008132704,1895.33555865073,99.20000317440001,2.5451978928572,2.71139008676448,1024,0.0,97,GPS_Atti,
0.060354408179907,36.9454234508021,29700,2017-11-03 06:16:47,1895.33555865073,99.20000317440001,0.35999970196000003,2.52617008083744,1895.33555865073,99.20000317440001,2.5451978928572,2.71139008676448,1024,0.0,97,GPS_Atti,
