latitude,longitude,time_millisecond,datetime_utc,altitude_m,ascent_m,speed_kph,distance_m,max_altitude_m,max_ascent_m,max_speed_kph,max_distance_m,rc_throttle,gimbal_pitch_degrees,battery_percent,flycState,message
0.312134026836451,36.88290074506279,100,2017-11-07 08:30:41,1768.1768143816712,0.0,0.0,0.0,1768.1768143816712,0.0,0.0,0.0,1024,0.0,97,Motors_Started,
0.312134082026657,36.8829008425736,200,2017-11-07 08:30:41,1768.1768143816712,0.0,0.0,0.0124601003987232,1768.1768143816712,0.0,0.0,0.0124601003987232,1024,0.0,97,Motors_Started,
0.31213411633206894,36.882900928198794,300,2017-11-07 08:30:41,1768.1768143816712,0.0,0.0,0.0226673007253536,1768.1768143816712,0.0,0.0,0.0226673007253536,1024,0.0,97,Motors_Started,
0.31213413504696197,36.8829010003367,400,2017-11-07 08:30:41,1768.1768143816712,0.0,0.0,0.030832800986649603,1768.1768143816712,0.0,0.0,0.030832800986649603,1024,0.0,97,Motors_Started,Setting new Return-To-Home altitude to 30m (98 ft). Setting new Maximum Flight Altitude to 100m (328 ft)
0.31213414619610397,36.8829010732276,500,2017-11-07 08:30:41,1768.1768143816712,0.0,0.0,0.03883240124263681,1768.1768143816712,0.0,0.0,0.03883240124263681,1024,0.0,97,Motors_Started,
0.312134172050706,36.8829011575493,600,2017-11-07 08:30:41,1768.1768143816712,0.0,0.0,0.048629901556156804,1768.1768143816712,0.0,0.0,0.048629901556156804,1024,0.0,97,Motors_Started,
0.312134195360253,36.8829012457634,700,2017-11-07 08:30:41,1768.1768143816712,0.0,0.0,0.058749401879980796,1768.1768143816712,0.0,0.0,0.058749401879980796,1024,0.0,97,Motors_Started,
0.312134229402264,36.882901338084295,800,2017-11-07 08:30:41,1768.1768143816712,0.0,0.0,0.06968790223001281,1768.1768143816712,0.0,0.0,0.06968790223001281,1024,0.0,97,Motors_Started,
0.31213426425605395,36.8829014193471,900,2017-11-07 08:30:41,1768.1768143816712,0.0,0.0,0.0794959025438688,1768.1768143816712,0.0,0.0,0.0794959025438688,364,0.0,97,Motors_Started,
0.312134304875758,36.8829014870741,1000,2017-11-07 08:30:42,1768.1768143816712,0.0,0.0,0.08811780281976961,1768.1768143816712,0.0,0.0,0.08811780281976961,624,0.0,97,Motors_Started,
0.31213433218740994,36.882901557712295,1100,2017-11-07 08:30:42,1768.1768143816712,0.0,0.0,0.09653940308926079,1768.1768143816712,0.0,0.0,0.09653940308926079,838,0.0,97,Motors_Started,
0.312134343010049,36.8829016453225,1200,2017-11-07 08:30:42,1768.1768143816712,0.0,0.0,0.10610800339545601,1768.1768143816712,0.0,0.0,0.10610800339545601,975,0.0,97,Motors_Started,
0.312134360574853,36.88290171686,1300,2017-11-07 08:30:42,1768.1768143816712,0.0,0.0,0.114264003656448,1768.1768143816712,0.0,0.0,0.114264003656448,1024,0.0,97,Motors_Started,
0.312134389584768,36.8829017816697,1400,2017-11-07 08:30:42,1768.1768143816712,0.0,0.0,0.12213000390816,1768.1768143816712,0.0,0.0,0.12213000390816,1024,0.0,97,Motors_Started,
0.312134423381699,36.88290183286939,1500,2017-11-07 08:30:42,1768.1768143816712,0.0,0.0,0.12875600412019203,1768.1768143816712,0.0,0.0,0.12875600412019203,1024,0.0,97,Assisted_Takeoff,
0.312134461294725,36.8829018868599,1600,2017-11-07 08:30:42,1768.1768143816712,0.0,0.0,0.135854004347328,1768.1768143816712,0.0,0.0,0.135854004347328,1024,0.0,97,Assisted_Takeoff,
0.312134501563906,36.882901946535505,1700,2017-11-07 08:30:42,1768.1768143816712,0.0,0.0,0.143661004597152,1768.1768143816712,0.0,0.0,0.143661004597152,1024,0.0,97,Assisted_Takeoff,
0.31213455466400397,36.8829020159604,1800,2017-11-07 08:30:42,1768.1768143816712,0.0,0.0,0.15303400489708804,1768.1768143816712,0.0,0.0,0.15303400489708804,1024,0.0,97,Assisted_Takeoff,
0.312134582570445,36.882902088674705,1900,2017-11-07 08:30:42,1768.1768143816712,0.0,0.0,0.161692005174144,1768.1768143816712,0.0,0.0,0.161692005174144,1024,0.0,97,Assisted_Takeoff,
0.31213461207744303,36.8829021413002,2000,2017-11-07 08:30:43,1768.1768143816712,0.0,0.0,0.16835600538739198,1768.1768143816712,0.0,0.0,0.16835600538739198,1024,0.0,97,Assisted_Takeoff,
0.312134632967734,36.8829021933291,2100,2017-11-07 08:30:43,1768.1768143816712,0.0,0.0,0.17459000558688004,1768.1768143816712,0.0,0.0,0.17459000558688004,1024,0.0,97,Assisted_Takeoff,
0.31213466948905105,36.8829022405976,2200,2017-11-07 08:30:43,1768.1768143816712,0.0,0.0,0.18101500579248,1768.1768143816712,0.0,0.0,0.18101500579248,1024,0.0,97,Assisted_Takeoff,
0.31213469581508696,36.8829022962976,2300,2017-11-07 08:30:43,1768.1768143816712,0.0,0.0,0.18786200601158398,1768.1768143816712,0.0,0.0,0.18786200601158398,1024,0.0,97,Assisted_Takeoff,
0.312134706664595,36.882902374130204,2400,2017-11-07 08:30:43,1768.1768143816712,0.0,0.0,0.19630200628166403,1768.1768143816712,0.0,0.0,0.19630200628166403,1024,0.0,97,Assisted_Takeoff,
0.31213471155298,36.882902442655,2500,2017-11-07 08:30:43,1768.1768143816712,0.0,0.0,0.20355800651385603,1768.1768143816712,0.0,0.0,0.20355800651385603,1024,0.0,97,Assisted_Takeoff,
0.31213470821080297,36.8829025079499,2600,2017-11-07 08:30:43,1768.1768143816712,0.0,0.0,0.21017500672560002,1768.1768143816712,0.0,0.0,0.21017500672560002,1024,0.0,97,Assisted_Takeoff,
0.31213471263956,36.8829025645009,2700,2017-11-07 08:30:43,1768.1768143816712,0.0,0.0,0.216226006919232,1768.1768143816712,0.0,0.0,0.216226006919232,1024,0.0,97,Assisted_Takeoff,
0.312134735260275,36.8829026181087,2800,2017-11-07 08:30:43,1768.1768143816712,0.0,0.0,0.22269200712614404,1768.1768143816712,0.0,0.0,0.22269200712614404,1024,0.0,97,Assisted_Takeoff,
0.312134766157354,36.882902649986896,2900,2017-11-07 08:30:43,1768.1768143816712,0.0,0.0,0.227231007271392,1768.1768143816712,0.0,0.0,0.227231007271392,1024,0.0,97,Assisted_Takeoff,
0.31213484047221,36.8829026765876,3100,2017-11-07 08:30:44,1768.1768143816712,0.0,0.0,0.23307400745836804,1768.1768143816712,0.0,0.0,0.23307400745836804,1024,0.0,97,Assisted_Takeoff,
0.31213486064191404,36.882902701055,3200,2017-11-07 08:30:44,1768.1768143816712,0.0,0.0,0.236454007566528,1768.1768143816712,0.0,0.0,0.236454007566528,1024,0.0,97,Assisted_Takeoff,
0.31213487156164804,36.882902722571394,3300,2017-11-07 08:30:44,1768.1768143816712,0.0,0.0,0.239132007652224,1768.1768143816712,0.0,0.0,0.239132007652224,1024,0.0,97,Assisted_Takeoff,
0.312134878001534,36.882902757738,3400,2017-11-07 08:30:44,1768.1768143816712,0.0,0.0,0.243011007776352,1768.1768143816712,0.0,0.0,0.243011007776352,1024,0.0,97,Assisted_Takeoff,
0.31213487568853304,36.8829027778458,3500,2017-11-07 08:30:44,1768.1768143816712,0.0,0.0,0.24497300783913598,1768.1768143816712,0.0,0.0,0.24497300783913598,1024,0.0,97,Assisted_Takeoff,
0.312134873433138,36.8829027887297,3600,2017-11-07 08:30:44,1768.1768143816712,0.0,0.0,0.24599400787180803,1768.1768143816712,0.0,0.0,0.24599400787180803,1024,0.0,97,Assisted_Takeoff,
0.312134877891207,36.8829027976729,3700,2017-11-07 08:30:44,1768.1768143816712,0.0,0.0,0.247102007907264,1768.1768143816712,0.0,0.0,0.247102007907264,1024,0.0,97,Assisted_Takeoff,
0.312134901791676,36.8829028250713,3800,2017-11-07 08:30:44,1768.1768143816712,0.0,0.0,0.250938008030016,1768.1768143816712,0.0,0.0,0.250938008030016,1024,0.0,97,Assisted_Takeoff,
0.312134923076864,36.88290284195529,3900,2017-11-07 08:30:44,1768.1768143816712,0.0,0.0,0.253591008114912,1768.1768143816712,0.0,0.0,0.253591008114912,1024,0.0,97,Assisted_Takeoff,
0.312134934162089,36.882902851219704,4000,2017-11-07 08:30:45,1768.1768143816712,0.0,0.0,0.25502400816076803,1768.1768143816712,0.0,0.0,0.25502400816076803,1024,0.0,97,Assisted_Takeoff,
0.312134939959146,36.8829028615501,4100,2017-11-07 08:30:45,1768.1768143816712,0.0,0.0,0.25633400820268804,1768.1768143816712,0.0,0.0,0.25633400820268804,1024,0.0,97,Assisted_Takeoff,
0.312134942648521,36.882902890664504,4200,2017-11-07 08:30:45,1768.1768143816712,0.0,0.0,0.25942700830166404,1768.1768143816712,0.0,0.0,0.25942700830166404,1024,0.0,97,Assisted_Takeoff,
0.312134939314486,36.8829029101528,4300,2017-11-07 08:30:45,1768.1768143816712,0.0,0.0,0.26127700836086404,1768.1768143816712,0.0,0.0,0.26127700836086404,1024,0.0,97,Assisted_Takeoff,
0.312134936341761,36.8829029262095,4400,2017-11-07 08:30:45,1768.1768143816712,0.0,0.0,0.262796008409472,1768.1768143816712,0.0,0.0,0.262796008409472,1024,0.0,97,Assisted_Takeoff,
0.31213492997698805,36.88290292460739,4500,2017-11-07 08:30:45,1768.1768143816712,0.0,0.0,0.26236000839552,1768.1768143816712,0.0,0.0,0.262796008409472,1024,0.0,97,Assisted_Takeoff,
0.31213492386157005,36.8829029268005,4600,2017-11-07 08:30:45,1768.1768143816712,0.0,0.0,0.26232600839443204,1768.1768143816712,0.0,0.0,0.262796008409472,1024,0.0,97,Assisted_Takeoff,
0.312134913931319,36.882902934531,4700,2017-11-07 08:30:45,1768.1768143816712,0.0,0.0,0.26270500840656,1768.1768143816712,0.0,0.0,0.262796008409472,1024,0.0,97,Assisted_Takeoff,
0.312134905793984,36.882902961027604,4800,2017-11-07 08:30:45,1768.1768143816712,0.0,0.0,0.26510300848329604,1768.1768143816712,0.0,0.0,0.26510300848329604,1024,0.0,97,Assisted_Takeoff,
0.312134896004593,36.8829029810284,4900,2017-11-07 08:30:45,1768.1768143816712,0.0,0.0,0.2667750085368,1768.1768143816712,0.0,0.0,0.2667750085368,1024,0.0,97,Assisted_Takeoff,
0.312134888574206,36.8829029943918,5000,2017-11-07 08:30:46,1768.1768143816712,0.0,0.0,0.26786400857164805,1768.1768143816712,0.0,0.0,0.26786400857164805,1024,0.0,97,Assisted_Takeoff,
0.31213488071268897,36.882902999394396,5100,2017-11-07 08:30:46,1768.1768143816712,0.0,0.0,0.26807300857833605,1768.1768143816712,0.0,0.0,0.26807300857833605,1024,0.0,97,Assisted_Takeoff,
0.312134875535459,36.8829030036554,5200,2017-11-07 08:30:46,1768.1768143816712,0.0,0.0,0.26831300858601603,1768.1768143816712,0.0,0.0,0.26831300858601603,1024,0.0,97,Assisted_Takeoff,
0.31213488545166496,36.882903015953495,5300,2017-11-07 08:30:46,1768.1768143816712,0.0,0.0,0.26998200863942395,1768.1768143816712,0.0,0.0,0.26998200863942395,1024,0.0,97,Assisted_Takeoff,
0.31213491236679103,36.8829030453581,5400,2017-11-07 08:30:46,1768.1768143816712,0.0,0.0,0.274104008771328,1768.1768143816712,0.0,0.0,0.274104008771328,1024,0.0,97,Assisted_Takeoff,
0.312134944881729,36.8829030702435,5500,2017-11-07 08:30:46,1768.1768143816712,0.0,0.0,0.27799500889584,1768.1768143816712,0.0,0.0,0.27799500889584,1132,0.0,97,Assisted_Takeoff,
0.31213496171149396,36.8829030862745,5600,2017-11-07 08:30:46,1768.1768143816712,0.0,0.0,0.280343008970976,1768.1768143816712,0.0,0.0,0.280343008970976,1495,0.0,97,Assisted_Takeoff,
0.312134979632317,36.8829030946128,5700,2017-11-07 08:30:46,1768.1768143816712,0.0,0.0,0.28194700902230396,1768.1768143816712,0.0,0.0,0.28194700902230396,1617,0.0,97,Assisted_Takeoff,
0.312134991120378,36.882903097884295,5800,2017-11-07 08:30:46,1768.1768143816712,0.0,0.0,0.282766009048512,1768.1768143816712,0.0,0.0,0.282766009048512,1684,0.0,97,Assisted_Takeoff,
0.312135001158718,36.8829030938597,5900,2017-11-07 08:30:46,1768.1768143816712,0.0,0.0,0.28277800904889605,1768.1768143816712,0.0,0.0,0.28277800904889605,1684,0.0,97,Assisted_Takeoff,
0.31213500423159196,36.882903091923,6000,2017-11-07 08:30:47,1768.1768143816712,0.0,0.0,0.282711009046752,1768.1768143816712,0.0,0.0,0.28277800904889605,1684,0.0,97,Assisted_Takeoff,
0.312134987567928,36.8829030811796,6100,2017-11-07 08:30:47,1768.1768143816712,0.0,0.0,0.280898008988736,1768.1768143816712,0.0,0.0,0.28277800904889605,1684,0.0,97,Assisted_Takeoff,Obstacle Avoided. Revise Flight Route
0.312134948531886,36.882903061857,6200,2017-11-07 08:30:47,1768.1768143816712,0.0,0.0,0.27727800887289605,1768.1768143816712,0.0,0.0,0.28277800904889605,1684,0.0,97,GPS_Atti,
0.312134907525834,36.8829029880236,6300,2017-11-07 08:30:47,1768.1768143816712,0.0,0.35999970196000003,0.267966008574912,1768.1768143816712,0.0,0.35999970196000003,0.28277800904889605,1684,0.0,97,GPS_Atti,
0.312134857861753,36.882902869297396,6400,2017-11-07 08:30:47,1768.1768143816712,0.0,0.35999970196000003,0.253658008117056,1768.1768143816712,0.0,0.35999970196000003,0.28277800904889605,1684,0.0,97,GPS_Atti,
0.31213479331125,36.8829027298777,6500,2017-11-07 08:30:47,1768.2768143848712,0.10000000320000002,0.35999970196000003,0.23660700757142406,1768.2768143848712,0.10000000320000002,0.35999970196000003,0.28277800904889605,1684,0.0,97,GPS_Atti,Home Point Recorded. RTH Altitude:  30m.
0.312134709866523,36.88290259545521,6600,2017-11-07 08:30:47,1768.4768143912713,0.3000000096,0.35999970196000003,0.219343007018976,1768.4768143912713,0.3000000096,0.35999970196000003,0.28277800904889605,1684,0.0,97,GPS_Atti,
0.31213459731274895,36.8829024688781,6700,2017-11-07 08:30:47,1768.676814397671,0.500000016,0.5075995797636,0.20192100646147199,1768.676814397671,0.500000016,0.5075995797636,0.28277800904889605,1684,0.0,97,GPS_Atti,
0.312134466900847,36.8829023696567,6800,2017-11-07 08:30:47,1768.8768144040712,0.7000000224000001,0.35999970196000003,0.18717300598953598,1768.8768144040712,0.7000000224000001,0.5075995797636,0.28277800904889605,1684,0.0,97,GPS_Atti,
0.312134353917367,36.8829022852293,6900,2017-11-07 08:30:47,1769.0768144104711,0.9000000288000001,0.0,0.175093005602976,1769.0768144104711,0.9000000288000001,0.5075995797636,0.28277800904889605,1684,0.0,97,GPS_Atti,
0.31213427736197497,36.8829022226719,7000,2017-11-07 08:30:48,1769.476814423271,1.3000000416000002,0.0,0.16666200533318404,1769.476814423271,1.3000000416000002,0.5075995797636,0.28277800904889605,1684,0.0,97,GPS_Atti,
0.312134113348353,36.882902163993,7200,2017-11-07 08:30:48,1770.276814448871,2.1000000672,0.35999970196000003,0.15808400505868803,1770.276814448871,2.1000000672,0.5075995797636,0.28277800904889605,1684,0.0,97,GPS_Atti,
0.31213402085517605,36.8829021596298,7300,2017-11-07 08:30:48,1770.676814461671,2.50000008,0.35999970196000003,0.157308005033856,1770.676814461671,2.50000008,0.5075995797636,0.28277800904889605,1684,0.0,97,GPS_Atti,
0.31213390450651696,36.8829021438739,7400,2017-11-07 08:30:48,1771.1768144776713,3.0000000960000004,0.35999970196000003,0.156148004996736,1771.1768144776713,3.0000000960000004,0.5075995797636,0.28277800904889605,1684,0.0,97,GPS_Atti,
0.312133778978726,36.88290213073321,7500,2017-11-07 08:30:48,1771.6768144936711,3.500000112,0.5075995797636,0.15653800500921602,1771.6768144936711,3.500000112,0.5075995797636,0.28277800904889605,1684,0.0,97,GPS_Atti,
0.31213364905525504,36.882902107108706,7600,2017-11-07 08:30:48,1772.2768145128712,4.100000131200001,0.5075995797636,0.15718400502988802,1772.2768145128712,4.100000131200001,0.5075995797636,0.28277800904889605,1684,0.0,97,GPS_Atti,
0.312133503703906,36.882902099138704,7700,2017-11-07 08:30:48,1772.7768145288712,4.6000001472,0.0,0.16142600516563202,1772.7768145288712,4.6000001472,0.5075995797636,0.28277800904889605,1684,0.0,97,GPS_Atti,
0.312133367301569,36.8829021104016,7800,2017-11-07 08:30:48,1773.276814544871,5.1000001632,0.0,0.168619005395808,1773.276814544871,5.1000001632,0.5075995797636,0.28277800904889605,1684,0.0,97,GPS_Atti,
0.312133256161895,36.882902144410295,7900,2017-11-07 08:30:48,1773.7768145608711,5.600000179200001,0.0,0.177653005684896,1773.7768145608711,5.600000179200001,0.5075995797636,0.28277800904889605,1684,0.0,97,GPS_Atti,
0.312133144398221,36.8829021932379,8000,2017-11-07 08:30:49,1774.2768145768712,6.1000001952,0.35999970196000003,0.18858700603478398,1774.2768145768712,6.1000001952,0.5075995797636,0.28277800904889605,1684,0.0,97,GPS_Atti,
0.312132989383787,36.8829022228515,8100,2017-11-07 08:30:49,1774.776814592871,6.6000002112,0.5075995797636,0.200791006425312,1774.776814592871,6.6000002112,0.5075995797636,0.28277800904889605,1684,0.0,97,GPS_Atti,
0.312132813145589,36.8829022185951,8200,2017-11-07 08:30:49,1775.276814608871,7.100000227200002,0.5075995797636,0.212292006793344,1775.276814608871,7.100000227200002,0.5075995797636,0.28277800904889605,1684,0.0,97,GPS_Atti,
0.312132656056415,36.882902207604104,8300,2017-11-07 08:30:49,1775.7768146248711,7.600000243199999,0.35999970196000003,0.22291200713318401,1775.7768146248711,7.600000243199999,0.5075995797636,0.28277800904889605,1684,0.0,97,GPS_Atti,
0.312132535848471,36.8829022031746,8400,2017-11-07 08:30:49,1776.2768146408712,8.1000002592,0.0,0.23191400742124801,1776.2768146408712,8.1000002592,0.5075995797636,0.28277800904889605,1684,0.0,97,GPS_Atti,
0.31213244869819395,36.8829022239561,8500,2017-11-07 08:30:49,1776.776814656871,8.6000002752,0.0,0.24051300769641598,1776.776814656871,8.6000002752,0.5075995797636,0.28277800904889605,1684,0.0,97,GPS_Atti,
0.31213236344812,36.882902253873795,8600,2017-11-07 08:30:49,1777.2768146728713,9.1000002912,0.0,0.24973900799164803,1777.2768146728713,9.1000002912,0.5075995797636,0.28277800904889605,1684,0.0,97,GPS_Atti,
0.312132260104647,36.882902269388794,8700,2017-11-07 08:30:49,1777.7768146888711,9.6000003072,0.35999970196000003,0.25949000830368,1777.7768146888711,9.6000003072,0.5075995797636,0.28277800904889605,1684,0.0,97,GPS_Atti,
0.312132162683668,36.8829022752928,8800,2017-11-07 08:30:49,1778.2768147048712,10.100000323200002,0.35999970196000003,0.268203008582496,1778.2768147048712,10.100000323200002,0.5075995797636,0.28277800904889605,1684,0.0,97,GPS_Atti,
0.312132113966747,36.882902269472794,8900,2017-11-07 08:30:49,1778.7768147208712,10.6000003392,0.0,0.27200800870425607,1778.7768147208712,10.6000003392,0.5075995797636,0.28277800904889605,1684,0.0,97,GPS_Atti,
0.31213210825206605,36.8829022875573,9000,2017-11-07 08:30:50,1779.276814736871,11.1000003552,0.0,0.273761008760352,1779.276814736871,11.1000003552,0.5075995797636,0.28277800904889605,1684,0.0,97,GPS_Atti,
0.312132127381875,36.8829023432768,9100,2017-11-07 08:30:50,1779.7768147528711,11.6000003712,0.0,0.276054008833728,1779.7768147528711,11.6000003712,0.5075995797636,0.28277800904889605,1684,0.0,97,GPS_Atti,
0.312132162152843,36.882902438818796,9200,2017-11-07 08:30:50,1780.276814768871,12.1000003872,0.35999970196000003,0.280137008964384,1780.276814768871,12.1000003872,0.5075995797636,0.28277800904889605,1684,0.0,97,GPS_Atti,
0.31213221467053903,36.882902545919706,9300,2017-11-07 08:30:50,1780.7768147848712,12.600000403200003,0.0,0.28410800909145606,1780.7768147848712,12.600000403200003,0.5075995797636,0.28410800909145606,1684,0.0,97,GPS_Atti,
0.312132239731931,36.8829026548766,9400,2017-11-07 08:30:50,1781.276814800871,13.100000419199999,0.0,0.29086300930761605,1781.276814800871,13.100000419199999,0.5075995797636,0.29086300930761605,1684,0.0,97,GPS_Atti,
0.312132214709091,36.88290277943,9500,2017-11-07 08:30:50,1781.7768148168711,13.600000435200002,0.0,0.302969009695008,1781.7768148168711,13.600000435200002,0.5075995797636,0.302969009695008,1684,0.0,97,GPS_Atti,
0.31213213675448603,36.8829028999249,9600,2017-11-07 08:30:50,1782.2768148328712,14.100000451200001,0.0,0.318751010200032,1782.2768148328712,14.100000451200001,0.5075995797636,0.318751010200032,1684,0.0,97,GPS_Atti,
0.31213202031088694,36.8829029879656,9700,2017-11-07 08:30:50,1782.7768148488713,14.600000467200001,0.0,0.33466601070931196,1782.7768148488713,14.600000467200001,0.5075995797636,0.33466601070931196,1684,0.0,97,GPS_Atti,
0.312131888821769,36.8829030595973,9800,2017-11-07 08:30:50,1783.276814864871,15.100000483200002,0.0,0.35039701121270395,1783.276814864871,15.100000483200002,0.5075995797636,0.35039701121270395,1684,0.0,97,GPS_Atti,
0.31213177251471097,36.8829031398106,9900,2017-11-07 08:30:50,1783.7768148808711,15.6000004992,0.0,0.36574101170371204,1783.7768148808711,15.6000004992,0.5075995797636,0.36574101170371204,1684,0.0,97,GPS_Atti,
0.312131708331016,36.8829032187868,10000,2017-11-07 08:30:51,1784.2768148968712,16.1000005152,0.0,0.37703001206496,1784.2768148968712,16.1000005152,0.5075995797636,0.37703001206496,1684,0.0,97,GPS_Atti,
0.31213167932221997,36.882903312343394,10100,2017-11-07 08:30:51,1784.776814912871,16.6000005312,0.0,0.38685601237939204,1784.776814912871,16.6000005312,0.5075995797636,0.38685601237939204,1684,0.0,97,GPS_Atti,
0.312131664614979,36.8829034192918,10200,2017-11-07 08:30:51,1785.2768149288713,17.1000005472,0.0,0.39679501269744005,1785.2768149288713,17.1000005472,0.5075995797636,0.39679501269744005,1684,0.0,97,GPS_Atti,
0.31213166453920504,36.8829035200367,10300,2017-11-07 08:30:51,1785.7768149448711,17.6000005632,0.0,0.40526501296848005,1785.7768149448711,17.6000005632,0.5075995797636,0.40526501296848005,1684,0.0,97,GPS_Atti,
0.312131679081363,36.8829035992294,10400,2017-11-07 08:30:51,1786.2768149608712,18.100000579200003,0.0,0.41098101315139196,1786.2768149608712,18.100000579200003,0.5075995797636,0.41098101315139196,1684,0.0,97,GPS_Atti,
0.312131701593329,36.8829036637444,10500,2017-11-07 08:30:51,1786.776814976871,18.6000005952,0.0,0.414982013279424,1786.776814976871,18.6000005952,0.5075995797636,0.414982013279424,1684,0.0,97,GPS_Atti,
0.312131690425104,36.882903718500295,10600,2017-11-07 08:30:51,1787.2768149928713,19.1000006112,0.0,0.42052801345689605,1787.2768149928713,19.1000006112,0.5075995797636,0.42052801345689605,1684,0.0,97,GPS_Atti,
0.312131669953425,36.882903769662796,10700,2017-11-07 08:30:51,1787.8768150120711,19.7000006304,0.0,0.42641201364518394,1787.8768150120711,19.7000006304,0.5075995797636,0.42641201364518394,1684,0.0,97,GPS_Atti,
0.31213165026762396,36.8829038197494,10800,2017-11-07 08:30:51,1788.3768150280712,20.200000646400003,0.0,0.432154013828928,1788.3768150280712,20.200000646400003,0.5075995797636,0.432154013828928,1684,0.0,97,GPS_Atti,
0.312131640334624,36.8829038708664,10900,2017-11-07 08:30:51,1788.8768150440712,20.7000006624,0.0,0.43733501399472,1788.8768150440712,20.7000006624,0.5075995797636,0.43733501399472,1684,0.0,97,GPS_Atti,
0.312131626776861,36.882903915538,11000,2017-11-07 08:30:52,1789.376815060071,21.2000006784,0.0,0.44220201415046406,1789.376815060071,21.2000006784,0.5075995797636,0.44220201415046406,1684,0.0,97,GPS_Atti,
0.31213161301488107,36.8829039680194,11100,2017-11-07 08:30:52,1789.8768150760714,21.700000694400003,0.0,0.44778501432912,1789.8768150760714,21.700000694400003,0.5075995797636,0.44778501432912,1684,0.0,97,GPS_Atti,
0.312131604303214,36.88290402440379,11200,2017-11-07 08:30:52,1790.3768150920712,22.2000007104,0.0,0.4533940145086081,1790.3768150920712,22.2000007104,0.5075995797636,0.4533940145086081,1684,0.0,97,GPS_Atti,
0.312131600070329,36.882904067937204,11300,2017-11-07 08:30:52,1790.876815108071,22.700000726400003,0.0,0.457574014642368,1790.876815108071,22.700000726400003,0.5075995797636,0.457574014642368,1684,0.0,97,GPS_Atti,
0.312131603637333,36.8829040817222,11400,2017-11-07 08:30:52,1791.376815124071,23.2000007424,0.0,0.45858001467456,1791.376815124071,23.2000007424,0.5075995797636,0.45858001467456,1684,0.0,97,GPS_Atti,
0.31213160698994297,36.8829040908126,11500,2017-11-07 08:30:52,1791.976815143271,23.800000761600003,0.0,0.4591800146937601,1791.976815143271,23.800000761600003,0.5075995797636,0.4591800146937601,1684,0.0,97,GPS_Atti,
0.312131607890422,36.8829041058919,11600,2017-11-07 08:30:52,1792.4768151592712,24.3000007776,0.0,0.460481014735392,1792.4768151592712,24.3000007776,0.5075995797636,0.460481014735392,1684,0.0,97,GPS_Atti,
0.312131601347487,36.882904134193,11700,2017-11-07 08:30:52,1792.9768151752712,24.8000007936,0.0,0.463462014830784,1792.9768151752712,24.8000007936,0.5075995797636,0.463462014830784,1684,0.0,97,GPS_Atti,
0.31213158915461403,36.882904174695604,11800,2017-11-07 08:30:52,1793.4768151912713,25.3000008096,0.0,0.4679160149733121,1793.4768151912713,25.3000008096,0.5075995797636,0.4679160149733121,1684,0.0,97,GPS_Atti,
0.312131572428866,36.8829042176178,11900,2017-11-07 08:30:52,1794.0768152104713,25.900000828800003,0.0,0.472886015132352,1794.0768152104713,25.900000828800003,0.5075995797636,0.472886015132352,1684,0.0,97,GPS_Atti,
0.312131560214773,36.8829042362825,12000,2017-11-07 08:30:53,1794.5768152264711,26.4000008448,0.0,0.47536501521168,1794.5768152264711,26.4000008448,0.5075995797636,0.47536501521168,1684,0.0,97,GPS_Atti,
0.31213156459681396,36.88290424787971,12100,2017-11-07 08:30:53,1795.0768152424712,26.9000008608,0.0,0.476139015236448,1795.0768152424712,26.9000008608,0.5075995797636,0.476139015236448,1684,0.0,97,GPS_Atti,
0.31213158298047,36.8829042563566,12200,2017-11-07 08:30:53,1795.576815258471,27.4000008768,0.0,0.47573901522364803,1795.576815258471,27.4000008768,0.5075995797636,0.476139015236448,1684,0.0,97,GPS_Atti,
0.31213161903396597,36.882904265652,12300,2017-11-07 08:30:53,1796.176815277671,28.000000896,0.0,0.474313015178016,1796.176815277671,28.000000896,0.5075995797636,0.476139015236448,1684,0.0,97,GPS_Atti,
0.312131664476866,36.882904277731,12400,2017-11-07 08:30:53,1796.676815293671,28.500000912,0.0,0.47259501512304,1796.676815293671,28.500000912,0.5075995797636,0.476139015236448,1684,0.0,97,GPS_Atti,
0.31213171669587503,36.88290429591979,12500,2017-11-07 08:30:53,1797.1768153096712,29.000000928,0.0,0.47108601507475206,1797.1768153096712,29.000000928,0.5075995797636,0.476139015236448,1684,0.0,97,GPS_Atti,
0.312131758853542,36.8829043084746,12600,2017-11-07 08:30:53,1797.6768153256712,29.500000944,0.0,0.469723015031136,1797.6768153256712,29.500000944,0.5075995797636,0.476139015236448,1684,0.0,97,GPS_Atti,
0.312131815269712,36.8829043189354,12700,2017-11-07 08:30:53,1798.276815344871,30.1000009632,0.0,0.4673730149559361,1798.276815344871,30.1000009632,0.5075995797636,0.476139015236448,1684,0.0,97,GPS_Atti,
0.312131874630567,36.8829043200301,12800,2017-11-07 08:30:53,1798.7768153608713,30.6000009792,0.0,0.4640370148491839,1798.7768153608713,30.6000009792,0.5075995797636,0.476139015236448,1684,0.0,97,GPS_Atti,
0.312131925122381,36.8829043246598,12900,2017-11-07 08:30:53,1799.2768153768711,31.100000995200002,0.0,0.4616100147715201,1799.2768153768711,31.100000995200002,0.5075995797636,0.476139015236448,1684,0.0,97,GPS_Atti,
0.312131941794365,36.88290433403821,13000,2017-11-07 08:30:54,1799.776815392871,31.6000010112,0.0,0.46157601477043203,1799.776815392871,31.6000010112,0.5075995797636,0.476139015236448,1684,0.0,97,GPS_Atti,
0.31213195842126196,36.8829043248044,13100,2017-11-07 08:30:54,1800.2768154088712,32.1000010272,0.0,0.4597600147123201,1800.2768154088712,32.1000010272,0.5075995797636,0.476139015236448,1684,0.0,97,GPS_Atti,
0.312131978109608,36.8829042903602,13200,2017-11-07 08:30:54,1800.776815424871,32.6000010432,0.0,0.455348014571136,1800.776815424871,32.6000010432,0.5075995797636,0.476139015236448,1684,0.0,97,GPS_Atti,
0.312132015886073,36.88290425380271,13300,2017-11-07 08:30:54,1801.3768154440713,33.2000010624,0.0,0.44973001439136,1801.3768154440713,33.2000010624,0.5075995797636,0.476139015236448,1684,0.0,97,GPS_Atti,
0.312132060990232,36.882904232727,13400,2017-11-07 08:30:54,1801.8768154600712,33.70000107840001,0.0,0.44521301424681603,1801.8768154600712,33.70000107840001,0.5075995797636,0.476139015236448,1684,0.0,97,GPS_Atti,
0.312132120857482,36.8829042305564,13500,2017-11-07 08:30:54,1802.376815476071,34.2000010944,0.0,0.44177001413664,1802.376815476071,34.2000010944,0.5075995797636,0.476139015236448,1684,0.0,97,GPS_Atti,
0.312132177173356,36.8829042446047,13600,2017-11-07 08:30:54,1802.8768154920713,34.7000011104,0.0,0.44018101408579197,1802.8768154920713,34.7000011104,0.5075995797636,0.476139015236448,1684,0.0,97,GPS_Atti,
0.312132242241497,36.8829042646928,13700,2017-11-07 08:30:54,1803.376815508071,35.2000011264,0.0,0.43883701404278397,1803.376815508071,35.2000011264,0.5075995797636,0.476139015236448,1684,0.0,97,GPS_Atti,
0.312132297498046,36.882904279892,13800,2017-11-07 08:30:54,1803.8768155240712,35.7000011424,0.0,0.43761101400355207,1803.8768155240712,35.7000011424,0.5075995797636,0.476139015236448,1684,0.0,97,GPS_Atti,
0.312132358950981,36.8829042798802,13900,2017-11-07 08:30:54,1804.4768155432712,36.3000011616,0.0,0.43464901390876803,1804.4768155432712,36.3000011616,0.5075995797636,0.476139015236448,1684,0.0,97,GPS_Atti,
0.312132404197984,36.8829042574427,14000,2017-11-07 08:30:55,1804.9768155592712,36.8000011776,0.0,0.43026001376832,1804.9768155592712,36.8000011776,0.5075995797636,0.476139015236448,1684,0.0,97,GPS_Atti,
0.31213247400062605,36.8829042167822,14100,2017-11-07 08:30:55,1805.476815575271,37.3000011936,0.0,0.422931013533792,1805.476815575271,37.3000011936,0.5075995797636,0.476139015236448,1684,0.0,97,GPS_Atti,
0.31213255734746803,36.882904176787,14200,2017-11-07 08:30:55,1806.076815594471,37.90000121280001,0.0,0.41514001328448,1806.076815594471,37.90000121280001,0.5075995797636,0.476139015236448,1684,0.0,97,GPS_Atti,
0.312132647761783,36.8829041439685,14300,2017-11-07 08:30:55,1806.5768156104712,38.4000012288,0.0,0.407902013052864,1806.5768156104712,38.4000012288,0.5075995797636,0.476139015236448,1684,0.0,97,GPS_Atti,
0.31213269839417795,36.8829041360044,14400,2017-11-07 08:30:55,1807.076815626471,38.9000012448,0.0,0.404993012959776,1807.076815626471,38.9000012448,0.5075995797636,0.476139015236448,1684,0.0,97,GPS_Atti,
0.312132751834367,36.8829041253381,14500,2017-11-07 08:30:55,1807.5768156424713,39.4000012608,0.0,0.401754012856128,1807.5768156424713,39.4000012608,0.5075995797636,0.476139015236448,1684,0.0,97,GPS_Atti,
0.312132795134591,36.8829041076487,14600,2017-11-07 08:30:55,1808.076815658471,39.900001276800005,0.0,0.398232012743424,1808.076815658471,39.900001276800005,0.5075995797636,0.476139015236448,1684,0.0,97,GPS_Atti,
0.312132849107841,36.88290408795039,14700,2017-11-07 08:30:55,1808.6768156776714,40.500001296,0.0,0.394141012612512,1808.6768156776714,40.500001296,0.5075995797636,0.476139015236448,1684,0.0,97,GPS_Atti,
0.312132892535083,36.882904066736,14800,2017-11-07 08:30:55,1809.1768156936712,41.000001311999995,0.0,0.39032901249052804,1809.1768156936712,41.000001311999995,0.5075995797636,0.476139015236448,1684,0.0,97,GPS_Atti,
0.312132975726486,36.8829040230607,14900,2017-11-07 08:30:55,1809.676815709671,41.500001328,0.0,0.38281001224992006,1809.676815709671,41.500001328,0.5075995797636,0.476139015236448,1684,0.0,97,GPS_Atti,
0.31213306646933897,36.882903956422794,15000,2017-11-07 08:30:56,1810.1768157256713,42.000001344,0.0,0.37274501192784,1810.1768157256713,42.000001344,0.5075995797636,0.476139015236448,1684,0.0,97,GPS_Atti,
0.3121331449541311,36.8829038694661,15100,2017-11-07 08:30:56,1810.776815744871,42.60000136320001,0.0,0.3610230115527361,1810.776815744871,42.60000136320001,0.5075995797636,0.476139015236448,1684,0.0,97,GPS_Atti,
0.312133177452886,36.882903773885204,15200,2017-11-07 08:30:56,1811.276815760871,43.1000013792,0.0,0.349812011193984,1811.276815760871,43.1000013792,0.5075995797636,0.476139015236448,1684,0.0,97,GPS_Atti,
0.312133186101247,36.8829036739787,15300,2017-11-07 08:30:56,1811.8768157800712,43.700001398400005,0.0,0.338862010843584,1811.8768157800712,43.700001398400005,0.5075995797636,0.476139015236448,1684,0.0,97,GPS_Atti,
0.31213315389907204,36.8829036136589,15400,2017-11-07 08:30:56,1812.376815796071,44.2000014144,0.0,0.333444010670208,1812.376815796071,44.2000014144,0.5075995797636,0.476139015236448,1684,0.0,97,GPS_Atti,
0.31213312593522896,36.882903560425795,15500,2017-11-07 08:30:56,1812.9768158152713,44.80000143360001,0.0,0.32872001051904004,1812.9768158152713,44.80000143360001,0.5075995797636,0.476139015236448,1684,0.0,97,GPS_Atti,
0.312133101387351,36.8829035007912,15600,2017-11-07 08:30:56,1813.476815831271,45.3000014496,0.0,0.32326901034460803,1813.476815831271,45.3000014496,0.5075995797636,0.476139015236448,1684,0.0,97,GPS_Atti,
0.31213309901308,36.8829034289079,15700,2017-11-07 08:30:56,1814.0768158504711,45.9000014688,0.0,0.315787010105184,1814.0768158504711,45.9000014688,0.5075995797636,0.476139015236448,1684,0.0,97,GPS_Atti,
0.31213309474157,36.8829033640667,15800,2017-11-07 08:30:56,1814.5768158664712,46.4000014848,0.0,0.309141009892512,1814.5768158664712,46.4000014848,0.5075995797636,0.476139015236448,1684,0.0,97,GPS_Atti,
0.3121330795833,36.882903306309,15900,2017-11-07 08:30:56,1815.076815882471,46.9000015008,0.0,0.30367800971769604,1815.076815882471,46.9000015008,0.5075995797636,0.476139015236448,1684,0.0,97,GPS_Atti,
0.312133036467803,36.8829032688811,16000,2017-11-07 08:30:57,1815.5768158984713,47.400001516799996,0.0,0.301496009647872,1815.5768158984713,47.400001516799996,0.5075995797636,0.476139015236448,1684,0.0,97,GPS_Atti,
0.31213300283336104,36.8829032541214,16100,2017-11-07 08:30:57,1816.0768159144711,47.900001532800005,0.0,0.301362009643584,1816.0768159144711,47.900001532800005,0.5075995797636,0.476139015236448,1684,0.0,97,GPS_Atti,
0.312132983498845,36.882903264599,16200,2017-11-07 08:30:57,1816.5768159304712,48.4000015488,0.0,0.30325700970422403,1816.5768159304712,48.4000015488,0.5075995797636,0.476139015236448,1684,0.0,97,GPS_Atti,
0.31213299445064,36.882903282453,16300,2017-11-07 08:30:57,1817.0768159464712,48.9000015648,0.0,0.30463100974819196,1817.0768159464712,48.9000015648,0.5075995797636,0.476139015236448,1684,0.0,97,GPS_Atti,
0.31213301305785196,36.882903304683104,16400,2017-11-07 08:30:57,1817.576815962471,49.4000015808,0.0,0.30615400979692803,1817.576815962471,49.4000015808,0.5075995797636,0.476139015236448,1684,0.0,96,GPS_Atti,
0.312133027363224,36.8829033135939,16500,2017-11-07 08:30:57,1818.0768159784711,49.900001596799996,0.0,0.30649500980784,1818.0768159784711,49.900001596799996,0.5075995797636,0.476139015236448,1684,0.0,96,GPS_Atti,
0.312133011486861,36.8829032992399,16600,2017-11-07 08:30:57,1818.5768159944712,50.40000161280001,0.0,0.30565600978099206,1818.5768159944712,50.40000161280001,0.5075995797636,0.476139015236448,1684,0.0,96,GPS_Atti,
0.31213301438427,36.8829032696083,16700,2017-11-07 08:30:57,1819.0768160104712,50.9000016288,0.0,0.30247600967923205,1819.0768160104712,50.9000016288,0.5075995797636,0.476139015236448,1684,0.0,96,GPS_Atti,
0.31213303237191,36.8829032489044,16800,2017-11-07 08:30:57,1819.576816026471,51.4000016448,0.0,0.29959700958710395,1819.576816026471,51.4000016448,0.5075995797636,0.476139015236448,1684,0.0,96,GPS_Atti,
0.31213306713374395,36.8829032230654,16900,2017-11-07 08:30:57,1820.0768160424711,51.90000166080001,0.0,0.29551000945632,1820.0768160424711,51.90000166080001,0.5075995797636,0.476139015236448,1684,0.0,96,GPS_Atti,
0.312133095578895,36.882903214616,17000,2017-11-07 08:30:58,1820.5768160584712,52.400001676799995,0.0,0.293503009392096,1820.5768160584712,52.400001676799995,0.5075995797636,0.476139015236448,1684,0.0,96,GPS_Atti,
0.31213312709742896,36.882903197722605,17100,2017-11-07 08:30:58,1821.076816074471,52.90000169280001,0.0,0.29052000929664007,1821.076816074471,52.90000169280001,0.5075995797636,0.476139015236448,1684,0.0,96,GPS_Atti,
0.312133124846614,36.8829031848822,17200,2017-11-07 08:30:58,1821.6768160936713,53.500001712,0.0,0.28926700925654397,1821.6768160936713,53.500001712,0.5075995797636,0.476139015236448,1684,0.0,96,GPS_Atti,
0.31213308582726396,36.882903196697505,17300,2017-11-07 08:30:58,1822.176816109671,54.00000172800001,0.0,0.292026009344832,1822.176816109671,54.00000172800001,0.5075995797636,0.476139015236448,1684,0.0,96,GPS_Atti,
0.31213301903643,36.8829032442048,17400,2017-11-07 08:30:58,1822.6768161256712,54.500001744,0.0,0.299663009589216,1822.6768161256712,54.500001744,0.5075995797636,0.476139015236448,1684,0.0,96,GPS_Atti,
0.31213296548555797,36.88290328521379,17500,2017-11-07 08:30:58,1823.1768161416712,55.00000176,0.0,0.30614300979657605,1823.1768161416712,55.00000176,0.5075995797636,0.476139015236448,1684,0.0,96,GPS_Atti,
0.312132928507615,36.882903314470404,17600,2017-11-07 08:30:58,1823.6768161576713,55.500001776,0.0,0.310741009943712,1823.6768161576713,55.500001776,0.5075995797636,0.476139015236448,1684,0.0,96,GPS_Atti,
0.312132925079587,36.882903326350004,17700,2017-11-07 08:30:58,1824.176816173671,56.000001792,0.0,0.31210500998735996,1824.176816173671,56.000001792,0.5075995797636,0.476139015236448,1684,0.0,96,GPS_Atti,
0.312132945765203,36.8829033267747,17800,2017-11-07 08:30:58,1824.676816189671,56.50000180800001,0.0,0.311253009960096,1824.676816189671,56.50000180800001,0.5075995797636,0.476139015236448,1684,0.0,96,GPS_Atti,
0.31213298264090994,36.8829033221629,17900,2017-11-07 08:30:58,1825.1768162056712,57.000001824,0.0,0.309217009894944,1825.1768162056712,57.000001824,0.5075995797636,0.476139015236448,1684,0.0,96,GPS_Atti,
0.312133010882963,36.8829033315225,18000,2017-11-07 08:30:59,1825.576816218471,57.4000018368,0.0,0.30902000988864003,1825.576816218471,57.4000018368,0.5075995797636,0.476139015236448,1684,0.0,96,GPS_Atti,
0.312133058356075,36.8829033387921,18100,2017-11-07 08:30:59,1826.0768162344712,57.90000185280001,0.0,0.307886009852352,1826.0768162344712,57.90000185280001,0.5075995797636,0.476139015236448,1684,0.0,96,GPS_Atti,
0.312133106299553,36.8829033484323,18200,2017-11-07 08:30:59,1826.576816250471,58.400001868800004,0.0,0.307072009826304,1826.576816250471,58.400001868800004,0.5075995797636,0.476139015236448,1684,0.0,96,GPS_Atti,
0.312133174555172,36.8829033595635,18300,2017-11-07 08:30:59,1827.0768162664713,58.900001884800005,0.0,0.305802009785664,1827.0768162664713,58.900001884800005,0.5075995797636,0.476139015236448,1684,0.0,96,GPS_Atti,
0.312133233530391,36.882903377161604,18400,2017-11-07 08:30:59,1827.576816282471,59.4000019008,0.0,0.305707009782624,1827.576816282471,59.4000019008,0.5075995797636,0.476139015236448,1684,0.0,96,GPS_Atti,
0.312133292175545,36.88290338791379,18500,2017-11-07 08:30:59,1828.0768162984712,59.9000019168,0.0,0.305041009761312,1828.0768162984712,59.9000019168,0.5075995797636,0.476139015236448,1684,0.0,96,GPS_Atti,
0.3121333207068,36.8829033960129,18600,2017-11-07 08:30:59,1828.5768163144712,60.40000193280001,0.0,0.305077009762464,1828.5768163144712,60.40000193280001,0.5075995797636,0.476139015236448,1684,0.0,96,GPS_Atti,
0.31213333555607103,36.882903412371995,18700,2017-11-07 08:30:59,1829.0768163304713,60.9000019488,0.0,0.306417009805344,1829.0768163304713,60.9000019488,0.5075995797636,0.476139015236448,1684,0.0,96,GPS_Atti,
0.31213332620513895,36.882903445888,18800,2017-11-07 08:30:59,1829.576816346471,61.400001964800005,0.0,0.31028500992912,1829.576816346471,61.400001964800005,0.5075995797636,0.476139015236448,1684,0.0,96,GPS_Atti,
0.312133317836667,36.8829034716454,18900,2017-11-07 08:30:59,1830.0768163624712,61.9000019808,0.0,0.313292010025344,1830.0768163624712,61.9000019808,0.5075995797636,0.476139015236448,1684,0.0,96,GPS_Atti,
0.312133303446209,36.8829034983802,19000,2017-11-07 08:31:00,1830.5768163784712,62.4000019968,0.0,0.316573010130336,1830.5768163784712,62.4000019968,0.5075995797636,0.476139015236448,1684,0.0,96,GPS_Atti,
0.312133277347239,36.8829035374937,19100,2017-11-07 08:31:00,1831.076816394471,62.9000020128,0.0,0.321522010288704,1831.076816394471,62.9000020128,0.5075995797636,0.476139015236448,1684,0.0,96,GPS_Atti,
0.31213322568943297,36.8829035786168,19200,2017-11-07 08:31:00,1831.576816410471,63.4000020288,0.0,0.32745701047862397,1831.576816410471,63.4000020288,0.5075995797636,0.476139015236448,1684,0.0,96,GPS_Atti,
0.312133204789779,36.8829036109288,19300,2017-11-07 08:31:00,1832.0768164264712,63.900002044800004,0.0,0.33154901060956804,1832.0768164264712,63.900002044800004,0.5075995797636,0.476139015236448,1684,0.0,96,GPS_Atti,
0.312133209903297,36.882903637881,19400,2017-11-07 08:31:00,1832.5768164424712,64.4000020608,0.0,0.334276010696832,1832.5768164424712,64.4000020608,0.5075995797636,0.476139015236448,1684,0.0,96,GPS_Atti,
0.312133264898497,36.88290364852,19500,2017-11-07 08:31:00,1833.076816458471,64.9000020768,0.0,0.33381001068192,1833.076816458471,64.9000020768,0.5075995797636,0.476139015236448,1684,0.0,96,GPS_Atti,
0.312133333823814,36.882903634140895,19600,2017-11-07 08:31:00,1833.5768164744713,65.40000209280001,0.0,0.330392010572544,1833.5768164744713,65.40000209280001,0.5075995797636,0.476139015236448,1684,0.0,96,GPS_Atti,
0.312133435846645,36.8829036141235,19700,2017-11-07 08:31:00,1834.0768164904712,65.90000210880001,0.0,0.32575101042403204,1834.0768164904712,65.90000210880001,0.5075995797636,0.476139015236448,1684,0.0,96,GPS_Atti,
0.312133516126084,36.882903614099895,19800,2017-11-07 08:31:00,1834.576816506471,66.4000021248,0.0,0.32406501037007995,1834.576816506471,66.4000021248,0.5075995797636,0.476139015236448,1684,0.0,96,GPS_Atti,
0.312133598917805,36.8829036237454,19900,2017-11-07 08:31:00,1835.0768165224713,66.9000021408,0.0,0.32364001035648005,1835.0768165224713,66.9000021408,0.5075995797636,0.476139015236448,1684,0.0,96,GPS_Atti,
0.312133648500261,36.8829036410971,20000,2017-11-07 08:31:01,1835.5768165384711,67.40000215680001,0.0,0.32478901039324803,1835.5768165384711,67.40000215680001,0.5075995797636,0.476139015236448,1684,0.0,96,GPS_Atti,
0.312133703410986,36.8829036607574,20100,2017-11-07 08:31:01,1836.0768165544712,67.9000021728,0.0,0.326227010439264,1836.0768165544712,67.9000021728,0.5075995797636,0.476139015236448,1684,0.0,96,GPS_Atti,
0.312133748405402,36.8829036856214,20200,2017-11-07 08:31:01,1836.5768165704712,68.4000021888,0.0,0.328466010510912,1836.5768165704712,68.4000021888,0.5075995797636,0.476139015236448,1684,0.0,96,GPS_Atti,
0.31213379170013,36.8829037047785,20300,2017-11-07 08:31:01,1837.0768165864713,68.9000022048,0.0,0.330171010565472,1837.0768165864713,68.9000022048,0.5075995797636,0.476139015236448,1684,0.0,96,GPS_Atti,
0.312133808189856,36.882903704603,20400,2017-11-07 08:31:01,1837.5768166024711,69.4000022208,0.0,0.33001101056035204,1837.5768166024711,69.4000022208,0.5075995797636,0.476139015236448,1684,0.0,96,GPS_Atti,
0.312133828154579,36.8829036949516,20500,2017-11-07 08:31:01,1838.076816618471,69.9000022368,0.0,0.328784010521088,1838.076816618471,69.9000022368,0.5075995797636,0.476139015236448,1684,0.0,96,GPS_Atti,
0.312133850146614,36.88290367908329,20600,2017-11-07 08:31:01,1838.5768166344712,70.4000022528,0.0,0.32686701045974403,1838.5768166344712,70.4000022528,0.5075995797636,0.476139015236448,1684,0.0,96,GPS_Atti,
0.31213388508569395,36.8829036703381,20700,2017-11-07 08:31:01,1839.076816650471,70.90000226880001,0.0,0.32568501042192005,1839.076816650471,70.90000226880001,0.5075995797636,0.476139015236448,1684,0.0,96,GPS_Atti,
0.312133915714079,36.882903677566794,20800,2017-11-07 08:31:01,1839.5768166664711,71.4000022848,0.0,0.32634201044294403,1839.5768166664711,71.4000022848,0.5075995797636,0.476139015236448,1684,0.0,96,GPS_Atti,
0.31213395416693396,36.882903694121296,20900,2017-11-07 08:31:01,1840.0768166824712,71.9000023008,0.0,0.328048010497536,1840.0768166824712,71.9000023008,0.5075995797636,0.476139015236448,1684,0.0,96,GPS_Atti,
0.31213397684668104,36.8829037120516,21000,2017-11-07 08:31:02,1840.5768166984712,72.40000231680001,0.0,0.329989010559648,1840.5768166984712,72.40000231680001,0.5075995797636,0.476139015236448,1684,0.0,96,GPS_Atti,
0.312134008080237,36.8829037291468,21100,2017-11-07 08:31:02,1841.076816714471,72.9000023328,0.0,0.3318500106192,1841.076816714471,72.9000023328,0.5075995797636,0.476139015236448,1684,0.0,96,GPS_Atti,
0.31213402787336303,36.8829037522138,21200,2017-11-07 08:31:02,1841.5768167304714,73.4000023488,0.0,0.334409010701088,1841.5768167304714,73.4000023488,0.5075995797636,0.476139015236448,1684,0.0,96,GPS_Atti,
0.312134076186854,36.8829037834943,21300,2017-11-07 08:31:02,1842.0768167464712,73.9000023648,0.0,0.337932010813824,1842.0768167464712,73.9000023648,0.5075995797636,0.476139015236448,1684,0.0,96,GPS_Atti,
0.312134128301947,36.8829038169279,21400,2017-11-07 08:31:02,1842.476816759271,74.30000237760001,0.0,0.341791010937312,1842.476816759271,74.30000237760001,0.5075995797636,0.476139015236448,1684,0.0,96,GPS_Atti,
0.312134213127391,36.882903830420005,21500,2017-11-07 08:31:02,1843.0768167784713,74.9000023968,0.0,0.34373001099936,1843.0768167784713,74.9000023968,0.5075995797636,0.476139015236448,1684,0.0,96,GPS_Atti,
0.312134286385998,36.8829038305051,21600,2017-11-07 08:31:02,1843.5768167944711,75.40000241279999,0.0,0.344327011018464,1843.5768167944711,75.40000241279999,0.5075995797636,0.476139015236448,1148,0.0,96,GPS_Atti,
0.31213437251521503,36.882903822715,21700,2017-11-07 08:31:02,1844.0768168104712,75.90000242880001,0.0,0.344401011020832,1844.0768168104712,75.90000242880001,0.5075995797636,0.476139015236448,1048,0.0,96,GPS_Atti,
0.312134432217025,36.8829038255815,21800,2017-11-07 08:31:02,1844.576816826471,76.4000024448,0.0,0.345521011056672,1844.576816826471,76.4000024448,0.5075995797636,0.476139015236448,1024,0.0,96,GPS_Atti,
0.31213448741048805,36.882903816712705,21900,2017-11-07 08:31:02,1844.9768168392711,76.8000024576,0.0,0.3454000110528,1844.9768168392711,76.8000024576,0.5075995797636,0.476139015236448,1024,0.0,96,GPS_Atti,
0.312134542591942,36.8829038137552,22100,2017-11-07 08:31:03,1845.676816861671,77.50000248,0.0,0.346039011073248,1845.676816861671,77.50000248,0.5075995797636,0.476139015236448,1024,0.0,96,GPS_Atti,
0.312134551260149,36.8829038104733,22200,2017-11-07 08:31:03,1845.8768168680713,77.70000248640001,0.0,0.34584001106688006,1845.8768168680713,77.70000248640001,0.5075995797636,0.476139015236448,1024,0.0,96,GPS_Atti,
0.312134551716317,36.882903792727106,22300,2017-11-07 08:31:03,1845.9768168712712,77.8000024896,0.0,0.34390401100492807,1845.9768168712712,77.8000024896,0.5075995797636,0.476139015236448,1024,0.0,96,GPS_Atti,
0.312134527797324,36.8829037726717,22400,2017-11-07 08:31:03,1846.076816874471,77.9000024928,0.0,0.341262010920384,1846.076816874471,77.9000024928,0.5075995797636,0.476139015236448,1024,0.0,96,GPS_Atti,
0.31213451199429304,36.882903732254206,22500,2017-11-07 08:31:03,1846.076816874471,77.9000024928,0.35999970196000003,0.33654201076934404,1846.076816874471,77.9000024928,0.5075995797636,0.476139015236448,1024,0.0,96,GPS_Atti,
0.31213448495418394,36.882903672740504,22600,2017-11-07 08:31:03,1846.076816874471,77.9000024928,0.35999970196000003,0.32953301054505607,1846.076816874471,77.9000024928,0.5075995797636,0.476139015236448,1024,0.0,96,GPS_Atti,
0.312134469610985,36.882903596001604,22700,2017-11-07 08:31:03,1846.1768168776712,78.00000249600001,0.5075995797636,0.320838010266816,1846.1768168776712,78.00000249600001,0.5075995797636,0.476139015236448,1024,0.0,96,GPS_Atti,
0.312134460155221,36.8829035290093,22800,2017-11-07 08:31:03,1846.1768168776712,78.00000249600001,0.5075995797636,0.31331501002608003,1846.1768168776712,78.00000249600001,0.5075995797636,0.476139015236448,1024,0.0,96,GPS_Atti,
0.31213446268521194,36.8829034653492,22900,2017-11-07 08:31:03,1846.1768168776712,78.00000249600001,0.5075995797636,0.30636600980371204,1846.1768168776712,78.00000249600001,0.5075995797636,0.476139015236448,1024,0.0,96,GPS_Atti,
0.312134460466661,36.8829034280974,23000,2017-11-07 08:31:04,1846.1768168776712,78.00000249600001,0.35999970196000003,0.302237009671584,1846.1768168776712,78.00000249600001,0.5075995797636,0.476139015236448,1024,0.0,96,GPS_Atti,
0.312134499939329,36.8829033948411,23100,2017-11-07 08:31:04,1846.1768168776712,78.00000249600001,0.0,0.299327009578464,1846.1768168776712,78.00000249600001,0.5075995797636,0.476139015236448,1024,0.0,96,GPS_Atti,
0.31213457144186196,36.8829033805476,23200,2017-11-07 08:31:04,1846.2768168808711,78.1000024992,0.0,0.2992700095766401,1846.2768168808711,78.1000024992,0.5075995797636,0.476139015236448,1024,0.0,96,GPS_Atti,
0.312134680372553,36.8829033859054,23300,2017-11-07 08:31:04,1846.2768168808711,78.1000024992,0.0,0.30253300968105606,1846.2768168808711,78.1000024992,0.5075995797636,0.476139015236448,1024,0.0,96,GPS_Atti,
0.31213479124923305,36.88290343446911,23400,2017-11-07 08:31:04,1846.2768168808711,78.1000024992,0.0,0.31092000994944,1846.2768168808711,78.1000024992,0.5075995797636,0.476139015236448,1024,0.0,96,GPS_Atti,
0.31213493573150203,36.8829035093281,23500,2017-11-07 08:31:04,1846.2768168808711,78.1000024992,0.0,0.32358901035484805,1846.2768168808711,78.1000024992,0.5075995797636,0.476139015236448,1024,0.0,96,GPS_Atti,
0.312135075040204,36.8829036143108,23600,2017-11-07 08:31:04,1846.2768168808711,78.1000024992,0.0,0.339699010870368,1846.2768168808711,78.1000024992,0.5075995797636,0.476139015236448,1024,0.0,96,GPS_Atti,
0.312135242752634,36.8829037238774,23700,2017-11-07 08:31:04,1846.2768168808711,78.1000024992,0.0,0.357792011449344,1846.2768168808711,78.1000024992,0.5075995797636,0.476139015236448,1024,0.0,96,GPS_Atti,
0.312135397652669,36.8829038367643,23800,2017-11-07 08:31:04,1846.2768168808711,78.1000024992,0.0,0.37609201203494397,1846.2768168808711,78.1000024992,0.5075995797636,0.476139015236448,1024,0.0,96,GPS_Atti,
0.312135585846039,36.8829039761222,23900,2017-11-07 08:31:04,1846.2768168808711,78.1000024992,0.0,0.39894901276636807,1846.2768168808711,78.1000024992,0.5075995797636,0.476139015236448,1024,0.0,96,GPS_Atti,
0.312135760482205,36.882904145614,24000,2017-11-07 08:31:05,1846.2768168808711,78.1000024992,0.0,0.424466013582912,1846.2768168808711,78.1000024992,0.5075995797636,0.476139015236448,1024,0.0,96,GPS_Atti,
0.312135950773214,36.8829043288849,24100,2017-11-07 08:31:05,1846.2768168808711,78.1000024992,0.0,0.452336014474752,1846.2768168808711,78.1000024992,0.5075995797636,0.476139015236448,1015,0.0,96,GPS_Atti,
0.312136100812344,36.8829045098717,24200,2017-11-07 08:31:05,1846.2768168808711,78.1000024992,0.0,0.477989015295648,1846.2768168808711,78.1000024992,0.5075995797636,0.477989015295648,910,0.0,96,GPS_Atti,
0.31213627975757696,36.8829047040744,24300,2017-11-07 08:31:05,1846.2768168808711,78.1000024992,0.0,0.5065550162097601,1846.2768168808711,78.1000024992,0.5075995797636,0.5065550162097601,854,0.0,96,GPS_Atti,
0.31213662911703105,36.8829050867275,24500,2017-11-07 08:31:05,1846.2768168808711,78.1000024992,0.0,0.5628980180127361,1846.2768168808711,78.1000024992,0.5075995797636,0.5628980180127361,850,0.0,96,GPS_Atti,
0.312136790812157,36.882905265127796,24600,2017-11-07 08:31:05,1846.2768168808711,78.1000024992,0.0,0.589182018853824,1846.2768168808711,78.1000024992,0.5075995797636,0.589182018853824,849,0.0,96,GPS_Atti,
0.312136987069377,36.882905457544204,24700,2017-11-07 08:31:05,1846.1768168776712,78.00000249600001,0.0,0.618868019803776,1846.2768168808711,78.1000024992,0.5075995797636,0.618868019803776,847,0.0,96,GPS_Atti,
0.31213715976464196,36.8829056366906,24800,2017-11-07 08:31:05,1846.1768168776712,78.00000249600001,0.0,0.6459780206712962,1846.2768168808711,78.1000024992,0.5075995797636,0.6459780206712962,855,0.0,96,GPS_Atti,
0.312137346564267,36.882905818043,24900,2017-11-07 08:31:05,1846.076816874471,77.9000024928,0.0,0.674197021574304,1846.2768168808711,78.1000024992,0.5075995797636,0.674197021574304,887,0.0,96,GPS_Atti,
0.31213750147936603,36.8829059821385,25000,2017-11-07 08:31:06,1846.076816874471,77.9000024928,0.0,0.6989130223652161,1846.2768168808711,78.1000024992,0.5075995797636,0.6989130223652161,1019,0.0,96,GPS_Atti,
0.31213766892330497,36.8829061405064,25100,2017-11-07 08:31:06,1845.9768168712712,77.8000024896,0.0,0.723906023164992,1846.2768168808711,78.1000024992,0.5075995797636,0.723906023164992,1024,0.0,96,GPS_Atti,
0.312137779722635,36.882906263067206,25200,2017-11-07 08:31:06,1845.9768168712712,77.8000024896,0.0,0.7421010237472321,1846.2768168808711,78.1000024992,0.5075995797636,0.7421010237472321,1024,0.0,96,GPS_Atti,
0.312137900289779,36.882906374791496,25300,2017-11-07 08:31:06,1845.9768168712712,77.8000024896,0.0,0.7599250243176,1846.2768168808711,78.1000024992,0.5075995797636,0.7599250243176,1024,0.0,96,GPS_Atti,
0.312137999705063,36.882906460479,25400,2017-11-07 08:31:06,1845.9768168712712,77.8000024896,0.0,0.7740510247696321,1846.2768168808711,78.1000024992,0.5075995797636,0.7740510247696321,1024,0.0,96,GPS_Atti,
0.312138128508877,36.882906555546,25500,2017-11-07 08:31:06,1845.9768168712712,77.8000024896,0.0,0.7909280253096961,1846.2768168808711,78.1000024992,0.5075995797636,0.7909280253096961,1024,0.0,96,GPS_Atti,
0.312138249196118,36.8829066485879,25600,2017-11-07 08:31:06,1845.9768168712712,77.8000024896,0.0,0.8071360258283521,1846.2768168808711,78.1000024992,0.5075995797636,0.8071360258283521,1024,0.0,96,GPS_Atti,
0.312138415339339,36.8829067546707,25700,2017-11-07 08:31:06,1845.9768168712712,77.8000024896,0.0,0.8275200264806402,1846.2768168808711,78.1000024992,0.5075995797636,0.8275200264806402,913,0.0,96,GPS_Atti,
0.31213857248703397,36.882906848402705,25800,2017-11-07 08:31:06,1845.9768168712712,77.8000024896,0.0,0.846282027081024,1846.2768168808711,78.1000024992,0.5075995797636,0.846282027081024,771,0.0,96,GPS_Atti,
0.312138752020542,36.8829069538918,25900,2017-11-07 08:31:06,1845.8768168680713,77.70000248640001,0.0,0.8676630277652161,1846.2768168808711,78.1000024992,0.5075995797636,0.8676630277652161,797,0.0,96,GPS_Atti,
0.312138852872114,36.882907032107205,26000,2017-11-07 08:31:07,1845.8768168680713,77.70000248640001,0.0,0.881384028204288,1846.2768168808711,78.1000024992,0.5075995797636,0.881384028204288,810,0.0,96,GPS_Atti,
0.312138980358924,36.882907132723496,26100,2017-11-07 08:31:07,1845.7768168648713,77.6000024832,0.0,0.898903028764896,1846.2768168808711,78.1000024992,0.5075995797636,0.898903028764896,819,0.0,96,GPS_Atti,
0.31213907502973703,36.882907236303296,26200,2017-11-07 08:31:07,1845.7768168648713,77.6000024832,0.0,0.9144580292626561,1846.2768168808711,78.1000024992,0.5075995797636,0.9144580292626561,928,0.0,96,GPS_Atti,
0.31213916570638395,36.8829073182742,26300,2017-11-07 08:31:07,1845.676816861671,77.50000248,0.0,0.927847029691104,1846.2768168808711,78.1000024992,0.5075995797636,0.927847029691104,1024,0.0,96,GPS_Atti,
0.312139184114315,36.8829073487122,26400,2017-11-07 08:31:07,1845.676816861671,77.50000248,0.35999970196000003,0.931774029816768,1846.2768168808711,78.1000024992,0.5075995797636,0.931774029816768,1024,0.0,96,GPS_Atti,
0.312139201315569,36.8829073789875,26500,2017-11-07 08:31:07,1845.5768168584711,77.40000247680001,0.35999970196000003,0.93560502993936,1846.2768168808711,78.1000024992,0.5075995797636,0.93560502993936,1024,0.0,96,GPS_Atti,
0.31213917997481,36.8829073878948,26600,2017-11-07 08:31:07,1845.5768168584711,77.40000247680001,0.35999970196000003,0.9349300299177601,1846.2768168808711,78.1000024992,0.5075995797636,0.93560502993936,1024,0.0,96,GPS_Atti,
0.31213921612871004,36.882907388696204,26700,2017-11-07 08:31:07,1845.5768168584711,77.40000247680001,0.0,0.93747002999904,1846.2768168808711,78.1000024992,0.5075995797636,0.93747002999904,1024,0.0,96,GPS_Atti,
0.312139264661226,36.8829073664247,26800,2017-11-07 08:31:07,1845.676816861671,77.50000248,0.0,0.9388580300434561,1846.2768168808711,78.1000024992,0.5075995797636,0.9388580300434561,1024,0.0,96,GPS_Atti,
0.31213936461919,36.8829073510504,26900,2017-11-07 08:31:07,1845.676816861671,77.50000248,0.0,0.9444650302228801,1846.2768168808711,78.1000024992,0.5075995797636,0.9444650302228801,995,0.0,96,GPS_Atti,
0.3121394355476961,36.882907337552396,27000,2017-11-07 08:31:08,1845.676816861671,77.50000248,0.0,0.9482810303449922,1846.2768168808711,78.1000024992,0.5075995797636,0.9482810303449922,843,0.0,96,GPS_Atti,
0.31213952697505604,36.882907339442504,27100,2017-11-07 08:31:08,1845.5768168584711,77.40000247680001,0.0,0.9549240305575681,1846.2768168808711,78.1000024992,0.5075995797636,0.9549240305575681,804,0.0,96,GPS_Atti,
0.312139563492913,36.8829073345151,27200,2017-11-07 08:31:08,1845.5768168584711,77.40000247680001,0.0,0.9571100306275201,1846.2768168808711,78.1000024992,0.5075995797636,0.9571100306275201,805,0.0,96,GPS_Atti,
0.312139615980105,36.8829073309099,27300,2017-11-07 08:31:08,1845.5768168584711,77.40000247680001,0.0,0.96057003073824,1846.2768168808711,78.1000024992,0.5075995797636,0.96057003073824,804,0.0,96,GPS_Atti,
0.312139631613982,36.8829073285385,27400,2017-11-07 08:31:08,1845.4768168552712,77.3000024736,0.0,0.9614950307678399,1846.2768168808711,78.1000024992,0.5075995797636,0.9614950307678399,796,0.0,96,GPS_Atti,
0.312139670101442,36.8829073393264,27500,2017-11-07 08:31:08,1845.3768168520712,77.20000247040001,0.0,0.9651860308859521,1846.2768168808711,78.1000024992,0.5075995797636,0.9651860308859521,795,0.0,96,GPS_Atti,
0.312139673455222,36.8829073295519,27600,2017-11-07 08:31:08,1845.3768168520712,77.20000247040001,0.35999970196000003,0.964603030867296,1846.2768168808711,78.1000024992,0.5075995797636,0.9651860308859521,794,0.0,96,GPS_Atti,
0.312139667626207,36.882907307127795,27700,2017-11-07 08:31:08,1845.276816848871,77.1000024672,0.35999970196000003,0.9622890307932479,1846.2768168808711,78.1000024992,0.5075995797636,0.9651860308859521,788,0.0,96,GPS_Atti,
0.312139593777086,36.8829072581562,27800,2017-11-07 08:31:08,1845.176816845671,77.000002464,0.35999970196000003,0.9528100304899201,1846.2768168808711,78.1000024992,0.5075995797636,0.9651860308859521,779,0.0,96,GPS_Atti,
0.312139528688993,36.882907200909,27900,2017-11-07 08:31:08,1845.176816845671,77.000002464,0.7199994039200001,0.9432680301845761,1846.2768168808711,78.1000024992,0.7199994039200001,0.9651860308859521,890,0.0,96,GPS_Atti,
0.312139446624372,36.882907136312205,28000,2017-11-07 08:31:09,1845.176816845671,77.000002464,0.35999970196000003,0.931884029820288,1846.2768168808711,78.1000024992,0.7199994039200001,0.9651860308859521,1024,0.0,96,GPS_Atti,
0.31213940438334903,36.8829070714503,28100,2017-11-07 08:31:09,1845.0768168424713,76.9000024608,0.35999970196000003,0.9233460295470721,1846.2768168808711,78.1000024992,0.7199994039200001,0.9651860308859521,1024,0.0,96,GPS_Atti,
0.312139372976364,36.8829070206716,28200,2017-11-07 08:31:09,1844.9768168392711,76.8000024576,0.35999970196000003,0.916782029337024,1846.2768168808711,78.1000024992,0.7199994039200001,0.9651860308859521,1024,0.0,96,GPS_Atti,
0.312139414395837,36.882906965153396,28300,2017-11-07 08:31:09,1844.9768168392711,76.8000024576,0.35999970196000003,0.9151000292831999,1846.2768168808711,78.1000024992,0.7199994039200001,0.9651860308859521,1024,0.0,96,GPS_Atti,
0.31213945930588,36.8829068953594,28400,2017-11-07 08:31:09,1844.9768168392711,76.8000024576,0.35999970196000003,0.9125460292014721,1846.2768168808711,78.1000024992,0.7199994039200001,0.9651860308859521,1024,0.0,95,GPS_Atti,
0.31213957875550397,36.882906837218705,28500,2017-11-07 08:31:09,1844.9768168392711,76.8000024576,0.0,0.91660502933136,1846.2768168808711,78.1000024992,0.7199994039200001,0.9651860308859521,1024,0.0,95,GPS_Atti,
0.31213968683451804,36.88290679792,28600,2017-11-07 08:31:09,1844.9768168392711,76.8000024576,0.0,0.9215460294894721,1846.2768168808711,78.1000024992,0.7199994039200001,0.9651860308859521,1024,0.0,95,GPS_Atti,
0.312139832843249,36.882906779851105,28700,2017-11-07 08:31:09,1844.9768168392711,76.8000024576,0.0,0.9312630298004161,1846.2768168808711,78.1000024992,0.7199994039200001,0.9651860308859521,1024,0.0,95,GPS_Atti,
0.31213991932258195,36.882906774079,28800,2017-11-07 08:31:09,1844.9768168392711,76.8000024576,0.0,0.9374970299999039,1846.2768168808711,78.1000024992,0.7199994039200001,0.9651860308859521,1024,0.0,95,GPS_Atti,
0.312139992612333,36.8829067715947,28900,2017-11-07 08:31:09,1844.9768168392711,76.8000024576,0.0,0.94301503017648,1846.2768168808711,78.1000024992,0.7199994039200001,0.9651860308859521,1024,0.0,95,GPS_Atti,
0.312139989167359,36.8829067663386,29000,2017-11-07 08:31:10,1844.9768168392711,76.8000024576,0.35999970196000003,0.9423300301545602,1846.2768168808711,78.1000024992,0.7199994039200001,0.9651860308859521,1024,0.0,95,GPS_Atti,
0.312139992413662,36.8829067496058,29100,2017-11-07 08:31:10,1844.9768168392711,76.8000024576,0.35999970196000003,0.941263030120416,1846.2768168808711,78.1000024992,0.7199994039200001,0.9651860308859521,1024,0.0,95,GPS_Atti,
0.312139969303599,36.882906718041,29200,2017-11-07 08:31:10,1844.8768168360712,76.70000245439999,0.35999970196000003,0.936962029982784,1846.2768168808711,78.1000024992,0.7199994039200001,0.9651860308859521,1024,0.0,95,GPS_Atti,
0.312139945618696,36.882906657505394,29300,2017-11-07 08:31:10,1844.8768168360712,76.70000245439999,0.35999970196000003,0.9303370297707839,1846.2768168808711,78.1000024992,0.7199994039200001,0.9651860308859521,1024,0.0,95,GPS_Atti,
0.31213986922675896,36.8829065889474,29400,2017-11-07 08:31:10,1844.8768168360712,76.70000245439999,0.35999970196000003,0.918939029406048,1846.2768168808711,78.1000024992,0.7199994039200001,0.9651860308859521,845,0.0,95,GPS_Atti,
