latitude,longitude,time_millisecond,datetime_utc,altitude_m,ascent_m,speed_kph,distance_m,max_altitude_m,max_ascent_m,max_speed_kph,max_distance_m,rc_throttle,gimbal_pitch_degrees,battery_percent,flycState,message
0.289292858972746,36.8890121155482,0,2018-04-14 13:18:14,1714.1068663514302,0.0,0.0,0.0,1714.1068663514302,0.0,0.0,0.0,364,0.0,99,Motors_Started,
0.289292868674201,36.8890121421553,100,2018-04-14 13:18:14,1714.1068663514302,0.0,0.0,0.00314938010078016,1714.1068663514302,0.0,0.0,0.00314938010078016,364,0.0,99,Motors_Started,
0.289292892311879,36.8890121574985,200,2018-04-14 13:18:14,1714.1068663514302,0.0,0.0,0.005958900190684801,1714.1068663514302,0.0,0.0,0.005958900190684801,364,0.0,99,Motors_Started,
0.289292921758218,36.8890121690187,300,2018-04-14 13:18:14,1714.1068663514302,0.0,0.0,0.00917099029347168,1714.1068663514302,0.0,0.0,0.00917099029347168,364,0.0,99,Motors_Started,
0.289292935983491,36.8890121701948,400,2018-04-14 13:18:15,1714.1068663514302,0.0,0.0,0.0105011003360352,1714.1068663514302,0.0,0.0,0.0105011003360352,498,0.0,99,Motors_Started,Setting new Return-To-Home altitude to 45m (148 ft). Setting new Maximum Flight Altitude to 150m (492 ft)
0.289292948561592,36.8890121717295,500,2018-04-14 13:18:15,1714.1068663514302,0.0,0.0,0.011759700376310401,1714.1068663514302,0.0,0.0,0.011759700376310401,1024,0.0,99,Motors_Started,
0.289292975401606,36.8890121647288,600,2018-04-14 13:18:15,1714.1068663514302,0.0,0.0,0.0140553004497696,1714.1068663514302,0.0,0.0,0.0140553004497696,1024,0.0,99,Motors_Started,
0.289293008392253,36.8890121603399,700,2018-04-14 13:18:15,1714.1068663514302,0.0,0.0,0.0173469005551008,1714.1068663514302,0.0,0.0,0.0173469005551008,1024,0.0,99,Motors_Started,
0.289293028260084,36.8890121786701,800,2018-04-14 13:18:15,1714.1068663514302,0.0,0.0,0.0200919006429408,1714.1068663514302,0.0,0.0,0.0200919006429408,1024,0.0,99,Motors_Started,
0.289293045828552,36.8890122015097,900,2018-04-14 13:18:15,1714.1068663514302,0.0,0.0,0.022872900731932804,1714.1068663514302,0.0,0.0,0.022872900731932804,1024,0.0,99,Motors_Started,
0.289293077285205,36.8890122188823,1000,2018-04-14 13:18:15,1714.1068663514302,0.0,0.0,0.026859900859516804,1714.1068663514302,0.0,0.0,0.026859900859516804,1024,0.0,99,Motors_Started,
0.289293114544817,36.8890122289015,1100,2018-04-14 13:18:15,1714.1068663514302,0.0,0.0,0.031091100994915202,1714.1068663514302,0.0,0.0,0.031091100994915202,1024,0.0,99,Motors_Started,
0.289293136716897,36.8890122061294,1200,2018-04-14 13:18:15,1714.1068663514302,0.0,0.0,0.0324879010396128,1714.1068663514302,0.0,0.0,0.0324879010396128,1024,0.0,99,Motors_Started,
0.289293155437489,36.8890121779994,1300,2018-04-14 13:18:15,1714.1068663514302,0.0,0.0,0.0336922010781504,1714.1068663514302,0.0,0.0,0.0336922010781504,1024,0.0,99,Motors_Started,
0.289293186395024,36.8890121730217,1400,2018-04-14 13:18:16,1714.1068663514302,0.0,0.0,0.036968001182976,1714.1068663514302,0.0,0.0,0.036968001182976,1024,0.0,99,Motors_Started,
0.289293223916002,36.889012180609,1500,2018-04-14 13:18:16,1714.1068663514302,0.0,0.0,0.0412238013191616,1714.1068663514302,0.0,0.0,0.0412238013191616,1024,0.0,99,Motors_Started,
0.289293245719238,36.889012189313,1600,2018-04-14 13:18:16,1714.1068663514302,0.0,0.0,0.043783901401084804,1714.1068663514302,0.0,0.0,0.043783901401084804,1024,0.0,99,Assisted_Takeoff,
0.289293265644879,36.8890121930675,1700,2018-04-14 13:18:16,1714.1068663514302,0.0,0.0,0.0460387014732384,1714.1068663514302,0.0,0.0,0.0460387014732384,1024,0.0,99,Assisted_Takeoff,
0.289293267854678,36.889012196472,1800,2018-04-14 13:18:16,1714.1068663514302,0.0,0.0,0.046352101483267204,1714.1068663514302,0.0,0.0,0.046352101483267204,1024,0.0,99,Assisted_Takeoff,
0.289293275067056,36.8890121966792,1900,2018-04-14 13:18:16,1714.1068663514302,0.0,0.0,0.0471436015085952,1714.1068663514302,0.0,0.0,0.0471436015085952,1024,0.0,99,Assisted_Takeoff,
0.289293294697134,36.8890121967017,2000,2018-04-14 13:18:16,1714.1068663514302,0.0,0.0,0.049288501577232,1714.1068663514302,0.0,0.0,0.049288501577232,1024,0.0,99,Assisted_Takeoff,
0.289293324101133,36.8890121943512,2100,2018-04-14 13:18:16,1714.1068663514302,0.0,0.0,0.0524622016787904,1714.1068663514302,0.0,0.0,0.0524622016787904,1024,0.0,99,Assisted_Takeoff,
0.289293339296144,36.8890121923454,2200,2018-04-14 13:18:16,1714.1068663514302,0.0,0.0,0.05409330173098561,1714.1068663514302,0.0,0.0,0.05409330173098561,1024,0.0,99,Assisted_Takeoff,
0.289293354626316,36.8890121887777,2300,2018-04-14 13:18:16,1714.1068663514302,0.0,0.0,0.05571800178297601,1714.1068663514302,0.0,0.0,0.05571800178297601,1024,0.0,99,Assisted_Takeoff,
0.289293355341203,36.8890122151326,2400,2018-04-14 13:18:17,1714.1068663514302,0.0,0.0,0.05629910180157121,1714.1068663514302,0.0,0.0,0.05629910180157121,1024,0.0,99,Assisted_Takeoff,
0.28929336186475,36.8890122412862,2500,2018-04-14 13:18:17,1714.1068663514302,0.0,0.0,0.057646201844678405,1714.1068663514302,0.0,0.0,0.057646201844678405,1024,0.0,99,Assisted_Takeoff,
0.289293383940751,36.8890122691811,2600,2018-04-14 13:18:17,1714.1068663514302,0.0,0.0,0.0608282019465024,1714.1068663514302,0.0,0.0,0.0608282019465024,1024,0.0,99,Assisted_Takeoff,
0.289293415604216,36.8890122845399,2700,2018-04-14 13:18:17,1714.1068663514302,0.0,0.0,0.0646906020700992,1714.1068663514302,0.0,0.0,0.0646906020700992,1024,0.0,99,Assisted_Takeoff,
0.28929343389897,36.8890122971703,2800,2018-04-14 13:18:17,1714.1068663514302,0.0,0.0,0.06704960214558721,1714.1068663514302,0.0,0.0,0.06704960214558721,1024,0.0,99,Assisted_Takeoff,
0.289293451590385,36.8890123037138,2900,2018-04-14 13:18:17,1714.1068663514302,0.0,0.0,0.0691449022126368,1714.1068663514302,0.0,0.0,0.0691449022126368,1024,0.0,99,Assisted_Takeoff,
0.289293482458356,36.8890123078394,3000,2018-04-14 13:18:17,1714.1068663514302,0.0,0.0,0.07255800232185601,1714.1068663514302,0.0,0.0,0.07255800232185601,1024,0.0,99,Assisted_Takeoff,
0.289293544022495,36.8890123352167,3200,2018-04-14 13:18:17,1714.1068663514302,0.0,0.0,0.0800024025600768,1714.1068663514302,0.0,0.0,0.0800024025600768,1024,0.0,99,Assisted_Takeoff,
0.289293565461774,36.8890123621818,3300,2018-04-14 13:18:17,1714.1068663514302,0.0,0.0,0.0832156026628992,1714.1068663514302,0.0,0.0,0.0832156026628992,1024,0.0,99,Assisted_Takeoff,
0.289293569823562,36.889012387017,3400,2018-04-14 13:18:18,1714.1068663514302,0.0,0.0,0.08461920270781441,1714.1068663514302,0.0,0.0,0.08461920270781441,1024,0.0,99,Assisted_Takeoff,
0.289293579336932,36.889012400787,3500,2018-04-14 13:18:18,1714.1068663514302,0.0,0.0,0.08616020275712641,1714.1068663514302,0.0,0.0,0.08616020275712641,1024,0.0,99,Assisted_Takeoff,
0.289293601048161,36.8890124109604,3600,2018-04-14 13:18:18,1714.1068663514302,0.0,0.0,0.0888217028422944,1714.1068663514302,0.0,0.0,0.0888217028422944,1024,0.0,99,Assisted_Takeoff,
0.289293633322293,36.8890124159221,3700,2018-04-14 13:18:18,1714.1068663514302,0.0,0.0,0.092364002955648,1714.1068663514302,0.0,0.0,0.092364002955648,1024,0.0,99,Assisted_Takeoff,
0.289293650503191,36.8890124173262,3800,2018-04-14 13:18:18,1714.1068663514302,0.0,0.0,0.09420330301450561,1714.1068663514302,0.0,0.0,0.09420330301450561,1024,0.0,99,Assisted_Takeoff,
0.289293668267072,36.8890124163637,3900,2018-04-14 13:18:18,1714.1068663514302,0.0,0.0,0.0960144030724608,1714.1068663514302,0.0,0.0,0.0960144030724608,1024,0.0,99,Assisted_Takeoff,
0.28929367054608,36.889012439479,4000,2018-04-14 13:18:18,1714.1068663514302,0.0,0.0,0.0971753031096096,1714.1068663514302,0.0,0.0,0.0971753031096096,1024,0.0,99,Assisted_Takeoff,
0.289293677771486,36.889012464646,4100,2018-04-14 13:18:18,1714.1068663514302,0.0,0.0,0.0989858031675456,1714.1068663514302,0.0,0.0,0.0989858031675456,1024,0.0,99,Assisted_Takeoff,
0.289293697662929,36.8890124886124,4200,2018-04-14 13:18:18,1714.1068663514302,0.0,0.0,0.102078003266496,1714.1068663514302,0.0,0.0,0.102078003266496,1024,0.0,99,Assisted_Takeoff,
0.289293730121889,36.8890125009687,4300,2018-04-14 13:18:18,1714.1068663514302,0.0,0.0,0.10593500338992,1714.1068663514302,0.0,0.0,0.10593500338992,1024,0.0,99,Assisted_Takeoff,
0.289293747490059,36.8890125101015,4400,2018-04-14 13:18:19,1714.1068663514302,0.0,0.0,0.108112003459584,1714.1068663514302,0.0,0.0,0.108112003459584,1026,0.0,99,Assisted_Takeoff,
0.289293765564159,36.889012514249,4500,2018-04-14 13:18:19,1714.1068663514302,0.0,0.0,0.110137003524384,1714.1068663514302,0.0,0.0,0.110137003524384,1078,0.0,99,Assisted_Takeoff,
0.289293767525619,36.8890125427349,4600,2018-04-14 13:18:19,1714.1068663514302,0.0,0.0,0.111647003572704,1714.1068663514302,0.0,0.0,0.111647003572704,1025,0.0,99,Assisted_Takeoff,
0.289293775571761,36.8890125703328,4700,2018-04-14 13:18:19,1714.1068663514302,0.0,0.0,0.113788003641216,1714.1068663514302,0.0,0.0,0.113788003641216,1025,0.0,99,Assisted_Takeoff,
0.289293796847382,36.8890125942092,4800,2018-04-14 13:18:19,1714.1068663514302,0.0,0.0,0.11709500374704002,1714.1068663514302,0.0,0.0,0.11709500374704002,1051,0.0,99,Assisted_Takeoff,
0.289293829068589,36.8890126073385,4900,2018-04-14 13:18:19,1714.1068663514302,0.0,0.0,0.120951003870432,1714.1068663514302,0.0,0.0,0.120951003870432,1075,0.0,99,Assisted_Takeoff,
0.289293846531208,36.8890126161875,5000,2018-04-14 13:18:19,1714.1068663514302,0.0,0.0,0.123128003940096,1714.1068663514302,0.0,0.0,0.123128003940096,1079,0.0,99,Assisted_Takeoff,
0.289293865573418,36.8890126199967,5100,2018-04-14 13:18:19,1714.1068663514302,0.0,0.0,0.12521000400672,1714.1068663514302,0.0,0.0,0.12521000400672,1085,0.0,99,Assisted_Takeoff,
0.289293868085293,36.8890126492412,5200,2018-04-14 13:18:19,1714.1068663514302,0.0,0.0,0.126947004062304,1714.1068663514302,0.0,0.0,0.126947004062304,1086,0.0,99,Assisted_Takeoff,
0.289293877006724,36.8890126768808,5300,2018-04-14 13:18:19,1714.1068663514302,0.0,0.0,0.129281004136992,1714.1068663514302,0.0,0.0,0.129281004136992,1097,0.0,99,Assisted_Takeoff,
0.289293869603003,36.889012700116,5400,2018-04-14 13:18:20,1714.1068663514302,0.0,0.0,0.129834004154688,1714.1068663514302,0.0,0.0,0.129834004154688,1108,0.0,99,Assisted_Takeoff,
0.28929387196099,36.8890127124958,5500,2018-04-14 13:18:20,1714.1068663514302,0.0,0.0,0.13075500418416,1714.1068663514302,0.0,0.0,0.13075500418416,1109,0.0,99,Assisted_Takeoff,
0.289293890449529,36.8890127492976,5600,2018-04-14 13:18:20,1714.1068663514302,0.0,0.0,0.134627004308064,1714.1068663514302,0.0,0.0,0.134627004308064,1107,0.0,99,Assisted_Takeoff,
0.289293920429997,36.8890127812929,5700,2018-04-14 13:18:20,1714.1068663514302,0.0,0.0,0.139336004458752,1714.1068663514302,0.0,0.0,0.139336004458752,1106,0.0,99,Assisted_Takeoff,
0.289293937743614,36.8890128061142,5800,2018-04-14 13:18:20,1714.1068663514302,0.0,0.0,0.14244000455808,1714.1068663514302,0.0,0.0,0.14244000455808,1108,0.0,99,Assisted_Takeoff,
0.289293958507089,36.8890128192553,5900,2018-04-14 13:18:20,1714.1068663514302,0.0,0.0,0.145173004645536,1714.1068663514302,0.0,0.0,0.145173004645536,1116,0.0,99,Assisted_Takeoff,
0.289293964228627,36.8890128538677,6000,2018-04-14 13:18:20,1714.1068663514302,0.0,0.0,0.14781200472998401,1714.1068663514302,0.0,0.0,0.14781200472998401,1143,0.0,99,Assisted_Takeoff,
0.289293978098898,36.8890128831212,6100,2018-04-14 13:18:20,1714.1068663514302,0.0,0.0,0.15091300482921602,1714.1068663514302,0.0,0.0,0.15091300482921602,1198,0.0,99,Assisted_Takeoff,
0.289294077995795,36.8890128836935,6300,2018-04-14 13:18:20,1714.1068663514302,0.0,0.0,0.160231005127392,1714.1068663514302,0.0,0.0,0.160231005127392,1222,0.0,99,Assisted_Takeoff,
0.289294140006943,36.8890128654591,6400,2018-04-14 13:18:21,1714.1068663514302,0.0,0.0,0.16507300528233598,1714.1068663514302,0.0,0.0,0.16507300528233598,1250,0.0,99,P-GPS,Obstacle Avoided. Revise Flight Route
0.289294180990807,36.8890128408294,6500,2018-04-14 13:18:21,1714.1068663514302,0.0,0.0,0.16768700536598402,1714.1068663514302,0.0,0.0,0.16768700536598402,1307,0.0,99,P-GPS,Home Point Recorded. RTH Altitude:  45m.
0.289294212149455,36.8890127992554,6600,2018-04-14 13:18:21,1714.1068663514302,0.0,0.0,0.168599005395168,1714.1068663514302,0.0,0.0,0.168599005395168,1378,0.0,99,P-GPS,
0.289294171378102,36.8890127752264,6800,2018-04-14 13:18:21,1714.2068663546302,0.1000000032,0.0,0.16334700522710402,1714.2068663546302,0.1000000032,0.0,0.168599005395168,1377,0.0,99,P-GPS,
0.289294090706615,36.8890128027461,6900,2018-04-14 13:18:21,1714.3068663578304,0.2000000064,0.35999970196000003,0.15685200501926402,1714.3068663578304,0.2000000064,0.35999970196000003,0.168599005395168,1407,0.0,99,P-GPS,
0.289293970963057,36.8890128342431,7000,2018-04-14 13:18:21,1714.5068663642303,0.4000000128,0.35999970196000003,0.147239004711648,1714.5068663642303,0.4000000128,0.35999970196000003,0.168599005395168,1453,0.0,99,P-GPS,
0.289293855738431,36.8890128716423,7100,2018-04-14 13:18:21,1714.60686636743,0.500000016,0.0,0.139128004452096,1714.60686636743,0.500000016,0.35999970196000003,0.168599005395168,1470,0.0,99,P-GPS,
0.289293706654383,36.8890129175302,7200,2018-04-14 13:18:21,1714.8068663738302,0.7000000224,0.0,0.12977000415264,1714.8068663738302,0.7000000224,0.35999970196000003,0.168599005395168,1487,0.0,99,P-GPS,
0.289293577085608,36.8890129867321,7300,2018-04-14 13:18:21,1714.9068663770302,0.8000000256,0.0,0.125551004017632,1714.9068663770302,0.8000000256,0.35999970196000003,0.168599005395168,1508,0.0,99,P-GPS,
0.289293436147037,36.8890131344349,7400,2018-04-14 13:18:22,1715.2068663866303,1.1000000352000001,0.35999970196000003,0.130222004167104,1715.2068663866303,1.1000000352000001,0.35999970196000003,0.168599005395168,1513,0.0,99,P-GPS,
0.289293308525066,36.8890133067728,7500,2018-04-14 13:18:22,1715.4068663930304,1.3000000416000002,0.503999582744,0.141589004530848,1715.4068663930304,1.3000000416000002,0.503999582744,0.168599005395168,1513,0.0,99,P-GPS,
0.289293181782456,36.8890134819761,7600,2018-04-14 13:18:22,1715.70686640263,1.6000000512,0.0,0.15613600499635202,1715.70686640263,1.6000000512,0.503999582744,0.168599005395168,1513,0.0,99,P-GPS,
0.289293103669254,36.8890135833113,7700,2018-04-14 13:18:22,1716.0068664122302,1.9000000608000003,0.0,0.1654750052952,1716.0068664122302,1.9000000608000003,0.503999582744,0.168599005395168,1532,0.0,99,P-GPS,
0.289293032519279,36.8890136442824,7800,2018-04-14 13:18:22,1716.40686642503,2.3000000736,0.0,0.171094005475008,1716.40686642503,2.3000000736,0.503999582744,0.171094005475008,1534,0.0,99,P-GPS,
0.289292994211763,36.889013666424,7900,2018-04-14 13:18:22,1716.7068664346302,2.6000000832000003,0.0,0.173119005539808,1716.7068664346302,2.6000000832000003,0.503999582744,0.173119005539808,1540,0.0,99,P-GPS,
0.289292995556857,36.8890136372786,8000,2018-04-14 13:18:22,1717.0068664442304,2.9000000928,0.0,0.169904005436928,1717.0068664442304,2.9000000928,0.503999582744,0.173119005539808,1554,0.0,99,P-GPS,
0.289293011456984,36.8890135919987,8100,2018-04-14 13:18:22,1717.4068664570302,3.3000001056,0.0,0.165062005281984,1717.4068664570302,3.3000001056,0.503999582744,0.173119005539808,1620,0.0,99,P-GPS,
0.28929300364371,36.8890135525996,8200,2018-04-14 13:18:22,1717.7068664666303,3.6000001152000003,0.0,0.16061500513968,1717.7068664666303,3.6000001152000003,0.503999582744,0.173119005539808,1620,0.0,99,P-GPS,
0.289292998900053,36.889013510652,8300,2018-04-14 13:18:22,1718.1068664794304,4.000000128,0.0,0.15592000498944,1718.1068664794304,4.000000128,0.503999582744,0.173119005539808,1613,0.0,99,P-GPS,
0.289292948252188,36.8890134605036,8400,2018-04-14 13:18:23,1718.40686648903,4.3000001376,0.0,0.14989500479664,1718.40686648903,4.3000001376,0.503999582744,0.173119005539808,1573,0.0,99,P-GPS,
0.289292839621131,36.8890133956896,8500,2018-04-14 13:18:23,1718.8068665018302,4.7000001504,0.35999970196000003,0.142374004555968,1718.8068665018302,4.7000001504,0.503999582744,0.173119005539808,1573,0.0,99,P-GPS,
0.289292672332301,36.8890133495442,8600,2018-04-14 13:18:23,1719.20686651463,5.1000001632,0.0,0.138787004441184,1719.20686651463,5.1000001632,0.503999582744,0.173119005539808,1563,0.0,99,P-GPS,
0.289292517228303,36.8890132914193,8700,2018-04-14 13:18:23,1719.6068665274304,5.5000001759999995,0.0,0.136173004357536,1719.6068665274304,5.5000001759999995,0.503999582744,0.173119005539808,1574,0.0,99,P-GPS,
0.289292344126741,36.8890132382074,8800,2018-04-14 13:18:23,1720.0068665402305,5.9000001888,0.0,0.137347004395104,1720.0068665402305,5.9000001888,0.503999582744,0.173119005539808,1593,0.0,99,P-GPS,
0.289292206733293,36.8890131836107,8900,2018-04-14 13:18:23,1720.4068665530303,6.3000002016,0.0,0.13917000445344002,1720.4068665530303,6.3000002016,0.503999582744,0.173119005539808,1607,0.0,99,P-GPS,
0.289292070200477,36.8890131542961,9000,2018-04-14 13:18:23,1720.7068665626302,6.6000002112,0.0,0.145043004641376,1720.7068665626302,6.6000002112,0.503999582744,0.173119005539808,1619,0.0,99,P-GPS,
0.28929197539491,36.8890131153344,9100,2018-04-14 13:18:23,1721.10686657543,7.000000224,0.0,0.148378004748096,1721.10686657543,7.000000224,0.503999582744,0.173119005539808,1644,0.0,99,P-GPS,
0.289291896818009,36.8890131184959,9200,2018-04-14 13:18:23,1721.5068665882302,7.4000002368,0.0,0.154557004945824,1721.5068665882302,7.4000002368,0.503999582744,0.173119005539808,1656,0.0,99,P-GPS,
0.289291848941756,36.8890131261132,9300,2018-04-14 13:18:23,1721.9068666010303,7.8000002496,0.0,0.158888005084416,1721.9068666010303,7.8000002496,0.503999582744,0.173119005539808,1663,0.0,99,P-GPS,
0.289291783974168,36.889013178354,9400,2018-04-14 13:18:24,1722.3068666138304,8.200000262400001,0.0,0.168107005379424,1722.3068666138304,8.200000262400001,0.503999582744,0.173119005539808,1666,0.0,99,P-GPS,
0.289291736155317,36.8890132162136,9500,2018-04-14 13:18:24,1722.8068666298302,8.700000278400001,0.0,0.17485000559520003,1722.8068666298302,8.700000278400001,0.503999582744,0.17485000559520003,1680,0.0,99,P-GPS,
0.289291696384644,36.8890132742694,9600,2018-04-14 13:18:24,1723.2068666426303,9.1000002912,0.0,0.182534005841088,1723.2068666426303,9.1000002912,0.503999582744,0.182534005841088,1683,0.0,99,P-GPS,
0.289291701508136,36.8890132961364,9700,2018-04-14 13:18:24,1723.7068666586301,9.6000003072,0.0,0.18386000588352003,1723.7068666586301,9.6000003072,0.503999582744,0.18386000588352003,1665,0.0,99,P-GPS,
0.289291697999653,36.8890133310721,9800,2018-04-14 13:18:24,1724.2068666746304,10.100000323200002,0.0,0.186923005981536,1724.2068666746304,10.100000323200002,0.503999582744,0.186923005981536,1657,0.0,99,P-GPS,
0.289291693774655,36.8890133402825,9900,2018-04-14 13:18:24,1724.6068666874303,10.500000336,0.0,0.18798800601561602,1724.6068666874303,10.500000336,0.503999582744,0.18798800601561602,1684,0.0,99,P-GPS,
0.289291612550718,36.8890133718394,10100,2018-04-14 13:18:24,1725.6068667194302,11.500000368000002,0.35999970196000003,0.1968000062976,1725.6068667194302,11.500000368000002,0.503999582744,0.1968000062976,1684,0.0,99,P-GPS,
0.289291587198695,36.8890134257044,10200,2018-04-14 13:18:24,1726.0068667322303,11.9000003808,0.35999970196000003,0.20305000649760002,1726.0068667322303,11.9000003808,0.503999582744,0.20305000649760002,1684,0.0,99,P-GPS,
0.28929157993095,36.8890134771932,10300,2018-04-14 13:18:24,1726.5068667482303,12.400000396800001,0.35999970196000003,0.20774900664796803,1726.5068667482303,12.400000396800001,0.503999582744,0.20774900664796803,1684,0.0,99,P-GPS,
0.289291522427335,36.889013566033,10400,2018-04-14 13:18:25,1727.0068667642304,12.9000004128,0.0,0.219339007018848,1727.0068667642304,12.9000004128,0.503999582744,0.219339007018848,1684,0.0,99,P-GPS,
0.289291466466264,36.8890136536946,10500,2018-04-14 13:18:25,1727.4068667770302,13.3000004256,0.0,0.230733007383456,1727.4068667770302,13.3000004256,0.503999582744,0.230733007383456,1684,0.0,99,P-GPS,
0.289291380052476,36.8890137597704,10600,2018-04-14 13:18:25,1727.9068667930303,13.800000441600002,0.0,0.24592900786972802,1727.9068667930303,13.800000441600002,0.503999582744,0.24592900786972802,1684,0.0,99,P-GPS,
0.289291286583455,36.8890138195291,10700,2018-04-14 13:18:25,1728.4068668090304,14.300000457600001,0.0,0.257842008250944,1728.4068668090304,14.300000457600001,0.503999582744,0.257842008250944,1684,-0.2,99,P-GPS,
0.289291111890904,36.8890138371912,10800,2018-04-14 13:18:25,1728.9068668250302,14.8000004736,0.0,0.27276700872854404,1728.9068668250302,14.8000004736,0.503999582744,0.27276700872854404,1684,-0.2,99,P-GPS,
0.289290946546843,36.8890138000346,10900,2018-04-14 13:18:25,1729.4068668410303,15.3000004896,0.35999970196000003,0.28340700906902405,1729.4068668410303,15.3000004896,0.503999582744,0.28340700906902405,1684,-0.8,99,P-GPS,
0.289290751315135,36.889013755472,11000,2018-04-14 13:18:25,1729.90686685703,15.8000005056,0.35999970196000003,0.29697400950316805,1729.90686685703,15.8000005056,0.503999582744,0.29697400950316805,1684,-2.0,99,P-GPS,
0.289290603432471,36.8890137014004,11100,2018-04-14 13:18:25,1730.4068668730304,16.3000005216,0.35999970196000003,0.306621009811872,1730.4068668730304,16.3000005216,0.503999582744,0.306621009811872,1684,-3.8,99,P-GPS,
0.289290435860699,36.889013672748,11200,2018-04-14 13:18:25,1731.0068668922302,16.9000005408,0.35999970196000003,0.32031001024992,1731.0068668922302,16.9000005408,0.503999582744,0.32031001024992,1684,-5.6,99,P-GPS,
0.289290290190276,36.8890136463155,11300,2018-04-14 13:18:25,1731.5068669082304,17.400000556800002,0.0,0.332538010641216,1731.5068669082304,17.400000556800002,0.503999582744,0.332538010641216,1684,-7.4,99,P-GPS,
0.289290102040264,36.8890136674662,11400,2018-04-14 13:18:26,1732.0068669242303,17.9000005728,0.0,0.351824011258368,1732.0068669242303,17.9000005728,0.503999582744,0.351824011258368,1684,-9.2,99,P-GPS,
0.289289918257331,36.8890136988229,11500,2018-04-14 13:18:26,1732.60686694343,18.500000592000003,0.0,0.37141001188512,1732.60686694343,18.500000592000003,0.503999582744,0.37141001188512,1684,-11.0,99,P-GPS,
0.289289680873758,36.8890137979597,11600,2018-04-14 13:18:26,1733.1068669594304,19.000000608,0.0,0.39989001279648,1733.1068669594304,19.000000608,0.503999582744,0.39989001279648,1684,-12.5,99,P-GPS,
0.289289469190694,36.8890138802571,11700,2018-04-14 13:18:26,1733.6068669754302,19.500000624000002,0.0,0.424987013599584,1733.6068669754302,19.500000624000002,0.503999582744,0.424987013599584,1684,-12.5,99,P-GPS,
0.289289223388879,36.8890140025145,11800,2018-04-14 13:18:26,1734.2068669946304,20.1000006432,0.0,0.455511014576352,1734.2068669946304,20.1000006432,0.503999582744,0.455511014576352,1684,-12.6,99,P-GPS,
0.289289023175761,36.8890141126041,11900,2018-04-14 13:18:26,1734.7068670106303,20.6000006592,0.0,0.48091301538921605,1734.7068670106303,20.6000006592,0.503999582744,0.48091301538921605,1684,-12.6,99,P-GPS,
0.289288788726846,36.8890142481353,12000,2018-04-14 13:18:26,1735.3068670298303,21.200000678400002,0.0,0.511000016352,1735.3068670298303,21.200000678400002,0.503999582744,0.511000016352,1684,-12.6,99,P-GPS,
0.289288587465214,36.8890143517419,12100,2018-04-14 13:18:26,1735.8068670458304,21.7000006944,0.0,0.5361730171575361,1735.8068670458304,21.7000006944,0.503999582744,0.5361730171575361,1684,-12.6,99,P-GPS,
0.289288350824617,36.8890144738537,12200,2018-04-14 13:18:26,1736.4068670650302,22.300000713600003,0.35999970196000003,0.56578501810512,1736.4068670650302,22.300000713600003,0.503999582744,0.56578501810512,1684,-12.6,99,P-GPS,
0.289288134207776,36.8890145552202,12300,2018-04-14 13:18:26,1736.9068670810304,22.8000007296,0.35999970196000003,0.591333018922656,1736.9068670810304,22.8000007296,0.503999582744,0.591333018922656,1684,-12.6,99,P-GPS,
0.289287868305262,36.8890146377997,12400,2018-04-14 13:18:27,1737.5068671002302,23.4000007488,0.35999970196000003,0.6218440198990081,1737.5068671002302,23.4000007488,0.503999582744,0.6218440198990081,1684,-12.6,99,P-GPS,
0.289287646708028,36.8890146885358,12500,2018-04-14 13:18:27,1738.0068671162303,23.9000007648,0.35999970196000003,0.646411020685152,1738.0068671162303,23.9000007648,0.503999582744,0.646411020685152,1684,-12.6,99,P-GPS,
0.289287401672599,36.8890147376768,12600,2018-04-14 13:18:27,1738.6068671354303,24.500000784,0.0,0.673302021545664,1738.6068671354303,24.500000784,0.503999582744,0.673302021545664,1684,-12.6,99,P-GPS,
0.289287209838639,36.8890147576563,12700,2018-04-14 13:18:27,1739.1068671514302,25.000000800000002,0.0,0.693531022192992,1739.1068671514302,25.000000800000002,0.503999582744,0.693531022192992,1684,-12.6,99,P-GPS,
0.289286981763048,36.8890147882159,12800,2018-04-14 13:18:27,1739.7068671706302,25.6000008192,0.0,0.717986022975552,1739.7068671706302,25.6000008192,0.503999582744,0.717986022975552,1684,-12.6,99,P-GPS,
0.289286795727367,36.8890148018998,12900,2018-04-14 13:18:27,1740.2068671866302,26.100000835200003,0.0,0.7374840235994881,1740.2068671866302,26.100000835200003,0.503999582744,0.7374840235994881,1684,-12.6,99,P-GPS,
0.289286567305883,36.8890148419053,13000,2018-04-14 13:18:27,1740.8068672058303,26.700000854400002,0.0,0.7625360244011521,1740.8068672058303,26.700000854400002,0.503999582744,0.7625360244011521,1684,-12.6,99,P-GPS,
0.289286386926908,36.8890148556331,13100,2018-04-14 13:18:27,1741.30686722183,27.200000870400004,0.0,0.781576025010432,1741.30686722183,27.200000870400004,0.503999582744,0.781576025010432,1684,-12.6,99,P-GPS,
0.289286166758429,36.8890149090441,13200,2018-04-14 13:18:27,1741.9068672410303,27.8000008896,0.35999970196000003,0.806449025806368,1741.9068672410303,27.8000008896,0.503999582744,0.806449025806368,1684,-12.6,99,P-GPS,
0.289285975294941,36.8890149335239,13300,2018-04-14 13:18:28,1742.5068672602301,28.4000009088,0.35999970196000003,0.8271660264693121,1742.5068672602301,28.4000009088,0.503999582744,0.8271660264693121,1684,-12.6,99,P-GPS,
0.28928571528873,36.8890149502225,13400,2018-04-14 13:18:28,1743.0068672762304,28.9000009248,0.35999970196000003,0.8546780273496961,1743.0068672762304,28.9000009248,0.503999582744,0.8546780273496961,1684,-12.6,99,P-GPS,
0.289285500556443,36.8890149254227,13500,2018-04-14 13:18:28,1743.6068672954302,29.500000944,0.35999970196000003,0.8759310280297921,1743.6068672954302,29.500000944,0.503999582744,0.8759310280297921,1684,-12.6,99,P-GPS,
0.289285238103076,36.8890149449627,13600,2018-04-14 13:18:28,1744.2068673146302,30.1000009632,0.0,0.9040110289283521,1744.2068673146302,30.1000009632,0.503999582744,0.9040110289283521,1684,-12.6,99,P-GPS,
0.289285046200213,36.8890149453813,13700,2018-04-14 13:18:28,1744.7068673306303,30.6000009792,0.0,0.9240630295700161,1744.7068673306303,30.6000009792,0.503999582744,0.9240630295700161,1684,-12.6,99,P-GPS,
0.289284866627113,36.8890149833431,13800,2018-04-14 13:18:28,1745.3068673498303,31.2000009984,0.0,0.944281030216992,1745.3068673498303,31.2000009984,0.503999582744,0.944281030216992,1684,-12.6,99,P-GPS,
0.289284776601131,36.8890150165102,13900,2018-04-14 13:18:28,1745.8068673658302,31.7000010144,0.0,0.9549500305584001,1745.8068673658302,31.7000010144,0.503999582744,0.9549500305584001,1684,-12.6,99,P-GPS,
0.289284706262121,36.8890150958457,14000,2018-04-14 13:18:28,1746.3068673818302,32.2000010304,0.0,0.9653090308898881,1746.3068673818302,32.2000010304,0.503999582744,0.9653090308898881,1684,-12.6,99,P-GPS,
0.289284683313274,36.8890151490577,14100,2018-04-14 13:18:28,1746.9068674010302,32.800001049600006,0.0,0.969749031031968,1746.9068674010302,32.800001049600006,0.503999582744,0.969749031031968,1684,-12.6,99,P-GPS,
0.289284623847894,36.8890152052539,14200,2018-04-14 13:18:28,1747.4068674170303,33.3000010656,0.0,0.9781290313001281,1747.4068674170303,33.3000010656,0.503999582744,0.9781290313001281,1684,-12.6,99,P-GPS,
0.289284602666824,36.8890152113686,14300,2018-04-14 13:18:28,1748.0068674362303,33.9000010848,0.0,0.9805730313783361,1748.0068674362303,33.9000010848,0.503999582744,0.9805730313783361,1684,-12.6,99,P-GPS,
0.289284550987035,36.889015245374,14400,2018-04-14 13:18:29,1748.5068674522302,34.4000011008,0.0,0.9872830315930561,1748.5068674522302,34.4000011008,0.503999582744,0.9872830315930561,1684,-12.6,99,P-GPS,
0.289284538275502,36.8890152687692,14500,2018-04-14 13:18:29,1749.0068674682302,34.900001116800006,0.0,0.9895250316648001,1749.0068674682302,34.900001116800006,0.503999582744,0.9895250316648001,1684,-12.6,99,P-GPS,
0.289284458847129,36.8890153018469,14600,2018-04-14 13:18:29,1749.6068674874302,35.500001136,0.0,0.9990890319708481,1749.6068674874302,35.500001136,0.503999582744,0.9990890319708481,1684,-12.6,99,P-GPS,
0.289284409042594,36.8890152983707,14700,2018-04-14 13:18:29,1750.1068675034303,36.000001152,0.0,1.00413003213216,1750.1068675034303,36.000001152,0.503999582744,1.00413003213216,1684,-12.6,99,P-GPS,
0.289284319260675,36.8890153352737,14900,2018-04-14 13:18:29,1751.2068675386301,37.10000118720001,0.0,1.0149200324774401,1751.2068675386301,37.10000118720001,0.503999582744,1.0149200324774401,1684,-12.6,99,P-GPS,
0.289284268201526,36.8890153651947,15000,2018-04-14 13:18:29,1751.8068675578304,37.7000012064,0.0,1.02141003268512,1751.8068675578304,37.7000012064,0.503999582744,1.02141003268512,1684,-12.6,99,P-GPS,
0.289284252912574,36.8890153675945,15100,2018-04-14 13:18:29,1752.3068675738302,38.2000012224,0.0,1.02309003273888,1752.3068675738302,38.2000012224,0.503999582744,1.02309003273888,1684,-12.6,99,P-GPS,
0.289284218063873,36.8890153911642,15200,2018-04-14 13:18:29,1752.90686759303,38.8000012416,0.0,1.0276500328848,1752.90686759303,38.8000012416,0.503999582744,1.0276500328848,1684,-12.6,99,P-GPS,
0.289284232374842,36.8890153834281,15300,2018-04-14 13:18:30,1753.4068676090303,39.3000012576,0.35999970196000003,1.0258500328272,1753.4068676090303,39.3000012576,0.503999582744,1.0276500328848,1684,-12.6,99,P-GPS,
0.28928425126296,36.8890154281437,15400,2018-04-14 13:18:30,1753.9068676250301,39.800001273599996,0.35999970196000003,1.02567003282144,1753.9068676250301,39.800001273599996,0.503999582744,1.0276500328848,1684,-12.6,99,P-GPS,
0.289284330900793,36.8890154546555,15500,2018-04-14 13:18:30,1754.4068676410302,40.3000012896,0.35999970196000003,1.01848003259136,1754.4068676410302,40.3000012896,0.503999582744,1.0276500328848,1684,-12.6,99,P-GPS,
0.289284460942529,36.8890155108308,15600,2018-04-14 13:18:30,1755.0068676602302,40.9000013088,0.7199994039200001,1.0073500322352,1755.0068676602302,40.9000013088,0.7199994039200001,1.0276500328848,1684,-12.6,99,P-GPS,
0.289284639071097,36.8890155293843,15700,2018-04-14 13:18:30,1755.50686767623,41.4000013248,0.7199994039200001,0.989802031673664,1755.50686767623,41.4000013248,0.7199994039200001,1.0276500328848,1684,-12.6,99,P-GPS,
0.289284800313108,36.889015591951,15800,2018-04-14 13:18:30,1756.0068676922303,41.9000013408,0.7199994039200001,0.9760010312320321,1756.0068676922303,41.9000013408,0.7199994039200001,1.0276500328848,1684,-12.6,99,P-GPS,
0.289284960297553,36.8890156406932,15900,2018-04-14 13:18:30,1756.5068677082302,42.400001356800004,0.7199994039200001,0.961887030780384,1756.5068677082302,42.400001356800004,0.7199994039200001,1.0276500328848,1684,-12.6,99,P-GPS,
0.289285099856883,36.8890157389537,16000,2018-04-14 13:18:30,1757.0068677242302,42.900001372800006,0.7199994039200001,0.952307030473824,1757.0068677242302,42.900001372800006,0.7199994039200001,1.0276500328848,1684,-12.6,99,P-GPS,
0.289285251629034,36.8890158086807,16100,2018-04-14 13:18:30,1757.5068677402303,43.4000013888,0.7199994039200001,0.9404020300928639,1757.5068677402303,43.4000013888,0.7199994039200001,1.0276500328848,1684,-12.6,99,P-GPS,
0.289285378989944,36.8890159335263,16200,2018-04-14 13:18:30,1758.0068677562303,43.9000014048,0.35999970196000003,0.9339110298851521,1758.0068677562303,43.9000014048,0.7199994039200001,1.0276500328848,1684,-12.6,99,P-GPS,
0.289285511888912,36.8890160239115,16300,2018-04-14 13:18:30,1758.6068677754301,44.500001424,0.35999970196000003,0.9254500296144,1758.6068677754301,44.500001424,0.7199994039200001,1.0276500328848,1684,-12.6,99,P-GPS,
0.289285621212999,36.8890161284018,16400,2018-04-14 13:18:31,1759.1068677914304,45.00000144,0.35999970196000003,0.920312029449984,1759.1068677914304,45.00000144,0.7199994039200001,1.0276500328848,1684,-12.6,99,P-GPS,
0.289285728935091,36.8890161951846,16500,2018-04-14 13:18:31,1759.6068678074303,45.50000145600001,0.35999970196000003,0.9135190292326081,1759.6068678074303,45.50000145600001,0.7199994039200001,1.0276500328848,1684,-12.6,99,P-GPS,
0.28928582529086,36.8890163148175,16600,2018-04-14 13:18:31,1760.10686782343,46.00000147200001,0.35999970196000003,0.910982029151424,1760.10686782343,46.00000147200001,0.7199994039200001,1.0276500328848,1684,-12.6,99,P-GPS,
0.289285921960483,36.8890164130598,16700,2018-04-14 13:18:31,1760.7068678426303,46.600001491200004,0.35999970196000003,0.907474029039168,1760.7068678426303,46.600001491200004,0.7199994039200001,1.0276500328848,1684,-12.6,99,P-GPS,
0.289286001450423,36.8890165430817,16800,2018-04-14 13:18:31,1761.2068678586302,47.100001507200005,0.35999970196000003,0.907732029047424,1761.2068678586302,47.100001507200005,0.7199994039200001,1.0276500328848,1684,-12.6,99,P-GPS,
0.289286085371496,36.8890166132573,16900,2018-04-14 13:18:31,1761.70686787463,47.6000015232,0.35999970196000003,0.904199028934368,1761.70686787463,47.6000015232,0.7199994039200001,1.0276500328848,1684,-12.6,99,P-GPS,
0.289286160440601,36.8890166800818,17000,2018-04-14 13:18:31,1762.3068678938303,48.20000154240001,0.35999970196000003,0.90142002884544,1762.3068678938303,48.20000154240001,0.7199994039200001,1.0276500328848,1684,-12.6,99,P-GPS,
0.289286248426295,36.8890166926207,17100,2018-04-14 13:18:31,1762.80686790983,48.7000015584,0.35999970196000003,0.8941440286126081,1762.80686790983,48.7000015584,0.7199994039200001,1.0276500328848,1684,-12.6,99,P-GPS,
0.289286350330936,36.8890167547785,17200,2018-04-14 13:18:31,1763.3068679258304,49.200001574400005,0.35999970196000003,0.888844028443008,1763.3068679258304,49.200001574400005,0.7199994039200001,1.0276500328848,1684,-12.6,99,P-GPS,
0.289286445187596,36.8890167938928,17300,2018-04-14 13:18:32,1763.8068679418302,49.70000159040001,0.0,0.882832028250624,1763.8068679418302,49.70000159040001,0.7199994039200001,1.0276500328848,1684,-12.6,99,P-GPS,
0.289286508935937,36.8890168727969,17400,2018-04-14 13:18:32,1764.4068679610305,50.3000016096,0.0,0.882347028235104,1764.4068679610305,50.3000016096,0.7199994039200001,1.0276500328848,1684,-12.6,99,P-GPS,
0.289286566302049,36.8890169067477,17500,2018-04-14 13:18:32,1764.9068679770303,50.800001625600004,0.0,0.8795320281450241,1764.9068679770303,50.800001625600004,0.7199994039200001,1.0276500328848,1684,-12.6,99,P-GPS,
0.289286600691733,36.8890169646531,17600,2018-04-14 13:18:32,1765.4068679930301,51.300001641600005,0.0,0.880422028173504,1765.4068679930301,51.300001641600005,0.7199994039200001,1.0276500328848,1684,-12.6,99,P-GPS,
0.289286642232016,36.889016963575,17700,2018-04-14 13:18:32,1765.9068680090302,51.8000016576,0.35999970196000003,0.8767010280544321,1765.9068680090302,51.8000016576,0.7199994039200001,1.0276500328848,1684,-12.6,99,P-GPS,
0.289286674445489,36.8890169869965,17800,2018-04-14 13:18:32,1766.5068680282302,52.40000167680001,0.35999970196000003,0.875488028015616,1766.5068680282302,52.40000167680001,0.7199994039200001,1.0276500328848,1684,-12.6,99,P-GPS,
0.289286731345459,36.889016977026,17900,2018-04-14 13:18:32,1767.0068680442303,52.9000016928,0.35999970196000003,0.869836027834752,1767.0068680442303,52.9000016928,0.7199994039200001,1.0276500328848,1684,-12.6,99,P-GPS,
0.289286795031919,36.8890170105261,18000,2018-04-14 13:18:32,1767.5068680602303,53.400001708800005,0.0,0.866634027732288,1767.5068680602303,53.400001708800005,0.7199994039200001,1.0276500328848,1684,-12.6,99,P-GPS,
0.289286870026447,36.8890170250102,18100,2018-04-14 13:18:32,1768.0068680762304,53.900001724800006,0.0,0.861181027557792,1768.0068680762304,53.900001724800006,0.7199994039200001,1.0276500328848,1684,-12.6,99,P-GPS,
0.289286927928318,36.8890171154146,18200,2018-04-14 13:18:32,1768.5068680922302,54.40000174080001,0.0,0.862656027604992,1768.5068680922302,54.40000174080001,0.7199994039200001,1.0276500328848,1684,-12.6,99,P-GPS,
0.289286990645192,36.8890171623133,18300,2018-04-14 13:18:32,1769.0068681082303,54.9000017568,0.0,0.860727027543264,1769.0068681082303,54.9000017568,0.7199994039200001,1.0276500328848,1684,-12.6,99,P-GPS,
0.289287011396149,36.8890172423319,18400,2018-04-14 13:18:33,1769.6068681274303,55.500001776000005,0.0,0.864819027674208,1769.6068681274303,55.500001776000005,0.7199994039200001,1.0276500328848,1684,-12.6,99,P-GPS,
0.289287052992817,36.8890172832148,18500,2018-04-14 13:18:33,1770.1068681434301,56.000001792,0.35999970196000003,0.864362027659584,1770.1068681434301,56.000001792,0.7199994039200001,1.0276500328848,1684,-12.6,99,P-GPS,
0.289287087142102,36.8890173617056,18600,2018-04-14 13:18:33,1770.6068681594304,56.500001808,0.0,0.8673750277560001,1770.6068681594304,56.500001808,0.7199994039200001,1.0276500328848,1684,-12.6,99,P-GPS,
0.289287137639539,36.8890174012567,18700,2018-04-14 13:18:33,1771.1068681754302,57.000001824,0.0,0.8662070277186241,1771.1068681754302,57.000001824,0.7199994039200001,1.0276500328848,1684,-12.6,99,P-GPS,
0.289287152242204,36.8890174731602,18800,2018-04-14 13:18:33,1771.60686819143,57.50000184,0.0,0.870468027854976,1771.60686819143,57.50000184,0.7199994039200001,1.0276500328848,1684,-12.6,99,P-GPS,
0.289287179628459,36.8890174941803,18900,2018-04-14 13:18:33,1772.1068682074304,58.000001856000004,0.0,0.8698560278353921,1772.1068682074304,58.000001856000004,0.7199994039200001,1.0276500328848,1684,-12.6,99,P-GPS,
0.28928717385878,36.8890175465604,19000,2018-04-14 13:18:33,1772.7068682266301,58.60000187520001,0.0,0.87433502797872,1772.7068682266301,58.60000187520001,0.7199994039200001,1.0276500328848,1684,-12.6,99,P-GPS,
0.289287184676228,36.8890175839863,19100,2018-04-14 13:18:33,1773.2068682426304,59.10000189120001,0.0,0.876348028043136,1773.2068682426304,59.10000189120001,0.7199994039200001,1.0276500328848,1684,-12.9,99,P-GPS,
0.289287141445111,36.8890176833474,19200,2018-04-14 13:18:33,1773.7068682586303,59.6000019072,0.0,0.88749002839968,1773.7068682586303,59.6000019072,0.7199994039200001,1.0276500328848,1681,-13.6,99,P-GPS,
0.289287126933029,36.8890177426831,19300,2018-04-14 13:18:33,1774.2068682746303,60.100001923200004,0.0,0.8932560285841921,1774.2068682746303,60.100001923200004,0.7199994039200001,1.0276500328848,1679,-14.5,99,P-GPS,
0.289287089190786,36.8890178455922,19400,2018-04-14 13:18:34,1774.7068682906302,60.600001939200006,0.0,0.904284028937088,1774.7068682906302,60.600001939200006,0.7199994039200001,1.0276500328848,1673,-15.5,99,P-GPS,
0.2892870872737,36.8890178946298,19500,2018-04-14 13:18:34,1775.2068683066302,61.10000195520001,0.0,0.90828502906512,1775.2068683066302,61.10000195520001,0.7199994039200001,1.0276500328848,1667,-16.4,99,P-GPS,
0.289287058076819,36.8890179606515,19600,2018-04-14 13:18:34,1775.7068683226303,61.6000019712,0.0,0.915779029304928,1775.7068683226303,61.6000019712,0.7199994039200001,1.0276500328848,1665,-17.5,99,P-GPS,
0.289287062265686,36.8890179771183,19700,2018-04-14 13:18:34,1776.20686833863,62.1000019872,0.0,0.916752029336064,1776.20686833863,62.1000019872,0.7199994039200001,1.0276500328848,1666,-18.6,99,P-GPS,
0.289287023048683,36.8890180261731,19800,2018-04-14 13:18:34,1776.7068683546304,62.600002003200004,0.0,0.923698029558336,1776.7068683546304,62.600002003200004,0.7199994039200001,1.0276500328848,1657,-19.7,99,P-GPS,
0.289287024583593,36.8890180344724,19900,2018-04-14 13:18:34,1777.2068683706302,63.100002019200005,0.0,0.9242350295755201,1777.2068683706302,63.100002019200005,0.7199994039200001,1.0276500328848,1656,-20.4,99,P-GPS,
0.289287003456263,36.8890180924174,20000,2018-04-14 13:18:34,1777.7068683866303,63.600002035200006,0.0,0.930478029775296,1777.7068683866303,63.600002035200006,0.7199994039200001,1.0276500328848,1650,-20.4,99,P-GPS,
0.289286997234385,36.8890181041672,20100,2018-04-14 13:18:34,1778.2068684026303,64.1000020512,0.35999970196000003,0.9318950298206401,1778.2068684026303,64.1000020512,0.7199994039200001,1.0276500328848,1650,-20.4,99,P-GPS,
0.289286939220457,36.8890181545699,20200,2018-04-14 13:18:34,1778.7068684186304,64.6000020672,0.35999970196000003,0.940414030093248,1778.7068684186304,64.6000020672,0.7199994039200001,1.0276500328848,1650,-20.4,99,P-GPS,
0.289286900245177,36.8890181586317,20300,2018-04-14 13:18:34,1779.2068684346302,65.10000208320001,0.35999970196000003,0.9437750302008,1779.2068684346302,65.10000208320001,0.7199994039200001,1.0276500328848,1649,-20.4,99,P-GPS,
0.289286831400671,36.889018176363,20400,2018-04-14 13:18:35,1779.70686845063,65.60000209920001,0.35999970196000003,0.950563030418016,1779.70686845063,65.60000209920001,0.7199994039200001,1.0276500328848,1644,-20.4,98,P-GPS,
0.289286783475666,36.8890181638134,20500,2018-04-14 13:18:35,1780.2068684666303,66.10000211520001,0.35999970196000003,0.9533430305069761,1780.2068684666303,66.10000211520001,0.7199994039200001,1.0276500328848,1644,-20.4,98,P-GPS,
0.28928667668979,36.8890181844513,20600,2018-04-14 13:18:35,1780.6068684794302,66.500002128,0.35999970196000003,0.9634020308288641,1780.6068684794302,66.500002128,0.7199994039200001,1.0276500328848,1643,-20.4,98,P-GPS,
0.289286616195945,36.8890181515861,20700,2018-04-14 13:18:35,1781.1068684954303,67.000002144,0.35999970196000003,0.96567003090144,1781.1068684954303,67.000002144,0.7199994039200001,1.0276500328848,1645,-20.4,98,P-GPS,
0.289286528592935,36.8890181832394,20800,2018-04-14 13:18:35,1781.60686851143,67.50000216000001,0.35999970196000003,0.97513003120416,1781.60686851143,67.50000216000001,0.7199994039200001,1.0276500328848,1646,-20.4,98,P-GPS,
0.28928648545581,36.8890181915901,20900,2018-04-14 13:18:35,1782.0068685242302,67.9000021728,0.0,0.9792390313356479,1782.0068685242302,67.9000021728,0.7199994039200001,1.0276500328848,1643,-20.4,98,P-GPS,
0.289286400138168,36.8890182461402,21000,2018-04-14 13:18:35,1782.5068685402302,68.4000021888,0.0,0.9902950316894401,1782.5068685402302,68.4000021888,0.7199994039200001,1.0276500328848,1648,-20.4,98,P-GPS,
0.289286351051421,36.8890182610665,21100,2018-04-14 13:18:35,1783.0068685562303,68.9000022048,0.0,0.9954000318528,1783.0068685562303,68.9000022048,0.7199994039200001,1.0276500328848,1654,-20.4,98,P-GPS,
0.28928629016301,36.8890183265421,21200,2018-04-14 13:18:35,1783.5068685722301,69.4000022208,0.0,1.00532003217024,1783.5068685722301,69.4000022208,0.7199994039200001,1.0276500328848,1644,-20.4,98,P-GPS,
0.289286293092555,36.8890183491735,21300,2018-04-14 13:18:35,1783.9068685850302,69.80000223360001,0.0,1.0068200322182401,1783.9068685850302,69.80000223360001,0.7199994039200001,1.0276500328848,1629,-20.4,98,P-GPS,
0.289286260555659,36.889018422352,21400,2018-04-14 13:18:36,1784.4068686010303,70.30000224960001,0.0,1.0150500324816,1784.4068686010303,70.30000224960001,0.7199994039200001,1.0276500328848,1631,-20.4,98,P-GPS,
0.289286259616021,36.8890184517742,21500,2018-04-14 13:18:36,1784.9068686170303,70.8000022656,0.0,1.01739003255648,1784.9068686170303,70.8000022656,0.7199994039200001,1.0276500328848,1636,-20.4,98,P-GPS,
0.289286199838437,36.8890185066402,21600,2018-04-14 13:18:36,1785.3068686298302,71.2000022784,0.35999970196000003,1.02641003284512,1785.3068686298302,71.2000022784,0.7199994039200001,1.0276500328848,1632,-20.4,98,P-GPS,
0.289286181070798,36.8890185065438,21700,2018-04-14 13:18:36,1785.80686864583,71.70000229440001,0.35999970196000003,1.02791003289312,1785.80686864583,71.70000229440001,0.7199994039200001,1.02791003289312,1631,-20.4,98,P-GPS,
0.289286143648544,36.8890185541512,21800,2018-04-14 13:18:36,1786.2068686586301,72.1000023072,0.35999970196000003,1.03458003310656,1786.2068686586301,72.1000023072,0.7199994039200001,1.03458003310656,1629,-20.4,98,P-GPS,
0.289286153396334,36.8890185679265,21900,2018-04-14 13:18:36,1786.7068686746304,72.6000023232,0.35999970196000003,1.0348600331155202,1786.7068686746304,72.6000023232,0.7199994039200001,1.0348600331155202,1629,-20.4,98,P-GPS,
0.289286115950442,36.8890186344481,22000,2018-04-14 13:18:36,1787.1068686874303,73.00000233600001,0.35999970196000003,1.04299003337568,1787.1068686874303,73.00000233600001,0.7199994039200001,1.04299003337568,1609,-20.4,98,P-GPS,
0.289286113833491,36.8890186629239,22100,2018-04-14 13:18:36,1787.60686870343,73.50000235200001,0.35999970196000003,1.04536003345152,1787.60686870343,73.50000235200001,0.7199994039200001,1.04536003345152,1562,-20.4,98,P-GPS,
0.2892860789947,36.8890187461093,22200,2018-04-14 13:18:36,1788.0068687162302,73.9000023648,0.0,1.05459003374688,1788.0068687162302,73.9000023648,0.7199994039200001,1.05459003374688,1523,-20.4,98,P-GPS,
0.2892860676054,36.8890187860105,22300,2018-04-14 13:18:36,1788.50686873223,74.4000023808,0.0,1.0586000338752,1788.50686873223,74.4000023808,0.7199994039200001,1.0586000338752,1486,-20.4,98,P-GPS,
0.289285988891405,36.8890188811641,22400,2018-04-14 13:18:37,1788.9068687450304,74.80000239360001,0.0,1.07226003431232,1788.9068687450304,74.80000239360001,0.7199994039200001,1.07226003431232,1467,-20.4,98,P-GPS,
0.289285936082124,36.8890189309737,22500,2018-04-14 13:18:37,1789.2068687546302,75.10000240320001,0.0,1.08033003457056,1789.2068687546302,75.10000240320001,0.7199994039200001,1.08033003457056,1464,-20.4,98,P-GPS,
0.289285865537834,36.8890189947406,22600,2018-04-14 13:18:37,1789.6068687674301,75.500002416,0.0,1.0909000349088,1789.6068687674301,75.500002416,0.7199994039200001,1.0909000349088,1466,-20.4,98,P-GPS,
0.289285842818401,36.8890190169919,22700,2018-04-14 13:18:37,1789.9068687770302,75.8000024256,0.0,1.0944300350217602,1789.9068687770302,75.8000024256,0.7199994039200001,1.0944300350217602,1464,-20.4,98,P-GPS,
0.289285787372217,36.8890190909381,22800,2018-04-14 13:18:37,1790.2068687866304,76.1000024352,0.0,1.1046000353472,1790.2068687866304,76.1000024352,0.7199994039200001,1.1046000353472,1469,-20.4,98,P-GPS,
0.289285747918842,36.8890191262432,22900,2018-04-14 13:18:37,1790.5068687962303,76.4000024448,0.0,1.1104800355353601,1790.5068687962303,76.4000024448,0.7199994039200001,1.1104800355353601,1477,-20.4,98,P-GPS,
0.289285670481928,36.8890191590067,23000,2018-04-14 13:18:37,1790.8068688058302,76.7000024544,0.35999970196000003,1.11917003581344,1790.8068688058302,76.7000024544,0.7199994039200001,1.11917003581344,1480,-20.4,98,P-GPS,
0.289285641980927,36.889019130972,23100,2018-04-14 13:18:37,1791.1068688154303,77.000002464,0.35999970196000003,1.11927003581664,1791.1068688154303,77.000002464,0.7199994039200001,1.11927003581664,1484,-20.4,98,P-GPS,
0.289285586673625,36.8890191435815,23200,2018-04-14 13:18:37,1791.4068688250302,77.3000024736,0.35999970196000003,1.1246600359891201,1791.4068688250302,77.3000024736,0.7199994039200001,1.1246600359891201,1485,-20.4,98,P-GPS,
0.289285578278971,36.8890191262678,23300,2018-04-14 13:18:37,1791.7068688346303,77.6000024832,0.35999970196000003,1.12399003596768,1791.7068688346303,77.6000024832,0.7199994039200001,1.1246600359891201,1484,-20.4,98,P-GPS,
0.289285566472167,36.8890191538978,23400,2018-04-14 13:18:38,1792.0068688442304,77.9000024928,0.0,1.12707003606624,1792.0068688442304,77.9000024928,0.7199994039200001,1.12707003606624,1477,-20.4,98,P-GPS,
0.289285609536216,36.8890191395004,23500,2018-04-14 13:18:38,1792.30686885383,78.20000250240001,0.0,1.1225200359206402,1792.30686885383,78.20000250240001,0.7199994039200001,1.12707003606624,1452,-20.4,98,P-GPS,
0.289285625893961,36.8890191876216,23600,2018-04-14 13:18:38,1792.6068688634302,78.500002512,0.35999970196000003,1.1249400359980801,1792.6068688634302,78.500002512,0.7199994039200001,1.12707003606624,1427,-20.4,98,P-GPS,
0.289285676555643,36.889019202914,23700,2018-04-14 13:18:38,1792.9068688730304,78.8000025216,0.35999970196000003,1.12212003590784,1792.9068688730304,78.8000025216,0.7199994039200001,1.12707003606624,1421,-20.4,98,P-GPS,
0.289285692256082,36.8890192763035,23800,2018-04-14 13:18:38,1793.2068688826303,79.1000025312,0.35999970196000003,1.12663003605216,1793.2068688826303,79.1000025312,0.7199994039200001,1.12707003606624,1434,-20.4,98,P-GPS,
0.289285754067351,36.889019306974,23900,2018-04-14 13:18:38,1793.5068688922304,79.4000025408,0.35999970196000003,1.1242000359744,1793.5068688922304,79.4000025408,0.7199994039200001,1.12707003606624,1448,-20.4,98,P-GPS,
0.289285807757652,36.8890194016319,24000,2018-04-14 13:18:38,1793.7068688986303,79.60000254719999,0.35999970196000003,1.1275500360816,1793.7068688986303,79.60000254719999,0.7199994039200001,1.1275500360816,1449,-20.4,98,P-GPS,
0.289285906224058,36.8890194430759,24100,2018-04-14 13:18:38,1794.0068689082302,79.9000025568,0.35999970196000003,1.1233000359456,1794.0068689082302,79.9000025568,0.7199994039200001,1.1275500360816,1447,-20.4,98,P-GPS,
0.289285956026326,36.8890195285138,24200,2018-04-14 13:18:38,1794.2068689146301,80.1000025632,0.35999970196000003,1.12643003604576,1794.2068689146301,80.1000025632,0.7199994039200001,1.1275500360816,1449,-20.4,98,P-GPS,
0.28928604121116,36.8890195448137,24300,2018-04-14 13:18:38,1794.5068689242303,80.4000025728,0.503999582744,1.1213300358825602,1794.5068689242303,80.4000025728,0.7199994039200001,1.1275500360816,1450,-20.4,98,P-GPS,
0.289286082930076,36.8890196143725,24400,2018-04-14 13:18:39,1794.8068689338302,80.7000025824,0.503999582744,1.12393003596576,1794.8068689338302,80.7000025824,0.7199994039200001,1.1275500360816,1453,-20.4,98,P-GPS,
0.289286155877955,36.8890196460012,24500,2018-04-14 13:18:39,1795.00686894023,80.9000025888,0.503999582744,1.12113003587616,1795.00686894023,80.9000025888,0.7199994039200001,1.1275500360816,1452,-20.4,98,P-GPS,
0.289286188840817,36.8890197438453,24600,2018-04-14 13:18:39,1795.3068689498302,81.2000025984,0.503999582744,1.12686003605952,1795.3068689498302,81.2000025984,0.7199994039200001,1.1275500360816,1430,-20.4,98,P-GPS,
0.289286279460469,36.8890197769107,24700,2018-04-14 13:18:39,1795.6068689594304,81.500002608,0.35999970196000003,1.12304003593728,1795.6068689594304,81.500002608,0.7199994039200001,1.1275500360816,1403,-20.4,98,P-GPS,
0.289286324587883,36.8890198725632,24800,2018-04-14 13:18:39,1795.8068689658303,81.7000026144,0.35999970196000003,1.1278900360924802,1795.8068689658303,81.7000026144,0.7199994039200001,1.1278900360924802,1425,-20.4,98,P-GPS,
0.289286405930595,36.8890199162864,24900,2018-04-14 13:18:39,1796.1068689754302,82.000002624,0.35999970196000003,1.12583003602656,1796.1068689754302,82.000002624,0.7199994039200001,1.1278900360924802,1441,-20.4,98,P-GPS,
0.289286437350811,36.8890200509719,25000,2018-04-14 13:18:39,1796.4068689850303,82.3000026336,0.35999970196000003,1.13521003632672,1796.4068689850303,82.3000026336,0.7199994039200001,1.13521003632672,1443,-20.4,98,P-GPS,
0.289286525095444,36.8890201392748,25100,2018-04-14 13:18:39,1796.6068689914302,82.50000264,0.35999970196000003,1.13679003637728,1796.6068689914302,82.50000264,0.7199994039200001,1.13679003637728,1444,-20.4,98,P-GPS,
0.289286582199581,36.8890202619567,25200,2018-04-14 13:18:39,1796.8068689978302,82.70000264640001,0.35999970196000003,1.14364003659648,1796.8068689978302,82.70000264640001,0.7199994039200001,1.14364003659648,1438,-20.4,98,P-GPS,
0.28928667239482,36.8890203101796,25300,2018-04-14 13:18:40,1797.1068690074303,83.000002656,0.35999970196000003,1.14182003653824,1797.1068690074303,83.000002656,0.7199994039200001,1.14364003659648,1437,-20.4,98,P-GPS,
0.289286694161874,36.8890204126658,25400,2018-04-14 13:18:40,1797.3068690138302,83.20000266240001,0.35999970196000003,1.1494900367836802,1797.3068690138302,83.20000266240001,0.7199994039200001,1.1494900367836802,1430,-20.4,98,P-GPS,
0.28928674766374,36.889020574159,25600,2018-04-14 13:18:40,1797.9068690330303,83.8000026816,0.35999970196000003,1.16046003713472,1797.9068690330303,83.8000026816,0.7199994039200001,1.16046003713472,1425,-20.4,98,P-GPS,
0.289286789150488,36.8890206351702,25700,2018-04-14 13:18:40,1798.1068690394304,84.000002688,0.35999970196000003,1.1632900372252801,1798.1068690394304,84.000002688,0.7199994039200001,1.1632900372252801,1422,-20.4,98,P-GPS,
0.289286792436179,36.8890207664919,25800,2018-04-14 13:18:40,1798.40686904903,84.30000269760001,0.35999970196000003,1.1750000376,1798.40686904903,84.30000269760001,0.7199994039200001,1.1750000376,1418,-20.4,98,P-GPS,
0.289286840438536,36.8890208324268,25900,2018-04-14 13:18:40,1798.6068690554303,84.500002704,0.503999582744,1.1779700376950402,1798.6068690554303,84.500002704,0.7199994039200001,1.1779700376950402,1404,-20.4,98,P-GPS,
0.289286855107356,36.8890209388741,26000,2018-04-14 13:18:40,1798.9068690650304,84.80000271360001,0.503999582744,1.18681003797792,1798.9068690650304,84.80000271360001,0.7199994039200001,1.18681003797792,1399,-20.4,98,P-GPS,
0.289286910989549,36.8890209772722,26100,2018-04-14 13:18:40,1799.1068690714303,85.00000272,0.503999582744,1.18687003797984,1799.1068690714303,85.00000272,0.7199994039200001,1.18687003797984,1399,-20.4,98,P-GPS,
0.289286933040919,36.8890210806491,26200,2018-04-14 13:18:40,1799.3068690778302,85.2000027264,0.503999582744,1.1950800382425601,1799.3068690778302,85.2000027264,0.7199994039200001,1.1950800382425601,1396,-20.4,98,P-GPS,
0.28928698686425,36.889021130494,26300,2018-04-14 13:18:40,1799.6068690874301,85.500002736,0.503999582744,1.19643003828576,1799.6068690874301,85.500002736,0.7199994039200001,1.19643003828576,1396,-20.4,98,P-GPS,
0.289286991358858,36.8890212396874,26400,2018-04-14 13:18:41,1799.8068690938303,85.7000027424,0.503999582744,1.2063500386032,1799.8068690938303,85.7000027424,0.7199994039200001,1.2063500386032,1398,-20.4,98,P-GPS,
0.289287020044306,36.8890212906586,26500,2018-04-14 13:18:41,1800.0068691002305,85.9000027488,0.503999582744,1.2094100387011202,1800.0068691002305,85.9000027488,0.7199994039200001,1.2094100387011202,1385,-20.4,98,P-GPS,
0.28928702403491,36.8890213802922,26600,2018-04-14 13:18:41,1800.3068691098301,86.2000027584,0.503999582744,1.21759003896288,1800.3068691098301,86.2000027584,0.7199994039200001,1.21759003896288,1366,-20.4,98,P-GPS,
0.289287071498251,36.8890214845171,26800,2018-04-14 13:18:41,1800.7068691226302,86.60000277120001,0.503999582744,1.2246300391881602,1800.7068691226302,86.60000277120001,0.7199994039200001,1.2246300391881602,1360,-20.4,98,P-GPS,
0.289287108669419,36.8890215178266,26900,2018-04-14 13:18:41,1801.0068691322301,86.90000278080001,0.503999582744,1.22562003921984,1801.0068691322301,86.90000278080001,0.7199994039200001,1.22562003921984,1342,-20.4,98,P-GPS,
0.289287130791423,36.8890215772447,27000,2018-04-14 13:18:41,1801.2068691386303,87.10000278720001,0.503999582744,1.2299900393596799,1801.2068691386303,87.10000278720001,0.7199994039200001,1.2299900393596799,1342,-20.4,98,P-GPS,
0.289287192584257,36.8890215645806,27100,2018-04-14 13:18:41,1801.4068691450302,87.3000027936,0.503999582744,1.22524003920768,1801.4068691450302,87.3000027936,0.7199994039200001,1.2299900393596799,1329,-20.4,98,P-GPS,
0.289287196560918,36.8890216092749,27200,2018-04-14 13:18:41,1801.6068691514304,87.50000280000002,0.503999582744,1.22927003933664,1801.6068691514304,87.50000280000002,0.7199994039200001,1.2299900393596799,1334,-20.4,98,P-GPS,
0.289287233717939,36.8890216076358,27300,2018-04-14 13:18:41,1801.7068691546303,87.60000280320001,0.503999582744,1.22701003926432,1801.7068691546303,87.60000280320001,0.7199994039200001,1.2299900393596799,1327,-20.4,98,P-GPS,
0.289287245783284,36.8890216686673,27400,2018-04-14 13:18:42,1801.90686916103,87.8000028096,0.503999582744,1.23217003942944,1801.90686916103,87.8000028096,0.7199994039200001,1.23217003942944,1327,-20.4,98,P-GPS,
0.289287290824925,36.8890216712603,27500,2018-04-14 13:18:42,1802.1068691674302,88.00000281599999,0.503999582744,1.22989003935648,1802.1068691674302,88.00000281599999,0.7199994039200001,1.23217003942944,1317,-20.4,98,P-GPS,
0.289287275195527,36.8890217359822,27600,2018-04-14 13:18:42,1802.2068691706302,88.10000281920001,0.35999970196000003,1.2369800395833601,1802.2068691706302,88.10000281920001,0.7199994039200001,1.2369800395833601,1317,-20.4,98,P-GPS,
0.289287285835373,36.8890217351054,27700,2018-04-14 13:18:42,1802.4068691770303,88.3000028256,0.35999970196000003,1.2363100395619202,1802.4068691770303,88.3000028256,0.7199994039200001,1.2369800395833601,1322,-20.4,98,P-GPS,
0.289287254234094,36.8890217753246,27800,2018-04-14 13:18:42,1802.6068691834303,88.50000283199999,0.503999582744,1.2419400397420801,1802.6068691834303,88.50000283199999,0.7199994039200001,1.2419400397420801,1323,-20.4,98,P-GPS,
0.289287269363967,36.8890217518913,27900,2018-04-14 13:18:42,1802.7068691866305,88.60000283520002,0.503999582744,1.2388400396428803,1802.7068691866305,88.60000283520002,0.7199994039200001,1.2419400397420801,1325,-20.4,98,P-GPS,
0.289287243957391,36.8890217987128,28000,2018-04-14 13:18:42,1802.9068691930302,88.8000028416,0.35999970196000003,1.2447600398323202,1802.9068691930302,88.8000028416,0.7199994039200001,1.2447600398323202,1326,-20.4,98,P-GPS,
0.289287265513308,36.8890217892552,28100,2018-04-14 13:18:42,1803.1068691994303,89.000002848,0.503999582744,1.2426500397648,1803.1068691994303,89.000002848,0.7199994039200001,1.2447600398323202,1319,-20.4,98,P-GPS,
0.289287256614675,36.8890218513638,28200,2018-04-14 13:18:42,1803.2068692026303,89.1000028512,0.503999582744,1.24913003997216,1803.2068692026303,89.1000028512,0.7199994039200001,1.24913003997216,1316,-20.4,98,P-GPS,
0.289287296992148,36.8890218455804,28300,2018-04-14 13:18:42,1803.4068692090302,89.3000028576,0.503999582744,1.24634003988288,1803.4068692090302,89.3000028576,0.7199994039200001,1.24913003997216,1323,-20.4,98,P-GPS,
0.289287270706619,36.8890218613342,28400,2018-04-14 13:18:43,1803.6068692154304,89.500002864,0.503999582744,1.24931003997792,1803.6068692154304,89.500002864,0.7199994039200001,1.24931003997792,1313,-20.4,98,P-GPS,
0.28928728684226,36.889021807101,28500,2018-04-14 13:18:43,1803.7068692186301,89.6000028672,0.503999582744,1.24318003978176,1803.7068692186301,89.6000028672,0.7199994039200001,1.24931003997792,1299,-20.4,98,P-GPS,
0.289287245153076,36.8890218443867,28600,2018-04-14 13:18:43,1803.9068692250303,89.80000287360001,0.503999582744,1.2490900399708802,1803.9068692250303,89.80000287360001,0.7199994039200001,1.24931003997792,1293,-20.4,98,P-GPS,
0.289287256509844,36.8890218254649,28700,2018-04-14 13:18:43,1804.0068692282302,89.9000028768,0.503999582744,1.2466400398924802,1804.0068692282302,89.9000028768,0.7199994039200001,1.24931003997792,1282,-20.4,98,P-GPS,
0.289287224615649,36.8890218670748,28800,2018-04-14 13:18:43,1804.2068692346302,90.1000028832,0.503999582744,1.2524200400774401,1804.2068692346302,90.1000028832,0.7199994039200001,1.2524200400774401,1277,-20.4,98,P-GPS,
0.289287233202333,36.8890218477762,28900,2018-04-14 13:18:43,1804.3068692378304,90.2000028864,0.503999582744,1.25008004000256,1804.3068692378304,90.2000028864,0.7199994039200001,1.2524200400774401,1275,-20.4,98,P-GPS,
0.289287194438241,36.8890218838617,29000,2018-04-14 13:18:43,1804.50686924423,90.4000028928,0.503999582744,1.25572004018304,1804.50686924423,90.4000028928,0.7199994039200001,1.25572004018304,1272,-20.4,98,P-GPS,
0.289287204744968,36.8890218601865,29100,2018-04-14 13:18:43,1804.6068692474305,90.50000289600001,0.503999582744,1.2528600400915202,1804.6068692474305,90.50000289600001,0.7199994039200001,1.25572004018304,1273,-20.4,98,P-GPS,
0.289287167428869,36.8890218971457,29200,2018-04-14 13:18:43,1804.7068692506302,90.6000028992,0.503999582744,1.258500040272,1804.7068692506302,90.6000028992,0.7199994039200001,1.258500040272,1277,-20.4,98,P-GPS,
0.289287171266094,36.8890218748152,29300,2018-04-14 13:18:44,1804.9068692570302,90.8000029056,0.503999582744,1.2561400401964802,1804.9068692570302,90.8000029056,0.7199994039200001,1.258500040272,1272,-20.4,98,P-GPS,
0.289287110136952,36.8890219101749,29400,2018-04-14 13:18:44,1805.0068692602304,90.9000029088,0.503999582744,1.26297004041504,1805.0068692602304,90.9000029088,0.7199994039200001,1.26297004041504,1183,-20.4,98,P-GPS,
