latitude,longitude,time_millisecond,datetime_utc,altitude_m,ascent_m,speed_kph,distance_m,max_altitude_m,max_ascent_m,max_speed_kph,max_distance_m,rc_throttle,gimbal_pitch_degrees,battery_percent,flycState,message
0.355954748247551,36.8882760479037,0,2018-04-05 06:56:42,1775.12774230408,0.0,0.0,0.0,1775.12774230408,0.0,0.0,0.0,364,0.0,99,Motors_Started,
0.355954754496604,36.8882760503522,100,2018-04-05 06:56:42,1775.12774230408,0.0,0.0,0.0007463690238838081,1775.12774230408,0.0,0.0,0.0007463690238838081,364,0.0,99,Motors_Started,
0.355954756508444,36.8882760539794,200,2018-04-05 06:56:42,1775.12774230408,0.0,0.0,0.00114036003649152,1775.12774230408,0.0,0.0,0.00114036003649152,364,0.0,99,Motors_Started,
0.355954763568156,36.8882760523125,300,2018-04-05 06:56:42,1775.12774230408,0.0,0.0,0.00177288005673216,1775.12774230408,0.0,0.0,0.00177288005673216,364,0.0,99,Motors_Started,
0.355954768797268,36.8882760524661,400,2018-04-05 06:56:42,1775.12774230408,0.0,0.0,0.0023409000749088,1775.12774230408,0.0,0.0,0.0023409000749088,364,0.0,99,Motors_Started,
0.355954777642212,36.8882760485996,500,2018-04-05 06:56:43,1775.12774230408,0.0,0.0,0.00326978010463296,1775.12774230408,0.0,0.0,0.00326978010463296,364,0.0,99,Motors_Started,Setting new Return-To-Home altitude to 30m (98 ft). Setting new Maximum Flight Altitude to 150m (492 ft)
0.3559547627076,36.8882760422671,700,2018-04-05 06:56:43,1775.12774230408,0.0,0.0,0.0017259000552287999,1775.12774230408,0.0,0.0,0.00326978010463296,364,0.0,99,Motors_Started,
0.355954737886806,36.8882760400183,800,2018-04-05 06:56:43,1775.12774230408,0.0,0.0,0.0014479200463334402,1775.12774230408,0.0,0.0,0.00326978010463296,364,0.0,99,Motors_Started,
0.355954714050507,36.8882760345614,900,2018-04-05 06:56:43,1775.12774230408,0.0,0.0,0.00408211013062752,1775.12774230408,0.0,0.0,0.00408211013062752,364,0.0,99,Motors_Started,
0.355954698593241,36.8882760319652,1000,2018-04-05 06:56:43,1775.12774230408,0.0,0.0,0.0057993501855792004,1775.12774230408,0.0,0.0,0.0057993501855792004,364,0.0,99,Motors_Started,
0.355954687852049,36.8882759977735,1100,2018-04-05 06:56:43,1775.12774230408,0.0,0.0,0.00872848027931136,1775.12774230408,0.0,0.0,0.00872848027931136,364,0.0,99,Motors_Started,
0.355954674899202,36.8882759355263,1300,2018-04-05 06:56:44,1775.12774230408,0.0,0.0,0.0149233004775456,1775.12774230408,0.0,0.0,0.0149233004775456,658,0.0,99,Motors_Started,
0.355954671521148,36.8882759167309,1400,2018-04-05 06:56:44,1775.12774230408,0.0,0.0,0.0168992005407744,1775.12774230408,0.0,0.0,0.0168992005407744,1024,0.0,99,Motors_Started,
0.355954587904747,36.8882759162984,1700,2018-04-05 06:56:44,1775.12774230408,0.0,0.0,0.023068000738176,1775.12774230408,0.0,0.0,0.023068000738176,1024,0.0,99,Assisted_Takeoff,
0.355954560819156,36.8882759715225,1900,2018-04-05 06:56:44,1775.12774230408,0.0,0.0,0.0225074007202368,1775.12774230408,0.0,0.0,0.023068000738176,1024,0.0,99,Assisted_Takeoff,
0.355954552685142,36.8882759900128,2000,2018-04-05 06:56:44,1775.12774230408,0.0,0.0,0.022680600725779203,1775.12774230408,0.0,0.0,0.023068000738176,1024,0.0,99,Assisted_Takeoff,
0.355954552526649,36.8882760077852,2100,2018-04-05 06:56:44,1775.12774230408,0.0,0.0,0.022217900710972804,1775.12774230408,0.0,0.0,0.023068000738176,1024,0.0,99,Assisted_Takeoff,
0.355954550681558,36.8882760198873,2200,2018-04-05 06:56:44,1775.12774230408,0.0,0.0,0.0221903007100896,1775.12774230408,0.0,0.0,0.023068000738176,1024,0.0,99,Assisted_Takeoff,
0.355954555966635,36.8882760291105,2300,2018-04-05 06:56:44,1775.12774230408,0.0,0.0,0.0214847006875104,1775.12774230408,0.0,0.0,0.023068000738176,1024,0.0,99,Assisted_Takeoff,
0.355954557757732,36.8882760363397,2400,2018-04-05 06:56:44,1775.12774230408,0.0,0.0,0.0212226006791232,1775.12774230408,0.0,0.0,0.023068000738176,1031,0.0,99,Assisted_Takeoff,
0.355954564578699,36.8882760392919,2500,2018-04-05 06:56:45,1775.12774230408,0.0,0.0,0.02044750065432,1775.12774230408,0.0,0.0,0.023068000738176,1087,0.0,99,Assisted_Takeoff,
0.355954567705922,36.8882760427274,2600,2018-04-05 06:56:45,1775.12774230408,0.0,0.0,0.0200856006427392,1775.12774230408,0.0,0.0,0.023068000738176,1192,0.0,99,Assisted_Takeoff,
0.355954574977128,36.8882760423211,2700,2018-04-05 06:56:45,1775.12774230408,0.0,0.0,0.0192787006169184,1775.12774230408,0.0,0.0,0.023068000738176,1253,0.0,99,Assisted_Takeoff,
0.355954578037941,36.8882760434383,2800,2018-04-05 06:56:45,1775.12774230408,0.0,0.0,0.0189349006059168,1775.12774230408,0.0,0.0,0.023068000738176,1301,0.0,99,Assisted_Takeoff,
0.355954583161917,36.8882760405327,2900,2018-04-05 06:56:45,1775.12774230408,0.0,0.0,0.0183768005880576,1775.12774230408,0.0,0.0,0.023068000738176,1327,0.0,99,Assisted_Takeoff,
0.355954586396833,36.8882760390745,3000,2018-04-05 06:56:45,1775.12774230408,0.0,0.0,0.018025500576816,1775.12774230408,0.0,0.0,0.023068000738176,1327,0.0,99,Assisted_Takeoff,
0.355954589420256,36.8882760330064,3100,2018-04-05 06:56:45,1775.12774230408,0.0,0.0,0.0177401005676832,1775.12774230408,0.0,0.0,0.023068000738176,1355,0.0,99,Assisted_Takeoff,
0.355954571293295,36.8882760129932,3200,2018-04-05 06:56:45,1775.12774230408,0.0,0.0,0.020057700641846404,1775.12774230408,0.0,0.0,0.023068000738176,1389,0.0,99,Assisted_Takeoff,
0.355954503361615,36.8882759730021,3300,2018-04-05 06:56:45,1775.12774230408,0.0,0.35999970196000003,0.028478100911299202,1775.12774230408,0.0,0.35999970196000003,0.028478100911299202,1417,0.0,99,Assisted_Takeoff,
0.355954367791273,36.8882759581588,3400,2018-04-05 06:56:45,1775.12774230408,0.0,0.35999970196000003,0.0434702013910464,1775.12774230408,0.0,0.35999970196000003,0.0434702013910464,1422,0.0,99,P-GPS,Obstacle Avoided. Revise Flight Route
0.355954171109213,36.8882759792035,3500,2018-04-05 06:56:46,1775.12774230408,0.0,0.7199994039200001,0.0646344020683008,1775.12774230408,0.0,0.7199994039200001,0.0646344020683008,1431,0.0,99,P-GPS,Home Point Recorded. RTH Altitude:  30m.
0.355953954969404,36.8882759807821,3600,2018-04-05 06:56:46,1775.2277423072799,0.1000000032,0.7199994039200001,0.0885326028330432,1775.2277423072799,0.1000000032,0.7199994039200001,0.0885326028330432,1431,0.0,99,P-GPS,
0.355953727711291,36.8882759428251,3700,2018-04-05 06:56:46,1775.32774231048,0.2000000064,0.7199994039200001,0.11409000365088001,1775.32774231048,0.2000000064,0.7199994039200001,0.11409000365088001,1430,0.0,99,P-GPS,
0.355953491341678,36.8882758816131,3800,2018-04-05 06:56:46,1775.52774231688,0.4000000128,0.7199994039200001,0.14099400451180802,1775.52774231688,0.4000000128,0.7199994039200001,0.14099400451180802,1431,0.0,99,P-GPS,
0.355953225765769,36.8882757922504,3900,2018-04-05 06:56:46,1775.62774232008,0.500000016,0.7199994039200001,0.17168000549376,1775.62774232008,0.500000016,0.7199994039200001,0.17168000549376,1437,0.0,99,P-GPS,
0.355952971514365,36.8882756720784,4000,2018-04-05 06:56:46,1775.82774232648,0.7000000224,0.503999582744,0.20195500646256004,1775.82774232648,0.7000000224,0.7199994039200001,0.20195500646256004,1444,0.0,99,P-GPS,
0.355952720761673,36.8882755302746,4100,2018-04-05 06:56:46,1776.0277423328798,0.9000000288000001,0.503999582744,0.23270100744643202,1776.0277423328798,0.9000000288000001,0.7199994039200001,0.23270100744643202,1452,0.0,99,P-GPS,
0.355952477375044,36.8882754192439,4200,2018-04-05 06:56:46,1776.22774233928,1.1000000352000001,0.503999582744,0.262033008385056,1776.22774233928,1.1000000352000001,0.7199994039200001,0.262033008385056,1477,0.0,99,P-GPS,
0.355952169566153,36.8882752633633,4300,2018-04-05 06:56:46,1776.42774234568,1.3000000416000002,0.7199994039200001,0.299743009591776,1776.42774234568,1.3000000416000002,0.7199994039200001,0.299743009591776,1497,0.0,99,P-GPS,
0.355951862474184,36.8882751120381,4400,2018-04-05 06:56:47,1776.7277423552798,1.6000000512,0.7199994039200001,0.337369010795808,1776.7277423552798,1.6000000512,0.7199994039200001,0.337369010795808,1556,0.0,99,P-GPS,
0.355951550645479,36.8882750010717,4500,2018-04-05 06:56:47,1777.02774236488,1.9000000608000003,0.7199994039200001,0.374163011973216,1777.02774236488,1.9000000608000003,0.7199994039200001,0.374163011973216,1604,0.0,99,P-GPS,
0.355951238465233,36.8882749475552,4600,2018-04-05 06:56:47,1777.32774237448,2.2000000704000002,0.7199994039200001,0.40904001308928006,1777.32774237448,2.2000000704000002,0.7199994039200001,0.40904001308928006,1662,0.0,99,P-GPS,
0.355950905723846,36.8882748719303,4700,2018-04-05 06:56:47,1777.72774238728,2.6000000832000003,0.7199994039200001,0.44687501430000004,1777.72774238728,2.6000000832000003,0.7199994039200001,0.44687501430000004,1684,0.0,99,P-GPS,
0.355950599827969,36.8882748148765,4800,2018-04-05 06:56:47,1778.02774239688,2.9000000928,0.7199994039200001,0.481276015400832,1778.02774239688,2.9000000928,0.7199994039200001,0.481276015400832,1684,0.0,99,P-GPS,
0.355950300541947,36.8882747325015,4900,2018-04-05 06:56:47,1778.4277424096801,3.3000001056,0.35999970196000003,0.515789016505248,1778.4277424096801,3.3000001056,0.7199994039200001,0.515789016505248,1684,0.0,99,P-GPS,
0.355950042390012,36.8882746919585,5000,2018-04-05 06:56:47,1778.92774242568,3.8000001216000006,0.35999970196000003,0.54461001742752,1778.92774242568,3.8000001216000006,0.7199994039200001,0.54461001742752,1684,0.0,99,P-GPS,
0.355949731594962,36.8882746806118,5100,2018-04-05 06:56:47,1779.4277424416798,4.3000001376,0.35999970196000003,0.5782310185033921,1779.4277424416798,4.3000001376,0.7199994039200001,0.5782310185033921,1684,0.0,99,P-GPS,
0.355949442297,36.8882747049759,5200,2018-04-05 06:56:47,1779.92774245768,4.8000001536,0.35999970196000003,0.608659019477088,1779.92774245768,4.8000001536,0.7199994039200001,0.608659019477088,1684,0.0,99,P-GPS,
0.355949180882478,36.8882746793763,5300,2018-04-05 06:56:48,1780.42774247368,5.3000001696000005,0.0,0.63755502040176,1780.42774247368,5.3000001696000005,0.7199994039200001,0.63755502040176,1684,0.0,99,P-GPS,
0.355948553890421,36.8882745195002,5600,2018-04-05 06:56:48,1781.92774252168,6.800000217600001,0.0,0.709509022704288,1781.92774252168,6.800000217600001,0.7199994039200001,0.709509022704288,1684,0.0,99,P-GPS,
0.355948341572672,36.8882744977173,5700,2018-04-05 06:56:48,1782.42774253768,7.3000002336000005,0.0,0.7330200234566401,1782.42774253768,7.3000002336000005,0.7199994039200001,0.7330200234566401,1684,0.0,99,P-GPS,
0.355948161023015,36.8882744697699,5800,2018-04-05 06:56:48,1782.9277425536798,7.8000002496,0.0,0.753268024104576,1782.9277425536798,7.8000002496,0.7199994039200001,0.753268024104576,1684,0.0,99,P-GPS,
0.355948015407552,36.8882744438025,5900,2018-04-05 06:56:48,1783.42774256968,8.300000265600001,0.0,0.7696890246300481,1783.42774256968,8.300000265600001,0.7199994039200001,0.7696890246300481,1684,0.0,99,P-GPS,
0.355947874282117,36.888274400924,6000,2018-04-05 06:56:48,1783.9277425856799,8.800000281600001,0.0,0.786061025153952,1783.9277425856799,8.800000281600001,0.7199994039200001,0.786061025153952,1684,0.0,99,P-GPS,
0.35594773029917,36.8882743855898,6100,2018-04-05 06:56:48,1784.42774260168,9.3000002976,0.0,0.8020330256650561,1784.42774260168,9.3000002976,0.7199994039200001,0.8020330256650561,1684,0.0,99,P-GPS,
0.355947588876951,36.88827437735,6200,2018-04-05 06:56:48,1784.92774261768,9.8000003136,0.0,0.8175520261616641,1784.92774261768,9.8000003136,0.7199994039200001,0.8175520261616641,1684,0.0,99,P-GPS,
0.355947467870535,36.8882744051941,6300,2018-04-05 06:56:48,1785.5277426368798,10.400000332800001,0.0,0.8299750265592,1785.5277426368798,10.400000332800001,0.7199994039200001,0.8299750265592,1684,0.0,99,P-GPS,
0.355947351430275,36.888274418507,6400,2018-04-05 06:56:48,1786.0277426528799,10.9000003488,0.0,0.842292026953344,1786.0277426528799,10.9000003488,0.7199994039200001,0.842292026953344,1684,0.0,99,P-GPS,
0.355947206226809,36.8882744404483,6500,2018-04-05 06:56:49,1786.52774266888,11.4000003648,0.0,0.857556027441792,1786.52774266888,11.4000003648,0.7199994039200001,0.857556027441792,1684,0.0,99,P-GPS,
0.355947055279822,36.888274443188,6600,2018-04-05 06:56:49,1787.02774268488,11.9000003808,0.0,0.873918027965376,1787.02774268488,11.9000003808,0.7199994039200001,0.873918027965376,1684,0.0,99,P-GPS,
0.355946923945813,36.8882744572589,6700,2018-04-05 06:56:49,1787.5277427008798,12.400000396800001,0.0,0.887908028413056,1787.5277427008798,12.400000396800001,0.7199994039200001,0.887908028413056,1684,0.0,99,P-GPS,
0.355946810517361,36.8882744588075,6800,2018-04-05 06:56:49,1788.02774271688,12.9000004128,0.0,0.9002390288076481,1788.02774271688,12.9000004128,0.7199994039200001,0.9002390288076481,1684,0.0,99,P-GPS,
0.355946688503752,36.8882744771131,6900,2018-04-05 06:56:49,1788.52774273288,13.4000004288,0.0,0.91315502922096,1788.52774273288,13.4000004288,0.7199994039200001,0.91315502922096,1684,0.0,99,P-GPS,
0.355946566988446,36.8882744872527,7000,2018-04-05 06:56:49,1789.0277427488797,13.9000004448,0.0,0.926211029638752,1789.0277427488797,13.9000004448,0.7199994039200001,0.926211029638752,1684,0.0,99,P-GPS,
0.355946457736953,36.8882745446132,7100,2018-04-05 06:56:49,1789.52774276488,14.400000460800001,0.0,0.9369890299836481,1789.52774276488,14.400000460800001,0.7199994039200001,0.9369890299836481,1684,0.0,99,P-GPS,
0.355946353373234,36.8882745972647,7200,2018-04-05 06:56:49,1790.0277427808799,14.9000004768,0.0,0.9473960303166721,1790.0277427808799,14.9000004768,0.7199994039200001,0.9473960303166721,1684,0.0,99,P-GPS,
0.355946256197467,36.8882746236121,7300,2018-04-05 06:56:49,1790.52774279688,15.4000004928,0.0,0.957558030641856,1790.52774279688,15.4000004928,0.7199994039200001,0.957558030641856,1684,0.0,99,P-GPS,
0.355946163853293,36.8882746320441,7400,2018-04-05 06:56:50,1791.02774281288,15.900000508800002,0.0,0.967534030961088,1791.02774281288,15.900000508800002,0.7199994039200001,0.967534030961088,1684,0.0,99,P-GPS,
0.355946052240556,36.8882746682432,7500,2018-04-05 06:56:50,1791.62774283208,16.500000528,0.0,0.9791440313326081,1791.62774283208,16.500000528,0.7199994039200001,0.9791440313326081,1684,0.0,99,P-GPS,
0.355945939246084,36.8882746997905,7600,2018-04-05 06:56:50,1792.1277428480798,17.000000544,0.0,0.9910190317126081,1792.1277428480798,17.000000544,0.7199994039200001,0.9910190317126081,1684,0.0,99,P-GPS,
0.355945826687221,36.8882747421695,7700,2018-04-05 06:56:50,1792.6277428640801,17.50000056,0.0,1.0027000320864001,1792.6277428640801,17.50000056,0.7199994039200001,1.0027000320864001,1684,0.0,99,P-GPS,
0.355945722683388,36.8882747736869,7800,2018-04-05 06:56:50,1793.22774288328,18.1000005792,0.0,1.0136500324368,1793.22774288328,18.1000005792,0.7199994039200001,1.0136500324368,1684,0.0,99,P-GPS,
0.355945622728681,36.8882748594209,7900,2018-04-05 06:56:50,1793.72774289928,18.6000005952,0.0,1.02338003274816,1793.72774289928,18.6000005952,0.7199994039200001,1.02338003274816,1684,0.0,99,P-GPS,
0.355945527342574,36.8882749292474,8000,2018-04-05 06:56:50,1794.32774291848,19.2000006144,0.0,1.03294003305408,1794.32774291848,19.2000006144,0.7199994039200001,1.03294003305408,1684,0.0,99,P-GPS,
0.355945426720205,36.8882750693924,8100,2018-04-05 06:56:50,1794.8277429344798,19.7000006304,0.0,1.04231003335392,1794.8277429344798,19.7000006304,0.7199994039200001,1.04231003335392,1684,0.0,99,P-GPS,
0.355945329438589,36.8882751839763,8200,2018-04-05 06:56:50,1795.32774295048,20.200000646400003,0.0,1.05183003365856,1795.32774295048,20.200000646400003,0.7199994039200001,1.05183003365856,1684,0.0,99,P-GPS,
0.355945207201069,36.8882753461938,8300,2018-04-05 06:56:50,1795.82774296648,20.7000006624,0.0,1.0638900340444801,1795.82774296648,20.7000006624,0.7199994039200001,1.0638900340444801,1684,0.0,99,P-GPS,
0.355945093684681,36.8882754935279,8400,2018-04-05 06:56:50,1796.42774298568,21.3000006816,0.0,1.07541003441312,1796.42774298568,21.3000006816,0.7199994039200001,1.07541003441312,1684,0.0,99,P-GPS,
0.355944996489372,36.8882757100236,8500,2018-04-05 06:56:51,1796.92774300168,21.8000006976,0.0,1.08511003472352,1796.92774300168,21.8000006976,0.7199994039200001,1.08511003472352,1684,0.0,99,P-GPS,
0.355944931197724,36.8882758833341,8600,2018-04-05 06:56:51,1797.5277430208798,22.4000007168,0.0,1.09187003493984,1797.5277430208798,22.4000007168,0.7199994039200001,1.09187003493984,1684,0.0,99,P-GPS,
0.355944903151033,36.8882760885747,8700,2018-04-05 06:56:51,1798.0277430368799,22.900000732800002,0.0,1.09484003503488,1798.0277430368799,22.900000732800002,0.7199994039200001,1.09484003503488,1684,0.0,99,P-GPS,
0.355944899512275,36.8882762387795,8800,2018-04-05 06:56:51,1798.52774305288,23.4000007488,0.0,1.0954500350544,1798.52774305288,23.4000007488,0.7199994039200001,1.0954500350544,1684,0.0,99,P-GPS,
0.355944937420823,36.8882763990106,8900,2018-04-05 06:56:51,1799.12774307208,24.000000768000003,0.0,1.09172003493504,1799.12774307208,24.000000768000003,0.7199994039200001,1.0954500350544,1684,0.0,99,P-GPS,
0.355944984793887,36.8882765169133,9000,2018-04-05 06:56:51,1799.62774308808,24.500000784,0.0,1.0870100347843201,1799.62774308808,24.500000784,0.7199994039200001,1.0954500350544,1684,0.0,99,P-GPS,
0.355945039218929,36.8882766832725,9100,2018-04-05 06:56:51,1800.1277431040799,25.000000800000002,0.0,1.08201003462432,1800.1277431040799,25.000000800000002,0.7199994039200001,1.0954500350544,1684,0.0,99,P-GPS,
0.35594508743227,36.8882768182406,9200,2018-04-05 06:56:51,1800.6277431200801,25.500000816000004,0.0,1.077750034488,1800.6277431200801,25.500000816000004,0.7199994039200001,1.0954500350544,1684,0.0,99,P-GPS,
0.355945158774401,36.8882770022196,9300,2018-04-05 06:56:51,1801.22774313928,26.100000835200003,0.0,1.07168003429376,1801.22774313928,26.100000835200003,0.7199994039200001,1.0954500350544,1684,0.0,99,P-GPS,
0.355945233866025,36.8882771514641,9400,2018-04-05 06:56:52,1801.7277431552798,26.6000008512,0.0,1.0651500340848001,1801.7277431552798,26.6000008512,0.7199994039200001,1.0954500350544,1684,0.0,99,P-GPS,
0.355945340900392,36.8882773258559,9500,2018-04-05 06:56:52,1802.32774317448,27.200000870400004,0.0,1.05576003378432,1802.32774317448,27.200000870400004,0.7199994039200001,1.0954500350544,1684,0.0,99,P-GPS,
0.355945446610834,36.8882774623304,9600,2018-04-05 06:56:52,1802.8277431904799,27.7000008864,0.0,1.0462900334812801,1802.8277431904799,27.7000008864,0.7199994039200001,1.0954500350544,1684,0.0,99,P-GPS,
0.355945575866948,36.8882776286392,9700,2018-04-05 06:56:52,1803.3277432064801,28.200000902400003,0.0,1.0350600331219202,1803.3277432064801,28.200000902400003,0.7199994039200001,1.0954500350544,1684,0.0,99,P-GPS,
0.355945695112202,36.8882777648738,9800,2018-04-05 06:56:52,1803.92774322568,28.800000921600002,0.0,1.0247100327907201,1803.92774322568,28.800000921600002,0.7199994039200001,1.0954500350544,1684,0.0,99,P-GPS,
0.355945829378224,36.888277939621,9900,2018-04-05 06:56:52,1804.42774324168,29.300000937600004,0.0,1.0139000324448,1804.42774324168,29.300000937600004,0.7199994039200001,1.0954500350544,1684,0.0,99,P-GPS,
0.355945944756738,36.8882780814656,10000,2018-04-05 06:56:52,1804.92774325768,29.8000009536,0.0,1.00478003215296,1804.92774325768,29.8000009536,0.7199994039200001,1.0954500350544,1684,0.0,99,P-GPS,
0.355946082900899,36.8882782208457,10100,2018-04-05 06:56:52,1805.4277432736799,30.300000969600003,0.0,0.9934740317911681,1805.4277432736799,30.300000969600003,0.7199994039200001,1.0954500350544,1684,0.0,99,P-GPS,
0.355946208978291,36.8882783252193,10200,2018-04-05 06:56:52,1805.9277432896797,30.8000009856,0.0,0.9828070314498241,1805.9277432896797,30.8000009856,0.7199994039200001,1.0954500350544,1684,0.0,99,P-GPS,
0.355946364534589,36.8882784378066,10300,2018-04-05 06:56:52,1806.42774330568,31.300001001600002,0.0,0.96946003102272,1806.42774330568,31.300001001600002,0.7199994039200001,1.0954500350544,1684,0.0,99,P-GPS,
0.355946499706026,36.8882785299754,10400,2018-04-05 06:56:52,1807.0277433248798,31.9000010208,0.0,0.957916030653312,1807.0277433248798,31.9000010208,0.7199994039200001,1.0954500350544,1684,0.0,99,P-GPS,
0.355946653334247,36.8882786406302,10500,2018-04-05 06:56:53,1807.52774334088,32.4000010368,0.0,0.945249030247968,1807.52774334088,32.4000010368,0.7199994039200001,1.0954500350544,1684,0.0,99,P-GPS,
0.355946779050937,36.8882787294567,10600,2018-04-05 06:56:53,1808.02774335688,32.9000010528,0.0,0.935048029921536,1808.02774335688,32.9000010528,0.7199994039200001,1.0954500350544,1684,0.0,99,P-GPS,
0.355946927798712,36.8882788211962,10700,2018-04-05 06:56:53,1808.6277433760797,33.500001072,0.0,0.922744029527808,1808.6277433760797,33.500001072,0.7199994039200001,1.0954500350544,1684,0.0,99,P-GPS,
0.35594705296336,36.888278892998,10800,2018-04-05 06:56:53,1809.12774339208,34.000001088,0.0,0.912376029196032,1809.12774339208,34.000001088,0.7199994039200001,1.0954500350544,1684,0.0,99,P-GPS,
0.355947160496031,36.888278970506,10900,2018-04-05 06:56:53,1809.6277434080798,34.500001104,0.0,0.904231028935392,1809.6277434080798,34.500001104,0.7199994039200001,1.0954500350544,1684,0.0,99,P-GPS,
0.355947217333612,36.8882790169197,11000,2018-04-05 06:56:53,1810.1277434240799,35.00000112,0.0,0.900216028806912,1810.1277434240799,35.00000112,0.7199994039200001,1.0954500350544,1684,0.0,99,P-GPS,
0.355947258105778,36.8882790547846,11100,2018-04-05 06:56:53,1810.72774344328,35.6000011392,0.35999970196000003,0.8975590287218881,1810.72774344328,35.6000011392,0.7199994039200001,1.0954500350544,1684,0.0,99,P-GPS,
0.35594727358251,36.8882790776118,11200,2018-04-05 06:56:53,1811.22774345928,36.1000011552,0.35999970196000003,0.896913028701216,1811.22774345928,36.1000011552,0.7199994039200001,1.0954500350544,1684,0.0,99,P-GPS,
0.355947334443976,36.8882790913647,11300,2018-04-05 06:56:53,1811.82774347848,36.7000011744,0.35999970196000003,0.891224028519168,1811.82774347848,36.7000011744,0.7199994039200001,1.0954500350544,1684,0.0,99,P-GPS,
0.355947399206379,36.8882791004113,11400,2018-04-05 06:56:54,1812.3277434944798,37.2000011904,0.0,0.8849510283184321,1812.3277434944798,37.2000011904,0.7199994039200001,1.0954500350544,1684,0.0,99,P-GPS,
0.355947478468448,36.8882791337893,11500,2018-04-05 06:56:54,1812.8277435104799,37.7000012064,0.0,0.8782610281043521,1812.8277435104799,37.7000012064,0.7199994039200001,1.0954500350544,1684,0.0,99,P-GPS,
0.355947527569292,36.8882791694831,11600,2018-04-05 06:56:54,1813.42774352968,38.3000012256,0.0,0.87480502799376,1813.42774352968,38.3000012256,0.7199994039200001,1.0954500350544,1684,0.0,99,P-GPS,
0.355947573254474,36.8882792014008,11700,2018-04-05 06:56:54,1813.9277435456797,38.8000012416,0.0,0.8715660278901121,1813.9277435456797,38.8000012416,0.7199994039200001,1.0954500350544,1684,0.0,99,P-GPS,
0.355947599907217,36.88827922168,11800,2018-04-05 06:56:54,1814.42774356168,39.3000012576,0.0,0.8697660278325121,1814.42774356168,39.3000012576,0.7199994039200001,1.0954500350544,1684,0.0,99,P-GPS,
0.355947638904786,36.8882792284923,11900,2018-04-05 06:56:54,1814.9277435776798,39.800001273599996,0.0,0.866113027715616,1814.9277435776798,39.800001273599996,0.7199994039200001,1.0954500350544,1684,0.0,99,P-GPS,
0.355947680634071,36.8882792180165,12000,2018-04-05 06:56:54,1815.42774359368,40.3000012896,0.0,0.8614010275648321,1815.42774359368,40.3000012896,0.7199994039200001,1.0954500350544,1684,0.0,99,P-GPS,
0.35594775220907,36.8882791927193,12100,2018-04-05 06:56:54,1815.92774360968,40.8000013056,0.35999970196000003,0.852988027295616,1815.92774360968,40.8000013056,0.7199994039200001,1.0954500350544,1684,0.0,99,P-GPS,
0.355947806457425,36.8882791776935,12200,2018-04-05 06:56:54,1816.32774362248,41.2000013184,0.0,0.846801027097632,1816.32774362248,41.2000013184,0.7199994039200001,1.0954500350544,1684,0.0,99,P-GPS,
0.35594788005658,36.8882791739046,12300,2018-04-05 06:56:54,1816.82774363848,41.7000013344,0.0,0.839172026853504,1816.82774363848,41.7000013344,0.7199994039200001,1.0954500350544,1684,0.0,99,P-GPS,
0.355947935836893,36.8882791677262,12400,2018-04-05 06:56:54,1817.32774365448,42.2000013504,0.0,0.833244026663808,1817.32774365448,42.2000013504,0.7199994039200001,1.0954500350544,1684,0.0,99,P-GPS,
0.355947987525334,36.8882791654351,12500,2018-04-05 06:56:55,1817.82774367048,42.7000013664,0.0,0.827914026493248,1817.82774367048,42.7000013664,0.7199994039200001,1.0954500350544,1684,0.0,99,P-GPS,
0.355948014447992,36.8882791790039,12600,2018-04-05 06:56:55,1818.32774368648,43.2000013824,0.0,0.8258310264265921,1818.32774368648,43.2000013824,0.7199994039200001,1.0954500350544,1684,0.0,99,P-GPS,
0.355948052538518,36.8882792032893,12700,2018-04-05 06:56:55,1818.82774370248,43.7000013984,0.0,0.82314002634048,1818.82774370248,43.7000013984,0.7199994039200001,1.0954500350544,1684,0.0,99,P-GPS,
0.355948093112015,36.8882792262247,12800,2018-04-05 06:56:55,1819.3277437184797,44.2000014144,0.0,0.8201570262450241,1819.3277437184797,44.2000014144,0.7199994039200001,1.0954500350544,1684,0.0,99,P-GPS,
0.355948143834788,36.8882792147415,12900,2018-04-05 06:56:55,1819.82774373448,44.7000014304,0.0,0.8145170260645441,1819.82774373448,44.7000014304,0.7199994039200001,1.0954500350544,1684,0.0,99,P-GPS,
0.355948185072283,36.8882792003238,13000,2018-04-05 06:56:55,1820.3277437504798,45.2000014464,0.0,0.8096890259100481,1820.3277437504798,45.2000014464,0.7199994039200001,1.0954500350544,1684,0.0,99,P-GPS,
0.355948239130517,36.8882791715557,13100,2018-04-05 06:56:55,1820.82774376648,45.7000014624,0.0,0.80288502569232,1820.82774376648,45.7000014624,0.7199994039200001,1.0954500350544,1684,0.0,99,P-GPS,
0.35594828853018,36.8882791559132,13200,2018-04-05 06:56:55,1821.32774378248,46.2000014784,0.0,0.7971800255097601,1821.32774378248,46.2000014784,0.7199994039200001,1.0954500350544,1684,0.0,99,P-GPS,
0.355948338115485,36.8882791452415,13300,2018-04-05 06:56:55,1821.82774379848,46.7000014944,0.0,0.7916980253343361,1821.82774379848,46.7000014944,0.7199994039200001,1.0954500350544,1684,0.0,99,P-GPS,
0.355948375511887,36.888279147918,13400,2018-04-05 06:56:55,1822.3277438144798,47.2000015104,0.0,0.788086025218752,1822.3277438144798,47.2000015104,0.7199994039200001,1.0954500350544,1684,0.0,99,P-GPS,
0.355948417311195,36.8882791543437,13500,2018-04-05 06:56:56,1822.8277438304801,47.70000152640001,0.0,0.7842230250951361,1822.8277438304801,47.70000152640001,0.7199994039200001,1.0954500350544,1684,0.0,99,P-GPS,
0.355948449077659,36.8882791808239,13600,2018-04-05 06:56:56,1823.32774384648,48.20000154240001,0.0,0.7823600250355199,1823.32774384648,48.20000154240001,0.7199994039200001,1.0954500350544,1684,-0.4,99,P-GPS,
0.355948469892023,36.888279199827,13700,2018-04-05 06:56:56,1823.8277438624798,48.7000015584,0.0,0.781234024999488,1823.8277438624798,48.7000015584,0.7199994039200001,1.0954500350544,1684,-0.9,99,P-GPS,
0.355948484088391,36.8882792177028,13800,2018-04-05 06:56:56,1824.3277438784799,49.200001574400005,0.0,0.780719024983008,1824.3277438784799,49.200001574400005,0.7199994039200001,1.0954500350544,1684,-1.4,99,P-GPS,
0.355948508160864,36.8882792513731,13900,2018-04-05 06:56:56,1824.82774389448,49.70000159040001,0.0,0.7800340249610881,1824.82774389448,49.70000159040001,0.7199994039200001,1.0954500350544,1684,-2.0,99,P-GPS,
0.355948532877794,36.8882792945588,14000,2018-04-05 06:56:56,1825.32774391048,50.20000160640001,0.0,0.7798010249536321,1825.32774391048,50.20000160640001,0.7199994039200001,1.0954500350544,1684,-2.6,99,P-GPS,
0.35594856388866,36.8882793177715,14100,2018-04-05 06:56:56,1825.8277439264798,50.7000016224,0.0,0.7779490248943681,1825.8277439264798,50.7000016224,0.7199994039200001,1.0954500350544,1684,-3.2,99,P-GPS,
0.355948586280172,36.888279335628,14200,2018-04-05 06:56:56,1826.32774394248,51.2000016384,0.0,0.776682024853824,1826.32774394248,51.2000016384,0.7199994039200001,1.0954500350544,1684,-3.8,99,P-GPS,
0.355948605103764,36.8882793613384,14300,2018-04-05 06:56:56,1826.82774395848,51.700001654400005,0.0,0.7761890248380481,1826.82774395848,51.700001654400005,0.7199994039200001,1.0954500350544,1684,-4.4,99,P-GPS,
0.355948617720541,36.8882794014109,14400,2018-04-05 06:56:56,1827.3277439744797,52.200001670400006,0.0,0.777083024866656,1827.3277439744797,52.200001670400006,0.7199994039200001,1.0954500350544,1684,-4.9,99,P-GPS,
0.355948647774696,36.8882794584984,14500,2018-04-05 06:56:57,1827.82774399048,52.70000168640001,0.0,0.7772300248713601,1827.82774399048,52.70000168640001,0.7199994039200001,1.0954500350544,1684,-5.5,99,P-GPS,
0.355948667454442,36.8882795247898,14600,2018-04-05 06:56:57,1828.3277440064799,53.2000017024,0.0,0.7789530249264961,1828.3277440064799,53.2000017024,0.7199994039200001,1.0954500350544,1684,-5.5,99,P-GPS,
0.355948687156986,36.8882795686265,14700,2018-04-05 06:56:57,1828.82774402248,53.7000017184,0.0,0.779489024943648,1828.82774402248,53.7000017184,0.7199994039200001,1.0954500350544,1684,-6.1,99,P-GPS,
0.355948714321874,36.888279607956,14800,2018-04-05 06:56:57,1829.32774403848,54.200001734400004,0.0,0.779092024930944,1829.32774403848,54.200001734400004,0.7199994039200001,1.0954500350544,1684,-6.7,99,P-GPS,
0.355948785547165,36.888279646566,14900,2018-04-05 06:56:57,1829.82774405448,54.700001750400006,0.0,0.7744900247836801,1829.82774405448,54.700001750400006,0.7199994039200001,1.0954500350544,1684,-7.3,99,P-GPS,
0.355948863588715,36.888279687131,15000,2018-04-05 06:56:57,1830.3277440704799,55.20000176640001,0.0,0.769436024621952,1830.3277440704799,55.20000176640001,0.7199994039200001,1.0954500350544,1684,-7.9,99,P-GPS,
0.355948934755789,36.8882796947204,15100,2018-04-05 06:56:57,1830.8277440864797,55.7000017824,0.0,0.763164024421248,1830.8277440864797,55.7000017824,0.7199994039200001,1.0954500350544,1684,-8.4,99,P-GPS,
0.355948976839667,36.8882796962204,15200,2018-04-05 06:56:57,1831.32774410248,56.2000017984,0.0,0.759293024297376,1831.32774410248,56.2000017984,0.7199994039200001,1.0954500350544,1684,-9.0,99,P-GPS,
0.355949012206621,36.888279701675,15300,2018-04-05 06:56:57,1831.8277441184798,56.700001814400004,0.0,0.7562970242015041,1831.8277441184798,56.700001814400004,0.7199994039200001,1.0954500350544,1684,-9.6,99,P-GPS,
0.355949036910116,36.8882797095696,15400,2018-04-05 06:56:57,1832.3277441344799,57.200001830400005,0.0,0.75445502414256,1832.3277441344799,57.200001830400005,0.7199994039200001,1.0954500350544,1684,-10.2,99,P-GPS,
0.355949079522424,36.8882797365134,15500,2018-04-05 06:56:58,1832.7277441472797,57.600001843200005,0.0,0.7521000240672,1832.7277441472797,57.600001843200005,0.7199994039200001,1.0954500350544,1684,-10.8,99,P-GPS,
0.355949123761548,36.8882797755666,15600,2018-04-05 06:56:58,1833.22774416328,58.100001859200006,0.0,0.7503720240119041,1833.22774416328,58.100001859200006,0.7199994039200001,1.0954500350544,1684,-11.4,99,P-GPS,
0.355949191142897,36.8882798280773,15700,2018-04-05 06:56:58,1833.7277441792799,58.60000187520001,0.0,0.747406023916992,1833.7277441792799,58.60000187520001,0.7199994039200001,1.0954500350544,1684,-11.9,99,P-GPS,
0.355949250176027,36.8882799052042,15800,2018-04-05 06:56:58,1834.22774419528,59.10000189120001,0.0,0.7468790239001281,1834.22774419528,59.10000189120001,0.7199994039200001,1.0954500350544,1684,-12.5,99,P-GPS,
0.355949324147689,36.8882800160646,15900,2018-04-05 06:56:58,1834.72774421128,59.6000019072,0.0,0.747372023915904,1834.72774421128,59.6000019072,0.7199994039200001,1.0954500350544,1684,-13.7,99,P-GPS,
0.355949465896411,36.8882802298587,16100,2018-04-05 06:56:58,1835.7277442432799,60.600001939200006,0.0,0.7492300239753601,1835.7277442432799,60.600001939200006,0.7199994039200001,1.0954500350544,1684,-13.7,99,P-GPS,
0.355949516370439,36.8882803177784,16200,2018-04-05 06:56:58,1836.2277442592801,61.10000195520001,0.0,0.75098002403136,1836.2277442592801,61.10000195520001,0.7199994039200001,1.0954500350544,1684,-14.3,99,P-GPS,
0.355949574774176,36.888280387213,16300,2018-04-05 06:56:58,1836.72774427528,61.6000019712,0.0,0.750898024028736,1836.72774427528,61.6000019712,0.7199994039200001,1.0954500350544,1684,-14.9,99,P-GPS,
0.355949622751393,36.8882804374787,16400,2018-04-05 06:56:58,1837.2277442912798,62.1000019872,0.0,0.7504420240141441,1837.2277442912798,62.1000019872,0.7199994039200001,1.0954500350544,1684,-15.4,99,P-GPS,
0.355949672490587,36.8882804931401,16500,2018-04-05 06:56:59,1837.7277443072799,62.600002003200004,0.0,0.7503130240100161,1837.7277443072799,62.600002003200004,0.7199994039200001,1.0954500350544,1684,-16.0,99,P-GPS,
0.355949730074809,36.8882805346697,16600,2018-04-05 06:56:59,1838.22774432328,63.100002019200005,0.0,0.748578023954496,1838.22774432328,63.100002019200005,0.7199994039200001,1.0954500350544,1684,-16.6,99,P-GPS,
0.355949796576391,36.8882805769144,16700,2018-04-05 06:56:59,1838.72774433928,63.600002035200006,0.0,0.746243023879776,1838.72774433928,63.600002035200006,0.7199994039200001,1.0954500350544,1684,-17.2,99,P-GPS,
0.355949858306225,36.8882806116532,16800,2018-04-05 06:56:59,1839.2277443552798,64.1000020512,0.0,0.7438230238023361,1839.2277443552798,64.1000020512,0.7199994039200001,1.0954500350544,1684,-17.8,99,P-GPS,
0.355949934652564,36.8882806587798,16900,2018-04-05 06:56:59,1839.72774437128,64.6000020672,0.0,0.741254023720128,1839.72774437128,64.6000020672,0.7199994039200001,1.0954500350544,1684,-18.4,99,P-GPS,
0.355949992884093,36.8882806943033,17000,2018-04-05 06:56:59,1840.22774438728,65.10000208320001,0.0,0.7393460236590721,1840.22774438728,65.10000208320001,0.7199994039200001,1.0954500350544,1684,-19.0,99,P-GPS,
0.355950046012079,36.8882807389601,17100,2018-04-05 06:56:59,1840.7277444032798,65.60000209920001,0.0,0.738631023636192,1840.7277444032798,65.60000209920001,0.7199994039200001,1.0954500350544,1684,-19.5,99,P-GPS,
0.355950089493162,36.8882807661168,17200,2018-04-05 06:56:59,1841.22774441928,66.10000211520001,0.0,0.737362023595584,1841.22774441928,66.10000211520001,0.7199994039200001,1.0954500350544,1684,-20.1,99,P-GPS,
0.355950147374168,36.8882808066615,17300,2018-04-05 06:56:59,1841.7277444352799,66.6000021312,0.0,0.7360880235548161,1841.7277444352799,66.6000021312,0.7199994039200001,1.0954500350544,1684,-20.7,99,P-GPS,
0.355950192635955,36.8882808416893,17400,2018-04-05 06:56:59,1842.22774445128,67.1000021472,0.0,0.735417023533344,1842.22774445128,67.1000021472,0.7199994039200001,1.0954500350544,1684,-21.3,99,P-GPS,
0.355950248309605,36.8882808960767,17500,2018-04-05 06:57:00,1842.72774446728,67.6000021632,0.0,0.735587023538784,1842.72774446728,67.6000021632,0.7199994039200001,1.0954500350544,1684,-21.3,99,P-GPS,
0.355950307596366,36.8882809309761,17600,2018-04-05 06:57:00,1843.22774448328,68.1000021792,0.0,0.733984023487488,1843.22774448328,68.1000021792,0.7199994039200001,1.0954500350544,1684,-21.9,99,P-GPS,
0.35595035448619,36.8882809542808,17700,2018-04-05 06:57:00,1843.7277444992799,68.6000021952,0.0,0.73241502343728,1843.7277444992799,68.6000021952,0.7199994039200001,1.0954500350544,1684,-22.5,99,P-GPS,
0.355950391752723,36.8882809579787,17800,2018-04-05 06:57:00,1844.2277445152797,69.1000022112,0.0,0.729964023358848,1844.2277445152797,69.1000022112,0.7199994039200001,1.0954500350544,1684,-23.0,99,P-GPS,
0.355950461342649,36.8882809882284,17900,2018-04-05 06:57:00,1844.72774453128,69.60000222720001,0.0,0.727388023276416,1844.72774453128,69.60000222720001,0.7199994039200001,1.0954500350544,1684,-23.6,99,P-GPS,
0.355950517943291,36.8882810330029,18000,2018-04-05 06:57:00,1845.2277445472798,70.10000224320001,0.0,0.727068023266176,1845.2277445472798,70.10000224320001,0.7199994039200001,1.0954500350544,1684,-24.2,99,P-GPS,
0.355950569836916,36.888281084352,18100,2018-04-05 06:57:00,1845.62774456008,70.500002256,0.0,0.727733023287456,1845.62774456008,70.500002256,0.7199994039200001,1.0954500350544,1684,-24.6,99,P-GPS,
0.355950620250285,36.888281122036,18200,2018-04-05 06:57:00,1846.1277445760797,71.000002272,0.0,0.727412023277184,1846.1277445760797,71.000002272,0.7199994039200001,1.0954500350544,1684,-24.9,99,P-GPS,
0.355950686929367,36.8882811805281,18300,2018-04-05 06:57:00,1846.62774459208,71.500002288,0.0,0.7278450232910401,1846.62774459208,71.500002288,0.7199994039200001,1.0954500350544,1684,-24.9,99,P-GPS,
0.355950734948924,36.888281233846,18400,2018-04-05 06:57:00,1847.1277446080799,72.000002304,0.0,0.7292230233351361,1847.1277446080799,72.000002304,0.7199994039200001,1.0954500350544,1684,-24.9,99,P-GPS,
0.355950755347221,36.8882813049358,18500,2018-04-05 06:57:01,1847.62774462408,72.50000232,0.0,0.7341170234917441,1847.62774462408,72.50000232,0.7199994039200001,1.0954500350544,1684,-24.9,99,P-GPS,
0.355950742615638,36.8882813666344,18600,2018-04-05 06:57:01,1848.12774464008,73.00000233600001,0.0,0.7404430236941761,1848.12774464008,73.00000233600001,0.7199994039200001,1.0954500350544,1684,-24.9,99,P-GPS,
0.355950729379646,36.8882814549587,18700,2018-04-05 06:57:01,1848.62774465608,73.50000235200001,0.0,0.7491890239740481,1848.62774465608,73.50000235200001,0.7199994039200001,1.0954500350544,1684,-24.9,99,P-GPS,
0.355950714816471,36.8882815578506,18800,2018-04-05 06:57:01,1849.1277446720799,74.00000236800001,0.0,0.759359024299488,1849.1277446720799,74.00000236800001,0.7199994039200001,1.0954500350544,1684,-24.9,99,P-GPS,
0.3559506991142,36.8882816964834,18900,2018-04-05 06:57:01,1849.6277446880802,74.50000238400001,0.0,0.7728680247317761,1849.6277446880802,74.50000238400001,0.7199994039200001,1.0954500350544,1684,-24.9,99,P-GPS,
0.355950690498103,36.8882818228172,19000,2018-04-05 06:57:01,1850.02774470088,74.9000023968,0.0,0.7848790251161281,1850.02774470088,74.9000023968,0.7199994039200001,1.0954500350544,1684,-24.9,99,P-GPS,
0.355950700537867,36.8882819328532,19100,2018-04-05 06:57:01,1850.5277447168799,75.4000024128,0.0,0.7942890254172481,1850.5277447168799,75.4000024128,0.7199994039200001,1.0954500350544,1684,-24.9,99,P-GPS,
0.3559507013928,36.8882819947744,19200,2018-04-05 06:57:01,1851.1277447360799,76.000002432,0.0,0.799919025597408,1851.1277447360799,76.000002432,0.7199994039200001,1.0954500350544,1539,-24.9,99,P-GPS,
0.35595070449295,36.8882820501757,19300,2018-04-05 06:57:01,1851.62774475208,76.500002448,0.0,0.804827025754464,1851.62774475208,76.500002448,0.7199994039200001,1.0954500350544,1429,-24.9,99,P-GPS,
0.355950707633812,36.8882820966493,19400,2018-04-05 06:57:01,1852.12774476808,77.000002464,0.0,0.8089240258855681,1852.12774476808,77.000002464,0.7199994039200001,1.0954500350544,1395,-24.9,99,P-GPS,
0.355950728325228,36.8882821176063,19500,2018-04-05 06:57:02,1852.5277447808799,77.4000024768,0.0,0.8095900259068801,1852.5277447808799,77.4000024768,0.7199994039200001,1.0954500350544,1394,-24.9,98,P-GPS,
0.355950763214641,36.8882821203277,19600,2018-04-05 06:57:02,1852.92774479368,77.8000024896,0.0,0.807707025846624,1852.92774479368,77.8000024896,0.7199994039200001,1.0954500350544,1474,-24.9,98,P-GPS,
0.355950848429894,36.888282179854,19700,2018-04-05 06:57:02,1853.2277448032798,78.1000024992,0.0,0.8081240258599681,1853.2277448032798,78.1000024992,0.7199994039200001,1.0954500350544,1490,-24.9,98,P-GPS,
0.355950952969077,36.8882822715025,19800,2018-04-05 06:57:02,1853.4277448096798,78.3000025056,0.0,0.810629025940128,1853.4277448096798,78.3000025056,0.7199994039200001,1.0954500350544,1446,-24.9,98,P-GPS,
0.355951032853416,36.8882824016112,19900,2018-04-05 06:57:02,1853.72774481928,78.6000025152,0.0,0.8184960261918721,1853.72774481928,78.6000025152,0.7199994039200001,1.0954500350544,1323,-24.9,98,P-GPS,
0.355951039653594,36.8882825079719,20000,2018-04-05 06:57:02,1854.0277448288798,78.9000025248,0.0,0.828351026507232,1854.0277448288798,78.9000025248,0.7199994039200001,1.0954500350544,1312,-24.9,98,P-GPS,
0.355951000507632,36.8882826166429,20100,2018-04-05 06:57:02,1854.32774483848,79.20000253440001,0.35999970196000003,0.841002026912064,1854.32774483848,79.20000253440001,0.7199994039200001,1.0954500350544,1329,-24.9,98,P-GPS,
0.355950958978443,36.8882826985426,20200,2018-04-05 06:57:02,1854.5277448448799,79.4000025408,0.35999970196000003,0.851201027238432,1854.5277448448799,79.4000025408,0.7199994039200001,1.0954500350544,1358,-24.9,98,P-GPS,
0.355950977408358,36.8882827711815,20300,2018-04-05 06:57:02,1854.62774484808,79.500002544,0.0,0.8572250274312001,1854.62774484808,79.500002544,0.7199994039200001,1.0954500350544,1418,-24.9,98,P-GPS,
0.355951028405524,36.8882828074202,20400,2018-04-05 06:57:03,1854.82774485448,79.70000255040001,0.0,0.857993027455776,1854.82774485448,79.70000255040001,0.7199994039200001,1.0954500350544,1435,-24.9,98,P-GPS,
0.355951083179459,36.8882828382288,20500,2018-04-05 06:57:03,1855.02774486088,79.9000025568,0.0,0.858086027458752,1855.02774486088,79.9000025568,0.7199994039200001,1.0954500350544,1440,-24.9,98,P-GPS,
0.355951131995325,36.8882828565853,20600,2018-04-05 06:57:03,1855.2277448672799,80.1000025632,0.0,0.857324027434368,1855.2277448672799,80.1000025632,0.7199994039200001,1.0954500350544,1397,-24.9,98,P-GPS,
0.355951196036939,36.888282924034,20700,2018-04-05 06:57:03,1855.42774487368,80.30000256960001,0.0,0.8606630275412162,1855.42774487368,80.30000256960001,0.7199994039200001,1.0954500350544,1197,-24.9,98,P-GPS,
0.355951279325132,36.8882829856619,20800,2018-04-05 06:57:03,1855.7277448832801,80.6000025792,0.0,0.862576027602432,1855.7277448832801,80.6000025792,0.7199994039200001,1.0954500350544,1024,-24.9,98,P-GPS,
0.355951409766142,36.8882830350154,20900,2018-04-05 06:57:03,1855.9277448896798,80.80000258560001,0.0,0.8611350275563201,1855.9277448896798,80.80000258560001,0.7199994039200001,1.0954500350544,1024,-24.9,98,P-GPS,
0.355951528108017,36.8882830470724,21000,2018-04-05 06:57:03,1856.12774489608,81.000002592,0.0,0.856762027416384,1856.12774489608,81.000002592,0.7199994039200001,1.0954500350544,1024,-24.9,98,P-GPS,
0.355951656070739,36.8882830911575,21100,2018-04-05 06:57:03,1856.22774489928,81.1000025952,0.0,0.8553990273727681,1856.22774489928,81.1000025952,0.7199994039200001,1.0954500350544,1024,-24.9,98,P-GPS,
0.355951796833438,36.8882831293661,21200,2018-04-05 06:57:03,1856.22774489928,81.1000025952,0.0,0.853147027300704,1856.22774489928,81.1000025952,0.7199994039200001,1.0954500350544,1024,-24.9,98,P-GPS,
0.355951976753498,36.8882831778674,21300,2018-04-05 06:57:03,1856.22774489928,81.1000025952,0.0,0.850676027221632,1856.22774489928,81.1000025952,0.7199994039200001,1.0954500350544,1024,-24.9,98,P-GPS,
0.35595216509811,36.8882831757722,21400,2018-04-05 06:57:04,1856.22774489928,81.1000025952,0.0,0.84309502697904,1856.22774489928,81.1000025952,0.7199994039200001,1.0954500350544,1024,-24.9,98,P-GPS,
0.355952362199272,36.888283141481,21500,2018-04-05 06:57:04,1856.22774489928,81.1000025952,0.0,0.83226502663248,1856.22774489928,81.1000025952,0.7199994039200001,1.0954500350544,1024,-24.9,98,P-GPS,
0.355952537863393,36.8882830466924,21600,2018-04-05 06:57:04,1856.22774489928,81.1000025952,0.35999970196000003,0.8161870261179841,1856.22774489928,81.1000025952,0.7199994039200001,1.0954500350544,1024,-24.9,98,P-GPS,
0.355952699386718,36.8882829211991,21700,2018-04-05 06:57:04,1856.12774489608,81.000002592,0.35999970196000003,0.7975750255224,1856.22774489928,81.1000025952,0.7199994039200001,1.0954500350544,1024,-24.9,98,P-GPS,
0.355952845283188,36.8882827559919,21800,2018-04-05 06:57:04,1856.12774489608,81.000002592,0.35999970196000003,0.775402024812864,1856.22774489928,81.1000025952,0.7199994039200001,1.0954500350544,1024,-24.9,98,P-GPS,
0.355953007935737,36.8882826139204,21900,2018-04-05 06:57:04,1856.12774489608,81.000002592,0.35999970196000003,0.75538002417216,1856.22774489928,81.1000025952,0.7199994039200001,1.0954500350544,1024,-24.9,98,P-GPS,
0.355953166619157,36.888282454669,22000,2018-04-05 06:57:04,1856.12774489608,81.000002592,0.35999970196000003,0.733847023483104,1856.22774489928,81.1000025952,0.7199994039200001,1.0954500350544,910,-24.9,98,P-GPS,
0.355953318556646,36.8882823124422,22100,2018-04-05 06:57:04,1856.12774489608,81.000002592,0.35999970196000003,0.714554022865728,1856.22774489928,81.1000025952,0.7199994039200001,1.0954500350544,874,-24.9,98,P-GPS,
0.355953452560997,36.8882821598263,22200,2018-04-05 06:57:04,1856.12774489608,81.000002592,0.35999970196000003,0.6947750222328,1856.22774489928,81.1000025952,0.7199994039200001,1.0954500350544,876,-24.9,98,P-GPS,
0.355953616870792,36.8882820329787,22300,2018-04-05 06:57:04,1856.12774489608,81.000002592,0.35999970196000003,0.677352021675264,1856.22774489928,81.1000025952,0.7199994039200001,1.0954500350544,872,-24.9,98,P-GPS,
0.355953795174673,36.8882818896267,22400,2018-04-05 06:57:04,1856.0277448928798,80.9000025888,0.35999970196000003,0.6582120210627841,1856.22774489928,81.1000025952,0.7199994039200001,1.0954500350544,877,-24.9,98,P-GPS,
0.35595395797144,36.8882817445329,22500,2018-04-05 06:57:05,1856.0277448928798,80.9000025888,0.35999970196000003,0.63955502046576,1856.22774489928,81.1000025952,0.7199994039200001,1.0954500350544,877,-24.9,98,P-GPS,
0.355954091660611,36.8882815778805,22600,2018-04-05 06:57:05,1855.9277448896798,80.80000258560001,0.35999970196000003,0.6192750198168001,1856.22774489928,81.1000025952,0.7199994039200001,1.0954500350544,955,-24.9,98,P-GPS,
0.35595422521027,36.8882814506431,22700,2018-04-05 06:57:05,1855.9277448896798,80.80000258560001,0.35999970196000003,0.6036150193156801,1856.22774489928,81.1000025952,0.7199994039200001,1.0954500350544,1013,-24.9,98,P-GPS,
0.355954345214545,36.8882813231296,22800,2018-04-05 06:57:05,1855.82774488648,80.7000025824,0.35999970196000003,0.588336018826752,1856.22774489928,81.1000025952,0.7199994039200001,1.0954500350544,1024,-24.9,98,P-GPS,
0.355954435854263,36.8882811971855,22900,2018-04-05 06:57:05,1855.82774488648,80.7000025824,0.35999970196000003,0.573673018357536,1856.22774489928,81.1000025952,0.7199994039200001,1.0954500350544,1024,-24.9,98,P-GPS,
0.355954514969908,36.8882810424788,23000,2018-04-05 06:57:05,1855.7277448832801,80.6000025792,0.35999970196000003,0.556022017792704,1856.22774489928,81.1000025952,0.7199994039200001,1.0954500350544,1024,-24.9,98,P-GPS,
0.355954588859244,36.8882809034221,23100,2018-04-05 06:57:05,1855.7277448832801,80.6000025792,0.35999970196000003,0.540244017287808,1856.22774489928,81.1000025952,0.7199994039200001,1.0954500350544,1024,-24.9,98,P-GPS,
0.355954663491799,36.8882807699871,23200,2018-04-05 06:57:05,1855.7277448832801,80.6000025792,0.35999970196000003,0.525199016806368,1856.22774489928,81.1000025952,0.7199994039200001,1.0954500350544,1024,-24.9,98,P-GPS,
0.355954734381987,36.8882806632099,23300,2018-04-05 06:57:05,1855.7277448832801,80.6000025792,0.35999970196000003,0.513243016423776,1856.22774489928,81.1000025952,0.7199994039200001,1.0954500350544,1024,-24.9,98,P-GPS,
0.355954805076787,36.8882805520348,23400,2018-04-05 06:57:05,1855.7277448832801,80.6000025792,0.35999970196000003,0.500917016029344,1856.22774489928,81.1000025952,0.7199994039200001,1.0954500350544,1024,-24.9,98,P-GPS,
0.355954884200514,36.888280443564,23500,2018-04-05 06:57:06,1855.7277448832801,80.6000025792,0.35999970196000003,0.489049015649568,1856.22774489928,81.1000025952,0.7199994039200001,1.0954500350544,1024,-24.9,98,P-GPS,
0.3559549573692,36.8882803251858,23600,2018-04-05 06:57:06,1855.7277448832801,80.6000025792,0.35999970196000003,0.476219015239008,1856.22774489928,81.1000025952,0.7199994039200001,1.0954500350544,1024,-24.9,98,P-GPS,
0.355955012476457,36.8882802556355,23700,2018-04-05 06:57:06,1855.7277448832801,80.6000025792,0.35999970196000003,0.468838015002816,1856.22774489928,81.1000025952,0.7199994039200001,1.0954500350544,1024,-24.9,98,P-GPS,
0.355955052217615,36.8882801893784,23800,2018-04-05 06:57:06,1855.7277448832801,80.6000025792,0.35999970196000003,0.461787014777184,1856.22774489928,81.1000025952,0.7199994039200001,1.0954500350544,1024,-24.9,98,P-GPS,
0.355955106896744,36.8882801388783,23900,2018-04-05 06:57:06,1855.62774488008,80.500002576,0.35999970196000003,0.456677014613664,1856.22774489928,81.1000025952,0.7199994039200001,1.0954500350544,1024,-24.9,98,P-GPS,
0.355955159209694,36.8882800739347,24000,2018-04-05 06:57:06,1855.62774488008,80.500002576,0.0,0.450037014401184,1856.22774489928,81.1000025952,0.7199994039200001,1.0954500350544,1024,-24.9,98,P-GPS,
0.355955200941064,36.8882800449108,24100,2018-04-05 06:57:06,1855.62774488008,80.500002576,0.0,0.4473250143144,1856.22774489928,81.1000025952,0.7199994039200001,1.0954500350544,1024,-24.9,98,P-GPS,
0.355955224132906,36.8882800126612,24200,2018-04-05 06:57:06,1855.62774488008,80.500002576,0.0,0.44406101420995203,1856.22774489928,81.1000025952,0.7199994039200001,1.0954500350544,1024,-24.9,98,P-GPS,
0.355955244161342,36.8882800074238,24300,2018-04-05 06:57:06,1855.62774488008,80.500002576,0.0,0.443754014200128,1856.22774489928,81.1000025952,0.7199994039200001,1.0954500350544,1024,-24.9,98,P-GPS,
0.355955248540432,36.8882800028567,24400,2018-04-05 06:57:06,1855.62774488008,80.500002576,0.0,0.443311014185952,1856.22774489928,81.1000025952,0.7199994039200001,1.0954500350544,1024,-24.9,98,P-GPS,
0.355955287070841,36.8882800101764,24600,2018-04-05 06:57:07,1855.62774488008,80.500002576,0.0,0.444676014229632,1856.22774489928,81.1000025952,0.7199994039200001,1.0954500350544,1024,-24.9,98,P-GPS,
0.355955313353215,36.8882800297983,24700,2018-04-05 06:57:07,1855.62774488008,80.500002576,0.0,0.44724001431168,1856.22774489928,81.1000025952,0.7199994039200001,1.0954500350544,1024,-24.9,98,P-GPS,
0.355955332675009,36.8882800501118,24800,2018-04-05 06:57:07,1855.62774488008,80.500002576,0.0,0.449782014393024,1856.22774489928,81.1000025952,0.7199994039200001,1.0954500350544,1024,-24.9,98,P-GPS,
0.35595535054769,36.8882801147791,24900,2018-04-05 06:57:07,1855.62774488008,80.500002576,0.0,0.45718601462995206,1856.22774489928,81.1000025952,0.7199994039200001,1.0954500350544,1024,-24.9,98,P-GPS,
0.355955358472309,36.8882801840114,25000,2018-04-05 06:57:07,1855.52774487688,80.4000025728,0.0,0.46493101487779204,1856.22774489928,81.1000025952,0.7199994039200001,1.0954500350544,1024,-24.9,98,P-GPS,
0.355955365008578,36.8882802884986,25100,2018-04-05 06:57:07,1855.52774487688,80.4000025728,0.0,0.476533015249056,1856.22774489928,81.1000025952,0.7199994039200001,1.0954500350544,1024,-24.9,98,P-GPS,
0.355955363664094,36.8882803767972,25200,2018-04-05 06:57:07,1855.52774487688,80.4000025728,0.0,0.486231015559392,1856.22774489928,81.1000025952,0.7199994039200001,1.0954500350544,1024,-24.9,98,P-GPS,
0.355955357069405,36.8882804731713,25300,2018-04-05 06:57:07,1855.52774487688,80.4000025728,0.0,0.4967430158957761,1856.22774489928,81.1000025952,0.7199994039200001,1.0954500350544,1024,-24.9,98,P-GPS,
0.355955348065127,36.8882805466079,25400,2018-04-05 06:57:08,1855.52774487688,80.4000025728,0.0,0.5047010161504321,1856.22774489928,81.1000025952,0.7199994039200001,1.0954500350544,1024,-24.9,98,P-GPS,
0.355955337459377,36.8882806427444,25500,2018-04-05 06:57:08,1855.52774487688,80.4000025728,0.0,0.515149016484768,1856.22774489928,81.1000025952,0.7199994039200001,1.0954500350544,1024,-24.9,98,P-GPS,
0.355955328108037,36.8882807216892,25600,2018-04-05 06:57:08,1855.52774487688,80.4000025728,0.0,0.523728016759296,1856.22774489928,81.1000025952,0.7199994039200001,1.0954500350544,1024,-24.9,98,P-GPS,
0.355955329574044,36.8882808204368,25700,2018-04-05 06:57:08,1855.62774488008,80.500002576,0.0,0.5346470171087041,1856.22774489928,81.1000025952,0.7199994039200001,1.0954500350544,1024,-24.9,98,P-GPS,
0.355955335209682,36.8882808957148,25800,2018-04-05 06:57:08,1855.62774488008,80.500002576,0.0,0.543033017377056,1856.22774489928,81.1000025952,0.7199994039200001,1.0954500350544,1024,-24.9,98,P-GPS,
0.355955345693502,36.8882809941949,25900,2018-04-05 06:57:08,1855.62774488008,80.500002576,0.0,0.55404501772944,1856.22774489928,81.1000025952,0.7199994039200001,1.0954500350544,1024,-24.9,98,P-GPS,
0.355955352947304,36.8882810710488,26000,2018-04-05 06:57:08,1855.62774488008,80.500002576,0.0,0.562627018004064,1856.22774489928,81.1000025952,0.7199994039200001,1.0954500350544,1024,-24.9,98,P-GPS,
0.355955331967348,36.8882811831125,26100,2018-04-05 06:57:08,1855.62774488008,80.500002576,0.0,0.5747330183914561,1856.22774489928,81.1000025952,0.7199994039200001,1.0954500350544,1024,-24.9,98,P-GPS,
0.355955302086011,36.8882812652959,26200,2018-04-05 06:57:08,1855.62774488008,80.500002576,0.0,0.583454018670528,1856.22774489928,81.1000025952,0.7199994039200001,1.0954500350544,1024,-24.9,98,P-GPS,
0.355955273857138,36.8882813663443,26300,2018-04-05 06:57:08,1855.62774488008,80.500002576,0.0,0.594313019018016,1856.22774489928,81.1000025952,0.7199994039200001,1.0954500350544,1024,-24.9,98,P-GPS,
0.355955246737795,36.8882814437838,26400,2018-04-05 06:57:08,1855.62774488008,80.500002576,0.0,0.602598019283136,1856.22774489928,81.1000025952,0.7199994039200001,1.0954500350544,1024,-24.9,98,P-GPS,
0.355955223150903,36.8882815437958,26500,2018-04-05 06:57:09,1855.62774488008,80.500002576,0.0,0.613442019630144,1856.22774489928,81.1000025952,0.7199994039200001,1.0954500350544,1024,-24.9,98,P-GPS,
0.355955213124777,36.8882816117724,26600,2018-04-05 06:57:09,1855.62774488008,80.500002576,0.0,0.62088001986816,1856.22774489928,81.1000025952,0.7199994039200001,1.0954500350544,1024,-24.9,98,P-GPS,
0.3559551898393,36.888281706547,26700,2018-04-05 06:57:09,1855.62774488008,80.500002576,0.0,0.631177020197664,1856.22774489928,81.1000025952,0.7199994039200001,1.0954500350544,1024,-24.9,98,P-GPS,
0.355955164734546,36.8882817656462,26800,2018-04-05 06:57:09,1855.62774488008,80.500002576,0.0,0.63752002040064,1856.22774489928,81.1000025952,0.7199994039200001,1.0954500350544,1024,-24.9,98,P-GPS,
0.355955157064575,36.8882818461583,27000,2018-04-05 06:57:09,1855.7277448832801,80.6000025792,0.0,0.64639002068448,1856.22774489928,81.1000025952,0.7199994039200001,1.0954500350544,1024,-24.9,98,P-GPS,
0.355955164516284,36.8882819174462,27100,2018-04-05 06:57:09,1855.62774488008,80.500002576,0.0,0.654356020939392,1856.22774489928,81.1000025952,0.7199994039200001,1.0954500350544,1024,-24.9,98,P-GPS,
0.355955181048552,36.8882819676637,27200,2018-04-05 06:57:09,1855.62774488008,80.500002576,0.0,0.660058021121856,1856.22774489928,81.1000025952,0.7199994039200001,1.0954500350544,1024,-24.9,98,P-GPS,
0.355955225891015,36.8882820360406,27300,2018-04-05 06:57:09,1855.62774488008,80.500002576,0.0,0.66802002137664,1856.22774489928,81.1000025952,0.7199994039200001,1.0954500350544,1024,-24.9,98,P-GPS,
0.355955272404057,36.8882820615562,27400,2018-04-05 06:57:09,1855.62774488008,80.500002576,0.0,0.6712770214808641,1856.22774489928,81.1000025952,0.7199994039200001,1.0954500350544,1024,-24.9,98,P-GPS,
0.355955338519189,36.888282106639,27500,2018-04-05 06:57:10,1855.62774488008,80.500002576,0.0,0.6769450216622401,1856.22774489928,81.1000025952,0.7199994039200001,1.0954500350544,1024,-24.9,98,P-GPS,
0.355955394997494,36.8882821134224,27600,2018-04-05 06:57:10,1855.62774488008,80.500002576,0.0,0.678333021706656,1856.22774489928,81.1000025952,0.7199994039200001,1.0954500350544,1024,-24.9,98,P-GPS,
0.355955460703988,36.8882821267749,27700,2018-04-05 06:57:10,1855.62774488008,80.500002576,0.0,0.680622021779904,1856.22774489928,81.1000025952,0.7199994039200001,1.0954500350544,1024,-24.9,98,P-GPS,
0.355955520967306,36.8882821034915,27800,2018-04-05 06:57:10,1855.62774488008,80.500002576,0.0,0.678866021723712,1856.22774489928,81.1000025952,0.7199994039200001,1.0954500350544,1024,-24.9,98,P-GPS,
0.3559555940248,36.8882820978741,27900,2018-04-05 06:57:10,1855.62774488008,80.500002576,0.0,0.679323021738336,1856.22774489928,81.1000025952,0.7199994039200001,1.0954500350544,1024,-24.9,98,P-GPS,
0.355955658039442,36.8882820707858,28000,2018-04-05 06:57:10,1855.62774488008,80.500002576,0.0,0.677367021675744,1856.22774489928,81.1000025952,0.7199994039200001,1.0954500350544,1024,-24.9,98,P-GPS,
0.355955729385441,36.8882820682292,28100,2018-04-05 06:57:10,1855.62774488008,80.500002576,0.0,0.678317021706144,1856.22774489928,81.1000025952,0.7199994039200001,1.0954500350544,1024,-24.9,98,P-GPS,
0.355955794225908,36.8882820437778,28200,2018-04-05 06:57:10,1855.62774488008,80.500002576,0.0,0.67683502165872,1856.22774489928,81.1000025952,0.7199994039200001,1.0954500350544,1024,-24.9,98,P-GPS,
0.355955853160111,36.8882820463141,28300,2018-04-05 06:57:10,1855.62774488008,80.500002576,0.0,0.6782690217046081,1856.22774489928,81.1000025952,0.7199994039200001,1.0954500350544,1024,-24.9,98,P-GPS,
0.355955902297085,36.8882820207011,28400,2018-04-05 06:57:10,1855.62774488008,80.500002576,0.0,0.6764840216474881,1856.22774489928,81.1000025952,0.7199994039200001,1.0954500350544,1024,-24.9,98,P-GPS,
0.355955976490724,36.8882820223134,28500,2018-04-05 06:57:11,1855.62774488008,80.500002576,0.0,0.6782730217047361,1856.22774489928,81.1000025952,0.7199994039200001,1.0954500350544,1024,-24.9,98,P-GPS,
0.355956048763817,36.8882819943162,28600,2018-04-05 06:57:11,1855.62774488008,80.500002576,0.0,0.67689502166064,1856.22774489928,81.1000025952,0.7199994039200001,1.0954500350544,1024,-24.9,98,P-GPS,
0.355956121587629,36.8882819766749,28700,2018-04-05 06:57:11,1855.62774488008,80.500002576,0.0,0.67676002165632,1856.22774489928,81.1000025952,0.7199994039200001,1.0954500350544,1024,-24.9,98,P-GPS,
0.355956184090566,36.8882819226504,28800,2018-04-05 06:57:11,1855.62774488008,80.500002576,0.0,0.6725250215208001,1856.22774489928,81.1000025952,0.7199994039200001,1.0954500350544,1024,-24.9,98,P-GPS,
0.355956268313486,36.8882818654195,28900,2018-04-05 06:57:11,1855.62774488008,80.500002576,0.35999970196000003,0.6686510213968321,1856.22774489928,81.1000025952,0.7199994039200001,1.0954500350544,1024,-24.9,98,P-GPS,
0.355956345190699,36.8882817630575,29000,2018-04-05 06:57:11,1855.62774488008,80.500002576,0.35999970196000003,0.6598930211165761,1856.22774489928,81.1000025952,0.7199994039200001,1.0954500350544,1024,-24.9,98,P-GPS,
0.355956401071976,36.8882816226422,29100,2018-04-05 06:57:11,1855.62774488008,80.500002576,0.7199994039200001,0.646607020691424,1856.22774489928,81.1000025952,0.7199994039200001,1.0954500350544,1024,-24.9,98,P-GPS,
0.355956404390541,36.8882813722293,29200,2018-04-05 06:57:11,1855.62774488008,80.500002576,0.7199994039200001,0.620069019842208,1856.22774489928,81.1000025952,0.7199994039200001,1.0954500350544,1024,-24.9,98,P-GPS,
0.355956341917526,36.8882810017618,29300,2018-04-05 06:57:11,1855.62774488008,80.500002576,1.8359984799959999,0.578694018518208,1856.22774489928,81.1000025952,1.8359984799959999,1.0954500350544,1024,-24.9,98,P-GPS,
0.355956206140105,36.8882804585202,29400,2018-04-05 06:57:11,1855.62774488008,80.500002576,2.627997824308,0.5165790165305281,1856.22774489928,81.1000025952,2.627997824308,1.0954500350544,1024,-24.9,98,P-GPS,
0.355956018223774,36.8882797153337,29500,2018-04-05 06:57:12,1855.62774488008,80.500002576,3.3119972580319996,0.43159401381100804,1856.22774489928,81.1000025952,3.3119972580319996,1.0954500350544,1024,-24.9,98,P-GPS,
0.355955776918398,36.888278769921,29600,2018-04-05 06:57:12,1855.62774488008,80.500002576,4.103996602344,0.323594010355008,1856.22774489928,81.1000025952,4.103996602344,1.0954500350544,1024,-24.9,98,P-GPS,
0.355955469965254,36.8882776328027,29700,2018-04-05 06:57:12,1855.62774488008,80.500002576,4.895995946656,0.193661006197152,1856.22774489928,81.1000025952,4.895995946656,1.0954500350544,1024,-24.9,98,P-GPS,
0.35595509647567,36.8882763298125,29800,2018-04-05 06:57:12,1855.62774488008,80.500002576,4.895995946656,0.0498238015943616,1856.22774489928,81.1000025952,4.895995946656,1.0954500350544,1024,-24.9,98,P-GPS,
0.355954667128395,36.8882748673139,29900,2018-04-05 06:57:12,1855.62774488008,80.500002576,6.0479949929279995,0.131596004211072,1856.22774489928,81.1000025952,6.0479949929279995,1.0954500350544,1024,-24.9,98,P-GPS,
0.3559541707578,36.8882732654106,30000,2018-04-05 06:57:12,1855.62774488008,80.500002576,6.0479949929279995,0.316018010112576,1856.22774489928,81.1000025952,6.0479949929279995,1.0954500350544,1024,-24.9,98,P-GPS,
0.35595363405281,36.8882715230082,30100,2018-04-05 06:57:12,1855.62774488008,80.500002576,7.271993979592,0.5182170165829441,1856.22774489928,81.1000025952,7.271993979592,1.0954500350544,1024,-24.9,98,P-GPS,
