latitude,longitude,time_millisecond,datetime_utc,altitude_m,ascent_m,speed_kph,distance_m,max_altitude_m,max_ascent_m,max_speed_kph,max_distance_m,rc_throttle,gimbal_pitch_degrees,battery_percent,flycState,message
0.353886341316019,36.897184736453795,0,2018-04-15 06:21:03,1769.5814775266192,0.0,0.0,0.0,1769.5814775266192,0.0,0.0,0.0,364,0.0,99,Motors_Started,
0.35388635570606997,36.8971847295593,100,2018-04-15 06:21:03,1769.5814775266192,0.0,0.0,0.0017744400567820803,1769.5814775266192,0.0,0.0,0.0017744400567820803,364,0.0,99,Motors_Started,
0.353886416239506,36.8971847601095,200,2018-04-15 06:21:03,1769.5814775266192,0.0,0.0,0.008737360279595522,1769.5814775266192,0.0,0.0,0.008737360279595522,364,0.0,99,Motors_Started,
0.353886457011062,36.897184782340105,300,2018-04-15 06:21:03,1769.5814775266192,0.0,0.0,0.0138409004429088,1769.5814775266192,0.0,0.0,0.0138409004429088,364,0.0,99,Motors_Started,
0.35388649247791104,36.8971847568921,400,2018-04-15 06:21:03,1769.5814775266192,0.0,0.0,0.016963100542819205,1769.5814775266192,0.0,0.0,0.016963100542819205,364,0.0,99,Motors_Started,
0.353886519980243,36.8971847397697,500,2018-04-15 06:21:03,1769.5814775266192,0.0,0.0,0.019872000635904,1769.5814775266192,0.0,0.0,0.019872000635904,364,0.0,99,Motors_Started,Setting new Return-To-Home altitude to 30m (98 ft). Setting new Maximum Flight Altitude to 150m (492 ft)
0.3538865370926961,36.8971847213686,600,2018-04-15 06:21:03,1769.5814775266192,0.0,0.0,0.0218361006987552,1769.5814775266192,0.0,0.0,0.0218361006987552,364,0.0,99,Motors_Started,
0.353886552644845,36.8971847075367,700,2018-04-15 06:21:03,1769.5814775266192,0.0,0.0,0.023720000759040002,1769.5814775266192,0.0,0.0,0.023720000759040002,364,0.0,99,Motors_Started,
0.353886556890301,36.89718465364079,800,2018-04-15 06:21:03,1769.5814775266192,0.0,0.0,0.025681100821795196,1769.5814775266192,0.0,0.0,0.025681100821795196,364,0.0,99,Motors_Started,
0.35388655997564206,36.8971846083517,900,2018-04-15 06:21:03,1769.5814775266192,0.0,0.0,0.0281818009018176,1769.5814775266192,0.0,0.0,0.0281818009018176,364,0.0,99,Motors_Started,
0.353886562244574,36.8971845831907,1000,2018-04-15 06:21:04,1769.5814775266192,0.0,0.0,0.029901400956844803,1769.5814775266192,0.0,0.0,0.029901400956844803,364,0.0,99,Motors_Started,
0.353886563270799,36.897184547499,1100,2018-04-15 06:21:04,1769.5814775266192,0.0,0.0,0.032415501037296006,1769.5814775266192,0.0,0.0,0.032415501037296006,364,0.0,99,Motors_Started,
0.353886565630719,36.8971845076399,1200,2018-04-15 06:21:04,1769.5814775266192,0.0,0.0,0.035633001140256006,1769.5814775266192,0.0,0.0,0.035633001140256006,364,0.0,99,Motors_Started,
0.35388656197628704,36.897184460108704,1300,2018-04-15 06:21:04,1769.5814775266192,0.0,0.0,0.039325901258428796,1769.5814775266192,0.0,0.0,0.039325901258428796,364,0.0,99,Motors_Started,
0.3538865437593421,36.897184386198894,1400,2018-04-15 06:21:04,1769.5814775266192,0.0,0.0,0.0449879014396128,1769.5814775266192,0.0,0.0,0.0449879014396128,408,0.0,99,Motors_Started,
0.353886525785697,36.897184319376294,1500,2018-04-15 06:21:04,1769.5814775266192,0.0,0.0,0.050714901622876805,1769.5814775266192,0.0,0.0,0.050714901622876805,444,0.0,99,Motors_Started,
0.353886503964904,36.897184265121204,1600,2018-04-15 06:21:04,1769.5814775266192,0.0,0.0,0.0554472017743104,1769.5814775266192,0.0,0.0,0.0554472017743104,519,0.0,99,Assisted_Takeoff,
0.3538864798068351,36.897184210511206,1700,2018-04-15 06:21:04,1769.5814775266192,0.0,0.0,0.060480701935382394,1769.5814775266192,0.0,0.0,0.060480701935382394,792,0.0,99,Assisted_Takeoff,
0.35388647163642295,36.8971841688699,1800,2018-04-15 06:21:04,1769.5814775266192,0.0,0.0,0.06476000207232001,1769.5814775266192,0.0,0.0,0.06476000207232001,1024,0.0,99,Assisted_Takeoff,
0.353886465457496,36.8971841311429,1900,2018-04-15 06:21:05,1769.5814775266192,0.0,0.0,0.0687141021988512,1769.5814775266192,0.0,0.0,0.0687141021988512,1061,0.0,99,Assisted_Takeoff,
0.353886448104084,36.8971840932076,2000,2018-04-15 06:21:05,1769.5814775266192,0.0,0.0,0.0725106023203392,1769.5814775266192,0.0,0.0,0.0725106023203392,1024,0.0,99,Assisted_Takeoff,
0.35388643028234207,36.8971840587026,2100,2018-04-15 06:21:05,1769.5814775266192,0.0,0.0,0.07601520243248641,1769.5814775266192,0.0,0.0,0.07601520243248641,1024,0.0,99,Assisted_Takeoff,
0.353886433525236,36.8971840334319,2200,2018-04-15 06:21:05,1769.5814775266192,0.0,0.0,0.07884850252315201,1769.5814775266192,0.0,0.0,0.07884850252315201,1024,0.0,99,Assisted_Takeoff,
0.353886445941154,36.8971840194424,2300,2018-04-15 06:21:05,1769.5814775266192,0.0,0.0,0.08057890257852479,1769.5814775266192,0.0,0.0,0.08057890257852479,1024,0.0,99,Assisted_Takeoff,
0.35388642920818003,36.8971839881509,2400,2018-04-15 06:21:05,1769.5814775266192,0.0,0.0,0.08378630268116159,1769.5814775266192,0.0,0.0,0.08378630268116159,1024,0.0,99,Assisted_Takeoff,
0.353886413864828,36.8971839603377,2500,2018-04-15 06:21:05,1769.5814775266192,0.0,0.0,0.086683502773872,1769.5814775266192,0.0,0.0,0.086683502773872,1025,0.0,99,Assisted_Takeoff,
0.35388642919978297,36.8971839465515,2600,2018-04-15 06:21:05,1769.5814775266192,0.0,0.0,0.0883823028282336,1769.5814775266192,0.0,0.0,0.0883823028282336,1067,0.0,99,Assisted_Takeoff,
0.35388645801123203,36.8971839495444,2700,2018-04-15 06:21:05,1769.5814775266192,0.0,0.0,0.08846450283086402,1769.5814775266192,0.0,0.0,0.08846450283086402,1171,0.0,99,Assisted_Takeoff,
0.35388647012390395,36.8971839484431,2800,2018-04-15 06:21:05,1769.5814775266192,0.0,0.0,0.0887929028413728,1769.5814775266192,0.0,0.0,0.0887929028413728,1245,0.0,99,Assisted_Takeoff,
0.35388648239936893,36.897183957908794,2900,2018-04-15 06:21:05,1769.5814775266192,0.0,0.0,0.0879874028155968,1769.5814775266192,0.0,0.0,0.0887929028413728,1271,0.0,99,Assisted_Takeoff,
0.353886494935385,36.8971839656771,3000,2018-04-15 06:21:06,1769.5814775266192,0.0,0.0,0.0873993027967776,1769.5814775266192,0.0,0.0,0.0887929028413728,1276,0.0,99,Assisted_Takeoff,
0.353886525548657,36.897183973800296,3100,2018-04-15 06:21:06,1769.5814775266192,0.0,0.0,0.0872497027919904,1769.5814775266192,0.0,0.0,0.0887929028413728,1278,0.0,99,Assisted_Takeoff,
0.353886570258859,36.897183959428396,3200,2018-04-15 06:21:06,1769.5814775266192,0.0,0.0,0.0900811028825952,1769.5814775266192,0.0,0.0,0.0900811028825952,1282,0.0,99,Assisted_Takeoff,
0.35388661718761205,36.8971839583309,3300,2018-04-15 06:21:06,1769.5814775266192,0.0,0.0,0.0918078029378496,1769.5814775266192,0.0,0.0,0.0918078029378496,1287,0.0,99,Assisted_Takeoff,
0.35388665077620396,36.8971839866954,3400,2018-04-15 06:21:06,1769.5814775266192,0.0,0.0,0.09019920288637441,1769.5814775266192,0.0,0.0,0.0918078029378496,1291,0.0,99,Assisted_Takeoff,
0.35388674904460604,36.8971840540815,3500,2018-04-15 06:21:06,1769.5814775266192,0.0,0.503999582744,0.0883971028287072,1769.5814775266192,0.0,0.503999582744,0.0918078029378496,1292,0.0,99,P-GPS,Obstacle Avoided. Revise Flight Route
0.353886894443663,36.8971841363744,3600,2018-04-15 06:21:06,1769.5814775266192,0.0,0.503999582744,0.09075610290419521,1769.5814775266192,0.0,0.503999582744,0.0918078029378496,1291,0.0,99,P-GPS,Home Point Recorded. RTH Altitude:  30m.
0.35388705657924396,36.897184216445496,3700,2018-04-15 06:21:06,1769.6814775298192,0.10000000320000002,0.503999582744,0.09834040314689281,1769.6814775298192,0.10000000320000002,0.503999582744,0.09834040314689281,1291,0.0,99,P-GPS,
0.353887213849995,36.897184295215,3800,2018-04-15 06:21:06,1769.7814775330194,0.20000000640000004,0.503999582744,0.10873200347942404,1769.7814775330194,0.20000000640000004,0.503999582744,0.10873200347942404,1287,0.0,99,P-GPS,
0.35388735112604996,36.897184371636705,3900,2018-04-15 06:21:07,1769.7814775330194,0.20000000640000004,0.35999970196000003,0.11940000382080002,1769.7814775330194,0.20000000640000004,0.503999582744,0.11940000382080002,1279,0.0,99,P-GPS,
0.353887478596346,36.8971844625857,4000,2018-04-15 06:21:07,1769.881477536219,0.3000000096,0.35999970196000003,0.13008800416281602,1769.881477536219,0.3000000096,0.503999582744,0.13008800416281602,1270,0.0,99,P-GPS,
0.35388758951755395,36.897184542297396,4100,2018-04-15 06:21:07,1769.981477539419,0.4000000128000001,0.0,0.140477004495264,1769.981477539419,0.4000000128000001,0.503999582744,0.140477004495264,1270,0.0,99,P-GPS,
0.35388758660441993,36.8971845073809,4200,2018-04-15 06:21:07,1770.1814775458192,0.6000000192,0.0,0.14080700450582403,1770.1814775458192,0.6000000192,0.503999582744,0.14080700450582403,1269,0.0,99,P-GPS,
0.353887597441359,36.8971844767171,4300,2018-04-15 06:21:07,1770.2814775490192,0.7000000224000001,0.0,0.14264400456460802,1770.2814775490192,0.7000000224000001,0.503999582744,0.14264400456460802,1256,0.0,99,P-GPS,
0.35388760347683007,36.8971844820022,4400,2018-04-15 06:21:07,1770.3814775522192,0.8000000256000002,0.0,0.143184004581888,1770.3814775522192,0.8000000256000002,0.503999582744,0.143184004581888,1245,0.0,99,P-GPS,
0.35388760508891404,36.897184505173996,4500,2018-04-15 06:21:07,1770.4814775554191,0.9000000288000001,0.0,0.142873004571936,1770.4814775554191,0.9000000288000001,0.503999582744,0.143184004581888,1241,0.0,99,P-GPS,
0.353887600664431,36.8971845561465,4600,2018-04-15 06:21:07,1770.5814775586193,1.000000032,0.0,0.1414750045272,1770.5814775586193,1.000000032,0.503999582744,0.143184004581888,1231,0.0,99,P-GPS,
0.35388761945000896,36.897184596512396,4700,2018-04-15 06:21:07,1770.681477561819,1.1000000352,0.0,0.142986004575552,1770.681477561819,1.1000000352,0.503999582744,0.143184004581888,1230,0.0,99,P-GPS,
0.35388763584085703,36.897184696093895,4800,2018-04-15 06:21:07,1770.881477568219,1.3000000416000002,0.0,0.144029004608928,1770.881477568219,1.3000000416000002,0.503999582744,0.144029004608928,1216,0.0,99,P-GPS,
0.3538876631633989,36.8971847809616,4900,2018-04-15 06:21:07,1770.9814775714192,1.4000000448000003,0.0,0.147081004706592,1770.9814775714192,1.4000000448000003,0.503999582744,0.147081004706592,1207,0.0,99,P-GPS,
0.353887707015666,36.8971849015916,5000,2018-04-15 06:21:08,1771.0814775746192,1.5000000480000002,0.0,0.15298000489536,1771.0814775746192,1.5000000480000002,0.503999582744,0.15298000489536,1233,0.0,99,P-GPS,
0.353887743142544,36.89718498132721,5100,2018-04-15 06:21:08,1771.1814775778191,1.6000000512000003,0.0,0.158252005064064,1771.1814775778191,1.6000000512000003,0.503999582744,0.158252005064064,1259,0.0,99,P-GPS,
0.35388781854479295,36.897185047571504,5200,2018-04-15 06:21:08,1771.1814775778191,1.6000000512000003,0.0,0.167881005372192,1771.1814775778191,1.6000000512000003,0.503999582744,0.167881005372192,1290,0.0,99,P-GPS,
0.353887871081399,36.8971850986418,5300,2018-04-15 06:21:08,1771.281477581019,1.7000000544000002,0.0,0.17482200559430403,1771.281477581019,1.7000000544000002,0.503999582744,0.17482200559430403,1306,0.0,99,P-GPS,
0.353887883752423,36.8971852317212,5400,2018-04-15 06:21:08,1771.3814775842193,1.8000000576000001,0.0,0.18015400576492802,1771.3814775842193,1.8000000576000001,0.503999582744,0.18015400576492802,1307,0.0,99,P-GPS,
0.353887907260386,36.897185333892295,5500,2018-04-15 06:21:08,1771.4814775874192,1.9000000607999998,0.0,0.186386005964352,1771.4814775874192,1.9000000607999998,0.503999582744,0.186386005964352,1307,0.0,99,P-GPS,
0.35388795413886204,36.897185471213604,5600,2018-04-15 06:21:08,1771.581477590619,2.000000064,0.0,0.19709100630691198,1771.581477590619,2.000000064,0.503999582744,0.19709100630691198,1320,0.0,99,P-GPS,
0.35388798912898295,36.897185577041505,5700,2018-04-15 06:21:08,1771.6814775938192,2.1000000672,0.0,0.205712006582784,1771.6814775938192,2.1000000672,0.503999582744,0.205712006582784,1327,0.0,99,P-GPS,
0.353887991969499,36.8971856307393,5800,2018-04-15 06:21:08,1771.8814776002191,2.3000000736,0.0,0.208771006680672,1771.8814776002191,2.3000000736,0.503999582744,0.208771006680672,1331,0.0,99,P-GPS,
0.35388800326443703,36.8971856747022,5900,2018-04-15 06:21:09,1771.981477603419,2.4000000768,0.0,0.21223600679155202,1771.981477603419,2.4000000768,0.503999582744,0.21223600679155202,1336,0.0,99,P-GPS,
0.35388803949813,36.8971856751338,6000,2018-04-15 06:21:09,1772.1814776098192,2.6000000832000003,0.0,0.21577700690486404,1772.1814776098192,2.6000000832000003,0.503999582744,0.21577700690486404,1363,0.0,99,P-GPS,
0.35388806325310795,36.897185685567,6100,2018-04-15 06:21:09,1772.381477616219,2.8000000896000006,0.0,0.21865100699683201,1772.381477616219,2.8000000896000006,0.503999582744,0.21865100699683201,1379,0.0,99,P-GPS,
0.35388815225027004,36.8971856753202,6300,2018-04-15 06:21:09,1772.681477625819,3.1000000992,0.0,0.22684200725894402,1772.681477625819,3.1000000992,0.503999582744,0.22684200725894402,1414,0.0,99,P-GPS,
0.353888180925743,36.8971856602501,6400,2018-04-15 06:21:09,1772.8814776322192,3.3000001056,0.0,0.228921007325472,1772.8814776322192,3.3000001056,0.503999582744,0.228921007325472,1445,0.0,99,P-GPS,
0.35388818658448495,36.897185644219,6500,2018-04-15 06:21:09,1773.0814776386192,3.500000112,0.0,0.228691007318112,1773.0814776386192,3.500000112,0.503999582744,0.228921007325472,1467,0.0,99,P-GPS,
0.353888195929616,36.8971856001639,6600,2018-04-15 06:21:09,1773.2814776450193,3.7000001184,0.0,0.227513007280416,1773.2814776450193,3.7000001184,0.503999582744,0.228921007325472,1482,0.0,99,P-GPS,
0.35388819760314705,36.8971855683864,6700,2018-04-15 06:21:09,1773.481477651419,3.9000001248,0.0,0.22621300723881602,1773.481477651419,3.9000001248,0.503999582744,0.228921007325472,1482,0.0,99,P-GPS,
0.353888189642702,36.8971855117835,6800,2018-04-15 06:21:09,1773.7814776610192,4.2000001344,0.0,0.22289600713267202,1773.7814776610192,4.2000001344,0.503999582744,0.228921007325472,1500,0.0,99,P-GPS,
0.353888188638461,36.897185454508,6900,2018-04-15 06:21:09,1774.0814776706193,4.5000001439999995,0.0,0.22040700705302405,1774.0814776706193,4.5000001439999995,0.503999582744,0.228921007325472,1519,0.0,99,P-GPS,
0.353888188753979,36.8971854144797,7000,2018-04-15 06:21:10,1774.281477677019,4.700000150400001,0.0,0.21884500700304005,1774.281477677019,4.700000150400001,0.503999582744,0.228921007325472,1537,0.0,99,P-GPS,
0.35388817683957,36.8971853748231,7100,2018-04-15 06:21:10,1774.681477689819,5.1000001632,0.0,0.21611300691561602,1774.681477689819,5.1000001632,0.503999582744,0.228921007325472,1547,0.0,99,P-GPS,
0.35388819157841295,36.8971853475574,7200,2018-04-15 06:21:10,1774.9814776994192,5.4000001727999996,0.0,0.216692006934144,1774.9814776994192,5.4000001727999996,0.503999582744,0.228921007325472,1562,0.0,99,P-GPS,
0.35388818650642107,36.8971853007926,7300,2018-04-15 06:21:10,1775.281477709019,5.7000001824,0.0,0.21457900686652803,1775.281477709019,5.7000001824,0.503999582744,0.228921007325472,1584,0.0,99,P-GPS,
0.353888177690534,36.897185285628794,7400,2018-04-15 06:21:10,1775.5814777186192,6.000000192000001,0.0,0.21315200682086402,1775.5814777186192,6.000000192000001,0.503999582744,0.228921007325472,1596,0.0,99,P-GPS,
0.353888146916505,36.8971852592164,7500,2018-04-15 06:21:10,1775.9814777314193,6.400000204800001,0.0,0.20904000668928,1775.9814777314193,6.400000204800001,0.503999582744,0.228921007325472,1611,0.0,99,P-GPS,
0.35388815682161706,36.8971853115798,7600,2018-04-15 06:21:10,1776.3814777442192,6.800000217600001,0.0,0.21178300677705603,1776.3814777442192,6.800000217600001,0.503999582744,0.228921007325472,1619,0.0,99,P-GPS,
0.353888128452901,36.8971853304313,7700,2018-04-15 06:21:10,1776.7814777570193,7.200000230400001,0.0,0.20943000670176,1776.7814777570193,7.200000230400001,0.503999582744,0.228921007325472,1627,0.0,99,P-GPS,
0.35388807237957,36.8971852853059,7800,2018-04-15 06:21:10,1777.1814777698191,7.600000243199999,0.0,0.20194900646236802,1777.1814777698191,7.600000243199999,0.503999582744,0.228921007325472,1644,0.0,99,P-GPS,
0.35388799527544396,36.897185230051,7900,2018-04-15 06:21:10,1777.5814777826192,8.000000256,0.0,0.19194600614227197,1777.5814777826192,8.000000256,0.503999582744,0.228921007325472,1660,0.0,99,P-GPS,
0.35388792133609703,36.897185159056605,8000,2018-04-15 06:21:11,1777.981477795419,8.4000002688,0.0,0.18188400582028805,1777.981477795419,8.4000002688,0.503999582744,0.228921007325472,1670,0.0,99,P-GPS,
0.35388783203039603,36.897185091868295,8100,2018-04-15 06:21:11,1778.4814778114192,8.9000002848,0.0,0.170423005453536,1778.4814778114192,8.9000002848,0.503999582744,0.228921007325472,1676,0.0,99,P-GPS,
0.353887775152307,36.8971850418154,8200,2018-04-15 06:21:11,1778.881477824219,9.3000002976,0.0,0.163027005216864,1778.881477824219,9.3000002976,0.503999582744,0.228921007325472,1684,0.0,99,P-GPS,
0.3538877222016189,36.8971849985205,8300,2018-04-15 06:21:11,1779.3814778402193,9.8000003136,0.0,0.15630400500172803,1779.3814778402193,9.8000003136,0.503999582744,0.228921007325472,1684,0.0,99,P-GPS,
0.353887660210318,36.897184948496,8400,2018-04-15 06:21:11,1779.8814778562191,10.300000329600001,0.0,0.148552004753664,1779.8814778562191,10.300000329600001,0.503999582744,0.228921007325472,1684,0.0,99,P-GPS,
0.353887578278619,36.8971848825093,8500,2018-04-15 06:21:11,1780.3814778722192,10.800000345599999,0.0,0.13851300443241601,1780.3814778722192,10.800000345599999,0.503999582744,0.228921007325472,1684,0.0,99,P-GPS,
0.3538874648890711,36.8971847877473,8600,2018-04-15 06:21:11,1780.8814778882193,11.3000003616,0.0,0.125078004002496,1780.8814778882193,11.3000003616,0.503999582744,0.228921007325472,1684,0.0,99,P-GPS,
0.3538873631190179,36.8971847230067,8700,2018-04-15 06:21:11,1781.381477904219,11.8000003776,0.0,0.11364100363651201,1781.381477904219,11.8000003776,0.503999582744,0.228921007325472,1684,0.0,99,P-GPS,
0.35388723366288105,36.897184712484396,8800,2018-04-15 06:21:11,1781.7814779170192,12.2000003904,0.0,0.09927020317664641,1781.7814779170192,12.2000003904,0.503999582744,0.228921007325472,1684,0.0,99,P-GPS,
0.35388711977089293,36.897184683706705,8900,2018-04-15 06:21:11,1782.281477933019,12.700000406400001,0.0,0.08676740277655681,1782.281477933019,12.700000406400001,0.503999582744,0.228921007325472,1684,0.0,99,P-GPS,
0.35388703935394505,36.897184679599206,9000,2018-04-15 06:21:12,1782.7814779490193,13.2000004224,0.0,0.0778831024922592,1782.7814779490193,13.2000004224,0.503999582744,0.228921007325472,1684,0.0,99,P-GPS,
0.353886931352779,36.897184656174396,9100,2018-04-15 06:21:12,1783.2814779650191,13.7000004384,0.0,0.0662202021190464,1783.2814779650191,13.7000004384,0.503999582744,0.228921007325472,1684,0.0,99,P-GPS,
0.353886786190686,36.8971846257989,9200,2018-04-15 06:21:12,1783.7814779810192,14.200000454400003,0.0,0.0509801016313632,1783.7814779810192,14.200000454400003,0.503999582744,0.228921007325472,1684,0.0,99,P-GPS,
0.353886629645871,36.8971845997534,9300,2018-04-15 06:21:12,1784.281477997019,14.7000004704,0.0,0.0354851011355232,1784.281477997019,14.7000004704,0.503999582744,0.228921007325472,1684,0.0,99,P-GPS,
0.35388647083604297,36.8971846135508,9400,2018-04-15 06:21:12,1784.7814780130193,15.200000486399999,0.0,0.0198558006353856,1784.7814780130193,15.200000486399999,0.503999582744,0.228921007325472,1684,0.0,99,P-GPS,
0.353886328845802,36.897184614554604,9500,2018-04-15 06:21:12,1785.2814780290191,15.700000502400002,0.0,0.0136264004360448,1785.2814780290191,15.700000502400002,0.503999582744,0.228921007325472,1684,0.0,99,P-GPS,
0.353886193322215,36.8971846439313,9600,2018-04-15 06:21:12,1785.781478045019,16.2000005184,0.0,0.0194093006210976,1785.781478045019,16.2000005184,0.503999582744,0.228921007325472,1684,-0.2,99,P-GPS,
0.353886065366617,36.8971846684952,9700,2018-04-15 06:21:12,1786.2814780610192,16.7000005344,0.0,0.0316041010113312,1786.2814780610192,16.7000005344,0.503999582744,0.228921007325472,1684,-1.0,99,P-GPS,
0.35388596381929205,36.897184725053,9800,2018-04-15 06:21:12,1786.781478077019,17.2000005504,0.0,0.0419991013439712,1786.781478077019,17.2000005504,0.503999582744,0.228921007325472,1684,-2.4,99,P-GPS,
0.353885867930606,36.8971847858979,9900,2018-04-15 06:21:12,1787.3814780962193,17.8000005696,0.0,0.0529297016937504,1787.3814780962193,17.8000005696,0.503999582744,0.228921007325472,1684,-3.8,99,P-GPS,
0.353885805155719,36.8971848648729,10000,2018-04-15 06:21:13,1787.8814781122192,18.3000005856,0.0,0.06131060196193921,1787.8814781122192,18.3000005856,0.503999582744,0.228921007325472,1684,-5.2,99,P-GPS,
0.353885747249573,36.897184952182,10100,2018-04-15 06:21:13,1788.3814781282192,18.800000601600004,0.0,0.0702847022491104,1788.3814781282192,18.800000601600004,0.503999582744,0.228921007325472,1684,-6.6,99,P-GPS,
0.353885689122977,36.8971850513099,10200,2018-04-15 06:21:13,1788.881478144219,19.300000617600002,0.0,0.080537002577184,1788.881478144219,19.300000617600002,0.503999582744,0.228921007325472,1684,-8.1,99,P-GPS,
0.353885624709875,36.897185143702295,10300,2018-04-15 06:21:13,1789.3814781602193,19.800000633599996,0.0,0.09166040293313281,1789.3814781602193,19.800000633599996,0.503999582744,0.228921007325472,1684,-9.5,99,P-GPS,
0.3538855498787,36.8971852498631,10400,2018-04-15 06:21:13,1789.8814781762192,20.3000006496,0.0,0.104909003357088,1789.8814781762192,20.3000006496,0.503999582744,0.228921007325472,1684,-10.8,99,P-GPS,
0.353885485442698,36.8971853412039,10500,2018-04-15 06:21:13,1790.381478192219,20.800000665600002,0.0,0.11654000372928,1790.381478192219,20.800000665600002,0.503999582744,0.228921007325472,1684,-12.1,99,P-GPS,
0.35388539981605893,36.897185402119796,10600,2018-04-15 06:21:13,1790.8814782082193,21.300000681600004,0.0,0.128226004103232,1790.8814782082193,21.300000681600004,0.503999582744,0.228921007325472,1684,-12.1,99,P-GPS,
0.353885328432606,36.8971854565602,10700,2018-04-15 06:21:13,1791.381478224219,21.8000006976,0.0,0.138203004422496,1791.381478224219,21.8000006976,0.503999582744,0.228921007325472,1684,-13.4,99,P-GPS,
0.35388528892573995,36.8971854888412,10800,2018-04-15 06:21:13,1791.8814782402192,22.3000007136,0.0,0.143864004603648,1791.8814782402192,22.3000007136,0.503999582744,0.228921007325472,1684,-14.7,99,P-GPS,
0.353885263222991,36.897185528087,10900,2018-04-15 06:21:14,1792.4814782594192,22.900000732800002,0.0,0.14874000475968,1792.4814782594192,22.900000732800002,0.503999582744,0.228921007325472,1684,-15.9,99,P-GPS,
0.3538852383621471,36.8971856152604,11000,2018-04-15 06:21:14,1792.981478275419,23.400000748800004,0.0,0.15682700501846403,1792.981478275419,23.400000748800004,0.503999582744,0.228921007325472,1684,-17.1,99,P-GPS,
0.353885210685317,36.897185702539396,11100,2018-04-15 06:21:14,1793.481478291419,23.9000007648,0.0,0.16538000529216,1793.481478291419,23.9000007648,0.503999582744,0.228921007325472,1684,-18.3,99,P-GPS,
0.35388521611393803,36.8971857833933,11200,2018-04-15 06:21:14,1793.9814783074191,24.4000007808,0.0,0.17091500546928,1793.9814783074191,24.4000007808,0.503999582744,0.228921007325472,1684,-19.5,99,P-GPS,
0.35388524268017,36.8971858630163,11300,2018-04-15 06:21:14,1794.5814783266192,25.000000800000002,0.0,0.17499000559968,1794.5814783266192,25.000000800000002,0.503999582744,0.228921007325472,1684,-20.4,99,P-GPS,
0.353885297563007,36.8971859603687,11400,2018-04-15 06:21:14,1795.0814783426192,25.500000816,0.0,0.17887700572406404,1795.0814783426192,25.500000816,0.503999582744,0.228921007325472,1684,-20.4,99,P-GPS,
0.353885343828323,36.897186033328204,11500,2018-04-15 06:21:14,1795.581478358619,26.000000832,0.0,0.18194400582220802,1795.581478358619,26.000000832,0.503999582744,0.228921007325472,1684,-20.4,99,P-GPS,
0.35388538240595707,36.8971861103117,11600,2018-04-15 06:21:14,1796.081478374619,26.500000848000003,0.0,0.186313005962016,1796.081478374619,26.500000848000003,0.503999582744,0.228921007325472,1684,-20.3,99,P-GPS,
0.353885423560808,36.8971861734502,11700,2018-04-15 06:21:14,1796.6814783938191,27.100000867200002,0.0,0.189611006067552,1796.6814783938191,27.100000867200002,0.503999582744,0.228921007325472,1684,-20.4,99,P-GPS,
0.353885487805163,36.897186301833,11800,2018-04-15 06:21:14,1797.1814784098192,27.6000008832,0.0,0.198271006344672,1797.1814784098192,27.6000008832,0.503999582744,0.228921007325472,1684,-20.4,99,P-GPS,
0.353885586119416,36.8971865584114,12000,2018-04-15 06:21:15,1798.1814784418193,28.600000915200003,0.0,0.21932500701840002,1798.1814784418193,28.600000915200003,0.503999582744,0.228921007325472,1684,-20.4,99,P-GPS,
0.35388562728933,36.8971866729814,12100,2018-04-15 06:21:15,1798.781478461019,29.200000934400002,0.0,0.22952200734470404,1798.781478461019,29.200000934400002,0.503999582744,0.22952200734470404,1684,-20.4,99,P-GPS,
0.353885711721709,36.8971868300529,12200,2018-04-15 06:21:15,1799.2814784770192,29.7000009504,0.0,0.243116007779712,1799.2814784770192,29.7000009504,0.503999582744,0.243116007779712,1684,-20.4,99,P-GPS,
0.353885788664466,36.897186940664,12300,2018-04-15 06:21:15,1799.7814784930192,30.200000966400005,0.0,0.25270400808652804,1799.7814784930192,30.200000966400005,0.503999582744,0.25270400808652804,1684,-20.4,99,P-GPS,
0.35388585520625004,36.8971870440659,12400,2018-04-15 06:21:15,1800.281478509019,30.700000982400002,0.0,0.262248008391936,1800.281478509019,30.700000982400002,0.503999582744,0.262248008391936,1684,-20.4,99,P-GPS,
0.353885915332677,36.897187119509894,12500,2018-04-15 06:21:15,1800.7814785250193,31.2000009984,0.0,0.269206008614592,1800.7814785250193,31.2000009984,0.503999582744,0.269206008614592,1684,-20.4,99,P-GPS,
0.35388600153171396,36.8971872127262,12600,2018-04-15 06:21:15,1801.2814785410192,31.7000010144,0.0,0.277952008894464,1801.2814785410192,31.7000010144,0.503999582744,0.277952008894464,1684,-20.4,99,P-GPS,
0.353886072680061,36.8971872825186,12700,2018-04-15 06:21:15,1801.881478560219,32.300001033600005,0.0,0.284704009110528,1801.881478560219,32.300001033600005,0.503999582744,0.284704009110528,1684,-20.4,99,P-GPS,
0.35388616821425395,36.897187346061294,12800,2018-04-15 06:21:15,1802.3814785762193,32.800001049600006,0.0,0.290836009306752,1802.3814785762193,32.800001049600006,0.503999582744,0.290836009306752,1684,-20.4,99,P-GPS,
0.353886240515336,36.8971873922064,12900,2018-04-15 06:21:15,1802.881478592219,33.3000010656,0.0,0.29554300945737605,1802.881478592219,33.3000010656,0.503999582744,0.29554300945737605,1684,-20.4,99,P-GPS,
0.353886287350199,36.897187477821,13000,2018-04-15 06:21:16,1803.3814786082191,33.800001081599994,0.0,0.30491000975712,1803.3814786082191,33.800001081599994,0.503999582744,0.30491000975712,1684,-20.4,99,P-GPS,
0.35388631425545297,36.897187543468206,13100,2018-04-15 06:21:16,1803.9814786274192,34.4000011008,0.0,0.312166009989312,1803.9814786274192,34.4000011008,0.503999582744,0.312166009989312,1684,-20.4,99,P-GPS,
0.353886340055705,36.8971876144641,13200,2018-04-15 06:21:16,1804.481478643419,34.9000011168,0.0,0.320046010241472,1804.481478643419,34.9000011168,0.503999582744,0.320046010241472,1684,-20.4,99,P-GPS,
0.353886354024294,36.8971876626899,13300,2018-04-15 06:21:16,1804.981478659419,35.40000113280001,0.0,0.325412010413184,1804.981478659419,35.40000113280001,0.503999582744,0.325412010413184,1684,-20.4,99,P-GPS,
0.353886384068425,36.8971876714916,13400,2018-04-15 06:21:16,1805.481478675419,35.9000011488,0.0,0.326422010445504,1805.481478675419,35.9000011488,0.503999582744,0.326422010445504,1684,-20.4,99,P-GPS,
0.35388640193952897,36.8971876719433,13500,2018-04-15 06:21:16,1805.9814786914192,36.4000011648,0.0,0.326508010448256,1805.9814786914192,36.4000011648,0.503999582744,0.326508010448256,1684,-20.4,99,P-GPS,
0.35388644410895104,36.8971877249961,13600,2018-04-15 06:21:16,1806.481478707419,36.900001180800004,0.0,0.33253401064108806,1806.481478707419,36.900001180800004,0.503999582744,0.33253401064108806,1684,-20.4,99,P-GPS,
0.353886468510065,36.897187763377794,13700,2018-04-15 06:21:16,1807.0814787266193,37.5000012,0.0,0.336903010780896,1807.0814787266193,37.5000012,0.503999582744,0.336903010780896,1684,-20.5,99,P-GPS,
0.353886559408791,36.897187825997,13800,2018-04-15 06:21:16,1807.4814787394191,37.90000121280001,0.0,0.344424011021568,1807.4814787394191,37.90000121280001,0.503999582744,0.344424011021568,1684,-20.6,99,P-GPS,
0.353886622929964,36.8971878668384,13900,2018-04-15 06:21:17,1807.981478755419,38.4000012288,0.0,0.34951701118454404,1807.981478755419,38.4000012288,0.503999582744,0.34951701118454404,1684,-20.7,99,P-GPS,
0.353886709717073,36.897187936163895,14000,2018-04-15 06:21:17,1808.4814787714192,38.9000012448,0.0,0.358171011461472,1808.4814787714192,38.9000012448,0.503999582744,0.358171011461472,1684,-20.9,99,P-GPS,
0.353886752793589,36.897187972008794,14100,2018-04-15 06:21:17,1809.081478790619,39.500001264000005,0.0,0.36270501160656005,1809.081478790619,39.500001264000005,0.503999582744,0.36270501160656005,1684,-21.2,99,P-GPS,
0.35388682961859,36.89718802612,14200,2018-04-15 06:21:17,1809.5814788066193,40.00000128,0.0,0.369832011834624,1809.5814788066193,40.00000128,0.503999582744,0.369832011834624,1684,-21.4,99,P-GPS,
0.3538868638317151,36.8971880672116,14300,2018-04-15 06:21:17,1810.0814788226191,40.500001296,0.0,0.37492401199756803,1810.0814788226191,40.500001296,0.503999582744,0.37492401199756803,1684,-21.7,99,P-GPS,
0.35388692171045705,36.897188125804604,14400,2018-04-15 06:21:17,1810.5814788386192,41.000001311999995,0.0,0.382396012236672,1810.5814788386192,41.000001311999995,0.503999582744,0.382396012236672,1684,-22.0,99,P-GPS,
0.353886957680367,36.8971881594144,14500,2018-04-15 06:21:17,1811.1814788578192,41.600001331200005,0.0,0.38676901237660805,1811.1814788578192,41.600001331200005,0.503999582744,0.38676901237660805,1684,-22.2,99,P-GPS,
0.353887007312491,36.89718817068189,14600,2018-04-15 06:21:17,1811.681478873819,42.1000013472,0.0,0.38901501244848,1811.681478873819,42.1000013472,0.503999582744,0.38901501244848,1684,-22.5,99,P-GPS,
0.35388705080489596,36.897188161414796,14700,2018-04-15 06:21:17,1812.1814788898191,42.60000136320001,0.0,0.388956012446592,1812.1814788898191,42.60000136320001,0.503999582744,0.38901501244848,1684,-22.7,99,P-GPS,
0.35388718485143295,36.897188185069396,14800,2018-04-15 06:21:17,1812.6814789058192,43.1000013792,0.0,0.394806012633792,1812.6814789058192,43.1000013792,0.503999582744,0.394806012633792,1684,-23.0,99,P-GPS,
0.35388728822188503,36.8971881918251,14900,2018-04-15 06:21:17,1813.1814789218192,43.6000013952,0.0,0.39841901274940805,1813.1814789218192,43.6000013952,0.503999582744,0.39841901274940805,1684,-23.0,99,P-GPS,
0.353887381189327,36.897188201240795,15000,2018-04-15 06:21:18,1813.681478937819,44.100001411200004,0.0,0.40227801287289605,1813.681478937819,44.100001411200004,0.503999582744,0.40227801287289605,1684,-23.3,99,P-GPS,
0.35388742486896596,36.8971881960746,15100,2018-04-15 06:21:18,1814.1814789538194,44.6000014272,0.0,0.403152012900864,1814.1814789538194,44.6000014272,0.503999582744,0.403152012900864,1684,-23.5,99,P-GPS,
0.353887450568585,36.897188238789,15200,2018-04-15 06:21:18,1814.6814789698192,45.10000144320001,0.0,0.408542013073344,1814.6814789698192,45.10000144320001,0.503999582744,0.408542013073344,1684,-23.7,99,P-GPS,
0.35388744969591795,36.8971882712669,15300,2018-04-15 06:21:18,1815.181478985819,45.6000014592,0.0,0.41195701318262395,1815.181478985819,45.6000014592,0.503999582744,0.41195701318262395,1684,-24.0,99,P-GPS,
0.353887471596734,36.8971883141178,15400,2018-04-15 06:21:18,1815.7814790050193,46.20000147840001,0.0,0.4172340133514881,1815.7814790050193,46.20000147840001,0.503999582744,0.4172340133514881,1684,-24.2,99,P-GPS,
0.353887475695451,36.89718834072,15500,2018-04-15 06:21:18,1816.281479021019,46.7000014944,0.0,0.420192013446144,1816.281479021019,46.7000014944,0.503999582744,0.420192013446144,1684,-24.3,99,P-GPS,
0.353887485532601,36.8971883661007,15600,2018-04-15 06:21:18,1816.6814790338192,47.1000015072,0.0,0.4232130135428161,1816.6814790338192,47.1000015072,0.503999582744,0.4232130135428161,1684,-24.5,99,P-GPS,
0.353887486010651,36.897188379349,15700,2018-04-15 06:21:18,1817.181479049819,47.60000152320001,0.0,0.42463401358828806,1817.181479049819,47.60000152320001,0.503999582744,0.42463401358828806,1684,-24.5,99,P-GPS,
0.35388753878447493,36.897188377102104,15800,2018-04-15 06:21:18,1817.6814790658193,48.1000015392,0.0,0.4261930136381761,1817.6814790658193,48.1000015392,0.503999582744,0.4261930136381761,1684,-24.5,99,P-GPS,
0.353887585241871,36.897188363478996,15900,2018-04-15 06:21:19,1818.1814790818191,48.6000015552,0.0,0.426402013644864,1818.1814790818191,48.6000015552,0.503999582744,0.426402013644864,1684,-24.5,99,P-GPS,
0.353887641744526,36.897188342350795,16000,2018-04-15 06:21:19,1818.681479097819,49.1000015712,0.0,0.426271013640672,1818.681479097819,49.1000015712,0.503999582744,0.426402013644864,1684,-24.5,99,P-GPS,
0.35388766514206105,36.8971883136556,16100,2018-04-15 06:21:19,1819.1814791138193,49.6000015872,0.0,0.424166013573312,1819.1814791138193,49.6000015872,0.503999582744,0.426402013644864,1684,-24.5,99,P-GPS,
0.35388765717179405,36.8971883025101,16200,2018-04-15 06:21:19,1819.681479129819,50.100001603200006,0.0,0.42269701352630396,1819.681479129819,50.100001603200006,0.503999582744,0.426402013644864,1684,-24.5,99,P-GPS,
0.353887627941555,36.897188301837296,16300,2018-04-15 06:21:19,1820.1814791458191,50.6000016192,0.0,0.42151201348838396,1820.1814791458191,50.6000016192,0.503999582744,0.426402013644864,1684,-24.5,99,P-GPS,
0.35388764059616795,36.8971883652067,16400,2018-04-15 06:21:19,1820.7814791650192,51.20000163840001,0.0,0.428619013715808,1820.7814791650192,51.20000163840001,0.503999582744,0.428619013715808,1684,-24.5,99,P-GPS,
0.3538876515276071,36.8971884123189,16500,2018-04-15 06:21:19,1821.2814791810192,51.700001654400005,0.0,0.433962013886784,1821.2814791810192,51.700001654400005,0.503999582744,0.433962013886784,1684,-24.5,99,P-GPS,
0.35388768629300393,36.8971884647099,16600,2018-04-15 06:21:19,1821.781479197019,52.200001670400006,0.0,0.440751014104032,1821.781479197019,52.200001670400006,0.503999582744,0.440751014104032,1684,-24.5,99,P-GPS,
0.35388770571749106,36.8971885030206,16700,2018-04-15 06:21:19,1822.2814792130193,52.7000016864,0.0,0.445492014255744,1822.2814792130193,52.7000016864,0.503999582744,0.445492014255744,1684,-24.5,99,P-GPS,
0.353887728070582,36.8971885197937,16800,2018-04-15 06:21:19,1822.7814792290192,53.2000017024,0.0,0.4480960143390721,1822.7814792290192,53.2000017024,0.503999582744,0.4480960143390721,1684,-24.5,99,P-GPS,
0.35388772927089795,36.8971885223631,16900,2018-04-15 06:21:20,1823.281479245019,53.7000017184,0.0,0.44841001434912003,1823.281479245019,53.7000017184,0.503999582744,0.44841001434912003,1684,-24.5,99,P-GPS,
0.353887697727072,36.897188557751704,17100,2018-04-15 06:21:20,1824.2814792770191,54.700001750400006,0.0,0.450921014429472,1824.2814792770191,54.700001750400006,0.503999582744,0.450921014429472,1684,-24.5,99,P-GPS,
0.353887681888521,36.897188601069395,17200,2018-04-15 06:21:20,1824.7814792930192,55.2000017664,0.0,0.45488301455625607,1824.7814792930192,55.2000017664,0.503999582744,0.45488301455625607,1684,-24.5,99,P-GPS,
0.353887661498163,36.8971886262038,17300,2018-04-15 06:21:20,1825.2814793090192,55.7000017824,0.0,0.45679101461731203,1825.2814793090192,55.7000017824,0.503999582744,0.45679101461731203,1684,-24.5,99,P-GPS,
0.35388766802349103,36.897188644930104,17400,2018-04-15 06:21:20,1825.7814793250193,56.2000017984,0.0,0.458996014687872,1825.7814793250193,56.2000017984,0.503999582744,0.458996014687872,1684,-24.5,99,P-GPS,
0.353887665374368,36.89718865275729,17500,2018-04-15 06:21:20,1826.2814793410191,56.700001814400004,0.0,0.45972601471123203,1826.2814793410191,56.700001814400004,0.503999582744,0.45972601471123203,1684,-24.5,99,P-GPS,
0.35388771748732395,36.8971886633862,17600,2018-04-15 06:21:20,1826.8814793602191,57.3000018336,0.0,0.46273001480736003,1826.8814793602191,57.3000018336,0.503999582744,0.46273001480736003,1684,-24.5,99,P-GPS,
0.35388774116210103,36.8971886713736,17700,2018-04-15 06:21:20,1827.3814793762192,57.8000018496,0.0,0.46444501486224005,1827.3814793762192,57.8000018496,0.503999582744,0.46444501486224005,1684,-24.5,99,P-GPS,
0.353887766367717,36.8971887232095,17800,2018-04-15 06:21:20,1827.881479392219,58.30000186560001,0.0,0.47081601506611204,1827.881479392219,58.30000186560001,0.503999582744,0.47081601506611204,1684,-24.5,99,P-GPS,
0.353887777664589,36.8971887671345,17900,2018-04-15 06:21:21,1828.3814794082193,58.8000018816,0.0,0.47583801522681607,1828.3814794082193,58.8000018816,0.503999582744,0.47583801522681607,1684,-24.5,99,P-GPS,
0.35388779637363,36.897188842118,18000,2018-04-15 06:21:21,1828.8814794242192,59.30000189760001,0.0,0.48439201550054406,1828.8814794242192,59.30000189760001,0.503999582744,0.48439201550054406,1684,-24.5,99,P-GPS,
0.35388779276011295,36.8971888961396,18100,2018-04-15 06:21:21,1829.381479440219,59.800001913600006,0.0,0.48992601567763205,1829.381479440219,59.800001913600006,0.503999582744,0.48992601567763205,1684,-24.5,99,P-GPS,
0.35388779631520895,36.8971889685973,18200,2018-04-15 06:21:21,1829.8814794562193,60.30000192960001,0.0,0.4976690159254081,1829.8814794562193,60.30000192960001,0.503999582744,0.4976690159254081,1684,-24.5,99,P-GPS,
0.353887796869796,36.8971890228592,18300,2018-04-15 06:21:21,1830.381479472219,60.800001945599995,0.0,0.503399016108768,1830.381479472219,60.800001945599995,0.503999582744,0.503399016108768,1684,-24.5,99,P-GPS,
0.353887817029882,36.897189095421794,18400,2018-04-15 06:21:21,1830.7814794850192,61.2000019584,0.0,0.511761016376352,1830.7814794850192,61.2000019584,0.503999582744,0.511761016376352,1684,-24.5,99,P-GPS,
0.35388782861900897,36.8971891557117,18500,2018-04-15 06:21:21,1831.281479501019,61.7000019744,0.0,0.5185250165928,1831.281479501019,61.7000019744,0.503999582744,0.5185250165928,1684,-24.5,99,P-GPS,
0.35388785022622204,36.8971892313877,18600,2018-04-15 06:21:21,1831.781479517019,62.200001990400004,0.0,0.5272680168725761,1831.781479517019,62.200001990400004,0.503999582744,0.5272680168725761,1684,-24.5,99,P-GPS,
0.353887865907629,36.897189296810495,18700,2018-04-15 06:21:21,1832.2814795330191,62.7000020064,0.0,0.53472001711104,1832.2814795330191,62.7000020064,0.503999582744,0.53472001711104,1684,-24.5,99,P-GPS,
0.35388788207105504,36.89718940447,18800,2018-04-15 06:21:21,1832.7814795490192,63.2000020224,0.0,0.546649017492768,1832.7814795490192,63.2000020224,0.503999582744,0.546649017492768,1684,-24.5,99,P-GPS,
0.353887886180688,36.8971894878144,18900,2018-04-15 06:21:21,1833.3814795682192,63.8000020416,0.0,0.555599017779168,1833.3814795682192,63.8000020416,0.503999582744,0.555599017779168,1684,-24.5,99,P-GPS,
0.35388792121034995,36.8971895998191,19000,2018-04-15 06:21:22,1833.881479584219,64.30000205760001,0.0,0.568648018196736,1833.881479584219,64.30000205760001,0.503999582744,0.568648018196736,1684,-24.5,99,P-GPS,
0.35388794387498296,36.8971896855788,19100,2018-04-15 06:21:22,1834.381479600219,64.8000020736,0.0,0.578497018511904,1834.381479600219,64.8000020736,0.503999582744,0.578497018511904,1684,-24.5,99,P-GPS,
0.35388796013056895,36.89718976169689,19200,2018-04-15 06:21:22,1834.8814796162192,65.3000020896,0.0,0.587108018787456,1834.8814796162192,65.3000020896,0.503999582744,0.587108018787456,1684,-24.5,99,P-GPS,
0.353887962384539,36.8971898173182,19300,2018-04-15 06:21:22,1835.3814796322192,65.8000021056,0.0,0.593074018978368,1835.3814796322192,65.8000021056,0.503999582744,0.593074018978368,1684,-24.5,99,P-GPS,
0.353887997548395,36.8971899028147,19400,2018-04-15 06:21:22,1835.881479648219,66.3000021216,0.0,0.6033210193062721,1835.881479648219,66.3000021216,0.503999582744,0.6033210193062721,1684,-24.5,99,P-GPS,
0.35388801545201704,36.8971899703273,19500,2018-04-15 06:21:22,1836.3814796642193,66.8000021376,0.0,0.611078019554496,1836.3814796642193,66.8000021376,0.503999582744,0.611078019554496,1684,-24.5,98,P-GPS,
0.35388807631887803,36.8971900440115,19600,2018-04-15 06:21:22,1836.8814796802192,67.30000215359999,0.0,0.620958019870656,1836.8814796802192,67.30000215359999,0.503999582744,0.620958019870656,1684,-24.5,98,P-GPS,
0.3538881293043739,36.8971901106494,19700,2018-04-15 06:21:22,1837.3814796962192,67.8000021696,0.0,0.6298410201549121,1837.3814796962192,67.8000021696,0.503999582744,0.6298410201549121,1684,-24.5,98,P-GPS,
0.35388818559093,36.8971901834463,19800,2018-04-15 06:21:22,1837.881479712219,68.30000218560001,0.0,0.639507020464224,1837.881479712219,68.30000218560001,0.503999582744,0.639507020464224,1684,-24.5,98,P-GPS,
0.35388823053547597,36.897190235726704,19900,2018-04-15 06:21:23,1838.481479731419,68.9000022048,0.0,0.646623020691936,1838.481479731419,68.9000022048,0.503999582744,0.646623020691936,1684,-24.5,98,P-GPS,
0.3538882983243421,36.8971903157367,20000,2018-04-15 06:21:23,1838.9814797474191,69.4000022208,0.0,0.657501021040032,1838.9814797474191,69.4000022208,0.503999582744,0.657501021040032,1684,-24.5,98,P-GPS,
0.35388834868081803,36.8971903797488,20100,2018-04-15 06:21:23,1839.4814797634192,69.9000022368,0.0,0.6660780213144961,1839.4814797634192,69.9000022368,0.503999582744,0.6660780213144961,1684,-24.5,98,P-GPS,
0.3538884133907039,36.8971904485855,20200,2018-04-15 06:21:23,1839.8814797762193,70.30000224960001,0.0,0.67571502162288,1839.8814797762193,70.30000224960001,0.503999582744,0.67571502162288,1684,-24.5,98,P-GPS,
0.353888460306379,36.897190508894404,20300,2018-04-15 06:21:23,1840.3814797922191,70.80000226560001,0.0,0.683804021881728,1840.3814797922191,70.80000226560001,0.503999582744,0.683804021881728,1684,-24.5,98,P-GPS,
0.353888511684805,36.897190620674294,20400,2018-04-15 06:21:23,1840.8814798082192,71.3000022816,0.0,0.697443022318176,1840.8814798082192,71.3000022816,0.503999582744,0.697443022318176,1684,-24.5,98,P-GPS,
0.353888543501954,36.8971907149543,20500,2018-04-15 06:21:23,1841.3814798242192,71.8000022976,0.0,0.7085040226721281,1841.3814798242192,71.8000022976,0.503999582744,0.7085040226721281,1684,-24.5,98,P-GPS,
0.35388858641695,36.8971908460115,20600,2018-04-15 06:21:23,1841.8814798402193,72.3000023136,0.0,0.723829023162528,1841.8814798402193,72.3000023136,0.503999582744,0.723829023162528,1684,-24.5,98,P-GPS,
0.353888619608913,36.8971909480345,20700,2018-04-15 06:21:23,1842.3814798562191,72.8000023296,0.0,0.735752023544064,1842.3814798562191,72.8000023296,0.503999582744,0.735752023544064,1684,-24.5,98,P-GPS,
0.353888644154755,36.8971910667771,20800,2018-04-15 06:21:23,1842.881479872219,73.3000023456,0.0,0.7490910239709121,1842.881479872219,73.3000023456,0.503999582744,0.7490910239709121,1684,-24.5,98,P-GPS,
0.353888662668026,36.8971911573191,20900,2018-04-15 06:21:23,1843.3814798882192,73.80000236160001,0.0,0.7592580242962561,1843.3814798882192,73.80000236160001,0.503999582744,0.7592580242962561,1684,-24.5,98,P-GPS,
0.3538886991545349,36.897191218540705,21000,2018-04-15 06:21:24,1843.881479904219,74.30000237760001,0.0,0.767042024545344,1843.881479904219,74.30000237760001,0.503999582744,0.767042024545344,1684,-24.5,98,P-GPS,
0.35388871227765595,36.8971912579365,21100,2018-04-15 06:21:24,1844.3814799202191,74.8000023936,0.0,0.771658024693056,1844.3814799202191,74.8000023936,0.503999582744,0.771658024693056,1684,-24.5,98,P-GPS,
0.35388873412567495,36.8971913143944,21200,2018-04-15 06:21:24,1844.8814799362192,75.30000240960001,0.0,0.778389024908448,1844.8814799362192,75.30000240960001,0.503999582744,0.778389024908448,1684,-24.5,98,P-GPS,
0.353888736739633,36.897191345779,21300,2018-04-15 06:21:24,1845.3814799522193,75.80000242560001,0.0,0.781768025016576,1845.3814799522193,75.80000242560001,0.503999582744,0.781768025016576,1684,-24.5,98,P-GPS,
0.353888763534356,36.8971914190656,21400,2018-04-15 06:21:24,1845.881479968219,76.3000024416,0.0,0.7904460252942721,1845.881479968219,76.3000024416,0.503999582744,0.7904460252942721,1684,-24.5,98,P-GPS,
0.35388876729300794,36.8971914646624,21500,2018-04-15 06:21:24,1846.3814799842194,76.8000024576,0.0,0.7953560254513921,1846.3814799842194,76.8000024576,0.503999582744,0.7953560254513921,1684,-24.5,98,P-GPS,
0.353888773948764,36.8971915666448,21600,2018-04-15 06:21:24,1846.8814800002192,77.3000024736,0.0,0.806282025801024,1846.8814800002192,77.3000024736,0.503999582744,0.806282025801024,1684,-24.5,98,P-GPS,
0.35388877278666603,36.8971916468228,21700,2018-04-15 06:21:24,1847.381480016219,77.8000024896,0.0,0.814644026068608,1847.381480016219,77.8000024896,0.503999582744,0.814644026068608,1684,-24.5,98,P-GPS,
0.35388874761550104,36.8971917541282,21800,2018-04-15 06:21:24,1847.8814800322193,78.3000025056,0.0,0.8249970263999039,1847.8814800322193,78.3000025056,0.503999582744,0.8249970263999039,1684,-24.5,98,P-GPS,
0.35388872094861107,36.8971918365305,21900,2018-04-15 06:21:25,1848.3814800482191,78.8000025216,0.0,0.832724026647168,1848.3814800482191,78.8000025216,0.503999582744,0.832724026647168,1684,-24.5,98,P-GPS,
0.35388870480299606,36.89719191916829,22000,2018-04-15 06:21:25,1848.8814800642192,79.30000253760001,0.0,0.8408790269081279,1848.8814800642192,79.30000253760001,0.503999582744,0.8408790269081279,1684,-24.5,98,P-GPS,
0.35388867459190004,36.897191977879295,22100,2018-04-15 06:21:25,1849.381480080219,79.80000255360001,0.0,0.8460470270735041,1849.381480080219,79.80000255360001,0.503999582744,0.8460470270735041,1684,-24.5,98,P-GPS,
0.35388865453405,36.89719207949071,22200,2018-04-15 06:21:25,1849.8814800962193,80.30000256960001,0.0,0.8561360273963521,1849.8814800962193,80.30000256960001,0.503999582744,0.8561360273963521,1684,-24.5,98,P-GPS,
0.353888628886464,36.8971921591527,22300,2018-04-15 06:21:25,1850.3814801122192,80.80000258560001,0.0,0.86374502763984,1850.3814801122192,80.80000258560001,0.503999582744,0.86374502763984,1684,-24.5,98,P-GPS,
0.353888630835711,36.8971922720285,22400,2018-04-15 06:21:25,1850.881480128219,81.3000026016,0.0,0.875812028025984,1850.881480128219,81.3000026016,0.503999582744,0.875812028025984,1684,-24.5,98,P-GPS,
0.353888628843615,36.8971923517055,22500,2018-04-15 06:21:25,1851.3814801442193,81.80000261760001,0.0,0.8842290282953281,1851.3814801442193,81.80000261760001,0.503999582744,0.8842290282953281,1684,-24.5,98,P-GPS,
0.35388860999020294,36.8971924223066,22600,2018-04-15 06:21:25,1851.881480160219,82.3000026336,0.0,0.8911550285169599,1851.881480160219,82.3000026336,0.503999582744,0.8911550285169599,1684,-24.5,98,P-GPS,
0.35388857914920396,36.897192466575206,22700,2018-04-15 06:21:25,1852.3814801762192,82.8000026496,0.0,0.8949180286373759,1852.3814801762192,82.8000026496,0.503999582744,0.8949180286373759,1684,-24.5,98,P-GPS,
0.3538885648564529,36.8971925062301,22800,2018-04-15 06:21:25,1852.8814801922192,83.3000026656,0.0,0.898716028758912,1852.8814801922192,83.3000026656,0.503999582744,0.898716028758912,1684,-24.5,98,P-GPS,
0.353888541706188,36.8971925301205,22900,2018-04-15 06:21:25,1853.3814802082193,83.8000026816,0.0,0.9005680288181761,1853.3814802082193,83.8000026816,0.503999582744,0.9005680288181761,1684,-24.5,98,P-GPS,
0.353888503697185,36.8971926075985,23000,2018-04-15 06:21:26,1853.881480224219,84.30000269760001,0.0,0.907734029047488,1853.881480224219,84.30000269760001,0.503999582744,0.907734029047488,1684,-24.5,98,P-GPS,
0.353888464435604,36.89719266040729,23100,2018-04-15 06:21:26,1854.3814802402194,84.8000027136,0.0,0.9122580291922561,1854.3814802402194,84.8000027136,0.503999582744,0.9122580291922561,1684,-24.5,98,P-GPS,
0.35388842020411404,36.897192730169,23200,2018-04-15 06:21:26,1854.8814802562192,85.30000272960001,0.0,0.9185030293920962,1854.8814802562192,85.30000272960001,0.503999582744,0.9185030293920962,1684,-24.5,98,P-GPS,
0.35388839033041003,36.897192784622796,23300,2018-04-15 06:21:26,1855.381480272219,85.80000274560001,0.0,0.9235400295532801,1855.381480272219,85.80000274560001,0.503999582744,0.9235400295532801,1684,-24.5,98,P-GPS,
0.35388840436831,36.8971929102841,23400,2018-04-15 06:21:26,1855.881480288219,86.3000027616,0.0,0.9374690299990079,1855.881480288219,86.3000027616,0.503999582744,0.9374690299990079,1684,-24.5,98,P-GPS,
0.353888420334796,36.897192999695605,23500,2018-04-15 06:21:26,1856.3814803042192,86.80000277760001,0.0,0.9475440303214081,1856.3814803042192,86.80000277760001,0.503999582744,0.9475440303214081,1684,-24.5,98,P-GPS,
0.35388841093440004,36.8971930787324,23600,2018-04-15 06:21:26,1856.8814803202192,87.3000027936,0.0,0.955818030586176,1856.8814803202192,87.3000027936,0.503999582744,0.955818030586176,1684,-24.5,98,P-GPS,
0.353888390884183,36.8971931598976,23800,2018-04-15 06:21:26,1857.8814803522193,88.3000028256,0.35999970196000003,0.9640510308496322,1857.8814803522193,88.3000028256,0.503999582744,0.9640510308496322,1684,-24.5,98,P-GPS,
0.35388837291542297,36.897193174847395,23900,2018-04-15 06:21:26,1858.3814803682192,88.8000028416,0.35999970196000003,0.965197030886304,1858.3814803682192,88.8000028416,0.503999582744,0.965197030886304,1684,-24.5,98,P-GPS,
0.35388835750545794,36.897193210997706,24000,2018-04-15 06:21:27,1858.881480384219,89.3000028576,0.0,0.968708030998656,1858.881480384219,89.3000028576,0.503999582744,0.968708030998656,1684,-24.5,98,P-GPS,
0.353888359541623,36.8971932331687,24100,2018-04-15 06:21:27,1859.3814804002193,89.8000028736,0.0,0.971159031077088,1859.3814804002193,89.8000028736,0.503999582744,0.971159031077088,1684,-24.5,98,P-GPS,
0.35388838116033705,36.8971933175799,24200,2018-04-15 06:21:27,1859.8814804162191,90.30000288960001,0.0,0.980847031387104,1859.8814804162191,90.30000288960001,0.503999582744,0.980847031387104,1684,-24.5,98,P-GPS,
0.35388839782990394,36.8971933790509,24300,2018-04-15 06:21:27,1860.3814804322192,90.80000290560001,0.0,0.9879260316136322,1860.3814804322192,90.80000290560001,0.503999582744,0.9879260316136322,1684,-24.5,98,P-GPS,
0.35388842121171293,36.897193488781205,24400,2018-04-15 06:21:27,1860.881480448219,91.3000029216,0.0,1.0004000320128001,1860.881480448219,91.3000029216,0.503999582744,1.0004000320128001,1684,-24.5,98,P-GPS,
0.35388843673221,36.8971935593368,24500,2018-04-15 06:21:27,1861.3814804642193,91.8000029376,0.0,1.00843003226976,1861.3814804642193,91.8000029376,0.503999582744,1.00843003226976,1684,-24.5,98,P-GPS,
0.35388844096239797,36.8971936785729,24600,2018-04-15 06:21:27,1861.8814804802191,92.3000029536,0.0,1.02144003268608,1861.8814804802191,92.3000029536,0.503999582744,1.02144003268608,1684,-24.5,98,P-GPS,
0.35388844988952795,36.897193760369206,24700,2018-04-15 06:21:27,1862.381480496219,92.8000029696,0.0,1.03053003297696,1862.381480496219,92.8000029696,0.503999582744,1.03053003297696,1684,-24.5,98,P-GPS,
0.35388849368032105,36.897193839279204,24800,2018-04-15 06:21:27,1862.8814805122192,93.3000029856,0.0,1.04018003328576,1862.8814805122192,93.3000029856,0.503999582744,1.04018003328576,1684,-24.5,98,P-GPS,
0.3538885356255779,36.897193888482704,24900,2018-04-15 06:21:28,1863.381480528219,93.8000030016,0.0,1.04659003349088,1863.381480528219,93.8000030016,0.503999582744,1.04659003349088,1684,-24.5,98,P-GPS,
0.35388856065109797,36.8971939400255,25000,2018-04-15 06:21:28,1863.8814805442191,94.3000030176,0.0,1.05281003368992,1863.8814805442191,94.3000030176,0.503999582744,1.05281003368992,1684,-24.5,98,P-GPS,
0.3538885707945739,36.897193966341895,25100,2018-04-15 06:21:28,1864.3814805602192,94.80000303359999,0.0,1.0559200337894399,1864.3814805602192,94.80000303359999,0.503999582744,1.0559200337894399,1684,-24.5,98,P-GPS,
0.35388859638435,36.897194012842704,25200,2018-04-15 06:21:28,1864.8814805762192,95.30000304960001,0.0,1.06162003397184,1864.8814805762192,95.30000304960001,0.503999582744,1.06162003397184,1684,-24.5,98,P-GPS,
0.353888616645349,36.897194034821,25300,2018-04-15 06:21:28,1865.381480592219,95.80000306560001,0.0,1.0645200340646401,1865.381480592219,95.80000306560001,0.503999582744,1.0645200340646401,1684,-24.5,98,P-GPS,
0.35388866402472297,36.8971941186225,25400,2018-04-15 06:21:28,1865.8814806082194,96.3000030816,0.0,1.0748300343945603,1865.8814806082194,96.3000030816,0.503999582744,1.0748300343945603,1684,-24.5,98,P-GPS,
0.35388870265100797,36.8971941564419,25500,2018-04-15 06:21:28,1866.3814806242192,96.8000030976,0.35999970196000003,1.0799500345584,1866.3814806242192,96.8000030976,0.503999582744,1.0799500345584,1684,-24.5,98,P-GPS,
0.35388872481545397,36.897194213384296,25600,2018-04-15 06:21:28,1866.881480640219,97.3000031136,0.35999970196000003,1.08669003477408,1866.881480640219,97.3000031136,0.503999582744,1.08669003477408,1684,-24.5,98,P-GPS,
0.353888733750726,36.8971942409987,25700,2018-04-15 06:21:28,1867.381480656219,97.8000031296,0.0,1.08991003487712,1867.381480656219,97.8000031296,0.503999582744,1.08991003487712,1684,-24.5,98,P-GPS,
0.3538887547766861,36.897194289758,25800,2018-04-15 06:21:28,1867.8814806722191,98.3000031456,0.0,1.0957400350636801,1867.8814806722191,98.3000031456,0.503999582744,1.0957400350636801,1684,-24.5,98,P-GPS,
0.353888756492964,36.8971943451999,25900,2018-04-15 06:21:28,1868.3814806882192,98.8000031616,0.0,1.10177003525664,1868.3814806882192,98.8000031616,0.503999582744,1.10177003525664,1684,-24.5,98,P-GPS,
0.35388877925423495,36.8971944470116,26000,2018-04-15 06:21:29,1868.881480704219,99.3000031776,0.0,1.11337003562784,1868.881480704219,99.3000031776,0.503999582744,1.11337003562784,1684,-24.5,98,P-GPS,
0.353888781267704,36.8971944997594,26100,2018-04-15 06:21:29,1869.3814807202193,99.80000319359999,0.0,1.11911003581152,1869.3814807202193,99.80000319359999,0.503999582744,1.11911003581152,1684,-24.5,98,P-GPS,
0.353888781148827,36.897194581520296,26200,2018-04-15 06:21:29,1869.8814807362191,100.30000320960002,0.0,1.12793003609376,1869.8814807362191,100.30000320960002,0.503999582744,1.12793003609376,1684,-24.5,98,P-GPS,
0.353888766541685,36.8971946281577,26300,2018-04-15 06:21:29,1870.381480752219,100.80000322560002,0.0,1.1325800362425602,1870.381480752219,100.80000322560002,0.503999582744,1.1325800362425602,1684,-24.5,98,P-GPS,
0.353888773540839,36.8971947330269,26400,2018-04-15 06:21:29,1870.8814807682193,101.3000032416,0.0,1.1440900366108802,1870.8814807682193,101.3000032416,0.503999582744,1.1440900366108802,1684,-24.5,98,P-GPS,
0.3538887789071721,36.8971948045728,26500,2018-04-15 06:21:29,1871.381480784219,101.8000032576,0.0,1.15196003686272,1871.381480784219,101.8000032576,0.503999582744,1.15196003686272,1684,-24.5,98,P-GPS,
0.353888801364738,36.8971948544315,26600,2018-04-15 06:21:29,1871.8814808002192,102.3000032736,0.0,1.15794003705408,1871.8814808002192,102.3000032736,0.503999582744,1.15794003705408,1684,-24.5,98,P-GPS,
0.3538888129399221,36.897194871351296,26700,2018-04-15 06:21:29,1872.3814808162192,102.8000032896,0.0,1.16007003712224,1872.3814808162192,102.8000032896,0.503999582744,1.16007003712224,1684,-24.5,98,P-GPS,
0.35388882970343,36.8971949359136,26800,2018-04-15 06:21:29,1872.8814808322193,103.30000330560001,0.0,1.1674900373596802,1872.8814808322193,103.30000330560001,0.503999582744,1.1674900373596802,1684,-24.5,98,P-GPS,
0.35388883616499395,36.897194959991296,26900,2018-04-15 06:21:30,1873.381480848219,103.80000332160002,0.0,1.17026003744832,1873.381480848219,103.80000332160002,0.503999582744,1.17026003744832,1684,-24.5,98,P-GPS,
0.3538888450018471,36.897194970547396,27000,2018-04-15 06:21:30,1873.881480864219,104.30000333760002,0.0,1.1716300374921602,1873.881480864219,104.30000333760002,0.503999582744,1.1716300374921602,1684,-24.5,98,P-GPS,
0.353888842494959,36.897194967751005,27100,2018-04-15 06:21:30,1874.4814808834192,104.90000335680001,0.0,1.17127003748064,1874.4814808834192,104.90000335680001,0.503999582744,1.1716300374921602,1684,-24.5,98,P-GPS,
0.353888835929887,36.897195013867,27200,2018-04-15 06:21:30,1874.981480899419,105.4000033728,0.0,1.1760800376345601,1874.981480899419,105.4000033728,0.503999582744,1.1760800376345601,1684,-24.5,98,P-GPS,
0.35388881531287,36.8971950282451,27300,2018-04-15 06:21:30,1875.4814809154193,105.90000338880002,0.0,1.17709003766688,1875.4814809154193,105.90000338880002,0.503999582744,1.17709003766688,1684,-24.5,98,P-GPS,
0.353888799183539,36.897195087477,27400,2018-04-15 06:21:30,1875.9814809314191,106.4000034048,0.0,1.1830800378585602,1875.9814809314191,106.4000034048,0.503999582744,1.1830800378585602,1684,-24.5,98,P-GPS,
0.353888781209894,36.897195121477,27500,2018-04-15 06:21:30,1876.4814809474192,106.9000034208,0.0,1.1863000379616,1876.4814809474192,106.9000034208,0.503999582744,1.1863000379616,1684,-24.5,98,P-GPS,
0.353888753527262,36.8971951968909,27600,2018-04-15 06:21:30,1876.9814809634192,107.4000034368,0.0,1.19377003820064,1876.9814809634192,107.4000034368,0.503999582744,1.19377003820064,1684,-24.5,98,P-GPS,
0.353888726205839,36.897195229502294,27700,2018-04-15 06:21:30,1877.4814809794193,107.90000345280001,0.0,1.19663003829216,1877.4814809794193,107.90000345280001,0.503999582744,1.19663003829216,1684,-24.5,98,P-GPS,
0.353888710557816,36.897195290640894,27800,2018-04-15 06:21:30,1877.9814809954191,108.40000346880001,0.0,1.20288003849216,1877.9814809954191,108.40000346880001,0.503999582744,1.20288003849216,1684,-24.5,98,P-GPS,
0.35388868875437496,36.897195309427794,27900,2018-04-15 06:21:30,1878.481481011419,108.9000034848,0.35999970196000003,1.20439003854048,1878.481481011419,108.9000034848,0.503999582744,1.20439003854048,1684,-24.5,98,P-GPS,
0.35388864250178204,36.897195360564794,28000,2018-04-15 06:21:31,1878.9814810274192,109.40000350080001,0.35999970196000003,1.2088400386828801,1878.9814810274192,109.40000350080001,0.503999582744,1.2088400386828801,1684,-24.5,98,P-GPS,
0.353888601698879,36.8971953886263,28100,2018-04-15 06:21:31,1879.481481043419,109.90000351680001,0.0,1.21094003875008,1879.481481043419,109.90000351680001,0.503999582744,1.21094003875008,1684,-24.5,98,P-GPS,
0.35388859399125,36.8971954262577,28200,2018-04-15 06:21:31,1879.9814810594191,110.4000035328,0.0,1.21486003887552,1879.9814810594191,110.4000035328,0.503999582744,1.21486003887552,1684,-24.5,98,P-GPS,
0.35388858846532895,36.8971954339361,28300,2018-04-15 06:21:31,1880.4814810754192,110.90000354880002,0.35999970196000003,1.21557003889824,1880.4814810754192,110.90000354880002,0.503999582744,1.21557003889824,1684,-24.5,98,P-GPS,
0.353888605944131,36.8971954737066,28400,2018-04-15 06:21:31,1880.8814810882193,111.30000356160001,0.35999970196000003,1.2202900390492801,1880.8814810882193,111.30000356160001,0.503999582744,1.2202900390492801,1684,-24.5,98,P-GPS,
0.35388861386152404,36.8971954752161,28500,2018-04-15 06:21:31,1881.3814811042191,111.80000357760001,0.35999970196000003,1.22064003906048,1881.3814811042191,111.80000357760001,0.503999582744,1.22064003906048,1684,-24.5,98,P-GPS,
0.353888590255498,36.8971954824512,28600,2018-04-15 06:21:31,1881.881481120219,112.30000359360001,0.35999970196000003,1.22089003906848,1881.881481120219,112.30000359360001,0.503999582744,1.22089003906848,1684,-24.5,98,P-GPS,
0.353888566438995,36.8971954609943,28700,2018-04-15 06:21:31,1882.3814811362192,112.80000360960001,0.35999970196000003,1.21801003897632,1882.3814811362192,112.80000360960001,0.503999582744,1.22089003906848,1684,-24.5,98,P-GPS,
0.353888548707479,36.8971954538192,28800,2018-04-15 06:21:31,1882.881481152219,113.30000362560001,0.35999970196000003,1.2168300389385602,1882.881481152219,113.30000362560001,0.503999582744,1.22089003906848,1684,-24.5,98,P-GPS,
0.35388852964318396,36.8971954160485,28900,2018-04-15 06:21:32,1883.3814811682191,113.80000364160001,0.35999970196000003,1.2122900387932802,1883.3814811682191,113.80000364160001,0.503999582744,1.22089003906848,1684,-24.5,98,P-GPS,
0.35388852552118505,36.89719540726539,29000,2018-04-15 06:21:32,1883.8814811842192,114.30000365760002,0.35999970196000003,1.2112400387596802,1883.8814811842192,114.30000365760002,0.503999582744,1.22089003906848,1684,-24.5,98,P-GPS,
0.35388851540814004,36.8971953722247,29100,2018-04-15 06:21:32,1884.3814812002192,114.8000036736,0.35999970196000003,1.2072000386304,1884.3814812002192,114.8000036736,0.503999582744,1.22089003906848,1684,-24.5,98,P-GPS,
0.35388851563846296,36.8971953717354,29200,2018-04-15 06:21:32,1884.881481216219,115.3000036896,0.35999970196000003,1.2071500386288,1884.881481216219,115.3000036896,0.503999582744,1.22089003906848,1684,-24.5,98,P-GPS,
