latitude,longitude,time_millisecond,datetime_utc,altitude_m,ascent_m,speed_kph,distance_m,max_altitude_m,max_ascent_m,max_speed_kph,max_distance_m,rc_throttle,gimbal_pitch_degrees,battery_percent,flycState,message
0.375909940037772,36.925447345194,0,2018-04-17 07:14:34,1630.50261567607,0.0,0.0,0.0,1630.50261567607,0.0,0.0,0.0,364,0.0,99,Motors_Started,
0.375909934104435,36.9254473424329,100,2018-04-17 07:14:34,1630.50261567607,0.0,0.0,0.000727764023288448,1630.50261567607,0.0,0.0,0.000727764023288448,364,0.0,99,Motors_Started,
0.375909931579125,36.925447340799,200,2018-04-17 07:14:34,1630.50261567607,0.0,0.0,0.00106004003392128,1630.50261567607,0.0,0.0,0.00106004003392128,531,0.0,99,Motors_Started,Setting new Return-To-Home altitude to 30m (98 ft). Setting new Maximum Flight Altitude to 150m (492 ft)
0.37590992620409,36.9254473305494,300,2018-04-17 07:14:34,1630.50261567607,0.0,0.0,0.00224026007168832,1630.50261567607,0.0,0.0,0.00224026007168832,1024,0.0,99,Motors_Started,
0.375909923995207,36.9254473235994,400,2018-04-17 07:14:34,1630.50261567607,0.0,0.0,0.00299157009573024,1630.50261567607,0.0,0.0,0.00299157009573024,1024,0.0,99,Motors_Started,
0.375909919879213,36.9254473375946,500,2018-04-17 07:14:34,1630.50261567607,0.0,0.0,0.002395750076664,1630.50261567607,0.0,0.0,0.00299157009573024,1024,0.0,99,Motors_Started,
0.375909918001058,36.9254473586514,600,2018-04-17 07:14:34,1630.50261567607,0.0,0.0,0.00287142009188544,1630.50261567607,0.0,0.0,0.00299157009573024,1024,0.0,99,Motors_Started,
0.375909914849611,36.925447376117,700,2018-04-17 07:14:35,1630.50261567607,0.0,0.0,0.00443521014192672,1630.50261567607,0.0,0.0,0.00443521014192672,1024,0.0,99,Motors_Started,
0.375909913477698,36.9254473877879,800,2018-04-17 07:14:35,1630.50261567607,0.0,0.0,0.00558206017862592,1630.50261567607,0.0,0.0,0.00558206017862592,1024,0.0,99,Motors_Started,
0.375909910958648,36.9254473950949,900,2018-04-17 07:14:35,1630.50261567607,0.0,0.0,0.0064226602055251205,1630.50261567607,0.0,0.0,0.0064226602055251205,1024,0.0,99,Motors_Started,
0.375909910157504,36.9254474023043,1000,2018-04-17 07:14:35,1630.50261567607,0.0,0.0,0.007167640229364481,1630.50261567607,0.0,0.0,0.007167640229364481,1024,0.0,99,Motors_Started,
0.375909908809509,36.9254474331291,1100,2018-04-17 07:14:35,1630.50261567607,0.0,0.0,0.010377100332067202,1630.50261567607,0.0,0.0,0.010377100332067202,1024,0.0,99,Motors_Started,
0.375909907118777,36.9254474576482,1200,2018-04-17 07:14:35,1630.50261567607,0.0,0.0,0.013030100416963201,1630.50261567607,0.0,0.0,0.013030100416963201,1024,0.0,99,Motors_Started,
0.375909904945517,36.9254475146103,1300,2018-04-17 07:14:35,1630.50261567607,0.0,0.0,0.0192397006156704,1630.50261567607,0.0,0.0,0.0192397006156704,1024,0.0,99,Motors_Started,
0.375909902256142,36.925447558202,1400,2018-04-17 07:14:35,1630.50261567607,0.0,0.0,0.024057000769824,1630.50261567607,0.0,0.0,0.024057000769824,1024,0.0,99,Motors_Started,
0.375909900338801,36.9254476035016,1500,2018-04-17 07:14:35,1630.50261567607,0.0,0.0,0.029062000929984004,1630.50261567607,0.0,0.0,0.029062000929984004,1024,0.0,99,Assisted_Takeoff,
0.375909898728474,36.9254476247325,1600,2018-04-17 07:14:35,1630.50261567607,0.0,0.0,0.0314233010055456,1630.50261567607,0.0,0.0,0.0314233010055456,1024,0.0,99,Assisted_Takeoff,
0.375909897628765,36.9254476414189,1700,2018-04-17 07:14:36,1630.50261567607,0.0,0.0,0.0332772010648704,1630.50261567607,0.0,0.0,0.0332772010648704,1024,0.0,99,Assisted_Takeoff,
0.375909895303805,36.9254476451476,1800,2018-04-17 07:14:36,1630.50261567607,0.0,0.0,0.0337249010791968,1630.50261567607,0.0,0.0,0.0337249010791968,1024,0.0,99,Assisted_Takeoff,
0.375909893199347,36.9254476737267,1900,2018-04-17 07:14:36,1630.50261567607,0.0,0.0,0.036903501180912,1630.50261567607,0.0,0.0,0.036903501180912,1024,0.0,99,Assisted_Takeoff,
0.375909890672663,36.9254477043478,2000,2018-04-17 07:14:36,1630.50261567607,0.0,0.0,0.0403147012900704,1630.50261567607,0.0,0.0,0.0403147012900704,1024,0.0,99,Assisted_Takeoff,
0.37590988906829,36.9254477241536,2100,2018-04-17 07:14:36,1630.50261567607,0.0,0.0,0.0425212013606784,1630.50261567607,0.0,0.0,0.0425212013606784,1024,0.0,99,Assisted_Takeoff,
0.375909886684298,36.9254477401658,2200,2018-04-17 07:14:36,1630.50261567607,0.0,0.0,0.0443213014182816,1630.50261567607,0.0,0.0,0.0443213014182816,1024,0.0,99,Assisted_Takeoff,
0.375909884994788,36.9254477453118,2300,2018-04-17 07:14:36,1630.50261567607,0.0,0.0,0.044913701437238406,1630.50261567607,0.0,0.0,0.044913701437238406,1024,0.0,99,Assisted_Takeoff,
0.375909882916486,36.9254477498956,2400,2018-04-17 07:14:36,1630.50261567607,0.0,0.0,0.0454504014544128,1630.50261567607,0.0,0.0,0.0454504014544128,1024,0.0,99,Assisted_Takeoff,
0.375909882622501,36.925447745359,2500,2018-04-17 07:14:36,1630.50261567607,0.0,0.0,0.0449556014385792,1630.50261567607,0.0,0.0,0.0454504014544128,1024,0.0,99,Assisted_Takeoff,
0.375909881363917,36.9254477433529,2600,2018-04-17 07:14:36,1630.50261567607,0.0,0.0,0.044754901432156796,1630.50261567607,0.0,0.0,0.0454504014544128,1024,0.0,99,Assisted_Takeoff,
0.375909882178241,36.9254477326302,2700,2018-04-17 07:14:37,1630.50261567607,0.0,0.0,0.0435622013939904,1630.50261567607,0.0,0.0,0.0454504014544128,1024,0.0,99,Assisted_Takeoff,
0.375909881757136,36.9254477257797,2800,2018-04-17 07:14:37,1630.50261567607,0.0,0.0,0.0428159013701088,1630.50261567607,0.0,0.0,0.0454504014544128,1024,0.0,99,Assisted_Takeoff,
0.375909883113223,36.9254476881791,2900,2018-04-17 07:14:37,1630.50261567607,0.0,0.0,0.038663001237216006,1630.50261567607,0.0,0.0,0.0454504014544128,1024,0.0,99,Assisted_Takeoff,
0.375909883073936,36.9254476501729,3000,2018-04-17 07:14:37,1630.50261567607,0.0,0.0,0.0345013011040416,1630.50261567607,0.0,0.0,0.0454504014544128,1024,0.0,99,Assisted_Takeoff,
0.375909884983643,36.9254476341617,3100,2018-04-17 07:14:37,1630.50261567607,0.0,0.0,0.0327123010467936,1630.50261567607,0.0,0.0,0.0454504014544128,1024,0.0,99,Assisted_Takeoff,
0.375909885271674,36.9254476364732,3200,2018-04-17 07:14:37,1630.50261567607,0.0,0.0,0.032958901054684804,1630.50261567607,0.0,0.0,0.0454504014544128,1024,0.0,99,Assisted_Takeoff,
0.375909886137396,36.9254476409988,3300,2018-04-17 07:14:37,1630.50261567607,0.0,0.0,0.0334362010699584,1630.50261567607,0.0,0.0,0.0454504014544128,1032,0.0,99,Assisted_Takeoff,
0.375909885623571,36.9254476415395,3400,2018-04-17 07:14:37,1630.50261567607,0.0,0.0,0.0335057010721824,1630.50261567607,0.0,0.0,0.0454504014544128,1032,0.0,99,Assisted_Takeoff,
0.375909886239937,36.9254476437519,3500,2018-04-17 07:14:37,1630.50261567607,0.0,0.0,0.033735501079536004,1630.50261567607,0.0,0.0,0.0454504014544128,1050,0.0,99,Assisted_Takeoff,
0.375909885414265,36.9254476437488,3600,2018-04-17 07:14:37,1630.50261567607,0.0,0.0,0.033751501080048,1630.50261567607,0.0,0.0,0.0454504014544128,1111,0.0,99,Assisted_Takeoff,
0.375909886109559,36.9254476209284,3700,2018-04-17 07:14:38,1630.50261567607,0.0,0.0,0.031243700999798403,1630.50261567607,0.0,0.0,0.0454504014544128,1146,0.0,99,Assisted_Takeoff,
0.375909885623673,36.9254475906072,3800,2018-04-17 07:14:38,1630.50261567607,0.0,0.0,0.0279537008945184,1630.50261567607,0.0,0.0,0.0454504014544128,1159,0.0,99,Assisted_Takeoff,
0.375909886245585,36.9254475622263,3900,2018-04-17 07:14:38,1630.50261567607,0.0,0.0,0.0248651007956832,1630.50261567607,0.0,0.0,0.0454504014544128,1165,0.0,99,Assisted_Takeoff,
0.375909885744432,36.9254475432791,4000,2018-04-17 07:14:38,1630.50261567607,0.0,0.0,0.0228403007308896,1630.50261567607,0.0,0.0,0.0454504014544128,1219,0.0,99,Assisted_Takeoff,
0.375909886019283,36.9254475296524,4100,2018-04-17 07:14:38,1630.50261567607,0.0,0.0,0.021374000683968,1630.50261567607,0.0,0.0,0.0454504014544128,1248,0.0,99,Assisted_Takeoff,
0.375909885627845,36.9254475224004,4200,2018-04-17 07:14:38,1630.50261567607,0.0,0.0,0.020614000659648003,1630.50261567607,0.0,0.0,0.0454504014544128,1256,0.0,99,Assisted_Takeoff,
0.375909882585912,36.9254475116678,4300,2018-04-17 07:14:38,1630.50261567607,0.0,0.0,0.019584000626688,1630.50261567607,0.0,0.0,0.0454504014544128,1261,0.0,99,Assisted_Takeoff,
0.37590986624926,36.9254475688398,4400,2018-04-17 07:14:38,1630.50261567607,0.0,0.35999970196000003,0.026189000838048,1630.50261567607,0.0,0.35999970196000003,0.0454504014544128,1276,0.0,99,Assisted_Takeoff,
0.37590984624235,36.9254477028229,4500,2018-04-17 07:14:38,1630.50261567607,0.0,0.35999970196000003,0.0411148013156736,1630.50261567607,0.0,0.35999970196000003,0.0454504014544128,1303,0.0,99,P-GPS,Obstacle Avoided. Revise Flight Route
0.375909842675091,36.9254479094333,4600,2018-04-17 07:14:38,1630.50261567607,0.0,0.7199994039200001,0.0636728020375296,1630.50261567607,0.0,0.7199994039200001,0.0636728020375296,1331,0.0,99,P-GPS,
0.375909833321257,36.9254481604324,4700,2018-04-17 07:14:39,1630.50261567607,0.0,0.7199994039200001,0.091431002925792,1630.50261567607,0.0,0.7199994039200001,0.091431002925792,1348,0.0,99,P-GPS,
0.37590982541791,36.925448391555,4800,2018-04-17 07:14:39,1630.60261567927,0.1000000032,0.7199994039200001,0.11705500374576001,1630.60261567927,0.1000000032,0.7199994039200001,0.11705500374576001,1380,0.0,99,P-GPS,
0.375909822698764,36.9254486232541,4900,2018-04-17 07:14:39,1630.70261568247,0.2000000064,0.7199994039200001,0.14272300456713602,1630.70261568247,0.2000000064,0.7199994039200001,0.14272300456713602,1419,0.0,99,P-GPS,
0.375909813725529,36.9254488402795,5000,2018-04-17 07:14:39,1630.8026156856697,0.3000000096,0.7199994039200001,0.166851005339232,1630.8026156856697,0.3000000096,0.7199994039200001,0.166851005339232,1435,0.0,99,P-GPS,
0.375909757471288,36.9254490223962,5100,2018-04-17 07:14:39,1631.0026156920699,0.500000016,0.35999970196000003,0.187613006003616,1631.0026156920699,0.500000016,0.7199994039200001,0.187613006003616,1446,0.0,99,P-GPS,
0.3759097085826,36.9254491502853,5200,2018-04-17 07:14:39,1631.1026156952698,0.6000000192,0.35999970196000003,0.20237600647603202,1631.1026156952698,0.6000000192,0.7199994039200001,0.20237600647603202,1449,0.0,99,P-GPS,Home Point Recorded. RTH Altitude:  30m.
0.375909667648479,36.9254492967591,5300,2018-04-17 07:14:39,1631.30261570167,0.8000000256,0.35999970196000003,0.219125007012,1631.30261570167,0.8000000256,0.7199994039200001,0.219125007012,1461,0.0,99,P-GPS,
0.375909596287137,36.9254494239672,5400,2018-04-17 07:14:39,1631.50261570807,1.000000032,0.35999970196000003,0.23430700749782402,1631.50261570807,1.000000032,0.7199994039200001,0.23430700749782402,1460,0.0,99,P-GPS,
0.375909493953083,36.9254495731368,5500,2018-04-17 07:14:39,1631.8026157176698,1.3000000416000002,0.35999970196000003,0.252673008085536,1631.8026157176698,1.3000000416000002,0.7199994039200001,0.252673008085536,1479,0.0,99,P-GPS,
0.375909420433328,36.9254497224065,5600,2018-04-17 07:14:39,1632.10261572727,1.6000000512,0.35999970196000003,0.270596008659072,1632.10261572727,1.6000000512,0.7199994039200001,0.270596008659072,1551,0.0,99,P-GPS,
0.375909356898376,36.9254498782595,5700,2018-04-17 07:14:40,1632.40261573687,1.9000000608000003,0.35999970196000003,0.289054009249728,1632.40261573687,1.9000000608000003,0.7199994039200001,0.289054009249728,1520,0.0,99,P-GPS,
0.375909198836806,36.9254501533997,5900,2018-04-17 07:14:40,1633.0026157560699,2.50000008,0.35999970196000003,0.322978010335296,1633.0026157560699,2.50000008,0.7199994039200001,0.322978010335296,1581,0.0,99,P-GPS,
0.375909110407946,36.9254502684161,6000,2018-04-17 07:14:40,1633.30261576567,2.8000000896,0.35999970196000003,0.337912010813184,1633.30261576567,2.8000000896,0.7199994039200001,0.337912010813184,1596,0.0,99,P-GPS,
0.375909031006569,36.9254503553687,6100,2018-04-17 07:14:40,1633.60261577527,3.1000000992000003,0.35999970196000003,0.34967401118956803,1633.60261577527,3.1000000992000003,0.7199994039200001,0.34967401118956803,1598,0.0,99,P-GPS,
0.375908971921608,36.9254504018912,6200,2018-04-17 07:14:40,1634.00261578807,3.500000112,0.0,0.35655801140985605,1634.00261578807,3.500000112,0.7199994039200001,0.35655801140985605,1602,0.0,99,P-GPS,
0.375908931016774,36.9254504212765,6300,2018-04-17 07:14:40,1634.40261580087,3.9000001248,0.0,0.360006011520192,1634.40261580087,3.9000001248,0.7199994039200001,0.360006011520192,1650,0.0,99,P-GPS,
0.375908884144991,36.9254504250247,6400,2018-04-17 07:14:40,1634.80261581367,4.3000001376,0.0,0.36205801158585604,1634.80261581367,4.3000001376,0.7199994039200001,0.36205801158585604,1662,0.0,99,P-GPS,
0.375908895961235,36.925450396752,6500,2018-04-17 07:14:40,1635.20261582647,4.7000001504,0.0,0.358658011477056,1635.20261582647,4.7000001504,0.7199994039200001,0.36205801158585604,1681,0.0,99,P-GPS,
0.375908926451737,36.9254503642505,6600,2018-04-17 07:14:40,1635.60261583927,5.1000001632,0.0,0.354147011332704,1635.60261583927,5.1000001632,0.7199994039200001,0.36205801158585604,1684,0.0,99,P-GPS,
0.375908964516564,36.9254503538165,6700,2018-04-17 07:14:40,1636.00261585207,5.5000001759999995,0.0,0.351718011254976,1636.00261585207,5.5000001759999995,0.7199994039200001,0.36205801158585604,1684,0.0,99,P-GPS,
0.375908979670508,36.9254503271299,6800,2018-04-17 07:14:41,1636.5026158680698,6.000000192000001,0.0,0.348376011148032,1636.5026158680698,6.000000192000001,0.7199994039200001,0.36205801158585604,1684,0.0,99,P-GPS,
0.375908960575246,36.9254503147848,6900,2018-04-17 07:14:41,1637.00261588407,6.500000208,0.0,0.34772901112732807,1637.00261588407,6.500000208,0.7199994039200001,0.36205801158585604,1684,0.0,99,P-GPS,
0.375908925159821,36.9254502885219,7000,2018-04-17 07:14:41,1637.50261590007,7.000000224,0.0,0.34622101107907205,1637.50261590007,7.000000224,0.7199994039200001,0.36205801158585604,1684,0.0,99,P-GPS,
0.37590889974467,36.9254502049354,7100,2018-04-17 07:14:41,1637.90261591287,7.4000002368,0.0,0.338403010828896,1637.90261591287,7.4000002368,0.7199994039200001,0.36205801158585604,1684,0.0,99,P-GPS,
0.375908875506375,36.9254500661276,7200,2018-04-17 07:14:41,1638.5026159320698,8.000000256,0.0,0.324912010397184,1638.5026159320698,8.000000256,0.7199994039200001,0.36205801158585604,1684,0.0,99,P-GPS,
0.375908867252454,36.9254498576784,7300,2018-04-17 07:14:41,1639.00261594807,8.500000272,0.0,0.30380200972166405,1639.00261594807,8.500000272,0.7199994039200001,0.36205801158585604,1684,0.0,99,P-GPS,
0.375908861062382,36.9254496399538,7400,2018-04-17 07:14:41,1639.50261596407,9.000000288,0.0,0.28198800902361604,1639.50261596407,9.000000288,0.7199994039200001,0.36205801158585604,1684,0.0,99,P-GPS,
0.375908844920024,36.9254494347848,7500,2018-04-17 07:14:41,1640.0026159800698,9.500000304,0.0,0.262349008395168,1640.0026159800698,9.500000304,0.7199994039200001,0.36205801158585604,1684,0.0,99,P-GPS,
0.375908810846767,36.925449244925,7600,2018-04-17 07:14:42,1640.50261599607,10.00000032,0.0,0.24576000786432,1640.50261599607,10.00000032,0.7199994039200001,0.36205801158585604,1684,0.0,99,P-GPS,
0.375908797298825,36.9254490321177,7700,2018-04-17 07:14:42,1641.00261601207,10.500000336,0.0,0.22658300725065603,1641.00261601207,10.500000336,0.7199994039200001,0.36205801158585604,1684,0.0,99,P-GPS,
0.375908796294686,36.9254488096614,7800,2018-04-17 07:14:42,1641.5026160280697,11.000000351999999,0.0,0.20663800661241602,1641.5026160280697,11.000000351999999,0.7199994039200001,0.36205801158585604,1684,0.0,99,P-GPS,
0.375908791934222,36.9254485643905,7900,2018-04-17 07:14:42,1642.00261604407,11.500000368000002,0.0,0.18623300595945602,1642.00261604407,11.500000368000002,0.7199994039200001,0.36205801158585604,1684,-0.1,99,P-GPS,
0.375908783920853,36.9254483384677,8000,2018-04-17 07:14:42,1642.5026160600698,12.000000384000002,0.0,0.169499005423968,1642.5026160600698,12.000000384000002,0.7199994039200001,0.36205801158585604,1684,-0.7,99,P-GPS,
0.37590880094252,36.925448125552,8100,2018-04-17 07:14:42,1643.00261607607,12.500000400000001,0.0,0.15354800491353598,1643.00261607607,12.500000400000001,0.7199994039200001,0.36205801158585604,1684,-1.4,99,P-GPS,
0.375908825304551,36.9254479219417,8200,2018-04-17 07:14:42,1643.50261609207,13.000000416,0.0,0.13957400446636803,1643.50261609207,13.000000416,0.7199994039200001,0.36205801158585604,1684,-2.1,99,P-GPS,
0.375908865461115,36.9254477416806,8300,2018-04-17 07:14:42,1644.00261610807,13.500000432,0.0,0.127374004075968,1644.00261610807,13.500000432,0.7199994039200001,0.36205801158585604,1684,-3.6,99,P-GPS,
0.37590887816995,36.9254473922095,8500,2018-04-17 07:14:42,1645.00261614007,14.500000464000001,0.0,0.118202003782464,1645.00261614007,14.500000464000001,0.7199994039200001,0.36205801158585604,1684,-4.3,99,P-GPS,
0.375908889968663,36.9254472270871,8600,2018-04-17 07:14:42,1645.50261615607,15.00000048,0.0,0.11751000376032,1645.50261615607,15.00000048,0.7199994039200001,0.36205801158585604,1684,-4.3,99,P-GPS,
0.37590893688131,36.9254470730491,8700,2018-04-17 07:14:43,1646.0026161720698,15.500000496,0.0,0.115589003698848,1646.0026161720698,15.500000496,0.7199994039200001,0.36205801158585604,1684,-5.1,99,P-GPS,
0.375908977862197,36.9254469239608,8800,2018-04-17 07:14:43,1646.5026161880699,16.000000512,0.0,0.11680400373772801,1646.5026161880699,16.000000512,0.7199994039200001,0.36205801158585604,1684,-5.9,99,P-GPS,
0.375908985108111,36.9254468183856,8900,2018-04-17 07:14:43,1647.00261620407,16.500000528,0.0,0.121281003880992,1647.00261620407,16.500000528,0.7199994039200001,0.36205801158585604,1684,-6.6,99,P-GPS,
0.375908949313615,36.9254467471413,9000,2018-04-17 07:14:43,1647.50261622007,17.000000544,0.0,0.128691004118112,1647.50261622007,17.000000544,0.7199994039200001,0.36205801158585604,1684,-6.6,99,P-GPS,
0.375908918962879,36.9254467123742,9100,2018-04-17 07:14:43,1648.0026162360698,17.50000056,0.0,0.133588004274816,1648.0026162360698,17.50000056,0.7199994039200001,0.36205801158585604,1684,-8.2,99,P-GPS,
0.37590890122546,36.9254466661582,9200,2018-04-17 07:14:43,1648.50261625207,18.000000576,0.0,0.138012004416384,1648.50261625207,18.000000576,0.7199994039200001,0.36205801158585604,1684,-9.0,99,P-GPS,
0.375908885402633,36.9254466440539,9300,2018-04-17 07:14:43,1649.00261626807,18.500000592000003,0.0,0.140834004506688,1649.00261626807,18.500000592000003,0.7199994039200001,0.36205801158585604,1684,-10.0,99,P-GPS,
0.375908871506611,36.9254466236582,9400,2018-04-17 07:14:43,1649.50261628407,19.000000608,0.0,0.14338000458816,1649.50261628407,19.000000608,0.7199994039200001,0.36205801158585604,1676,-11.0,99,P-GPS,
0.37590887363341,36.9254466286576,9500,2018-04-17 07:14:43,1650.00261630007,19.500000624000002,0.0,0.142874004571968,1650.00261630007,19.500000624000002,0.7199994039200001,0.36205801158585604,1676,-11.2,99,P-GPS,
0.375908886049023,36.9254466213499,9600,2018-04-17 07:14:44,1650.6026163192698,20.1000006432,0.0,0.142188004550016,1650.6026163192698,20.1000006432,0.7199994039200001,0.36205801158585604,1654,-11.3,99,P-GPS,
0.375908913371566,36.9254466096115,9700,2018-04-17 07:14:44,1651.1026163352699,20.6000006592,0.0,0.1404500044944,1651.1026163352699,20.6000006592,0.7199994039200001,0.36205801158585604,1654,-11.5,99,P-GPS,
0.3759089445295,36.9254465977945,9800,2018-04-17 07:14:44,1651.60261635127,21.1000006752,0.0,0.138433004429856,1651.60261635127,21.1000006752,0.7199994039200001,0.36205801158585604,1649,-11.5,99,P-GPS,
0.375909068680824,36.9254466956036,10000,2018-04-17 07:14:44,1652.6026163832698,22.1000007072,0.0,0.120863003867616,1652.6026163832698,22.1000007072,0.7199994039200001,0.36205801158585604,1666,-11.5,99,P-GPS,
0.375909131081322,36.925446768947,10100,2018-04-17 07:14:44,1653.1026163992701,22.6000007232,0.0,0.1104500035344,1653.1026163992701,22.6000007232,0.7199994039200001,0.36205801158585604,1676,-11.7,99,P-GPS,
0.375909171669398,36.9254468439932,10200,2018-04-17 07:14:44,1653.60261641527,23.1000007392,0.0,0.102018003264576,1653.60261641527,23.1000007392,0.7199994039200001,0.36205801158585604,1676,-13.0,99,P-GPS,
0.37590920401501,36.9254469772356,10300,2018-04-17 07:14:44,1654.1026164312698,23.6000007552,0.0,0.0915083029282656,1654.1026164312698,23.6000007552,0.7199994039200001,0.36205801158585604,1681,-14.5,99,P-GPS,
0.375909222495419,36.9254471096548,10400,2018-04-17 07:14:44,1654.60261644727,24.100000771200005,0.0,0.08398400268748801,1654.60261644727,24.100000771200005,0.7199994039200001,0.36205801158585604,1684,-16.2,99,P-GPS,
0.375909215906989,36.9254472452224,10500,2018-04-17 07:14:44,1655.10261646327,24.600000787200003,0.0,0.08129150260132802,1655.10261646327,24.600000787200003,0.7199994039200001,0.36205801158585604,1684,-18.3,99,P-GPS,
0.375909192233809,36.9254473463656,10600,2018-04-17 07:14:44,1655.60261647927,25.100000803200004,0.0,0.083160502661136,1655.60261647927,25.100000803200004,0.7199994039200001,0.36205801158585604,1684,-21.1,99,P-GPS,
0.375909156355333,36.9254474757294,10700,2018-04-17 07:14:44,1656.1026164952698,25.6000008192,0.0,0.08835090282722881,1656.1026164952698,25.6000008192,0.7199994039200001,0.36205801158585604,1684,-21.1,99,P-GPS,
0.375909113281183,36.9254475786447,10800,2018-04-17 07:14:45,1656.60261651127,26.100000835200003,0.0,0.0955352030571264,1656.60261651127,26.100000835200003,0.7199994039200001,0.36205801158585604,1684,-26.5,99,P-GPS,
0.375909075683769,36.9254476861615,10900,2018-04-17 07:14:45,1657.10261652727,26.6000008512,0.0,0.10333000330656,1657.10261652727,26.6000008512,0.7199994039200001,0.36205801158585604,1684,-26.7,99,P-GPS,
0.375909040504137,36.9254477569684,11000,2018-04-17 07:14:45,1657.6026165432697,27.100000867200002,0.0,0.11001600352051201,1657.6026165432697,27.100000867200002,0.7199994039200001,0.36205801158585604,1684,-26.7,99,P-GPS,
0.375909000507288,36.9254478207309,11100,2018-04-17 07:14:45,1658.10261655927,27.600000883200003,0.0,0.11710200374726401,1658.10261655927,27.600000883200003,0.7199994039200001,0.36205801158585604,1684,-26.7,99,P-GPS,
0.375908968282875,36.9254478764825,11200,2018-04-17 07:14:45,1658.7026165784698,28.200000902400003,0.0,0.12316100394115201,1658.7026165784698,28.200000902400003,0.7199994039200001,0.36205801158585604,1684,-26.7,99,P-GPS,
0.375908975031325,36.9254480019558,11300,2018-04-17 07:14:45,1659.20261659447,28.7000009184,0.0,0.129809004153888,1659.20261659447,28.7000009184,0.7199994039200001,0.36205801158585604,1684,-26.7,99,P-GPS,
0.375909008254153,36.9254481434137,11400,2018-04-17 07:14:45,1659.70261661047,29.200000934400002,0.0,0.136442004366144,1659.70261661047,29.200000934400002,0.7199994039200001,0.36205801158585604,1684,-26.7,99,P-GPS,
0.375909060337568,36.9254483140474,11500,2018-04-17 07:14:45,1660.3026166296697,29.8000009536,0.0,0.14552700465686402,1660.3026166296697,29.8000009536,0.7199994039200001,0.36205801158585604,1684,-26.7,99,P-GPS,
0.375909095363044,36.9254484504263,11600,2018-04-17 07:14:46,1660.80261664567,30.300000969600003,0.0,0.154691004950112,1660.80261664567,30.300000969600003,0.7199994039200001,0.36205801158585604,1684,-26.7,99,P-GPS,
0.375909114822199,36.925448596876,11700,2018-04-17 07:14:46,1661.3026166616698,30.8000009856,0.0,0.166721005335072,1661.3026166616698,30.8000009856,0.7199994039200001,0.36205801158585604,1684,-26.7,99,P-GPS,
0.375909112067788,36.9254487026274,11800,2018-04-17 07:14:46,1661.80261667767,31.300001001600002,0.0,0.176817005658144,1661.80261667767,31.300001001600002,0.7199994039200001,0.36205801158585604,1684,-26.7,99,P-GPS,
0.375909118734193,36.9254488325384,11900,2018-04-17 07:14:46,1662.40261669687,31.9000010208,0.0,0.18894000604608002,1662.40261669687,31.9000010208,0.7199994039200001,0.36205801158585604,1684,-26.7,99,P-GPS,
0.375909124584759,36.9254489344542,12000,2018-04-17 07:14:46,1662.9026167128698,32.4000010368,0.0,0.19863900635644802,1662.9026167128698,32.4000010368,0.7199994039200001,0.36205801158585604,1684,-26.7,99,P-GPS,
0.375909120853256,36.9254490416993,12100,2018-04-17 07:14:46,1663.40261672887,32.9000010528,0.0,0.209501006704032,1663.40261672887,32.9000010528,0.7199994039200001,0.36205801158585604,1684,-26.7,99,P-GPS,
0.375909104256664,36.9254491215845,12200,2018-04-17 07:14:46,1663.9026167448699,33.4000010688,0.0,0.218314006986048,1663.9026167448699,33.4000010688,0.7199994039200001,0.36205801158585604,1684,-26.7,99,P-GPS,
0.375909109720781,36.9254492238708,12300,2018-04-17 07:14:46,1664.50261676407,34.000001088,0.0,0.228412007309184,1664.50261676407,34.000001088,0.7199994039200001,0.36205801158585604,1684,-26.7,99,P-GPS,
0.375909125699709,36.9254492996122,12400,2018-04-17 07:14:46,1665.00261678007,34.500001104,0.0,0.235451007534432,1665.00261678007,34.500001104,0.7199994039200001,0.36205801158585604,1684,-26.7,99,P-GPS,
0.375909116053354,36.9254493760161,12500,2018-04-17 07:14:46,1665.50261679607,35.00000112,0.0,0.243717007798944,1665.50261679607,35.00000112,0.7199994039200001,0.36205801158585604,1684,-26.7,99,P-GPS,
0.375909084480191,36.9254494056735,12600,2018-04-17 07:14:46,1666.0026168120698,35.500001136,0.0,0.24810100793923204,1666.0026168120698,35.500001136,0.7199994039200001,0.36205801158585604,1684,-26.7,99,P-GPS,
0.375909070747396,36.9254494289806,12700,2018-04-17 07:14:47,1666.5026168280701,36.000001152,0.0,0.251081008034592,1666.5026168280701,36.000001152,0.7199994039200001,0.36205801158585604,1684,-26.7,99,P-GPS,
0.375909115037498,36.9254494642092,12800,2018-04-17 07:14:47,1667.00261684407,36.500001168000004,0.0,0.252872008091904,1667.00261684407,36.500001168000004,0.7199994039200001,0.36205801158585604,1684,-26.7,99,P-GPS,
0.37590919003242,36.9254495180361,12900,2018-04-17 07:14:47,1667.6026168632698,37.10000118720001,0.0,0.25561800817977604,1667.6026168632698,37.10000118720001,0.7199994039200001,0.36205801158585604,1684,-26.7,99,P-GPS,
0.375909258296515,36.925449535381,13000,2018-04-17 07:14:47,1668.10261687927,37.6000012032,0.0,0.255084008162688,1668.10261687927,37.6000012032,0.7199994039200001,0.36205801158585604,1684,-26.7,99,P-GPS,
0.375909350261138,36.9254495307872,13100,2018-04-17 07:14:47,1668.6026168952699,38.1000012192,0.0,0.25174000805568003,1668.6026168952699,38.1000012192,0.7199994039200001,0.36205801158585604,1684,-26.7,99,P-GPS,
0.375909452100215,36.9254495192724,13200,2018-04-17 07:14:47,1669.1026169112697,38.600001235200004,0.0,0.24778000792896002,1669.1026169112697,38.600001235200004,0.7199994039200001,0.36205801158585604,1684,-26.7,99,P-GPS,
0.375909545523373,36.9254495585814,13300,2018-04-17 07:14:47,1669.60261692727,39.100001251200005,0.0,0.250016008000512,1669.60261692727,39.100001251200005,0.7199994039200001,0.36205801158585604,1684,-26.7,99,P-GPS,
0.3759095979868,36.9254496183447,13400,2018-04-17 07:14:47,1670.2026169464698,39.7000012704,0.0,0.255629008180128,1670.2026169464698,39.7000012704,0.7199994039200001,0.36205801158585604,1684,-26.7,99,P-GPS,
0.375909612417944,36.9254497079076,13500,2018-04-17 07:14:47,1670.70261696247,40.2000012864,0.0,0.26525600848819203,1670.70261696247,40.2000012864,0.7199994039200001,0.36205801158585604,1684,-26.7,99,P-GPS,
0.375909605671478,36.9254497670748,13600,2018-04-17 07:14:47,1671.20261697847,40.700001302400004,0.0,0.27187700870006404,1671.20261697847,40.700001302400004,0.7199994039200001,0.36205801158585604,1684,-26.7,99,P-GPS,
0.375909619010369,36.9254497920516,13700,2018-04-17 07:14:48,1671.70261699447,41.2000013184,0.0,0.274432008781824,1671.70261699447,41.2000013184,0.7199994039200001,0.36205801158585604,1684,-26.7,99,P-GPS,
0.375909658229178,36.9254497735488,13800,2018-04-17 07:14:48,1672.20261701047,41.7000013344,0.0,0.271854008699328,1672.20261701047,41.7000013344,0.7199994039200001,0.36205801158585604,1684,-26.7,99,P-GPS,
0.375909715969883,36.9254497433963,13900,2018-04-17 07:14:48,1672.70261702647,42.2000013504,0.0,0.267851008571232,1672.70261702647,42.2000013504,0.7199994039200001,0.36205801158585604,1684,-26.7,99,P-GPS,
0.375909757691433,36.9254497098781,14000,2018-04-17 07:14:48,1673.3026170456699,42.800001369600004,0.0,0.26374200843974405,1673.3026170456699,42.800001369600004,0.7199994039200001,0.36205801158585604,1684,-26.7,99,P-GPS,
0.375909788366636,36.9254496967659,14100,2018-04-17 07:14:48,1673.80261706167,43.300001385600005,0.0,0.26204700838550404,1673.80261706167,43.300001385600005,0.7199994039200001,0.36205801158585604,1684,-26.7,99,P-GPS,
0.375909800637877,36.9254496794689,14200,2018-04-17 07:14:48,1674.30261707767,43.80000140160001,0.0,0.260042008321344,1674.30261707767,43.80000140160001,0.7199994039200001,0.36205801158585604,1684,-26.7,99,P-GPS,
0.375909807933459,36.9254496689602,14300,2018-04-17 07:14:48,1674.8026170936698,44.30000141760001,0.0,0.25882900828252803,1674.8026170936698,44.30000141760001,0.7199994039200001,0.36205801158585604,1684,-26.7,99,P-GPS,
0.375909808283015,36.9254496584309,14400,2018-04-17 07:14:48,1675.30261710967,44.8000014336,0.0,0.257657008245024,1675.30261710967,44.8000014336,0.7199994039200001,0.36205801158585604,1684,-26.7,99,P-GPS,
0.375909867006945,36.9254496368943,14600,2018-04-17 07:14:49,1676.4026171448697,45.9000014688,0.0,0.2549750081592,1676.4026171448697,45.9000014688,0.7199994039200001,0.36205801158585604,1684,-26.7,99,P-GPS,
0.375909918975783,36.9254495639525,14800,2018-04-17 07:14:49,1677.4026171768699,46.9000015008,0.0,0.24674500789584,1677.4026171768699,46.9000015008,0.7199994039200001,0.36205801158585604,1684,-26.7,99,P-GPS,
0.375909976569522,36.9254495571195,14900,2018-04-17 07:14:49,1677.90261719287,47.4000015168,0.0,0.24600800787225602,1677.90261719287,47.4000015168,0.7199994039200001,0.36205801158585604,1684,-26.7,99,P-GPS,
0.375910043755253,36.9254495728994,15000,2018-04-17 07:14:49,1678.50261721207,48.000001536000006,0.0,0.247997007935904,1678.50261721207,48.000001536000006,0.7199994039200001,0.36205801158585604,1684,-26.7,99,P-GPS,
0.375910167296852,36.9254495790501,15200,2018-04-17 07:14:49,1679.60261724727,49.1000015712,0.0,0.24969500799024,1679.60261724727,49.1000015712,0.7199994039200001,0.36205801158585604,1684,-26.7,99,P-GPS,
0.375910260436521,36.9254494433393,15400,2018-04-17 07:14:49,1680.50261727607,50.000001600000004,0.35999970196000003,0.236026007552832,1680.50261727607,50.000001600000004,0.7199994039200001,0.36205801158585604,1684,-26.7,99,P-GPS,
0.375910291334312,36.9254493641144,15500,2018-04-17 07:14:49,1681.10261729527,50.6000016192,0.35999970196000003,0.22788500729232,1681.10261729527,50.6000016192,0.7199994039200001,0.36205801158585604,1684,-26.7,99,P-GPS,
0.37591034700613,36.9254492807207,15600,2018-04-17 07:14:49,1681.6026173112698,51.1000016352,0.35999970196000003,0.21994400703820802,1681.6026173112698,51.1000016352,0.7199994039200001,0.36205801158585604,1684,-26.7,99,P-GPS,
0.375910420728436,36.9254491792912,15700,2018-04-17 07:14:50,1682.1026173272699,51.6000016512,0.35999970196000003,0.21084700674710402,1682.1026173272699,51.6000016512,0.7199994039200001,0.36205801158585604,1684,-26.7,99,P-GPS,
0.37591047998619,36.925449058949,15800,2018-04-17 07:14:50,1682.60261734327,52.1000016672,0.35999970196000003,0.199812006393984,1682.60261734327,52.1000016672,0.7199994039200001,0.36205801158585604,1684,-26.7,99,P-GPS,
0.375910538484478,36.9254489679722,15900,2018-04-17 07:14:50,1683.00261735607,52.500001680000004,0.35999970196000003,0.192339006154848,1683.00261735607,52.500001680000004,0.7199994039200001,0.36205801158585604,1684,-26.7,99,P-GPS,
0.375910579773981,36.9254488941472,16000,2018-04-17 07:14:50,1683.5026173720698,53.000001696000005,0.0,0.18636300596361602,1683.5026173720698,53.000001696000005,0.7199994039200001,0.36205801158585604,1684,-26.7,99,P-GPS,
0.375910606995458,36.9254488344709,16100,2018-04-17 07:14:50,1684.00261738807,53.500001712,0.0,0.181463005806816,1684.00261738807,53.500001712,0.7199994039200001,0.36205801158585604,1684,-26.7,99,P-GPS,
0.375910623473988,36.9254487596939,16200,2018-04-17 07:14:50,1684.50261740407,54.000001728,0.0,0.174697005590304,1684.50261740407,54.000001728,0.7199994039200001,0.36205801158585604,1684,-26.7,99,P-GPS,
0.375910630627132,36.9254486957622,16300,2018-04-17 07:14:50,1685.00261742007,54.500001744,0.35999970196000003,0.16868400539788803,1685.00261742007,54.500001744,0.7199994039200001,0.36205801158585604,1684,-26.7,99,P-GPS,
0.375910624475278,36.9254486166443,16400,2018-04-17 07:14:50,1685.5026174360698,55.00000176,0.35999970196000003,0.1605750051384,1685.5026174360698,55.00000176,0.7199994039200001,0.36205801158585604,1684,-26.7,99,P-GPS,
0.375910640529802,36.9254485475374,16500,2018-04-17 07:14:50,1685.90261744887,55.4000017728,0.0,0.154743004951776,1685.90261744887,55.4000017728,0.7199994039200001,0.36205801158585604,1684,-26.7,99,P-GPS,
0.375910666285476,36.9254484821793,16600,2018-04-17 07:14:50,1686.40261746487,55.900001788800004,0.0,0.15003000480096002,1686.40261746487,55.900001788800004,0.7199994039200001,0.36205801158585604,1684,-26.7,99,P-GPS,
0.375910691235986,36.9254484679779,16700,2018-04-17 07:14:51,1686.90261748087,56.400001804800006,0.0,0.150227004807264,1686.90261748087,56.400001804800006,0.7199994039200001,0.36205801158585604,1684,-26.7,99,P-GPS,
0.375910701703217,36.925448471181,16800,2018-04-17 07:14:51,1687.4026174968699,56.90000182080001,0.0,0.151172004837504,1687.4026174968699,56.90000182080001,0.7199994039200001,0.36205801158585604,1684,-26.7,99,P-GPS,
0.375910681777576,36.9254484619364,17000,2018-04-17 07:14:51,1688.40261752887,57.9000018528,0.0,0.149084004770688,1688.40261752887,57.9000018528,0.7199994039200001,0.36205801158585604,1684,-26.7,99,P-GPS,
0.375910669858994,36.925448481122,17100,2018-04-17 07:14:51,1688.9026175448698,58.400001868800004,0.0,0.15014500480464002,1688.9026175448698,58.400001868800004,0.7199994039200001,0.36205801158585604,1684,-26.7,99,P-GPS,
0.375910661607465,36.9254485240499,17200,2018-04-17 07:14:51,1689.4026175608699,58.900001884800005,0.0,0.15370200491846403,1689.4026175608699,58.900001884800005,0.7199994039200001,0.36205801158585604,1684,-26.7,99,P-GPS,
0.375910651686984,36.9254485930799,17300,2018-04-17 07:14:51,1689.90261757687,59.40000190080001,0.0,0.15975000511200002,1689.90261757687,59.40000190080001,0.7199994039200001,0.36205801158585604,1684,-26.7,99,P-GPS,
0.375910617416991,36.9254486674081,17400,2018-04-17 07:14:51,1690.40261759287,59.9000019168,0.0,0.165208005286656,1690.40261759287,59.9000019168,0.7199994039200001,0.36205801158585604,1684,-26.7,99,P-GPS,
0.375910575215865,36.9254487521107,17500,2018-04-17 07:14:51,1690.9026176088698,60.4000019328,0.0,0.17166100549315202,1690.9026176088698,60.4000019328,0.7199994039200001,0.36205801158585604,1684,-26.7,99,P-GPS,
0.375910527582555,36.9254488077147,17600,2018-04-17 07:14:52,1691.4026176248701,60.9000019488,0.0,0.175272005608704,1691.4026176248701,60.9000019488,0.7199994039200001,0.36205801158585604,1684,-26.7,99,P-GPS,
0.375910486544952,36.9254488429932,17700,2018-04-17 07:14:52,1691.90261764087,61.400001964800005,0.0,0.177302005673664,1691.90261764087,61.400001964800005,0.7199994039200001,0.36205801158585604,1684,-26.7,99,P-GPS,
0.375910453463723,36.9254488612892,17800,2018-04-17 07:14:52,1692.4026176568698,61.900001980800006,0.0,0.17800100569603203,1692.4026176568698,61.900001980800006,0.7199994039200001,0.36205801158585604,1684,-26.7,99,P-GPS,
0.37591046468472,36.9254488779062,17900,2018-04-17 07:14:52,1692.90261767287,62.4000019968,0.0,0.180153005764896,1692.90261767287,62.4000019968,0.7199994039200001,0.36205801158585604,1684,-26.7,99,P-GPS,
0.375910507682155,36.9254488890875,18000,2018-04-17 07:14:52,1693.40261768887,62.9000020128,0.0,0.18292400585356802,1693.40261768887,62.9000020128,0.7199994039200001,0.36205801158585604,1684,-26.7,99,P-GPS,
0.375910562227599,36.9254488967399,18100,2018-04-17 07:14:52,1693.90261770487,63.4000020288,0.0,0.185894005948608,1693.90261770487,63.4000020288,0.7199994039200001,0.36205801158585604,1684,-26.7,99,P-GPS,
0.375910590627968,36.9254489008879,18200,2018-04-17 07:14:52,1694.4026177208698,63.900002044800004,0.0,0.187518006000576,1694.4026177208698,63.900002044800004,0.7199994039200001,0.36205801158585604,1684,-26.7,98,P-GPS,
0.375910591938356,36.9254489156589,18300,2018-04-17 07:14:52,1694.90261773687,64.4000020608,0.0,0.18909100605091203,1694.90261773687,64.4000020608,0.7199994039200001,0.36205801158585604,1684,-26.7,98,P-GPS,
0.375910583733034,36.9254489397506,18400,2018-04-17 07:14:52,1695.40261775287,64.9000020768,0.0,0.19122400611916798,1695.40261775287,64.9000020768,0.7199994039200001,0.36205801158585604,1684,-26.7,98,P-GPS,
0.375910603167394,36.9254490188407,18500,2018-04-17 07:14:52,1696.00261777207,65.500002096,0.0,0.20019300640617602,1696.00261777207,65.500002096,0.7199994039200001,0.36205801158585604,1684,-26.7,98,P-GPS,
0.375910631431889,36.92544910905,18600,2018-04-17 07:14:52,1696.50261778807,66.000002112,0.0,0.210678006741696,1696.50261778807,66.000002112,0.7199994039200001,0.36205801158585604,1684,-26.7,98,P-GPS,
0.37591065751488,36.9254492436602,18700,2018-04-17 07:14:52,1697.0026178040698,66.500002128,0.0,0.22569100722211202,1697.0026178040698,66.500002128,0.7199994039200001,0.36205801158585604,1684,-26.7,98,P-GPS,
0.37591069024233,36.9254493619508,18800,2018-04-17 07:14:53,1697.50261782007,67.000002144,0.0,0.23928500765712002,1697.50261782007,67.000002144,0.7199994039200001,0.36205801158585604,1684,-26.7,98,P-GPS,
0.375910739033667,36.9254494877471,18900,2018-04-17 07:14:53,1698.00261783607,67.50000216000001,0.0,0.25428900813724803,1698.00261783607,67.50000216000001,0.7199994039200001,0.36205801158585604,1684,-26.7,98,P-GPS,
0.375910786265362,36.9254495799842,19000,2018-04-17 07:14:53,1698.5026178520698,68.000002176,0.0,0.265738008503616,1698.5026178520698,68.000002176,0.7199994039200001,0.36205801158585604,1684,-26.7,98,P-GPS,
0.375910824413087,36.9254496491716,19100,2018-04-17 07:14:53,1699.00261786807,68.500002192,0.0,0.274438008782016,1699.00261786807,68.500002192,0.7199994039200001,0.36205801158585604,1684,-26.7,98,P-GPS,
0.375910841655358,36.9254496599986,19200,2018-04-17 07:14:53,1699.5026178840699,69.000002208,0.0,0.276253008840096,1699.5026178840699,69.000002208,0.7199994039200001,0.36205801158585604,1684,-26.7,98,P-GPS,
0.375910814565276,36.9254496532143,19400,2018-04-17 07:14:53,1700.5026179160698,70.00000224,0.0,0.274468008782976,1700.5026179160698,70.00000224,0.7199994039200001,0.36205801158585604,1684,-26.7,98,P-GPS,
0.375910854466428,36.9254498204817,19600,2018-04-17 07:14:54,1701.5026179480699,71.000002272,0.0,0.293444009390208,1701.5026179480699,71.000002272,0.7199994039200001,0.36205801158585604,1684,-26.7,98,P-GPS,
0.37591093595397,36.925449995645,19800,2018-04-17 07:14:54,1702.60261798327,72.1000023072,0.0,0.314861010075552,1702.60261798327,72.1000023072,0.7199994039200001,0.36205801158585604,1684,-26.7,98,P-GPS,
0.375911041595406,36.9254501363835,20000,2018-04-17 07:14:54,1703.60261801527,73.1000023392,0.0,0.333689010678048,1703.60261801527,73.1000023392,0.7199994039200001,0.36205801158585604,1684,-26.7,98,P-GPS,
0.375911103572967,36.9254502043233,20100,2018-04-17 07:14:54,1704.10261803127,73.6000023552,0.0,0.34326601098451204,1704.10261803127,73.6000023552,0.7199994039200001,0.36205801158585604,1684,-26.7,98,P-GPS,
0.375911149948406,36.9254502365172,20200,2018-04-17 07:14:54,1704.60261804727,74.1000023712,0.0,0.34854301115337605,1704.60261804727,74.1000023712,0.7199994039200001,0.36205801158585604,1684,-26.7,98,P-GPS,
0.375911218974279,36.9254502931208,20300,2018-04-17 07:14:54,1705.1026180632698,74.6000023872,0.0,0.357343011434976,1705.1026180632698,74.6000023872,0.7199994039200001,0.36205801158585604,1684,-26.7,98,P-GPS,
0.375911285974979,36.9254503459145,20400,2018-04-17 07:14:54,1705.60261807927,75.10000240320001,0.0,0.365722011703104,1705.60261807927,75.10000240320001,0.7199994039200001,0.365722011703104,1684,-26.7,98,P-GPS,
0.375911340386789,36.9254504213064,20500,2018-04-17 07:14:54,1706.10261809527,75.60000241920001,0.0,0.37585401202732804,1706.10261809527,75.60000241920001,0.7199994039200001,0.37585401202732804,1684,-26.7,98,P-GPS,
0.375911355079629,36.925450482288,20600,2018-04-17 07:14:54,1706.6026181112697,76.1000024352,0.0,0.38270501224656,1706.6026181112697,76.1000024352,0.7199994039200001,0.38270501224656,1684,-26.7,98,P-GPS,
0.375911380195528,36.9254505760037,20700,2018-04-17 07:14:55,1707.20261813047,76.7000024544,0.0,0.39335701258742406,1707.20261813047,76.7000024544,0.7199994039200001,0.39335701258742406,1634,-26.7,98,P-GPS,
0.375911402323435,36.9254506571831,20800,2018-04-17 07:14:55,1707.7026181464698,77.20000247040001,0.0,0.402607012883424,1707.7026181464698,77.20000247040001,0.7199994039200001,0.402607012883424,1571,-26.7,98,P-GPS,
0.375911400755244,36.9254507245786,20900,2018-04-17 07:14:55,1708.2026181624701,77.70000248640001,0.0,0.40940501310096,1708.2026181624701,77.70000248640001,0.7199994039200001,0.40940501310096,1419,-26.7,98,P-GPS,
0.375911342693887,36.9254507528352,21000,2018-04-17 07:14:55,1708.60261817527,78.1000024992,0.35999970196000003,0.409791013113312,1708.60261817527,78.1000024992,0.7199994039200001,0.409791013113312,1354,-26.7,98,P-GPS,
0.375911271299035,36.9254507841108,21100,2018-04-17 07:14:55,1709.10261819127,78.6000025152,0.35999970196000003,0.410076013122432,1709.10261819127,78.6000025152,0.7199994039200001,0.410076013122432,1061,-26.7,98,P-GPS,
0.375911142233042,36.9254508406689,21300,2018-04-17 07:14:55,1709.7026182104698,79.20000253440001,0.35999970196000003,0.411058013153856,1709.7026182104698,79.20000253440001,0.7199994039200001,0.411058013153856,1104,-26.7,98,P-GPS,
0.375911091200457,36.925450883944,21400,2018-04-17 07:14:55,1709.90261821687,79.4000025408,0.0,0.41382101324227205,1709.90261821687,79.4000025408,0.7199994039200001,0.41382101324227205,1110,-26.7,98,P-GPS,
0.375911056940234,36.9254509537419,21500,2018-04-17 07:14:55,1710.00261822007,79.500002544,0.0,0.42006701344214403,1710.00261822007,79.500002544,0.7199994039200001,0.42006701344214403,1110,-26.7,98,P-GPS,
0.375911016172546,36.925450999003,21600,2018-04-17 07:14:56,1710.1026182232697,79.60000254719999,0.0,0.423574013554368,1710.1026182232697,79.60000254719999,0.7199994039200001,0.423574013554368,1080,-26.7,98,P-GPS,
0.375911019920206,36.9254510759449,21700,2018-04-17 07:14:56,1710.20261822647,79.70000255040001,0.0,0.431904013820928,1710.20261822647,79.70000255040001,0.7199994039200001,0.431904013820928,1024,-26.7,98,P-GPS,
0.37591104745984,36.9254511731128,21800,2018-04-17 07:14:56,1710.20261822647,79.70000255040001,0.0,0.44313501418032003,1710.20261822647,79.70000255040001,0.7199994039200001,0.44313501418032003,1024,-26.7,98,P-GPS,
0.375911093997716,36.9254513253045,21900,2018-04-17 07:14:56,1710.20261822647,79.70000255040001,0.0,0.460831014746592,1710.20261822647,79.70000255040001,0.7199994039200001,0.460831014746592,1024,-26.7,98,P-GPS,
0.375911120173732,36.9254514752016,22000,2018-04-17 07:14:56,1710.20261822647,79.70000255040001,0.0,0.47765501528496,1710.20261822647,79.70000255040001,0.7199994039200001,0.47765501528496,1024,-26.7,98,P-GPS,
0.375911142422959,36.9254516666418,22100,2018-04-17 07:14:56,1710.20261822647,79.70000255040001,0.35999970196000003,0.498817015962144,1710.20261822647,79.70000255040001,0.7199994039200001,0.498817015962144,1072,-26.7,98,P-GPS,
0.375911147627263,36.9254518395694,22200,2018-04-17 07:14:56,1710.3026182296699,79.80000255360001,0.35999970196000003,0.5175190165606081,1710.3026182296699,79.80000255360001,0.7199994039200001,0.5175190165606081,1111,-26.7,98,P-GPS,
0.375911108369549,36.9254521362283,22400,2018-04-17 07:14:56,1710.3026182296699,79.80000255360001,0.0,0.5483940175486081,1710.3026182296699,79.80000255360001,0.7199994039200001,0.5483940175486081,1177,-26.7,98,P-GPS,
0.375911074466973,36.9254522958196,22600,2018-04-17 07:14:57,1710.4026182328698,79.9000025568,0.0,0.564797018073504,1710.4026182328698,79.9000025568,0.7199994039200001,0.564797018073504,1200,-26.7,98,P-GPS,
0.37591107714841,36.925452271639,22800,2018-04-17 07:14:57,1710.50261823607,80.00000256,0.0,0.562244017991808,1710.50261823607,80.00000256,0.7199994039200001,0.564797018073504,1226,-26.7,98,P-GPS,
0.375911117477233,36.9254521856364,22900,2018-04-17 07:14:57,1710.60261823927,80.1000025632,0.0,0.553972017727104,1710.60261823927,80.1000025632,0.7199994039200001,0.564797018073504,1226,-26.7,98,P-GPS,
0.37591116561933,36.9254520388781,23000,2018-04-17 07:14:57,1710.60261823927,80.1000025632,0.35999970196000003,0.539456017262592,1710.60261823927,80.1000025632,0.7199994039200001,0.564797018073504,1244,-26.7,98,P-GPS,
0.37591123757396,36.9254519066396,23100,2018-04-17 07:14:57,1710.70261824247,80.20000256640002,0.35999970196000003,0.5273740168759681,1710.70261824247,80.20000256640002,0.7199994039200001,0.564797018073504,1255,-26.7,98,P-GPS,
0.375911298578932,36.9254517548419,23200,2018-04-17 07:14:57,1710.80261824567,80.30000256960001,0.35999970196000003,0.51311501641968,1710.80261824567,80.30000256960001,0.7199994039200001,0.564797018073504,1245,-26.7,98,P-GPS,
0.375911373292961,36.9254516209891,23300,2018-04-17 07:14:57,1710.90261824887,80.4000025728,0.35999970196000003,0.501487016047584,1710.90261824887,80.4000025728,0.7199994039200001,0.564797018073504,1098,-26.7,98,P-GPS,
0.375911547265332,36.9254513166164,23500,2018-04-17 07:14:57,1711.1026182552698,80.6000025792,0.35999970196000003,0.476433015245856,1711.1026182552698,80.6000025792,0.7199994039200001,0.564797018073504,1024,-26.7,98,P-GPS,
0.37591165352456,36.9254511484106,23600,2018-04-17 07:14:58,1711.2026182584698,80.7000025824,0.35999970196000003,0.463876014844032,1711.2026182584698,80.7000025824,0.7199994039200001,0.564797018073504,1024,-26.7,98,P-GPS,
0.375911786243356,36.9254510002187,23700,2018-04-17 07:14:58,1711.2026182584698,80.7000025824,0.7199994039200001,0.45536301457161604,1711.2026182584698,80.7000025824,0.7199994039200001,0.564797018073504,1024,-26.7,98,P-GPS,
0.375911885969063,36.9254508171112,23800,2018-04-17 07:14:58,1711.2026182584698,80.7000025824,0.35999970196000003,0.442599014163168,1711.2026182584698,80.7000025824,0.7199994039200001,0.564797018073504,1024,-26.7,98,P-GPS,
0.375912005816435,36.9254507350316,23900,2018-04-17 07:14:58,1711.1026182552698,80.6000025792,0.35999970196000003,0.44144701412630405,1711.2026182584698,80.7000025824,0.7199994039200001,0.564797018073504,1024,-26.7,98,P-GPS,
0.375912102822029,36.9254506831249,24000,2018-04-17 07:14:58,1711.1026182552698,80.6000025792,0.35999970196000003,0.44230001415360004,1711.2026182584698,80.7000025824,0.7199994039200001,0.564797018073504,1024,-26.7,98,P-GPS,
0.375912205754957,36.9254506954895,24100,2018-04-17 07:14:58,1711.1026182552698,80.6000025792,0.0,0.449766014392512,1711.2026182584698,80.7000025824,0.7199994039200001,0.564797018073504,1024,-26.7,98,P-GPS,
0.375912280204363,36.9254506790905,24200,2018-04-17 07:14:58,1711.1026182552698,80.6000025792,0.0,0.452962014494784,1711.2026182584698,80.7000025824,0.7199994039200001,0.564797018073504,1024,-26.7,98,P-GPS,
0.375912398922408,36.9254507287141,24400,2018-04-17 07:14:58,1711.1026182552698,80.6000025792,0.0,0.46512601488403205,1711.2026182584698,80.7000025824,0.7199994039200001,0.564797018073504,1024,-26.7,98,P-GPS,
0.375912444908649,36.9254507833922,24500,2018-04-17 07:14:58,1711.1026182552698,80.6000025792,0.0,0.473052015137664,1711.2026182584698,80.7000025824,0.7199994039200001,0.564797018073504,1024,-26.7,98,P-GPS,
0.375912457369503,36.9254508090874,24600,2018-04-17 07:14:58,1711.1026182552698,80.6000025792,0.0,0.47617801523769604,1711.2026182584698,80.7000025824,0.7199994039200001,0.564797018073504,1024,-26.7,98,P-GPS,
0.375912451133376,36.925450851044,24700,2018-04-17 07:14:59,1711.1026182552698,80.6000025792,0.0,0.479556015345792,1711.2026182584698,80.7000025824,0.7199994039200001,0.564797018073504,1024,-26.7,98,P-GPS,
0.375912430985657,36.9254508613378,24800,2018-04-17 07:14:59,1711.1026182552698,80.6000025792,0.0,0.479188015334016,1711.2026182584698,80.7000025824,0.7199994039200001,0.564797018073504,1024,-26.7,98,P-GPS,
0.375912434620751,36.9254508843985,24900,2018-04-17 07:14:59,1711.1026182552698,80.6000025792,0.0,0.481516015408512,1711.2026182584698,80.7000025824,0.7199994039200001,0.564797018073504,1024,-26.7,98,P-GPS,
0.375912448973856,36.9254508729557,25000,2018-04-17 07:14:59,1711.1026182552698,80.6000025792,0.0,0.481399015404768,1711.2026182584698,80.7000025824,0.7199994039200001,0.564797018073504,1024,-26.7,98,P-GPS,
0.375912474361909,36.9254508761713,25100,2018-04-17 07:14:59,1711.1026182552698,80.6000025792,0.0,0.483332015466624,1711.2026182584698,80.7000025824,0.7199994039200001,0.564797018073504,1024,-26.7,98,P-GPS,
0.375912495844342,36.9254508569801,25200,2018-04-17 07:14:59,1711.1026182552698,80.6000025792,0.0,0.483001015456032,1711.2026182584698,80.7000025824,0.7199994039200001,0.564797018073504,1024,-26.7,98,P-GPS,
0.375912520834036,36.9254508700414,25300,2018-04-17 07:14:59,1711.1026182552698,80.6000025792,0.0,0.4858130155460161,1711.2026182584698,80.7000025824,0.7199994039200001,0.564797018073504,1024,-26.7,98,P-GPS,
0.375912539586383,36.9254508625578,25400,2018-04-17 07:14:59,1711.1026182552698,80.6000025792,0.0,0.48637801556409604,1711.2026182584698,80.7000025824,0.7199994039200001,0.564797018073504,1024,-26.7,98,P-GPS,
0.375912548153627,36.9254508941029,25500,2018-04-17 07:14:59,1711.1026182552698,80.6000025792,0.0,0.48976801567257605,1711.2026182584698,80.7000025824,0.7199994039200001,0.564797018073504,1024,-26.7,98,P-GPS,
0.375912519161217,36.9254508890597,25600,2018-04-17 07:14:59,1711.1026182552698,80.6000025792,0.35999970196000003,0.48741201559718406,1711.2026182584698,80.7000025824,0.7199994039200001,0.564797018073504,1024,-26.7,98,P-GPS,
0.375912477908253,36.9254509010469,25700,2018-04-17 07:15:00,1711.1026182552698,80.6000025792,0.35999970196000003,0.4858110155459521,1711.2026182584698,80.7000025824,0.7199994039200001,0.564797018073504,1024,-26.7,98,P-GPS,
0.375912423278028,36.9254508644935,25800,2018-04-17 07:15:00,1711.1026182552698,80.6000025792,0.35999970196000003,0.47898001532736,1711.2026182584698,80.7000025824,0.7199994039200001,0.564797018073504,1024,-26.7,98,P-GPS,
0.375912372620392,36.9254508711613,25900,2018-04-17 07:15:00,1711.1026182552698,80.6000025792,0.35999970196000003,0.476364015243648,1711.2026182584698,80.7000025824,0.7199994039200001,0.564797018073504,1024,-26.7,98,P-GPS,
0.375912319126617,36.9254508746652,26000,2018-04-17 07:15:00,1711.00261825207,80.500002576,0.0,0.47333401514668805,1711.2026182584698,80.7000025824,0.7199994039200001,0.564797018073504,1024,-26.7,98,P-GPS,
0.375912275961045,36.9254509420419,26100,2018-04-17 07:15:00,1711.00261825207,80.500002576,0.0,0.47693401526188806,1711.2026182584698,80.7000025824,0.7199994039200001,0.564797018073504,1024,-26.7,98,P-GPS,
0.375912225373839,36.9254509864441,26200,2018-04-17 07:15:00,1711.00261825207,80.500002576,0.35999970196000003,0.47806801529817605,1711.2026182584698,80.7000025824,0.7199994039200001,0.564797018073504,1024,-26.7,98,P-GPS,
0.375912146700046,36.9254510796346,26300,2018-04-17 07:15:00,1711.00261825207,80.500002576,0.35999970196000003,0.482368015435776,1711.2026182584698,80.7000025824,0.7199994039200001,0.564797018073504,1024,-26.7,98,P-GPS,
0.37591182033015,36.9254512701051,26600,2018-04-17 07:15:01,1710.90261824887,80.4000025728,0.0,0.483967015486944,1711.2026182584698,80.7000025824,0.7199994039200001,0.564797018073504,1024,-26.7,98,P-GPS,
0.375911735914666,36.9254513030457,26700,2018-04-17 07:15:01,1710.90261824887,80.4000025728,0.0,0.48331901546620804,1711.2026182584698,80.7000025824,0.7199994039200001,0.564797018073504,1024,-26.7,98,P-GPS,
0.375911667700165,36.9254512945838,26800,2018-04-17 07:15:01,1710.90261824887,80.4000025728,0.0,0.479372015339904,1711.2026182584698,80.7000025824,0.7199994039200001,0.564797018073504,1024,-26.7,98,P-GPS,
0.375911612550466,36.9254513130181,26900,2018-04-17 07:15:01,1710.90261824887,80.4000025728,0.0,0.47883601532275205,1711.2026182584698,80.7000025824,0.7199994039200001,0.564797018073504,1024,-26.7,98,P-GPS,
0.375911561979342,36.9254512973918,27000,2018-04-17 07:15:01,1710.90261824887,80.4000025728,0.0,0.475071015202272,1711.2026182584698,80.7000025824,0.7199994039200001,0.564797018073504,1024,-26.7,98,P-GPS,
0.375911499258803,36.925451313836,27100,2018-04-17 07:15:01,1710.90261824887,80.4000025728,0.0,0.474169015173408,1711.2026182584698,80.7000025824,0.7199994039200001,0.564797018073504,1024,-26.7,98,P-GPS,
0.375911414994562,36.9254513150025,27200,2018-04-17 07:15:01,1710.80261824567,80.30000256960001,0.0,0.47094401507020806,1711.2026182584698,80.7000025824,0.7199994039200001,0.564797018073504,1024,-26.7,98,P-GPS,
0.375911266311518,36.9254513512741,27400,2018-04-17 07:15:01,1710.80261824567,80.30000256960001,0.0,0.46927101501667207,1711.2026182584698,80.7000025824,0.7199994039200001,0.564797018073504,1024,-26.7,98,P-GPS,
0.375911134560832,36.9254514117868,27600,2018-04-17 07:15:01,1710.80261824567,80.30000256960001,0.0,0.47132701508246405,1711.2026182584698,80.7000025824,0.7199994039200001,0.564797018073504,1024,-26.7,98,P-GPS,
0.375911026972183,36.9254514360859,27800,2018-04-17 07:15:02,1710.90261824887,80.4000025728,0.0,0.470707015062624,1711.2026182584698,80.7000025824,0.7199994039200001,0.564797018073504,1024,-26.7,98,P-GPS,
0.375911006214102,36.9254514595553,27900,2018-04-17 07:15:02,1711.00261825207,80.500002576,0.0,0.47264501512464,1711.2026182584698,80.7000025824,0.7199994039200001,0.564797018073504,1024,-26.7,98,P-GPS,
0.375911020533519,36.9254514615242,28000,2018-04-17 07:15:02,1711.00261825207,80.500002576,0.0,0.47325901514428803,1711.2026182584698,80.7000025824,0.7199994039200001,0.564797018073504,1024,-26.7,98,P-GPS,
0.375911060132188,36.9254515192313,28100,2018-04-17 07:15:02,1711.00261825207,80.500002576,0.0,0.480591015378912,1711.2026182584698,80.7000025824,0.7199994039200001,0.564797018073504,1024,-26.7,98,P-GPS,
0.375911113171016,36.9254515534601,28200,2018-04-17 07:15:02,1711.00261825207,80.500002576,0.0,0.485819015546208,1711.2026182584698,80.7000025824,0.7199994039200001,0.564797018073504,1024,-26.7,98,P-GPS,
0.375911177310336,36.9254515992817,28300,2018-04-17 07:15:02,1711.00261825207,80.500002576,0.0,0.492673015765536,1711.2026182584698,80.7000025824,0.7199994039200001,0.564797018073504,1024,-26.7,98,P-GPS,
0.375911245247391,36.9254515927681,28400,2018-04-17 07:15:02,1711.00261825207,80.500002576,0.35999970196000003,0.49414401581260803,1711.2026182584698,80.7000025824,0.7199994039200001,0.564797018073504,1024,-26.7,98,P-GPS,
0.375911323157241,36.9254515817281,28500,2018-04-17 07:15:02,1711.1026182552698,80.6000025792,0.35999970196000003,0.495591015858912,1711.2026182584698,80.7000025824,0.7199994039200001,0.564797018073504,1024,-26.7,98,P-GPS,
0.375911414939602,36.9254515037862,28600,2018-04-17 07:15:03,1711.1026182552698,80.6000025792,0.503999582744,0.490676015701632,1711.2026182584698,80.7000025824,0.7199994039200001,0.564797018073504,1024,-26.7,98,P-GPS,
0.375911526303187,36.925451394724,28700,2018-04-17 07:15:03,1711.1026182552698,80.6000025792,0.7919993443119999,0.48364101547651206,1711.2026182584698,80.7000025824,0.7919993443119999,0.564797018073504,1024,-26.7,98,P-GPS,
0.375911666971436,36.9254512202997,28800,2018-04-17 07:15:03,1711.1026182552698,80.6000025792,0.7919993443119999,0.47178301509705606,1711.2026182584698,80.7000025824,0.7919993443119999,0.564797018073504,1024,-26.7,98,P-GPS,
0.37591185463373,36.9254510491866,28900,2018-04-17 07:15:03,1711.1026182552698,80.6000025792,1.295998927056,0.46367301483753603,1711.2026182584698,80.7000025824,1.295998927056,0.564797018073504,1024,-26.7,98,P-GPS,
0.375912081013093,36.9254508337002,29000,2018-04-17 07:15:03,1711.2026182584698,80.7000025824,1.295998927056,0.45517001456544004,1711.2026182584698,80.7000025824,1.295998927056,0.564797018073504,1024,-26.7,98,P-GPS,
0.375912343880187,36.9254506231397,29100,2018-04-17 07:15:03,1711.2026182584698,80.7000025824,1.295998927056,0.45203501446512007,1711.2026182584698,80.7000025824,1.295998927056,0.564797018073504,1024,-26.7,98,P-GPS,
0.375912627088379,36.9254503682461,29200,2018-04-17 07:15:03,1711.2026182584698,80.7000025824,1.5119987482319999,0.449783014393056,1711.2026182584698,80.7000025824,1.5119987482319999,0.564797018073504,1024,-26.7,98,P-GPS,
0.375912943645475,36.9254501234827,29300,2018-04-17 07:15:03,1711.2026182584698,80.7000025824,1.7999985098000002,0.454998014559936,1711.2026182584698,80.7000025824,1.7999985098000002,0.564797018073504,1024,-26.7,98,P-GPS,
0.3759132803165,36.9254498309481,29400,2018-04-17 07:15:03,1711.30261826167,80.80000258560001,1.7999985098000002,0.46302601481683203,1711.30261826167,80.80000258560001,1.7999985098000002,0.564797018073504,1024,-26.7,98,P-GPS,
0.375913652282828,36.9254495317923,29500,2018-04-17 07:15:03,1711.30261826167,80.80000258560001,1.7999985098000002,0.47911301533161604,1711.30261826167,80.80000258560001,1.7999985098000002,0.564797018073504,1024,-26.7,98,P-GPS,
0.375914037708246,36.9254491734422,29600,2018-04-17 07:15:03,1711.30261826167,80.80000258560001,2.051998301172,0.49898301596745603,1711.30261826167,80.80000258560001,2.051998301172,0.564797018073504,1024,-26.7,98,P-GPS,
0.375914449223779,36.9254488223806,29700,2018-04-17 07:15:04,1711.30261826167,80.80000258560001,2.051998301172,0.52767001688544,1711.30261826167,80.80000258560001,2.051998301172,0.564797018073504,1024,-26.7,98,P-GPS,
0.375914864513231,36.9254484353831,29800,2018-04-17 07:15:04,1711.30261826167,80.80000258560001,2.303998092544,0.56089001794848,1711.30261826167,80.80000258560001,2.303998092544,0.564797018073504,1024,-26.7,98,P-GPS,
0.375915312393547,36.9254480544399,29900,2018-04-17 07:15:04,1711.30261826167,80.80000258560001,2.303998092544,0.602622019283904,1711.30261826167,80.80000258560001,2.303998092544,0.602622019283904,1024,-26.7,98,P-GPS,
0.375915768171817,36.9254476279505,30000,2018-04-17 07:15:04,1711.30261826167,80.80000258560001,2.303998092544,0.648886020764352,1711.30261826167,80.80000258560001,2.303998092544,0.648886020764352,1024,-26.7,98,P-GPS,
0.375916255226796,36.9254471944688,30100,2018-04-17 07:15:04,1711.30261826167,80.80000258560001,2.591997854112,0.702488022479616,1711.30261826167,80.80000258560001,2.591997854112,0.702488022479616,1024,-26.7,98,P-GPS,
0.375916744159778,36.9254467027366,30200,2018-04-17 07:15:04,1711.30261826167,80.80000258560001,2.807997675288,0.7600250243208,1711.30261826167,80.80000258560001,2.807997675288,0.7600250243208,1024,-26.7,98,P-GPS,
0.375917278203101,36.9254461714637,30300,2018-04-17 07:15:04,1711.30261826167,80.80000258560001,2.807997675288,0.8264210264454721,1711.30261826167,80.80000258560001,2.807997675288,0.8264210264454721,1024,-26.7,98,P-GPS,
0.375917811412661,36.9254455670462,30400,2018-04-17 07:15:04,1711.30261826167,80.80000258560001,3.095997436856,0.897401028716832,1711.30261826167,80.80000258560001,3.095997436856,0.897401028716832,1024,-26.7,98,P-GPS,
0.375918381387602,36.9254449031856,30500,2018-04-17 07:15:04,1711.30261826167,80.80000258560001,3.095997436856,0.97722003127104,1711.30261826167,80.80000258560001,3.095997436856,0.97722003127104,1024,-26.7,98,P-GPS,
0.375918938218556,36.9254441691224,30600,2018-04-17 07:15:05,1711.30261826167,80.80000258560001,3.383997198424,1.0611500339568,1711.30261826167,80.80000258560001,3.383997198424,1.0611500339568,1024,-26.7,98,P-GPS,
0.375919553368976,36.9254433583724,30700,2018-04-17 07:15:05,1711.30261826167,80.80000258560001,3.383997198424,1.1573500370352001,1711.30261826167,80.80000258560001,3.383997198424,1.1573500370352001,1024,-26.7,98,P-GPS,
0.375920161820791,36.9254424813363,30800,2018-04-17 07:15:05,1711.2026182584698,80.7000025824,3.707996930188,1.2588500402832,1711.30261826167,80.80000258560001,3.707996930188,1.2588500402832,1024,-26.7,98,P-GPS,
0.375920828400728,36.9254415049315,30900,2018-04-17 07:15:05,1711.2026182584698,80.7000025824,3.707996930188,1.3740300439689601,1711.30261826167,80.80000258560001,3.707996930188,1.3740300439689601,1024,-26.7,98,P-GPS,
0.375921486240807,36.9254404387142,31000,2018-04-17 07:15:05,1711.2026182584698,80.7000025824,4.823996006263999,1.49618004787776,1711.30261826167,80.80000258560001,4.823996006263999,1.49618004787776,1024,-26.7,98,P-GPS,
