latitude,longitude,time_millisecond,datetime_utc,altitude_m,ascent_m,speed_kph,distance_m,max_altitude_m,max_ascent_m,max_speed_kph,max_distance_m,rc_throttle,gimbal_pitch_degrees,battery_percent,flycState,message
0.363246666130954,36.8963133520246,100,2017-11-16 07:16:00,1743.0154366765055,0.0,0.0,0.0,1743.0154366765055,0.0,0.0,0.0,1024,0.0,99,Motors_Started,
0.363246653631018,36.8963132912636,200,2017-11-16 07:16:01,1743.0154366765055,0.0,0.0,0.00689836022074752,1743.0154366765055,0.0,0.0,0.00689836022074752,1024,0.0,99,Motors_Started,
0.363246640522858,36.8963132244869,300,2017-11-16 07:16:01,1743.0154366765055,0.0,0.0,0.0144658004629056,1743.0154366765055,0.0,0.0,0.0144658004629056,1024,0.0,99,Motors_Started,
0.363246641158766,36.89631314315,400,2017-11-16 07:16:01,1743.0154366765055,0.0,0.0,0.023393100748579202,1743.0154366765055,0.0,0.0,0.023393100748579202,1024,0.0,99,Motors_Started,
0.363246638167721,36.8963130587566,500,2017-11-16 07:16:01,1743.0154366765055,0.0,0.0,0.032760501048336,1743.0154366765055,0.0,0.0,0.032760501048336,1024,0.0,99,Motors_Started,
0.36324664503202,36.8963129628499,600,2017-11-16 07:16:01,1743.0154366765055,0.0,0.0,0.0433413013869216,1743.0154366765055,0.0,0.0,0.0433413013869216,1024,0.0,99,Motors_Started,
0.363246647810552,36.8963128689516,700,2017-11-16 07:16:01,1743.0154366765055,0.0,0.0,0.053758201720262404,1743.0154366765055,0.0,0.0,0.053758201720262404,1024,0.0,99,Motors_Started,Setting new Return-To-Home altitude to 30m (98 ft). Setting new Maximum Flight Altitude to 150m (492 ft)
0.363246658550955,36.8963127652038,800,2017-11-16 07:16:01,1743.0154366765055,0.0,0.0,0.06526220208839041,1743.0154366765055,0.0,0.0,0.06526220208839041,1024,0.0,99,Motors_Started,
0.363246664510652,36.8963126653551,900,2017-11-16 07:16:01,1743.0154366765055,0.0,0.0,0.07636050244353601,1743.0154366765055,0.0,0.0,0.07636050244353601,1024,0.0,99,Motors_Started,
0.363246675305201,36.8963125980313,1000,2017-11-16 07:16:01,1743.0154366765055,0.0,0.0,0.08385320268330242,1743.0154366765055,0.0,0.0,0.08385320268330242,1024,0.0,99,Motors_Started,
0.363246681934189,36.8963125254552,1100,2017-11-16 07:16:01,1743.0154366765055,0.0,0.0,0.091934502941904,1743.0154366765055,0.0,0.0,0.091934502941904,1024,0.0,99,Motors_Started,
0.363246687687482,36.8963124401924,1200,2017-11-16 07:16:02,1743.0154366765055,0.0,0.0,0.101428003245696,1743.0154366765055,0.0,0.0,0.101428003245696,1024,0.0,99,Motors_Started,
0.363246694969476,36.8963123521203,1300,2017-11-16 07:16:02,1743.0154366765055,0.0,0.0,0.11123900355964801,1743.0154366765055,0.0,0.0,0.11123900355964801,1024,0.0,99,Motors_Started,
0.363246706943425,36.8963122305491,1500,2017-11-16 07:16:02,1743.0154366765055,0.0,0.0,0.12479500399344001,1743.0154366765055,0.0,0.0,0.12479500399344001,1024,0.0,99,Assisted_Takeoff,
0.36324666931904,36.8963121461749,1600,2017-11-16 07:16:02,1743.0154366765055,0.0,0.0,0.134096004291072,1743.0154366765055,0.0,0.0,0.134096004291072,1024,0.0,99,Assisted_Takeoff,
0.363246644863883,36.8963120658197,1700,2017-11-16 07:16:02,1743.0154366765055,0.0,0.0,0.143051004577632,1743.0154366765055,0.0,0.0,0.143051004577632,1024,0.0,99,Assisted_Takeoff,
0.363246658051022,36.8963120099536,1800,2017-11-16 07:16:02,1743.0154366765055,0.0,0.0,0.14924600477587202,1743.0154366765055,0.0,0.0,0.14924600477587202,1024,0.0,99,Assisted_Takeoff,
0.363246671595605,36.8963119487365,1900,2017-11-16 07:16:02,1743.0154366765055,0.0,0.0,0.156052004993664,1743.0154366765055,0.0,0.0,0.156052004993664,1024,0.0,99,Assisted_Takeoff,
0.363246645832807,36.8963118698267,2000,2017-11-16 07:16:02,1743.0154366765055,0.0,0.0,0.164842005274944,1743.0154366765055,0.0,0.0,0.164842005274944,1024,0.0,99,Assisted_Takeoff,
0.363246627110586,36.8963117907627,2100,2017-11-16 07:16:02,1743.0154366765055,0.0,0.0,0.173673005557536,1743.0154366765055,0.0,0.0,0.173673005557536,1024,0.0,99,Assisted_Takeoff,
0.363246609750152,36.8963117327189,2200,2017-11-16 07:16:03,1743.0154366765055,0.0,0.0,0.18018200576582402,1743.0154366765055,0.0,0.0,0.18018200576582402,1024,0.0,99,Assisted_Takeoff,
0.363246597246552,36.8963116712748,2300,2017-11-16 07:16:03,1743.0154366765055,0.0,0.0,0.18706300598601602,1743.0154366765055,0.0,0.0,0.18706300598601602,1024,0.0,99,Assisted_Takeoff,
0.363246589049779,36.8963115898384,2400,2017-11-16 07:16:03,1743.0154366765055,0.0,0.0,0.196149006276768,1743.0154366765055,0.0,0.0,0.196149006276768,1024,0.0,99,Assisted_Takeoff,
0.363246582257539,36.8963115095689,2500,2017-11-16 07:16:03,1743.0154366765055,0.0,0.0,0.20510000656320002,1743.0154366765055,0.0,0.0,0.20510000656320002,1024,0.0,99,Assisted_Takeoff,
0.363246580711739,36.8963114495959,2600,2017-11-16 07:16:03,1743.0154366765055,0.0,0.0,0.21177100677667202,1743.0154366765055,0.0,0.0,0.21177100677667202,1024,0.0,99,Assisted_Takeoff,
0.363246577543601,36.8963113873574,2700,2017-11-16 07:16:03,1743.0154366765055,0.0,0.0,0.218701006998432,1743.0154366765055,0.0,0.0,0.218701006998432,1024,0.0,99,Assisted_Takeoff,
0.363246579210313,36.8963113041138,2800,2017-11-16 07:16:03,1743.0154366765055,0.0,0.0,0.227941007294112,1743.0154366765055,0.0,0.0,0.227941007294112,1024,0.0,99,Assisted_Takeoff,
0.363246577892902,36.896311222808,2900,2017-11-16 07:16:03,1743.0154366765055,0.0,0.0,0.23698000758336002,1743.0154366765055,0.0,0.0,0.23698000758336002,1024,0.0,99,Assisted_Takeoff,
0.363246581071625,36.8963111609314,3000,2017-11-16 07:16:03,1743.0154366765055,0.0,0.0,0.243842007802944,1743.0154366765055,0.0,0.0,0.243842007802944,1024,0.0,99,Assisted_Takeoff,
0.363246580653929,36.8963110978901,3100,2017-11-16 07:16:03,1743.0154366765055,0.0,0.0,0.25084900802716803,1743.0154366765055,0.0,0.0,0.25084900802716803,1024,0.0,99,Assisted_Takeoff,
0.363246583850564,36.8963110138734,3200,2017-11-16 07:16:04,1743.0154366765055,0.0,0.0,0.260172008325504,1743.0154366765055,0.0,0.0,0.260172008325504,1024,0.0,99,Assisted_Takeoff,
0.363246584114779,36.8963109329509,3300,2017-11-16 07:16:04,1743.0154366765055,0.0,0.0,0.26916500861328,1743.0154366765055,0.0,0.0,0.26916500861328,1024,0.0,99,Assisted_Takeoff,
0.363246588394737,36.8963108705519,3400,2017-11-16 07:16:04,1743.0154366765055,0.0,0.0,0.27608500883472004,1743.0154366765055,0.0,0.0,0.27608500883472004,1065,0.0,99,Assisted_Takeoff,
0.363246589447934,36.8963108065512,3500,2017-11-16 07:16:04,1743.0154366765055,0.0,0.0,0.28319500906224004,1743.0154366765055,0.0,0.0,0.28319500906224004,1173,0.0,99,Assisted_Takeoff,
0.363246593872416,36.8963107585112,3600,2017-11-16 07:16:04,1743.0154366765055,0.0,0.0,0.288521009232672,1743.0154366765055,0.0,0.0,0.288521009232672,1250,0.0,99,Assisted_Takeoff,
0.363246595523251,36.8963107056084,3700,2017-11-16 07:16:04,1743.0154366765055,0.0,0.0,0.294396009420672,1743.0154366765055,0.0,0.0,0.294396009420672,1362,0.0,99,Assisted_Takeoff,
0.363246600178158,36.8963106247758,3800,2017-11-16 07:16:04,1743.0154366765055,0.0,0.0,0.303369009707808,1743.0154366765055,0.0,0.0,0.303369009707808,1469,0.0,99,Assisted_Takeoff,
0.363246603718803,36.8963105494268,3900,2017-11-16 07:16:04,1743.0154366765055,0.0,0.0,0.31173700997558396,1743.0154366765055,0.0,0.0,0.31173700997558396,1550,0.0,99,Assisted_Takeoff,
0.363246610539947,36.8963105039411,4000,2017-11-16 07:16:04,1743.0154366765055,0.0,0.0,0.31677801013689605,1743.0154366765055,0.0,0.0,0.31677801013689605,1596,0.0,99,Assisted_Takeoff,
0.36324663562287,36.8963105273231,4100,2017-11-16 07:16:04,1743.0154366765055,0.0,0.35999970196000003,0.314136010052352,1743.0154366765055,0.0,0.35999970196000003,0.31677801013689605,1673,0.0,99,Assisted_Takeoff,
0.363246669209935,36.8963106183543,4200,2017-11-16 07:16:05,1743.0154366765055,0.0,0.35999970196000003,0.30399500972784,1743.0154366765055,0.0,0.35999970196000003,0.31677801013689605,1684,0.0,99,GPS_Atti,Obstacle Avoided. Revise Flight Route
0.363246708291776,36.8963107362855,4300,2017-11-16 07:16:05,1743.0154366765055,0.0,0.35999970196000003,0.290918009309376,1743.0154366765055,0.0,0.35999970196000003,0.31677801013689605,1684,0.0,99,GPS_Atti,
0.363246728944517,36.8963108768128,4400,2017-11-16 07:16:05,1743.1154366797057,0.1000000032,0.35999970196000003,0.275342008810944,1743.1154366797057,0.1000000032,0.35999970196000003,0.31677801013689605,1684,0.0,99,GPS_Atti,
0.363246732381756,36.8963109553757,4500,2017-11-16 07:16:05,1743.2154366829056,0.2000000064,0.0,0.26661800853177603,1743.2154366829056,0.2000000064,0.35999970196000003,0.31677801013689605,1684,0.0,99,GPS_Atti,
0.363246725258127,36.8963109288355,4600,2017-11-16 07:16:05,1743.3154366861056,0.3000000096,0.0,0.269548008625536,1743.3154366861056,0.3000000096,0.35999970196000003,0.31677801013689605,1684,0.0,99,GPS_Atti,
0.363246695578107,36.8963108297833,4700,2017-11-16 07:16:05,1743.5154366925058,0.500000016,0.0,0.28050200897606403,1743.5154366925058,0.500000016,0.35999970196000003,0.31677801013689605,1684,0.0,99,GPS_Atti,
0.363246632497886,36.8963106047641,4800,2017-11-16 07:16:05,1743.815436702106,0.8000000256,0.35999970196000003,0.30552900977692804,1743.815436702106,0.8000000256,0.35999970196000003,0.31677801013689605,1684,0.0,99,GPS_Atti,Home Point Recorded. RTH Altitude:  30m.
0.363246536050848,36.8963103421988,4900,2017-11-16 07:16:05,1744.1154367117056,1.1000000352000001,0.35999970196000003,0.335017010720544,1744.1154367117056,1.1000000352000001,0.35999970196000003,0.335017010720544,1684,0.0,99,GPS_Atti,
0.363246407055285,36.8963100652018,5000,2017-11-16 07:16:05,1744.4154367213057,1.4000000448,0.35999970196000003,0.366641011732512,1744.4154367213057,1.4000000448,0.35999970196000003,0.366641011732512,1684,0.0,99,GPS_Atti,
0.363246289863499,36.8963097985596,5100,2017-11-16 07:16:05,1744.8154367341056,1.8000000576000001,0.35999970196000003,0.39736801271577604,1744.8154367341056,1.8000000576000001,0.35999970196000003,0.39736801271577604,1684,0.0,99,GPS_Atti,
0.363246185641454,36.8963095314871,5200,2017-11-16 07:16:06,1745.3154367501056,2.3000000736,0.7199994039200001,0.42820501370256003,1745.3154367501056,2.3000000736,0.7199994039200001,0.42820501370256003,1684,0.0,99,GPS_Atti,
0.363246109720545,36.8963092368808,5300,2017-11-16 07:16:06,1745.7154367629055,2.7000000864,0.7199994039200001,0.461784014777088,1745.7154367629055,2.7000000864,0.7199994039200001,0.461784014777088,1684,-0.5,99,GPS_Atti,
0.363246059529052,36.8963090142618,5400,2017-11-16 07:16:06,1746.2154367789058,3.2000001024,0.7199994039200001,0.4870700155862401,1746.2154367789058,3.2000001024,0.7199994039200001,0.4870700155862401,1684,-2.3,99,GPS_Atti,
0.363246033572876,36.8963087940217,5500,2017-11-16 07:16:06,1746.7154367949056,3.7000001184,0.35999970196000003,0.5117260163752321,1746.7154367949056,3.7000001184,0.7199994039200001,0.5117260163752321,1684,-4.1,99,GPS_Atti,
0.363246065435011,36.8963086250635,5600,2017-11-16 07:16:06,1747.3154368141059,4.3000001376,0.35999970196000003,0.5298840169562881,1747.3154368141059,4.3000001376,0.7199994039200001,0.5298840169562881,1684,-6.0,99,GPS_Atti,
0.363246092040529,36.8963084788213,5700,2017-11-16 07:16:06,1747.8154368301057,4.8000001536,0.35999970196000003,0.545667017461344,1747.8154368301057,4.8000001536,0.7199994039200001,0.545667017461344,1684,-7.8,99,GPS_Atti,
0.363246100900078,36.8963084070845,5800,2017-11-16 07:16:06,1748.3154368461055,5.3000001696000005,0.0,0.553477017711264,1748.3154368461055,5.3000001696000005,0.7199994039200001,0.553477017711264,1684,-9.0,99,GPS_Atti,
0.36324612705411,36.8963083349195,5900,2017-11-16 07:16:06,1748.8154368621058,5.8000001856,0.0,0.561133017956256,1748.8154368621058,5.8000001856,0.7199994039200001,0.561133017956256,1684,-9.0,99,GPS_Atti,
0.363246189666968,36.896308269814,6000,2017-11-16 07:16:06,1749.3154368781056,6.3000002016,0.5075995797636,0.56764001816448,1749.3154368781056,6.3000002016,0.7199994039200001,0.56764001816448,1684,-9.0,99,GPS_Atti,
0.363246255533456,36.8963081740529,6100,2017-11-16 07:16:06,1749.8154368941057,6.800000217600001,0.5075995797636,0.577618018483776,1749.8154368941057,6.800000217600001,0.7199994039200001,0.577618018483776,1684,-9.0,99,GPS_Atti,
0.363246338711526,36.8963080790819,6200,2017-11-16 07:16:07,1750.3154369101055,7.3000002336000005,0.5075995797636,0.587501018800032,1750.3154369101055,7.3000002336000005,0.7199994039200001,0.587501018800032,1684,-9.1,99,GPS_Atti,
0.363246416399297,36.8963079495839,6300,2017-11-16 07:16:07,1750.8154369261058,7.8000002496,0.5075995797636,0.601414019245248,1750.8154369261058,7.8000002496,0.7199994039200001,0.601414019245248,1684,-9.5,99,GPS_Atti,
0.363246436258578,36.8963077791204,6400,2017-11-16 07:16:07,1751.3154369421056,8.300000265600001,0.5075995797636,0.62025501984816,1751.3154369421056,8.300000265600001,0.7199994039200001,0.62025501984816,1684,-10.3,99,GPS_Atti,
0.363246445287486,36.8963076101493,6500,2017-11-16 07:16:07,1751.8154369581055,8.800000281600001,0.35999970196000003,0.638991020447712,1751.8154369581055,8.800000281600001,0.7199994039200001,0.638991020447712,1684,-11.0,99,GPS_Atti,
0.363246408027059,36.8963074418399,6600,2017-11-16 07:16:07,1752.3154369741058,9.3000002976,0.0,0.6578620210515841,1752.3154369741058,9.3000002976,0.7199994039200001,0.6578620210515841,1684,-11.2,99,GPS_Atti,
0.363246332331282,36.8963072805815,6700,2017-11-16 07:16:07,1752.8154369901056,9.8000003136,0.0,0.6761880216380161,1752.8154369901056,9.8000003136,0.7199994039200001,0.6761880216380161,1684,-11.6,99,GPS_Atti,
0.36324610092939,36.8963070623755,6900,2017-11-16 07:16:07,1753.8154370221057,10.8000003456,0.0,0.7022520224720641,1753.8154370221057,10.8000003456,0.7199994039200001,0.7022520224720641,1684,-12.7,99,GPS_Atti,
0.363245939497666,36.8963070008052,7000,2017-11-16 07:16:07,1754.3154370381058,11.3000003616,0.0,0.7108880227484161,1754.3154370381058,11.3000003616,0.7199994039200001,0.7108880227484161,1684,-13.9,99,GPS_Atti,
0.363245792145061,36.8963069501164,7100,2017-11-16 07:16:07,1754.8154370541056,11.8000003776,0.0,0.718521022992672,1754.8154370541056,11.8000003776,0.7199994039200001,0.718521022992672,1684,-15.2,99,GPS_Atti,
0.363245674439093,36.8963069434573,7200,2017-11-16 07:16:08,1755.3154370701059,12.300000393600001,0.0,0.7211400230764801,1755.3154370701059,12.300000393600001,0.7199994039200001,0.7211400230764801,1684,-16.5,99,GPS_Atti,
0.363245546699468,36.8963069197798,7300,2017-11-16 07:16:08,1755.8154370861057,12.8000004096,0.0,0.7260420232333441,1755.8154370861057,12.8000004096,0.7199994039200001,0.7260420232333441,1684,-17.5,99,GPS_Atti,
0.363245388877597,36.896306913065,7400,2017-11-16 07:16:08,1756.3154371021055,13.3000004256,0.35999970196000003,0.7299890233596481,1756.3154371021055,13.3000004256,0.7199994039200001,0.7299890233596481,1684,-17.5,99,GPS_Atti,
0.363245165027614,36.896306893186,7500,2017-11-16 07:16:08,1756.8154371181056,13.800000441600002,0.7199994039200001,0.737391023596512,1756.8154371181056,13.800000441600002,0.7199994039200001,0.737391023596512,1684,-17.5,99,GPS_Atti,
0.363244899977998,36.8963068175051,7600,2017-11-16 07:16:08,1757.3154371341057,14.300000457600001,0.35999970196000003,0.752739024087648,1757.3154371341057,14.300000457600001,0.7199994039200001,0.752739024087648,1684,-17.5,99,GPS_Atti,
0.363244669659021,36.8963067436486,7700,2017-11-16 07:16:08,1757.8154371501057,14.8000004736,0.35999970196000003,0.767683024565856,1757.8154371501057,14.8000004736,0.7199994039200001,0.767683024565856,1684,-17.5,99,GPS_Atti,
0.363244446868748,36.8963066627859,7800,2017-11-16 07:16:08,1758.3154371661055,15.3000004896,0.0,0.783741025079712,1758.3154371661055,15.3000004896,0.7199994039200001,0.783741025079712,1684,-17.5,99,GPS_Atti,
0.363244260913471,36.8963065960339,7900,2017-11-16 07:16:08,1758.8154371821058,15.8000005056,0.0,0.7974850255195199,1758.8154371821058,15.8000005056,0.7199994039200001,0.7974850255195199,1684,-17.5,99,GPS_Atti,
0.363244103364771,36.8963065532226,8000,2017-11-16 07:16:08,1759.3154371981057,16.3000005216,0.0,0.807984025855488,1759.3154371981057,16.3000005216,0.7199994039200001,0.807984025855488,1684,-17.5,99,GPS_Atti,
0.363243938703842,36.8963065116982,8100,2017-11-16 07:16:08,1759.8154372141057,16.800000537600003,0.0,0.818911026205152,1759.8154372141057,16.800000537600003,0.7199994039200001,0.818911026205152,1684,-17.5,99,GPS_Atti,
0.363243761845868,36.8963064522519,8200,2017-11-16 07:16:09,1760.3154372301058,17.3000005536,0.0,0.8324860266395521,1760.3154372301058,17.3000005536,0.7199994039200001,0.8324860266395521,1684,-17.5,99,GPS_Atti,
0.363243618050192,36.8963063918871,8300,2017-11-16 07:16:09,1760.8154372461056,17.8000005696,0.0,0.8449640270388481,1760.8154372461056,17.8000005696,0.7199994039200001,0.8449640270388481,1684,-17.5,99,GPS_Atti,
0.363243500641008,36.8963063399029,8400,2017-11-16 07:16:09,1761.3154372621057,18.3000005856,0.0,0.8555520273776641,1761.3154372621057,18.3000005856,0.7199994039200001,0.8555520273776641,1684,-17.5,99,GPS_Atti,
0.363243389148776,36.8963063018323,8500,2017-11-16 07:16:09,1761.8154372781057,18.8000006016,0.0,0.8645640276660481,1761.8154372781057,18.8000006016,0.7199994039200001,0.8645640276660481,1684,-17.5,99,GPS_Atti,
0.363243269592489,36.8963062727397,8600,2017-11-16 07:16:09,1762.4154372973057,19.4000006208,0.0,0.873168027941376,1762.4154372973057,19.4000006208,0.7199994039200001,0.873168027941376,1684,-17.5,99,GPS_Atti,
0.363243155568026,36.8963062507667,8700,2017-11-16 07:16:09,1762.9154373133056,19.900000636799998,0.0,0.880917028189344,1762.9154373133056,19.900000636799998,0.7199994039200001,0.880917028189344,1684,-17.5,99,GPS_Atti,
0.363243014772758,36.8963062452338,8800,2017-11-16 07:16:09,1763.4154373293059,20.4000006528,0.0,0.8885140284324481,1763.4154373293059,20.4000006528,0.7199994039200001,0.8885140284324481,1684,-17.5,99,GPS_Atti,
0.363242879889556,36.8963062800348,8900,2017-11-16 07:16:09,1763.9154373453057,20.900000668800004,0.0,0.89205502854576,1763.9154373453057,20.900000668800004,0.7199994039200001,0.89205502854576,1684,-17.5,99,GPS_Atti,
0.36324276464376,36.8963063536922,9000,2017-11-16 07:16:09,1764.4154373613055,21.400000684800002,0.0,0.891012028512384,1764.4154373613055,21.400000684800002,0.7199994039200001,0.89205502854576,1684,-17.5,99,GPS_Atti,
0.363242665359158,36.8963064303046,9100,2017-11-16 07:16:09,1764.9154373773058,21.900000700800003,0.35999970196000003,0.889054028449728,1764.9154373773058,21.900000700800003,0.7199994039200001,0.89205502854576,1684,-17.5,99,GPS_Atti,
0.363242554216227,36.8963065226055,9200,2017-11-16 07:16:10,1765.4154373933056,22.4000007168,0.35999970196000003,0.8864940283678081,1765.4154373933056,22.4000007168,0.7199994039200001,0.89205502854576,1684,-17.5,99,GPS_Atti,
0.36324246102689,36.896306614202,9300,2017-11-16 07:16:10,1765.9154374093057,22.900000732800002,0.35999970196000003,0.883227028263264,1765.9154374093057,22.900000732800002,0.7199994039200001,0.89205502854576,1684,-17.5,99,GPS_Atti,
0.36324240551812,36.8963067006103,9400,2017-11-16 07:16:10,1766.4154374253058,23.4000007488,0.35999970196000003,0.878404028108928,1766.4154374253058,23.4000007488,0.7199994039200001,0.89205502854576,1684,-17.5,99,GPS_Atti,
0.363242349581069,36.896306791997,9500,2017-11-16 07:16:10,1766.9154374413058,23.9000007648,0.35999970196000003,0.873268027944576,1766.9154374413058,23.9000007648,0.7199994039200001,0.89205502854576,1684,-17.5,99,GPS_Atti,
0.363242290906603,36.8963068971473,9600,2017-11-16 07:16:10,1767.5154374605056,24.500000784,0.35999970196000003,0.867168027749376,1767.5154374605056,24.500000784,0.7199994039200001,0.89205502854576,1684,-17.5,99,GPS_Atti,
0.363242256557019,36.8963069956513,9700,2017-11-16 07:16:10,1768.0154374765057,25.000000800000002,0.35999970196000003,0.8602940275294081,1768.0154374765057,25.000000800000002,0.7199994039200001,0.89205502854576,1684,-17.8,99,GPS_Atti,
0.363242250815126,36.8963071394589,9800,2017-11-16 07:16:10,1768.5154374925057,25.500000816000004,0.35999970196000003,0.847573027122336,1768.5154374925057,25.500000816000004,0.7199994039200001,0.89205502854576,1684,-18.1,99,GPS_Atti,
0.36324223607038,36.896307262878,9900,2017-11-16 07:16:10,1769.0154375085056,26.000000832,0.35999970196000003,0.837387026796384,1769.0154375085056,26.000000832,0.7199994039200001,0.89205502854576,1684,-18.5,99,GPS_Atti,
0.363242209201868,36.89630738149,10000,2017-11-16 07:16:10,1769.5154375245058,26.500000848000003,0.0,0.8285420265133441,1769.5154375245058,26.500000848000003,0.7199994039200001,0.89205502854576,1684,-18.7,99,GPS_Atti,
0.363242192703288,36.8963074841094,10100,2017-11-16 07:16:10,1770.0154375405057,27.000000864,0.0,0.820537026257184,1770.0154375405057,27.000000864,0.7199994039200001,0.89205502854576,1684,-18.9,99,GPS_Atti,
0.363242192932084,36.8963076237867,10200,2017-11-16 07:16:11,1770.615437559706,27.600000883200003,0.0,0.8082240258631681,1770.615437559706,27.600000883200003,0.7199994039200001,0.89205502854576,1684,-18.9,99,GPS_Atti,
0.363242193969403,36.8963077441867,10300,2017-11-16 07:16:11,1771.1154375757058,28.1000008992,0.0,0.797642025524544,1771.1154375757058,28.1000008992,0.7199994039200001,0.89205502854576,1684,-19.1,99,GPS_Atti,
0.36324221726918,36.8963079103613,10400,2017-11-16 07:16:11,1771.6154375917056,28.600000915200003,0.0,0.781636025012352,1771.6154375917056,28.600000915200003,0.7199994039200001,0.89205502854576,1684,-19.3,99,GPS_Atti,
0.363242254408288,36.8963080452059,10500,2017-11-16 07:16:11,1772.2154376109058,29.200000934400002,0.0,0.7674390245580481,1772.2154376109058,29.200000934400002,0.7199994039200001,0.89205502854576,1684,-19.6,99,GPS_Atti,
0.36324234686401,36.896308144986,10600,2017-11-16 07:16:11,1772.7154376269057,29.700000950400003,0.0,0.752334024074688,1772.7154376269057,29.700000950400003,0.7199994039200001,0.89205502854576,1684,-19.8,99,GPS_Atti,
0.363242430699564,36.8963082161169,10700,2017-11-16 07:16:11,1773.2154376429055,30.2000009664,0.0,0.740297023689504,1773.2154376429055,30.2000009664,0.7199994039200001,0.89205502854576,1684,-20.1,99,GPS_Atti,
0.363242515334683,36.8963082840873,10800,2017-11-16 07:16:11,1773.7154376589058,30.700000982400002,0.0,0.7284810233113921,1773.7154376589058,30.700000982400002,0.7199994039200001,0.89205502854576,1684,-20.5,99,GPS_Atti,
0.363242578755249,36.8963083329903,10900,2017-11-16 07:16:11,1774.3154376781056,31.300001001600002,0.0,0.719808023033856,1774.3154376781056,31.300001001600002,0.7199994039200001,0.89205502854576,1684,-21.0,99,GPS_Atti,
0.363242634188297,36.8963084425086,11000,2017-11-16 07:16:11,1774.8154376941056,31.800001017600003,0.0,0.706478022607296,1774.8154376941056,31.800001017600003,0.7199994039200001,0.89205502854576,1684,-21.4,99,GPS_Atti,
0.363242685121954,36.8963085269984,11100,2017-11-16 07:16:11,1775.4154377133057,32.4000010368,0.0,0.695624022259968,1775.4154377133057,32.4000010368,0.7199994039200001,0.89205502854576,1684,-21.8,99,GPS_Atti,
0.363242791995919,36.8963086034181,11200,2017-11-16 07:16:12,1775.9154377293055,32.9000010528,0.0,0.6815150218084801,1775.9154377293055,32.9000010528,0.7199994039200001,0.89205502854576,1684,-22.2,99,GPS_Atti,
0.363242899425998,36.8963086492484,11300,2017-11-16 07:16:12,1776.5154377485057,33.500001072,0.0,0.6700410214413121,1776.5154377485057,33.500001072,0.7199994039200001,0.89205502854576,1684,-22.6,99,GPS_Atti,
0.363243031596213,36.896308753069,11400,2017-11-16 07:16:12,1777.0154377645056,34.000001088,0.0,0.65185502085936,1777.0154377645056,34.000001088,0.7199994039200001,0.89205502854576,1684,-22.9,99,GPS_Atti,
0.36324312922143,36.896308820093,11500,2017-11-16 07:16:12,1777.6154377837058,34.6000011072,0.0,0.639288020457216,1777.6154377837058,34.6000011072,0.7199994039200001,0.89205502854576,1684,-22.9,99,GPS_Atti,
0.363243219004062,36.8963088892947,11600,2017-11-16 07:16:12,1778.1154377997057,35.1000011232,0.0,0.627086020066752,1778.1154377997057,35.1000011232,0.7199994039200001,0.89205502854576,1684,-23.2,99,GPS_Atti,
0.363243273509711,36.8963089314978,11700,2017-11-16 07:16:12,1778.6154378157055,35.6000011392,0.0,0.61967001982944,1778.6154378157055,35.6000011392,0.7199994039200001,0.89205502854576,1684,-23.4,99,GPS_Atti,
0.363243384789431,36.8963089874111,11800,2017-11-16 07:16:12,1779.2154378349057,36.2000011584,0.0,0.607233019431456,1779.2154378349057,36.2000011584,0.7199994039200001,0.89205502854576,1684,-23.4,99,GPS_Atti,
0.36324348619101,36.8963090213621,11900,2017-11-16 07:16:12,1779.7154378509056,36.7000011744,0.0,0.5974770191192641,1779.7154378509056,36.7000011744,0.7199994039200001,0.89205502854576,1684,-23.4,99,GPS_Atti,
0.363243639208565,36.8963090741213,12000,2017-11-16 07:16:12,1780.2154378669059,37.2000011904,0.0,0.5827660186485121,1780.2154378669059,37.2000011904,0.7199994039200001,0.89205502854576,1684,-23.4,99,GPS_Atti,
0.363243776753459,36.8963091071088,12100,2017-11-16 07:16:12,1780.8154378861057,37.800001209600005,0.0,0.5710310182729921,1780.8154378861057,37.800001209600005,0.7199994039200001,0.89205502854576,1684,-23.9,99,GPS_Atti,
0.363243935218972,36.8963091126095,12200,2017-11-16 07:16:13,1781.3154379021055,38.3000012256,0.0,0.56079001794528,1781.3154379021055,38.3000012256,0.7199994039200001,0.89205502854576,1684,-24.8,99,GPS_Atti,
0.363244054121032,36.8963090851892,12300,2017-11-16 07:16:13,1781.9154379213057,38.9000012448,0.0,0.556339017802848,1781.9154379213057,38.9000012448,0.7199994039200001,0.89205502854576,1684,-25.6,99,GPS_Atti,
0.363244164196925,36.8963090867416,12400,2017-11-16 07:16:13,1782.4154379373056,39.4000012608,0.0,0.5498980175967361,1782.4154379373056,39.4000012608,0.7199994039200001,0.89205502854576,1684,-26.1,99,GPS_Atti,
0.363244248375267,36.8963090870628,12500,2017-11-16 07:16:13,1782.9154379533059,39.900001276800005,0.0,0.5451900174460801,1782.9154379533059,39.900001276800005,0.7199994039200001,0.89205502854576,1684,-26.1,99,GPS_Atti,
0.363244369346672,36.896309131041,12600,2017-11-16 07:16:13,1783.4154379693057,40.400001292800006,0.0,0.534382017100224,1783.4154379693057,40.400001292800006,0.7199994039200001,0.89205502854576,1684,-26.1,99,GPS_Atti,
0.363244463885988,36.8963091779741,12700,2017-11-16 07:16:13,1783.9154379853055,40.9000013088,0.0,0.524816016794112,1783.9154379853055,40.9000013088,0.7199994039200001,0.89205502854576,1684,-26.1,99,GPS_Atti,
0.363244586548125,36.8963091987588,12800,2017-11-16 07:16:13,1784.5154380045058,41.500001328,0.0,0.516523016528736,1784.5154380045058,41.500001328,0.7199994039200001,0.89205502854576,1684,-26.1,99,GPS_Atti,
0.363244689347723,36.8963092107945,12900,2017-11-16 07:16:13,1785.0154380205056,42.000001344,0.0,0.510299016329568,1785.0154380205056,42.000001344,0.7199994039200001,0.89205502854576,1684,-26.1,99,GPS_Atti,
0.363244798229967,36.8963092614554,13000,2017-11-16 07:16:13,1785.5154380365057,42.50000136,0.0,0.500071016002272,1785.5154380365057,42.50000136,0.7199994039200001,0.89205502854576,1684,-26.1,99,GPS_Atti,
0.363244872894532,36.8963093178269,13100,2017-11-16 07:16:13,1786.0154380525057,43.000001376,0.0,0.490944015710208,1786.0154380525057,43.000001376,0.7199994039200001,0.89205502854576,1684,-26.1,99,GPS_Atti,
0.363244978694538,36.8963093695413,13200,2017-11-16 07:16:14,1786.5154380685058,43.500001392,0.0,0.48098401539148805,1786.5154380685058,43.500001392,0.7199994039200001,0.89205502854576,1684,-26.1,99,GPS_Atti,
0.363245035140071,36.8963094183693,13300,2017-11-16 07:16:14,1787.0154380845056,44.000001407999996,0.0,0.473549015153568,1787.0154380845056,44.000001407999996,0.7199994039200001,0.89205502854576,1684,-26.3,99,GPS_Atti,
0.363245068322467,36.896309437546,13400,2017-11-16 07:16:14,1787.515438100506,44.500001424,0.0,0.470173015045536,1787.515438100506,44.500001424,0.7199994039200001,0.89205502854576,1684,-26.6,99,GPS_Atti,
0.363245066308082,36.8963094638828,13500,2017-11-16 07:16:14,1787.9154381133058,44.900001436800004,0.0,0.46754801496153603,1787.9154381133058,44.900001436800004,0.7199994039200001,0.89205502854576,1684,-27.1,99,GPS_Atti,
0.363245080986876,36.8963095425186,13600,2017-11-16 07:16:14,1788.4154381293056,45.4000014528,0.0,0.458844014683008,1788.4154381293056,45.4000014528,0.7199994039200001,0.89205502854576,1684,-27.5,99,GPS_Atti,
0.363245086177541,36.8963096122705,13700,2017-11-16 07:16:14,1788.9154381453056,45.9000014688,0.0,0.451467014446944,1788.9154381453056,45.9000014688,0.7199994039200001,0.89205502854576,1684,-27.8,99,GPS_Atti,
0.36324514552374,36.8963096733248,13800,2017-11-16 07:16:14,1789.4154381613057,46.4000014848,0.0,0.44265801416505607,1789.4154381613057,46.4000014848,0.7199994039200001,0.89205502854576,1684,-27.8,99,GPS_Atti,
0.363245186252753,36.896309722337,13900,2017-11-16 07:16:14,1790.0154381805057,47.000001504000004,0.0,0.435896013948672,1790.0154381805057,47.000001504000004,0.7199994039200001,0.89205502854576,1684,-27.8,99,GPS_Atti,
0.36324527571051,36.896309759519,14000,2017-11-16 07:16:14,1790.5154381965056,47.500001520000005,0.0,0.42838001370816003,1790.5154381965056,47.500001520000005,0.7199994039200001,0.89205502854576,1684,-27.8,99,GPS_Atti,
0.363245341667784,36.8963097863162,14100,2017-11-16 07:16:14,1791.0154382125058,48.000001536000006,0.0,0.42299201353574406,1791.0154382125058,48.000001536000006,0.7199994039200001,0.89205502854576,1684,-27.8,99,GPS_Atti,
0.363245395149956,36.8963098209395,14200,2017-11-16 07:16:15,1791.5154382285057,48.50000155200001,0.0,0.41733301335465606,1791.5154382285057,48.50000155200001,0.7199994039200001,0.89205502854576,1684,-27.8,99,GPS_Atti,
0.363245421095954,36.8963098495845,14300,2017-11-16 07:16:15,1792.0154382445055,49.000001568,0.0,0.413362013227584,1792.0154382445055,49.000001568,0.7199994039200001,0.89205502854576,1684,-27.8,99,GPS_Atti,
0.363245464064892,36.8963098898285,14400,2017-11-16 07:16:15,1792.5154382605058,49.500001584,0.0,0.40755601304179206,1792.5154382605058,49.500001584,0.7199994039200001,0.89205502854576,1684,-27.8,99,GPS_Atti,
0.363245482345804,36.8963099150604,14500,2017-11-16 07:16:15,1793.0154382765056,50.000001600000004,0.0,0.40424001293568,1793.0154382765056,50.000001600000004,0.7199994039200001,0.89205502854576,1684,-27.8,99,GPS_Atti,
0.363245518179307,36.8963099505573,14600,2017-11-16 07:16:15,1793.6154382957059,50.6000016192,0.0,0.39921801277497604,1793.6154382957059,50.6000016192,0.7199994039200001,0.89205502854576,1684,-27.8,99,GPS_Atti,
0.363245534179584,36.8963099763953,14700,2017-11-16 07:16:15,1794.1154383117057,51.1000016352,0.0,0.39592701266966407,1794.1154383117057,51.1000016352,0.7199994039200001,0.89205502854576,1684,-27.8,99,GPS_Atti,
0.363245543331439,36.8963099924971,14800,2017-11-16 07:16:15,1794.6154383277055,51.6000016512,0.0,0.393906012604992,1794.6154383277055,51.6000016512,0.7199994039200001,0.89205502854576,1684,-27.8,99,GPS_Atti,
0.363245530536754,36.8963100085519,14900,2017-11-16 07:16:15,1795.1154383437058,52.1000016672,0.0,0.392668012565376,1795.1154383437058,52.1000016672,0.7199994039200001,0.89205502854576,1684,-27.8,99,GPS_Atti,
0.363245554969114,36.8963100567076,15000,2017-11-16 07:16:15,1795.6154383597056,52.6000016832,0.0,0.3867250123752,1795.6154383597056,52.6000016832,0.7199994039200001,0.89205502854576,1684,-27.8,99,GPS_Atti,
0.363245551952014,36.8963100978616,15100,2017-11-16 07:16:15,1796.1154383757057,53.1000016992,0.0,0.38250001223999996,1796.1154383757057,53.1000016992,0.7199994039200001,0.89205502854576,1684,-27.8,99,GPS_Atti,
0.363245544817801,36.8963101689496,15200,2017-11-16 07:16:16,1796.7154383949057,53.7000017184,0.0,0.37529201200934403,1796.7154383949057,53.7000017184,0.7199994039200001,0.89205502854576,1684,-27.8,99,GPS_Atti,
0.36324551598905,36.8963102194627,15300,2017-11-16 07:16:16,1797.2154384109058,54.200001734400004,0.0,0.371092011874944,1797.2154384109058,54.200001734400004,0.7199994039200001,0.89205502854576,1684,-27.8,99,GPS_Atti,
0.363245470287176,36.8963102651903,15400,2017-11-16 07:16:16,1797.7154384269056,54.700001750400006,0.0,0.36812801178009597,1797.7154384269056,54.700001750400006,0.7199994039200001,0.89205502854576,1684,-27.8,99,GPS_Atti,
0.363245419232607,36.8963102881055,15500,2017-11-16 07:16:16,1798.215438442906,55.20000176640001,0.0,0.36785501177136,1798.215438442906,55.20000176640001,0.7199994039200001,0.89205502854576,1684,-27.8,99,GPS_Atti,
0.363245417234099,36.8963103182387,15600,2017-11-16 07:16:16,1798.7154384589057,55.7000017824,0.0,0.36483801167481605,1798.7154384589057,55.7000017824,0.7199994039200001,0.89205502854576,1684,-27.8,99,GPS_Atti,
0.363245411234504,36.8963103304778,15700,2017-11-16 07:16:16,1799.2154384749056,56.2000017984,0.0,0.36383501164272003,1799.2154384749056,56.2000017984,0.7199994039200001,0.89205502854576,1684,-27.9,99,GPS_Atti,
0.363245401932018,36.89631033788,15800,2017-11-16 07:16:16,1799.7154384909059,56.700001814400004,0.0,0.363474011631168,1799.7154384909059,56.700001814400004,0.7199994039200001,0.89205502854576,1684,-28.0,99,GPS_Atti,
0.363245380079521,36.8963103396593,15900,2017-11-16 07:16:16,1800.3154385101057,57.3000018336,0.0,0.36423901165564804,1800.3154385101057,57.3000018336,0.7199994039200001,0.89205502854576,1684,-28.1,99,GPS_Atti,
0.363245374407651,36.8963103454341,16000,2017-11-16 07:16:16,1800.8154385261055,57.8000018496,0.0,0.36389701164470406,1800.8154385261055,57.8000018496,0.7199994039200001,0.89205502854576,1684,-28.2,99,GPS_Atti,
0.363245357602516,36.8963103503182,16100,2017-11-16 07:16:16,1801.3154385421058,58.30000186560001,0.0,0.36414101165251206,1801.3154385421058,58.30000186560001,0.7199994039200001,0.89205502854576,1684,-28.3,99,GPS_Atti,
0.363245323324177,36.8963104004203,16200,2017-11-16 07:16:17,1801.8154385581056,58.8000018816,0.0,0.360602011539264,1801.8154385581056,58.8000018816,0.7199994039200001,0.89205502854576,1684,-28.3,99,GPS_Atti,
0.363245279306928,36.8963104821715,16400,2017-11-16 07:16:17,1802.8154385901057,59.800001913600006,0.0,0.35444901134236806,1802.8154385901057,59.800001913600006,0.7199994039200001,0.89205502854576,1684,-28.3,99,GPS_Atti,
0.363245269691374,36.8963105070052,16500,2017-11-16 07:16:17,1803.3154386061058,60.30000192960001,0.0,0.35243501127792004,1803.3154386061058,60.30000192960001,0.7199994039200001,0.89205502854576,1684,-28.3,99,GPS_Atti,
0.363245285221844,36.8963105500648,16600,2017-11-16 07:16:17,1803.8154386221056,60.80000194560001,0.0,0.347376011116032,1803.8154386221056,60.80000194560001,0.7199994039200001,0.89205502854576,1474,-28.3,99,GPS_Atti,
0.36324528887363,36.8963105818467,16700,2017-11-16 07:16:17,1804.315438638106,61.3000019616,0.0,0.344028011008896,1804.315438638106,61.3000019616,0.7199994039200001,0.89205502854576,1430,-28.3,99,GPS_Atti,
0.363245307075155,36.8963106343448,16800,2017-11-16 07:16:17,1804.7154386509058,61.7000019744,0.0,0.33790001081279997,1804.7154386509058,61.7000019744,0.7199994039200001,0.89205502854576,1424,-28.3,99,GPS_Atti,
0.363245309557718,36.8963106634095,16900,2017-11-16 07:16:17,1805.2154386669058,62.200001990400004,0.0,0.334888010716416,1805.2154386669058,62.200001990400004,0.7199994039200001,0.89205502854576,1425,-28.3,99,GPS_Atti,
0.363245322049919,36.8963107106638,17000,2017-11-16 07:16:17,1805.5154386765057,62.50000200000001,0.0,0.32957301054633603,1805.5154386765057,62.50000200000001,0.7199994039200001,0.89205502854576,1442,-28.3,99,GPS_Atti,
0.363245321089951,36.8963107497879,17100,2017-11-16 07:16:17,1805.8154386861056,62.80000200960001,0.0,0.32575001042400004,1805.8154386861056,62.80000200960001,0.7199994039200001,0.89205502854576,1534,-28.3,99,GPS_Atti,
0.363245329489873,36.8963108074163,17200,2017-11-16 07:16:18,1806.1154386957057,63.100002019200005,0.0,0.31963501022832,1806.1154386957057,63.100002019200005,0.7199994039200001,0.89205502854576,1571,-28.3,99,GPS_Atti,
0.363245351750295,36.8963108363718,17300,2017-11-16 07:16:18,1806.4154387053056,63.4000020288,0.0,0.315634010100288,1806.4154387053056,63.4000020288,0.7199994039200001,0.89205502854576,1586,-28.3,99,GPS_Atti,
0.363245446418665,36.8963108991048,17500,2017-11-16 07:16:18,1807.1154387277056,64.1000020512,0.0,0.304637009748384,1807.1154387277056,64.1000020512,0.7199994039200001,0.89205502854576,1586,-28.3,99,GPS_Atti,
0.363245472098006,36.8963109042951,17600,2017-11-16 07:16:18,1807.5154387405057,64.500002064,0.0,0.30285800969145604,1807.5154387405057,64.500002064,0.7199994039200001,0.89205502854576,1586,-28.3,99,GPS_Atti,
0.363245509407693,36.8963108845789,17700,2017-11-16 07:16:18,1807.9154387533058,64.9000020768,0.0,0.30304500969744,1807.9154387533058,64.9000020768,0.7199994039200001,0.89205502854576,1586,-28.3,99,GPS_Atti,
0.363245587045389,36.8963109146457,17800,2017-11-16 07:16:18,1808.3154387661057,65.3000020896,0.0,0.296422009485504,1808.3154387661057,65.3000020896,0.7199994039200001,0.89205502854576,1588,-28.3,99,GPS_Atti,
0.363245665384538,36.8963109426463,17900,2017-11-16 07:16:18,1808.7154387789058,65.7000021024,0.0,0.29012600928403204,1808.7154387789058,65.7000021024,0.7199994039200001,0.89205502854576,1587,-28.3,99,GPS_Atti,
0.363245776019802,36.896310970255,18000,2017-11-16 07:16:18,1809.1154387917056,66.10000211520001,0.0,0.28275400904812803,1809.1154387917056,66.10000211520001,0.7199994039200001,0.89205502854576,1582,-28.3,99,GPS_Atti,
0.363245876429658,36.8963109797148,18100,2017-11-16 07:16:18,1809.5154388045057,66.500002128,0.0,0.278043008897376,1809.5154388045057,66.500002128,0.7199994039200001,0.89205502854576,1571,-28.3,99,GPS_Atti,
0.363246003184482,36.8963109913587,18200,2017-11-16 07:16:19,1809.9154388173056,66.9000021408,0.0,0.272671008725472,1809.9154388173056,66.9000021408,0.7199994039200001,0.89205502854576,1570,-28.3,99,GPS_Atti,
0.363246100832905,36.8963109861705,18300,2017-11-16 07:16:19,1810.3154388301057,67.3000021536,0.0,0.270498008655936,1810.3154388301057,67.3000021536,0.7199994039200001,0.89205502854576,1566,-28.3,99,GPS_Atti,
0.363246209097562,36.8963110260676,18400,2017-11-16 07:16:19,1810.7154388429055,67.7000021664,0.0,0.263602008435264,1810.7154388429055,67.7000021664,0.7199994039200001,0.89205502854576,1550,-28.3,99,GPS_Atti,
0.363246301308203,36.8963110554963,18500,2017-11-16 07:16:19,1811.1154388557056,68.1000021792,0.0,0.25858500827472,1811.1154388557056,68.1000021792,0.7199994039200001,0.89205502854576,1524,-28.3,99,GPS_Atti,
0.363246409524413,36.8963110936569,18600,2017-11-16 07:16:19,1811.5154388685055,68.500002192,0.0,0.25275500808816004,1811.5154388685055,68.500002192,0.7199994039200001,0.89205502854576,1515,-28.3,99,GPS_Atti,
0.363246497823125,36.8963111118036,18700,2017-11-16 07:16:19,1811.9154388813056,68.9000022048,0.0,0.249823007994336,1811.9154388813056,68.9000022048,0.7199994039200001,0.89205502854576,1495,-28.3,99,GPS_Atti,
0.363246569628549,36.8963111222227,18800,2017-11-16 07:16:19,1812.3154388941057,69.30000221760001,0.0,0.24819500794224,1812.3154388941057,69.30000221760001,0.7199994039200001,0.89205502854576,1489,-28.3,99,GPS_Atti,
0.363246631613641,36.8963111250812,18900,2017-11-16 07:16:19,1812.6154389037056,69.60000222720001,0.0,0.247674007925568,1812.6154389037056,69.60000222720001,0.7199994039200001,0.89205502854576,1484,-28.3,99,GPS_Atti,
0.363246704832147,36.8963111966553,19000,2017-11-16 07:16:19,1813.0154389165057,70.00000224,0.0,0.23972400767116803,1813.0154389165057,70.00000224,0.7199994039200001,0.89205502854576,1474,-28.3,99,GPS_Atti,
0.363246750870702,36.8963112422822,19100,2017-11-16 07:16:19,1813.3154389261056,70.30000224960001,0.0,0.23480100751363203,1813.3154389261056,70.30000224960001,0.7199994039200001,0.89205502854576,1443,-28.3,99,GPS_Atti,
0.363246806680734,36.8963112757236,19200,2017-11-16 07:16:20,1813.6154389357057,70.60000225920001,0.0,0.231421007405472,1813.6154389357057,70.60000225920001,0.7199994039200001,0.89205502854576,1444,-28.3,99,GPS_Atti,
0.363246838513965,36.8963112795413,19300,2017-11-16 07:16:20,1813.9154389453058,70.90000226880001,0.0,0.23126400740044803,1813.9154389453058,70.90000226880001,0.7199994039200001,0.89205502854576,1446,-28.3,99,GPS_Atti,
0.363246916038077,36.8963112754709,19400,2017-11-16 07:16:20,1814.2154389549055,71.2000022784,0.0,0.23258700744278402,1814.2154389549055,71.2000022784,0.7199994039200001,0.89205502854576,1447,-28.3,99,GPS_Atti,
0.363246973031581,36.8963112607587,19500,2017-11-16 07:16:20,1814.5154389645056,71.500002288,0.0,0.235048007521536,1814.5154389645056,71.500002288,0.7199994039200001,0.89205502854576,1448,-28.3,99,GPS_Atti,
0.36324704943858,36.8963112884081,19600,2017-11-16 07:16:20,1814.7154389709058,71.70000229440001,0.0,0.233407007469024,1814.7154389709058,71.70000229440001,0.7199994039200001,0.89205502854576,1459,-28.3,99,GPS_Atti,
0.363247108178591,36.8963112935363,19700,2017-11-16 07:16:20,1815.0154389805055,72.000002304,0.0,0.234131007492192,1815.0154389805055,72.000002304,0.7199994039200001,0.89205502854576,1504,-28.3,98,GPS_Atti,
0.363247182407547,36.8963113104561,19800,2017-11-16 07:16:20,1815.3154389901056,72.3000023136,0.0,0.23417700749366402,1815.3154389901056,72.3000023136,0.7199994039200001,0.89205502854576,1504,-28.3,98,GPS_Atti,
0.363247233579364,36.8963113039746,19900,2017-11-16 07:16:20,1815.6154389997057,72.6000023232,0.0,0.236332007562624,1815.6154389997057,72.6000023232,0.7199994039200001,0.89205502854576,1512,-28.3,98,GPS_Atti,
0.363247299102658,36.8963113170381,20000,2017-11-16 07:16:20,1815.9154390093058,72.9000023328,0.0,0.236993007583776,1815.9154390093058,72.9000023328,0.7199994039200001,0.89205502854576,1511,-28.3,98,GPS_Atti,
0.363247351388737,36.8963113236031,20100,2017-11-16 07:16:20,1816.2154390189057,73.2000023424,0.0,0.23809300761897603,1816.2154390189057,73.2000023424,0.7199994039200001,0.89205502854576,1510,-28.3,98,GPS_Atti,
0.363247460996453,36.8963113858243,20200,2017-11-16 07:16:21,1816.5154390285056,73.50000235200001,0.0,0.235841007546912,1816.5154390285056,73.50000235200001,0.7199994039200001,0.89205502854576,1502,-28.3,98,GPS_Atti,
0.363247551034343,36.8963114326589,20300,2017-11-16 07:16:21,1816.8154390381058,73.80000236160001,0.0,0.23503400752108802,1816.8154390381058,73.80000236160001,0.7199994039200001,0.89205502854576,1502,-28.3,98,GPS_Atti,
0.363247677347451,36.8963115352848,20400,2017-11-16 07:16:21,1817.1154390477056,74.1000023712,0.0,0.231217007398944,1817.1154390477056,74.1000023712,0.7199994039200001,0.89205502854576,1502,-28.3,98,GPS_Atti,
0.363247760855077,36.8963116142203,20500,2017-11-16 07:16:21,1817.4154390573058,74.4000023808,0.0,0.2284000073088,1817.4154390573058,74.4000023808,0.7199994039200001,0.89205502854576,1489,-28.3,98,GPS_Atti,
0.363247861609147,36.8963117460907,20600,2017-11-16 07:16:21,1817.715439066906,74.7000023904,0.0,0.22263700712438403,1817.715439066906,74.7000023904,0.7199994039200001,0.89205502854576,1467,-28.3,98,GPS_Atti,
0.363247935121994,36.8963118455625,20700,2017-11-16 07:16:21,1818.0154390765056,75.0000024,0.0,0.219041007009312,1818.0154390765056,75.0000024,0.7199994039200001,0.89205502854576,1426,-28.3,98,GPS_Atti,
0.363248007322723,36.8963119519033,20800,2017-11-16 07:16:21,1818.3154390861057,75.3000024096,0.0,0.21561000689952003,1818.3154390861057,75.3000024096,0.7199994039200001,0.89205502854576,1287,-28.3,98,GPS_Atti,
0.363248050113956,36.8963120325176,20900,2017-11-16 07:16:21,1818.6154390957058,75.60000241920001,0.0,0.21264600680467202,1818.6154390957058,75.60000241920001,0.7199994039200001,0.89205502854576,1162,-28.3,98,GPS_Atti,
0.363248132586909,36.8963121398691,21000,2017-11-16 07:16:21,1818.8154391021055,75.8000024256,0.0,0.21157700677046398,1818.8154391021055,75.8000024256,0.7199994039200001,0.89205502854576,1115,-28.3,98,GPS_Atti,
0.363248192173507,36.8963122140083,21100,2017-11-16 07:16:21,1819.0154391085057,76.000002432,0.0,0.211696006774272,1819.0154391085057,76.000002432,0.7199994039200001,0.89205502854576,1102,-28.3,98,GPS_Atti,
0.36324829386556,36.8963123235224,21200,2017-11-16 07:16:22,1819.1154391117057,76.1000024352,0.0,0.21412000685184,1819.1154391117057,76.1000024352,0.7199994039200001,0.89205502854576,1085,-28.3,98,GPS_Atti,
0.36324835234563,36.8963123999591,21300,2017-11-16 07:16:22,1819.2154391149056,76.2000024384,0.0,0.215341006890912,1819.2154391149056,76.2000024384,0.7199994039200001,0.89205502854576,1061,-28.3,98,GPS_Atti,
0.363248409552054,36.8963124949216,21400,2017-11-16 07:16:22,1819.2154391149056,76.2000024384,0.0,0.21604100691331202,1819.2154391149056,76.2000024384,0.7199994039200001,0.89205502854576,1035,-28.3,98,GPS_Atti,
0.363248434329643,36.8963125471049,21500,2017-11-16 07:16:22,1819.3154391181058,76.3000024416,0.0,0.21604900691356801,1819.3154391181058,76.3000024416,0.7199994039200001,0.89205502854576,1024,-28.3,98,GPS_Atti,
0.363248467955587,36.8963125930659,21600,2017-11-16 07:16:22,1819.3154391181058,76.3000024416,0.35999970196000003,0.21742300695753602,1819.3154391181058,76.3000024416,0.7199994039200001,0.89205502854576,1024,-28.3,98,GPS_Atti,
0.363248465717698,36.896312606427,21700,2017-11-16 07:16:22,1819.3154391181058,76.3000024416,0.35999970196000003,0.216621006931872,1819.3154391181058,76.3000024416,0.7199994039200001,0.89205502854576,1024,-28.3,98,GPS_Atti,
0.363248485813104,36.8963126353075,21800,2017-11-16 07:16:22,1819.3154391181058,76.3000024416,0.35999970196000003,0.21749000695968002,1819.3154391181058,76.3000024416,0.7199994039200001,0.89205502854576,960,-28.3,98,GPS_Atti,
0.363248480173192,36.8963126398683,21900,2017-11-16 07:16:22,1819.4154391213058,76.4000024448,0.35999970196000003,0.216721006935072,1819.4154391213058,76.4000024448,0.7199994039200001,0.89205502854576,906,-28.3,98,GPS_Atti,
0.363248541184271,36.8963126838422,22000,2017-11-16 07:16:22,1819.4154391213058,76.4000024448,0.35999970196000003,0.221361007083552,1819.4154391213058,76.4000024448,0.7199994039200001,0.89205502854576,884,-28.3,98,GPS_Atti,
0.363248595211564,36.8963126933192,22100,2017-11-16 07:16:22,1819.4154391213058,76.4000024448,0.35999970196000003,0.22668700725398402,1819.4154391213058,76.4000024448,0.7199994039200001,0.89205502854576,873,-28.3,98,GPS_Atti,
0.363248720406339,36.8963127052329,22200,2017-11-16 07:16:23,1819.4154391213058,76.4000024448,0.35999970196000003,0.239503007664096,1819.4154391213058,76.4000024448,0.7199994039200001,0.89205502854576,849,-28.3,98,GPS_Atti,
0.363248835522674,36.8963126945183,22300,2017-11-16 07:16:23,1819.4154391213058,76.4000024448,0.35999970196000003,0.252086008066752,1819.4154391213058,76.4000024448,0.7199994039200001,0.89205502854576,844,-28.3,98,GPS_Atti,
0.363248981437362,36.8963127274971,22400,2017-11-16 07:16:23,1819.3154391181058,76.3000024416,0.35999970196000003,0.266678008533696,1819.4154391213058,76.4000024448,0.7199994039200001,0.89205502854576,843,-28.3,98,GPS_Atti,
0.363249100340236,36.8963127273023,22500,2017-11-16 07:16:23,1819.2154391149056,76.2000024384,0.0,0.27947100894307203,1819.4154391213058,76.4000024448,0.7199994039200001,0.89205502854576,834,-28.3,98,GPS_Atti,
0.363249257571084,36.8963127273173,22600,2017-11-16 07:16:23,1819.2154391149056,76.2000024384,0.0,0.296439009486048,1819.4154391213058,76.4000024448,0.7199994039200001,0.89205502854576,854,-28.3,98,GPS_Atti,
0.363249399607227,36.8963126803221,22700,2017-11-16 07:16:23,1819.2154391149056,76.2000024384,0.35999970196000003,0.313022010016704,1819.4154391213058,76.4000024448,0.7199994039200001,0.89205502854576,877,-28.3,98,GPS_Atti,
0.363249588817763,36.8963126479428,22800,2017-11-16 07:16:23,1819.1154391117057,76.1000024352,0.35999970196000003,0.334318010698176,1819.4154391213058,76.4000024448,0.7199994039200001,0.89205502854576,880,-28.3,98,GPS_Atti,
0.363249758759023,36.8963125888926,22900,2017-11-16 07:16:23,1819.1154391117057,76.1000024352,0.35999970196000003,0.35423501133552004,1819.4154391213058,76.4000024448,0.7199994039200001,0.89205502854576,880,-28.3,98,GPS_Atti,
0.363249991287799,36.8963125751054,23000,2017-11-16 07:16:23,1819.0154391085057,76.000002432,0.0,0.379737012151584,1819.4154391213058,76.4000024448,0.7199994039200001,0.89205502854576,880,-28.3,98,GPS_Atti,
0.363250196974473,36.8963125482611,23100,2017-11-16 07:16:23,1819.0154391085057,76.000002432,0.0,0.402696012886272,1819.4154391213058,76.4000024448,0.7199994039200001,0.89205502854576,878,-28.3,98,GPS_Atti,
0.363250458325791,36.8963125900789,23200,2017-11-16 07:16:24,1819.0154391085057,76.000002432,0.0,0.43014301376457603,1819.4154391213058,76.4000024448,0.7199994039200001,0.89205502854576,878,-28.3,98,GPS_Atti,
0.363250696307551,36.896312606564,23300,2017-11-16 07:16:24,1818.9154391053057,75.90000242880001,0.0,0.45578201458502404,1819.4154391213058,76.4000024448,0.7199994039200001,0.89205502854576,878,-28.3,98,GPS_Atti,
0.363250965422603,36.8963127036291,23400,2017-11-16 07:16:24,1818.9154391053057,75.90000242880001,0.0,0.48351401547244804,1819.4154391213058,76.4000024448,0.7199994039200001,0.89205502854576,879,-28.3,98,GPS_Atti,
0.363251199522305,36.8963127579429,23500,2017-11-16 07:16:24,1818.8154391021055,75.8000024256,0.0,0.508451016270432,1819.4154391213058,76.4000024448,0.7199994039200001,0.89205502854576,878,-28.3,98,GPS_Atti,
0.363251474779263,36.8963128522759,23600,2017-11-16 07:16:24,1818.8154391021055,75.8000024256,0.0,0.537631017204192,1819.4154391213058,76.4000024448,0.7199994039200001,0.89205502854576,916,-28.3,98,GPS_Atti,
0.36325170043575,36.8963128905157,23700,2017-11-16 07:16:24,1818.7154390989056,75.7000024224,0.0,0.5621930179901761,1819.4154391213058,76.4000024448,0.7199994039200001,0.89205502854576,1024,-28.3,98,GPS_Atti,
0.363251920300421,36.8963129576746,23800,2017-11-16 07:16:24,1818.7154390989056,75.7000024224,0.0,0.5859390187500481,1819.4154391213058,76.4000024448,0.7199994039200001,0.89205502854576,1024,-28.3,98,GPS_Atti,
0.363252091356453,36.8963129629933,23900,2017-11-16 07:16:24,1818.6154390957058,75.60000241920001,0.35999970196000003,0.604867019355744,1819.4154391213058,76.4000024448,0.7199994039200001,0.89205502854576,1024,-28.3,98,GPS_Atti,
0.363252294338028,36.8963129497628,24000,2017-11-16 07:16:24,1818.6154390957058,75.60000241920001,0.35999970196000003,0.627487020079584,1819.4154391213058,76.4000024448,0.7199994039200001,0.89205502854576,1024,-28.3,98,GPS_Atti,
0.363252480455335,36.8963129215781,24100,2017-11-16 07:16:24,1818.6154390957058,75.60000241920001,0.0,0.648358020747456,1819.4154391213058,76.4000024448,0.7199994039200001,0.89205502854576,1024,-28.3,98,GPS_Atti,
0.363252729009526,36.8963129663593,24200,2017-11-16 07:16:25,1818.6154390957058,75.60000241920001,0.0,0.6755920216189439,1819.4154391213058,76.4000024448,0.7199994039200001,0.89205502854576,1024,-28.3,98,GPS_Atti,
0.363252922626429,36.8963130146349,24300,2017-11-16 07:16:25,1818.7154390989056,75.7000024224,0.0,0.6967710222966721,1819.4154391213058,76.4000024448,0.7199994039200001,0.89205502854576,1024,-28.3,98,GPS_Atti,
0.363253182086818,36.8963131212327,24400,2017-11-16 07:16:25,1818.7154390989056,75.7000024224,0.0,0.7250680232021761,1819.4154391213058,76.4000024448,0.7199994039200001,0.89205502854576,1024,-28.3,98,GPS_Atti,
0.363253366599497,36.896313203046,24500,2017-11-16 07:16:25,1818.7154390989056,75.7000024224,0.0,0.7453170238501441,1819.4154391213058,76.4000024448,0.7199994039200001,0.89205502854576,1024,-28.3,98,GPS_Atti,
0.363253576141157,36.8963133496479,24600,2017-11-16 07:16:25,1818.7154390989056,75.7000024224,0.0,0.7684350245899201,1819.4154391213058,76.4000024448,0.7199994039200001,0.89205502854576,1024,-28.3,98,GPS_Atti,
0.363253712399376,36.896313446849,24700,2017-11-16 07:16:25,1818.7154390989056,75.7000024224,0.0,0.7836590250770881,1819.4154391213058,76.4000024448,0.7199994039200001,0.89205502854576,1024,-28.3,98,GPS_Atti,
0.363253834485451,36.8963135741168,24800,2017-11-16 07:16:25,1818.7154390989056,75.7000024224,0.0,0.797547025521504,1819.4154391213058,76.4000024448,0.7199994039200001,0.89205502854576,1024,-28.3,98,GPS_Atti,
0.363253901657341,36.8963136674241,24900,2017-11-16 07:16:25,1818.7154390989056,75.7000024224,0.0,0.805399025772768,1819.4154391213058,76.4000024448,0.7199994039200001,0.89205502854576,1024,-28.3,98,GPS_Atti,
0.363254058746819,36.8963137798856,25000,2017-11-16 07:16:25,1818.7154390989056,75.7000024224,0.0,0.8234800263513601,1819.4154391213058,76.4000024448,0.7199994039200001,0.89205502854576,1024,-28.3,98,GPS_Atti,
0.363254155880654,36.8963138115412,25100,2017-11-16 07:16:25,1818.7154390989056,75.7000024224,0.0,0.834472026703104,1819.4154391213058,76.4000024448,0.7199994039200001,0.89205502854576,1024,-28.3,98,GPS_Atti,
0.363254263396633,36.8963137730958,25200,2017-11-16 07:16:26,1818.7154390989056,75.7000024224,0.35999970196000003,0.8461590270770881,1819.4154391213058,76.4000024448,0.7199994039200001,0.89205502854576,1024,-28.3,98,GPS_Atti,
0.363254298521356,36.8963136189237,25300,2017-11-16 07:16:26,1818.8154391021055,75.8000024256,1.07999910588,0.849287027177184,1819.4154391213058,76.4000024448,1.07999910588,0.89205502854576,1024,-28.3,98,GPS_Atti,
0.363254338815575,36.8963133655485,25400,2017-11-16 07:16:26,1818.8154391021055,75.8000024256,1.4831987720752,0.8532510273040321,1819.4154391213058,76.4000024448,1.4831987720752,0.89205502854576,1024,-28.3,98,GPS_Atti,
0.363254274231078,36.896312958424,25500,2017-11-16 07:16:26,1818.7154390989056,75.7000024224,1.9403983935644,0.8471990271103681,1819.4154391213058,76.4000024448,1.9403983935644,0.89205502854576,1024,-28.3,98,GPS_Atti,
0.363254149996475,36.896312430315,25600,2017-11-16 07:16:26,1818.7154390989056,75.7000024224,2.7431977289352,0.838539026833248,1819.4154391213058,76.4000024448,2.7431977289352,0.89205502854576,1024,-28.3,98,GPS_Atti,
0.363253911302208,36.8963117475018,25700,2017-11-16 07:16:26,1818.7154390989056,75.7000024224,3.0743974547383996,0.8252280264072961,1819.4154391213058,76.4000024448,3.0743974547383996,0.89205502854576,1024,-28.3,98,GPS_Atti,
0.36325360012549,36.8963109882989,25800,2017-11-16 07:16:26,1818.7154390989056,75.7000024224,3.8771967901092004,0.8146730260695361,1819.4154391213058,76.4000024448,3.8771967901092004,0.89205502854576,1024,-28.3,98,GPS_Atti,
0.363253178892218,36.8963100750149,25900,2017-11-16 07:16:26,1818.7154390989056,75.7000024224,4.3487963996768,0.810771025944672,1819.4154391213058,76.4000024448,4.3487963996768,0.89205502854576,1024,-28.3,98,GPS_Atti,
0.363252722849733,36.8963090719073,26000,2017-11-16 07:16:26,1818.7154390989056,75.7000024224,4.8311960003032,0.8247450263918401,1819.4154391213058,76.4000024448,4.8311960003032,0.89205502854576,1024,-28.3,98,GPS_Atti,
0.363252167794292,36.896307931146,26100,2017-11-16 07:16:26,1818.8154391021055,75.8000024256,5.633995335674,0.85890502748496,1819.4154391213058,76.4000024448,5.633995335674,0.89205502854576,1024,-28.3,98,GPS_Atti,
0.363251598871682,36.8963067819933,26200,2017-11-16 07:16:27,1818.8154391021055,75.8000024256,5.957995067438,0.9136210292358721,1819.4154391213058,76.4000024448,5.957995067438,0.9136210292358721,1024,-28.3,98,GPS_Atti,
0.36325094579068,36.8963055080618,26300,2017-11-16 07:16:27,1818.8154391021055,75.8000024256,6.4403946680644,0.9936670317973441,1819.4154391213058,76.4000024448,6.4403946680644,0.9936670317973441,1024,-28.3,98,GPS_Atti,
0.363250259810428,36.8963041527045,26400,2017-11-16 07:16:27,1818.8154391021055,75.8000024256,6.9263942657104005,1.09829003514528,1819.4154391213058,76.4000024448,6.9263942657104005,1.09829003514528,1024,-28.3,98,GPS_Atti,
0.363249487332319,36.8963026785147,26500,2017-11-16 07:16:27,1818.7154390989056,75.7000024224,6.9263942657104005,1.2277000392864,1819.4154391213058,76.4000024448,6.9263942657104005,1.2277000392864,1024,-28.3,98,GPS_Atti,
0.363248667051186,36.8963011318815,26600,2017-11-16 07:16:27,1818.7154390989056,75.7000024224,7.4123938633563995,1.37702004406464,1819.4154391213058,76.4000024448,7.4123938633563995,1.37702004406464,1024,-28.3,98,GPS_Atti,
0.363247767787771,36.8962994821535,26700,2017-11-16 07:16:27,1818.6154390957058,75.60000241920001,7.7291936010812,1.5472400495116803,1819.4154391213058,76.4000024448,7.7291936010812,1.5472400495116803,1024,-28.3,98,GPS_Atti,
0.363246801533223,36.8962977064498,26800,2017-11-16 07:16:27,1818.6154390957058,75.60000241920001,8.2187931957468,1.73991005567712,1819.4154391213058,76.4000024448,8.2187931957468,1.73991005567712,1024,-28.3,98,GPS_Atti,
0.363245786782188,36.8962958757065,26900,2017-11-16 07:16:27,1818.5154390925059,75.500002416,8.2187931957468,1.94589006226848,1819.4154391213058,76.4000024448,8.2187931957468,1.94589006226848,1024,-28.3,98,GPS_Atti,
0.363244710324525,36.8962939356782,27000,2017-11-16 07:16:27,1818.5154390925059,75.500002416,8.7083927904124,2.1701000694432,1819.4154391213058,76.4000024448,8.7083927904124,2.1701000694432,1024,-28.4,98,GPS_Atti,
0.363243607889516,36.8962920058485,27100,2017-11-16 07:16:27,1818.5154390925059,75.500002416,8.7083927904124,2.39802007673664,1819.4154391213058,76.4000024448,8.7083927904124,2.39802007673664,1024,-28.4,98,GPS_Atti,
0.363242444734308,36.8962899010608,27200,2017-11-16 07:16:28,1818.5154390925059,75.500002416,8.7083927904124,2.649750084792,1819.4154391213058,76.4000024448,8.7083927904124,2.649750084792,1024,-28.4,98,GPS_Atti,
0.363241272296156,36.8962878473281,27300,2017-11-16 07:16:28,1818.5154390925059,75.500002416,8.7083927904124,2.8989600927667203,1819.4154391213058,76.4000024448,8.7083927904124,2.8989600927667203,1024,-28.5,98,GPS_Atti,
0.363240073995056,36.8962857272651,27400,2017-11-16 07:16:28,1818.4154390893057,75.4000024128,8.7083927904124,3.15824010106368,1819.4154391213058,76.4000024448,8.7083927904124,3.15824010106368,1024,-28.5,98,GPS_Atti,
0.36323888860426,36.8962836698581,27500,2017-11-16 07:16:28,1818.4154390893057,75.4000024128,8.7083927904124,3.41221010919072,1819.4154391213058,76.4000024448,8.7083927904124,3.41221010919072,1024,-28.7,98,GPS_Atti,
0.363237638008123,36.8962815187519,27600,2017-11-16 07:16:28,1818.4154390893057,75.4000024128,8.7083927904124,3.6796001177472,1819.4154391213058,76.4000024448,8.7083927904124,3.6796001177472,1024,-28.8,98,GPS_Atti,
0.363236408395302,36.8962794389864,27700,2017-11-16 07:16:28,1818.4154390893057,75.4000024128,8.891992638411999,3.94001012608032,1819.4154391213058,76.4000024448,8.891992638411999,3.94001012608032,1024,-29.0,98,GPS_Atti,
0.363235124075719,36.89627727893,27800,2017-11-16 07:16:28,1818.4154390893057,75.4000024128,8.891992638411999,4.21181013477792,1819.4154391213058,76.4000024448,8.891992638411999,4.21181013477792,1024,-29.0,98,GPS_Atti,
0.363233857260281,36.8962751922141,27900,2017-11-16 07:16:28,1818.4154390893057,75.4000024128,8.891992638411999,4.47621014323872,1819.4154391213058,76.4000024448,8.891992638411999,4.47621014323872,1024,-29.3,98,GPS_Atti,
0.363232534655979,36.8962730371467,28000,2017-11-16 07:16:28,1818.4154390893057,75.4000024128,9.197992385078,4.75063015202016,1819.4154391213058,76.4000024448,9.197992385078,4.75063015202016,1024,-29.5,98,GPS_Atti,
0.363231223701566,36.896270929614,28100,2017-11-16 07:16:28,1818.5154390925059,75.500002416,9.197992385078,5.02038016065216,1819.4154391213058,76.4000024448,9.197992385078,5.02038016065216,1024,-29.8,98,GPS_Atti,
0.363229827468798,36.8962686302037,28200,2017-11-16 07:16:29,1818.5154390925059,75.500002416,9.3887922271168,5.31409017005088,1819.4154391213058,76.4000024448,9.3887922271168,5.31409017005088,1024,-30.1,98,GPS_Atti,
0.363228458714394,36.8962664094227,28300,2017-11-16 07:16:29,1818.5154390925059,75.500002416,9.3887922271168,5.59912017917184,1819.4154391213058,76.4000024448,9.3887922271168,5.59912017917184,1024,-30.3,98,GPS_Atti,
0.363226990506029,36.8962640348261,28400,2017-11-16 07:16:29,1818.5154390925059,75.500002416,9.3887922271168,5.90463018894816,1819.4154391213058,76.4000024448,9.3887922271168,5.90463018894816,1024,-30.6,98,GPS_Atti,
0.363225562293878,36.8962617554103,28500,2017-11-16 07:16:29,1818.5154390925059,75.500002416,9.694791973782799,6.1991501983728,1819.4154391213058,76.4000024448,9.694791973782799,6.1991501983728,1024,-30.9,98,GPS_Atti,
0.363224117994328,36.8962593729897,28600,2017-11-16 07:16:29,1818.5154390925059,75.500002416,9.694791973782799,6.5053502081712,1819.4154391213058,76.4000024448,9.694791973782799,6.5053502081712,1024,-31.2,98,GPS_Atti,
0.363222715086568,36.8962570927603,28700,2017-11-16 07:16:29,1818.5154390925059,75.500002416,9.694791973782799,6.79962021758784,1819.4154391213058,76.4000024448,9.694791973782799,6.79962021758784,1024,-31.7,98,GPS_Atti,
