latitude,longitude,time_millisecond,datetime_utc,altitude_m,ascent_m,speed_kph,distance_m,max_altitude_m,max_ascent_m,max_speed_kph,max_distance_m,rc_throttle,gimbal_pitch_degrees,battery_percent,flycState,message
0.303913810220721,36.8942110784731,100,2017-11-06 12:56:15,1710.9995664519756,0.0,0.0,0.0,1710.9995664519756,0.0,0.0,0.0,1024,0.0,100,Motors_Started,
0.303913831091674,36.894211136069295,200,2017-11-06 12:56:15,1710.9995664519756,0.0,0.0,0.006812520218000639,1710.9995664519756,0.0,0.0,0.006812520218000639,1024,0.0,100,Motors_Started,Setting new Return-To-Home altitude to 30m (98 ft). Setting new Maximum Flight Altitude to 100m (328 ft)
0.303913861263484,36.8942111973601,300,2017-11-06 12:56:15,1710.9995664519756,0.0,0.0,0.014387800460409602,1710.9995664519756,0.0,0.0,0.014387800460409602,1024,0.0,100,Motors_Started,
0.3039138933886131,36.89421125569179,400,2017-11-06 12:56:15,1710.9995664519756,0.0,0.0,0.021769900696636802,1710.9995664519756,0.0,0.0,0.021769900696636802,1024,0.0,100,Motors_Started,
0.30391393607583,36.8942113146171,500,2017-11-06 12:56:15,1710.9995664519756,0.0,0.0,0.029757100952227205,1710.9995664519756,0.0,0.0,0.029757100952227205,1024,0.0,100,Motors_Started,
0.303913977223353,36.894211372511,600,2017-11-06 12:56:15,1710.9995664519756,0.0,0.0,0.0376044012033408,1710.9995664519756,0.0,0.0,0.0376044012033408,1024,0.0,100,Motors_Started,
0.30391398695574795,36.8942114279199,700,2017-11-06 12:56:15,1710.9995664519756,0.0,0.0,0.043547501393520004,1710.9995664519756,0.0,0.0,0.043547501393520004,1024,0.0,100,Motors_Started,
0.303914004932956,36.894211484551,800,2017-11-06 12:56:15,1710.9995664519756,0.0,0.0,0.0500807016025824,1710.9995664519756,0.0,0.0,0.0500807016025824,1024,0.0,100,Motors_Started,
0.303913995680951,36.8942115375029,900,2017-11-06 12:56:15,1710.9995664519756,0.0,0.0,0.055055201761766405,1710.9995664519756,0.0,0.0,0.055055201761766405,1024,0.0,100,Motors_Started,
0.303913998935396,36.8942115941174,1000,2017-11-06 12:56:15,1710.9995664519756,0.0,0.0,0.0610616019539712,1710.9995664519756,0.0,0.0,0.0610616019539712,517,0.0,100,Motors_Started,
0.303914022019404,36.894211645763704,1100,2017-11-06 12:56:16,1710.9995664519756,0.0,0.0,0.0673388021548416,1710.9995664519756,0.0,0.0,0.0673388021548416,875,0.0,100,Motors_Started,
0.303914045819113,36.894211696869895,1200,2017-11-06 12:56:16,1710.9995664519756,0.0,0.0,0.07359040235489281,1710.9995664519756,0.0,0.0,0.07359040235489281,1024,0.0,100,Motors_Started,
0.30391408895089506,36.8942117451492,1300,2017-11-06 12:56:16,1710.9995664519756,0.0,0.0,0.08035630257140161,1710.9995664519756,0.0,0.0,0.08035630257140161,1024,0.0,100,Motors_Started,
0.30391412470501195,36.89421180028361,1400,2017-11-06 12:56:16,1710.9995664519756,0.0,0.0,0.08755640280180482,1710.9995664519756,0.0,0.0,0.08755640280180482,1024,0.0,100,Motors_Started,
0.30391414120522,36.8942118474237,1500,2017-11-06 12:56:16,1710.9995664519756,0.0,0.0,0.0930961029790752,1710.9995664519756,0.0,0.0,0.0930961029790752,1024,0.0,100,Assisted_Takeoff,
0.30391416269335303,36.8942118926909,1600,2017-11-06 12:56:16,1710.9995664519756,0.0,0.0,0.09866490315727681,1710.9995664519756,0.0,0.0,0.09866490315727681,1024,0.0,100,Assisted_Takeoff,
0.30391419802000297,36.8942119429968,1700,2017-11-06 12:56:16,1710.9995664519756,0.0,0.0,0.105369003371808,1710.9995664519756,0.0,0.0,0.105369003371808,1024,0.0,100,Assisted_Takeoff,
0.30391423270586,36.894211994043104,1800,2017-11-06 12:56:16,1710.9995664519756,0.0,0.0,0.112133003588256,1710.9995664519756,0.0,0.0,0.112133003588256,1024,0.0,100,Assisted_Takeoff,
0.30391424414405105,36.8942120434305,1900,2017-11-06 12:56:16,1710.9995664519756,0.0,0.0,0.11765800376505602,1710.9995664519756,0.0,0.0,0.11765800376505602,1024,0.0,100,Assisted_Takeoff,
0.30391425987807696,36.8942120948225,2000,2017-11-06 12:56:16,1710.9995664519756,0.0,0.0,0.12359000395488003,1710.9995664519756,0.0,0.0,0.12359000395488003,1024,0.0,100,Assisted_Takeoff,
0.30391429692762,36.8942121025769,2100,2017-11-06 12:56:17,1710.9995664519756,0.0,0.0,0.126092004034944,1710.9995664519756,0.0,0.0,0.126092004034944,1024,0.0,100,Assisted_Takeoff,
0.303914330290367,36.8942121236474,2200,2017-11-06 12:56:17,1710.9995664519756,0.0,0.0,0.129822004154304,1710.9995664519756,0.0,0.0,0.129822004154304,1024,0.0,100,Assisted_Takeoff,
0.30391434046325605,36.894212107529505,2300,2017-11-06 12:56:17,1710.9995664519756,0.0,0.0,0.128734004119488,1710.9995664519756,0.0,0.0,0.129822004154304,1024,0.0,100,Assisted_Takeoff,
0.303914354699114,36.894212109799206,2400,2017-11-06 12:56:17,1710.9995664519756,0.0,0.0,0.12969000415008,1710.9995664519756,0.0,0.0,0.129822004154304,1024,0.0,100,Assisted_Takeoff,
0.30391434875855,36.8942121249128,2500,2017-11-06 12:56:17,1710.9995664519756,0.0,0.0,0.130875004188,1710.9995664519756,0.0,0.0,0.130875004188,1024,0.0,100,Assisted_Takeoff,
0.30391435087227003,36.894212147139605,2600,2017-11-06 12:56:17,1710.9995664519756,0.0,0.0,0.133184004261888,1710.9995664519756,0.0,0.0,0.133184004261888,1033,0.0,100,Assisted_Takeoff,
0.303914379280476,36.894212142426795,2700,2017-11-06 12:56:17,1710.9995664519756,0.0,0.0,0.134177004293664,1710.9995664519756,0.0,0.0,0.134177004293664,1194,0.0,100,Assisted_Takeoff,
0.303914404640234,36.894212150474,2800,2017-11-06 12:56:17,1710.9995664519756,0.0,0.0,0.136312004361984,1710.9995664519756,0.0,0.0,0.136312004361984,1459,0.0,100,Assisted_Takeoff,
0.30391445325743,36.8942121778171,2900,2017-11-06 12:56:17,1710.9995664519756,0.0,0.0,0.14163000453216001,1710.9995664519756,0.0,0.0,0.14163000453216001,1670,0.0,100,Assisted_Takeoff,
0.303914493813828,36.894212197718,3000,2017-11-06 12:56:17,1710.9995664519756,0.0,0.0,0.14584400466700803,1710.9995664519756,0.0,0.0,0.14584400466700803,1684,0.0,100,Assisted_Takeoff,
0.30391451581654905,36.8942122145939,3100,2017-11-06 12:56:18,1710.9995664519756,0.0,0.0,0.1487250047592,1710.9995664519756,0.0,0.0,0.1487250047592,1684,0.0,100,Assisted_Takeoff,
0.303914526007351,36.8942122229366,3200,2017-11-06 12:56:18,1710.9995664519756,0.0,0.0,0.150112004803584,1710.9995664519756,0.0,0.0,0.150112004803584,1684,0.0,100,Assisted_Takeoff,
0.30391450390040997,36.894212257404,3300,2017-11-06 12:56:18,1710.9995664519756,0.0,0.0,0.152114004867648,1710.9995664519756,0.0,0.0,0.152114004867648,1684,0.0,100,Assisted_Takeoff,
0.30391445038729703,36.8942123159022,3400,2017-11-06 12:56:18,1710.9995664519756,0.0,0.0,0.15493200495782403,1710.9995664519756,0.0,0.0,0.15493200495782403,1684,0.0,100,Assisted_Takeoff,
0.303914425537242,36.894212356272995,3500,2017-11-06 12:56:18,1710.9995664519756,0.0,0.0,0.15771400504684802,1710.9995664519756,0.0,0.0,0.15771400504684802,1684,0.0,100,GPS_Atti,Obstacle Avoided. Revise Flight Route
0.303914441145063,36.8942123531249,3600,2017-11-06 12:56:18,1710.9995664519756,0.0,0.0,0.158161005061152,1710.9995664519756,0.0,0.0,0.158161005061152,1684,0.0,100,GPS_Atti,
0.303914484324884,36.89421235285771,3700,2017-11-06 12:56:18,1711.0995664551758,0.10000000320000002,0.0,0.16032300513033598,1711.0995664551758,0.10000000320000002,0.0,0.16032300513033598,1684,0.0,100,GPS_Atti,
0.30391452281153003,36.8942123587921,3800,2017-11-06 12:56:18,1711.1995664583758,0.20000000640000004,0.0,0.16294500521424,1711.1995664583758,0.20000000640000004,0.0,0.16294500521424,1684,0.0,100,GPS_Atti,
0.30391455781819,36.894212390103995,3900,2017-11-06 12:56:18,1711.3995664647757,0.4000000128000001,0.0,0.16788900537244802,1711.3995664647757,0.4000000128000001,0.0,0.16788900537244802,1684,0.0,100,GPS_Atti,
0.303914600459811,36.8942124236882,4000,2017-11-06 12:56:18,1711.5995664711759,0.6000000192,0.0,0.173497005551904,1711.5995664711759,0.6000000192,0.0,0.173497005551904,1684,0.0,100,GPS_Atti,
0.303914580378653,36.8942124704767,4100,2017-11-06 12:56:19,1711.8995664807758,0.9000000288000001,0.0,0.176911005661152,1711.8995664807758,0.9000000288000001,0.0,0.176911005661152,1684,0.0,100,GPS_Atti,
0.303914566996915,36.8942125296381,4200,2017-11-06 12:56:19,1712.0995664871757,1.1000000352,0.0,0.18200200582406403,1712.0995664871757,1.1000000352,0.0,0.18200200582406403,1684,0.0,100,GPS_Atti,
0.30391457292363694,36.894212593689495,4300,2017-11-06 12:56:19,1712.4995664999758,1.5000000480000002,0.0,0.18864200603654402,1712.4995664999758,1.5000000480000002,0.0,0.18864200603654402,1684,0.0,100,GPS_Atti,Home Point Recorded. RTH Altitude:  30m.
0.303914552970313,36.8942126658501,4400,2017-11-06 12:56:19,1712.8995665127757,1.9000000607999998,0.0,0.194892006236544,1712.8995665127757,1.9000000607999998,0.0,0.194892006236544,1684,0.0,100,GPS_Atti,
0.303914549560351,36.894212722620395,4500,2017-11-06 12:56:19,1713.2995665255758,2.3000000736,0.0,0.20047200641510401,1713.2995665255758,2.3000000736,0.0,0.20047200641510401,1570,0.0,100,GPS_Atti,
0.303914570223677,36.894212769767,4600,2017-11-06 12:56:19,1713.7995665415758,2.8000000896000006,0.0,0.20619700659830403,1713.7995665415758,2.8000000896000006,0.0,0.20619700659830403,1354,0.0,100,GPS_Atti,
0.30391451108754697,36.8942129308656,4700,2017-11-06 12:56:19,1714.3995665607756,3.4000001088000005,0.0,0.22024600704787198,1714.3995665607756,3.4000001088000005,0.0,0.22024600704787198,1229,0.0,100,GPS_Atti,
0.303914487433584,36.8942130778581,4800,2017-11-06 12:56:19,1714.899566576776,3.9000001248,0.0,0.23474900751196803,1714.899566576776,3.9000001248,0.0,0.23474900751196803,1091,0.0,100,GPS_Atti,
0.30391438561838,36.8942133081947,4900,2017-11-06 12:56:19,1715.299566589576,4.3000001376,0.0,0.256078008194496,1715.299566589576,4.3000001376,0.0,0.256078008194496,1024,0.0,100,GPS_Atti,
0.303914337010141,36.894213518594604,5000,2017-11-06 12:56:19,1715.7995666055758,4.8000001536,0.0,0.27760400888332804,1715.7995666055758,4.8000001536,0.0,0.27760400888332804,1024,0.0,100,GPS_Atti,
0.30391442050616396,36.894213666021706,5100,2017-11-06 12:56:20,1716.099566615176,5.1000001632,0.35999970196000003,0.295642009460544,1716.099566615176,5.1000001632,0.35999970196000003,0.295642009460544,1024,0.0,100,GPS_Atti,
0.303914524615031,36.8942138090551,5200,2017-11-06 12:56:20,1716.3995666247756,5.4000001727999996,0.35999970196000003,0.3138740100439681,1716.3995666247756,5.4000001727999996,0.35999970196000003,0.3138740100439681,1024,0.0,100,GPS_Atti,
0.303914752576021,36.8942139198666,5300,2017-11-06 12:56:20,1716.5995666311758,5.600000179200001,0.7199994039200001,0.332901010652832,1716.5995666311758,5.600000179200001,0.7199994039200001,0.332901010652832,1024,0.0,100,GPS_Atti,
0.303914968068015,36.8942140412535,5400,2017-11-06 12:56:20,1716.799566637576,5.8000001856,0.7199994039200001,0.35374101131971203,1716.799566637576,5.8000001856,0.7199994039200001,0.35374101131971203,1024,0.0,100,GPS_Atti,
0.303915233914755,36.894214131466704,5500,2017-11-06 12:56:20,1716.899566640776,5.9000001888,0.7199994039200001,0.374608011987456,1716.899566640776,5.9000001888,0.7199994039200001,0.374608011987456,1024,0.0,100,GPS_Atti,
0.3039154987258039,36.894214213819396,5600,2017-11-06 12:56:20,1716.899566640776,5.9000001888,0.7199994039200001,0.39601201267238395,1716.899566640776,5.9000001888,0.7199994039200001,0.39601201267238395,1024,0.0,100,GPS_Atti,
0.303915741498306,36.8942142959891,5700,2017-11-06 12:56:20,1716.9995666439759,6.000000192000001,1.07999910588,0.417311013353952,1716.9995666439759,6.000000192000001,1.07999910588,0.417311013353952,1024,0.0,100,GPS_Atti,
0.303915989902782,36.8942143722952,5800,2017-11-06 12:56:20,1716.9995666439759,6.000000192000001,0.7199994039200001,0.43922901405532805,1716.9995666439759,6.000000192000001,1.07999910588,0.43922901405532805,1024,0.0,100,GPS_Atti,
0.30391622730630397,36.8942144291698,5900,2017-11-06 12:56:20,1716.9995666439759,6.000000192000001,0.7199994039200001,0.45944601470227203,1716.9995666439759,6.000000192000001,1.07999910588,0.45944601470227203,1024,0.0,100,GPS_Atti,
0.30391644437218895,36.894214488389004,6000,2017-11-06 12:56:20,1716.9995666439759,6.000000192000001,0.7199994039200001,0.47916701533334405,1716.9995666439759,6.000000192000001,1.07999910588,0.47916701533334405,1024,0.0,100,GPS_Atti,
0.303916671751825,36.894214497185104,6100,2017-11-06 12:56:21,1716.9995666439759,6.000000192000001,0.7199994039200001,0.49578001586496007,1716.9995666439759,6.000000192000001,1.07999910588,0.49578001586496007,1024,0.0,100,GPS_Atti,
0.303916862825301,36.894214497088704,6200,2017-11-06 12:56:21,1716.9995666439759,6.000000192000001,0.35999970196000003,0.509671016309472,1716.9995666439759,6.000000192000001,1.07999910588,0.509671016309472,1024,0.0,100,GPS_Atti,
0.30391699544333695,36.8942144589057,6300,2017-11-06 12:56:21,1716.9995666439759,6.000000192000001,0.35999970196000003,0.516512016528384,1716.9995666439759,6.000000192000001,1.07999910588,0.516512016528384,1024,0.0,100,GPS_Atti,
0.303917100797964,36.8942144361148,6400,2017-11-06 12:56:21,1716.9995666439759,6.000000192000001,0.35999970196000003,0.5228030167296961,1716.9995666439759,6.000000192000001,1.07999910588,0.5228030167296961,1024,0.0,100,GPS_Atti,
0.303917159088931,36.8942143994574,6500,2017-11-06 12:56:21,1716.9995666439759,6.000000192000001,0.35999970196000003,0.524482016783424,1716.9995666439759,6.000000192000001,1.07999910588,0.524482016783424,1023,0.0,100,GPS_Atti,
0.30391719166921,36.8942143880469,6600,2017-11-06 12:56:21,1716.9995666439759,6.000000192000001,0.0,0.526173016837536,1716.9995666439759,6.000000192000001,1.07999910588,0.526173016837536,1024,0.0,100,GPS_Atti,
0.303917188843046,36.8942143378882,6700,2017-11-06 12:56:21,1716.9995666439759,6.000000192000001,0.0,0.52206001670592,1716.9995666439759,6.000000192000001,1.07999910588,0.526173016837536,1024,0.0,100,GPS_Atti,
0.30391716596829305,36.894214293792295,6800,2017-11-06 12:56:21,1716.9995666439759,6.000000192000001,0.0,0.5168280165384961,1716.9995666439759,6.000000192000001,1.07999910588,0.526173016837536,1024,0.0,100,GPS_Atti,
0.30391713292635,36.894214277135895,6900,2017-11-06 12:56:21,1716.9995666439759,6.000000192000001,0.0,0.5128940164126081,1716.9995666439759,6.000000192000001,1.07999910588,0.526173016837536,1024,0.0,100,GPS_Atti,
0.303917067857799,36.8942143348402,7000,2017-11-06 12:56:21,1716.9995666439759,6.000000192000001,0.0,0.512222016391104,1716.9995666439759,6.000000192000001,1.07999910588,0.526173016837536,1024,0.0,100,GPS_Atti,
0.30391701128402604,36.894214410737206,7100,2017-11-06 12:56:22,1716.9995666439759,6.000000192000001,0.0,0.51384501644304,1716.9995666439759,6.000000192000001,1.07999910588,0.526173016837536,1024,0.0,100,GPS_Atti,
0.30391692266328996,36.8942144975469,7200,2017-11-06 12:56:22,1716.9995666439759,6.000000192000001,0.0,0.51416501645328,1716.9995666439759,6.000000192000001,1.07999910588,0.526173016837536,1024,0.0,100,GPS_Atti,
0.30391681158712497,36.89421461403371,7300,2017-11-06 12:56:22,1716.9995666439759,6.000000192000001,0.0,0.5157380165036161,1716.9995666439759,6.000000192000001,1.07999910588,0.526173016837536,1024,0.0,100,GPS_Atti,
0.303916679702702,36.8942147776986,7400,2017-11-06 12:56:22,1716.9995666439759,6.000000192000001,0.5075995797636,0.5206280166600961,1716.9995666439759,6.000000192000001,1.07999910588,0.526173016837536,1024,0.0,100,GPS_Atti,
0.303916550422162,36.894214974719205,7500,2017-11-06 12:56:22,1716.9995666439759,6.000000192000001,0.5075995797636,0.5297080169506561,1716.9995666439759,6.000000192000001,1.07999910588,0.5297080169506561,1024,0.0,100,GPS_Atti,
0.303916414338797,36.8942151761089,7600,2017-11-06 12:56:22,1716.9995666439759,6.000000192000001,0.5075995797636,0.539912017277184,1716.9995666439759,6.000000192000001,1.07999910588,0.539912017277184,1024,0.0,100,GPS_Atti,
0.303916298588997,36.8942153412395,7700,2017-11-06 12:56:22,1716.9995666439759,6.000000192000001,0.5075995797636,0.548897017564704,1716.9995666439759,6.000000192000001,1.07999910588,0.548897017564704,1024,0.0,100,GPS_Atti,
0.303916170349033,36.894215486447294,7800,2017-11-06 12:56:22,1716.9995666439759,6.000000192000001,0.5075995797636,0.556029017792928,1716.9995666439759,6.000000192000001,1.07999910588,0.556029017792928,1024,0.0,100,GPS_Atti,
0.303916059973913,36.8942156269765,7900,2017-11-06 12:56:22,1716.9995666439759,6.000000192000001,0.5075995797636,0.5643060180577921,1716.9995666439759,6.000000192000001,1.07999910588,0.5643060180577921,1024,0.0,100,GPS_Atti,
0.30391598258781105,36.8942157550354,8000,2017-11-06 12:56:22,1716.9995666439759,6.000000192000001,0.35999970196000003,0.573427018349664,1716.9995666439759,6.000000192000001,1.07999910588,0.573427018349664,1306,0.0,100,GPS_Atti,
0.303915909125446,36.8942158541259,8100,2017-11-06 12:56:23,1716.9995666439759,6.000000192000001,0.5075995797636,0.5801040185633279,1716.9995666439759,6.000000192000001,1.07999910588,0.5801040185633279,1429,0.0,100,GPS_Atti,
0.30391582876987705,36.8942159031413,8200,2017-11-06 12:56:23,1716.9995666439759,6.000000192000001,0.35999970196000003,0.5815910186109121,1716.9995666439759,6.000000192000001,1.07999910588,0.5815910186109121,1477,0.0,100,GPS_Atti,
0.303915724904462,36.894215880073,8300,2017-11-06 12:56:23,1716.9995666439759,6.000000192000001,0.7199994039200001,0.574848018395136,1716.9995666439759,6.000000192000001,1.07999910588,0.5815910186109121,1504,0.0,100,GPS_Atti,
0.303915638042445,36.8942155345312,8500,2017-11-06 12:56:23,1717.1995666503758,6.2000001984,0.7199994039200001,0.535603017139296,1717.1995666503758,6.2000001984,1.07999910588,0.5815910186109121,1507,0.0,100,GPS_Atti,
0.303915731012755,36.894215274791605,8600,2017-11-06 12:56:23,1717.3995666567757,6.400000204800001,0.8063993323904,0.513214016422848,1717.3995666567757,6.400000204800001,1.07999910588,0.5815910186109121,1501,0.0,100,GPS_Atti,
0.303915865124075,36.8942150075299,8700,2017-11-06 12:56:23,1717.6995666663759,6.7000002144,0.5075995797636,0.49307901577852803,1717.6995666663759,6.7000002144,1.07999910588,0.5815910186109121,1499,0.0,100,GPS_Atti,
0.303916022118289,36.8942148290693,8800,2017-11-06 12:56:23,1717.999566675976,7.000000224,0.35999970196000003,0.48421401549484805,1717.999566675976,7.000000224,1.07999910588,0.5815910186109121,1498,0.0,100,GPS_Atti,
0.303916187977753,36.894214770890706,8900,2017-11-06 12:56:23,1718.2995666855757,7.3000002336000005,0.0,0.488387015628384,1718.2995666855757,7.3000002336000005,1.07999910588,0.5815910186109121,1499,0.0,100,GPS_Atti,
0.30391633438871,36.8942147675846,9000,2017-11-06 12:56:23,1718.5995666951758,7.600000243199999,0.0,0.49708701590678406,1718.5995666951758,7.600000243199999,1.07999910588,0.5815910186109121,1499,0.0,100,GPS_Atti,
0.30391642318939,36.894214806061,9100,2017-11-06 12:56:24,1718.8995667047757,7.9000002528,0.0,0.506227016199264,1718.8995667047757,7.9000002528,1.07999910588,0.5815910186109121,1500,0.0,100,GPS_Atti,
0.303916523606575,36.8942148338195,9200,2017-11-06 12:56:24,1719.1995667143758,8.200000262400001,0.35999970196000003,0.5152180164869761,1719.1995667143758,8.200000262400001,1.07999910588,0.5815910186109121,1500,0.0,100,GPS_Atti,
0.30391664879483504,36.894214843647596,9300,2017-11-06 12:56:24,1719.599566727176,8.6000002752,0.35999970196000003,0.5243650167796801,1719.599566727176,8.6000002752,1.07999910588,0.5815910186109121,1542,0.0,100,GPS_Atti,
0.303916789222075,36.8942148502607,9400,2017-11-06 12:56:24,1719.8995667367758,8.9000002848,0.35999970196000003,0.5344890171036479,1719.8995667367758,8.9000002848,1.07999910588,0.5815910186109121,1546,0.0,100,GPS_Atti,
0.303916917540205,36.894214859791205,9500,2017-11-06 12:56:24,1720.1995667463757,9.2000002944,0.35999970196000003,0.544267017416544,1720.1995667463757,9.2000002944,1.07999910588,0.5815910186109121,1537,0.0,100,GPS_Atti,
0.30391704159099797,36.8942148676355,9600,2017-11-06 12:56:24,1720.5995667591756,9.6000003072,0.35999970196000003,0.553792017721344,1720.5995667591756,9.6000003072,1.07999910588,0.5815910186109121,1528,0.0,100,GPS_Atti,
0.303917206106995,36.89421481951629,9700,2017-11-06 12:56:24,1720.8995667687757,9.900000316799998,0.35999970196000003,0.561861017979552,1720.8995667687757,9.900000316799998,1.07999910588,0.5815910186109121,1525,0.0,100,GPS_Atti,
0.303917325362834,36.8942148152671,9800,2017-11-06 12:56:24,1721.2995667815758,10.300000329600001,0.35999970196000003,0.57051501825648,1721.2995667815758,10.300000329600001,1.07999910588,0.5815910186109121,1522,0.0,100,GPS_Atti,
0.30391744381747904,36.894214819979894,9900,2017-11-06 12:56:24,1721.5995667911757,10.6000003392,0.0,0.579996018559872,1721.5995667911757,10.6000003392,1.07999910588,0.5815910186109121,1529,0.0,100,GPS_Atti,
0.303917510504703,36.894214855007796,10000,2017-11-06 12:56:24,1721.9995668039758,11.000000352000002,0.0,0.587963018814816,1721.9995668039758,11.000000352000002,1.07999910588,0.587963018814816,1545,0.0,100,GPS_Atti,
0.30391752323832105,36.894214915487105,10100,2017-11-06 12:56:25,1722.299566813576,11.3000003616,0.0,0.593769019000608,1722.299566813576,11.3000003616,1.07999910588,0.593769019000608,1545,0.0,100,GPS_Atti,
0.30391751963701696,36.894214974719205,10200,2017-11-06 12:56:25,1722.6995668263758,11.700000374400002,0.0,0.598244019143808,1722.6995668263758,11.700000374400002,1.07999910588,0.598244019143808,1555,0.0,100,GPS_Atti,
0.303917552184727,36.89421500024871,10300,2017-11-06 12:56:25,1722.9995668359759,12.000000384000002,0.0,0.6027960192894721,1722.9995668359759,12.000000384000002,1.07999910588,0.6027960192894721,1562,-0.5,100,GPS_Atti,
0.303917549834883,36.8942150264539,10400,2017-11-06 12:56:25,1723.3995668487757,12.4000003968,0.0,0.604728019351296,1723.3995668487757,12.4000003968,1.07999910588,0.604728019351296,1558,-1.0,100,GPS_Atti,
0.30391748295713,36.894215070507,10600,2017-11-06 12:56:25,1724.099566871176,13.100000419199999,0.0,0.603234019303488,1724.099566871176,13.100000419199999,1.07999910588,0.604728019351296,1559,-2.3,100,GPS_Atti,
0.303917483259207,36.8942151135087,10700,2017-11-06 12:56:25,1724.4995668839758,13.500000432000002,0.35999970196000003,0.60678501941712,1724.4995668839758,13.500000432000002,1.07999910588,0.60678501941712,1559,-2.3,100,GPS_Atti,
0.303917455424214,36.8942151771966,10800,2017-11-06 12:56:25,1724.899566896776,13.9000004448,0.0,0.609979019519328,1724.899566896776,13.9000004448,1.07999910588,0.609979019519328,1558,-2.9,100,GPS_Atti,
0.303917409145464,36.894215265123,10900,2017-11-06 12:56:25,1725.2995669095758,14.300000457600001,0.0,0.6139520196464641,1725.2995669095758,14.300000457600001,1.07999910588,0.6139520196464641,1559,-3.5,100,GPS_Atti,
0.303917379068917,36.8942153456279,11000,2017-11-06 12:56:25,1725.599566919176,14.600000467200001,0.0,0.618618019795776,1725.599566919176,14.600000467200001,1.07999910588,0.618618019795776,1559,-4.1,100,GPS_Atti,
0.303917364894126,36.8942153873192,11100,2017-11-06 12:56:26,1725.999566931976,15.00000048,0.0,0.621177019877664,1725.999566931976,15.00000048,1.07999910588,0.621177019877664,1558,-5.3,100,GPS_Atti,
0.303917334155618,36.8942154361997,11300,2017-11-06 12:56:26,1726.799566957576,15.8000005056,0.0,0.6232240199431679,1726.799566957576,15.8000005056,1.07999910588,0.6232240199431679,1557,-5.9,100,GPS_Atti,
0.30391733746543,36.89421543727239,11400,2017-11-06 12:56:26,1727.1995669703758,16.2000005184,0.0,0.623549019953568,1727.1995669703758,16.2000005184,1.07999910588,0.623549019953568,1559,-6.6,100,GPS_Atti,
0.303917382266367,36.8942154231341,11500,2017-11-06 12:56:26,1727.599566983176,16.6000005312,0.0,0.625479020015328,1727.599566983176,16.6000005312,1.07999910588,0.625479020015328,1557,-7.2,100,GPS_Atti,
0.303917402506297,36.8942154137706,11600,2017-11-06 12:56:26,1727.9995669959758,17.000000544000002,0.0,0.6261090200354881,1727.9995669959758,17.000000544000002,1.07999910588,0.6261090200354881,1558,-7.8,100,GPS_Atti,
0.303917427046134,36.8942153848012,11700,2017-11-06 12:56:26,1728.3995670087759,17.400000556800002,0.0,0.6253830200122561,1728.3995670087759,17.400000556800002,1.07999910588,0.6261090200354881,1565,-8.4,100,GPS_Atti,
0.303917463047774,36.894215388091105,11900,2017-11-06 12:56:26,1729.0995670311759,18.100000579200003,0.0,0.6282450201038401,1729.0995670311759,18.100000579200003,1.07999910588,0.6282450201038401,1564,-9.0,100,GPS_Atti,
0.30391747779252,36.8942154146988,12000,2017-11-06 12:56:26,1729.5995670471757,18.6000005952,0.0,0.631563020210016,1729.5995670471757,18.6000005952,1.07999910588,0.631563020210016,1570,-10.2,100,GPS_Atti,
0.303917525258406,36.8942154896205,12100,2017-11-06 12:56:27,1729.9995670599758,19.000000608,0.0,0.6413340205226881,1729.9995670599758,19.000000608,1.07999910588,0.6413340205226881,1564,-10.2,100,GPS_Atti,
0.303917561709496,36.894215568075204,12200,2017-11-06 12:56:27,1730.3995670727759,19.4000006208,0.0,0.6506230208199362,1730.3995670727759,19.4000006208,1.07999910588,0.6506230208199362,1565,-10.9,100,GPS_Atti,
0.303917609280417,36.8942156163572,12300,2017-11-06 12:56:27,1730.7995670855757,19.800000633599996,0.0,0.6581360210603522,1730.7995670855757,19.800000633599996,1.07999910588,0.6581360210603522,1562,-11.5,100,GPS_Atti,
0.30391763127988103,36.894215666322204,12400,2017-11-06 12:56:27,1731.1995670983758,20.200000646400003,0.0,0.6639690212470081,1731.1995670983758,20.200000646400003,1.07999910588,0.6639690212470081,1562,-12.1,100,GPS_Atti,
0.30391761604904405,36.8942157045062,12500,2017-11-06 12:56:27,1731.4995671079757,20.500000655999997,0.0,0.66616002131712,1731.4995671079757,20.500000655999997,1.07999910588,0.66616002131712,1559,-12.7,100,GPS_Atti,
0.303917571897042,36.8942157467607,12600,2017-11-06 12:56:27,1731.8995671207758,20.900000668800004,0.0,0.666704021334528,1731.8995671207758,20.900000668800004,1.07999910588,0.666704021334528,1558,-13.3,100,GPS_Atti,
0.303917554629836,36.894215774832894,12700,2017-11-06 12:56:27,1732.2995671335757,21.300000681600004,0.0,0.6679380213740159,1732.2995671335757,21.300000681600004,1.07999910588,0.6679380213740159,1559,-13.9,100,GPS_Atti,
0.30391752567691604,36.894215807460604,12800,2017-11-06 12:56:27,1732.6995671463758,21.700000694400003,0.0,0.6687850214011201,1732.6995671463758,21.700000694400003,1.07999910588,0.6687850214011201,1559,-14.5,100,GPS_Atti,
0.303917486730235,36.8942158009503,12900,2017-11-06 12:56:27,1733.0995671591759,22.1000007072,0.0,0.665547021297504,1733.0995671591759,22.1000007072,1.07999910588,0.6687850214011201,1559,-15.2,100,GPS_Atti,
0.303917439766725,36.8942157995124,13000,2017-11-06 12:56:27,1733.4995671719757,22.50000072,0.0,0.6622250211912001,1733.4995671719757,22.50000072,1.07999910588,0.6687850214011201,1556,-15.8,100,GPS_Atti,
0.303917432266926,36.894215797049,13100,2017-11-06 12:56:28,1733.8995671847758,22.900000732800002,0.0,0.6614990211679679,1733.8995671847758,22.900000732800002,1.07999910588,0.6687850214011201,1557,-16.4,100,GPS_Atti,
0.303917406377109,36.894215795870295,13200,2017-11-06 12:56:28,1734.2995671975757,23.300000745600002,0.0,0.6596460211086721,1734.2995671975757,23.300000745600002,1.07999910588,0.6687850214011201,1557,-16.4,99,GPS_Atti,
0.303917411840538,36.8942157821591,13300,2017-11-06 12:56:28,1734.6995672103758,23.700000758399998,0.0,0.6588030210816961,1734.6995672103758,23.700000758399998,1.07999910588,0.6687850214011201,1557,-17.0,99,GPS_Atti,
0.30391739409294205,36.8942157903802,13400,2017-11-06 12:56:28,1735.0995672231757,24.100000771199998,0.0,0.6583320210666239,1735.0995672231757,24.100000771199998,1.07999910588,0.6687850214011201,1557,-17.6,99,GPS_Atti,
0.30391736239039396,36.894215762511394,13500,2017-11-06 12:56:28,1735.4995672359757,24.500000784000004,0.0,0.6537320209194241,1735.4995672359757,24.500000784000004,1.07999910588,0.6687850214011201,1557,-18.2,99,GPS_Atti,
0.30391731184104903,36.894215758449505,13600,2017-11-06 12:56:28,1735.7995672455756,24.8000007936,0.0,0.6499890207996479,1735.7995672455756,24.8000007936,1.07999910588,0.6687850214011201,1559,-18.8,99,GPS_Atti,
0.303917283075401,36.894215747675,13700,2017-11-06 12:56:28,1736.1995672583757,25.200000806400006,0.0,0.6471160207077121,1736.1995672583757,25.200000806400006,1.07999910588,0.6687850214011201,1559,-19.5,99,GPS_Atti,
0.303917226752408,36.8942157431678,13800,2017-11-06 12:56:28,1736.5995672711758,25.600000819200005,0.0,0.642993020575776,1736.5995672711758,25.600000819200005,1.07999910588,0.6687850214011201,1559,-20.1,99,GPS_Atti,
0.303917182887826,36.8942157397055,13900,2017-11-06 12:56:28,1736.9995672839757,26.000000832,0.0,0.6398110204739521,1736.9995672839757,26.000000832,1.07999910588,0.6687850214011201,1558,-20.7,99,GPS_Atti,
0.30391711967733004,36.8942157681385,14000,2017-11-06 12:56:28,1737.3995672967758,26.4000008448,0.0,0.6382960204254721,1737.3995672967758,26.4000008448,1.07999910588,0.6687850214011201,1555,-21.3,99,GPS_Atti,
0.303917076212531,36.89421577890771,14100,2017-11-06 12:56:29,1737.7995673095757,26.8000008576,0.0,0.6365050203681599,1737.7995673095757,26.8000008576,1.07999910588,0.6687850214011201,1487,-21.9,99,GPS_Atti,
0.30391702860090003,36.894215785528296,14200,2017-11-06 12:56:29,1738.1995673223757,27.200000870400004,0.0,0.6341060202913921,1738.1995673223757,27.200000870400004,1.07999910588,0.6687850214011201,1266,-22.5,99,GPS_Atti,
0.30391701562301504,36.894215759394896,14300,2017-11-06 12:56:29,1738.5995673351756,27.6000008832,0.0,0.630893020188576,1738.5995673351756,27.6000008832,1.07999910588,0.6687850214011201,1161,-22.6,99,GPS_Atti,
0.30391701422499606,36.8942157584131,14400,2017-11-06 12:56:29,1738.8995673447757,27.9000008928,0.0,0.63071502018288,1738.8995673447757,27.9000008928,1.07999910588,0.6687850214011201,1106,-22.6,99,GPS_Atti,
0.30391702293798606,36.8942157429301,14500,2017-11-06 12:56:29,1739.099567351176,28.1000008992,0.0,0.6298440201550081,1739.099567351176,28.1000008992,1.07999910588,0.6687850214011201,1047,-22.6,99,GPS_Atti,
0.30391702305604806,36.8942157415522,14600,2017-11-06 12:56:29,1739.1995673543759,28.200000902400003,0.0,0.6297250201512001,1739.1995673543759,28.200000902400003,1.07999910588,0.6687850214011201,1025,-22.6,99,GPS_Atti,
0.303917062961068,36.8942156904492,14700,2017-11-06 12:56:29,1739.2995673575758,28.300000905599997,0.0,0.627601020083232,1739.2995673575758,28.300000905599997,1.07999910588,0.6687850214011201,1024,-22.6,99,GPS_Atti,
0.303917086641086,36.8942156625451,14800,2017-11-06 12:56:29,1739.399567360776,28.400000908800006,0.0,0.62659502005104,1739.399567360776,28.400000908800006,1.07999910588,0.6687850214011201,1024,-22.6,99,GPS_Atti,
0.303917166496723,36.8942156254745,14900,2017-11-06 12:56:29,1739.399567360776,28.400000908800006,0.0,0.628479020111328,1739.399567360776,28.400000908800006,1.07999910588,0.6687850214011201,1024,-22.6,99,GPS_Atti,
0.303917243398363,36.894215596242795,15000,2017-11-06 12:56:29,1739.4995673639758,28.500000912,0.0,0.6310040201921281,1739.4995673639758,28.500000912,1.07999910588,0.6687850214011201,1024,-22.6,99,GPS_Atti,
0.30391734538699605,36.894215546224295,15100,2017-11-06 12:56:30,1739.4995673639758,28.500000912,0.0,0.6335590202738879,1739.4995673639758,28.500000912,1.07999910588,0.6687850214011201,1024,-22.6,99,GPS_Atti,
0.303917444983445,36.8942155103024,15200,2017-11-06 12:56:30,1739.4995673639758,28.500000912,0.35999970196000003,0.637397020396704,1739.4995673639758,28.500000912,1.07999910588,0.6687850214011201,1024,-22.6,99,GPS_Atti,
0.303917500366825,36.8942154778503,15300,2017-11-06 12:56:30,1739.4995673639758,28.500000912,0.5075995797636,0.6385510204336321,1739.4995673639758,28.500000912,1.07999910588,0.6687850214011201,1024,-22.6,99,GPS_Atti,
0.303917546051193,36.8942155226946,15400,2017-11-06 12:56:30,1739.4995673639758,28.500000912,0.7199994039200001,0.645637020660384,1739.4995673639758,28.500000912,1.07999910588,0.6687850214011201,1024,-22.6,99,GPS_Atti,
0.30391752371789804,36.8942156427893,15500,2017-11-06 12:56:30,1739.4995673639758,28.500000912,1.07999910588,0.6543460209390721,1739.4995673639758,28.500000912,1.07999910588,0.6687850214011201,1024,-22.6,99,GPS_Atti,
0.303917424023742,36.89421591130571,15600,2017-11-06 12:56:30,1739.5995673671757,28.600000915200003,1.7999985098000002,0.6710730214743361,1739.5995673671757,28.600000915200003,1.7999985098000002,0.6710730214743361,1024,-22.6,99,GPS_Atti,
0.30391723545562704,36.8942162986781,15700,2017-11-06 12:56:30,1739.5995673671757,28.600000915200003,1.8359984799959999,0.694322022218304,1739.5995673671757,28.600000915200003,1.8359984799959999,0.694322022218304,1024,-22.6,99,GPS_Atti,
0.303917040420146,36.89421671429189,15800,2017-11-06 12:56:30,1739.5995673671757,28.600000915200003,1.8359984799959999,0.7223750231160001,1739.5995673671757,28.600000915200003,1.8359984799959999,0.7223750231160001,1150,-22.6,99,GPS_Atti,
0.303916878009727,36.894217076837,15900,2017-11-06 12:56:30,1739.5995673671757,28.600000915200003,1.7999985098000002,0.749224023975168,1739.5995673671757,28.600000915200003,1.8359984799959999,0.749224023975168,1309,-22.6,99,GPS_Atti,
0.303916747256259,36.89421739367929,16000,2017-11-06 12:56:30,1739.5995673671757,28.600000915200003,1.4399988078400001,0.7745160247845121,1739.5995673671757,28.600000915200003,1.8359984799959999,0.7745160247845121,1409,-22.6,99,GPS_Atti,
0.303916661415276,36.894217544401705,16100,2017-11-06 12:56:31,1739.5995673671757,28.600000915200003,0.7199994039200001,0.78584502514704,1739.5995673671757,28.600000915200003,1.8359984799959999,0.78584502514704,1445,-22.6,99,GPS_Atti,
0.30391667418227697,36.8942175754277,16200,2017-11-06 12:56:31,1739.6995673703757,28.7000009184,0.35999970196000003,0.7895750252664001,1739.6995673703757,28.7000009184,1.8359984799959999,0.7895750252664001,1469,-22.6,99,GPS_Atti,
0.303916845401764,36.894217358641704,16300,2017-11-06 12:56:31,1739.8995673767758,28.9000009248,0.7199994039200001,0.7756710248214722,1739.8995673767758,28.9000009248,1.8359984799959999,0.7895750252664001,1487,-22.6,99,GPS_Atti,
0.30391702589524,36.8942171715574,16400,2017-11-06 12:56:31,1740.0995673831758,29.1000009312,0.35999970196000003,0.766154024516928,1740.0995673831758,29.1000009312,1.8359984799959999,0.7895750252664001,1492,-22.6,99,GPS_Atti,
0.303917303578325,36.8942169832151,16500,2017-11-06 12:56:31,1740.3995673927757,29.4000009408,0.35999970196000003,0.7629460244142721,1740.3995673927757,29.4000009408,1.8359984799959999,0.7895750252664001,1499,-22.6,99,GPS_Atti,
0.303917484945461,36.8942168583348,16600,2017-11-06 12:56:31,1740.6995674023758,29.7000009504,0.0,0.7616560243729921,1740.6995674023758,29.7000009504,1.8359984799959999,0.7895750252664001,1514,-22.6,99,GPS_Atti,
0.303917616346235,36.89421679051971,16700,2017-11-06 12:56:31,1740.999567411976,30.00000096,0.0,0.7633080244258561,1740.999567411976,30.00000096,1.8359984799959999,0.7895750252664001,1516,-22.6,99,GPS_Atti,
0.303917683209331,36.894216704768894,16800,2017-11-06 12:56:31,1741.2995674215758,30.300000969600003,0.0,0.759582024306624,1741.2995674215758,30.300000969600003,1.8359984799959999,0.7895750252664001,1520,-22.6,99,GPS_Atti,
0.303917743508984,36.8942166385682,16900,2017-11-06 12:56:31,1741.5995674311757,30.6000009792,0.0,0.757382024236224,1741.5995674311757,30.6000009792,1.8359984799959999,0.7895750252664001,1524,-22.6,99,GPS_Atti,
0.303917792409529,36.8942165726278,17000,2017-11-06 12:56:31,1741.8995674407759,30.900000988800006,0.0,0.754587024146784,1741.8995674407759,30.900000988800006,1.8359984799959999,0.7895750252664001,1524,-22.6,99,GPS_Atti,
0.303917856365038,36.8942165379596,17100,2017-11-06 12:56:32,1742.1995674503758,31.2000009984,0.0,0.7556820241818241,1742.1995674503758,31.2000009984,1.8359984799959999,0.7895750252664001,1534,-22.6,99,GPS_Atti,
0.303917916939898,36.8942165064593,17200,2017-11-06 12:56:32,1742.5995674631758,31.6000010112,0.0,0.7569150242212801,1742.5995674631758,31.6000010112,1.8359984799959999,0.7895750252664001,1542,-22.6,99,GPS_Atti,
0.30391803781034005,36.8942165527114,17300,2017-11-06 12:56:32,1742.899567472776,31.9000010208,0.0,0.7691650246132801,1742.899567472776,31.9000010208,1.8359984799959999,0.7895750252664001,1550,-22.6,99,GPS_Atti,
0.30391813744179996,36.8942165959969,17400,2017-11-06 12:56:32,1743.1995674823756,32.2000010304,0.0,0.779769024952608,1743.1995674823756,32.2000010304,1.8359984799959999,0.7895750252664001,1551,-22.6,99,GPS_Atti,
0.303918245524885,36.8942167344973,17500,2017-11-06 12:56:32,1743.599567495176,32.6000010432,0.0,0.7993050255777601,1743.599567495176,32.6000010432,1.8359984799959999,0.7993050255777601,1560,-22.6,99,GPS_Atti,
0.303918354008568,36.8942168608015,17600,2017-11-06 12:56:32,1743.8995675047756,32.9000010528,0.0,0.8178030261696961,1743.8995675047756,32.9000010528,1.8359984799959999,0.8178030261696961,1570,-22.6,99,GPS_Atti,
0.30391849918679303,36.894217022864794,17700,2017-11-06 12:56:32,1744.2995675175757,33.3000010656,0.0,0.8419500269424002,1744.2995675175757,33.3000010656,1.8359984799959999,0.8419500269424002,1571,-22.6,99,GPS_Atti,
0.303918634652978,36.894217170206296,17800,2017-11-06 12:56:32,1744.6995675303756,33.70000107840001,0.0,0.864146027652672,1744.6995675303756,33.70000107840001,1.8359984799959999,0.864146027652672,1576,-22.6,99,GPS_Atti,
0.303918777571736,36.8942173473201,17900,2017-11-06 12:56:32,1745.0995675431757,34.1000010912,0.0,0.889454028462528,1745.0995675431757,34.1000010912,1.8359984799959999,0.889454028462528,1578,-22.6,99,GPS_Atti,
0.303918910271195,36.89421750916821,18000,2017-11-06 12:56:32,1745.4995675559755,34.500001104,0.0,0.9127250292072,1745.4995675559755,34.500001104,1.8359984799959999,0.9127250292072,1579,-22.6,99,GPS_Atti,
0.303919022494599,36.894217712919705,18100,2017-11-06 12:56:33,1745.7995675655757,34.800001113600004,0.0,0.9382420300237441,1745.7995675655757,34.800001113600004,1.8359984799959999,0.9382420300237441,1582,-22.6,99,GPS_Atti,
0.303919117384031,36.8942179097454,18200,2017-11-06 12:56:33,1746.1995675783758,35.2000011264,0.0,0.9619870307835839,1746.1995675783758,35.2000011264,1.8359984799959999,0.9619870307835839,1583,-22.6,99,GPS_Atti,
0.30391919127142,36.8942181245016,18300,2017-11-06 12:56:33,1746.5995675911756,35.6000011392,0.0,0.9859210315494721,1746.5995675911756,35.6000011392,1.8359984799959999,0.9859210315494721,1583,-22.6,99,GPS_Atti,
0.303919262064766,36.894218317755794,18400,2017-11-06 12:56:33,1746.9995676039757,36.000001151999996,0.0,1.0078000322496,1746.9995676039757,36.000001151999996,1.8359984799959999,1.0078000322496,1584,-22.6,99,GPS_Atti,
0.303919322501208,36.894218491691,18500,2017-11-06 12:56:33,1747.3995676167756,36.4000011648,0.0,1.02732003287424,1747.3995676167756,36.4000011648,1.8359984799959999,1.02732003287424,1589,-22.6,99,GPS_Atti,
0.303919360043356,36.894218667431204,18600,2017-11-06 12:56:33,1747.7995676295757,36.8000011776,0.0,1.0455200334566401,1747.7995676295757,36.8000011776,1.8359984799959999,1.0455200334566401,1590,-22.6,99,GPS_Atti,
0.30391940954153995,36.8942188856593,18700,2017-11-06 12:56:33,1748.199567642376,37.2000011904,0.0,1.06841003418912,1748.199567642376,37.2000011904,1.8359984799959999,1.06841003418912,1593,-22.6,99,GPS_Atti,
0.303919445320083,36.8942190976384,18800,2017-11-06 12:56:33,1748.5995676551759,37.60000120320001,0.35999970196000003,1.08993003487776,1748.5995676551759,37.60000120320001,1.8359984799959999,1.08993003487776,1595,-22.6,99,GPS_Atti,
0.30391947414842696,36.8942193185526,18900,2017-11-06 12:56:33,1748.999567667976,38.000001216,0.0,1.11193003558176,1748.999567667976,38.000001216,1.8359984799959999,1.11193003558176,1599,-22.6,99,GPS_Atti,
0.303919493595305,36.8942195157713,19000,2017-11-06 12:56:33,1749.3995676807758,38.4000012288,0.0,1.13128003620096,1749.3995676807758,38.4000012288,1.8359984799959999,1.13128003620096,1601,-22.6,99,GPS_Atti,
0.30391949383142897,36.8942197120745,19100,2017-11-06 12:56:34,1749.799567693576,38.8000012416,0.0,1.1494700367830402,1749.799567693576,38.8000012416,1.8359984799959999,1.1494700367830402,1602,-22.6,99,GPS_Atti,
0.303919498679307,36.8942198921657,19200,2017-11-06 12:56:34,1750.1995677063758,39.2000012544,0.0,1.16654003732928,1750.1995677063758,39.2000012544,1.8359984799959999,1.16654003732928,1607,-22.6,99,GPS_Atti,
0.303919536648107,36.8942200383531,19300,2017-11-06 12:56:34,1750.5995677191759,39.60000126719999,0.0,1.18250003784,1750.5995677191759,39.60000126719999,1.8359984799959999,1.18250003784,1615,-22.6,99,GPS_Atti,
0.303919574937711,36.8942201782753,19400,2017-11-06 12:56:34,1750.9995677319757,40.00000128,0.0,1.19791003833312,1750.9995677319757,40.00000128,1.8359984799959999,1.19791003833312,1617,-22.6,99,GPS_Atti,
0.30391962845815196,36.89422032684261,19500,2017-11-06 12:56:34,1751.4995677479758,40.500001296,0.0,1.2150600388819202,1751.4995677479758,40.500001296,1.8359984799959999,1.2150600388819202,1617,-22.6,99,GPS_Atti,
0.30391966159698697,36.894220436306206,19600,2017-11-06 12:56:34,1751.8995677607757,40.90000130880001,0.0,1.22733003927456,1751.8995677607757,40.90000130880001,1.8359984799959999,1.22733003927456,1617,-22.6,99,GPS_Atti,
0.30391971057244,36.894220518553,19700,2017-11-06 12:56:34,1752.2995677735757,41.30000132160001,0.0,1.2379700396150402,1752.2995677735757,41.30000132160001,1.8359984799959999,1.2379700396150402,1617,-22.6,99,GPS_Atti,
0.30391974680531897,36.8942205703444,19800,2017-11-06 12:56:34,1752.799567789576,41.80000133760001,0.0,1.24499003983968,1752.799567789576,41.80000133760001,1.8359984799959999,1.24499003983968,1627,-22.7,99,GPS_Atti,
0.303919762483978,36.894220567728894,19900,2017-11-06 12:56:34,1753.199567802376,42.2000013504,0.0,1.24567003986144,1753.199567802376,42.2000013504,1.8359984799959999,1.24567003986144,1620,-22.7,99,GPS_Atti,
0.30391976762497497,36.8942205710853,20000,2017-11-06 12:56:34,1753.599567815176,42.60000136320001,0.0,1.2462900398812802,1753.599567815176,42.60000136320001,1.8359984799959999,1.2462900398812802,1622,-22.7,99,GPS_Atti,
0.30391979042319106,36.8942206192891,20100,2017-11-06 12:56:35,1754.0995678311758,43.1000013792,0.0,1.25218004006976,1754.0995678311758,43.1000013792,1.8359984799959999,1.25218004006976,1622,-22.7,99,GPS_Atti,
0.303919810770599,36.8942206619964,20200,2017-11-06 12:56:35,1754.4995678439757,43.500001391999994,0.0,1.25741004023712,1754.4995678439757,43.500001391999994,1.8359984799959999,1.25741004023712,1624,-22.7,99,GPS_Atti,
0.303919870501925,36.894220680020005,20300,2017-11-06 12:56:35,1754.8995678567758,43.9000014048,0.0,1.2626400404044802,1754.8995678567758,43.9000014048,1.8359984799959999,1.2626400404044802,1623,-22.8,99,GPS_Atti,
0.30391990746109,36.8942206850037,20400,2017-11-06 12:56:35,1755.3995678727756,44.4000014208,0.0,1.2653000404896,1755.3995678727756,44.4000014208,1.8359984799959999,1.2653000404896,1624,-22.8,99,GPS_Atti,
0.303919973100411,36.8942206651322,20500,2017-11-06 12:56:35,1755.7995678855757,44.80000143360001,0.0,1.2673700405558401,1755.7995678855757,44.80000143360001,1.8359984799959999,1.2673700405558401,1627,-22.8,99,GPS_Atti,
0.303920032988067,36.8942206513568,20600,2017-11-06 12:56:35,1756.299567901576,45.3000014496,0.0,1.2697000406304002,1756.299567901576,45.3000014496,1.8359984799959999,1.2697000406304002,1628,-22.8,99,GPS_Atti,
0.303920085818047,36.894220636587896,20700,2017-11-06 12:56:35,1756.6995679143758,45.700001462399996,0.0,1.27154004068928,1756.6995679143758,45.700001462399996,1.8359984799959999,1.27154004068928,1629,-22.9,99,GPS_Atti,
0.30392012937078194,36.8942206292607,20800,2017-11-06 12:56:35,1757.1995679303757,46.20000147840001,0.0,1.2735200407526401,1757.1995679303757,46.20000147840001,1.8359984799959999,1.2735200407526401,1632,-22.9,99,GPS_Atti,
0.30392018172525603,36.8942205918271,20900,2017-11-06 12:56:35,1757.5995679431758,46.600001491200004,0.0,1.27329004074528,1757.5995679431758,46.600001491200004,1.8359984799959999,1.2735200407526401,1634,-22.9,99,GPS_Atti,
0.303920217852286,36.8942205626125,21000,2017-11-06 12:56:35,1758.0995679591756,47.1000015072,0.0,1.2728300407305602,1758.0995679591756,47.1000015072,1.8359984799959999,1.2735200407526401,1632,-22.9,99,GPS_Atti,
0.303920294722985,36.89422049235971,21100,2017-11-06 12:56:36,1758.4995679719757,47.500001520000005,0.0,1.2712000406784,1758.4995679719757,47.500001520000005,1.8359984799959999,1.2735200407526401,1629,-23.0,99,GPS_Atti,
0.303920354648096,36.8942204377997,21200,2017-11-06 12:56:36,1758.9995679879758,48.000001536000006,0.0,1.27001004064032,1758.9995679879758,48.000001536000006,1.8359984799959999,1.2735200407526401,1631,-23.0,99,GPS_Atti,
0.30392042467281605,36.8942203594007,21300,2017-11-06 12:56:36,1759.3995680007758,48.4000015488,0.0,1.2673800405561602,1759.3995680007758,48.4000015488,1.8359984799959999,1.2735200407526401,1631,-23.0,99,GPS_Atti,
0.303920475911807,36.894220304711105,21400,2017-11-06 12:56:36,1759.8995680167757,48.9000015648,0.0,1.26576004050432,1759.8995680167757,48.9000015648,1.8359984799959999,1.2735200407526401,1631,-23.0,99,GPS_Atti,
0.303920531358696,36.8942202437265,21500,2017-11-06 12:56:36,1760.2995680295758,49.30000157760001,0.0,1.26391004044512,1760.2995680295758,49.30000157760001,1.8359984799959999,1.2735200407526401,1627,-23.1,99,GPS_Atti,
0.30392055974736,36.894220208030504,21600,2017-11-06 12:56:36,1760.6995680423756,49.70000159040001,0.0,1.26258004040256,1760.6995680423756,49.70000159040001,1.8359984799959999,1.2735200407526401,1627,-23.1,99,GPS_Atti,
0.303920598357768,36.8942201238438,21700,2017-11-06 12:56:36,1761.1995680583757,50.200001606399994,0.0,1.25764004024448,1761.1995680583757,50.200001606399994,1.8359984799959999,1.2735200407526401,1628,-23.1,99,GPS_Atti,
0.30392062674480297,36.8942200718661,21800,2017-11-06 12:56:36,1761.599568071176,50.6000016192,0.0,1.2549200401574399,1761.599568071176,50.6000016192,1.8359984799959999,1.2735200407526401,1628,-23.1,99,GPS_Atti,
0.303920678358336,36.894219969072296,21900,2017-11-06 12:56:36,1762.0995680871758,51.1000016352,0.0,1.2493300399785603,1762.0995680871758,51.1000016352,1.8359984799959999,1.2735200407526401,1627,-23.2,99,GPS_Atti,
0.303920723679561,36.8942198901016,22000,2017-11-06 12:56:36,1762.499568099976,51.50000164800001,0.0,1.245500039856,1762.499568099976,51.50000164800001,1.8359984799959999,1.2735200407526401,1629,-23.2,99,GPS_Atti,
0.303920793930635,36.8942197579145,22100,2017-11-06 12:56:37,1762.9995681159758,52.000001664,0.0,1.2388500396432,1762.9995681159758,52.000001664,1.8359984799959999,1.2735200407526401,1629,-23.2,99,GPS_Atti,
0.30392084178571804,36.8942196711294,22200,2017-11-06 12:56:37,1763.3995681287756,52.400001676799995,0.0,1.23471003951072,1763.3995681287756,52.400001676799995,1.8359984799959999,1.2735200407526401,1629,-23.3,99,GPS_Atti,
0.303920941068692,36.894219536852496,22300,2017-11-06 12:56:37,1763.7995681415757,52.8000016896,0.0,1.23028003936896,1763.7995681415757,52.8000016896,1.8359984799959999,1.2735200407526401,1630,-23.3,99,GPS_Atti,
0.303921009645726,36.89421943476,22400,2017-11-06 12:56:37,1764.299568157576,53.3000017056,0.0,1.2265900392508802,1764.299568157576,53.3000017056,1.8359984799959999,1.2735200407526401,1630,-23.3,99,GPS_Atti,
0.30392107503100896,36.8942192401375,22500,2017-11-06 12:56:37,1764.6995681703759,53.7000017184,0.0,1.21509003888288,1764.6995681703759,53.7000017184,1.8359984799959999,1.2735200407526401,1629,-23.4,99,GPS_Atti,
0.303921097326036,36.8942190922308,22600,2017-11-06 12:56:37,1765.099568183176,54.100001731199995,0.0,1.2045200385446402,1765.099568183176,54.100001731199995,1.8359984799959999,1.2735200407526401,1629,-23.4,99,GPS_Atti,
0.30392112936404303,36.8942189248605,22700,2017-11-06 12:56:37,1765.5995681991758,54.6000017472,0.0,1.193250038184,1765.5995681991758,54.6000017472,1.8359984799959999,1.2735200407526401,1629,-23.4,99,GPS_Atti,
0.30392115161510197,36.894218795799496,22800,2017-11-06 12:56:37,1765.9995682119759,55.00000176,0.0,1.184500037904,1765.9995682119759,55.00000176,1.8359984799959999,1.2735200407526401,1630,-23.4,99,GPS_Atti,
0.303921206555545,36.8942185831771,22900,2017-11-06 12:56:37,1766.4995682279757,55.500001776,0.0,1.17176003749632,1766.4995682279757,55.500001776,1.8359984799959999,1.2735200407526401,1629,-23.4,99,GPS_Atti,
0.303921234997948,36.8942184306325,23000,2017-11-06 12:56:37,1766.8995682407756,55.900001788800004,0.0,1.16198003718336,1766.8995682407756,55.900001788800004,1.8359984799959999,1.2735200407526401,1627,-23.5,99,GPS_Atti,
0.303921287582033,36.8942182485896,23100,2017-11-06 12:56:38,1767.3995682567759,56.400001804800006,0.0,1.1520400368652801,1767.3995682567759,56.400001804800006,1.8359984799959999,1.2735200407526401,1627,-23.5,99,GPS_Atti,
0.303921311549472,36.8942181288664,23200,2017-11-06 12:56:38,1767.799568269576,56.80000181760001,0.0,1.14481003663392,1767.799568269576,56.80000181760001,1.8359984799959999,1.2735200407526401,1627,-23.5,99,GPS_Atti,
0.303921317773385,36.8942179766879,23300,2017-11-06 12:56:38,1768.1995682823758,57.200001830400005,0.0,1.1338000362816,1768.1995682823758,57.200001830400005,1.8359984799959999,1.2735200407526401,1628,-23.5,99,GPS_Atti,
0.30392129376523497,36.8942178670894,23400,2017-11-06 12:56:38,1768.6995682983759,57.7000018464,0.0,1.1236100359555201,1768.6995682983759,57.7000018464,1.8359984799959999,1.2735200407526401,1628,-23.6,99,GPS_Atti,
0.303921328465748,36.8942177126349,23500,2017-11-06 12:56:38,1769.0995683111757,58.100001859200006,0.0,1.11503003568096,1769.0995683111757,58.100001859200006,1.8359984799959999,1.2735200407526401,1628,-23.6,99,GPS_Atti,
0.30392133889267503,36.8942176151749,23600,2017-11-06 12:56:38,1769.4995683239758,58.500001872,0.0,1.10877003548064,1769.4995683239758,58.500001872,1.8359984799959999,1.2735200407526401,1629,-23.6,99,GPS_Atti,
0.303921334543101,36.8942174457201,23700,2017-11-06 12:56:38,1769.8995683367757,58.900001884800005,0.0,1.09613003507616,1769.8995683367757,58.900001884800005,1.8359984799959999,1.2735200407526401,1629,-23.7,99,GPS_Atti,
0.303921300857109,36.894217330009496,23800,2017-11-06 12:56:38,1770.399568352776,59.4000019008,0.0,1.0849900347196801,1770.399568352776,59.4000019008,1.8359984799959999,1.2735200407526401,1629,-23.7,99,GPS_Atti,
0.30392129763116105,36.8942171932595,23900,2017-11-06 12:56:38,1770.7995683655759,59.800001913600006,0.0,1.07503003440096,1770.7995683655759,59.800001913600006,1.8359984799959999,1.2735200407526401,1630,-23.7,99,GPS_Atti,
0.303921351884401,36.8942170702314,24100,2017-11-06 12:56:39,1771.6995683943758,60.7000019424,0.0,1.0711500342768001,1771.6995683943758,60.7000019424,1.8359984799959999,1.2735200407526401,1630,-23.8,99,GPS_Atti,
0.303921388731204,36.89421704758821,24200,2017-11-06 12:56:39,1772.1995684103758,61.2000019584,0.0,1.0728000343296,1772.1995684103758,61.2000019584,1.8359984799959999,1.2735200407526401,1631,-23.8,99,GPS_Atti,
0.30392140662128897,36.894216973927605,24300,2017-11-06 12:56:39,1772.5995684231757,61.6000019712,0.0,1.06932003421824,1772.5995684231757,61.6000019712,1.8359984799959999,1.2735200407526401,1630,-23.8,99,GPS_Atti,
0.30392141911634,36.8942169277708,24400,2017-11-06 12:56:39,1773.099568439176,62.1000019872,0.0,1.06728003415296,1773.099568439176,62.1000019872,1.8359984799959999,1.2735200407526401,1630,-23.8,99,GPS_Atti,
0.303921494570293,36.894216795103,24500,2017-11-06 12:56:39,1773.5995684551758,62.600002003200004,0.0,1.06507003408224,1773.5995684551758,62.600002003200004,1.8359984799959999,1.2735200407526401,1631,-23.9,99,GPS_Atti,
0.30392157228289696,36.8942167073094,24600,2017-11-06 12:56:39,1773.999568467976,63.000002015999996,0.0,1.06626003412032,1773.999568467976,63.000002015999996,1.8359984799959999,1.2735200407526401,1630,-23.9,99,GPS_Atti,
0.30392167591870195,36.8942165592174,24700,2017-11-06 12:56:39,1774.4995684839757,63.500002032,0.0,1.06611003411552,1774.4995684839757,63.500002032,1.8359984799959999,1.2735200407526401,1630,-23.9,99,GPS_Atti,
0.30392175003733,36.8942164935296,24800,2017-11-06 12:56:39,1774.8995684967758,63.900002044800004,0.0,1.0687500342,1774.8995684967758,63.900002044800004,1.8359984799959999,1.2735200407526401,1630,-24.0,99,GPS_Atti,
0.30392179735014196,36.894216418062896,24900,2017-11-06 12:56:39,1775.3995685127759,64.4000020608,0.0,1.06842003418944,1775.3995685127759,64.4000020608,1.8359984799959999,1.2735200407526401,1629,-24.0,99,GPS_Atti,
0.30392181752982,36.8942164149946,25000,2017-11-06 12:56:39,1775.799568525576,64.8000020736,0.35999970196000003,1.07009003424288,1775.799568525576,64.8000020736,1.8359984799959999,1.2735200407526401,1635,-24.0,99,GPS_Atti,
0.303921860880628,36.894216377351206,25100,2017-11-06 12:56:40,1776.1995685383758,65.2000020864,0.35999970196000003,1.0718000342976,1776.1995685383758,65.2000020864,1.8359984799959999,1.2735200407526401,1629,-24.0,99,GPS_Atti,
0.303921878757686,36.89421638378229,25200,2017-11-06 12:56:40,1776.699568554376,65.7000021024,0.35999970196000003,1.0738500343632,1776.699568554376,65.7000021024,1.8359984799959999,1.2735200407526401,1629,-24.1,99,GPS_Atti,
0.303921916627151,36.8942163637749,25300,2017-11-06 12:56:40,1777.0995685671758,66.10000211520001,0.35999970196000003,1.07616003443712,1777.0995685671758,66.10000211520001,1.8359984799959999,1.2735200407526401,1629,-24.1,99,GPS_Atti,
0.303921941179201,36.894216385814296,25400,2017-11-06 12:56:40,1777.4995685799759,66.500002128,0.35999970196000003,1.0797900345532803,1777.4995685799759,66.500002128,1.8359984799959999,1.2735200407526401,1629,-24.1,99,GPS_Atti,
0.303921985705745,36.894216378926004,25500,2017-11-06 12:56:40,1777.9995685959757,67.00000214399999,0.35999970196000003,1.08352003467264,1777.9995685959757,67.00000214399999,1.8359984799959999,1.2735200407526401,1630,-24.1,99,GPS_Atti,
0.303921999749446,36.8942164129316,25600,2017-11-06 12:56:40,1778.3995686087758,67.40000215680001,0.35999970196000003,1.08689003478048,1778.3995686087758,67.40000215680001,1.8359984799959999,1.2735200407526401,1630,-24.2,99,GPS_Atti,
0.303922050118848,36.8942163702456,25700,2017-11-06 12:56:40,1778.8995686247758,67.9000021728,0.35999970196000003,1.0890100348483198,1778.8995686247758,67.9000021728,1.8359984799959999,1.2735200407526401,1630,-24.2,99,GPS_Atti,
0.303922056969712,36.8942163800395,25800,2017-11-06 12:56:40,1779.299568637576,68.30000218560001,0.35999970196000003,1.0902400348876802,1779.299568637576,68.30000218560001,1.8359984799959999,1.2735200407526401,1629,-24.2,99,GPS_Atti,
0.303922078831572,36.89421640018929,25900,2017-11-06 12:56:40,1779.7995686535758,68.8000022016,0.35999970196000003,1.093500034992,1779.7995686535758,68.8000022016,1.8359984799959999,1.2735200407526401,1629,-24.2,99,GPS_Atti,
0.30392207315318803,36.8942164529442,26000,2017-11-06 12:56:40,1780.1995686663759,69.2000022144,0.35999970196000003,1.09616003507712,1780.1995686663759,69.2000022144,1.8359984799959999,1.2735200407526401,1631,-24.3,99,GPS_Atti,
0.303922117769297,36.8942164437435,26100,2017-11-06 12:56:41,1780.6995686823757,69.7000022304,0.35999970196000003,1.09976003519232,1780.6995686823757,69.7000022304,1.8359984799959999,1.2735200407526401,1631,-24.3,99,GPS_Atti,
0.303922127460167,36.8942164639147,26200,2017-11-06 12:56:41,1781.0995686951758,70.1000022432,0.35999970196000003,1.1018900352604801,1781.0995686951758,70.1000022432,1.8359984799959999,1.2735200407526401,1631,-24.3,98,GPS_Atti,
0.303922162699695,36.894216456727705,26300,2017-11-06 12:56:41,1781.4995687079759,70.50000225600002,0.0,1.1047500353520001,1781.4995687079759,70.50000225600002,1.8359984799959999,1.2735200407526401,1629,-24.4,98,GPS_Atti,
0.30392216081558504,36.894216475581004,26400,2017-11-06 12:56:41,1781.999568723976,71.000002272,0.0,1.10571003538272,1781.999568723976,71.000002272,1.8359984799959999,1.2735200407526401,1629,-24.4,98,GPS_Atti,
0.30392217182061,36.8942164456898,26500,2017-11-06 12:56:41,1782.3995687367758,71.4000022848,0.0,1.10494003535808,1782.3995687367758,71.4000022848,1.8359984799959999,1.2735200407526401,1623,-24.4,98,GPS_Atti,
0.30392215843642895,36.8942164493513,26600,2017-11-06 12:56:41,1782.8995687527758,71.9000023008,0.0,1.1039000353248,1782.8995687527758,71.9000023008,1.8359984799959999,1.2735200407526401,1635,-24.4,98,GPS_Atti,
0.30392221166700606,36.8942164165523,26700,2017-11-06 12:56:41,1783.2995687655757,72.3000023136,0.0,1.1069300354217602,1783.2995687655757,72.3000023136,1.8359984799959999,1.2735200407526401,1639,-24.4,98,GPS_Atti,
0.30392222220466697,36.8942164131339,26800,2017-11-06 12:56:41,1783.6995687783758,72.70000232640001,0.0,1.10771003544672,1783.6995687783758,72.70000232640001,1.8359984799959999,1.2735200407526401,1638,-24.4,98,GPS_Atti,
0.303922251811407,36.894216380904496,26900,2017-11-06 12:56:41,1784.1995687943759,73.2000023424,0.0,1.1085800354745603,1784.1995687943759,73.2000023424,1.8359984799959999,1.2735200407526401,1638,-24.4,98,GPS_Atti,
0.30392224652384997,36.8942163874245,27000,2017-11-06 12:56:41,1784.599568807176,73.6000023552,0.0,1.1084700354710402,1784.599568807176,73.6000023552,1.8359984799959999,1.2735200407526401,1639,-24.4,98,GPS_Atti,
0.30392229521758196,36.894216336279705,27100,2017-11-06 12:56:42,1785.0995688231758,74.1000023712,0.0,1.1100500355215999,1785.0995688231758,74.1000023712,1.8359984799959999,1.2735200407526401,1639,-24.4,98,GPS_Atti,
0.30392229325693604,36.8942163269858,27200,2017-11-06 12:56:42,1785.5995688391758,74.6000023872,0.0,1.10932003549824,1785.5995688391758,74.6000023872,1.8359984799959999,1.2735200407526401,1635,-24.4,98,GPS_Atti,
0.3039223313169289,36.8942162682323,27300,2017-11-06 12:56:42,1785.9995688519757,75.0000024,0.35999970196000003,1.10951003550432,1785.9995688519757,75.0000024,1.8359984799959999,1.2735200407526401,1635,-24.4,98,GPS_Atti,
0.303922321189635,36.894216255614204,27400,2017-11-06 12:56:42,1786.499568867976,75.50000241600002,0.0,1.10782003545024,1786.499568867976,75.50000241600002,1.8359984799959999,1.2735200407526401,1637,-24.4,98,GPS_Atti,
0.303922351089496,36.894216209620105,27500,2017-11-06 12:56:42,1786.8995688807759,75.90000242880001,0.0,1.10802003545664,1786.8995688807759,75.90000242880001,1.8359984799959999,1.2735200407526401,1637,-24.4,98,GPS_Atti,
0.30392235023781894,36.8942161857553,27600,2017-11-06 12:56:42,1787.399568896776,76.4000024448,0.0,1.10657003541024,1787.399568896776,76.4000024448,1.8359984799959999,1.2735200407526401,1637,-24.4,98,GPS_Atti,
0.30392239446635805,36.8942160928207,27700,2017-11-06 12:56:42,1787.8995689127757,76.9000024608,0.0,1.1055500353776,1787.8995689127757,76.9000024608,1.8359984799959999,1.2735200407526401,1637,-24.4,98,GPS_Atti,
0.30392239363747997,36.894216047209895,27800,2017-11-06 12:56:42,1788.2995689255756,77.3000024736,0.0,1.1029200352934398,1788.2995689255756,77.3000024736,1.8359984799959999,1.2735200407526401,1637,-24.4,98,GPS_Atti,
0.30392239906996993,36.8942159778596,27900,2017-11-06 12:56:42,1788.6995689383757,77.70000248640001,0.0,1.0996000351872,1788.6995689383757,77.70000248640001,1.8359984799959999,1.2735200407526401,1637,-24.4,98,GPS_Atti,
0.303922359298482,36.894215940763296,28000,2017-11-06 12:56:42,1789.199568954376,78.20000250240001,0.35999970196000003,1.0937200349990401,1789.199568954376,78.20000250240001,1.8359984799959999,1.2735200407526401,1637,-24.4,98,GPS_Atti,
0.303922371896125,36.894215874037,28100,2017-11-06 12:56:43,1789.5995689671759,78.6000025152,0.35999970196000003,1.09129003492128,1789.5995689671759,78.6000025152,1.8359984799959999,1.2735200407526401,1639,-24.4,98,GPS_Atti,
0.30392234239360494,36.8942158122183,28300,2017-11-06 12:56:43,1790.4995689959758,79.500002544,0.35999970196000003,1.08508003472256,1790.4995689959758,79.500002544,1.8359984799959999,1.2735200407526401,1639,-24.4,98,GPS_Atti,
0.30392233195039303,36.89421578292129,28400,2017-11-06 12:56:43,1790.9995690119756,80.00000256,0.0,1.0824800346393602,1790.9995690119756,80.00000256,1.8359984799959999,1.2735200407526401,1638,-24.4,98,GPS_Atti,
0.303922379911326,36.8942156815461,28500,2017-11-06 12:56:43,1791.3995690247757,80.4000025728,0.0,1.0817700346166401,1791.3995690247757,80.4000025728,1.8359984799959999,1.2735200407526401,1637,-24.4,98,GPS_Atti,
0.30392238492693396,36.8942156140897,28600,2017-11-06 12:56:43,1791.899569040776,80.9000025888,0.0,1.07874003451968,1791.899569040776,80.9000025888,1.8359984799959999,1.2735200407526401,1635,-24.4,98,GPS_Atti,
0.30392242946162,36.8942155091365,28700,2017-11-06 12:56:43,1792.2995690535759,81.3000026016,0.0,1.07773003448736,1792.2995690535759,81.3000026016,1.8359984799959999,1.2735200407526401,1634,-24.4,98,GPS_Atti,
