latitude,longitude,time_millisecond,datetime_utc,altitude_m,ascent_m,speed_kph,distance_m,max_altitude_m,max_ascent_m,max_speed_kph,max_distance_m,rc_throttle,gimbal_pitch_degrees,battery_percent,flycState,message
0.33953716481426693,36.9018892038465,0,2018-04-07 06:00:51,1679.5439990454213,0.0,0.0,0.0,1679.5439990454213,0.0,0.0,0.0,364,0.0,99,Motors_Started,
0.339537160005472,36.901889170054204,100,2018-04-07 06:00:51,1679.5439990454213,0.0,0.0,0.0037957101214627204,1679.5439990454213,0.0,0.0,0.0037957101214627204,364,0.0,99,Motors_Started,
0.33953715735640005,36.901889129672206,200,2018-04-07 06:00:51,1679.5439990454213,0.0,0.0,0.00829008026528256,1679.5439990454213,0.0,0.0,0.00829008026528256,364,0.0,99,Motors_Started,
0.339537152919705,36.901889088664205,300,2018-04-07 06:00:52,1679.5439990454213,0.0,0.0,0.0128769004120608,1679.5439990454213,0.0,0.0,0.0128769004120608,364,0.0,99,Motors_Started,
0.33953715084791697,36.901889065352705,400,2018-04-07 06:00:52,1679.5439990454213,0.0,0.0,0.015479200495334402,1679.5439990454213,0.0,0.0,0.015479200495334402,364,0.0,99,Motors_Started,
0.339537147578408,36.901889048189794,500,2018-04-07 06:00:52,1679.5439990454213,0.0,0.0,0.017415500557296,1679.5439990454213,0.0,0.0,0.017415500557296,606,0.0,99,Motors_Started,Setting new Return-To-Home altitude to 30m (98 ft). Setting new Maximum Flight Altitude to 150m (492 ft)
0.33953714137647895,36.901889018741606,700,2018-04-07 06:00:52,1679.5439990454213,0.0,0.0,0.020748800663961602,1679.5439990454213,0.0,0.0,0.020748800663961602,928,0.0,99,Motors_Started,
0.339537138117149,36.9018889868371,800,2018-04-07 06:00:52,1679.5439990454213,0.0,0.0,0.0243143007780576,1679.5439990454213,0.0,0.0,0.0243143007780576,1024,0.0,99,Motors_Started,
0.33953715074980295,36.901888959672206,900,2018-04-07 06:00:52,1679.5439990454213,0.0,0.0,0.0271982008703424,1679.5439990454213,0.0,0.0,0.0271982008703424,1024,0.0,99,Motors_Started,
0.339537178011991,36.901888943635,1000,2018-04-07 06:00:52,1679.5439990454213,0.0,0.0,0.028973800927161605,1679.5439990454213,0.0,0.0,0.028973800927161605,1024,0.0,99,Motors_Started,
0.339537208691469,36.901888935437604,1100,2018-04-07 06:00:52,1679.5439990454213,0.0,0.0,0.0302444009678208,1679.5439990454213,0.0,0.0,0.0302444009678208,1024,0.0,99,Motors_Started,
0.33953722429725497,36.9018889308933,1200,2018-04-07 06:00:52,1679.5439990454213,0.0,0.0,0.031065900994108803,1679.5439990454213,0.0,0.0,0.031065900994108803,1024,0.0,99,Motors_Started,
0.33953722509885603,36.9018889331357,1300,2018-04-07 06:00:52,1679.5439990454213,0.0,0.0,0.0308416009869312,1679.5439990454213,0.0,0.0,0.031065900994108803,1024,0.0,99,Motors_Started,
0.33953720271955795,36.9018889341062,1400,2018-04-07 06:00:53,1679.5439990454213,0.0,0.0,0.030291000969312004,1679.5439990454213,0.0,0.0,0.031065900994108803,1024,0.0,99,Motors_Started,
0.339537195414358,36.901888922417704,1500,2018-04-07 06:00:53,1679.5439990454213,0.0,0.0,0.031480501007376004,1679.5439990454213,0.0,0.0,0.031480501007376004,1024,0.0,99,Assisted_Takeoff,
0.339537206515868,36.9018888973816,1600,2018-04-07 06:00:53,1679.5439990454213,0.0,0.0,0.0343942011006144,1679.5439990454213,0.0,0.0,0.0343942011006144,1024,0.0,99,Assisted_Takeoff,
0.339537202655234,36.9018888737184,1700,2018-04-07 06:00:53,1679.5439990454213,0.0,0.0,0.036952001182464,1679.5439990454213,0.0,0.0,0.036952001182464,1024,0.0,99,Assisted_Takeoff,
0.33953717882621304,36.901888858934605,1800,2018-04-07 06:00:53,1679.5439990454213,0.0,0.0,0.0383873012283936,1679.5439990454213,0.0,0.0,0.0383873012283936,1024,0.0,99,Assisted_Takeoff,
0.33953716947080204,36.901888849860704,1900,2018-04-07 06:00:53,1679.5439990454213,0.0,0.0,0.0393681012597792,1679.5439990454213,0.0,0.0,0.0393681012597792,1024,0.0,99,Assisted_Takeoff,
0.339537181429281,36.9018888436381,2000,2018-04-07 06:00:53,1679.5439990454213,0.0,0.0,0.040099301283177596,1679.5439990454213,0.0,0.0,0.040099301283177596,1024,0.0,99,Assisted_Takeoff,
0.33953719686204503,36.9018888261421,2100,2018-04-07 06:00:53,1679.5439990454213,0.0,0.0,0.04215320134890241,1679.5439990454213,0.0,0.0,0.04215320134890241,1024,0.0,99,Assisted_Takeoff,
0.339537203867611,36.901888796359,2200,2018-04-07 06:00:53,1679.5439990454213,0.0,0.0,0.0455219014567008,1679.5439990454213,0.0,0.0,0.0455219014567008,1024,0.0,99,Assisted_Takeoff,
0.33953721349659993,36.9018887697165,2300,2018-04-07 06:00:54,1679.5439990454213,0.0,0.0,0.0485797015545504,1679.5439990454213,0.0,0.0,0.0485797015545504,1024,0.0,99,Assisted_Takeoff,
0.33953721804891496,36.901888754478,2400,2018-04-07 06:00:54,1679.5439990454213,0.0,0.0,0.0503211016102752,1679.5439990454213,0.0,0.0,0.0503211016102752,1024,0.0,99,Assisted_Takeoff,
0.339537223779002,36.9018887450421,2500,2018-04-07 06:00:54,1679.5439990454213,0.0,0.0,0.05144060164609921,1679.5439990454213,0.0,0.0,0.05144060164609921,1024,0.0,99,Assisted_Takeoff,
0.339537225800716,36.901888739911605,2600,2018-04-07 06:00:54,1679.5439990454213,0.0,0.0,0.0520353016651296,1679.5439990454213,0.0,0.0,0.0520353016651296,1024,0.0,99,Assisted_Takeoff,
0.339537228294678,36.9018887417657,2700,2018-04-07 06:00:54,1679.5439990454213,0.0,0.0,0.05186800165977601,1679.5439990454213,0.0,0.0,0.0520353016651296,1024,0.0,99,Assisted_Takeoff,
0.339537228353302,36.901888742823,2800,2018-04-07 06:00:54,1679.5439990454213,0.0,0.0,0.0517524016560768,1679.5439990454213,0.0,0.0,0.0520353016651296,1024,0.0,99,Assisted_Takeoff,
0.339537228822701,36.901888751167604,2900,2018-04-07 06:00:54,1679.5439990454213,0.0,0.0,0.050840501626896004,1679.5439990454213,0.0,0.0,0.0520353016651296,1024,0.0,99,Assisted_Takeoff,
0.33953722816195897,36.90188875609989,3000,2018-04-07 06:00:54,1679.5439990454213,0.0,0.0,0.0502872016091904,1679.5439990454213,0.0,0.0,0.0520353016651296,1024,0.0,99,Assisted_Takeoff,
0.33953722798038805,36.901888765283,3100,2018-04-07 06:00:54,1679.5439990454213,0.0,0.0,0.0492734015767488,1679.5439990454213,0.0,0.0,0.0520353016651296,1024,0.0,99,Assisted_Takeoff,
0.33953722779718803,36.901888772144204,3200,2018-04-07 06:00:54,1679.5439990454213,0.0,0.0,0.048515301552489606,1679.5439990454213,0.0,0.0,0.0520353016651296,1024,0.0,99,Assisted_Takeoff,
0.33953722849416196,36.901888782503704,3300,2018-04-07 06:00:55,1679.5439990454213,0.0,0.0,0.0473872015163904,1679.5439990454213,0.0,0.0,0.0520353016651296,1024,0.0,99,Assisted_Takeoff,
0.3395372467429131,36.901888796933704,3500,2018-04-07 06:00:55,1679.5439990454213,0.0,0.0,0.046158501477072005,1679.5439990454213,0.0,0.0,0.0520353016651296,1024,0.0,99,Assisted_Takeoff,
0.33953727589206,36.901888802770706,3600,2018-04-07 06:00:55,1679.5439990454213,0.0,0.0,0.046280201480966406,1679.5439990454213,0.0,0.0,0.0520353016651296,1026,0.0,99,Assisted_Takeoff,
0.33953729028180607,36.9018887916239,3700,2018-04-07 06:00:55,1679.5439990454213,0.0,0.0,0.0479173015333536,1679.5439990454213,0.0,0.0,0.0520353016651296,1034,0.0,99,Assisted_Takeoff,
0.33953727800822303,36.901888767085204,3800,2018-04-07 06:00:55,1679.5439990454213,0.0,0.0,0.0501744016055808,1679.5439990454213,0.0,0.0,0.0520353016651296,1031,0.0,99,Assisted_Takeoff,
0.33953726344260604,36.9018887392117,3900,2018-04-07 06:00:55,1679.5439990454213,0.0,0.0,0.052820601690259206,1679.5439990454213,0.0,0.0,0.052820601690259206,1073,0.0,99,Assisted_Takeoff,
0.339537253901959,36.901888724817,4000,2018-04-07 06:00:55,1679.5439990454213,0.0,0.0,0.05418350173387201,1679.5439990454213,0.0,0.0,0.05418350173387201,1065,0.0,99,Assisted_Takeoff,
0.33953724261195695,36.901888710865606,4100,2018-04-07 06:00:55,1679.5439990454213,0.0,0.0,0.05550000177600001,1679.5439990454213,0.0,0.0,0.05550000177600001,1066,0.0,99,Assisted_Takeoff,
0.33953723532996305,36.9018887045348,4200,2018-04-07 06:00:55,1679.5439990454213,0.0,0.0,0.056076501794448,1679.5439990454213,0.0,0.0,0.056076501794448,1067,0.0,99,Assisted_Takeoff,
0.33953722899613,36.901888700269204,4300,2018-04-07 06:00:56,1679.5439990454213,0.0,0.0,0.0564529018064928,1679.5439990454213,0.0,0.0,0.0564529018064928,1051,0.0,99,Assisted_Takeoff,
0.3395372263238531,36.9018886990039,4400,2018-04-07 06:00:56,1679.5439990454213,0.0,0.0,0.05655580180978561,1679.5439990454213,0.0,0.0,0.05655580180978561,1038,0.0,99,Assisted_Takeoff,
0.33953724306873606,36.9018886826407,4500,2018-04-07 06:00:56,1679.5439990454213,0.0,0.0,0.058609901875516804,1679.5439990454213,0.0,0.0,0.058609901875516804,1042,0.0,99,Assisted_Takeoff,
0.339537272579805,36.9018886556876,4600,2018-04-07 06:00:56,1679.5439990454213,0.0,0.0,0.0621244019879808,1679.5439990454213,0.0,0.0,0.0621244019879808,1053,0.0,99,Assisted_Takeoff,
0.339537305773193,36.9018886282752,4700,2018-04-07 06:00:56,1679.5439990454213,0.0,0.0,0.06589750210872,1679.5439990454213,0.0,0.0,0.06589750210872,1061,0.0,99,Assisted_Takeoff,
0.33953732741806397,36.901888614200296,4800,2018-04-07 06:00:56,1679.5439990454213,0.0,0.0,0.0680187021765984,1679.5439990454213,0.0,0.0,0.0680187021765984,1057,0.0,99,Assisted_Takeoff,
0.33953734755173803,36.901888602831896,4900,2018-04-07 06:00:56,1679.5439990454213,0.0,0.0,0.0698564022354048,1679.5439990454213,0.0,0.0,0.0698564022354048,1061,0.0,99,Assisted_Takeoff,
0.339537361585669,36.9018885978545,5000,2018-04-07 06:00:56,1679.5439990454213,0.0,0.0,0.07085250226728,1679.5439990454213,0.0,0.0,0.07085250226728,1067,0.0,99,Assisted_Takeoff,
0.339537372563824,36.9018885954989,5100,2018-04-07 06:00:56,1679.5439990454213,0.0,0.0,0.0714869022875808,1679.5439990454213,0.0,0.0,0.0714869022875808,1066,0.0,99,Assisted_Takeoff,
0.33953738033353703,36.9018885965185,5200,2018-04-07 06:00:56,1679.5439990454213,0.0,0.0,0.0716639022932448,1679.5439990454213,0.0,0.0,0.0716639022932448,1055,0.0,99,Assisted_Takeoff,
0.339537384493804,36.901888583500295,5300,2018-04-07 06:00:57,1679.5439990454213,0.0,0.0,0.073183002341856,1679.5439990454213,0.0,0.0,0.073183002341856,1053,0.0,99,Assisted_Takeoff,
0.33953738779913895,36.9018885575879,5400,2018-04-07 06:00:57,1679.5439990454213,0.0,0.0,0.07602450243278401,1679.5439990454213,0.0,0.0,0.07602450243278401,1085,0.0,99,Assisted_Takeoff,
0.33953740478747396,36.9018885300472,5500,2018-04-07 06:00:57,1679.5439990454213,0.0,0.0,0.07953970254527039,1679.5439990454213,0.0,0.0,0.07953970254527039,1085,0.0,99,Assisted_Takeoff,
0.339537435070425,36.9018885174534,5600,2018-04-07 06:00:57,1679.5439990454213,0.0,0.0,0.08203340262506881,1679.5439990454213,0.0,0.0,0.08203340262506881,1080,0.0,99,Assisted_Takeoff,
0.33953746234482696,36.9018885074195,5700,2018-04-07 06:00:57,1679.5439990454213,0.0,0.0,0.08421750269495999,1679.5439990454213,0.0,0.0,0.08421750269495999,1095,0.0,99,Assisted_Takeoff,
0.339537480371295,36.9018885029776,5800,2018-04-07 06:00:57,1679.5439990454213,0.0,0.0,0.08547520273520641,1679.5439990454213,0.0,0.0,0.08547520273520641,1102,0.0,99,Assisted_Takeoff,
0.339537492921305,36.9018885008657,5900,2018-04-07 06:00:57,1679.5439990454213,0.0,0.0,0.0862703027606496,1679.5439990454213,0.0,0.0,0.0862703027606496,1131,0.0,99,Assisted_Takeoff,
0.339537502213614,36.9018885016339,6000,2018-04-07 06:00:57,1679.5439990454213,0.0,0.0,0.08663540277233281,1679.5439990454213,0.0,0.0,0.08663540277233281,1160,0.0,99,Assisted_Takeoff,
0.33953750503122904,36.9018885048825,6100,2018-04-07 06:00:57,1679.5439990454213,0.0,0.0,0.08644660276629121,1679.5439990454213,0.0,0.0,0.08663540277233281,1165,0.0,99,Assisted_Takeoff,
0.33953750845014696,36.9018885083465,6200,2018-04-07 06:00:57,1679.5439990454213,0.0,0.0,0.0862682027605824,1679.5439990454213,0.0,0.0,0.08663540277233281,1171,0.0,99,Assisted_Takeoff,
0.339537504040321,36.9018885122173,6300,2018-04-07 06:00:58,1679.5439990454213,0.0,0.0,0.0856654027412928,1679.5439990454213,0.0,0.0,0.08663540277233281,1184,0.0,99,Assisted_Takeoff,
0.339537505579608,36.9018885176579,6400,2018-04-07 06:00:58,1679.5439990454213,0.0,0.0,0.08519860272635521,1679.5439990454213,0.0,0.0,0.08663540277233281,1206,0.0,99,Assisted_Takeoff,
0.33953751481044203,36.9018885186261,6500,2018-04-07 06:00:58,1679.5439990454213,0.0,0.0,0.0855642027380544,1679.5439990454213,0.0,0.0,0.08663540277233281,1215,0.0,99,Assisted_Takeoff,
0.339537518450829,36.9018885141536,6600,2018-04-07 06:00:58,1679.5439990454213,0.0,0.0,0.08619140275812481,1679.5439990454213,0.0,0.0,0.08663540277233281,1225,0.0,99,Assisted_Takeoff,
0.339537506059592,36.9018884891954,6700,2018-04-07 06:00:58,1679.5439990454213,0.0,0.0,0.08806770281816641,1679.5439990454213,0.0,0.0,0.08806770281816641,1225,0.0,99,Assisted_Takeoff,Home Point Recorded. RTH Altitude:  30m.
0.33953750334049704,36.90188841428721,6800,2018-04-07 06:00:58,1679.5439990454213,0.0,0.35999970196000003,0.09553260305704321,1679.5439990454213,0.0,0.35999970196000003,0.09553260305704321,1244,0.0,99,P-GPS,Obstacle Avoided. Revise Flight Route
0.33953750681519,36.901888300872294,6900,2018-04-07 06:00:58,1679.5439990454213,0.0,0.35999970196000003,0.107376003436032,1679.5439990454213,0.0,0.35999970196000003,0.107376003436032,1232,0.0,99,P-GPS,
0.33953751157513107,36.901888197727295,7000,2018-04-07 06:00:58,1679.5439990454213,0.0,0.35999970196000003,0.118344003787008,1679.5439990454213,0.0,0.35999970196000003,0.118344003787008,1235,0.0,99,P-GPS,
0.33953754513858303,36.901888117929104,7100,2018-04-07 06:00:58,1679.643999048621,0.10000000320000002,0.0,0.12795100409443202,1679.643999048621,0.10000000320000002,0.35999970196000003,0.12795100409443202,1238,0.0,99,P-GPS,
0.339537621300909,36.9018880746125,7200,2018-04-07 06:00:58,1679.743999051821,0.20000000640000004,0.0,0.13544800433433601,1679.743999051821,0.20000000640000004,0.35999970196000003,0.13544800433433601,1247,0.0,99,P-GPS,
0.339537724516982,36.9018880627916,7300,2018-04-07 06:00:59,1679.743999051821,0.20000000640000004,0.0,0.14133400452268802,1679.743999051821,0.20000000640000004,0.35999970196000003,0.14133400452268802,1247,0.0,99,P-GPS,
0.339537844731161,36.9018880851735,7400,2018-04-07 06:00:59,1679.8439990550212,0.3000000096,0.0,0.14557700465846402,1679.8439990550212,0.3000000096,0.35999970196000003,0.14557700465846402,1248,0.0,99,P-GPS,
0.33953795147281496,36.9018881059305,7500,2018-04-07 06:00:59,1679.9439990582212,0.4000000128000001,0.0,0.15019900480636802,1679.9439990582212,0.4000000128000001,0.35999970196000003,0.15019900480636802,1260,0.0,99,P-GPS,
0.33953803510746,36.9018881121914,7600,2018-04-07 06:00:59,1680.0439990614211,0.500000016,0.0,0.15525400496812802,1680.0439990614211,0.500000016,0.35999970196000003,0.15525400496812802,1281,0.0,99,P-GPS,
0.33953811432779996,36.9018881097625,7700,2018-04-07 06:00:59,1680.143999064621,0.6000000192,0.0,0.161097005155104,1680.143999064621,0.6000000192,0.35999970196000003,0.161097005155104,1300,0.0,99,P-GPS,
0.339538212499156,36.901888101626604,7800,2018-04-07 06:00:59,1680.2439990678213,0.7000000224000001,0.0,0.16911000541152002,1680.2439990678213,0.7000000224000001,0.35999970196000003,0.16911000541152002,1305,0.0,99,P-GPS,
0.339538294420474,36.901888053124,7900,2018-04-07 06:00:59,1680.3439990710212,0.8000000256000002,0.0,0.179319005738208,1680.3439990710212,0.8000000256000002,0.35999970196000003,0.179319005738208,1316,0.0,99,P-GPS,
0.339538375320351,36.901887973148796,8000,2018-04-07 06:00:59,1680.443999074221,0.9000000288000001,0.0,0.19196800614297602,1680.443999074221,0.9000000288000001,0.35999970196000003,0.19196800614297602,1306,0.0,99,P-GPS,
0.339538459674768,36.9018878597562,8100,2018-04-07 06:00:59,1680.543999077421,1.000000032,0.0,0.20754700664150402,1680.543999077421,1.000000032,0.35999970196000003,0.20754700664150402,1309,0.0,99,P-GPS,
0.33953857058849496,36.901887763256205,8200,2018-04-07 06:00:59,1680.743999083821,1.2000000384,0.35999970196000003,0.223837007162784,1680.743999083821,1.2000000384,0.35999970196000003,0.223837007162784,1312,0.0,99,P-GPS,
0.339538686762911,36.9018876945583,8300,2018-04-07 06:01:00,1680.843999087021,1.3000000416000002,0.35999970196000003,0.23836000762752,1680.843999087021,1.3000000416000002,0.35999970196000003,0.23836000762752,1279,0.0,99,P-GPS,
0.33953877939450605,36.9018876802507,8400,2018-04-07 06:01:00,1681.0439990934212,1.5000000480000002,0.0,0.24687100789987199,1681.0439990934212,1.5000000480000002,0.35999970196000003,0.24687100789987199,1258,0.0,99,P-GPS,
0.33953884418540703,36.9018876764243,8500,2018-04-07 06:01:00,1681.1439990966212,1.6000000512000003,0.0,0.252446008078272,1681.1439990966212,1.6000000512000003,0.35999970196000003,0.252446008078272,1277,0.0,99,P-GPS,
0.33953891175931894,36.9018876954973,8600,2018-04-07 06:01:00,1681.3439991030214,1.8000000576000001,0.0,0.256663008213216,1681.3439991030214,1.8000000576000001,0.35999970196000003,0.256663008213216,1316,0.0,99,P-GPS,
0.339538985808332,36.9018877294193,8700,2018-04-07 06:01:00,1681.443999106221,1.9000000607999998,0.0,0.26056100833795204,1681.443999106221,1.9000000607999998,0.35999970196000003,0.26056100833795204,1335,0.0,99,P-GPS,
0.339539064247222,36.9018877791818,8800,2018-04-07 06:01:00,1681.543999109421,2.000000064,0.0,0.26404000844928,1681.543999109421,2.000000064,0.35999970196000003,0.26404000844928,1335,0.0,99,P-GPS,
0.339539136709927,36.9018878052305,8900,2018-04-07 06:01:00,1681.7439991158212,2.2000000704,0.0,0.268844008603008,1681.7439991158212,2.2000000704,0.35999970196000003,0.268844008603008,1325,0.0,99,P-GPS,
0.33953919850204806,36.901887821279004,9000,2018-04-07 06:01:00,1681.8439991190212,2.3000000736,0.0,0.27347000875104005,1681.8439991190212,2.3000000736,0.35999970196000003,0.27347000875104005,1326,0.0,99,P-GPS,
0.33953923329273605,36.9018878603416,9100,2018-04-07 06:01:00,1682.0439991254211,2.50000008,0.0,0.27428800877721604,1682.0439991254211,2.50000008,0.35999970196000003,0.27428800877721604,1322,0.0,99,P-GPS,
0.33953924281323106,36.901887949218,9200,2018-04-07 06:01:00,1682.1439991286213,2.6000000832000003,0.35999970196000003,0.26993800863801604,1682.1439991286213,2.6000000832000003,0.35999970196000003,0.27428800877721604,1328,0.0,99,P-GPS,
0.339539264510211,36.9018880594909,9300,2018-04-07 06:01:00,1682.343999135021,2.8000000896000006,0.35999970196000003,0.26592500850960005,1682.343999135021,2.8000000896000006,0.35999970196000003,0.27428800877721604,1327,0.0,99,P-GPS,
0.33953930209164596,36.9018881802445,9400,2018-04-07 06:01:01,1682.5439991414212,3.0000000960000004,0.35999970196000003,0.26353000843296,1682.5439991414212,3.0000000960000004,0.35999970196000003,0.27428800877721604,1307,0.0,99,P-GPS,
0.33953933127071595,36.90188829154871,9500,2018-04-07 06:01:01,1682.6439991446211,3.1000000992,0.35999970196000003,0.26141200836518397,1682.6439991446211,3.1000000992,0.35999970196000003,0.27428800877721604,1303,-0.4,99,P-GPS,
0.339539343134337,36.9018883924237,9600,2018-04-07 06:01:01,1682.843999151021,3.3000001056,0.0,0.258502008272064,1682.843999151021,3.3000001056,0.35999970196000003,0.27428800877721604,1306,-1.0,99,P-GPS,
0.33953935669846197,36.901888482189705,9700,2018-04-07 06:01:01,1682.9439991542213,3.4000001088000005,0.0,0.256622008211904,1682.9439991542213,3.4000001088000005,0.35999970196000003,0.27428800877721604,1308,-1.6,99,P-GPS,
0.33953938048555,36.9018885679838,9800,2018-04-07 06:01:01,1683.143999160621,3.6000001152000003,0.0,0.256342008202944,1683.143999160621,3.6000001152000003,0.35999970196000003,0.27428800877721604,1305,-1.6,99,P-GPS,
0.33953940715986997,36.9018886409619,9900,2018-04-07 06:01:01,1683.243999163821,3.7000001184,0.0,0.257099008227168,1683.243999163821,3.7000001184,0.35999970196000003,0.27428800877721604,1304,-3.8,99,P-GPS,
0.339539430480206,36.9018887182782,10000,2018-04-07 06:01:01,1683.443999170221,3.9000001248,0.0,0.25767700824566403,1683.443999170221,3.9000001248,0.35999970196000003,0.27428800877721604,1306,-3.8,99,P-GPS,
0.339539446871105,36.901888771899294,10100,2018-04-07 06:01:01,1683.543999173421,4.000000128,0.0,0.25828500826512,1683.543999173421,4.000000128,0.35999970196000003,0.27428800877721604,1322,-6.3,99,P-GPS,
0.339539436065362,36.901888799565796,10200,2018-04-07 06:01:02,1683.7439991798212,4.2000001344,0.0,0.256547008209504,1683.7439991798212,4.2000001344,0.35999970196000003,0.27428800877721604,1315,-7.5,99,P-GPS,
0.33953939868015504,36.9018887091743,10400,2018-04-07 06:01:02,1684.0439991894214,4.5000001439999995,0.0,0.254437008141984,1684.0439991894214,4.5000001439999995,0.35999970196000003,0.27428800877721604,1312,-8.7,99,P-GPS,
0.33953940653353004,36.9018886341814,10500,2018-04-07 06:01:02,1684.143999192621,4.6000001472,0.0,0.257216008230912,1684.143999192621,4.6000001472,0.35999970196000003,0.27428800877721604,1327,-10.0,99,P-GPS,
0.33953943670534,36.901888588589294,10600,2018-04-07 06:01:02,1684.343999199021,4.8000001536,0.0,0.26174800837593604,1684.343999199021,4.8000001536,0.35999970196000003,0.27428800877721604,1332,-11.2,99,P-GPS,
0.33953945089763693,36.9018885156083,10700,2018-04-07 06:01:02,1684.4439992022212,4.9000001568,0.0,0.265497008495904,1684.4439992022212,4.9000001568,0.35999970196000003,0.27428800877721604,1330,-12.4,99,P-GPS,
0.339539455587352,36.9018884241849,10800,2018-04-07 06:01:02,1684.6439992086212,5.1000001632,0.0,0.26909800861113603,1684.6439992086212,5.1000001632,0.35999970196000003,0.27428800877721604,1330,-13.7,99,P-GPS,
0.3395394543784361,36.9018883189349,10900,2018-04-07 06:01:02,1684.7439992118211,5.200000166400001,0.0,0.272968008734976,1684.7439992118211,5.200000166400001,0.35999970196000003,0.27428800877721604,1331,-15.0,99,P-GPS,
0.339539465489106,36.901888234611505,11000,2018-04-07 06:01:02,1684.943999218221,5.4000001727999996,0.0,0.277626008884032,1684.943999218221,5.4000001727999996,0.35999970196000003,0.277626008884032,1330,-16.3,99,P-GPS,
0.339539479584917,36.9018881509002,11100,2018-04-07 06:01:02,1685.143999224621,5.600000179200001,0.0,0.282796009049472,1685.143999224621,5.600000179200001,0.35999970196000003,0.282796009049472,1329,-17.6,99,P-GPS,
0.33953948979790693,36.9018880790017,11200,2018-04-07 06:01:02,1685.2439992278212,5.7000001824,0.0,0.287221009191072,1685.2439992278212,5.7000001824,0.35999970196000003,0.287221009191072,1315,-18.9,99,P-GPS,
0.33953948045979804,36.9018880048689,11300,2018-04-07 06:01:03,1685.443999234221,5.9000001888,0.0,0.28998400927948803,1685.443999234221,5.9000001888,0.35999970196000003,0.28998400927948803,1271,-20.0,99,P-GPS,
0.339539464808416,36.901887930715496,11400,2018-04-07 06:01:03,1685.6439992406213,6.1000001952,0.0,0.29234300935497604,1685.6439992406213,6.1000001952,0.35999970196000003,0.29234300935497604,1244,-20.4,99,P-GPS,
0.33953943978900203,36.9018878476532,11500,2018-04-07 06:01:03,1685.7439992438212,6.2000001984,0.0,0.29453300942505606,1685.7439992438212,6.2000001984,0.35999970196000003,0.29453300942505606,1275,-20.4,99,P-GPS,
0.339539395472731,36.90188779404829,11600,2018-04-07 06:01:03,1685.9439992502212,6.400000204800001,0.0,0.293451009390432,1685.9439992502212,6.400000204800001,0.35999970196000003,0.29453300942505606,1297,-20.4,99,P-GPS,
0.339539344815095,36.901887770956,11700,2018-04-07 06:01:03,1686.0439992534211,6.500000208,0.0,0.290107009283424,1686.0439992534211,6.500000208,0.35999970196000003,0.29453300942505606,1287,-20.4,99,P-GPS,
0.339539304577872,36.90188777466621,11800,2018-04-07 06:01:03,1686.143999256621,6.6000002112,0.0,0.28614900915676805,1686.143999256621,6.6000002112,0.35999970196000003,0.29453300942505606,1272,-20.4,99,P-GPS,
0.339539260563677,36.9018877639708,11900,2018-04-07 06:01:03,1686.3439992630213,6.800000217600001,0.0,0.282764009048448,1686.3439992630213,6.800000217600001,0.35999970196000003,0.29453300942505606,1331,-20.4,99,P-GPS,
0.33953921026959194,36.9018877309995,12000,2018-04-07 06:01:03,1686.4439992662212,6.9000002208,0.0,0.280299008969568,1686.4439992662212,6.9000002208,0.35999970196000003,0.29453300942505606,1365,-20.4,99,P-GPS,
0.339539164728323,36.9018877022346,12100,2018-04-07 06:01:03,1686.5439992694212,7.000000224,0.0,0.27811300889961604,1686.5439992694212,7.000000224,0.35999970196000003,0.29453300942505606,1381,-20.4,99,P-GPS,
0.339539142019468,36.901887704363,12200,2018-04-07 06:01:03,1686.643999272621,7.100000227200002,0.0,0.27595500883056,1686.643999272621,7.100000227200002,0.35999970196000003,0.29453300942505606,1372,-20.4,99,P-GPS,
0.339539149486902,36.9018877221916,12300,2018-04-07 06:01:04,1686.843999279021,7.3000002336000005,0.0,0.27542700881366394,1686.843999279021,7.3000002336000005,0.35999970196000003,0.29453300942505606,1384,-20.4,99,P-GPS,
0.339539190546896,36.901887750310394,12400,2018-04-07 06:01:04,1687.043999285421,7.50000024,0.0,0.277264008872448,1687.043999285421,7.50000024,0.35999970196000003,0.29453300942505606,1415,-20.4,99,P-GPS,
0.33953923281234494,36.9018877768232,12500,2018-04-07 06:01:04,1687.2439992918212,7.7000002464,0.0,0.279412008941184,1687.2439992918212,7.7000002464,0.35999970196000003,0.29453300942505606,1418,-20.4,99,P-GPS,
0.33953927419741803,36.9018877993138,12600,2018-04-07 06:01:04,1687.4439992982211,7.9000002528,0.0,0.28181800901817605,1687.4439992982211,7.9000002528,0.35999970196000003,0.29453300942505606,1417,-20.4,99,P-GPS,
0.33953932128977904,36.9018878208708,12700,2018-04-07 06:01:04,1687.643999304621,8.1000002592,0.0,0.28489000911648005,1687.643999304621,8.1000002592,0.35999970196000003,0.29453300942505606,1417,-20.4,99,P-GPS,
0.339539370795291,36.9018878472081,12800,2018-04-07 06:01:04,1687.8439993110212,8.3000002656,0.0,0.28799500921584004,1687.8439993110212,8.3000002656,0.35999970196000003,0.29453300942505606,1421,-20.4,99,P-GPS,
0.339539394464928,36.901887879892996,12900,2018-04-07 06:01:04,1688.0439993174211,8.500000272000001,0.0,0.288368009227776,1688.0439993174211,8.500000272000001,0.35999970196000003,0.29453300942505606,1421,-20.4,99,P-GPS,
0.33953939427765695,36.9018879073668,13000,2018-04-07 06:01:04,1688.2439993238213,8.700000278400001,0.0,0.28680200917766396,1688.2439993238213,8.700000278400001,0.35999970196000003,0.29453300942505606,1422,-20.4,99,P-GPS,
0.339539393549131,36.9018879295201,13100,2018-04-07 06:01:04,1688.543999333421,9.000000287999999,0.0,0.285501009136032,1688.543999333421,9.000000287999999,0.35999970196000003,0.29453300942505606,1433,-20.4,99,P-GPS,
0.339539398152132,36.901887944524496,13200,2018-04-07 06:01:04,1688.7439993398211,9.2000002944,0.0,0.285122009123904,1688.7439993398211,9.2000002944,0.35999970196000003,0.29453300942505606,1420,-20.4,99,P-GPS,
0.339539416543779,36.9018879461066,13300,2018-04-07 06:01:05,1689.0439993494213,9.500000304,0.0,0.28682000917823997,1689.0439993494213,9.500000304,0.35999970196000003,0.29453300942505606,1417,-20.4,99,P-GPS,
0.339539455104111,36.9018879522264,13400,2018-04-07 06:01:05,1689.2439993558212,9.7000003104,0.0,0.290244009287808,1689.2439993558212,9.7000003104,0.35999970196000003,0.29453300942505606,1437,-20.4,99,P-GPS,
0.339539559312924,36.9018879331789,13700,2018-04-07 06:01:05,1690.0439993814211,10.500000336,0.0,0.301452009646464,1690.0439993814211,10.500000336,0.35999970196000003,0.301452009646464,1424,-20.4,99,P-GPS,
0.33953959873368605,36.9018879340903,13800,2018-04-07 06:01:05,1690.2439993878213,10.700000342400001,0.0,0.30528400976908804,1690.2439993878213,10.700000342400001,0.35999970196000003,0.30528400976908804,1424,-20.4,99,P-GPS,
0.33953964213996196,36.901887919356604,13900,2018-04-07 06:01:05,1690.5439993974212,11.000000352000002,0.0,0.31032300993033607,1690.5439993974212,11.000000352000002,0.35999970196000003,0.31032300993033607,1421,-20.4,99,P-GPS,
0.33953971976025393,36.901887879717705,14100,2018-04-07 06:01:05,1691.0439994134213,11.500000367999998,0.0,0.32001501024048,1691.0439994134213,11.500000367999998,0.35999970196000003,0.32001501024048,1409,-20.4,99,P-GPS,
0.339539743415948,36.9018878825712,14200,2018-04-07 06:01:05,1691.243999419821,11.700000374400002,0.0,0.322208010310656,1691.243999419821,11.700000374400002,0.35999970196000003,0.322208010310656,1329,-20.4,99,P-GPS,
0.339539768682987,36.9018878762109,14300,2018-04-07 06:01:06,1691.543999429421,12.000000384000002,0.0,0.325032010401024,1691.543999429421,12.000000384000002,0.35999970196000003,0.325032010401024,1301,-20.4,99,P-GPS,
0.33953981215928597,36.90188788165071,14400,2018-04-07 06:01:06,1691.7439994358213,12.2000003904,0.0,0.329076010530432,1691.7439994358213,12.2000003904,0.35999970196000003,0.329076010530432,1306,-20.4,99,P-GPS,
0.33953984766598105,36.9018878957525,14500,2018-04-07 06:01:06,1691.9439994422212,12.4000003968,0.0,0.331923010621536,1691.9439994422212,12.4000003968,0.35999970196000003,0.331923010621536,1377,-20.4,99,P-GPS,
0.33953986146938503,36.9018879398687,14600,2018-04-07 06:01:06,1692.1439994486211,12.600000403200003,0.0,0.331191010598112,1692.1439994486211,12.600000403200003,0.35999970196000003,0.331923010621536,1377,-20.4,99,P-GPS,
0.33953988205179697,36.9018879693624,14700,2018-04-07 06:01:06,1692.343999455021,12.800000409600003,0.0,0.33189501062064003,1692.343999455021,12.800000409600003,0.35999970196000003,0.331923010621536,1387,-20.4,99,P-GPS,
0.339539924420348,36.901887980488404,14800,2018-04-07 06:01:06,1692.4439994582212,12.900000412799999,0.0,0.335687010741984,1692.4439994582212,12.900000412799999,0.35999970196000003,0.335687010741984,1382,-20.4,99,P-GPS,
0.339540030328239,36.901887950814796,15000,2018-04-07 06:01:06,1692.8439994710213,13.3000004256,0.0,0.34779601112947195,1692.8439994710213,13.3000004256,0.35999970196000003,0.34779601112947195,1396,-20.4,99,P-GPS,
0.339540085600885,36.90188791993629,15100,2018-04-07 06:01:06,1693.043999477421,13.500000432000002,0.0,0.354804011353728,1693.043999477421,13.500000432000002,0.35999970196000003,0.354804011353728,1425,-20.4,99,P-GPS,
0.33954013146356704,36.9018878941025,15200,2018-04-07 06:01:06,1693.3439994870212,13.8000004416,0.0,0.36063001154016006,1693.3439994870212,13.8000004416,0.35999970196000003,0.36063001154016006,1485,-20.4,99,P-GPS,
0.33954016141492704,36.9018878600233,15300,2018-04-07 06:01:07,1693.543999493421,14.000000448,0.0,0.36521401168684803,1693.543999493421,14.000000448,0.35999970196000003,0.36521401168684803,1500,-20.4,99,P-GPS,
0.339540167215852,36.9018878399349,15400,2018-04-07 06:01:07,1693.843999503021,14.300000457600001,0.0,0.366721011735072,1693.843999503021,14.300000457600001,0.35999970196000003,0.366721011735072,1480,-20.4,99,P-GPS,
0.3395401693588839,36.901887793521794,15500,2018-04-07 06:01:07,1694.0439995094212,14.500000464,0.0,0.369101011811232,1694.0439995094212,14.500000464,0.35999970196000003,0.369101011811232,1469,-20.4,99,P-GPS,
0.33954019061130003,36.9018877350071,15600,2018-04-07 06:01:07,1694.343999519021,14.8000004736,0.0,0.374037011969184,1694.343999519021,14.8000004736,0.35999970196000003,0.374037011969184,1471,-20.4,99,P-GPS,
0.339540213159549,36.9018876821751,15700,2018-04-07 06:01:07,1694.6439995286212,15.100000483200002,0.0,0.378882012124224,1694.6439995286212,15.100000483200002,0.35999970196000003,0.378882012124224,1476,-20.4,99,P-GPS,
0.33954023411365397,36.9018876634911,15800,2018-04-07 06:01:07,1694.943999538221,15.4000004928,0.0,0.381896012220672,1694.943999538221,15.4000004928,0.35999970196000003,0.381896012220672,1477,-20.4,99,P-GPS,
0.339540255338692,36.901887641216796,15900,2018-04-07 06:01:07,1695.2439995478212,15.700000502400002,0.0,0.38511801232377607,1695.2439995478212,15.700000502400002,0.35999970196000003,0.38511801232377607,1480,-20.4,99,P-GPS,
0.33954026400628806,36.9018876153752,16000,2018-04-07 06:01:07,1695.5439995574213,16.000000512,0.0,0.387281012392992,1695.5439995574213,16.000000512,0.35999970196000003,0.387281012392992,1475,-20.4,99,P-GPS,
0.33954026195017395,36.901887573535205,16100,2018-04-07 06:01:07,1695.843999567021,16.3000005216,0.0,0.389223012455136,1695.843999567021,16.3000005216,0.35999970196000003,0.389223012455136,1476,-20.4,99,P-GPS,
0.33954023549111406,36.901887528429604,16200,2018-04-07 06:01:07,1696.243999579821,16.7000005344,0.0,0.3889990124479681,1696.243999579821,16.7000005344,0.35999970196000003,0.389223012455136,1473,-20.4,99,P-GPS,
0.33954020073849106,36.901887453621995,16300,2018-04-07 06:01:08,1696.543999589421,17.000000544000002,0.0,0.38969801247033603,1696.543999589421,17.000000544000002,0.35999970196000003,0.38969801247033603,1457,-20.4,99,P-GPS,
0.33954016115050895,36.9018873665404,16400,2018-04-07 06:01:08,1696.8439995990211,17.3000005536,0.0,0.3908640125076481,1696.8439995990211,17.3000005536,0.35999970196000003,0.3908640125076481,1443,-20.4,99,P-GPS,
0.3395400919683039,36.901887266657,16500,2018-04-07 06:01:08,1697.1439996086212,17.6000005632,0.0,0.39034501249104003,1697.1439996086212,17.6000005632,0.35999970196000003,0.3908640125076481,1445,-20.4,99,P-GPS,
0.33954000870311307,36.9018871951809,16600,2018-04-07 06:01:08,1697.343999615021,17.8000005696,0.0,0.387187012389984,1697.343999615021,17.8000005696,0.35999970196000003,0.3908640125076481,1439,-20.4,99,P-GPS,
0.33953991586226395,36.9018871257957,16700,2018-04-07 06:01:08,1697.643999624621,18.100000579200003,0.0,0.383402012268864,1697.643999624621,18.100000579200003,0.35999970196000003,0.3908640125076481,1456,-20.4,99,P-GPS,
0.33953982734890303,36.9018870832943,16800,2018-04-07 06:01:08,1697.9439996342212,18.4000005888,0.0,0.37852001211264,1697.9439996342212,18.4000005888,0.35999970196000003,0.3908640125076481,1487,-20.4,99,P-GPS,
0.33953972993864,36.901887027401294,16900,2018-04-07 06:01:08,1698.2439996438213,18.7000005984,0.0,0.374099011971168,1698.2439996438213,18.7000005984,0.35999970196000003,0.3908640125076481,1546,-20.4,99,P-GPS,
0.33953951869892,36.9018868862207,17100,2018-04-07 06:01:08,1698.7439996598212,19.2000006144,0.0,0.36735001175520005,1698.7439996598212,19.2000006144,0.35999970196000003,0.3908640125076481,1547,-20.4,99,P-GPS,
0.339539413059519,36.9018868262044,17200,2018-04-07 06:01:08,1699.1439996726212,19.6000006272,0.0,0.363894011644608,1699.1439996726212,19.6000006272,0.35999970196000003,0.3908640125076481,1546,-20.4,99,P-GPS,
0.33953931160359,36.901886758973205,17300,2018-04-07 06:01:09,1699.4439996822211,19.900000636800005,0.0,0.36182001157824,1699.4439996822211,19.900000636800005,0.35999970196000003,0.3908640125076481,1546,-20.4,99,P-GPS,
0.339539237172708,36.9018867055244,17400,2018-04-07 06:01:09,1699.8439996950212,20.3000006496,0.0,0.36096701155094396,1699.8439996950212,20.3000006496,0.35999970196000003,0.3908640125076481,1548,-20.4,99,P-GPS,
0.339539160901073,36.901886631791896,17500,2018-04-07 06:01:09,1700.1439997046211,20.600000659200003,0.0,0.36205401158572803,1700.1439997046211,20.600000659200003,0.35999970196000003,0.3908640125076481,1555,-20.4,99,P-GPS,
0.339539058808626,36.9018865660286,17600,2018-04-07 06:01:09,1700.5439997174212,21.000000672,0.0,0.36112101155587195,1700.5439997174212,21.000000672,0.35999970196000003,0.3908640125076481,1555,-20.4,99,P-GPS,
0.33953896080133505,36.901886520108796,17700,2018-04-07 06:01:09,1700.9439997302213,21.400000684800002,0.0,0.359107011491424,1700.9439997302213,21.400000684800002,0.35999970196000003,0.3908640125076481,1546,-20.4,99,P-GPS,
0.339538882048358,36.9018865189242,17800,2018-04-07 06:01:09,1701.3439997430212,21.8000006976,0.0,0.354422011341504,1701.3439997430212,21.8000006976,0.35999970196000003,0.3908640125076481,1535,-20.4,99,P-GPS,
0.33953877782020697,36.901886481755795,17900,2018-04-07 06:01:09,1701.6439997526213,22.1000007072,0.0,0.35186301125961605,1701.6439997526213,22.1000007072,0.35999970196000003,0.3908640125076481,1535,-20.5,99,P-GPS,
0.339538650987625,36.901886424517706,18000,2018-04-07 06:01:09,1702.0439997654212,22.50000072,0.0,0.350486011215552,1702.0439997654212,22.50000072,0.35999970196000003,0.3908640125076481,1536,-20.6,99,P-GPS,
0.33953852825017306,36.901886349286706,18100,2018-04-07 06:01:09,1702.343999775021,22.8000007296,0.0,0.351791011257312,1702.343999775021,22.8000007296,0.35999970196000003,0.3908640125076481,1531,-21.2,99,P-GPS,
0.3395383267709389,36.9018862225912,18300,2018-04-07 06:01:10,1703.143999800621,23.6000007552,0.0,0.35582001138624,1703.143999800621,23.6000007552,0.35999970196000003,0.3908640125076481,1520,-21.6,99,P-GPS,
0.33953823487336604,36.9018861869964,18400,2018-04-07 06:01:10,1703.5439998134214,24.000000768000003,0.0,0.35596501139088005,1703.5439998134214,24.000000768000003,0.35999970196000003,0.3908640125076481,1517,-22.0,99,P-GPS,
0.339538140337511,36.9018861494455,18500,2018-04-07 06:01:10,1703.843999823021,24.3000007776,0.0,0.356566011410112,1703.843999823021,24.3000007776,0.35999970196000003,0.3908640125076481,1517,-22.4,99,P-GPS,
0.339538057904861,36.901886138095996,18600,2018-04-07 06:01:10,1704.1439998326211,24.600000787200003,0.0,0.355096011363072,1704.1439998326211,24.600000787200003,0.35999970196000003,0.3908640125076481,1519,-22.8,99,P-GPS,
0.339537955382302,36.9018861285234,18700,2018-04-07 06:01:10,1704.543999845421,25.000000800000002,0.0,0.353108011299456,1704.543999845421,25.000000800000002,0.35999970196000003,0.3908640125076481,1512,-23.1,99,P-GPS,
0.33953783879507504,36.9018861355097,18800,2018-04-07 06:01:10,1704.8439998550211,25.3000008096,0.0,0.349347011179104,1704.8439998550211,25.3000008096,0.35999970196000003,0.3908640125076481,1509,-23.5,99,P-GPS,
0.339537711845652,36.9018861294053,18900,2018-04-07 06:01:10,1705.2439998678212,25.7000008224,0.0,0.34726101111235197,1705.2439998678212,25.7000008224,0.35999970196000003,0.3908640125076481,1500,-23.5,99,P-GPS,
0.339537607547478,36.9018861247214,19000,2018-04-07 06:01:10,1705.5439998774211,26.000000832,0.0,0.3459330110698561,1705.5439998774211,26.000000832,0.35999970196000003,0.3908640125076481,1496,-23.7,99,P-GPS,
0.33953749883784995,36.9018860983991,19100,2018-04-07 06:01:10,1705.8439998870213,26.300000841600003,0.0,0.34733101111459197,1705.8439998870213,26.300000841600003,0.35999970196000003,0.3908640125076481,1487,-23.9,99,P-GPS,
0.339537411392442,36.901886072835005,19200,2018-04-07 06:01:10,1706.2439998998213,26.700000854400002,0.0,0.34926001117632,1706.2439998998213,26.700000854400002,0.35999970196000003,0.3908640125076481,1455,-24.1,99,P-GPS,
0.33953732286412003,36.9018860498758,19300,2018-04-07 06:01:11,1706.543999909421,27.000000864000004,0.0,0.35117501123760003,1706.543999909421,27.000000864000004,0.35999970196000003,0.3908640125076481,1433,-24.1,99,P-GPS,
0.33953724151357206,36.9018860552642,19400,2018-04-07 06:01:11,1706.8439999190211,27.3000008736,0.0,0.35023901120764805,1706.8439999190211,27.3000008736,0.35999970196000003,0.3908640125076481,1434,-24.1,99,P-GPS,
0.33953715954014396,36.901886049792296,19500,2018-04-07 06:01:11,1707.1439999286213,27.6000008832,0.0,0.35074401122380805,1707.1439999286213,27.6000008832,0.35999970196000003,0.3908640125076481,1469,-24.1,99,P-GPS,
0.33953709435515905,36.901886061490295,19600,2018-04-07 06:01:11,1707.4439999382212,27.9000008928,0.0,0.349531011184992,1707.4439999382212,27.9000008928,0.35999970196000003,0.3908640125076481,1513,-24.1,99,P-GPS,
0.339537016084405,36.9018860659874,19700,2018-04-07 06:01:11,1707.743999947821,28.200000902400003,0.0,0.34933501117872,1707.743999947821,28.200000902400003,0.35999970196000003,0.3908640125076481,1533,-24.1,99,P-GPS,
0.33953694095247805,36.901886075349395,19800,2018-04-07 06:01:11,1708.043999957421,28.500000912,0.0,0.348791011161312,1708.043999957421,28.500000912,0.35999970196000003,0.3908640125076481,1535,-24.1,99,P-GPS,
0.339536889420367,36.9018860813218,19900,2018-04-07 06:01:11,1708.2439999638211,28.7000009184,0.0,0.34858601115475196,1708.2439999638211,28.7000009184,0.35999970196000003,0.3908640125076481,1535,-24.1,99,P-GPS,
0.339536866248831,36.9018861032741,20000,2018-04-07 06:01:11,1708.6439999766212,29.1000009312,0.0,0.346391011084512,1708.6439999766212,29.1000009312,0.35999970196000003,0.3908640125076481,1529,-24.1,99,P-GPS,
0.33953684065294804,36.9018861095639,20100,2018-04-07 06:01:11,1708.9439999862213,29.4000009408,0.0,0.34598001107136,1708.9439999862213,29.4000009408,0.35999970196000003,0.3908640125076481,1530,-24.1,99,P-GPS,
0.33953681021285104,36.901886107694104,20200,2018-04-07 06:01:11,1709.243999995821,29.7000009504,0.0,0.346556011089792,1709.243999995821,29.7000009504,0.35999970196000003,0.3908640125076481,1534,-24.1,99,P-GPS,
0.33953677275090394,36.9018860922345,20300,2018-04-07 06:01:12,1709.644000008621,30.1000009632,0.0,0.34876001116032,1709.644000008621,30.1000009632,0.35999970196000003,0.3908640125076481,1535,-24.1,99,P-GPS,
0.33953673410752105,36.9018860675221,20400,2018-04-07 06:01:12,1710.044000021421,30.500000976,0.0,0.352046011265472,1710.044000021421,30.500000976,0.35999970196000003,0.3908640125076481,1542,-24.1,99,P-GPS,
0.339536709016456,36.9018860457245,20500,2018-04-07 06:01:12,1710.344000031021,30.8000009856,0.0,0.35483501135472,1710.344000031021,30.8000009856,0.35999970196000003,0.3908640125076481,1546,-24.1,99,P-GPS,
0.339536678404966,36.9018860671437,20600,2018-04-07 06:01:12,1710.6440000406212,31.100000995200002,0.0,0.35298401129548806,1710.6440000406212,31.100000995200002,0.35999970196000003,0.3908640125076481,1546,-24.1,99,P-GPS,
0.33953666828092893,36.9018861006741,20700,2018-04-07 06:01:12,1711.044000053421,31.500001007999998,0.0,0.3494750111832,1711.044000053421,31.500001007999998,0.35999970196000003,0.3908640125076481,1548,-24.1,99,P-GPS,
0.339536675838945,36.9018860835706,20800,2018-04-07 06:01:12,1711.4440000662212,31.9000010208,0.0,0.351223011239136,1711.4440000662212,31.9000010208,0.35999970196000003,0.3908640125076481,1553,-24.1,99,P-GPS,
0.33953668395388903,36.901886082550796,20900,2018-04-07 06:01:12,1711.744000075821,32.2000010304,0.0,0.351196011238272,1711.744000075821,32.2000010304,0.35999970196000003,0.3908640125076481,1556,-24.1,99,P-GPS,
0.339536686495075,36.901886107863795,21000,2018-04-07 06:01:12,1712.1440000886212,32.6000010432,0.0,0.348371011147872,1712.1440000886212,32.6000010432,0.35999970196000003,0.3908640125076481,1564,-24.1,99,P-GPS,
0.33953667751909195,36.9018861337418,21100,2018-04-07 06:01:12,1712.544000101421,33.000001056,0.0,0.345682011061824,1712.544000101421,33.000001056,0.35999970196000003,0.3908640125076481,1570,-24.1,99,P-GPS,
0.339536659527636,36.901886159766704,21200,2018-04-07 06:01:12,1712.8440001110212,33.3000010656,0.0,0.343146010980672,1712.8440001110212,33.3000010656,0.35999970196000003,0.3908640125076481,1568,-24.1,99,P-GPS,
0.33953664683228607,36.9018861881425,21300,2018-04-07 06:01:13,1713.2440001238213,33.70000107840001,0.0,0.34027001088864,1713.2440001238213,33.70000107840001,0.35999970196000003,0.3908640125076481,1568,-24.1,99,P-GPS,
0.339536622868919,36.901886145958,21400,2018-04-07 06:01:13,1713.6440001366211,34.1000010912,0.0,0.34534901105116805,1713.6440001366211,34.1000010912,0.35999970196000003,0.3908640125076481,1570,-24.1,99,P-GPS,
0.33953657096267303,36.9018861534662,21600,2018-04-07 06:01:13,1714.444000162221,34.9000011168,0.35999970196000003,0.3455840110586881,1714.444000162221,34.9000011168,0.35999970196000003,0.3908640125076481,1569,-24.1,99,P-GPS,
0.339536548394882,36.9018862041235,21700,2018-04-07 06:01:13,1714.7440001718212,35.2000011264,0.0,0.340552010897664,1714.7440001718212,35.2000011264,0.35999970196000003,0.3908640125076481,1564,-24.1,99,P-GPS,
0.33953652420231106,36.9018862217409,21800,2018-04-07 06:01:13,1715.1440001846213,35.6000011392,0.0,0.339188010854016,1715.1440001846213,35.6000011392,0.35999970196000003,0.3908640125076481,1578,-24.1,99,P-GPS,
0.339536419437588,36.901886231583795,22000,2018-04-07 06:01:13,1715.9440002102212,36.4000011648,0.0,0.340763010904416,1715.9440002102212,36.4000011648,0.35999970196000003,0.3908640125076481,1578,-24.1,99,P-GPS,
0.339536361539483,36.901886203097604,22100,2018-04-07 06:01:13,1716.344000223021,36.8000011776,0.0,0.34544501105424,1716.344000223021,36.8000011776,0.35999970196000003,0.3908640125076481,1569,-24.1,99,P-GPS,
0.339536337264268,36.901886081555205,22200,2018-04-07 06:01:13,1716.7440002358212,37.2000011904,0.0,0.359201011494432,1716.7440002358212,37.2000011904,0.35999970196000003,0.3908640125076481,1570,-24.1,99,P-GPS,
0.339536321162621,36.9018860121223,22300,2018-04-07 06:01:14,1717.144000248621,37.60000120320001,0.0,0.36712301174793605,1717.144000248621,37.60000120320001,0.35999970196000003,0.3908640125076481,1571,-24.1,99,P-GPS,
0.33953630390233597,36.9018859409139,22400,2018-04-07 06:01:14,1717.5440002614212,38.000001216,0.0,0.37527001200864,1717.5440002614212,38.000001216,0.35999970196000003,0.3908640125076481,1561,-24.1,99,P-GPS,
0.33953628041732403,36.90188591586271,22500,2018-04-07 06:01:14,1717.944000274221,38.4000012288,0.0,0.378634012116288,1717.944000274221,38.4000012288,0.35999970196000003,0.3908640125076481,1556,-24.1,99,P-GPS,
0.339536217714495,36.90188592417171,22600,2018-04-07 06:01:14,1718.2440002838212,38.700001238400006,0.0,0.379617012147744,1718.2440002838212,38.700001238400006,0.35999970196000003,0.3908640125076481,1556,-24.1,98,P-GPS,
0.33953615283809996,36.90188595400161,22700,2018-04-07 06:01:14,1718.6440002966212,39.100001251200005,0.0,0.37851301211241606,1718.6440002966212,39.100001251200005,0.35999970196000003,0.3908640125076481,1547,-24.1,98,P-GPS,
0.339536108960491,36.9018859838786,22800,2018-04-07 06:01:14,1719.044000309421,39.500001264000005,0.0,0.37683401205868805,1719.044000309421,39.500001264000005,0.35999970196000003,0.3908640125076481,1544,-24.1,98,P-GPS,
0.339536075822063,36.9018860497586,22900,2018-04-07 06:01:14,1719.3440003190212,39.80000127360001,0.35999970196000003,0.371066011874112,1719.3440003190212,39.80000127360001,0.35999970196000003,0.3908640125076481,1554,-24.1,98,P-GPS,
0.33953607732348806,36.9018861221193,23000,2018-04-07 06:01:14,1719.744000331821,40.2000012864,0.35999970196000003,0.363413011629216,1719.744000331821,40.2000012864,0.35999970196000003,0.3908640125076481,1553,-24.1,98,P-GPS,
0.339536105127948,36.90188620241,23100,2018-04-07 06:01:14,1720.1440003446212,40.6000012992,0.35999970196000003,0.35396501132688,1720.1440003446212,40.6000012992,0.35999970196000003,0.3908640125076481,1522,-24.1,98,P-GPS,
0.339536140375211,36.9018862840925,23200,2018-04-07 06:01:14,1720.544000357421,41.000001311999995,0.35999970196000003,0.34409501101104,1720.544000357421,41.000001311999995,0.35999970196000003,0.3908640125076481,1522,-24.1,98,P-GPS,
0.339536181783692,36.901886363721,23300,2018-04-07 06:01:15,1720.9440003702211,41.4000013248,0.35999970196000003,0.33421801069497603,1720.9440003702211,41.4000013248,0.35999970196000003,0.3908640125076481,1534,-24.1,98,P-GPS,
0.339536249682072,36.901886431010496,23400,2018-04-07 06:01:15,1721.3440003830212,41.80000133760001,0.35999970196000003,0.324711010390752,1721.3440003830212,41.80000133760001,0.35999970196000003,0.3908640125076481,1539,-24.1,98,P-GPS,
0.339536297451662,36.9018865006869,23500,2018-04-07 06:01:15,1721.6440003926211,42.1000013472,0.0,0.315699010102368,1721.6440003926211,42.1000013472,0.35999970196000003,0.3908640125076481,1552,-24.1,98,P-GPS,
0.33953633803696504,36.90188657905821,23600,2018-04-07 06:01:15,1722.0440004054212,42.50000136,0.0,0.306026009792832,1722.0440004054212,42.50000136,0.35999970196000003,0.3908640125076481,1581,-24.1,98,P-GPS,
0.33953642049729804,36.901886622080205,23700,2018-04-07 06:01:15,1722.444000418221,42.900001372800006,0.35999970196000003,0.298797009561504,1722.444000418221,42.900001372800006,0.35999970196000003,0.3908640125076481,1595,-24.1,98,P-GPS,
0.339536554733601,36.901886620445104,23800,2018-04-07 06:01:15,1722.8440004310212,43.300001385600005,0.35999970196000003,0.29518700944598397,1722.8440004310212,43.300001385600005,0.35999970196000003,0.3908640125076481,1602,-24.1,98,P-GPS,
0.33953668701984197,36.901886562891505,23900,2018-04-07 06:01:15,1723.244000443821,43.700001398400005,0.35999970196000003,0.29845300955049603,1723.244000443821,43.700001398400005,0.35999970196000003,0.3908640125076481,1609,-24.1,98,P-GPS,
0.339536868899123,36.9018864422639,24100,2018-04-07 06:01:15,1723.9440004662213,44.4000014208,0.0,0.308858009883456,1723.9440004662213,44.4000014208,0.35999970196000003,0.3908640125076481,1615,-24.1,98,P-GPS,
0.33953691548035697,36.901886431682,24200,2018-04-07 06:01:15,1724.3440004790211,44.80000143360001,0.0,0.309521009904672,1724.3440004790211,44.80000143360001,0.35999970196000003,0.3908640125076481,1610,-24.1,98,P-GPS,
0.33953694817422,36.901886403319104,24300,2018-04-07 06:01:16,1724.8440004950212,45.3000014496,0.0,0.312361009995552,1724.8440004950212,45.3000014496,0.35999970196000003,0.3908640125076481,1631,-24.1,98,P-GPS,
0.339536964974062,36.9018863694755,24400,2018-04-07 06:01:16,1725.244000507821,45.700001462399996,0.0,0.31597601011123205,1725.244000507821,45.700001462399996,0.35999970196000003,0.3908640125076481,1635,-24.1,98,P-GPS,
0.33953697597745797,36.9018862988329,24500,2018-04-07 06:01:16,1725.6440005206211,46.1000014752,0.0,0.323731010359392,1725.6440005206211,46.1000014752,0.35999970196000003,0.3908640125076481,1637,-24.1,98,P-GPS,
0.33953698799130394,36.9018862255402,24600,2018-04-07 06:01:16,1726.044000533421,46.50000148800001,0.0,0.33178301061705606,1726.044000533421,46.50000148800001,0.35999970196000003,0.3908640125076481,1645,-24.1,98,P-GPS,
0.339536993164056,36.9018861239056,24700,2018-04-07 06:01:16,1726.5440005494213,47.000001504000004,0.0,0.343034010977088,1726.5440005494213,47.000001504000004,0.35999970196000003,0.3908640125076481,1652,-24.1,98,P-GPS,
0.339537007337218,36.9018860418634,24800,2018-04-07 06:01:16,1726.9440005622212,47.400001516799996,0.0,0.352061011265952,1726.9440005622212,47.400001516799996,0.35999970196000003,0.3908640125076481,1651,-24.1,98,P-GPS,
0.339537006869855,36.9018859687123,24900,2018-04-07 06:01:16,1727.4440005782212,47.900001532800005,0.0,0.36018901152604804,1727.4440005782212,47.900001532800005,0.35999970196000003,0.3908640125076481,1654,-24.1,98,P-GPS,
0.339536996928611,36.9018859349388,25000,2018-04-07 06:01:16,1727.844000591021,48.300001545600004,0.0,0.36399501164784004,1727.844000591021,48.300001545600004,0.35999970196000003,0.3908640125076481,1657,-24.1,98,P-GPS,
0.33953699658704495,36.90188589758839,25100,2018-04-07 06:01:16,1728.3440006070211,48.8000015616,0.0,0.3681450117806401,1728.3440006070211,48.8000015616,0.35999970196000003,0.3908640125076481,1665,-24.1,98,P-GPS,
0.339536988331241,36.90188588466621,25200,2018-04-07 06:01:16,1728.8440006230212,49.30000157760001,0.0,0.369628011828096,1728.8440006230212,49.30000157760001,0.35999970196000003,0.3908640125076481,1662,-24.1,98,P-GPS,
0.3395369600533111,36.90188585947789,25300,2018-04-07 06:01:17,1729.2440006358213,49.70000159040001,0.0,0.372604011923328,1729.2440006358213,49.70000159040001,0.35999970196000003,0.3908640125076481,1650,-24.1,98,P-GPS,
0.33953690946895504,36.9018858516309,25400,2018-04-07 06:01:17,1729.7440006518211,50.200001606399994,0.0,0.37386001196352003,1729.7440006518211,50.200001606399994,0.35999970196000003,0.3908640125076481,1660,-24.1,98,P-GPS,
0.3395368474863061,36.901885838328,25500,2018-04-07 06:01:17,1730.2440006678212,50.7000016224,0.0,0.37592001202944003,1730.2440006678212,50.7000016224,0.35999970196000003,0.3908640125076481,1666,-24.1,98,P-GPS,
0.33953673626928,36.9018857612408,25600,2018-04-07 06:01:17,1730.7440006838212,51.20000163840001,0.0,0.38578701234518403,1730.7440006838212,51.20000163840001,0.35999970196000003,0.3908640125076481,1668,-24.1,98,P-GPS,
0.339536636593445,36.90188569170039,25700,2018-04-07 06:01:17,1731.1440006966213,51.600001651199996,0.0,0.39495801263865604,1731.1440006966213,51.600001651199996,0.35999970196000003,0.39495801263865604,1669,-24.1,98,P-GPS,
0.339536550824114,36.9018855660364,25800,2018-04-07 06:01:17,1731.6440007126212,52.1000016672,0.0,0.410261013128352,1731.6440007126212,52.1000016672,0.35999970196000003,0.410261013128352,1672,-24.1,98,P-GPS,
0.33953646368404,36.9018854543364,25900,2018-04-07 06:01:17,1732.144000728621,52.600001683200006,0.0,0.424188013574016,1732.144000728621,52.600001683200006,0.35999970196000003,0.424188013574016,1667,-24.1,98,P-GPS,
0.339536344006841,36.9018853108296,26000,2018-04-07 06:01:17,1732.544000741421,53.000001696000005,0.0,0.44243801415801604,1732.544000741421,53.000001696000005,0.35999970196000003,0.44243801415801604,1670,-24.1,98,P-GPS,
0.33953622091968,36.901885258799,26100,2018-04-07 06:01:17,1733.0440007574214,53.500001712,0.0,0.4510880144348161,1733.0440007574214,53.500001712,0.35999970196000003,0.4510880144348161,1684,-24.1,98,P-GPS,
0.339536079854497,36.901885208657,26200,2018-04-07 06:01:17,1733.5440007734212,54.00000172800001,0.0,0.4603730147319361,1733.5440007734212,54.00000172800001,0.35999970196000003,0.4603730147319361,1684,-24.1,98,P-GPS,
0.339535920880502,36.901885175307996,26300,2018-04-07 06:01:18,1734.044000789421,54.500001744,0.35999970196000003,0.468862015003584,1734.044000789421,54.500001744,0.35999970196000003,0.468862015003584,1674,-24.1,98,P-GPS,
0.339535602658932,36.9018851401101,26500,2018-04-07 06:01:18,1735.0440008214212,55.500001776,0.35999970196000003,0.48414501549264005,1735.0440008214212,55.500001776,0.35999970196000003,0.48414501549264005,1668,-24.1,98,P-GPS,
0.33953544929451895,36.901885072548204,26600,2018-04-07 06:01:18,1735.5440008374212,56.000001792,0.35999970196000003,0.49745401591852806,1735.5440008374212,56.000001792,0.35999970196000003,0.49745401591852806,1667,-24.1,98,P-GPS,
0.339535296356759,36.9018850623699,26700,2018-04-07 06:01:18,1736.044000853421,56.50000180800001,0.35999970196000003,0.505252016168064,1736.044000853421,56.50000180800001,0.35999970196000003,0.505252016168064,1667,-24.1,98,P-GPS,
0.33953514397714696,36.9018850873087,26800,2018-04-07 06:01:18,1736.4440008662211,56.90000182080001,0.503999582744,0.5099630163188161,1736.4440008662211,56.90000182080001,0.503999582744,0.5099630163188161,1667,-24.1,98,P-GPS,
0.339534992360462,36.901885174720796,26900,2018-04-07 06:01:18,1736.9440008822212,57.4000018368,0.503999582744,0.5090380162892161,1736.9440008822212,57.4000018368,0.503999582744,0.5099630163188161,1655,-24.1,98,P-GPS,
0.339534813004454,36.901885271847604,27000,2018-04-07 06:01:18,1737.444000898221,57.90000185280001,0.503999582744,0.509502016304064,1737.444000898221,57.90000185280001,0.503999582744,0.5099630163188161,1655,-24.1,98,P-GPS,
0.33953465542033595,36.901885379907604,27100,2018-04-07 06:01:18,1737.944000914221,58.400001868800004,0.503999582744,0.508627016276064,1737.944000914221,58.400001868800004,0.503999582744,0.5099630163188161,1642,-24.1,98,P-GPS,
0.339534518604578,36.9018854485396,27200,2018-04-07 06:01:18,1738.4440009302211,58.900001884800005,0.35999970196000003,0.510874016347968,1738.4440009302211,58.900001884800005,0.503999582744,0.510874016347968,1640,-24.1,98,P-GPS,
0.33953439515060996,36.9018855355015,27300,2018-04-07 06:01:19,1738.8440009430212,59.30000189760001,0.35999970196000003,0.511153016356896,1738.8440009430212,59.30000189760001,0.503999582744,0.511153016356896,1637,-24.1,98,P-GPS,
0.339534226157206,36.9018855642945,27400,2018-04-07 06:01:19,1739.344000959021,59.800001913600006,0.35999970196000003,0.5201970166463039,1739.344000959021,59.800001913600006,0.503999582744,0.5201970166463039,1632,-24.1,98,P-GPS,
0.33953407919664896,36.901885606476604,27500,2018-04-07 06:01:19,1739.8440009750211,60.30000192960001,0.0,0.527047016865504,1739.8440009750211,60.30000192960001,0.503999582744,0.527047016865504,1632,-24.1,98,P-GPS,
0.33953392260710297,36.9018856387191,27600,2018-04-07 06:01:19,1740.244000987821,60.7000019424,0.0,0.535889017148448,1740.244000987821,60.7000019424,0.503999582744,0.535889017148448,1608,-24.1,98,P-GPS,
0.339533565381043,36.9018857257678,27900,2018-04-07 06:01:19,1741.6440010326212,62.1000019872,0.0,0.556614017811648,1741.6440010326212,62.1000019872,0.503999582744,0.556614017811648,1659,-24.1,98,P-GPS,
0.339533481263768,36.9018856865904,28000,2018-04-07 06:01:19,1742.044001045421,62.50000200000001,0.0,0.5663790181241279,1742.044001045421,62.50000200000001,0.503999582744,0.5663790181241279,1667,-24.1,98,P-GPS,
0.339533426092899,36.901885667799,28100,2018-04-07 06:01:19,1742.544001061421,63.000002015999996,0.0,0.572266018312512,1742.544001061421,63.000002015999996,0.503999582744,0.572266018312512,1668,-24.1,98,P-GPS,
0.33953334515190503,36.901885656363795,28200,2018-04-07 06:01:19,1742.944001074221,63.4000020288,0.0,0.5797030185504961,1742.944001074221,63.4000020288,0.503999582744,0.5797030185504961,1670,-24.1,98,P-GPS,
0.339533301764457,36.9018856729315,28300,2018-04-07 06:01:20,1743.4440010902213,63.900002044800004,0.0,0.5820030186240961,1743.4440010902213,63.900002044800004,0.503999582744,0.5820030186240961,1684,-24.1,98,P-GPS,
0.33953326534675005,36.9018856801796,28400,2018-04-07 06:01:20,1743.944001106221,64.4000020608,0.0,0.584458018702656,1743.944001106221,64.4000020608,0.503999582744,0.584458018702656,1684,-24.1,98,P-GPS,
0.33953323809962505,36.9018857034129,28500,2018-04-07 06:01:20,1744.4440011222212,64.9000020768,0.0,0.584987018719584,1744.4440011222212,64.9000020768,0.503999582744,0.584987018719584,1684,-24.1,98,P-GPS,
0.33953318479576805,36.9018857138963,28600,2018-04-07 06:01:20,1744.9440011382212,65.40000209280001,0.0,0.588656018836992,1744.9440011382212,65.40000209280001,0.503999582744,0.588656018836992,1684,-24.1,98,P-GPS,
0.339533150392445,36.901885747950296,28700,2018-04-07 06:01:20,1745.3440011510213,65.8000021056,0.0,0.58906001884992,1745.3440011510213,65.8000021056,0.503999582744,0.58906001884992,1684,-24.1,98,P-GPS,
0.339533102549575,36.9018857518462,28800,2018-04-07 06:01:20,1745.8440011670211,66.3000021216,0.0,0.592822018970304,1745.8440011670211,66.3000021216,0.503999582744,0.592822018970304,1684,-24.1,98,P-GPS,
0.339533083603443,36.9018857489588,28900,2018-04-07 06:01:20,1746.344001183021,66.8000021376,0.0,0.594637019028384,1746.344001183021,66.8000021376,0.503999582744,0.594637019028384,1684,-24.1,98,P-GPS,
0.33953311600459396,36.9018857653461,29000,2018-04-07 06:01:20,1746.8440011990212,67.30000215359999,0.0,0.59071001890272,1746.8440011990212,67.30000215359999,0.503999582744,0.594637019028384,1684,-24.1,98,P-GPS,
0.33953316112714804,36.901885798845,29100,2018-04-07 06:01:20,1747.444001218221,67.9000021728,0.0,0.584474018703168,1747.444001218221,67.9000021728,0.503999582744,0.594637019028384,1684,-24.1,98,P-GPS,
0.33953322788765306,36.9018857920439,29200,2018-04-07 06:01:20,1747.944001234221,68.4000021888,0.0,0.579333018538656,1747.944001234221,68.4000021888,0.503999582744,0.594637019028384,1684,-24.1,98,P-GPS,
0.33953328111253,36.9018857978744,29300,2018-04-07 06:01:21,1748.4440012502212,68.9000022048,0.0,0.574446018382272,1748.4440012502212,68.9000022048,0.503999582744,0.594637019028384,1684,-24.1,98,P-GPS,
0.33953329069348104,36.9018857644473,29400,2018-04-07 06:01:21,1748.9440012662212,69.4000022208,0.0,0.5761060184353921,1748.9440012662212,69.4000022208,0.503999582744,0.594637019028384,1684,-24.1,98,P-GPS,
0.33953333633143795,36.9018857615331,29500,2018-04-07 06:01:21,1749.444001282221,69.9000022368,0.35999970196000003,0.572537018321184,1749.444001282221,69.9000022368,0.503999582744,0.594637019028384,1684,-24.1,98,P-GPS,
0.339533384421018,36.901885732469204,29600,2018-04-07 06:01:21,1749.9440012982213,70.4000022528,0.0,0.5707530182640961,1749.9440012982213,70.4000022528,0.503999582744,0.594637019028384,1684,-24.1,98,P-GPS,
0.339533429931956,36.901885633022395,29800,2018-04-07 06:01:21,1751.0440013334212,71.500002288,0.0,0.574621018387872,1751.0440013334212,71.500002288,0.503999582744,0.594637019028384,1684,-24.1,98,P-GPS,
0.33953350517014,36.9018854986511,30000,2018-04-07 06:01:21,1752.044001365421,72.50000232,0.0,0.579137018532384,1752.044001365421,72.50000232,0.503999582744,0.594637019028384,1684,-24.1,98,P-GPS,
0.33953355599387697,36.9018854535592,30100,2018-04-07 06:01:21,1752.544001381421,73.00000233600001,0.0,0.578782018521024,1752.544001381421,73.00000233600001,0.503999582744,0.594637019028384,1684,-24.1,98,P-GPS,
0.3395336170987949,36.9018854476745,30200,2018-04-07 06:01:21,1753.1440014006212,73.6000023552,0.0,0.574567018386144,1753.1440014006212,73.6000023552,0.503999582744,0.594637019028384,1684,-24.1,98,P-GPS,
0.339533687835146,36.901885423645204,30300,2018-04-07 06:01:22,1753.544001413421,74.00000236800001,0.0,0.571158018277056,1753.544001413421,74.00000236800001,0.503999582744,0.594637019028384,1684,-24.1,98,P-GPS,
