latitude,longitude,time_millisecond,datetime_utc,altitude_m,ascent_m,speed_kph,distance_m,max_altitude_m,max_ascent_m,max_speed_kph,max_distance_m,rc_throttle,gimbal_pitch_degrees,battery_percent,flycState,message
0.355961705764353,36.8882905127553,0,2018-04-05 07:10:00,1775.129939604171,0.0,0.0,0.0,1775.129939604171,0.0,0.0,0.0,364,0.0,100,P-GPS,
0.35596170975078395,36.8882905447591,200,2018-04-05 07:10:00,1775.129939604171,0.0,0.0,0.0035864501147664,1775.129939604171,0.0,0.0,0.0035864501147664,364,0.0,100,Motors_Started,Setting new Return-To-Home altitude to 45m (148 ft). Setting new Maximum Flight Altitude to 150m (492 ft)
0.35596171257471004,36.8882905729069,300,2018-04-05 07:10:00,1775.129939604171,0.0,0.0,0.006731840215418881,1775.129939604171,0.0,0.0,0.006731840215418881,364,0.0,100,Motors_Started,
0.35596171498704604,36.888290611921,500,2018-04-05 07:10:00,1775.129939604171,0.0,0.0,0.0110752003544064,1775.129939604171,0.0,0.0,0.0110752003544064,364,0.0,100,Motors_Started,
0.35596171436823704,36.888290621198394,600,2018-04-05 07:10:00,1775.129939604171,0.0,0.0,0.012097200387110402,1775.129939604171,0.0,0.0,0.012097200387110402,364,0.0,100,Motors_Started,
0.35596171672988797,36.888290626186,700,2018-04-05 07:10:01,1775.129939604171,0.0,0.0,0.012672700405526401,1775.129939604171,0.0,0.0,0.012672700405526401,364,0.0,100,Motors_Started,
0.35596177911130295,36.8882906869292,900,2018-04-05 07:10:01,1775.129939604171,0.0,0.0,0.0210162006725184,1775.129939604171,0.0,0.0,0.0210162006725184,364,0.0,100,Motors_Started,
0.355961773837384,36.8882907107929,1000,2018-04-05 07:10:01,1775.129939604171,0.0,0.0,0.0232873007451936,1775.129939604171,0.0,0.0,0.0232873007451936,364,0.0,100,Motors_Started,
0.355961765727733,36.8882907254305,1100,2018-04-05 07:10:01,1775.129939604171,0.0,0.0,0.024572400786316805,1775.129939604171,0.0,0.0,0.024572400786316805,364,0.0,100,Motors_Started,
0.355961753568548,36.8882907648834,1200,2018-04-05 07:10:01,1775.129939604171,0.0,0.0,0.028537200913190404,1775.129939604171,0.0,0.0,0.028537200913190404,400,0.0,100,Motors_Started,
0.355961748241501,36.8882907989373,1300,2018-04-05 07:10:01,1775.129939604171,0.0,0.0,0.0321732010295424,1775.129939604171,0.0,0.0,0.0321732010295424,649,0.0,100,Motors_Started,
0.355961739902239,36.8882908253319,1400,2018-04-05 07:10:01,1775.129939604171,0.0,0.0,0.0349664011189248,1775.129939604171,0.0,0.0,0.0349664011189248,909,0.0,100,Motors_Started,
0.35596173642083007,36.8882908407153,1500,2018-04-05 07:10:01,1775.129939604171,0.0,0.0,0.0366294011721408,1775.129939604171,0.0,0.0,0.0366294011721408,1024,0.0,100,Motors_Started,
0.35596172971713597,36.8882908466033,1600,2018-04-05 07:10:01,1775.129939604171,0.0,0.0,0.037220701191062404,1775.129939604171,0.0,0.0,0.037220701191062404,1024,0.0,100,Assisted_Takeoff,
0.35596173212356896,36.888290851251895,1700,2018-04-05 07:10:01,1775.129939604171,0.0,0.0,0.037756101208195204,1775.129939604171,0.0,0.0,0.037756101208195204,1024,0.0,100,Assisted_Takeoff,
0.355961727411463,36.888290846173604,1800,2018-04-05 07:10:02,1775.129939604171,0.0,0.0,0.03715550118897601,1775.129939604171,0.0,0.0,0.037756101208195204,1024,0.0,100,Assisted_Takeoff,
0.35596172921028296,36.888290841819604,1900,2018-04-05 07:10:02,1775.129939604171,0.0,0.0,0.03668600117395201,1775.129939604171,0.0,0.0,0.037756101208195204,1024,0.0,100,Assisted_Takeoff,
0.355961727931344,36.8882908628212,2000,2018-04-05 07:10:02,1775.129939604171,0.0,0.0,0.0390067012482144,1775.129939604171,0.0,0.0,0.0390067012482144,1024,0.0,100,Assisted_Takeoff,
0.35596172928335895,36.8882909006449,2200,2018-04-05 07:10:02,1775.129939604171,0.0,0.0,0.0432141013828512,1775.129939604171,0.0,0.0,0.0432141013828512,1024,0.0,100,Assisted_Takeoff,
0.35596173285840504,36.8882909082982,2300,2018-04-05 07:10:02,1775.129939604171,0.0,0.0,0.044089001410848004,1775.129939604171,0.0,0.0,0.044089001410848004,1024,0.0,100,Assisted_Takeoff,
0.35596173213334004,36.8882909120411,2400,2018-04-05 07:10:02,1775.129939604171,0.0,0.0,0.0444989014239648,1775.129939604171,0.0,0.0,0.0444989014239648,1024,0.0,100,Assisted_Takeoff,
0.355961736374826,36.8882909116236,2500,2018-04-05 07:10:02,1775.129939604171,0.0,0.0,0.0444862014235584,1775.129939604171,0.0,0.0,0.0444989014239648,1024,0.0,100,Assisted_Takeoff,
0.35596170407362104,36.8882909087869,2600,2018-04-05 07:10:02,1775.129939604171,0.0,0.0,0.044040701409302406,1775.129939604171,0.0,0.0,0.0444989014239648,1024,0.0,100,Assisted_Takeoff,
0.355961677810687,36.888290903953,2700,2018-04-05 07:10:02,1775.129939604171,0.0,0.0,0.0436137013956384,1775.129939604171,0.0,0.0,0.0444989014239648,1024,0.0,100,Assisted_Takeoff,
0.35596164862917495,36.888290898258,2800,2018-04-05 07:10:03,1775.129939604171,0.0,0.0,0.043337701386806406,1775.129939604171,0.0,0.0,0.0444989014239648,1024,0.0,100,Assisted_Takeoff,
0.355961633060639,36.888290889764,2900,2018-04-05 07:10:03,1775.129939604171,0.0,0.0,0.042697301366313604,1775.129939604171,0.0,0.0,0.0444989014239648,1024,0.0,100,Assisted_Takeoff,
0.355961618193353,36.8882908829892,3000,2018-04-05 07:10:03,1775.129939604171,0.0,0.0,0.042307501353839996,1775.129939604171,0.0,0.0,0.0444989014239648,1024,0.0,100,Assisted_Takeoff,
0.35596161187845,36.888290873578704,3100,2018-04-05 07:10:03,1775.129939604171,0.0,0.0,0.041461101326755206,1775.129939604171,0.0,0.0,0.0444989014239648,1024,0.0,100,Assisted_Takeoff,
0.355961606864471,36.8882908987711,3200,2018-04-05 07:10:03,1775.129939604171,0.0,0.0,0.04431300141801601,1775.129939604171,0.0,0.0,0.0444989014239648,1024,0.0,100,Assisted_Takeoff,
0.35596160718954994,36.888290918927495,3300,2018-04-05 07:10:03,1775.129939604171,0.0,0.0,0.04647920148733441,1775.129939604171,0.0,0.0,0.04647920148733441,1024,0.0,100,Assisted_Takeoff,
0.35596160734404797,36.888290942032704,3400,2018-04-05 07:10:03,1775.129939604171,0.0,0.0,0.048976001567232,1775.129939604171,0.0,0.0,0.048976001567232,1024,0.0,100,Assisted_Takeoff,
0.35596161292553996,36.8882909629987,3600,2018-04-05 07:10:03,1775.129939604171,0.0,0.0,0.05112220163591041,1775.129939604171,0.0,0.0,0.05112220163591041,1025,0.0,100,Assisted_Takeoff,
0.35596161831344997,36.8882909647814,3700,2018-04-05 07:10:03,1775.129939604171,0.0,0.0,0.05119920163837441,1775.129939604171,0.0,0.0,0.05119920163837441,1024,0.0,100,Assisted_Takeoff,
0.35596162071235204,36.888290999101,3800,2018-04-05 07:10:04,1775.129939604171,0.0,0.0,0.0549044017569408,1775.129939604171,0.0,0.0,0.0549044017569408,1024,0.0,100,Assisted_Takeoff,
0.355961627845344,36.8882910515089,4000,2018-04-05 07:10:04,1775.129939604171,0.0,0.0,0.0605349019371168,1775.129939604171,0.0,0.0,0.0605349019371168,1024,0.0,100,Assisted_Takeoff,
0.3559616330178929,36.8882910628866,4100,2018-04-05 07:10:04,1775.129939604171,0.0,0.0,0.061709301974697595,1775.129939604171,0.0,0.0,0.061709301974697595,1024,0.0,100,Assisted_Takeoff,
0.35596160239418895,36.8882910726671,4200,2018-04-05 07:10:04,1775.129939604171,0.0,0.0,0.0633167020261344,1775.129939604171,0.0,0.0,0.0633167020261344,1024,0.0,100,Assisted_Takeoff,
0.355961576803802,36.8882910727884,4300,2018-04-05 07:10:04,1775.129939604171,0.0,0.0,0.0639078020450496,1775.129939604171,0.0,0.0,0.0639078020450496,1024,0.0,100,Assisted_Takeoff,
0.355961548193466,36.888291072477706,4400,2018-04-05 07:10:04,1775.129939604171,0.0,0.0,0.0646628020692096,1775.129939604171,0.0,0.0,0.0646628020692096,1024,0.0,100,Assisted_Takeoff,
0.35596153297911703,36.888291065817796,4500,2018-04-05 07:10:04,1775.129939604171,0.0,0.0,0.0644344020619008,1775.129939604171,0.0,0.0,0.0646628020692096,1024,0.0,100,Assisted_Takeoff,
0.355961517782274,36.8882910608004,4600,2018-04-05 07:10:05,1775.129939604171,0.0,0.0,0.0644304020617728,1775.129939604171,0.0,0.0,0.0646628020692096,1024,0.0,100,Assisted_Takeoff,
0.355961497741218,36.8882910215968,5000,2018-04-05 07:10:05,1775.129939604171,0.0,0.0,0.06113130195620161,1775.129939604171,0.0,0.0,0.0646628020692096,1024,0.0,100,Assisted_Takeoff,
0.355961498584752,36.8882910072289,5100,2018-04-05 07:10:05,1775.129939604171,0.0,0.0,0.0596191019078112,1775.129939604171,0.0,0.0,0.0646628020692096,1074,0.0,100,Assisted_Takeoff,
0.355961501946674,36.888290989854,5300,2018-04-05 07:10:05,1775.129939604171,0.0,0.0,0.05769400184620801,1775.129939604171,0.0,0.0,0.0646628020692096,1137,0.0,100,Assisted_Takeoff,
0.3559615033314621,36.8882910193114,5400,2018-04-05 07:10:05,1775.129939604171,0.0,0.0,0.060662701941206404,1775.129939604171,0.0,0.0,0.0646628020692096,1158,0.0,100,Assisted_Takeoff,
0.355961505873464,36.8882910366468,5500,2018-04-05 07:10:05,1775.129939604171,0.0,0.0,0.062355601995379206,1775.129939604171,0.0,0.0,0.0646628020692096,1158,0.0,100,Assisted_Takeoff,
0.355961507342931,36.8882910637478,5600,2018-04-05 07:10:05,1775.129939604171,0.0,0.0,0.0651246020839872,1775.129939604171,0.0,0.0,0.0651246020839872,1204,0.0,100,Assisted_Takeoff,
0.35596151045549795,36.888291069625204,5700,2018-04-05 07:10:05,1775.129939604171,0.0,0.0,0.0656246020999872,1775.129939604171,0.0,0.0,0.0656246020999872,1204,0.0,100,Assisted_Takeoff,
0.355961511880793,36.8882910842262,5800,2018-04-05 07:10:06,1775.129939604171,0.0,0.0,0.0671078021474496,1775.129939604171,0.0,0.0,0.0671078021474496,1217,0.0,100,Assisted_Takeoff,
0.35596148576584397,36.888291086554496,6000,2018-04-05 07:10:06,1775.129939604171,0.0,0.0,0.0683381021868192,1775.129939604171,0.0,0.0,0.0683381021868192,1227,0.0,100,Assisted_Takeoff,
0.35596146081930297,36.8882910661182,6100,2018-04-05 07:10:06,1775.129939604171,0.0,0.0,0.06729550215345599,1775.129939604171,0.0,0.0,0.0683381021868192,1231,0.0,100,Assisted_Takeoff,
0.35596140899509104,36.8882910060669,6200,2018-04-05 07:10:06,1775.129939604171,0.0,0.35999970196000003,0.0640202020486464,1775.129939604171,0.0,0.35999970196000003,0.0683381021868192,1233,0.0,100,Assisted_Takeoff,
0.35596134660431294,36.8882909083811,6300,2018-04-05 07:10:06,1775.129939604171,0.0,0.35999970196000003,0.0594209019014688,1775.129939604171,0.0,0.35999970196000003,0.0683381021868192,1231,0.0,100,P-GPS,Home Point Recorded. RTH Altitude:  45m.
0.355961276740401,36.888290837002394,6400,2018-04-05 07:10:06,1775.129939604171,0.0,0.35999970196000003,0.059803001913696,1775.129939604171,0.0,0.35999970196000003,0.0683381021868192,1232,0.0,100,P-GPS,
0.355961209880969,36.8882907477893,6500,2018-04-05 07:10:06,1775.129939604171,0.0,0.503999582744,0.0610256019528192,1775.129939604171,0.0,0.503999582744,0.0683381021868192,1232,0.0,100,P-GPS,
0.355961130059937,36.8882906074662,6600,2018-04-05 07:10:06,1775.2299396073713,0.10000000320000002,0.503999582744,0.0648824020762368,1775.2299396073713,0.10000000320000002,0.503999582744,0.0683381021868192,1247,0.0,100,P-GPS,
0.3559610318955,36.8882904371661,6700,2018-04-05 07:10:06,1775.2299396073713,0.10000000320000002,0.503999582744,0.0754083024130656,1775.2299396073713,0.10000000320000002,0.503999582744,0.0754083024130656,1249,0.0,100,P-GPS,
0.35596092321172296,36.888290290964896,6800,2018-04-05 07:10:07,1775.3299396105713,0.20000000640000004,0.503999582744,0.09045220289447041,1775.3299396105713,0.20000000640000004,0.503999582744,0.09045220289447041,1245,0.0,100,P-GPS,
0.355960778920797,36.888290156270706,6900,2018-04-05 07:10:07,1775.4299396137712,0.3000000096,0.503999582744,0.11043100353379201,1775.4299396137712,0.3000000096,0.503999582744,0.11043100353379201,1249,0.0,100,P-GPS,
0.355960573028073,36.888290096477604,7000,2018-04-05 07:10:07,1775.4299396137712,0.3000000096,0.35999970196000003,0.13420400429452803,1775.4299396137712,0.3000000096,0.503999582744,0.13420400429452803,1234,0.0,100,P-GPS,
0.355960090118094,36.888290125253604,7200,2018-04-05 07:10:07,1775.6299396201712,0.500000016,0.35999970196000003,0.18476500591248,1775.6299396201712,0.500000016,0.503999582744,0.18476500591248,1242,0.0,100,P-GPS,
0.355959858077445,36.8882901384458,7300,2018-04-05 07:10:07,1775.7299396233711,0.6000000192,0.35999970196000003,0.209648006708736,1775.7299396233711,0.6000000192,0.503999582744,0.209648006708736,1233,0.0,100,P-GPS,
0.35595963744709996,36.8882901731956,7400,2018-04-05 07:10:07,1775.829939626571,0.7000000224000001,0.35999970196000003,0.233088007458816,1775.829939626571,0.7000000224000001,0.503999582744,0.233088007458816,1215,0.0,100,P-GPS,
0.355959316613608,36.8882901921089,7600,2018-04-05 07:10:07,1776.0299396329713,0.9000000288000001,0.35999970196000003,0.26807000857824,1776.0299396329713,0.9000000288000001,0.503999582744,0.26807000857824,1237,0.0,100,P-GPS,
0.35595921744350606,36.8882901788975,7700,2018-04-05 07:10:07,1776.1299396361712,1.000000032,0.0,0.27919600893427204,1776.1299396361712,1.000000032,0.503999582744,0.27919600893427204,1253,0.0,100,P-GPS,
0.35595911512775896,36.8882902542187,7800,2018-04-05 07:10:08,1776.2299396393712,1.1000000352,0.0,0.289526009264832,1776.2299396393712,1.1000000352,0.503999582744,0.289526009264832,1243,0.0,100,P-GPS,
0.355959013371026,36.8882903203433,7900,2018-04-05 07:10:08,1776.329939642571,1.2000000384,0.0,0.300174009605568,1776.329939642571,1.2000000384,0.503999582744,0.300174009605568,1239,0.0,100,P-GPS,
0.35595885914323205,36.888290349706004,8100,2018-04-05 07:10:08,1776.529939648971,1.4000000448000003,0.0,0.31708001014656,1776.529939648971,1.4000000448000003,0.503999582744,0.31708001014656,1237,0.0,100,P-GPS,
0.35595879325114704,36.8882903387079,8200,2018-04-05 07:10:08,1776.629939652171,1.5000000480000002,0.0,0.32446701038294395,1776.629939652171,1.5000000480000002,0.503999582744,0.32446701038294395,1262,0.0,100,P-GPS,
0.355958718789909,36.8882903218638,8300,2018-04-05 07:10:08,1776.729939655371,1.6000000512000003,0.0,0.33284701065110395,1776.729939655371,1.6000000512000003,0.503999582744,0.33284701065110395,1253,0.0,100,P-GPS,
0.3559586863328571,36.88829034468729,8400,2018-04-05 07:10:08,1776.8299396585712,1.7000000544000002,0.0,0.336299010761568,1776.8299396585712,1.7000000544000002,0.503999582744,0.336299010761568,1255,0.0,100,P-GPS,
0.35595865441337,36.8882903571421,8500,2018-04-05 07:10:08,1776.9299396617712,1.8000000576000001,0.0,0.33977001087264,1776.9299396617712,1.8000000576000001,0.503999582744,0.33977001087264,1275,0.0,100,P-GPS,
0.3559585404468089,36.888290423619104,8600,2018-04-05 07:10:08,1777.0299396649712,1.9000000607999998,0.0,0.352142011268544,1777.0299396649712,1.9000000607999998,0.503999582744,0.352142011268544,1263,0.0,100,P-GPS,
0.355958413210784,36.8882904807229,8700,2018-04-05 07:10:08,1777.1299396681711,2.000000064,0.0,0.366169011717408,1777.1299396681711,2.000000064,0.503999582744,0.366169011717408,1264,0.0,100,P-GPS,
0.35595826270366,36.888290583974104,8800,2018-04-05 07:10:09,1777.2299396713713,2.1000000672,0.0,0.382971012255072,1777.2299396713713,2.1000000672,0.503999582744,0.382971012255072,1257,-0.3,100,P-GPS,
0.355958138531498,36.8882906733204,8900,2018-04-05 07:10:09,1777.329939674571,2.2000000704,0.0,0.3971000127072,1777.329939674571,2.2000000704,0.503999582744,0.3971000127072,1267,-1.3,100,P-GPS,
0.3559580293196721,36.8882908204519,9000,2018-04-05 07:10:09,1777.429939677771,2.3000000736,0.0,0.41027201312870404,1777.429939677771,2.3000000736,0.503999582744,0.41027201312870404,1271,-2.9,100,P-GPS,
0.355957948010089,36.888290963664495,9100,2018-04-05 07:10:09,1777.5299396809712,2.4000000768,0.35999970196000003,0.42088301346825613,1777.5299396809712,2.4000000768,0.503999582744,0.42088301346825613,1270,-2.9,100,P-GPS,
0.355957896574057,36.8882911505373,9200,2018-04-05 07:10:09,1777.7299396873711,2.6000000832000003,0.35999970196000003,0.429502013744064,1777.7299396873711,2.6000000832000003,0.503999582744,0.429502013744064,1267,-4.3,100,P-GPS,
0.35595786064900503,36.8882913212778,9300,2018-04-05 07:10:09,1777.829939690571,2.7000000863999998,0.35999970196000003,0.436951013982432,1777.829939690571,2.7000000863999998,0.503999582744,0.436951013982432,1273,-5.8,100,P-GPS,
0.355957847402834,36.888291530381,9400,2018-04-05 07:10:09,1777.9299396937713,2.8000000896000006,0.35999970196000003,0.4437450141998401,1777.9299396937713,2.8000000896000006,0.503999582744,0.4437450141998401,1265,-7.5,100,P-GPS,
0.35595784431611893,36.8882917073865,9500,2018-04-05 07:10:09,1778.0299396969713,2.9000000928,0.35999970196000003,0.449497014383904,1778.0299396969713,2.9000000928,0.503999582744,0.449497014383904,1270,-9.2,100,P-GPS,
0.355957855801229,36.888291906738296,9600,2018-04-05 07:10:09,1778.1299397001712,3.0000000960000004,0.35999970196000003,0.455339014570848,1778.1299397001712,3.0000000960000004,0.503999582744,0.455339014570848,1269,-10.9,100,P-GPS,
0.355957877147891,36.888292058492,9700,2018-04-05 07:10:09,1778.229939703371,3.1000000992,0.0,0.45915501469296005,1778.229939703371,3.1000000992,0.503999582744,0.45915501469296005,1274,-12.6,100,P-GPS,
0.355957881419961,36.8882921886127,9800,2018-04-05 07:10:10,1778.3299397065712,3.2000001024000007,0.0,0.46433001485856007,1778.3299397065712,3.2000001024000007,0.503999582744,0.46433001485856007,1275,-12.6,100,P-GPS,
0.355957873675183,36.8882922752693,9900,2018-04-05 07:10:10,1778.529939712971,3.4000001088000005,0.0,0.4690640150100481,1778.529939712971,3.4000001088000005,0.503999582744,0.4690640150100481,1271,-16.2,100,P-GPS,
0.35595783735217995,36.8882923918624,10000,2018-04-05 07:10:10,1778.629939716171,3.500000112,0.0,0.47825801530425605,1778.629939716171,3.500000112,0.503999582744,0.47825801530425605,1279,-17.5,100,P-GPS,
0.3559577943588161,36.888292502350296,10100,2018-04-05 07:10:10,1778.7299397193713,3.6000001152000003,0.35999970196000003,0.48800901561628807,1778.7299397193713,3.6000001152000003,0.503999582744,0.48800901561628807,1272,-17.5,100,P-GPS,
0.355957718758659,36.8882928108726,10300,2018-04-05 07:10:10,1778.9299397257712,3.8000001215999997,0.0,0.5117580163762561,1778.9299397257712,3.8000001215999997,0.503999582744,0.5117580163762561,1277,-17.5,100,P-GPS,
0.35595769219532797,36.888292976318205,10400,2018-04-05 07:10:10,1779.1299397321711,4.000000128,0.35999970196000003,0.523704016758528,1779.1299397321711,4.000000128,0.503999582744,0.523704016758528,1281,-17.5,100,P-GPS,
0.35595768723809,36.888293124804,10500,2018-04-05 07:10:10,1779.229939735371,4.100000131200001,0.35999970196000003,0.5329900170556799,1779.229939735371,4.100000131200001,0.503999582744,0.5329900170556799,1290,-17.5,100,P-GPS,
0.355957684744688,36.888293505372,10700,2018-04-05 07:10:10,1779.429939741771,4.3000001376,0.0,0.5574080178370561,1779.429939741771,4.3000001376,0.503999582744,0.5574080178370561,1302,-17.5,100,P-GPS,
0.355957701684678,36.8882936765626,10800,2018-04-05 07:10:11,1779.5299397449712,4.4000001408,0.0,0.567499018159968,1779.5299397449712,4.4000001408,0.503999582744,0.567499018159968,1296,-17.5,100,P-GPS,
0.3559577225019939,36.8882937934329,10900,2018-04-05 07:10:11,1779.7299397513711,4.6000001472,0.0,0.573858018363456,1779.7299397513711,4.6000001472,0.503999582744,0.573858018363456,1288,-17.5,100,P-GPS,
0.35595774494933097,36.8882939170685,11000,2018-04-05 07:10:11,1779.8299397545713,4.700000150400001,0.0,0.5808000185856,1779.8299397545713,4.700000150400001,0.503999582744,0.5808000185856,1301,-17.5,100,P-GPS,
0.35595777041219,36.8882940772454,11200,2018-04-05 07:10:11,1780.129939764171,5.00000016,0.0,0.590462018894784,1780.129939764171,5.00000016,0.503999582744,0.590462018894784,1307,-17.5,100,P-GPS,
0.355957791505069,36.8882941209522,11300,2018-04-05 07:10:11,1780.2299397673712,5.1000001632,0.35999970196000003,0.5920090189442879,1780.2299397673712,5.1000001632,0.503999582744,0.5920090189442879,1319,-17.5,100,P-GPS,
0.355957831897401,36.888294214142604,11400,2018-04-05 07:10:11,1780.3299397705712,5.200000166400001,0.0,0.5958260190664321,1780.3299397705712,5.200000166400001,0.503999582744,0.5958260190664321,1326,-17.5,100,P-GPS,
0.35595787309296295,36.8882943187427,11600,2018-04-05 07:10:11,1780.6299397801713,5.500000176000001,0.0,0.6006610192211521,1780.6299397801713,5.500000176000001,0.503999582744,0.6006610192211521,1325,-17.5,100,P-GPS,
0.35595786348773906,36.8882943217735,11700,2018-04-05 07:10:11,1780.829939786571,5.7000001824,0.0,0.6016560192529921,1780.829939786571,5.7000001824,0.503999582744,0.6016560192529921,1325,-17.5,100,P-GPS,
0.3559578216314361,36.8882943754613,11800,2018-04-05 07:10:12,1780.929939789771,5.8000001856,0.0,0.6091660194933121,1780.929939789771,5.8000001856,0.503999582744,0.6091660194933121,1324,-17.5,100,P-GPS,
0.35595777121964395,36.8882943990859,11900,2018-04-05 07:10:12,1781.1299397961711,6.000000192000001,0.0,0.6149970196799041,1781.1299397961711,6.000000192000001,0.503999582744,0.6149970196799041,1326,-17.5,100,P-GPS,
0.35595772436747797,36.88829446553729,12000,2018-04-05 07:10:12,1781.229939799371,6.1000001952,0.0,0.623899019964768,1781.229939799371,6.1000001952,0.503999582744,0.623899019964768,1326,-17.5,100,P-GPS,
0.35595768181420095,36.8882944975069,12100,2018-04-05 07:10:12,1781.4299398057713,6.300000201600001,0.0,0.6297620201523839,1781.4299398057713,6.300000201600001,0.503999582744,0.6297620201523839,1326,-17.5,100,P-GPS,
0.355957630832708,36.8882945501715,12200,2018-04-05 07:10:12,1781.6299398121712,6.500000208,0.0,0.637912020413184,1781.6299398121712,6.500000208,0.503999582744,0.637912020413184,1325,-17.5,100,P-GPS,
0.35595758318688,36.888294564915206,12300,2018-04-05 07:10:12,1781.729939815371,6.6000002112,0.0,0.64283502057072,1781.729939815371,6.6000002112,0.503999582744,0.64283502057072,1325,-17.5,100,P-GPS,
0.35595756041889204,36.8882946237116,12400,2018-04-05 07:10:12,1781.929939821771,6.800000217600001,0.0,0.6492300207753601,1781.929939821771,6.800000217600001,0.503999582744,0.6492300207753601,1324,-17.5,100,P-GPS,
0.35595752729389796,36.8882947187301,12600,2018-04-05 07:10:12,1782.2299398313712,7.100000227200002,0.0,0.659304021097728,1782.2299398313712,7.100000227200002,0.503999582744,0.659304021097728,1326,-17.5,100,P-GPS,
0.355957502029709,36.8882947508763,12700,2018-04-05 07:10:12,1782.4299398377711,7.3000002336000005,0.0,0.663821021242272,1782.4299398377711,7.3000002336000005,0.503999582744,0.663821021242272,1327,-17.6,100,P-GPS,
0.35595749435943297,36.8882948204601,12800,2018-04-05 07:10:13,1782.5299398409713,7.4000002368,0.0,0.669933021437856,1782.5299398409713,7.4000002368,0.503999582744,0.669933021437856,1325,-17.6,100,P-GPS,
0.355957488203405,36.8882948506704,12900,2018-04-05 07:10:13,1782.729939847371,7.600000243199999,0.0,0.6728160215301122,1782.729939847371,7.600000243199999,0.503999582744,0.6728160215301122,1325,-17.7,100,P-GPS,
0.355957503718711,36.8882949488771,13000,2018-04-05 07:10:13,1782.9299398537712,7.8000002496,0.0,0.6795010217440322,1782.9299398537712,7.8000002496,0.503999582744,0.6795010217440322,1326,-17.9,100,P-GPS,
0.355957528906668,36.8882950114511,13100,2018-04-05 07:10:13,1783.0299398569712,7.9000002528,0.0,0.6826610218451521,1783.0299398569712,7.9000002528,0.503999582744,0.6826610218451521,1324,-18.0,100,P-GPS,
0.355957546072707,36.8882951154757,13200,2018-04-05 07:10:13,1783.229939863371,8.1000002592,0.0,0.689901022076832,1783.229939863371,8.1000002592,0.503999582744,0.689901022076832,1324,-18.3,99,P-GPS,
0.355957568236848,36.888295174758895,13300,2018-04-05 07:10:13,1783.3299398665713,8.200000262400001,0.0,0.6931680221813761,1783.3299398665713,8.200000262400001,0.503999582744,0.6931680221813761,1326,-18.6,99,P-GPS,
0.355957627926648,36.8882952572554,13400,2018-04-05 07:10:13,1783.529939872971,8.4000002688,0.0,0.695711022262752,1783.529939872971,8.4000002688,0.503999582744,0.695711022262752,1326,-18.6,99,P-GPS,
0.35595770306005203,36.888295278608204,13500,2018-04-05 07:10:13,1783.7299398793712,8.6000002752,0.0,0.69211002214752,1783.7299398793712,8.6000002752,0.503999582744,0.695711022262752,1326,-19.0,99,P-GPS,
0.355957783714746,36.888295332420704,13600,2018-04-05 07:10:13,1783.8299398825711,8.700000278400001,0.0,0.691007022112224,1783.8299398825711,8.700000278400001,0.503999582744,0.695711022262752,1325,-19.3,99,P-GPS,
0.355957839972753,36.8882953281386,13700,2018-04-05 07:10:14,1784.029939888971,8.9000002848,0.0,0.686704021974528,1784.029939888971,8.9000002848,0.503999582744,0.695711022262752,1326,-20.1,99,P-GPS,
0.35595778894210206,36.888295284376895,13900,2018-04-05 07:10:14,1784.3299398985712,9.2000002944,0.0,0.6865030219680961,1784.3299398985712,9.2000002944,0.503999582744,0.695711022262752,1326,-20.5,99,P-GPS,
0.35595774090315707,36.88829527649,14000,2018-04-05 07:10:14,1784.5299399049711,9.400000300800002,0.0,0.68923002205536,1784.5299399049711,9.400000300800002,0.503999582744,0.695711022262752,1326,-20.9,99,P-GPS,
0.355957708611214,36.888295240674,14100,2018-04-05 07:10:14,1784.629939908171,9.500000304,0.0,0.6884870220315841,1784.629939908171,9.500000304,0.503999582744,0.695711022262752,1325,-21.6,99,P-GPS,
0.35595766821104496,36.8882952992809,14300,2018-04-05 07:10:14,1784.9299399177712,9.8000003136,0.0,0.69636502228368,1784.9299399177712,9.8000003136,0.503999582744,0.69636502228368,1326,-22.0,99,P-GPS,
0.355957619928342,36.8882953933195,14400,2018-04-05 07:10:14,1785.1299399241711,10.00000032,0.0,0.7078250226504001,1785.1299399241711,10.00000032,0.503999582744,0.7078250226504001,1326,-22.4,99,P-GPS,
0.355957567096021,36.8882954427797,14500,2018-04-05 07:10:14,1785.329939930571,10.2000003264,0.0,0.71581502290608,1785.329939930571,10.2000003264,0.503999582744,0.71581502290608,1326,-22.8,99,P-GPS,
0.35595749879093797,36.888295539249604,14600,2018-04-05 07:10:14,1785.529939936971,10.400000332800001,0.35999970196000003,0.728916023325312,1785.529939936971,10.400000332800001,0.503999582744,0.728916023325312,1325,-23.2,99,P-GPS,
0.355957427703047,36.8882955855915,14700,2018-04-05 07:10:14,1785.6299399401712,10.500000336,0.0,0.737947023614304,1785.6299399401712,10.500000336,0.503999582744,0.737947023614304,1325,-23.5,99,P-GPS,
0.355957364702925,36.8882957050279,14800,2018-04-05 07:10:15,1785.8299399465711,10.700000342400001,0.0,0.7526230240839361,1785.8299399465711,10.700000342400001,0.503999582744,0.7526230240839361,1317,-23.5,99,P-GPS,
0.355957315388756,36.8882957802065,14900,2018-04-05 07:10:15,1786.0299399529713,10.9000003488,0.0,0.762556024401792,1786.0299399529713,10.9000003488,0.503999582744,0.762556024401792,1318,-23.9,99,P-GPS,
0.355957270443091,36.888295893049296,15000,2018-04-05 07:10:15,1786.229939959371,11.1000003552,0.0,0.775407024813024,1786.229939959371,11.1000003552,0.503999582744,0.775407024813024,1316,-24.3,99,P-GPS,
0.35595721009774,36.8882960890428,15200,2018-04-05 07:10:15,1786.5299399689711,11.4000003648,0.0,0.79654002548928,1786.5299399689711,11.4000003648,0.503999582744,0.79654002548928,1312,-25.2,99,P-GPS,
0.35595719366043,36.8882961709295,15300,2018-04-05 07:10:15,1786.7299399753713,11.6000003712,0.0,0.8047880257532161,1786.7299399753713,11.6000003712,0.503999582744,0.8047880257532161,1307,-25.7,99,P-GPS,
0.35595714750289703,36.8882962723049,15400,2018-04-05 07:10:15,1786.9299399817712,11.8000003776,0.0,0.8168080261378561,1786.9299399817712,11.8000003776,0.503999582744,0.8168080261378561,1309,-26.6,99,P-GPS,
0.35595709248255797,36.8882964169375,15600,2018-04-05 07:10:15,1787.229939991371,12.1000003872,0.0,0.8332330266634561,1787.229939991371,12.1000003872,0.503999582744,0.8332330266634561,1309,-27.1,99,P-GPS,
0.35595708815903904,36.8882964681945,15700,2018-04-05 07:10:15,1787.429939997771,12.300000393600001,0.0,0.8380260268168321,1787.429939997771,12.300000393600001,0.503999582744,0.8380260268168321,1310,-27.6,99,P-GPS,
0.35595709912264006,36.8882965491798,15800,2018-04-05 07:10:16,1787.6299400041712,12.500000400000001,0.0,0.844421027021472,1787.6299400041712,12.500000400000001,0.503999582744,0.844421027021472,1319,-27.6,99,P-GPS,
0.355957112864163,36.88829658320179,15900,2018-04-05 07:10:16,1787.7299400073712,12.600000403200003,0.0,0.846509027088288,1787.7299400073712,12.600000403200003,0.503999582744,0.846509027088288,1308,-28.4,99,P-GPS,
0.35595711143561,36.88829666322621,16000,2018-04-05 07:10:16,1787.9299400137713,12.800000409600003,0.0,0.853717027318944,1787.9299400137713,12.800000409600003,0.503999582744,0.853717027318944,1306,-28.7,99,P-GPS,
0.35595710085927396,36.888296691074096,16100,2018-04-05 07:10:16,1788.029940016971,12.900000412799999,0.0,0.856903027420896,1788.029940016971,12.900000412799999,0.503999582744,0.856903027420896,1307,-29.0,99,P-GPS,
0.35595712087315606,36.8882967481995,16200,2018-04-05 07:10:16,1788.229940023371,13.100000419199999,0.0,0.8606840275418879,1788.229940023371,13.100000419199999,0.503999582744,0.8606840275418879,1307,-29.0,99,P-GPS,
0.35595715121717403,36.8882967542329,16300,2018-04-05 07:10:16,1788.4299400297712,13.3000004256,0.0,0.8592310274953923,1788.4299400297712,13.3000004256,0.503999582744,0.8606840275418879,1311,-29.2,99,P-GPS,
0.35595718837409296,36.8882967937315,16400,2018-04-05 07:10:16,1788.5299400329711,13.4000004288,0.0,0.8603640275316479,1788.5299400329711,13.4000004288,0.503999582744,0.8606840275418879,1304,-29.2,99,P-GPS,
0.355957213901174,36.8882967814785,16500,2018-04-05 07:10:16,1788.7299400393713,13.600000435200002,0.0,0.8576020274432641,1788.7299400393713,13.600000435200002,0.503999582744,0.8606840275418879,1312,-29.2,99,P-GPS,
0.35595725456230104,36.8882968249538,16600,2018-04-05 07:10:16,1788.929940045771,13.8000004416,0.0,0.8589220274855041,1788.929940045771,13.8000004416,0.503999582744,0.8606840275418879,1326,-29.2,99,P-GPS,
0.355957280953068,36.8882968107417,16700,2018-04-05 07:10:16,1789.0299400489712,13.9000004448,0.35999970196000003,0.8559410273901121,1789.0299400489712,13.9000004448,0.503999582744,0.8606840275418879,1327,-29.2,99,P-GPS,
0.35595732824786497,36.8882968190816,16800,2018-04-05 07:10:17,1789.2299400553711,14.100000451200001,0.35999970196000003,0.85369002731808,1789.2299400553711,14.100000451200001,0.503999582744,0.8606840275418879,1331,-29.2,99,P-GPS,
0.355957359370178,36.888296788011296,17000,2018-04-05 07:10:17,1789.6299400681712,14.500000464,0.35999970196000003,0.8488780271640961,1789.6299400681712,14.500000464,0.503999582744,0.8606840275418879,1334,-29.2,99,P-GPS,
0.355957325623933,36.88829673106729,17100,2018-04-05 07:10:17,1789.729940071371,14.600000467200001,0.35999970196000003,0.8458360270667521,1789.729940071371,14.600000467200001,0.503999582744,0.8606840275418879,1334,-29.2,99,P-GPS,
0.355957284249446,36.888296738153,17200,2018-04-05 07:10:17,1789.929940077771,14.8000004736,0.35999970196000003,0.8491360271723521,1789.929940077771,14.8000004736,0.503999582744,0.8606840275418879,1325,-29.2,99,P-GPS,
0.35595724356440095,36.888296726457796,17300,2018-04-05 07:10:17,1790.129940084171,15.00000048,0.35999970196000003,0.8507070272226241,1790.129940084171,15.00000048,0.503999582744,0.8606840275418879,1326,-29.2,99,P-GPS,
0.35595719156401096,36.8882967988484,17400,2018-04-05 07:10:17,1790.3299400905712,15.200000486399999,0.35999970196000003,0.860619027539808,1790.3299400905712,15.200000486399999,0.503999582744,0.8606840275418879,1329,-29.2,99,P-GPS,
0.355957136271926,36.888296856581995,17500,2018-04-05 07:10:17,1790.529940096971,15.4000004928,0.0,0.8694210278214721,1790.529940096971,15.4000004928,0.503999582744,0.8694210278214721,1326,-29.2,99,P-GPS,
0.35595711048694,36.8882969714019,17600,2018-04-05 07:10:17,1790.729940103371,15.6000004992,0.0,0.881473028207136,1790.729940103371,15.6000004992,0.503999582744,0.881473028207136,1323,-29.2,99,P-GPS,
0.3559570835018929,36.8882970362453,17700,2018-04-05 07:10:18,1790.9299401097712,15.8000005056,0.0,0.88909002845088,1790.9299401097712,15.8000005056,0.503999582744,0.88909002845088,1319,-29.2,99,P-GPS,
0.35595696118671605,36.8882972354053,17900,2018-04-05 07:10:18,1791.2299401193711,16.1000005152,0.0,0.9150260292808321,1791.2299401193711,16.1000005152,0.503999582744,0.9150260292808321,1311,-29.2,99,P-GPS,
0.35595684645316794,36.8882973701094,18000,2018-04-05 07:10:18,1791.4299401257713,16.3000005216,0.0,0.934624029907968,1791.4299401257713,16.3000005216,0.503999582744,0.934624029907968,1306,-29.3,99,P-GPS,
0.35595672884297297,36.8882974410461,18100,2018-04-05 07:10:18,1791.629940132171,16.500000528,0.0,0.9486410303565121,1791.629940132171,16.500000528,0.503999582744,0.9486410303565121,1302,-29.3,99,P-GPS,
0.35595655980275104,36.8882975510318,18200,2018-04-05 07:10:18,1791.8299401385711,16.7000005344,0.35999970196000003,0.969577031026464,1791.8299401385711,16.7000005344,0.503999582744,0.969577031026464,1304,-29.3,99,P-GPS,
0.355956395889481,36.8882976055921,18300,2018-04-05 07:10:18,1792.029940144971,16.900000540799997,0.503999582744,0.9852960315294721,1792.029940144971,16.900000540799997,0.503999582744,0.9852960315294721,1306,-29.4,99,P-GPS,
0.35595626845640993,36.8882977227026,18400,2018-04-05 07:10:18,1792.1299401481713,17.000000544000002,0.35999970196000003,1.00422003213504,1792.1299401481713,17.000000544000002,0.503999582744,1.00422003213504,1306,-29.5,99,P-GPS,
0.35595616441105205,36.88829779092261,18500,2018-04-05 07:10:18,1792.3299401545712,17.2000005504,0.0,1.0172500325520002,1792.3299401545712,17.2000005504,0.503999582744,1.0172500325520002,1288,-29.5,99,P-GPS,
0.35595604569321,36.8882978895589,18600,2018-04-05 07:10:18,1792.5299401609711,17.400000556800002,0.0,1.0339900330876801,1792.5299401609711,17.400000556800002,0.503999582744,1.0339900330876801,1265,-29.6,99,P-GPS,
0.355955926057129,36.8882979388358,18700,2018-04-05 07:10:18,1792.629940164171,17.50000056,0.0,1.04646003348672,1792.629940164171,17.50000056,0.503999582744,1.04646003348672,1242,-29.7,99,P-GPS,
0.35595576779415294,36.8882980236003,18800,2018-04-05 07:10:19,1792.829940170571,17.700000566400004,0.0,1.0647400340716802,1792.829940170571,17.700000566400004,0.503999582744,1.0647400340716802,1184,-29.7,99,P-GPS,
0.35595563097412103,36.8882980646738,18900,2018-04-05 07:10:19,1792.9299401737712,17.8000005696,0.0,1.0778000344896,1792.9299401737712,17.8000005696,0.503999582744,1.0778000344896,1184,-29.7,99,P-GPS,
0.35595551798372,36.8882981612657,19000,2018-04-05 07:10:19,1793.0299401769712,17.9000005728,0.0,1.09404003500928,1793.0299401769712,17.9000005728,0.503999582744,1.09404003500928,1092,-29.7,99,P-GPS,
0.35595543852684797,36.888298217581294,19100,2018-04-05 07:10:19,1793.1299401801712,18.000000575999998,0.0,1.1044700353430401,1793.1299401801712,18.000000575999998,0.503999582744,1.1044700353430401,1092,-29.7,99,P-GPS,
0.35595538488610706,36.8882983724913,19200,2018-04-05 07:10:19,1793.2299401833714,18.100000579200003,0.0,1.12162003589184,1793.2299401833714,18.100000579200003,0.503999582744,1.12162003589184,1180,-29.7,99,P-GPS,
0.35595534398732903,36.8882984719653,19300,2018-04-05 07:10:19,1793.3299401865713,18.2000005824,0.0,1.1331000362591999,1793.3299401865713,18.2000005824,0.503999582744,1.1331000362591999,1180,-29.7,99,P-GPS,
0.355955285030735,36.888298601634396,19400,2018-04-05 07:10:19,1793.3299401865713,18.2000005824,0.0,1.14846003675072,1793.3299401865713,18.2000005824,0.503999582744,1.14846003675072,1248,-29.7,99,P-GPS,
0.35595524318053795,36.888298674533,19500,2018-04-05 07:10:19,1793.429940189771,18.3000005856,0.0,1.1577000370464001,1793.429940189771,18.3000005856,0.503999582744,1.1577000370464001,1249,-29.7,99,P-GPS,
0.35595515061632105,36.8882988196648,19600,2018-04-05 07:10:19,1793.529940192971,18.4000005888,0.0,1.176750037656,1793.529940192971,18.4000005888,0.503999582744,1.176750037656,1245,-29.7,99,P-GPS,
0.35595506590181497,36.8882989154891,19700,2018-04-05 07:10:19,1793.6299401961712,18.500000592000003,0.0,1.1909500381104001,1793.6299401961712,18.500000592000003,0.503999582744,1.1909500381104001,1247,-29.7,99,P-GPS,
0.35595497538312704,36.888299054044204,19800,2018-04-05 07:10:20,1793.7299401993712,18.6000005952,0.0,1.20928003869696,1793.7299401993712,18.6000005952,0.503999582744,1.20928003869696,1260,-29.7,99,P-GPS,
0.35595492028024606,36.8882991250424,19900,2018-04-05 07:10:20,1793.9299402057711,18.800000601600004,0.35999970196000003,1.2192700390166402,1793.9299402057711,18.800000601600004,0.503999582744,1.2192700390166402,1255,-29.7,99,P-GPS,
0.3559548866720121,36.8882992355666,20000,2018-04-05 07:10:20,1794.0299402089713,18.900000604800002,0.0,1.2312500394,1794.0299402089713,18.900000604800002,0.503999582744,1.2312500394,1246,-29.7,99,P-GPS,
0.35595487643764795,36.888299301291106,20100,2018-04-05 07:10:20,1794.1299402121713,19.000000608,0.0,1.23771003960672,1794.1299402121713,19.000000608,0.503999582744,1.23771003960672,1245,-29.7,99,P-GPS,
0.35595484955529494,36.8882994227386,20200,2018-04-05 07:10:20,1794.229940215371,19.1000006112,0.0,1.25023004000736,1794.229940215371,19.1000006112,0.503999582744,1.25023004000736,1252,-29.7,99,P-GPS,
0.35595486638648494,36.8882994605906,20300,2018-04-05 07:10:20,1794.329940218571,19.2000006144,0.35999970196000003,1.2524300400777602,1794.329940218571,19.2000006144,0.503999582744,1.2524300400777602,1254,-29.7,99,P-GPS,
0.355954901722498,36.888299528310206,20400,2018-04-05 07:10:20,1794.5299402249711,19.4000006208,0.35999970196000003,1.2560500401936001,1794.5299402249711,19.4000006208,0.503999582744,1.2560500401936001,1270,-29.5,99,P-GPS,
0.35595495036900604,36.888299531651,20500,2018-04-05 07:10:20,1794.629940228171,19.500000624000002,0.35999970196000003,1.25309004009888,1794.629940228171,19.500000624000002,0.503999582744,1.2560500401936001,1263,-28.2,99,P-GPS,
0.35595500079662395,36.888299581255495,20600,2018-04-05 07:10:20,1794.729940231371,19.6000006272,0.35999970196000003,1.25417004013344,1794.729940231371,19.6000006272,0.503999582744,1.2560500401936001,1256,-27.0,99,P-GPS,
0.355955057721733,36.88829957244771,20700,2018-04-05 07:10:20,1794.9299402377712,19.800000633599996,0.35999970196000003,1.2496300399881601,1794.9299402377712,19.800000633599996,0.503999582744,1.2560500401936001,1259,-27.0,99,P-GPS,
0.355955126975589,36.8882996622568,20800,2018-04-05 07:10:21,1795.029940240971,19.900000636800005,0.35999970196000003,1.25318004010176,1795.029940240971,19.900000636800005,0.503999582744,1.2560500401936001,1258,-25.7,99,P-GPS,
0.35595521196998403,36.8882997079473,20900,2018-04-05 07:10:21,1795.129940244171,20.00000064,0.503999582744,1.25184004005888,1795.129940244171,20.00000064,0.503999582744,1.2560500401936001,1252,-25.7,99,P-GPS,
0.355955290090107,36.88829983885879,21000,2018-04-05 07:10:21,1795.329940250571,20.200000646400003,0.0,1.2588100402819202,1795.329940250571,20.200000646400003,0.503999582744,1.2588100402819202,1249,-23.4,99,P-GPS,
0.35595535916340904,36.8882999238546,21100,2018-04-05 07:10:21,1795.429940253771,20.3000006496,0.0,1.2623000403936,1795.429940253771,20.3000006496,0.503999582744,1.2623000403936,1251,-23.4,99,P-GPS,
0.355955380309975,36.888300106463106,21200,2018-04-05 07:10:21,1795.5299402569713,20.4000006528,0.0,1.27789004089248,1795.5299402569713,20.4000006528,0.503999582744,1.27789004089248,1252,-23.4,99,P-GPS,
0.35595539439581203,36.888300234356706,21300,2018-04-05 07:10:21,1795.6299402601712,20.500000655999997,0.0,1.28893004124576,1795.6299402601712,20.500000655999997,0.503999582744,1.28893004124576,1256,-23.4,99,P-GPS,
0.355955376374026,36.888300451195896,21400,2018-04-05 07:10:21,1795.7299402633712,20.600000659200003,0.0,1.3103000419296,1795.7299402633712,20.600000659200003,0.503999582744,1.3103000419296,1254,-23.3,99,P-GPS,
0.35595536006210604,36.888300598288495,21500,2018-04-05 07:10:21,1795.9299402697714,20.800000665600002,0.0,1.3250900424028802,1795.9299402697714,20.800000665600002,0.503999582744,1.3250900424028802,1254,-23.0,99,P-GPS,
0.35595531511176,36.8883007948271,21600,2018-04-05 07:10:21,1796.029940272971,20.900000668800004,0.0,1.34627004308064,1796.029940272971,20.900000668800004,0.503999582744,1.34627004308064,1251,-22.7,99,P-GPS,
0.35595527722601006,36.8883009188537,21700,2018-04-05 07:10:21,1796.129940276171,21.000000672,0.0,1.3602100435267201,1796.129940276171,21.000000672,0.503999582744,1.3602100435267201,1249,-22.5,99,P-GPS,
0.355955233707676,36.8883011231825,21800,2018-04-05 07:10:22,1796.229940279371,21.1000006752,0.0,1.3821100442275203,1796.229940279371,21.1000006752,0.503999582744,1.3821100442275203,1248,-22.2,99,P-GPS,
0.35595521097785493,36.8883012597821,21900,2018-04-05 07:10:22,1796.3299402825712,21.2000006784,0.0,1.39641004468512,1796.3299402825712,21.2000006784,0.503999582744,1.39641004468512,1252,-22.2,99,P-GPS,
0.355955232673614,36.8883014641495,22000,2018-04-05 07:10:22,1796.4299402857712,21.300000681600004,0.0,1.41468004526976,1796.4299402857712,21.300000681600004,0.503999582744,1.41468004526976,1254,-22.1,99,P-GPS,
0.355955262193029,36.8883016016109,22100,2018-04-05 07:10:22,1796.5299402889711,21.400000684800002,0.0,1.42621004563872,1796.5299402889711,21.400000684800002,0.503999582744,1.42621004563872,1255,-21.8,99,P-GPS,
0.35595529025926204,36.888301803223705,22200,2018-04-05 07:10:22,1796.629940292171,21.500000688,0.0,1.44409004621088,1796.629940292171,21.500000688,0.503999582744,1.44409004621088,1258,-21.5,99,P-GPS,
0.35595531132114905,36.888301944972895,22300,2018-04-05 07:10:22,1796.7299402953713,21.600000691199998,0.0,1.45667004661344,1796.7299402953713,21.600000691199998,0.503999582744,1.45667004661344,1260,-21.1,99,P-GPS,
0.355955296993081,36.8883021308339,22400,2018-04-05 07:10:22,1796.929940301771,21.8000006976,0.0,1.47551004721632,1796.929940301771,21.8000006976,0.503999582744,1.47551004721632,1265,-21.0,99,P-GPS,
0.3559552809797771,36.8883022338221,22500,2018-04-05 07:10:22,1797.029940304971,21.900000700799996,0.0,1.48641004756512,1797.029940304971,21.900000700799996,0.503999582744,1.48641004756512,1264,-21.0,99,P-GPS,
0.3559552908835661,36.8883023472005,22600,2018-04-05 07:10:22,1797.1299403081712,22.000000704000005,0.35999970196000003,1.4969500479024,1797.1299403081712,22.000000704000005,0.503999582744,1.4969500479024,1270,-21.0,99,P-GPS,
0.355955349255141,36.8883023558381,22700,2018-04-05 07:10:22,1797.2299403113711,22.1000007072,0.503999582744,1.49471004783072,1797.2299403113711,22.1000007072,0.503999582744,1.4969500479024,1284,-21.0,99,P-GPS,
0.355955440923511,36.8883023786835,22800,2018-04-05 07:10:23,1797.329940314571,22.2000007104,0.503999582744,1.4921600477491201,1797.329940314571,22.2000007104,0.503999582744,1.4969500479024,1303,-21.0,99,P-GPS,
0.355955542680701,36.888302354857395,22900,2018-04-05 07:10:23,1797.429940317771,22.3000007136,0.503999582744,1.4845600475059202,1797.429940317771,22.3000007136,0.503999582744,1.4969500479024,1313,-21.0,99,P-GPS,
0.35595565022904607,36.8883023652144,23000,2018-04-05 07:10:23,1797.6299403241712,22.50000072,0.503999582744,1.48011004736352,1797.6299403241712,22.50000072,0.503999582744,1.4969500479024,1324,-21.0,99,P-GPS,
0.355955730483448,36.888302329177,23100,2018-04-05 07:10:23,1797.729940327371,22.6000007232,0.35999970196000003,1.4724900471196802,1797.729940327371,22.6000007232,0.503999582744,1.4969500479024,1351,-21.0,99,P-GPS,
0.355955834735211,36.8883023030073,23300,2018-04-05 07:10:23,1798.129940340171,23.000000735999997,0.35999970196000003,1.46469004687008,1798.129940340171,23.000000735999997,0.503999582744,1.4969500479024,1388,-21.0,99,P-GPS,
0.355955869032481,36.888302340764106,23400,2018-04-05 07:10:23,1798.3299403465712,23.2000007424,0.35999970196000003,1.4667600469363198,1798.3299403465712,23.2000007424,0.503999582744,1.4969500479024,1403,-21.0,99,P-GPS,
0.35595589921162,36.888302323459996,23500,2018-04-05 07:10:23,1798.5299403529712,23.400000748800004,0.35999970196000003,1.4635500468336,1798.5299403529712,23.400000748800004,0.503999582744,1.4969500479024,1400,-21.0,99,P-GPS,
0.35595591125803394,36.8883023895426,23600,2018-04-05 07:10:23,1798.729940359371,23.6000007552,0.35999970196000003,1.4695600470259202,1798.729940359371,23.6000007552,0.503999582744,1.4969500479024,1400,-21.0,99,P-GPS,
0.35595592874039794,36.888302381056,23700,2018-04-05 07:10:23,1798.929940365771,23.800000761600003,0.7199994039200001,1.4678600469715202,1798.929940365771,23.800000761600003,0.7199994039200001,1.4969500479024,1397,-21.0,99,P-GPS,
0.35595596238425503,36.88830241457529,23800,2018-04-05 07:10:24,1799.1299403721712,24.000000768000003,0.7199994039200001,1.46958004702656,1799.1299403721712,24.000000768000003,0.7199994039200001,1.4969500479024,1403,-21.0,99,P-GPS,
0.35595599854731397,36.8883023796556,23900,2018-04-05 07:10:24,1799.4299403817713,24.3000007776,0.7199994039200001,1.46434004685888,1799.4299403817713,24.3000007776,0.7199994039200001,1.4969500479024,1419,-21.0,99,P-GPS,
0.355956021471531,36.8883023844648,24000,2018-04-05 07:10:24,1799.629940388171,24.500000784000004,0.35999970196000003,1.4637200468390401,1799.629940388171,24.500000784000004,0.7199994039200001,1.4969500479024,1423,-21.0,99,P-GPS,
0.355956022132883,36.8883023647561,24100,2018-04-05 07:10:24,1799.8299403945712,24.7000007904,0.35999970196000003,1.4617100467747202,1799.8299403945712,24.7000007904,0.7199994039200001,1.4969500479024,1437,-21.0,99,P-GPS,
0.355956030346551,36.88830242996411,24200,2018-04-05 07:10:24,1800.1299404041713,25.000000800000002,0.35999970196000003,1.4678600469715202,1800.1299404041713,25.000000800000002,0.7199994039200001,1.4969500479024,1447,-21.0,99,P-GPS,
0.355956027340036,36.888302443505,24300,2018-04-05 07:10:24,1800.3299404105712,25.200000806400006,0.35999970196000003,1.46936004701952,1800.3299404105712,25.200000806400006,0.7199994039200001,1.4969500479024,1445,-21.0,99,P-GPS,
0.35595598378322996,36.888302529202,24400,2018-04-05 07:10:24,1800.5299404169712,25.400000812800002,0.35999970196000003,1.4800500473616,1800.5299404169712,25.400000812800002,0.7199994039200001,1.4969500479024,1430,-21.0,99,P-GPS,
0.355955922072123,36.8883025523665,24500,2018-04-05 07:10:24,1800.829940426571,25.7000008224,0.35999970196000003,1.48533004753056,1800.829940426571,25.7000008224,0.7199994039200001,1.4969500479024,1425,-21.0,99,P-GPS,
0.355955858745804,36.8883026095289,24600,2018-04-05 07:10:24,1801.0299404329712,25.900000828800003,0.35999970196000003,1.4941100478115201,1801.0299404329712,25.900000828800003,0.7199994039200001,1.4969500479024,1438,-21.0,99,P-GPS,
0.355955795593728,36.8883026170681,24700,2018-04-05 07:10:24,1801.3299404425713,26.200000838399998,0.35999970196000003,1.49794004793408,1801.3299404425713,26.200000838399998,0.7199994039200001,1.49794004793408,1448,-21.0,99,P-GPS,
0.35595568729935206,36.888302709850294,24800,2018-04-05 07:10:25,1801.529940448971,26.4000008448,0.35999970196000003,1.5125100484003202,1801.529940448971,26.4000008448,0.7199994039200001,1.5125100484003202,1443,-21.0,99,P-GPS,
0.35595559377862795,36.8883027442443,24900,2018-04-05 07:10:25,1801.8299404585712,26.700000854400002,0.35999970196000003,1.5205600486579203,1801.8299404585712,26.700000854400002,0.7199994039200001,1.5205600486579203,1454,-21.0,99,P-GPS,
0.355955502831456,36.8883028218433,25000,2018-04-05 07:10:25,1802.1299404681713,27.000000864000004,0.35999970196000003,1.5328100490499201,1802.1299404681713,27.000000864000004,0.7199994039200001,1.5328100490499201,1454,-21.0,99,P-GPS,
0.35595546798316097,36.8883028211774,25100,2018-04-05 07:10:25,1802.329940474571,27.200000870400004,0.35999970196000003,1.5344900491036801,1802.329940474571,27.200000870400004,0.7199994039200001,1.5344900491036801,1457,-21.0,99,P-GPS,
0.35595544047874195,36.8883029062931,25200,2018-04-05 07:10:25,1802.6299404841711,27.50000088,0.35999970196000003,1.5443100494179203,1802.6299404841711,27.50000088,0.7199994039200001,1.5443100494179203,1451,-21.0,99,P-GPS,
0.3559553866727129,36.8883029480239,25300,2018-04-05 07:10:25,1802.9299404937713,27.8000008896,0.35999970196000003,1.5511600496371203,1802.9299404937713,27.8000008896,0.7199994039200001,1.5511600496371203,1441,-21.0,99,P-GPS,
0.3559553020323011,36.8883030663152,25400,2018-04-05 07:10:25,1803.2299405033712,28.1000008992,0.35999970196000003,1.5671500501488,1803.2299405033712,28.1000008992,0.7199994039200001,1.5671500501488,1464,-21.0,99,P-GPS,
0.35595521269566,36.8883031009919,25500,2018-04-05 07:10:25,1803.529940512971,28.400000908800006,0.35999970196000003,1.57512005040384,1803.529940512971,28.400000908800006,0.7199994039200001,1.57512005040384,1478,-21.0,99,P-GPS,
0.355955093529588,36.8883031810822,25600,2018-04-05 07:10:25,1803.8299405225712,28.7000009184,0.35999970196000003,1.5891300508521602,1803.8299405225712,28.7000009184,0.7199994039200001,1.5891300508521602,1476,-21.0,99,P-GPS,
0.35595497719192104,36.8883031854245,25700,2018-04-05 07:10:25,1804.029940528971,28.9000009248,0.35999970196000003,1.5955800510585603,1804.029940528971,28.9000009248,0.7199994039200001,1.5955800510585603,1473,-21.0,99,P-GPS,
0.35595485534196997,36.8883032287998,25800,2018-04-05 07:10:26,1804.3299405385712,29.200000934400002,0.35999970196000003,1.6062300513993601,1804.3299405385712,29.200000934400002,0.7199994039200001,1.6062300513993601,1462,-21.0,99,P-GPS,
0.35595464068089,36.8883032887179,26100,2018-04-05 07:10:26,1805.2299405673712,30.1000009632,0.7199994039200001,1.62351005195232,1805.2299405673712,30.1000009632,0.7199994039200001,1.62351005195232,1462,-21.0,99,P-GPS,
0.35595462655861604,36.8883032812515,26200,2018-04-05 07:10:26,1805.5299405769713,30.400000972799997,0.7199994039200001,1.6235500519536001,1805.5299405769713,30.400000972799997,0.7199994039200001,1.6235500519536001,1463,-21.0,99,P-GPS,
0.35595465248548,36.8883031813348,26300,2018-04-05 07:10:26,1805.829940586571,30.700000982400002,0.7919993443119999,1.61243005159776,1805.829940586571,30.700000982400002,0.7919993443119999,1.6235500519536001,1469,-21.0,99,P-GPS,
0.355954718143935,36.8883031448211,26400,2018-04-05 07:10:26,1806.129940596171,31.000000992,0.7919993443119999,1.60534005137088,1806.129940596171,31.000000992,0.7919993443119999,1.6235500519536001,1466,-21.0,99,P-GPS,
0.35595478029634997,36.88830306601871,26500,2018-04-05 07:10:26,1806.4299406057712,31.300001001600002,0.7919993443119999,1.5943300510185603,1806.4299406057712,31.300001001600002,0.7919993443119999,1.6235500519536001,1466,-21.0,99,P-GPS,
0.355954846253217,36.888303060099396,26600,2018-04-05 07:10:26,1806.729940615371,31.6000010112,0.7199994039200001,1.59022005088704,1806.729940615371,31.6000010112,0.7919993443119999,1.6235500519536001,1469,-21.0,99,P-GPS,
0.35595488673145004,36.8883030188642,26700,2018-04-05 07:10:27,1807.0299406249712,31.9000010208,0.7199994039200001,1.58404005068928,1807.0299406249712,31.9000010208,0.7919993443119999,1.6235500519536001,1475,-21.0,99,P-GPS,
0.35595490746479896,36.888303041171206,26800,2018-04-05 07:10:27,1807.3299406345711,32.2000010304,0.7199994039200001,1.58511005072352,1807.3299406345711,32.2000010304,0.7919993443119999,1.6235500519536001,1482,-21.0,99,P-GPS,
0.355954921137622,36.888303021490394,26900,2018-04-05 07:10:27,1807.5299406409713,32.4000010368,0.35999970196000003,1.5824700506390401,1807.5299406409713,32.4000010368,0.7919993443119999,1.6235500519536001,1485,-21.0,99,P-GPS,
0.35595490468952296,36.8883030450917,27000,2018-04-05 07:10:27,1807.8299406505712,32.700001046400004,0.35999970196000003,1.5856400507404802,1807.8299406505712,32.700001046400004,0.7919993443119999,1.6235500519536001,1505,-21.0,99,P-GPS,
0.35595489280188203,36.8883030077343,27100,2018-04-05 07:10:27,1808.129940660171,33.000001056,0.35999970196000003,1.5826300506441602,1808.129940660171,33.000001056,0.7919993443119999,1.6235500519536001,1519,-21.0,99,P-GPS,
0.355954882466555,36.8883030286292,27200,2018-04-05 07:10:27,1808.429940669771,33.3000010656,0.35999970196000003,1.5852200507270402,1808.429940669771,33.3000010656,0.7919993443119999,1.6235500519536001,1523,-21.0,99,P-GPS,
0.355954866521646,36.8883030271646,27300,2018-04-05 07:10:27,1808.729940679371,33.6000010752,0.35999970196000003,1.58592005074944,1808.729940679371,33.6000010752,0.7919993443119999,1.6235500519536001,1526,-21.0,99,P-GPS,
0.355954790292146,36.8883030972726,27500,2018-04-05 07:10:27,1809.3299406985714,34.2000010944,0.35999970196000003,1.5968300510985602,1809.3299406985714,34.2000010944,0.7919993443119999,1.6235500519536001,1530,-21.0,99,P-GPS,
0.3559547769706599,36.8883031438875,27600,2018-04-05 07:10:27,1809.7299407113712,34.6000011072,0.35999970196000003,1.60209005126688,1809.7299407113712,34.6000011072,0.7919993443119999,1.6235500519536001,1520,-21.0,99,P-GPS,
0.355954792339101,36.8883031475436,27700,2018-04-05 07:10:27,1810.0299407209711,34.9000011168,0.35999970196000003,1.60163005125216,1810.0299407209711,34.9000011168,0.7919993443119999,1.6235500519536001,1521,-21.0,99,P-GPS,
0.35595483757035395,36.888303221330204,27800,2018-04-05 07:10:28,1810.329940730571,35.2000011264,0.0,1.6064300514057601,1810.329940730571,35.2000011264,0.7919993443119999,1.6235500519536001,1524,-21.0,99,P-GPS,
0.355954885750719,36.888303249367,27900,2018-04-05 07:10:28,1810.7299407433711,35.6000011392,0.35999970196000003,1.60664005141248,1810.7299407433711,35.6000011392,0.7919993443119999,1.6235500519536001,1521,-21.0,99,P-GPS,
0.35595491383934297,36.8883033148758,28000,2018-04-05 07:10:28,1811.0299407529712,35.9000011488,0.35999970196000003,1.6116000515712,1811.0299407529712,35.9000011488,0.7919993443119999,1.6235500519536001,1508,-21.0,99,P-GPS,
0.355954945496294,36.8883033077456,28100,2018-04-05 07:10:28,1811.3299407625711,36.200001158400006,0.35999970196000003,1.6092500514960002,1811.3299407625711,36.200001158400006,0.7919993443119999,1.6235500519536001,1496,-21.0,99,P-GPS,
0.35595500255208595,36.888303332895,28200,2018-04-05 07:10:28,1811.7299407753712,36.6000011712,0.503999582744,1.60877005148064,1811.7299407753712,36.6000011712,0.7919993443119999,1.6235500519536001,1491,-21.0,99,P-GPS,
0.35595505650976395,36.888303303768296,28300,2018-04-05 07:10:28,1812.0299407849714,36.900001180800004,0.35999970196000003,1.6031300513001603,1812.0299407849714,36.900001180800004,0.7919993443119999,1.6235500519536001,1492,-21.0,99,P-GPS,
0.35595509423511207,36.8883033531154,28400,2018-04-05 07:10:28,1812.329940794571,37.2000011904,0.35999970196000003,1.60607005139424,1812.329940794571,37.2000011904,0.7919993443119999,1.6235500519536001,1485,-21.0,99,P-GPS,
0.355955126042694,36.888303361754,28500,2018-04-05 07:10:28,1812.6299408041712,37.5000012,0.35999970196000003,1.6053100513699203,1812.6299408041712,37.5000012,0.7919993443119999,1.6235500519536001,1486,-21.0,99,P-GPS,
0.35595512485433706,36.888303419028794,28600,2018-04-05 07:10:28,1812.929940813771,37.800001209600005,0.35999970196000003,1.6110500515536,1812.929940813771,37.800001209600005,0.7919993443119999,1.6235500519536001,1480,-21.0,99,P-GPS,
0.355955069752678,36.888303481314004,28800,2018-04-05 07:10:29,1813.5299408329713,38.4000012288,0.35999970196000003,1.62000005184,1813.5299408329713,38.4000012288,0.7919993443119999,1.6235500519536001,1473,-21.0,99,P-GPS,
0.35595505424296997,36.888303502304204,28900,2018-04-05 07:10:29,1813.829940842571,38.700001238400006,0.35999970196000003,1.6228600519315202,1813.829940842571,38.700001238400006,0.7919993443119999,1.6235500519536001,1475,-21.0,99,P-GPS,
0.35595507603317894,36.888303566958605,29000,2018-04-05 07:10:29,1814.129940852171,39.000001248000004,0.35999970196000003,1.6281700521014402,1814.129940852171,39.000001248000004,0.7919993443119999,1.6281700521014402,1490,-21.0,99,P-GPS,
0.35595510877996706,36.8883035681994,29100,2018-04-05 07:10:29,1814.4299408617712,39.3000012576,0.35999970196000003,1.6266500520528002,1814.4299408617712,39.3000012576,0.7919993443119999,1.6281700521014402,1510,-21.0,99,P-GPS,
0.355955127712053,36.8883036380302,29200,2018-04-05 07:10:29,1814.7299408713711,39.60000126719999,0.35999970196000003,1.6326400522444802,1814.7299408713711,39.60000126719999,0.7919993443119999,1.6326400522444802,1518,-21.0,98,P-GPS,
0.355955138882975,36.888303649917,29300,2018-04-05 07:10:29,1815.029940880971,39.900001276800005,0.35999970196000003,1.63326005226432,1815.029940880971,39.900001276800005,0.7919993443119999,1.63326005226432,1523,-21.0,98,P-GPS,
0.35595514423953795,36.8883037225185,29400,2018-04-05 07:10:29,1815.3299408905712,40.2000012864,0.35999970196000003,1.64022005248704,1815.3299408905712,40.2000012864,0.7919993443119999,1.64022005248704,1533,-21.0,98,P-GPS,
0.355955135148749,36.8883037534748,29500,2018-04-05 07:10:29,1815.629940900171,40.500001296,0.35999970196000003,1.6437600526003202,1815.629940900171,40.500001296,0.7919993443119999,1.6437600526003202,1535,-21.0,98,P-GPS,
0.355955146958836,36.888303838118404,29600,2018-04-05 07:10:29,1815.9299409097712,40.8000013056,0.35999970196000003,1.6516100528515203,1815.9299409097712,40.8000013056,0.7919993443119999,1.6516100528515203,1534,-21.0,98,P-GPS,
0.35595516567271096,36.888303872137705,29700,2018-04-05 07:10:29,1816.2299409193713,41.100001315200004,0.35999970196000003,1.6540900529308797,1816.2299409193713,41.100001315200004,0.7919993443119999,1.6540900529308797,1538,-21.0,98,P-GPS,
0.35595518865718,36.8883039724376,29800,2018-04-05 07:10:30,1816.6299409321712,41.500001328,0.35999970196000003,1.663000053216,1816.6299409321712,41.500001328,0.7919993443119999,1.663000053216,1533,-21.0,98,P-GPS,
0.355955228671306,36.8883039997892,29900,2018-04-05 07:10:30,1816.929940941771,41.80000133760001,0.35999970196000003,1.66381005324192,1816.929940941771,41.80000133760001,0.7919993443119999,1.66381005324192,1533,-21.0,98,P-GPS,
0.355955291527005,36.88830403226579,30000,2018-04-05 07:10:30,1817.329940954571,42.2000013504,0.7199994039200001,1.66406005324992,1817.329940954571,42.2000013504,0.7919993443119999,1.66406005324992,1512,-21.0,98,P-GPS,
0.355955356470573,36.888303989094,30100,2018-04-05 07:10:30,1817.629940964171,42.50000136,0.35999970196000003,1.6566300530121598,1817.629940964171,42.50000136,0.7919993443119999,1.66406005324992,1507,-21.0,98,P-GPS,
0.355955410843504,36.888304040380895,30200,2018-04-05 07:10:30,1818.0299409769711,42.900001372800006,0.35999970196000003,1.6592300530953603,1818.0299409769711,42.900001372800006,0.7919993443119999,1.66406005324992,1532,-21.0,98,P-GPS,
0.355955453119131,36.8883040597084,30300,2018-04-05 07:10:30,1818.329940986571,43.200001382399996,0.35999970196000003,1.6592000530944,1818.329940986571,43.200001382399996,0.7919993443119999,1.66406005324992,1532,-21.0,98,P-GPS,
0.35595549258548903,36.8883041398041,30400,2018-04-05 07:10:30,1818.7299409993711,43.6000013952,0.35999970196000003,1.6654700532950402,1818.7299409993711,43.6000013952,0.7919993443119999,1.6654700532950402,1572,-21.0,98,P-GPS,
0.3559555499284989,36.888304151556,30500,2018-04-05 07:10:30,1819.0299410089713,43.9000014048,0.35999970196000003,1.6640200532486398,1819.0299410089713,43.9000014048,0.7919993443119999,1.6654700532950402,1570,-21.0,98,P-GPS,
0.355955624036339,36.888304207463705,30600,2018-04-05 07:10:30,1819.3299410185712,44.2000014144,0.35999970196000003,1.6663300533225602,1819.3299410185712,44.2000014144,0.7919993443119999,1.6663300533225602,1607,-21.0,98,P-GPS,
0.355955678193094,36.8883042021086,30700,2018-04-05 07:10:31,1819.7299410313713,44.6000014272,0.35999970196000003,1.6633500532272,1819.7299410313713,44.6000014272,0.7919993443119999,1.6663300533225602,1610,-21.0,98,P-GPS,
0.355955701287279,36.8883042633017,30800,2018-04-05 07:10:31,1820.1299410441711,45.00000144,0.35999970196000003,1.6685500533936004,1820.1299410441711,45.00000144,0.7919993443119999,1.6685500533936004,1610,-21.0,98,P-GPS,
0.35595568427248203,36.888304283626,30900,2018-04-05 07:10:31,1820.5299410569712,45.400001452800005,0.35999970196000003,1.6713800534841599,1820.5299410569712,45.400001452800005,0.7919993443119999,1.6713800534841599,1615,-21.0,98,P-GPS,
0.355955613499085,36.8883044251825,31000,2018-04-05 07:10:31,1820.929941069771,45.800001465600005,0.35999970196000003,1.68896005404672,1820.929941069771,45.800001465600005,0.7919993443119999,1.68896005404672,1620,-21.0,98,P-GPS,
0.35595554229028203,36.888304527100104,31100,2018-04-05 07:10:31,1821.3299410825712,46.20000147840001,0.0,1.7025200544806398,1821.3299410825712,46.20000147840001,0.7919993443119999,1.7025200544806398,1622,-21.0,98,P-GPS,
0.355955473583584,36.8883047086177,31200,2018-04-05 07:10:31,1821.7299410953713,46.600001491200004,0.0,1.7240700551702401,1821.7299410953713,46.600001491200004,0.7919993443119999,1.7240700551702401,1621,-21.0,98,P-GPS,
