latitude,longitude,time_millisecond,datetime_utc,altitude_m,ascent_m,speed_kph,distance_m,max_altitude_m,max_ascent_m,max_speed_kph,max_distance_m,rc_throttle,gimbal_pitch_degrees,battery_percent,flycState,message
0.304515203462471,36.8773565768836,10600,2017-11-10 12:32:05,1789.8978843767416,0.0,0.0,0.0,1789.8978843767416,0.0,0.0,0.0,1024,0.0,99,Assisted_Takeoff,
0.30451520381486497,36.8773565632206,10700,2017-11-10 12:32:05,1789.8978843767416,0.0,0.0,0.0015198900486364803,1789.8978843767416,0.0,0.0,0.0015198900486364803,1024,0.0,99,Assisted_Takeoff,
0.304515200889796,36.877356456778,10800,2017-11-10 12:32:05,1789.8978843767416,0.0,0.0,0.0133593004274976,1789.8978843767416,0.0,0.0,0.0133593004274976,1024,0.0,99,Assisted_Takeoff,
0.30451519557180295,36.8773563340576,10900,2017-11-10 12:32:05,1789.8978843767416,0.0,0.0,0.0270176008645632,1789.8978843767416,0.0,0.0,0.0270176008645632,1024,0.0,99,Assisted_Takeoff,
0.30451518947336603,36.877356176492704,11000,2017-11-10 12:32:05,1789.8978843767416,0.0,0.0,0.044552401425676805,1789.8978843767416,0.0,0.0,0.044552401425676805,1024,0.0,99,Assisted_Takeoff,
0.304515182859234,36.877356044241296,11100,2017-11-10 12:32:05,1789.8978843767416,0.0,0.0,0.059276501896848,1789.8978843767416,0.0,0.0,0.059276501896848,1024,0.0,99,Assisted_Takeoff,
0.304515176520043,36.877355831570895,11200,2017-11-10 12:32:05,1789.8978843767416,0.0,0.0,0.08293630265396161,1789.8978843767416,0.0,0.0,0.08293630265396161,1024,0.0,99,Assisted_Takeoff,
0.30451516846502397,36.8773556563895,11300,2017-11-10 12:32:05,1789.8978843767416,0.0,0.0,0.10243700327798402,1789.8978843767416,0.0,0.0,0.10243700327798402,1024,0.0,99,Assisted_Takeoff,
0.304515163208555,36.8773553983599,11400,2017-11-10 12:32:05,1789.8978843767416,0.0,0.0,0.131134004196288,1789.8978843767416,0.0,0.0,0.131134004196288,1024,0.0,99,Assisted_Takeoff,
0.30451515607299295,36.877355187043904,11500,2017-11-10 12:32:05,1789.8978843767416,0.0,0.0,0.154646004948672,1789.8978843767416,0.0,0.0,0.154646004948672,1024,0.0,99,Assisted_Takeoff,
0.30451515404534496,36.877354927460104,11600,2017-11-10 12:32:06,1789.8978843767416,0.0,0.0,0.18350600587219199,1789.8978843767416,0.0,0.0,0.18350600587219199,1024,0.0,99,Assisted_Takeoff,
0.304515148392946,36.8773547061439,11700,2017-11-10 12:32:06,1789.8978843767416,0.0,0.0,0.20812500666,1789.8978843767416,0.0,0.0,0.20812500666,1024,0.0,99,Assisted_Takeoff,
0.30451514771065996,36.8773544677772,11800,2017-11-10 12:32:06,1789.8978843767416,0.0,0.0,0.23462400750796805,1789.8978843767416,0.0,0.0,0.23462400750796805,1024,0.0,99,Assisted_Takeoff,
0.30451514280206504,36.877354255982496,11900,2017-11-10 12:32:06,1789.8978843767416,0.0,0.0,0.258183008261856,1789.8978843767416,0.0,0.0,0.258183008261856,1024,0.0,99,Assisted_Takeoff,
0.304515143358847,36.877354047051895,12000,2017-11-10 12:32:06,1789.8978843767416,0.0,0.0,0.2814080090050561,1789.8978843767416,0.0,0.0,0.2814080090050561,1024,0.0,99,Assisted_Takeoff,
0.304515138573015,36.8773538494385,12100,2017-11-10 12:32:06,1789.8978843767416,0.0,0.0,0.30339000970848,1789.8978843767416,0.0,0.0,0.30339000970848,1024,0.0,99,Assisted_Takeoff,
0.304515139558644,36.8773536643026,12200,2017-11-10 12:32:06,1789.8978843767416,0.0,0.0,0.32397001036704004,1789.8978843767416,0.0,0.0,0.32397001036704004,1024,0.0,99,Assisted_Takeoff,
0.30451513565976696,36.8773534826005,12300,2017-11-10 12:32:06,1789.8978843767416,0.0,0.0,0.34418101101379206,1789.8978843767416,0.0,0.0,0.34418101101379206,1024,0.0,99,Assisted_Takeoff,
0.30451513778871003,36.8773533535288,12400,2017-11-10 12:32:06,1789.8978843767416,0.0,0.0,0.35852601147283203,1789.8978843767416,0.0,0.0,0.35852601147283203,1024,0.0,99,Assisted_Takeoff,
0.304515134279018,36.8773532117576,12500,2017-11-10 12:32:06,1789.8978843767416,0.0,0.0,0.374296011977472,1789.8978843767416,0.0,0.0,0.374296011977472,1024,0.0,99,Assisted_Takeoff,
0.304515133805523,36.877353005180105,12700,2017-11-10 12:32:07,1789.8978843767416,0.0,0.0,0.39726501271248,1789.8978843767416,0.0,0.0,0.39726501271248,1024,0.0,99,Assisted_Takeoff,
0.304515136522569,36.877352899401004,12800,2017-11-10 12:32:07,1789.8978843767416,0.0,0.0,0.40902001308864006,1789.8978843767416,0.0,0.0,0.40902001308864006,1024,0.0,99,Assisted_Takeoff,
0.30451513335628805,36.8773527715401,12900,2017-11-10 12:32:07,1789.8978843767416,0.0,0.0,0.423243013543776,1789.8978843767416,0.0,0.0,0.423243013543776,1024,0.0,99,Assisted_Takeoff,
0.304515135852063,36.8773527173595,13000,2017-11-10 12:32:07,1789.8978843767416,0.0,0.0,0.42926201373638395,1789.8978843767416,0.0,0.0,0.42926201373638395,1024,0.0,99,Assisted_Takeoff,
0.304515132996351,36.8773526380581,13100,2017-11-10 12:32:07,1789.7978843735416,-0.10000000320000002,0.0,0.43808501401871996,1789.8978843767416,0.0,0.0,0.43808501401871996,1024,0.0,99,Assisted_Takeoff,
0.304515136805575,36.8773525530695,13200,2017-11-10 12:32:07,1789.7978843735416,-0.10000000320000002,0.0,0.447528014320896,1789.8978843767416,0.0,0.0,0.447528014320896,1024,0.0,99,Assisted_Takeoff,
0.304515135595329,36.877352443614996,13300,2017-11-10 12:32:07,1789.7978843735416,-0.10000000320000002,0.0,0.45970001471040006,1789.8978843767416,0.0,0.0,0.45970001471040006,1024,0.0,99,Assisted_Takeoff,
0.30451514026161003,36.877352393078205,13400,2017-11-10 12:32:07,1789.7978843735416,-0.10000000320000002,0.0,0.46531101488995197,1789.8978843767416,0.0,0.0,0.46531101488995197,1024,0.0,99,Assisted_Takeoff,
0.30451513956244103,36.8773523203446,13500,2017-11-10 12:32:07,1789.7978843735416,-0.10000000320000002,0.0,0.47340001514880004,1789.8978843767416,0.0,0.0,0.47340001514880004,1024,0.0,99,Assisted_Takeoff,
0.30451514396583,36.8773522651445,13600,2017-11-10 12:32:08,1789.7978843735416,-0.10000000320000002,0.0,0.47953101534499204,1789.8978843767416,0.0,0.0,0.47953101534499204,1024,0.0,99,Assisted_Takeoff,
0.304515142597864,36.8773521847782,13700,2017-11-10 12:32:08,1789.7978843735416,-0.10000000320000002,0.0,0.48846901563100803,1789.8978843767416,0.0,0.0,0.48846901563100803,1024,0.0,99,Assisted_Takeoff,
0.304515145275971,36.8773521503044,13800,2017-11-10 12:32:08,1789.7978843735416,-0.10000000320000002,0.0,0.49229801575353604,1789.8978843767416,0.0,0.0,0.49229801575353604,1024,0.0,99,Assisted_Takeoff,
0.30451514262826695,36.8773520918204,13900,2017-11-10 12:32:08,1789.7978843735416,-0.10000000320000002,0.0,0.49880501596176,1789.8978843767416,0.0,0.0,0.49880501596176,1024,0.0,99,Assisted_Takeoff,
0.304515109222628,36.8773520371792,14000,2017-11-10 12:32:08,1789.7978843735416,-0.10000000320000002,0.0,0.504944016158208,1789.8978843767416,0.0,0.0,0.504944016158208,1024,0.0,99,Assisted_Takeoff,
0.30451507672099704,36.877351961718794,14100,2017-11-10 12:32:08,1789.7978843735416,-0.10000000320000002,0.0,0.513421016429472,1789.8978843767416,0.0,0.0,0.513421016429472,1024,0.0,99,Assisted_Takeoff,
0.304515048033259,36.87735190737679,14200,2017-11-10 12:32:08,1789.7978843735416,-0.10000000320000002,0.0,0.5195580166258561,1789.8978843767416,0.0,0.0,0.5195580166258561,1024,0.0,99,Assisted_Takeoff,
0.304515031453562,36.8773518629474,14300,2017-11-10 12:32:08,1789.7978843735416,-0.10000000320000002,0.0,0.52456001678592,1789.8978843767416,0.0,0.0,0.52456001678592,1024,0.0,99,Assisted_Takeoff,
0.30451502116002804,36.877351834509895,14400,2017-11-10 12:32:08,1789.7978843735416,-0.10000000320000002,0.0,0.5277630168884161,1789.8978843767416,0.0,0.0,0.5277630168884161,1024,0.0,99,Assisted_Takeoff,
0.304515007607391,36.8773517841179,14500,2017-11-10 12:32:08,1789.7978843735416,-0.10000000320000002,0.0,0.533422017069504,1789.8978843767416,0.0,0.0,0.533422017069504,1024,0.0,99,Assisted_Takeoff,
0.304514976437269,36.87735175116521,14600,2017-11-10 12:32:09,1789.7978843735416,-0.10000000320000002,0.0,0.53723501719152,1789.8978843767416,0.0,0.0,0.53723501719152,1024,0.0,99,Assisted_Takeoff,
0.30451494085790504,36.8773517182082,14700,2017-11-10 12:32:09,1789.7978843735416,-0.10000000320000002,0.0,0.54109501731504,1789.8978843767416,0.0,0.0,0.54109501731504,1024,0.0,99,Assisted_Takeoff,
0.30451491558442795,36.8773517062535,14800,2017-11-10 12:32:09,1789.7978843735416,-0.10000000320000002,0.0,0.5425810173625921,1789.8978843767416,0.0,0.0,0.5425810173625921,1024,0.0,99,Assisted_Takeoff,
0.304514893147218,36.8773516594608,14900,2017-11-10 12:32:09,1789.7978843735416,-0.10000000320000002,0.0,0.547927017533664,1789.8978843767416,0.0,0.0,0.547927017533664,1024,0.0,99,Assisted_Takeoff,
0.304514853810016,36.8773515951264,15000,2017-11-10 12:32:09,1789.7978843735416,-0.10000000320000002,0.0,0.555357017771424,1789.8978843767416,0.0,0.0,0.555357017771424,1024,0.0,99,Assisted_Takeoff,
0.304514812518147,36.8773515189755,15100,2017-11-10 12:32:09,1789.7978843735416,-0.10000000320000002,0.0,0.5641400180524799,1789.8978843767416,0.0,0.0,0.5641400180524799,1024,0.0,99,Assisted_Takeoff,
0.304514757942831,36.877351427805294,15200,2017-11-10 12:32:09,1789.7978843735416,-0.10000000320000002,0.0,0.57474001839168,1789.8978843767416,0.0,0.0,0.57474001839168,1024,0.0,99,Assisted_Takeoff,
0.30451470488563204,36.8773513306281,15300,2017-11-10 12:32:09,1789.7978843735416,-0.10000000320000002,0.0,0.586036018753152,1789.8978843767416,0.0,0.0,0.586036018753152,1024,0.0,99,Assisted_Takeoff,
0.304514672888692,36.8773512517616,15400,2017-11-10 12:32:09,1789.7978843735416,-0.10000000320000002,0.0,0.59511001904352,1789.8978843767416,0.0,0.0,0.59511001904352,1024,0.0,99,Assisted_Takeoff,Home Point Recorded. RTH Altitude:  30m.
0.30451464429978004,36.8773511729101,15500,2017-11-10 12:32:09,1789.7978843735416,-0.10000000320000002,0.0,0.6041550193329601,1789.8978843767416,0.0,0.0,0.6041550193329601,1024,0.0,99,Assisted_Takeoff,
0.30451460782843603,36.877351083467296,15600,2017-11-10 12:32:10,1789.7978843735416,-0.10000000320000002,0.0,0.614473019663136,1789.8978843767416,0.0,0.0,0.614473019663136,1024,0.0,99,Assisted_Takeoff,
0.30451456657084003,36.8773509854379,15700,2017-11-10 12:32:10,1789.7978843735416,-0.10000000320000002,0.0,0.62581502002608,1789.8978843767416,0.0,0.0,0.62581502002608,1024,0.0,99,Assisted_Takeoff,
0.30451451692457,36.8773509109999,15800,2017-11-10 12:32:10,1789.7978843735416,-0.10000000320000002,0.0,0.6346810203097921,1789.8978843767416,0.0,0.0,0.6346810203097921,1024,0.0,99,Assisted_Takeoff,
0.30451446706482105,36.8773508323893,15900,2017-11-10 12:32:10,1789.7978843735416,-0.10000000320000002,0.0,0.644041020609312,1789.8978843767416,0.0,0.0,0.644041020609312,1024,0.0,99,Assisted_Takeoff,
0.304514412939464,36.8773507800461,16000,2017-11-10 12:32:10,1789.7978843735416,-0.10000000320000002,0.0,0.6506010208192321,1789.8978843767416,0.0,0.0,0.6506010208192321,1024,0.0,99,Assisted_Takeoff,
0.304514359410933,36.8773507195509,16100,2017-11-10 12:32:10,1789.7978843735416,-0.10000000320000002,0.0,0.6580900210588801,1789.8978843767416,0.0,0.0,0.6580900210588801,1024,0.0,99,Assisted_Takeoff,
0.304514302532437,36.877350681132896,16200,2017-11-10 12:32:10,1789.7978843735416,-0.10000000320000002,0.0,0.6632450212238401,1789.8978843767416,0.0,0.0,0.6632450212238401,1024,0.0,99,Assisted_Takeoff,
0.304514247006466,36.877350627624395,16300,2017-11-10 12:32:10,1789.7978843735416,-0.10000000320000002,0.0,0.6700800214425601,1789.8978843767416,0.0,0.0,0.6700800214425601,1024,0.0,99,Assisted_Takeoff,
0.30451421946672996,36.877350624150296,16400,2017-11-10 12:32:10,1789.7978843735416,-0.10000000320000002,0.0,0.670954021470528,1789.8978843767416,0.0,0.0,0.670954021470528,1024,0.0,99,Assisted_Takeoff,
0.304514192759943,36.8773506036175,16500,2017-11-10 12:32:10,1789.7978843735416,-0.10000000320000002,0.0,0.6736960215582721,1789.8978843767416,0.0,0.0,0.6736960215582721,1024,0.0,99,Assisted_Takeoff,
0.30451419046628003,36.877350621115205,16600,2017-11-10 12:32:11,1789.7978843735416,-0.10000000320000002,0.0,0.67182002149824,1789.8978843767416,0.0,0.0,0.6736960215582721,1024,0.0,99,Assisted_Takeoff,
0.304514186114263,36.8773506269986,16700,2017-11-10 12:32:11,1789.7978843735416,-0.10000000320000002,0.0,0.671257021480224,1789.8978843767416,0.0,0.0,0.6736960215582721,1024,0.0,99,Assisted_Takeoff,
0.304514209252722,36.8773506772311,16800,2017-11-10 12:32:11,1789.7978843735416,-0.10000000320000002,0.0,0.6653190212902079,1789.8978843767416,0.0,0.0,0.6736960215582721,1024,0.0,99,Assisted_Takeoff,
0.304514210811754,36.8773506832248,16900,2017-11-10 12:32:11,1789.7978843735416,-0.10000000320000002,0.0,0.6646330212682562,1789.8978843767416,0.0,0.0,0.6736960215582721,1024,0.0,99,Assisted_Takeoff,
0.30451420216451297,36.8773507227868,17000,2017-11-10 12:32:11,1789.7978843735416,-0.10000000320000002,0.0,0.6604560211345921,1789.8978843767416,0.0,0.0,0.6736960215582721,1024,0.0,99,Assisted_Takeoff,
0.30451418029420396,36.8773507330077,17100,2017-11-10 12:32:11,1789.7978843735416,-0.10000000320000002,0.0,0.659751021112032,1789.8978843767416,0.0,0.0,0.6736960215582721,1024,0.0,99,Assisted_Takeoff,
0.30451417687325105,36.8773508007604,17200,2017-11-10 12:32:11,1789.7978843735416,-0.10000000320000002,0.0,0.652397020876704,1789.8978843767416,0.0,0.0,0.6736960215582721,1024,0.0,99,Assisted_Takeoff,
0.304514167812385,36.8773508406596,17300,2017-11-10 12:32:11,1789.7978843735416,-0.10000000320000002,0.0,0.648208020742656,1789.8978843767416,0.0,0.0,0.6736960215582721,1024,0.0,99,Assisted_Takeoff,
0.304514143240895,36.87735089740929,17400,2017-11-10 12:32:11,1789.7978843735416,-0.10000000320000002,0.0,0.642494020559808,1789.8978843767416,0.0,0.0,0.6736960215582721,1024,0.0,99,Assisted_Takeoff,
0.304514113453499,36.8773509256632,17500,2017-11-10 12:32:11,1789.7978843735416,-0.10000000320000002,0.0,0.6400250204808,1789.8978843767416,0.0,0.0,0.6736960215582721,1024,0.0,99,Assisted_Takeoff,
0.304514100767106,36.8773509955662,17600,2017-11-10 12:32:12,1789.7978843735416,-0.10000000320000002,0.0,0.632666020245312,1789.8978843767416,0.0,0.0,0.6736960215582721,1024,0.0,99,Assisted_Takeoff,
0.30451408625746695,36.8773510403671,17700,2017-11-10 12:32:12,1789.7978843735416,-0.10000000320000002,0.0,0.6280960200990721,1789.8978843767416,0.0,0.0,0.6736960215582721,1024,0.0,99,Assisted_Takeoff,
0.304514055727908,36.8773511213929,17800,2017-11-10 12:32:12,1789.7978843735416,-0.10000000320000002,0.0,0.619956019838592,1789.8978843767416,0.0,0.0,0.6736960215582721,1024,0.0,99,Assisted_Takeoff,
0.30451402239905295,36.8773511768215,17900,2017-11-10 12:32:12,1789.7978843735416,-0.10000000320000002,0.0,0.6147070196706239,1789.8978843767416,0.0,0.0,0.6736960215582721,1024,0.0,99,Assisted_Takeoff,
0.304514006318372,36.877351258065204,18000,2017-11-10 12:32:12,1789.7978843735416,-0.10000000320000002,0.0,0.606274019400768,1789.8978843767416,0.0,0.0,0.6736960215582721,1024,0.0,99,Assisted_Takeoff,
0.304513959972347,36.8773513656898,18200,2017-11-10 12:32:12,1789.7978843735416,-0.10000000320000002,0.0,0.595779019064928,1789.8978843767416,0.0,0.0,0.6736960215582721,1024,0.0,99,Assisted_Takeoff,
0.30451392619902895,36.8773513945411,18300,2017-11-10 12:32:12,1789.7978843735416,-0.10000000320000002,0.0,0.5935460189934721,1789.8978843767416,0.0,0.0,0.6736960215582721,1024,0.0,99,Assisted_Takeoff,
0.304513909059046,36.877351443379204,18400,2017-11-10 12:32:12,1789.7978843735416,-0.10000000320000002,0.0,0.5887370188395841,1789.8978843767416,0.0,0.0,0.6736960215582721,1024,0.0,99,Assisted_Takeoff,
0.304513893568167,36.8773514811286,18500,2017-11-10 12:32:12,1789.7978843735416,-0.10000000320000002,0.0,0.585094018723008,1789.8978843767416,0.0,0.0,0.6736960215582721,1024,0.0,99,Assisted_Takeoff,
0.30451386640867306,36.8773515296322,18600,2017-11-10 12:32:13,1789.7978843735416,-0.10000000320000002,0.0,0.5806380185804161,1789.8978843767416,0.0,0.0,0.6736960215582721,1024,0.0,99,Assisted_Takeoff,
0.304513833685701,36.8773515728052,18700,2017-11-10 12:32:13,1789.7978843735416,-0.10000000320000002,0.0,0.576948018462336,1789.8978843767416,0.0,0.0,0.6736960215582721,1024,0.0,99,Assisted_Takeoff,
0.304513813126697,36.87735160946271,18800,2017-11-10 12:32:13,1789.7978843735416,-0.10000000320000002,0.0,0.57363001835616,1789.8978843767416,0.0,0.0,0.6736960215582721,1024,0.0,99,Assisted_Takeoff,
0.30451379457149397,36.877351625544,18900,2017-11-10 12:32:13,1789.7978843735416,-0.10000000320000002,0.0,0.572469018319008,1789.8978843767416,0.0,0.0,0.6736960215582721,1024,0.0,99,Assisted_Takeoff,
0.30451379418850394,36.8773516640579,19000,2017-11-10 12:32:13,1789.7978843735416,-0.10000000320000002,0.0,0.568362018187584,1789.8978843767416,0.0,0.0,0.6736960215582721,1024,0.0,99,Assisted_Takeoff,
0.30451378925218203,36.8773516945193,19100,2017-11-10 12:32:13,1789.7978843735416,-0.10000000320000002,0.0,0.56526001808832,1789.8978843767416,0.0,0.0,0.6736960215582721,1024,0.0,99,Assisted_Takeoff,
0.304513799672086,36.8773517461457,19200,2017-11-10 12:32:13,1789.7978843735416,-0.10000000320000002,0.0,0.559423017901536,1789.8978843767416,0.0,0.0,0.6736960215582721,1024,0.0,99,Assisted_Takeoff,
0.304513801956284,36.8773517831688,19300,2017-11-10 12:32:13,1789.7978843735416,-0.10000000320000002,0.0,0.5553990177727679,1789.8978843767416,0.0,0.0,0.6736960215582721,1024,0.0,99,Assisted_Takeoff,
0.30451378307294896,36.877351807671296,19400,2017-11-10 12:32:13,1789.7978843735416,-0.10000000320000002,0.0,0.55338001770816,1789.8978843767416,0.0,0.0,0.6736960215582721,1024,0.0,99,Assisted_Takeoff,
0.30451376055217894,36.8773518222924,19500,2017-11-10 12:32:13,1789.7978843735416,-0.10000000320000002,0.0,0.5525440176814079,1789.8978843767416,0.0,0.0,0.6736960215582721,1024,0.0,99,Assisted_Takeoff,
0.30451374890758304,36.8773518581362,19600,2017-11-10 12:32:14,1789.7978843735416,-0.10000000320000002,0.0,0.549111017571552,1789.8978843767416,0.0,0.0,0.6736960215582721,1024,0.0,99,Assisted_Takeoff,
0.30451373856045,36.877351884877896,19700,2017-11-10 12:32:14,1789.7978843735416,-0.10000000320000002,0.0,0.5466120174915841,1789.8978843767416,0.0,0.0,0.6736960215582721,1024,0.0,99,Assisted_Takeoff,
0.304513739185162,36.8773519343765,19800,2017-11-10 12:32:14,1789.7978843735416,-0.10000000320000002,0.0,0.541339017322848,1789.8978843767416,0.0,0.0,0.6736960215582721,1024,0.0,99,Assisted_Takeoff,
0.30451373748079197,36.8773519716651,19900,2017-11-10 12:32:14,1789.7978843735416,-0.10000000320000002,0.0,0.5374440171982079,1789.8978843767416,0.0,0.0,0.6736960215582721,1024,0.0,99,Assisted_Takeoff,
0.304513711748323,36.8773520314114,20000,2017-11-10 12:32:14,1789.7978843735416,-0.10000000320000002,0.0,0.5320020170240639,1789.8978843767416,0.0,0.0,0.6736960215582721,1024,0.0,99,Assisted_Takeoff,
0.30451368470974105,36.877352074315205,20100,2017-11-10 12:32:14,1789.7978843735416,-0.10000000320000002,0.0,0.528424016909568,1789.8978843767416,0.0,0.0,0.6736960215582721,1024,0.0,99,Assisted_Takeoff,
0.304513666693044,36.877352136774604,20200,2017-11-10 12:32:14,1789.7978843735416,-0.10000000320000002,0.0,0.522499016719968,1789.8978843767416,0.0,0.0,0.6736960215582721,1024,0.0,99,Assisted_Takeoff,
0.30451365262186303,36.8773521847335,20300,2017-11-10 12:32:14,1789.7978843735416,-0.10000000320000002,0.0,0.517981016575392,1789.8978843767416,0.0,0.0,0.6736960215582721,1024,0.0,99,Assisted_Takeoff,
0.30451364855981106,36.8773522516693,20400,2017-11-10 12:32:14,1789.7978843735416,-0.10000000320000002,0.0,0.511121016355872,1789.8978843767416,0.0,0.0,0.6736960215582721,1024,0.0,99,Assisted_Takeoff,
0.30451364343581,36.87735230147761,20500,2017-11-10 12:32:14,1789.7978843735416,-0.10000000320000002,0.0,0.5061070161954241,1789.8978843767416,0.0,0.0,0.6736960215582721,1024,0.0,99,Assisted_Takeoff,
0.304513646566901,36.8773523656197,20600,2017-11-10 12:32:15,1789.7978843735416,-0.10000000320000002,0.0,0.49929101597731207,1789.8978843767416,0.0,0.0,0.6736960215582721,1024,0.0,99,Assisted_Takeoff,
0.30451364718733803,36.877352416398004,20700,2017-11-10 12:32:15,1789.7978843735416,-0.10000000320000002,0.0,0.4939750158072,1789.8978843767416,0.0,0.0,0.6736960215582721,1024,0.0,99,Assisted_Takeoff,
0.304513655877529,36.877352482724106,20800,2017-11-10 12:32:15,1789.7978843735416,-0.10000000320000002,0.0,0.48673101557539195,1789.8978843767416,0.0,0.0,0.6736960215582721,1024,0.0,99,Assisted_Takeoff,
0.304513661143714,36.877352533159794,20900,2017-11-10 12:32:15,1789.7978843735416,-0.10000000320000002,0.0,0.481279015400928,1789.8978843767416,0.0,0.0,0.6736960215582721,1024,0.0,99,Assisted_Takeoff,
0.304513671182359,36.8773525930691,21000,2017-11-10 12:32:15,1789.7978843735416,-0.10000000320000002,0.0,0.47465901518908804,1789.8978843767416,0.0,0.0,0.6736960215582721,1024,0.0,99,Assisted_Takeoff,
0.304513677569625,36.8773526393827,21100,2017-11-10 12:32:15,1789.7978843735416,-0.10000000320000002,0.0,0.469598015027136,1789.8978843767416,0.0,0.0,0.6736960215582721,1024,0.0,99,Assisted_Takeoff,
0.304513654110362,36.8773526987345,21200,2017-11-10 12:32:15,1789.7978843735416,-0.10000000320000002,0.0,0.464412014861184,1789.8978843767416,0.0,0.0,0.6736960215582721,1024,0.0,99,Assisted_Takeoff,
0.30451363079592997,36.8773527466246,21300,2017-11-10 12:32:15,1789.7978843735416,-0.10000000320000002,0.0,0.46044901473436795,1789.8978843767416,0.0,0.0,0.6736960215582721,1024,0.0,99,Assisted_Takeoff,
0.304513610165274,36.877352805716,21400,2017-11-10 12:32:15,1789.7978843735416,-0.10000000320000002,0.0,0.45526501456847995,1789.8978843767416,0.0,0.0,0.6736960215582721,1024,0.0,99,Assisted_Takeoff,
0.3045135954647,36.877352853299605,21500,2017-11-10 12:32:15,1789.7978843735416,-0.10000000320000002,0.0,0.45104101443331207,1789.8978843767416,0.0,0.0,0.6736960215582721,1024,0.0,99,Assisted_Takeoff,
0.304513585180974,36.8773528773091,21600,2017-11-10 12:32:16,1789.7978843735416,-0.10000000320000002,0.0,0.449048014369536,1789.8978843767416,0.0,0.0,0.6736960215582721,1024,0.0,99,Assisted_Takeoff,
0.30451357693290504,36.8773528934951,21700,2017-11-10 12:32:16,1789.7978843735416,-0.10000000320000002,0.0,0.4477690143286081,1789.8978843767416,0.0,0.0,0.6736960215582721,1024,0.0,99,Assisted_Takeoff,
0.30451357438113397,36.877352924942,21800,2017-11-10 12:32:16,1789.7978843735416,-0.10000000320000002,0.0,0.444688014230016,1789.8978843767416,0.0,0.0,0.6736960215582721,1024,0.0,99,Assisted_Takeoff,
0.30451357176585303,36.877352954288895,21900,2017-11-10 12:32:16,1789.7978843735416,-0.10000000320000002,0.0,0.44182901413852804,1789.8978843767416,0.0,0.0,0.6736960215582721,1024,0.0,99,Assisted_Takeoff,
0.304513541362498,36.8773529646854,22000,2017-11-10 12:32:16,1789.7978843735416,-0.10000000320000002,0.0,0.4421780141496961,1789.8978843767416,0.0,0.0,0.6736960215582721,1024,0.0,99,Assisted_Takeoff,
0.304513512033713,36.87735296978521,22100,2017-11-10 12:32:16,1789.7978843735416,-0.10000000320000002,0.0,0.443038014177216,1789.8978843767416,0.0,0.0,0.6736960215582721,1024,0.0,99,Assisted_Takeoff,
0.304513489871099,36.87735299258821,22200,2017-11-10 12:32:16,1789.7978843735416,-0.10000000320000002,0.0,0.44180101413763206,1789.8978843767416,0.0,0.0,0.6736960215582721,1024,0.0,99,Assisted_Takeoff,
0.304513473962015,36.87735301535071,22300,2017-11-10 12:32:16,1789.7978843735416,-0.10000000320000002,0.0,0.44028801408921603,1789.8978843767416,0.0,0.0,0.6736960215582721,1024,0.0,99,Assisted_Takeoff,
0.304513466396061,36.87735306003471,22400,2017-11-10 12:32:16,1789.7978843735416,-0.10000000320000002,0.0,0.43619601395827196,1789.8978843767416,0.0,0.0,0.6736960215582721,1024,0.0,99,Assisted_Takeoff,
0.30451345976809,36.877353095861295,22500,2017-11-10 12:32:16,1789.7978843735416,-0.10000000320000002,0.0,0.432957013854624,1789.8978843767416,0.0,0.0,0.6736960215582721,1024,0.0,99,Assisted_Takeoff,
0.30451345989287,36.8773531195005,22600,2017-11-10 12:32:17,1789.7978843735416,-0.10000000320000002,0.0,0.430602013779264,1789.8978843767416,0.0,0.0,0.6736960215582721,1024,0.0,99,Assisted_Takeoff,
0.304513458157559,36.8773531324131,22700,2017-11-10 12:32:17,1789.7978843735416,-0.10000000320000002,0.0,0.42940701374102397,1789.8978843767416,0.0,0.0,0.6736960215582721,1024,0.0,99,Assisted_Takeoff,
0.304513463121667,36.8773531347304,22800,2017-11-10 12:32:17,1789.7978843735416,-0.10000000320000002,0.0,0.42892801372569606,1789.8978843767416,0.0,0.0,0.6736960215582721,1024,0.0,99,Assisted_Takeoff,
0.304513466313824,36.877353134123396,22900,2017-11-10 12:32:17,1789.7978843735416,-0.10000000320000002,0.0,0.42882801372249607,1789.8978843767416,0.0,0.0,0.6736960215582721,1024,0.0,99,Assisted_Takeoff,
0.304513474748961,36.8773531590739,23000,2017-11-10 12:32:17,1789.7978843735416,-0.10000000320000002,0.0,0.42592901362972807,1789.8978843767416,0.0,0.0,0.6736960215582721,1024,0.0,99,Assisted_Takeoff,
0.304513480197124,36.8773531803714,23100,2017-11-10 12:32:17,1789.7978843735416,-0.10000000320000002,0.0,0.42354201355334403,1789.8978843767416,0.0,0.0,0.6736960215582721,1024,0.0,99,Assisted_Takeoff,
0.304513488186677,36.877353193314796,23200,2017-11-10 12:32:17,1789.7978843735416,-0.10000000320000002,0.0,0.421857013499424,1789.8978843767416,0.0,0.0,0.6736960215582721,1024,0.0,99,Assisted_Takeoff,
0.304513493844604,36.877353197179396,23300,2017-11-10 12:32:17,1789.7978843735416,-0.10000000320000002,0.0,0.4211890134780481,1789.8978843767416,0.0,0.0,0.6736960215582721,1024,0.0,99,Assisted_Takeoff,
0.30451350031848307,36.8773532288645,23400,2017-11-10 12:32:17,1789.7978843735416,-0.10000000320000002,0.0,0.41772101336707207,1789.8978843767416,0.0,0.0,0.6736960215582721,1024,0.0,99,Assisted_Takeoff,
0.304513505665886,36.8773532551207,23500,2017-11-10 12:32:17,1789.7978843735416,-0.10000000320000002,0.0,0.4148500132752,1789.8978843767416,0.0,0.0,0.6736960215582721,1024,0.0,99,Assisted_Takeoff,
0.304513510998531,36.877353277676896,23600,2017-11-10 12:32:18,1789.7978843735416,-0.10000000320000002,0.0,0.41234701319510403,1789.8978843767416,0.0,0.0,0.6736960215582721,1024,0.0,99,Assisted_Takeoff,
0.304513515460671,36.8773532874594,23700,2017-11-10 12:32:18,1789.7978843735416,-0.10000000320000002,0.0,0.411152013156864,1789.8978843767416,0.0,0.0,0.6736960215582721,1024,0.0,99,Assisted_Takeoff,
0.30451351753357897,36.8773533246101,23800,2017-11-10 12:32:18,1789.7978843735416,-0.10000000320000002,0.0,0.407375013036,1789.8978843767416,0.0,0.0,0.6736960215582721,1024,0.0,99,Assisted_Takeoff,
0.30451352060655396,36.877353354495604,23900,2017-11-10 12:32:18,1789.7978843735416,-0.10000000320000002,0.0,0.404269012936608,1789.8978843767416,0.0,0.0,0.6736960215582721,1024,0.0,99,Assisted_Takeoff,
0.304513522541044,36.8773533792264,24000,2017-11-10 12:32:18,1789.7978843735416,-0.10000000320000002,0.0,0.4017330128554561,1789.8978843767416,0.0,0.0,0.6736960215582721,1024,0.0,99,Assisted_Takeoff,
0.30451352535010995,36.8773533915888,24100,2017-11-10 12:32:18,1789.7978843735416,-0.10000000320000002,0.0,0.400371012811872,1789.8978843767416,0.0,0.0,0.6736960215582721,1024,0.0,99,Assisted_Takeoff,
0.30451349352756607,36.8773534300076,24200,2017-11-10 12:32:18,1789.7978843735416,-0.10000000320000002,0.0,0.39827401274476804,1789.8978843767416,0.0,0.0,0.6736960215582721,1024,0.0,99,Assisted_Takeoff,
0.304513466269449,36.8773534603074,24300,2017-11-10 12:32:18,1789.7978843735416,-0.10000000320000002,0.0,0.39678301269705607,1789.8978843767416,0.0,0.0,0.6736960215582721,1024,0.0,99,Assisted_Takeoff,
0.304513439581491,36.8773535197293,24400,2017-11-10 12:32:18,1789.7978843735416,-0.10000000320000002,0.0,0.39249901255996805,1789.8978843767416,0.0,0.0,0.6736960215582721,1024,0.0,99,Assisted_Takeoff,
0.30451342413773497,36.87735356185,24500,2017-11-10 12:32:18,1789.7978843735416,-0.10000000320000002,0.0,0.389319012458208,1789.8978843767416,0.0,0.0,0.6736960215582721,1024,0.0,99,Assisted_Takeoff,
0.304513412945643,36.8773535901472,24600,2017-11-10 12:32:19,1789.7978843735416,-0.10000000320000002,0.0,0.38725101239203197,1789.8978843767416,0.0,0.0,0.6736960215582721,1024,0.0,99,Assisted_Takeoff,
0.30451340701424,36.8773536078347,24700,2017-11-10 12:32:19,1789.7978843735416,-0.10000000320000002,0.0,0.385906012348992,1789.8978843767416,0.0,0.0,0.6736960215582721,1024,0.0,99,Assisted_Takeoff,
0.304513405819369,36.8773536491781,24800,2017-11-10 12:32:19,1789.7978843735416,-0.10000000320000002,0.0,0.38205001222560003,1789.8978843767416,0.0,0.0,0.6736960215582721,1024,0.0,99,Assisted_Takeoff,
0.304513407610454,36.8773536815714,24900,2017-11-10 12:32:19,1789.7978843735416,-0.10000000320000002,0.0,0.37888001212416,1789.8978843767416,0.0,0.0,0.6736960215582721,1024,0.0,99,Assisted_Takeoff,
0.304513411132982,36.877353703424795,25000,2017-11-10 12:32:19,1789.7978843735416,-0.10000000320000002,0.0,0.37660901205148806,1789.8978843767416,0.0,0.0,0.6736960215582721,1024,0.0,99,Assisted_Takeoff,
0.304513416488323,36.877353714848795,25100,2017-11-10 12:32:19,1789.7978843735416,-0.10000000320000002,0.0,0.37521601200691196,1789.8978843767416,0.0,0.0,0.6736960215582721,1024,0.0,99,Assisted_Takeoff,
0.304513422203755,36.8773537505834,25200,2017-11-10 12:32:19,1789.6978843703416,-0.20000000640000004,0.0,0.37151201188838395,1789.8978843767416,0.0,0.0,0.6736960215582721,1024,0.0,99,Assisted_Takeoff,
0.30451342934590603,36.877353779326,25300,2017-11-10 12:32:19,1789.6978843703416,-0.20000000640000004,0.0,0.36838601178835195,1789.8978843767416,0.0,0.0,0.6736960215582721,1024,0.0,99,Assisted_Takeoff,
0.30451343509044604,36.8773537978426,25400,2017-11-10 12:32:19,1789.6978843703416,-0.20000000640000004,0.0,0.36630501172176005,1789.8978843767416,0.0,0.0,0.6736960215582721,1024,0.0,99,Assisted_Takeoff,
0.304513442840415,36.8773538077156,25500,2017-11-10 12:32:19,1789.6978843703416,-0.20000000640000004,0.0,0.36491601167731197,1789.8978843767416,0.0,0.0,0.6736960215582721,1024,0.0,99,Assisted_Takeoff,
0.304513447810222,36.8773538425132,25600,2017-11-10 12:32:20,1789.6978843703416,-0.20000000640000004,0.0,0.3613580115634561,1789.8978843767416,0.0,0.0,0.6736960215582721,1024,0.0,99,Assisted_Takeoff,
0.304513456185513,36.8773538696012,25700,2017-11-10 12:32:20,1789.6978843703416,-0.20000000640000004,0.0,0.35832101146627204,1789.8978843767416,0.0,0.0,0.6736960215582721,1024,0.0,99,Assisted_Takeoff,
0.304513460194335,36.8773538900449,25800,2017-11-10 12:32:20,1789.6978843703416,-0.20000000640000004,0.0,0.35617001139744,1789.8978843767416,0.0,0.0,0.6736960215582721,1024,0.0,99,Assisted_Takeoff,
0.304513467812603,36.8773539014862,25900,2017-11-10 12:32:20,1789.6978843703416,-0.20000000640000004,0.0,0.35464201134854395,1789.8978843767416,0.0,0.0,0.6736960215582721,1024,0.0,99,Assisted_Takeoff,
0.304513498435289,36.8773539359846,26000,2017-11-10 12:32:20,1789.6978843703416,-0.20000000640000004,0.0,0.34957101118627204,1789.8978843767416,0.0,0.0,0.6736960215582721,1024,0.0,99,Assisted_Takeoff,
0.304513533044101,36.8773539635324,26100,2017-11-10 12:32:20,1789.6978843703416,-0.20000000640000004,0.0,0.344913011037216,1789.8978843767416,0.0,0.0,0.6736960215582721,1024,0.0,99,Assisted_Takeoff,
0.304513558592351,36.877354013653395,26200,2017-11-10 12:32:20,1789.6978843703416,-0.20000000640000004,0.0,0.338687010837984,1789.8978843767416,0.0,0.0,0.6736960215582721,1024,0.0,99,Assisted_Takeoff,
0.304513580559145,36.8773540538446,26300,2017-11-10 12:32:20,1789.6978843703416,-0.20000000640000004,0.0,0.33360601067539203,1789.8978843767416,0.0,0.0,0.6736960215582721,1024,0.0,99,Assisted_Takeoff,
0.30451359228210995,36.8773540906048,26400,2017-11-10 12:32:20,1789.6978843703416,-0.20000000640000004,0.0,0.32946501054288,1789.8978843767416,0.0,0.0,0.6736960215582721,1024,0.0,99,Assisted_Takeoff,
0.30451360592287297,36.8773541139294,26500,2017-11-10 12:32:20,1789.6978843703416,-0.20000000640000004,0.0,0.326463010446816,1789.8978843767416,0.0,0.0,0.6736960215582721,1024,0.0,99,Assisted_Takeoff,
0.304513607436511,36.877354157583206,26600,2017-11-10 12:32:21,1789.6978843703416,-0.20000000640000004,0.0,0.32230901031388803,1789.8978843767416,0.0,0.0,0.6736960215582721,1024,0.0,99,Assisted_Takeoff,
0.30451361457276,36.877354192662104,26700,2017-11-10 12:32:21,1789.6978843703416,-0.20000000640000004,0.0,0.3186190101958081,1789.8978843767416,0.0,0.0,0.6736960215582721,1024,0.0,99,Assisted_Takeoff,
0.304513610450659,36.8773542143091,26800,2017-11-10 12:32:21,1789.6978843703416,-0.20000000640000004,0.0,0.31687501013999997,1789.8978843767416,0.0,0.0,0.6736960215582721,1024,0.0,99,Assisted_Takeoff,
0.304513612463009,36.877354224082495,26900,2017-11-10 12:32:21,1789.6978843703416,-0.20000000640000004,0.0,0.315849010107168,1789.8978843767416,0.0,0.0,0.6736960215582721,1024,0.0,99,Assisted_Takeoff,
0.30451360383235804,36.8773542565149,27000,2017-11-10 12:32:21,1789.6978843703416,-0.20000000640000004,0.0,0.313411010029152,1789.8978843767416,0.0,0.0,0.6736960215582721,1024,0.0,99,Assisted_Takeoff,
0.30451360618678197,36.877354285326,27100,2017-11-10 12:32:21,1789.6978843703416,-0.20000000640000004,0.0,0.31062900994012804,1789.8978843767416,0.0,0.0,0.6736960215582721,1024,0.0,99,Assisted_Takeoff,
0.304513629965423,36.8773543363253,27200,2017-11-10 12:32:21,1789.6978843703416,-0.20000000640000004,0.0,0.304466009742912,1789.8978843767416,0.0,0.0,0.6736960215582721,1024,0.0,99,Assisted_Takeoff,
0.304513661383502,36.877354377353896,27300,2017-11-10 12:32:21,1789.6978843703416,-0.20000000640000004,0.0,0.29872500955920006,1789.8978843767416,0.0,0.0,0.6736960215582721,1024,0.0,99,Assisted_Takeoff,
0.30451368223532005,36.8773544053926,27400,2017-11-10 12:32:21,1789.6978843703416,-0.20000000640000004,0.0,0.29484000943488003,1789.8978843767416,0.0,0.0,0.6736960215582721,1024,0.0,99,Assisted_Takeoff,
0.304513703323568,36.8773544229981,27500,2017-11-10 12:32:21,1789.6978843703416,-0.20000000640000004,0.0,0.291892009340544,1789.8978843767416,0.0,0.0,0.6736960215582721,1024,0.0,99,Assisted_Takeoff,
0.304513684334283,36.8773544660265,27600,2017-11-10 12:32:22,1789.6978843703416,-0.20000000640000004,0.0,0.289207009254624,1789.8978843767416,0.0,0.0,0.6736960215582721,1024,0.0,99,Assisted_Takeoff,
0.304513669956039,36.877354504064705,27700,2017-11-10 12:32:22,1789.6978843703416,-0.20000000640000004,0.0,0.286733009175456,1789.8978843767416,0.0,0.0,0.6736960215582721,1024,0.0,99,Assisted_Takeoff,
0.30451367106735,36.8773545256296,27800,2017-11-10 12:32:22,1789.6978843703416,-0.20000000640000004,0.0,0.28473400911148805,1789.8978843767416,0.0,0.0,0.6736960215582721,1024,0.0,99,Assisted_Takeoff,
0.30451368817812297,36.87735453432511,27900,2017-11-10 12:32:22,1789.6978843703416,-0.20000000640000004,0.0,0.282823009050336,1789.8978843767416,0.0,0.0,0.6736960215582721,1024,0.0,99,Assisted_Takeoff,
0.30451366662861895,36.8773545688897,28000,2017-11-10 12:32:22,1789.6978843703416,-0.20000000640000004,0.0,0.28119500899823996,1789.8978843767416,0.0,0.0,0.6736960215582721,1024,0.0,99,Assisted_Takeoff,
0.304513650114568,36.8773546043802,28100,2017-11-10 12:32:22,1789.6978843703416,-0.20000000640000004,0.0,0.279204008934528,1789.8978843767416,0.0,0.0,0.6736960215582721,1026,0.0,99,Assisted_Takeoff,
0.304513652740943,36.8773546281153,28200,2017-11-10 12:32:22,1789.6978843703416,-0.20000000640000004,0.0,0.276953008862496,1789.8978843767416,0.0,0.0,0.6736960215582721,1030,0.0,99,Assisted_Takeoff,
0.304513670504417,36.8773546403457,28300,2017-11-10 12:32:22,1789.6978843703416,-0.20000000640000004,0.0,0.27466000878912,1789.8978843767416,0.0,0.0,0.6736960215582721,1038,0.0,99,Assisted_Takeoff,
0.30451368030418896,36.8773546744574,28400,2017-11-10 12:32:22,1789.6978843703416,-0.20000000640000004,0.0,0.27101300867241607,1789.8978843767416,0.0,0.0,0.6736960215582721,1044,0.0,99,Assisted_Takeoff,
0.304513693709439,36.8773547107455,28500,2017-11-10 12:32:22,1789.6978843703416,-0.20000000640000004,0.0,0.26693500854192004,1789.8978843767416,0.0,0.0,0.6736960215582721,1054,0.0,99,Assisted_Takeoff,
0.304513697818105,36.8773547643928,28600,2017-11-10 12:32:23,1789.6978843703416,-0.20000000640000004,0.0,0.262031008384992,1789.8978843767416,0.0,0.0,0.6736960215582721,1062,0.0,99,Assisted_Takeoff,
0.304513706018745,36.877354809044796,28700,2017-11-10 12:32:23,1789.6978843703416,-0.20000000640000004,0.0,0.25764100824451197,1789.8978843767416,0.0,0.0,0.6736960215582721,1100,0.0,99,Assisted_Takeoff,
0.30451371050317405,36.877354922354606,28900,2017-11-10 12:32:23,1789.6978843703416,-0.20000000640000004,0.0,0.2478250079304,1789.8978843767416,0.0,0.0,0.6736960215582721,1121,0.0,99,Assisted_Takeoff,
0.30451367647032296,36.877354963198705,29000,2017-11-10 12:32:23,1789.6978843703416,-0.20000000640000004,0.0,0.247058007905856,1789.8978843767416,0.0,0.0,0.6736960215582721,1161,0.0,99,Assisted_Takeoff,
0.304513653087292,36.8773549910835,29100,2017-11-10 12:32:23,1789.6978843703416,-0.20000000640000004,0.0,0.24662600789203198,1789.8978843767416,0.0,0.0,0.6736960215582721,1223,0.0,99,Assisted_Takeoff,
0.304513620979466,36.877355025075005,29200,2017-11-10 12:32:23,1789.6978843703416,-0.20000000640000004,0.0,0.246474007887168,1789.8978843767416,0.0,0.0,0.6736960215582721,1275,0.0,99,Assisted_Takeoff,
0.304513604404043,36.8773550571798,29300,2017-11-10 12:32:23,1789.6978843703416,-0.20000000640000004,0.0,0.24532000785024,1789.8978843767416,0.0,0.0,0.6736960215582721,1316,0.0,99,Assisted_Takeoff,
0.304513584135513,36.87735510403721,29400,2017-11-10 12:32:23,1789.6978843703416,-0.20000000640000004,0.0,0.24342300778953604,1789.8978843767416,0.0,0.0,0.6736960215582721,1363,0.0,99,Assisted_Takeoff,
0.30451357700099496,36.877355138068296,29500,2017-11-10 12:32:23,1789.6978843703416,-0.20000000640000004,0.0,0.241486007727552,1789.8978843767416,0.0,0.0,0.6736960215582721,1409,0.0,99,Assisted_Takeoff,
0.30451358272752,36.877355135242205,29600,2017-11-10 12:32:24,1789.6978843703416,-0.20000000640000004,0.0,0.241219007719008,1789.8978843767416,0.0,0.0,0.6736960215582721,1448,0.0,99,Assisted_Takeoff,
0.30451358487553903,36.877355075233496,29700,2017-11-10 12:32:24,1789.6978843703416,-0.20000000640000004,0.35999970196000003,0.24552900785692802,1789.8978843767416,0.0,0.35999970196000003,0.6736960215582721,1500,0.0,99,GPS_Atti,Obstacle Avoided. Revise Flight Route
0.304513545028634,36.8773549766715,29800,2017-11-10 12:32:24,1789.6978843703416,-0.20000000640000004,0.35999970196000003,0.25628100820099203,1789.8978843767416,0.0,0.35999970196000003,0.6736960215582721,1567,0.0,99,GPS_Atti,
0.30451349087818896,36.8773548475573,29900,2017-11-10 12:32:24,1789.7978843735416,-0.10000000320000002,0.7199994039200001,0.27065400866092804,1789.8978843767416,0.0,0.7199994039200001,0.6736960215582721,1575,0.0,99,GPS_Atti,
0.304513464715303,36.877354677652505,30000,2017-11-10 12:32:24,1789.8978843767416,0.0,0.7199994039200001,0.28634700916310396,1789.8978843767416,0.0,0.7199994039200001,0.6736960215582721,1572,0.0,99,GPS_Atti,
0.304513480651663,36.8773544930668,30100,2017-11-10 12:32:24,1789.9978843799415,0.10000000320000002,0.7199994039200001,0.30067300962153604,1789.9978843799415,0.10000000320000002,0.7199994039200001,0.6736960215582721,1572,0.0,99,GPS_Atti,
0.30451351959468,36.8773542666863,30200,2017-11-10 12:32:24,1790.0978843831417,0.20000000640000004,0.7199994039200001,0.317907010173024,1790.0978843831417,0.20000000640000004,0.7199994039200001,0.6736960215582721,1581,0.0,99,GPS_Atti,
0.304513536079011,36.8773540347022,30300,2017-11-10 12:32:24,1790.3978843927414,0.500000016,0.7199994039200001,0.338086010818752,1790.3978843927414,0.500000016,0.7199994039200001,0.6736960215582721,1590,0.0,99,GPS_Atti,
0.304513492588463,36.877353854435206,30400,2017-11-10 12:32:24,1790.6978844023415,0.8000000256000002,0.35999970196000003,0.35756901144220804,1790.6978844023415,0.8000000256000002,0.7199994039200001,0.6736960215582721,1591,0.0,99,GPS_Atti,Home Point Recorded. RTH Altitude:  30m.
0.304513420592206,36.877353731462996,30500,2017-11-10 12:32:24,1790.9978844119416,1.1000000352,0.35999970196000003,0.3734080119490561,1790.9978844119416,1.1000000352,0.7199994039200001,0.6736960215582721,1586,0.0,99,GPS_Atti,
0.304513447304997,36.8773534987522,30600,2017-11-10 12:32:25,1791.3978844247415,1.5000000480000002,0.8063993323904,0.39409501261104,1791.3978844247415,1.5000000480000002,0.8063993323904,0.6736960215582721,1590,0.0,99,GPS_Atti,
0.304513581863121,36.8773531557591,30700,2017-11-10 12:32:25,1791.6978844343416,1.8000000576000001,1.1375990581936,0.42102001347264,1791.6978844343416,1.8000000576000001,1.1375990581936,0.6736960215582721,1591,0.0,99,GPS_Atti,
0.304513768055846,36.877352737146104,30800,2017-11-10 12:32:25,1792.0978844471417,2.2000000704,0.8063993323904,0.45585801458745606,1792.0978844471417,2.2000000704,1.1375990581936,0.6736960215582721,1588,0.0,99,GPS_Atti,
0.30451391140258005,36.8773524477933,30900,2017-11-10 12:32:25,1792.4978844599416,2.6000000832000003,0.35999970196000003,0.48113001539615996,1792.4978844599416,2.6000000832000003,1.1375990581936,0.6736960215582721,1588,0.0,99,GPS_Atti,
0.304513973447721,36.8773522494591,31000,2017-11-10 12:32:25,1792.9978844759416,3.1000000992,0.0,0.500292016009344,1792.9978844759416,3.1000000992,1.1375990581936,0.6736960215582721,1586,0.0,99,GPS_Atti,
0.304513935287274,36.877352116114395,31100,2017-11-10 12:32:25,1793.3978844887415,3.500000112,0.35999970196000003,0.51571501650288,1793.3978844887415,3.500000112,1.1375990581936,0.6736960215582721,1586,0.0,99,GPS_Atti,
0.304513792745499,36.8773519556951,31200,2017-11-10 12:32:25,1793.7978845015416,3.9000001248,0.7199994039200001,0.53731001719392,1793.7978845015416,3.9000001248,1.1375990581936,0.6736960215582721,1582,0.0,99,GPS_Atti,
0.30451360248023995,36.8773517720256,31300,2017-11-10 12:32:25,1794.1978845143415,4.3000001376,0.8063993323904,0.5632030180224961,1794.1978845143415,4.3000001376,1.1375990581936,0.6736960215582721,1581,0.0,99,GPS_Atti,
0.30451334517407896,36.8773515516622,31400,2017-11-10 12:32:25,1794.5978845271416,4.700000150400001,0.8063993323904,0.595813019066016,1794.5978845271416,4.700000150400001,1.1375990581936,0.6736960215582721,1581,0.0,99,GPS_Atti,
0.30451311404617304,36.87735132312061,31500,2017-11-10 12:32:25,1794.9978845399414,5.1000001632,0.8063993323904,0.6287510201200321,1794.9978845399414,5.1000001632,1.1375990581936,0.6736960215582721,1582,0.0,99,GPS_Atti,
0.30451290019361404,36.877351060913796,31600,2017-11-10 12:32:26,1795.3978845527417,5.500000176000001,0.8063993323904,0.664731021271392,1795.3978845527417,5.500000176000001,1.1375990581936,0.6736960215582721,1583,0.0,99,GPS_Atti,
0.304512720576242,36.877350801820796,31700,2017-11-10 12:32:26,1795.7978845655418,5.9000001888,0.8063993323904,0.699053022369696,1795.7978845655418,5.9000001888,1.1375990581936,0.699053022369696,1589,0.0,99,GPS_Atti,
0.304512541035202,36.877350556511104,31800,2017-11-10 12:32:26,1796.1978845783417,6.300000201600001,0.8063993323904,0.7320400234252801,1796.1978845783417,6.300000201600001,1.1375990581936,0.7320400234252801,1615,0.0,99,GPS_Atti,
0.304512415111699,36.8773503219367,31900,2017-11-10 12:32:26,1796.5978845911418,6.7000002144,0.5075995797636,0.761564024370048,1796.5978845911418,6.7000002144,1.1375990581936,0.761564024370048,1669,0.0,99,GPS_Atti,
0.304512322094978,36.8773500985896,32000,2017-11-10 12:32:26,1796.9978846039417,7.100000227200002,0.35999970196000003,0.788461025230752,1796.9978846039417,7.100000227200002,1.1375990581936,0.788461025230752,1684,0.0,99,GPS_Atti,
0.304512276835837,36.8773498949975,32100,2017-11-10 12:32:26,1797.3978846167417,7.50000024,0.5075995797636,0.811206025958592,1797.3978846167417,7.50000024,1.1375990581936,0.811206025958592,1684,0.0,99,GPS_Atti,
0.30451222052750104,36.877349763919,32200,2017-11-10 12:32:26,1797.7978846295416,7.9000002528,0.5075995797636,0.82707002646624,1797.7978846295416,7.9000002528,1.1375990581936,0.82707002646624,1684,0.0,99,GPS_Atti,
0.30451218060395696,36.8773496158604,32300,2017-11-10 12:32:26,1798.2978846455417,8.4000002688,0.5075995797636,0.843937027005984,1798.2978846455417,8.4000002688,1.1375990581936,0.843937027005984,1684,0.0,99,GPS_Atti,
0.304512139456231,36.877349471079505,32400,2017-11-10 12:32:26,1798.7978846615415,8.9000002848,0.35999970196000003,0.8605310275369922,1798.7978846615415,8.9000002848,1.1375990581936,0.8605310275369922,1684,0.0,99,GPS_Atti,
0.304512170853445,36.8773493339313,32500,2017-11-10 12:32:26,1799.2978846775418,9.400000300800002,0.35999970196000003,0.873202027942464,1799.2978846775418,9.400000300800002,1.1375990581936,0.873202027942464,1684,0.0,99,GPS_Atti,
0.304512261185676,36.877349256018704,32600,2017-11-10 12:32:27,1799.6978846903417,9.8000003136,0.35999970196000003,0.87740502807696,1799.6978846903417,9.8000003136,1.1375990581936,0.87740502807696,1684,0.0,99,GPS_Atti,
0.30451239088493,36.8773492173432,32700,2017-11-10 12:32:27,1800.1978847063417,10.300000329600001,0.35999970196000003,0.8761450280366401,1800.1978847063417,10.300000329600001,1.1375990581936,0.87740502807696,1684,0.0,99,GPS_Atti,
0.30451252443423305,36.8773492401215,32800,2017-11-10 12:32:27,1800.7978847255417,10.9000003488,0.0,0.8685740277943679,1800.7978847255417,10.9000003488,1.1375990581936,0.87740502807696,1684,0.0,99,GPS_Atti,
0.304512658799794,36.8773492625798,32900,2017-11-10 12:32:27,1801.2978847415416,11.4000003648,0.0,0.861204027558528,1801.2978847415416,11.4000003648,1.1375990581936,0.87740502807696,1684,0.0,99,GPS_Atti,
0.304512738073465,36.877349285499,33000,2017-11-10 12:32:27,1801.7978847575416,11.900000380800002,0.0,0.855933027389856,1801.7978847575416,11.900000380800002,1.1375990581936,0.87740502807696,1684,0.0,99,GPS_Atti,
0.304512801896867,36.8773492958109,33100,2017-11-10 12:32:27,1802.2978847735417,12.4000003968,0.0,0.852596027283072,1802.2978847735417,12.4000003968,1.1375990581936,0.87740502807696,1684,0.0,99,GPS_Atti,
0.304512832670998,36.8773492883735,33200,2017-11-10 12:32:27,1802.8978847927415,13.000000416,0.0,0.852317027274144,1802.8978847927415,13.000000416,1.1375990581936,0.87740502807696,1684,0.0,99,GPS_Atti,
0.3045128752314,36.877349278439,33300,2017-11-10 12:32:27,1803.3978848087415,13.500000432000002,0.0,0.851917027261344,1803.3978848087415,13.500000432000002,1.1375990581936,0.87740502807696,1684,0.0,99,GPS_Atti,
0.304512886469699,36.8773492801026,33400,2017-11-10 12:32:27,1803.8978848247416,14.000000448,0.0,0.851362027243584,1803.8978848247416,14.000000448,1.1375990581936,0.87740502807696,1684,0.0,99,GPS_Atti,
0.30451290558396804,36.877349296780295,33500,2017-11-10 12:32:27,1804.3978848407417,14.500000464,0.0,0.848952027166464,1804.3978848407417,14.500000464,1.1375990581936,0.87740502807696,1684,0.0,99,GPS_Atti,
0.30451288820053196,36.877349318086,33600,2017-11-10 12:32:28,1804.9978848599417,15.100000483200002,0.0,0.847279027112928,1804.9978848599417,15.100000483200002,1.1375990581936,0.87740502807696,1684,0.0,99,GPS_Atti,
0.304512883981437,36.877349335971296,33700,2017-11-10 12:32:28,1805.4978848759417,15.6000004992,0.0,0.8455270270568641,1805.4978848759417,15.6000004992,1.1375990581936,0.87740502807696,1684,0.0,99,GPS_Atti,
0.304512871558241,36.8773493059242,33800,2017-11-10 12:32:28,1805.9978848919416,16.1000005152,0.0,0.8491310271721921,1805.9978848919416,16.1000005152,1.1375990581936,0.87740502807696,1684,0.0,99,GPS_Atti,
0.304512874326799,36.8773492795288,33900,2017-11-10 12:32:28,1806.5978849111416,16.7000005344,0.0,0.8518330272586561,1806.5978849111416,16.7000005344,1.1375990581936,0.87740502807696,1684,0.0,99,GPS_Atti,
0.30451281292163696,36.877349257714,34000,2017-11-10 12:32:28,1807.0978849271416,17.2000005504,0.0,0.8562390273996481,1807.0978849271416,17.2000005504,1.1375990581936,0.87740502807696,1684,0.0,99,GPS_Atti,
0.304512741610038,36.8773492649308,34100,2017-11-10 12:32:28,1807.6978849463417,17.8000005696,0.0,0.8579740274551679,1807.6978849463417,17.8000005696,1.1375990581936,0.87740502807696,1684,0.0,99,GPS_Atti,
0.304512619479792,36.877349274466,34200,2017-11-10 12:32:28,1808.1978849623417,18.3000005856,0.0,0.861404027564928,1808.1978849623417,18.3000005856,1.1375990581936,0.87740502807696,1684,0.0,99,GPS_Atti,
0.304512516758359,36.877349294145006,34300,2017-11-10 12:32:28,1808.6978849783416,18.800000601600004,0.0,0.8632280276232961,1808.6978849783416,18.800000601600004,1.1375990581936,0.87740502807696,1684,0.0,99,GPS_Atti,
0.304512376162779,36.8773493182707,34400,2017-11-10 12:32:28,1809.2978849975416,19.4000006208,0.0,0.8662630277204161,1809.2978849975416,19.4000006208,1.1375990581936,0.87740502807696,1684,0.0,99,GPS_Atti,
0.304512259800685,36.8773493637295,34500,2017-11-10 12:32:28,1809.8978850167416,20.00000064,0.0,0.866361027723552,1809.8978850167416,20.00000064,1.1375990581936,0.87740502807696,1684,0.0,99,GPS_Atti,
0.304512136438317,36.8773494156198,34600,2017-11-10 12:32:29,1810.3978850327417,20.500000655999997,0.0,0.8663300277225601,1810.3978850327417,20.500000655999997,1.1375990581936,0.87740502807696,1684,0.0,99,GPS_Atti,
0.30451205377931395,36.8773494809187,34700,2017-11-10 12:32:29,1810.8978850487417,21.000000672,0.0,0.8633480276271359,1810.8978850487417,21.000000672,1.1375990581936,0.87740502807696,1684,0.0,99,GPS_Atti,
0.30451193131381105,36.877349538257796,34800,2017-11-10 12:32:29,1811.3978850647416,21.500000688,0.0,0.8631760276216323,1811.3978850647416,21.500000688,1.1375990581936,0.87740502807696,1684,0.0,99,GPS_Atti,
0.30451183602134,36.8773495896182,34900,2017-11-10 12:32:29,1811.9978850839416,22.1000007072,0.0,0.862548027601536,1811.9978850839416,22.1000007072,1.1375990581936,0.87740502807696,1684,0.0,99,GPS_Atti,
0.30451171848025205,36.877349625552505,35000,2017-11-10 12:32:29,1812.4978850999416,22.6000007232,0.0,0.8647280276712961,1812.4978850999416,22.6000007232,1.1375990581936,0.87740502807696,1684,0.0,99,GPS_Atti,
0.30451162773724605,36.877349665631,35100,2017-11-10 12:32:29,1812.9978851159417,23.100000739200006,0.0,0.8653370276907839,1812.9978851159417,23.100000739200006,1.1375990581936,0.87740502807696,1684,0.0,99,GPS_Atti,
0.304511491969392,36.877349712511,35200,2017-11-10 12:32:29,1813.5978851351415,23.700000758399998,0.0,0.867789027769248,1813.5978851351415,23.700000758399998,1.1375990581936,0.87740502807696,1684,0.0,99,GPS_Atti,
0.304511374202357,36.8773497744263,35300,2017-11-10 12:32:29,1814.0978851511416,24.2000007744,0.0,0.868087027778784,1814.0978851511416,24.2000007744,1.1375990581936,0.87740502807696,1684,0.0,99,GPS_Atti,
0.304511236490548,36.877349839347794,35400,2017-11-10 12:32:29,1814.5978851671416,24.7000007904,0.0,0.8694720278231041,1814.5978851671416,24.7000007904,1.1375990581936,0.87740502807696,1684,0.0,99,GPS_Atti,
0.304511149802775,36.8773499163697,35500,2017-11-10 12:32:29,1815.1978851863416,25.3000008096,0.0,0.8670750277464001,1815.1978851863416,25.3000008096,1.1375990581936,0.87740502807696,1684,0.0,99,GPS_Atti,
0.30451102132465,36.8773499878287,35600,2017-11-10 12:32:30,1815.6978852023417,25.800000825599998,0.0,0.8678690277718081,1815.6978852023417,25.800000825599998,1.1375990581936,0.87740502807696,1684,0.0,99,GPS_Atti,
0.304510929227185,36.8773500541891,35700,2017-11-10 12:32:30,1816.1978852183418,26.300000841600003,0.0,0.8672180277509762,1816.1978852183418,26.300000841600003,1.1375990581936,0.87740502807696,1684,0.0,99,GPS_Atti,
0.30451082209429803,36.8773500903605,35800,2017-11-10 12:32:30,1816.7978852375415,26.9000008608,0.0,0.8704690278550079,1816.7978852375415,26.9000008608,1.1375990581936,0.87740502807696,1684,0.0,99,GPS_Atti,
0.304510777473711,36.8773501257697,35900,2017-11-10 12:32:30,1817.2978852535416,27.4000008768,0.0,0.870006027840192,1817.2978852535416,27.4000008768,1.1375990581936,0.87740502807696,1684,0.0,99,GPS_Atti,
0.304510689280034,36.8773501253243,36000,2017-11-10 12:32:30,1817.8978852727416,28.000000896,0.0,0.875633028020256,1817.8978852727416,28.000000896,1.1375990581936,0.87740502807696,1684,0.0,99,GPS_Atti,
0.304510602850776,36.8773501343462,36100,2017-11-10 12:32:30,1818.3978852887417,28.500000912,0.0,0.880361028171552,1818.3978852887417,28.500000912,1.1375990581936,0.880361028171552,1684,0.0,99,GPS_Atti,
0.304510458579187,36.877350128958994,36200,2017-11-10 12:32:30,1818.8978853047417,29.000000928,0.0,0.8902630284884161,1818.8978853047417,29.000000928,1.1375990581936,0.8902630284884161,1684,0.0,99,GPS_Atti,
0.304510320952871,36.8773501437101,36300,2017-11-10 12:32:30,1819.3978853207416,29.500000944,0.0,0.8981120287395841,1819.3978853207416,29.500000944,1.1375990581936,0.8981120287395841,1684,0.0,99,GPS_Atti,
0.304510149484639,36.877350163476294,36400,2017-11-10 12:32:30,1819.8978853367419,30.00000096,0.0,0.908039029057248,1819.8978853367419,30.00000096,1.1375990581936,0.908039029057248,1684,0.0,99,GPS_Atti,
0.304510021037862,36.877350199218995,36500,2017-11-10 12:32:30,1820.3978853527417,30.500000976,0.0,0.9138610292435521,1820.3978853527417,30.500000976,1.1375990581936,0.9138610292435521,1684,0.0,99,GPS_Atti,
0.304509908220076,36.877350184328705,36600,2017-11-10 12:32:31,1820.8978853687415,31.000000992,0.0,0.923099029539168,1820.8978853687415,31.000000992,1.1375990581936,0.923099029539168,1684,0.0,99,GPS_Atti,
0.30450988349256103,36.877350175371596,36700,2017-11-10 12:32:31,1821.3978853847416,31.500001007999998,0.35999970196000003,0.9256210296198722,1821.3978853847416,31.500001007999998,1.1375990581936,0.9256210296198722,1684,0.0,99,GPS_Atti,
0.3045098556148211,36.8773501722776,36800,2017-11-10 12:32:31,1821.9978854039416,32.1000010272,0.35999970196000003,0.9278700296918401,1821.9978854039416,32.1000010272,1.1375990581936,0.9278700296918401,1684,0.0,99,GPS_Atti,
0.304509851124794,36.87735018680821,36900,2017-11-10 12:32:31,1822.4978854199414,32.6000010432,0.35999970196000003,0.926951029662432,1822.4978854199414,32.6000010432,1.1375990581936,0.9278700296918401,1684,0.0,99,GPS_Atti,
0.30450983209886795,36.8773501728686,37000,2017-11-10 12:32:31,1823.0978854391417,33.2000010624,0.35999970196000003,0.9294980297439361,1823.0978854391417,33.2000010624,1.1375990581936,0.9294980297439361,1684,0.0,99,GPS_Atti,
0.304509840811451,36.8773501723215,37100,2017-11-10 12:32:31,1823.5978854551415,33.70000107840001,0.35999970196000003,0.9289220297255042,1823.5978854551415,33.70000107840001,1.1375990581936,0.9294980297439361,1684,-1.4,99,GPS_Atti,
0.30450980038573605,36.8773501585377,37200,2017-11-10 12:32:31,1824.0978854711416,34.2000010944,0.35999970196000003,0.932987029855584,1824.0978854711416,34.2000010944,1.1375990581936,0.932987029855584,1684,-6.9,99,GPS_Atti,
0.304509787825954,36.8773501537645,37300,2017-11-10 12:32:31,1824.5978854871416,34.7000011104,0.35999970196000003,0.9342930298973761,1824.5978854871416,34.7000011104,1.1375990581936,0.9342930298973761,1684,-12.5,99,GPS_Atti,
0.30450977482405,36.8773501266957,37400,2017-11-10 12:32:31,1825.0978855031417,35.2000011264,0.35999970196000003,0.9375270300008641,1825.0978855031417,35.2000011264,1.1375990581936,0.9375270300008641,1684,-18.2,99,GPS_Atti,
0.30450980074317896,36.8773501237912,37500,2017-11-10 12:32:31,1825.6978855223417,35.8000011456,0.35999970196000003,0.9359210299494721,1825.6978855223417,35.8000011456,1.1375990581936,0.9375270300008641,1684,-18.2,99,GPS_Atti,
0.3045098131767561,36.8773500839927,37600,2017-11-10 12:32:32,1826.1978855383416,36.3000011616,0.35999970196000003,0.9384350300299201,1826.1978855383416,36.3000011616,1.1375990581936,0.9384350300299201,1684,-23.9,99,GPS_Atti,
0.30450982811203003,36.877350049156796,37700,2017-11-10 12:32:32,1826.6978855543416,36.8000011776,0.35999970196000003,0.940362030091584,1826.6978855543416,36.8000011776,1.1375990581936,0.940362030091584,1684,-29.5,99,GPS_Atti,
0.304509793398083,36.877349984319295,37800,2017-11-10 12:32:32,1827.1978855703417,37.3000011936,0.0,0.948383030348256,1827.1978855703417,37.3000011936,1.1375990581936,0.948383030348256,1684,-35.1,99,GPS_Atti,
0.304509777287072,36.8773499620142,37900,2017-11-10 12:32:32,1827.5978855831418,37.700001206399996,0.0,0.951437030445984,1827.5978855831418,37.700001206399996,1.1375990581936,0.951437030445984,1684,-40.8,99,GPS_Atti,
0.304509740519656,36.877349937259005,38000,2017-11-10 12:32:32,1828.1978856023416,38.3000012256,0.35999970196000003,0.9561600305971201,1828.1978856023416,38.3000012256,1.1375990581936,0.9561600305971201,1684,-46.5,99,GPS_Atti,
0.304509726321253,36.8773499554766,38100,2017-11-10 12:32:32,1828.6978856183418,38.8000012416,0.35999970196000003,0.9556020305792642,1828.6978856183418,38.8000012416,1.1375990581936,0.9561600305971201,1684,-52.1,99,GPS_Atti,
0.304509698103168,36.8773499625313,38200,2017-11-10 12:32:32,1829.1978856343417,39.3000012576,0.35999970196000003,0.957002030624064,1829.1978856343417,39.3000012576,1.1375990581936,0.957002030624064,1684,-57.8,99,GPS_Atti,
0.30450968721132105,36.8773499829763,38300,2017-11-10 12:32:32,1829.6978856503415,39.80000127360001,0.0,0.956032030593024,1829.6978856503415,39.80000127360001,1.1375990581936,0.957002030624064,1684,-63.4,99,GPS_Atti,
0.304509669874906,36.8773499761084,38400,2017-11-10 12:32:32,1830.1978856663416,40.3000012896,0.0,0.9578560306513921,1830.1978856663416,40.3000012896,1.1375990581936,0.9578560306513921,1684,-69.0,99,GPS_Atti,
0.304509676206296,36.8773499789284,38500,2017-11-10 12:32:32,1830.7978856855416,40.90000130880001,0.0,0.9571630306292161,1830.7978856855416,40.90000130880001,1.1375990581936,0.9578560306513921,1684,-74.7,99,GPS_Atti,
0.304509683212269,36.8773499600652,38600,2017-11-10 12:32:33,1831.2978857015416,41.4000013248,0.35999970196000003,0.958273030664736,1831.2978857015416,41.4000013248,1.1375990581936,0.958273030664736,1684,-80.3,99,GPS_Atti,
0.30450970184166903,36.8773499560943,38700,2017-11-10 12:32:33,1831.7978857175417,41.9000013408,0.0,0.957286030633152,1831.7978857175417,41.9000013408,1.1375990581936,0.958273030664736,1684,-86.0,99,GPS_Atti,
0.30450969662576194,36.877349936426604,38800,2017-11-10 12:32:33,1832.2978857335415,42.4000013568,0.0,0.9593400306988801,1832.2978857335415,42.4000013568,1.1375990581936,0.9593400306988801,1684,-87.7,99,GPS_Atti,
0.304509688292607,36.877349928543794,38900,2017-11-10 12:32:33,1832.8978857527416,43.000001376,0.0,0.9606060307393922,1832.8978857527416,43.000001376,1.1375990581936,0.9606060307393922,1684,-87.7,99,GPS_Atti,
0.304509649333713,36.877349897105,39000,2017-11-10 12:32:33,1833.3978857687416,43.500001391999994,0.0,0.966064030914048,1833.3978857687416,43.500001391999994,1.1375990581936,0.966064030914048,1684,-87.8,99,GPS_Atti,
0.304509611649484,36.877349862071,39100,2017-11-10 12:32:33,1833.8978857847417,44.00000140800001,0.0,0.9717390310956481,1833.8978857847417,44.00000140800001,1.1375990581936,0.9717390310956481,1684,-87.8,99,GPS_Atti,
0.30450953676507897,36.8773498049867,39200,2017-11-10 12:32:33,1834.3978858007415,44.500001424,0.0,0.9819490314223679,1834.3978858007415,44.500001424,1.1375990581936,0.9819490314223679,1684,-87.7,99,GPS_Atti,
0.304509471172169,36.87734977803421,39300,2017-11-10 12:32:33,1834.8978858167418,45.00000144,0.0,0.988936031645952,1834.8978858167418,45.00000144,1.1375990581936,0.988936031645952,1684,-87.8,99,GPS_Atti,
0.30450938976421804,36.8773497332113,39400,2017-11-10 12:32:33,1835.4978858359416,45.6000014592,0.0,0.9985890319548482,1835.4978858359416,45.6000014592,1.1375990581936,0.9985890319548482,1684,-87.8,99,GPS_Atti,
0.304509323583033,36.877349724126894,39500,2017-11-10 12:32:33,1835.9978858519416,46.1000014752,0.0,1.00414003213248,1835.9978858519416,46.1000014752,1.1375990581936,1.00414003213248,1684,-88.7,99,GPS_Atti,
0.30450923091927695,36.8773497267626,39600,2017-11-10 12:32:34,1836.4978858679417,46.600001491200004,0.0,1.0106600323411201,1836.4978858679417,46.600001491200004,1.1375990581936,1.0106600323411201,1684,-90.0,99,GPS_Atti,
0.304509153891026,36.877349748919,39700,2017-11-10 12:32:34,1836.9978858839415,47.1000015072,0.0,1.01446003246272,1836.9978858839415,47.1000015072,1.1375990581936,1.01446003246272,1684,-89.9,99,GPS_Atti,
0.304509084112201,36.8773497600397,39800,2017-11-10 12:32:34,1837.4978858999416,47.60000152320001,0.0,1.0187000325984001,1837.4978858999416,47.60000152320001,1.1375990581936,1.0187000325984001,1684,-89.9,99,GPS_Atti,
0.304509033764784,36.8773497871599,39900,2017-11-10 12:32:34,1837.9978859159417,48.1000015392,0.0,1.02022003264704,1837.9978859159417,48.1000015392,1.1375990581936,1.02022003264704,1684,-90.0,99,GPS_Atti,
