latitude,longitude,time_millisecond,datetime_utc,altitude_m,ascent_m,speed_kph,distance_m,max_altitude_m,max_ascent_m,max_speed_kph,max_distance_m,rc_throttle,gimbal_pitch_degrees,battery_percent,flycState,message
0.371701466963116,36.9135445717747,0,2018-04-18 06:03:14,1649.505790084174,0.0,0.0,0.0,1649.505790084174,0.0,0.0,0.0,364,0.0,99,Motors_Started,
0.371701451184003,36.9135445729783,100,2018-04-18 06:03:14,1649.505790084174,0.0,0.0,0.00175983005631456,1649.505790084174,0.0,0.0,0.00175983005631456,364,0.0,99,Motors_Started,Setting new Return-To-Home altitude to 30m (98 ft). Setting new Maximum Flight Altitude to 150m (492 ft)
0.371701423916217,36.913544616146,200,2018-04-18 06:03:14,1649.505790084174,0.0,0.0,0.00687481021999392,1649.505790084174,0.0,0.0,0.00687481021999392,364,0.0,99,Motors_Started,
0.371701395024262,36.9135446470867,300,2018-04-18 06:03:14,1649.505790084174,0.0,0.0,0.011581900370620799,1649.505790084174,0.0,0.0,0.011581900370620799,364,0.0,99,Motors_Started,
0.371701353963453,36.913544630566,400,2018-04-18 06:03:15,1649.505790084174,0.0,0.0,0.0141652004532864,1649.505790084174,0.0,0.0,0.0141652004532864,364,0.0,99,Motors_Started,
0.37170131540363,36.9135446185436,500,2018-04-18 06:03:15,1649.505790084174,0.0,0.0,0.017638500564432003,1649.505790084174,0.0,0.0,0.017638500564432003,364,0.0,99,Motors_Started,
0.371701302428493,36.9135446442289,600,2018-04-18 06:03:15,1649.505790084174,0.0,0.0,0.0199927006397664,1649.505790084174,0.0,0.0,0.0199927006397664,364,0.0,99,Motors_Started,
0.371701285307644,36.9135446640152,700,2018-04-18 06:03:15,1649.505790084174,0.0,0.0,0.022656200724998403,1649.505790084174,0.0,0.0,0.022656200724998403,364,0.0,99,Motors_Started,
0.37170125199253,36.9135446784155,800,2018-04-18 06:03:15,1649.505790084174,0.0,0.0,0.0266858008539456,1649.505790084174,0.0,0.0,0.0266858008539456,364,0.0,99,Motors_Started,
0.371701219300906,36.9135446895074,900,2018-04-18 06:03:15,1649.505790084174,0.0,0.0,0.03049500097584,1649.505790084174,0.0,0.0,0.03049500097584,364,0.0,99,Motors_Started,
0.371701210085337,36.9135446944167,1000,2018-04-18 06:03:15,1649.505790084174,0.0,0.0,0.03165500101296,1649.505790084174,0.0,0.0,0.03165500101296,364,0.0,99,Motors_Started,
0.37170119605843,36.9135446984905,1100,2018-04-18 06:03:15,1649.505790084174,0.0,0.0,0.0332589010642848,1649.505790084174,0.0,0.0,0.0332589010642848,364,0.0,99,Motors_Started,
0.371701204421711,36.9135446597419,1200,2018-04-18 06:03:15,1649.505790084174,0.0,0.0,0.0307914009853248,1649.505790084174,0.0,0.0,0.0332589010642848,364,0.0,99,Motors_Started,
0.371701202637038,36.9135446294854,1300,2018-04-18 06:03:16,1649.505790084174,0.0,0.0,0.0300871009627872,1649.505790084174,0.0,0.0,0.0332589010642848,364,0.0,99,Motors_Started,
0.371701217964767,36.9135446006282,1400,2018-04-18 06:03:16,1649.505790084174,0.0,0.0,0.027875400892012802,1649.505790084174,0.0,0.0,0.0332589010642848,364,0.0,99,Motors_Started,
0.371701222456219,36.9135445798797,1500,2018-04-18 06:03:16,1649.505790084174,0.0,0.0,0.0272056008705792,1649.505790084174,0.0,0.0,0.0332589010642848,364,0.0,99,Assisted_Takeoff,
0.37170120238697,36.91354460009,1600,2018-04-18 06:03:16,1649.505790084174,0.0,0.0,0.029590500946896,1649.505790084174,0.0,0.0,0.0332589010642848,364,0.0,99,Assisted_Takeoff,
0.371701183870341,36.9135446158475,1700,2018-04-18 06:03:16,1649.505790084174,0.0,0.0,0.0318609010195488,1649.505790084174,0.0,0.0,0.0332589010642848,364,0.0,99,Assisted_Takeoff,
0.371701138636441,36.9135446343999,1800,2018-04-18 06:03:16,1649.505790084174,0.0,0.0,0.0371702011894464,1649.505790084174,0.0,0.0,0.0371702011894464,364,0.0,99,Assisted_Takeoff,
0.371701101226401,36.9135446449889,1900,2018-04-18 06:03:16,1649.505790084174,0.0,0.0,0.041479001327328006,1649.505790084174,0.0,0.0,0.041479001327328006,364,0.0,99,Assisted_Takeoff,
0.371701080379468,36.913544655621,2000,2018-04-18 06:03:16,1649.505790084174,0.0,0.0,0.04399000140768,1649.505790084174,0.0,0.0,0.04399000140768,364,0.0,99,Assisted_Takeoff,
0.371701061529618,36.9135446626415,2100,2018-04-18 06:03:16,1649.505790084174,0.0,0.0,0.0462051014785632,1649.505790084174,0.0,0.0,0.0462051014785632,463,0.0,99,Assisted_Takeoff,
0.371701057037759,36.9135446677756,2200,2018-04-18 06:03:16,1649.505790084174,0.0,0.0,0.046819601498227205,1649.505790084174,0.0,0.0,0.046819601498227205,463,0.0,99,Assisted_Takeoff,
0.37170105068927,36.913544671152,2300,2018-04-18 06:03:16,1649.505790084174,0.0,0.0,0.047593001522976006,1649.505790084174,0.0,0.0,0.047593001522976006,682,0.0,99,Assisted_Takeoff,
0.371701017602748,36.9135446735827,2400,2018-04-18 06:03:17,1649.505790084174,0.0,0.0,0.051238001639616004,1649.505790084174,0.0,0.0,0.051238001639616004,1024,0.0,99,Assisted_Takeoff,
0.371700989577634,36.9135446738037,2500,2018-04-18 06:03:17,1649.505790084174,0.0,0.0,0.054287101737187204,1649.505790084174,0.0,0.0,0.054287101737187204,1024,0.0,99,Assisted_Takeoff,
0.371700975598257,36.9135446354197,2600,2018-04-18 06:03:17,1649.505790084174,0.0,0.0,0.0550992017631744,1649.505790084174,0.0,0.0,0.0550992017631744,1024,0.0,99,Assisted_Takeoff,
0.371700963098931,36.9135446043846,2700,2018-04-18 06:03:17,1649.505790084174,0.0,0.0,0.0561500017968,1649.505790084174,0.0,0.0,0.0561500017968,1024,0.0,99,Assisted_Takeoff,
0.371700963607616,36.9135445778339,2800,2018-04-18 06:03:17,1649.505790084174,0.0,0.0,0.0559803017913696,1649.505790084174,0.0,0.0,0.0561500017968,1024,0.0,99,Assisted_Takeoff,
0.371700961553945,36.9135445566022,2900,2018-04-18 06:03:17,1649.505790084174,0.0,0.0,0.0562299017993568,1649.505790084174,0.0,0.0,0.0562299017993568,1024,0.0,99,Assisted_Takeoff,
0.37170096942564,36.9135445432032,3000,2018-04-18 06:03:17,1649.505790084174,0.0,0.0,0.0554204017734528,1649.505790084174,0.0,0.0,0.0562299017993568,1024,0.0,99,Assisted_Takeoff,
0.371700973092896,36.9135445300755,3100,2018-04-18 06:03:17,1649.505790084174,0.0,0.0,0.0551168017637376,1649.505790084174,0.0,0.0,0.0562299017993568,1024,0.0,99,Assisted_Takeoff,
0.371700982872719,36.9135445264477,3200,2018-04-18 06:03:17,1649.505790084174,0.0,0.0,0.0540693017302176,1649.505790084174,0.0,0.0,0.0562299017993568,1024,0.0,99,Assisted_Takeoff,
0.371700989153424,36.9135445196044,3300,2018-04-18 06:03:18,1649.505790084174,0.0,0.0,0.0534511017104352,1649.505790084174,0.0,0.0,0.0562299017993568,1024,0.0,99,Assisted_Takeoff,
0.371700998603488,36.9135445211216,3400,2018-04-18 06:03:18,1649.505790084174,0.0,0.0,0.052388101676419205,1649.505790084174,0.0,0.0,0.0562299017993568,1024,0.0,99,Assisted_Takeoff,
0.371701005052534,36.9135445180572,3500,2018-04-18 06:03:18,1649.505790084174,0.0,0.0,0.0517134016548288,1649.505790084174,0.0,0.0,0.0562299017993568,1061,0.0,99,Assisted_Takeoff,
0.371701013088294,36.9135445224252,3600,2018-04-18 06:03:18,1649.505790084174,0.0,0.0,0.0507711016246752,1649.505790084174,0.0,0.0,0.0562299017993568,1097,0.0,99,Assisted_Takeoff,
0.371701019952186,36.9135445218662,3700,2018-04-18 06:03:18,1649.505790084174,0.0,0.0,0.050019201600614405,1649.505790084174,0.0,0.0,0.0562299017993568,1134,0.0,99,Assisted_Takeoff,
0.371701026783508,36.9135445278104,3800,2018-04-18 06:03:18,1649.505790084174,0.0,0.0,0.0491942015742144,1649.505790084174,0.0,0.0,0.0562299017993568,1171,0.0,99,Assisted_Takeoff,
0.371701033715794,36.9135445283705,3900,2018-04-18 06:03:18,1649.505790084174,0.0,0.0,0.0484209015494688,1649.505790084174,0.0,0.0,0.0562299017993568,1176,0.0,99,Assisted_Takeoff,
0.371701038381694,36.913544572686,4000,2018-04-18 06:03:18,1649.505790084174,0.0,0.0,0.047661001525152,1649.505790084174,0.0,0.0,0.0562299017993568,1182,0.0,99,Assisted_Takeoff,
0.371701045038569,36.9135446032173,4100,2018-04-18 06:03:18,1649.505790084174,0.0,0.0,0.0470507015056224,1649.505790084174,0.0,0.0,0.0562299017993568,1180,0.0,99,Assisted_Takeoff,
0.371701047364598,36.913544633521,4200,2018-04-18 06:03:18,1649.505790084174,0.0,0.0,0.0471644015092608,1649.505790084174,0.0,0.0,0.0562299017993568,1176,0.0,99,Assisted_Takeoff,
0.371701051855439,36.9135446525881,4300,2018-04-18 06:03:18,1649.505790084174,0.0,0.0,0.0470291015049312,1649.505790084174,0.0,0.0,0.0562299017993568,1177,0.0,99,Assisted_Takeoff,
0.371701049453281,36.9135446725517,4400,2018-04-18 06:03:19,1649.505790084174,0.0,0.0,0.047763001528416,1649.505790084174,0.0,0.0,0.0562299017993568,1214,0.0,99,Assisted_Takeoff,
0.371701045365886,36.9135447079874,4500,2018-04-18 06:03:19,1649.505790084174,0.0,0.0,0.04927040157665281,1649.505790084174,0.0,0.0,0.0562299017993568,1219,0.0,99,Assisted_Takeoff,
0.371701068509536,36.913544781425,4600,2018-04-18 06:03:19,1649.505790084174,0.0,0.0,0.050069501602224,1649.505790084174,0.0,0.0,0.0562299017993568,1214,0.0,99,Assisted_Takeoff,
0.371701069891067,36.9135448618367,4700,2018-04-18 06:03:19,1649.505790084174,0.0,0.0,0.0546834017498688,1649.505790084174,0.0,0.0,0.0562299017993568,1217,0.0,99,P-GPS,Obstacle Avoided. Revise Flight Route
0.371701048534024,36.913544947149,4800,2018-04-18 06:03:19,1649.505790084174,0.0,0.0,0.0625116020003712,1649.505790084174,0.0,0.0,0.0625116020003712,1242,0.0,99,P-GPS,
0.371701028726242,36.9135450144693,4900,2018-04-18 06:03:19,1649.505790084174,0.0,0.0,0.06927180221669761,1649.505790084174,0.0,0.0,0.06927180221669761,1253,0.0,99,P-GPS,
0.371701033258405,36.9135450500115,5000,2018-04-18 06:03:19,1649.6057900873739,0.1000000032,0.0,0.0717948022974336,1649.6057900873739,0.1000000032,0.0,0.0717948022974336,1268,0.0,99,P-GPS,
0.371701042073783,36.9135450707729,5100,2018-04-18 06:03:19,1649.6057900873739,0.1000000032,0.0,0.072882002332224,1649.6057900873739,0.1000000032,0.0,0.072882002332224,1269,0.0,99,P-GPS,Home Point Recorded. RTH Altitude:  30m.
0.371701073902535,36.9135451186138,5200,2018-04-18 06:03:19,1649.705790090574,0.2000000064,0.0,0.07489030239648961,1649.705790090574,0.2000000064,0.0,0.07489030239648961,1304,0.0,99,P-GPS,
0.371701100240785,36.9135451363463,5300,2018-04-18 06:03:20,1649.805790093774,0.3000000096,0.0,0.0748652023956864,1649.805790093774,0.3000000096,0.0,0.07489030239648961,1336,0.0,99,P-GPS,
0.371701163195005,36.9135451020396,5400,2018-04-18 06:03:20,1649.905790096974,0.4000000128,0.0,0.06795810217465921,1649.905790096974,0.4000000128,0.0,0.07489030239648961,1347,0.0,99,P-GPS,
0.371701217834085,36.9135450622492,5500,2018-04-18 06:03:20,1650.0057901001737,0.500000016,0.0,0.061175501957616,1650.0057901001737,0.500000016,0.0,0.07489030239648961,1349,0.0,99,P-GPS,
0.371701412992106,36.9135450165242,5600,2018-04-18 06:03:20,1650.105790103374,0.6000000192,0.0,0.049820701594262405,1650.105790103374,0.6000000192,0.0,0.07489030239648961,1359,0.0,99,P-GPS,
0.371701575553258,36.9135449616676,5700,2018-04-18 06:03:20,1650.2057901065739,0.7000000224,0.0,0.04500780144024961,1650.2057901065739,0.7000000224,0.0,0.07489030239648961,1376,0.0,99,P-GPS,
0.371701830565145,36.9135448780461,5800,2018-04-18 06:03:20,1650.4057901129738,0.9000000288000001,0.0,0.052867301691753604,1650.4057901129738,0.9000000288000001,0.0,0.07489030239648961,1380,0.0,99,P-GPS,
0.371702038656167,36.913544786817,5900,2018-04-18 06:03:20,1650.605790119374,1.1000000352000001,0.0,0.067924502173584,1650.605790119374,1.1000000352000001,0.0,0.07489030239648961,1381,0.0,99,P-GPS,
0.37170232834638,36.9135446559929,6000,2018-04-18 06:03:20,1650.8057901257741,1.3000000416000002,0.0,0.0962478030799296,1650.8057901257741,1.3000000416000002,0.0,0.0962478030799296,1387,0.0,99,P-GPS,
0.371702560491274,36.9135445364033,6100,2018-04-18 06:03:20,1651.0057901321738,1.5000000480000002,0.0,0.121671003893472,1651.0057901321738,1.5000000480000002,0.0,0.121671003893472,1397,0.0,99,P-GPS,
0.371702759563121,36.9135444870312,6200,2018-04-18 06:03:20,1651.205790138574,1.7000000544000002,0.0,0.144054004609728,1651.205790138574,1.7000000544000002,0.0,0.144054004609728,1400,0.0,99,P-GPS,
0.371702926647567,36.9135444350313,6300,2018-04-18 06:03:20,1651.405790144974,1.9000000608000003,0.0,0.163037005217184,1651.405790144974,1.9000000608000003,0.0,0.163037005217184,1405,0.0,99,P-GPS,
0.371703080139891,36.9135443770592,6400,2018-04-18 06:03:21,1651.605790151374,2.1000000672000003,0.0,0.18069700578230402,1651.605790151374,2.1000000672000003,0.0,0.18069700578230402,1409,0.0,99,P-GPS,
0.371703208587431,36.9135443201283,6500,2018-04-18 06:03:21,1651.8057901577738,2.3000000736,0.0,0.19569000626208002,1651.8057901577738,2.3000000736,0.0,0.19569000626208002,1405,0.0,99,P-GPS,
0.371703343405852,36.9135441751559,6600,2018-04-18 06:03:21,1652.005790164174,2.50000008,0.0,0.21328200682502402,1652.005790164174,2.50000008,0.0,0.21328200682502402,1401,0.0,99,P-GPS,Obstacle Avoided. Revise Flight Route
0.371703485369376,36.9135440439594,6700,2018-04-18 06:03:21,1652.3057901737739,2.8000000896,0.0,0.23200600742419203,1652.3057901737739,2.8000000896,0.0,0.23200600742419203,1400,0.0,99,P-GPS,
0.371703555917692,36.9135439602512,6800,2018-04-18 06:03:21,1652.505790180174,3.0000000960000004,0.0,0.24205300774569602,1652.505790180174,3.0000000960000004,0.0,0.24205300774569602,1402,0.0,99,P-GPS,
0.371703658637293,36.9135438753805,6900,2018-04-18 06:03:21,1652.7057901865737,3.2000001024,0.0,0.25573500818352,1652.7057901865737,3.2000001024,0.0,0.25573500818352,1408,0.0,99,P-GPS,
0.371703720390942,36.913543817892,7000,2018-04-18 06:03:21,1652.9057901929739,3.4000001088000005,0.0,0.26424600845587204,1652.9057901929739,3.4000001088000005,0.0,0.26424600845587204,1413,0.0,99,P-GPS,
0.371703810114797,36.9135437592225,7100,2018-04-18 06:03:21,1653.205790202574,3.7000001184,0.0,0.27579500882544,1653.205790202574,3.7000001184,0.0,0.27579500882544,1380,0.0,99,P-GPS,
0.371703799979972,36.9135437344085,7200,2018-04-18 06:03:21,1653.405790208974,3.9000001248,0.0,0.27565000882080004,1653.405790208974,3.9000001248,0.0,0.27579500882544,1380,0.0,99,P-GPS,
0.371703825891875,36.9135436981311,7300,2018-04-18 06:03:22,1653.6057902153739,4.100000131200001,0.0,0.279739008951648,1653.6057902153739,4.100000131200001,0.0,0.279739008951648,1378,0.0,99,P-GPS,
0.371703722255256,36.9135437147307,7400,2018-04-18 06:03:22,1653.8057902217738,4.3000001376,0.0,0.2683000085856,1653.8057902217738,4.3000001376,0.0,0.279739008951648,1378,0.0,99,P-GPS,
0.371703687127887,36.9135437214908,7500,2018-04-18 06:03:22,1654.005790228174,4.500000144,0.0,0.26438300846025603,1654.005790228174,4.500000144,0.0,0.279739008951648,1414,0.0,99,P-GPS,
0.371703644414819,36.9135437361765,7600,2018-04-18 06:03:22,1654.205790234574,4.7000001504,0.0,0.259363008299616,1654.205790234574,4.7000001504,0.0,0.279739008951648,1433,0.0,99,P-GPS,
0.371703650783918,36.9135437439703,7700,2018-04-18 06:03:22,1654.5057902441738,5.00000016,0.0,0.259716008310912,1654.5057902441738,5.00000016,0.0,0.279739008951648,1434,0.0,99,P-GPS,
0.371703568812983,36.9135437784255,7800,2018-04-18 06:03:22,1654.705790250574,5.200000166400001,0.0,0.24983400799468802,1654.705790250574,5.200000166400001,0.0,0.279739008951648,1444,0.0,99,P-GPS,
0.371703532665954,36.9135437998904,7900,2018-04-18 06:03:22,1654.905790256974,5.4000001728,0.0,0.245232007847424,1654.905790256974,5.4000001728,0.0,0.279739008951648,1452,0.0,99,P-GPS,
0.371703430057494,36.9135438260489,8000,2018-04-18 06:03:22,1655.205790266574,5.7000001824,0.0,0.233528007472896,1655.205790266574,5.7000001824,0.0,0.279739008951648,1476,0.0,99,P-GPS,
0.371703395889686,36.9135438390692,8100,2018-04-18 06:03:22,1655.405790272974,5.9000001888,0.0,0.22946200734278402,1655.405790272974,5.9000001888,0.0,0.279739008951648,1497,0.0,99,P-GPS,
0.371703321867975,36.9135438940426,8200,2018-04-18 06:03:22,1655.7057902825738,6.200000198400001,0.0,0.219614007027648,1655.7057902825738,6.200000198400001,0.0,0.279739008951648,1525,0.0,99,P-GPS,
0.371703322976946,36.913543955169,8300,2018-04-18 06:03:23,1656.005790292174,6.500000208,0.35999970196000003,0.217492006959744,1656.005790292174,6.500000208,0.35999970196000003,0.279739008951648,1565,0.0,99,P-GPS,
0.371703244358265,36.9135440631627,8400,2018-04-18 06:03:23,1656.3057903017739,6.800000217600001,0.35999970196000003,0.20559000657888002,1656.3057903017739,6.800000217600001,0.35999970196000003,0.279739008951648,1631,0.0,99,P-GPS,
0.371703219994987,36.9135441529655,8500,2018-04-18 06:03:23,1656.605790311374,7.1000002272,0.35999970196000003,0.200434006413888,1656.605790311374,7.1000002272,0.35999970196000003,0.279739008951648,1684,0.0,99,P-GPS,
0.371703185654538,36.9135442741903,8600,2018-04-18 06:03:23,1656.905790320974,7.4000002368,0.0,0.19397300620713603,1656.905790320974,7.4000002368,0.35999970196000003,0.279739008951648,1684,0.0,99,P-GPS,
0.37170317419075,36.9135443521265,8700,2018-04-18 06:03:23,1657.3057903337738,7.8000002496,0.0,0.19141900612540802,1657.3057903337738,7.8000002496,0.35999970196000003,0.279739008951648,1684,0.0,99,P-GPS,
0.371703182068119,36.9135443614238,8800,2018-04-18 06:03:23,1657.805790349774,8.300000265600001,0.0,0.192159006149088,1657.805790349774,8.300000265600001,0.35999970196000003,0.279739008951648,1684,0.0,99,P-GPS,
0.371703208806991,36.9135443659118,8900,2018-04-18 06:03:23,1658.205790362574,8.700000278400001,0.35999970196000003,0.195052006241664,1658.205790362574,8.700000278400001,0.35999970196000003,0.279739008951648,1684,0.0,99,P-GPS,
0.371703234625157,36.9135443646525,9000,2018-04-18 06:03:23,1658.705790378574,9.2000002944,0.0,0.19792000633344,1658.705790378574,9.2000002944,0.35999970196000003,0.279739008951648,1684,0.0,99,P-GPS,
0.371703245834169,36.9135443728091,9100,2018-04-18 06:03:23,1659.2057903945738,9.7000003104,0.0,0.19905500636976003,1659.2057903945738,9.7000003104,0.35999970196000003,0.279739008951648,1684,0.0,99,P-GPS,
0.371703360521663,36.9135443440877,9200,2018-04-18 06:03:23,1659.705790410574,10.2000003264,0.0,0.21209200678694404,1659.705790410574,10.2000003264,0.35999970196000003,0.279739008951648,1684,0.0,99,P-GPS,
0.371703450692526,36.9135443205721,9300,2018-04-18 06:03:24,1660.205790426574,10.700000342400001,0.0,0.222364007115648,1660.205790426574,10.700000342400001,0.35999970196000003,0.279739008951648,1684,0.0,99,P-GPS,
0.371703620602286,36.9135442401819,9400,2018-04-18 06:03:24,1660.7057904425737,11.2000003584,0.0,0.24232000775424,1660.7057904425737,11.2000003584,0.35999970196000003,0.279739008951648,1684,-0.5,99,P-GPS,
0.3717037527181,36.9135441622278,9500,2018-04-18 06:03:24,1661.205790458574,11.7000003744,0.0,0.25823800826361604,1661.205790458574,11.7000003744,0.35999970196000003,0.279739008951648,1684,-0.5,99,P-GPS,
0.371703892193871,36.9135441006108,9600,2018-04-18 06:03:24,1661.7057904745739,12.200000390400001,0.0,0.274743008791776,1661.7057904745739,12.200000390400001,0.35999970196000003,0.279739008951648,1684,-5.5,99,P-GPS,
0.371704009342707,36.9135440340468,9700,2018-04-18 06:03:24,1662.205790490574,12.700000406400001,0.0,0.288983009247456,1662.205790490574,12.700000406400001,0.35999970196000003,0.288983009247456,1684,-16.8,99,P-GPS,
0.3717041232315,36.9135439158674,9800,2018-04-18 06:03:24,1662.705790506574,13.2000004224,0.0,0.30426500973648,1662.705790506574,13.2000004224,0.35999970196000003,0.30426500973648,1684,-16.8,99,P-GPS,
0.371704231127416,36.9135437991502,9900,2018-04-18 06:03:24,1663.205790522574,13.7000004384,0.0,0.319174010213568,1663.205790522574,13.7000004384,0.35999970196000003,0.319174010213568,1684,-22.4,99,P-GPS,
0.371704350175119,36.9135436865499,10000,2018-04-18 06:03:24,1663.7057905385739,14.2000004544,0.0,0.335402010732864,1663.7057905385739,14.2000004544,0.35999970196000003,0.335402010732864,1684,-28.1,99,P-GPS,
0.371704448692826,36.9135435845803,10100,2018-04-18 06:03:24,1664.2057905545742,14.7000004704,0.0,0.349287011177184,1664.2057905545742,14.7000004704,0.35999970196000003,0.349287011177184,1684,-33.7,99,P-GPS,
0.371704518184027,36.9135434834898,10200,2018-04-18 06:03:24,1664.705790570574,15.200000486400002,0.0,0.360250011528,1664.705790570574,15.200000486400002,0.35999970196000003,0.360250011528,1684,-38.5,99,P-GPS,
0.371704581174379,36.9135433936352,10300,2018-04-18 06:03:24,1665.2057905865738,15.700000502400002,0.0,0.370272011848704,1665.2057905865738,15.700000502400002,0.35999970196000003,0.370272011848704,1684,-38.5,99,P-GPS,
0.371704568601061,36.9135433426532,10400,2018-04-18 06:03:25,1665.7057906025739,16.2000005184,0.0,0.371016011872512,1665.7057906025739,16.2000005184,0.35999970196000003,0.371016011872512,1684,-38.5,99,P-GPS,
0.371704555306342,36.9135432924061,10500,2018-04-18 06:03:25,1666.205790618574,16.7000005344,0.0,0.371744011895808,1666.205790618574,16.7000005344,0.35999970196000003,0.371744011895808,1684,-38.5,99,P-GPS,
0.371704502421504,36.9135433021737,10600,2018-04-18 06:03:25,1666.705790634574,17.2000005504,0.0,0.365897011708704,1666.705790634574,17.2000005504,0.35999970196000003,0.371744011895808,1684,-38.5,99,P-GPS,
0.371704477549973,36.9135432956851,10700,2018-04-18 06:03:25,1667.2057906505738,17.7000005664,0.0,0.363628011636096,1667.2057906505738,17.7000005664,0.35999970196000003,0.371744011895808,1684,-38.5,99,P-GPS,
0.371704429913203,36.9135432621248,10800,2018-04-18 06:03:25,1667.705790666574,18.2000005824,0.0,0.36024901152796807,1667.705790666574,18.2000005824,0.35999970196000003,0.371744011895808,1684,-39.1,99,P-GPS,
0.371704383508452,36.9135432272003,10900,2018-04-18 06:03:25,1668.205790682574,18.700000598400003,0.0,0.35714401142860797,1668.205790682574,18.700000598400003,0.35999970196000003,0.371744011895808,1684,-43.5,99,P-GPS,
0.371704317631073,36.913543233821,11000,2018-04-18 06:03:25,1668.7057906985738,19.2000006144,0.0,0.35019101120611207,1668.7057906985738,19.2000006144,0.35999970196000003,0.371744011895808,1684,-49.2,99,P-GPS,
0.371704256502034,36.9135432417246,11100,2018-04-18 06:03:25,1669.205790714574,19.7000006304,0.0,0.34367001099744,1669.205790714574,19.7000006304,0.35999970196000003,0.371744011895808,1684,-49.2,99,P-GPS,
0.371704235465082,36.91354321465,11200,2018-04-18 06:03:25,1669.7057907305739,20.200000646400003,0.0,0.34287401097196807,1669.7057907305739,20.200000646400003,0.35999970196000003,0.371744011895808,1684,-54.8,99,P-GPS,
0.371704197401119,36.913543209797,11300,2018-04-18 06:03:25,1670.205790746574,20.7000006624,0.0,0.339319010858208,1670.205790746574,20.7000006624,0.35999970196000003,0.371744011895808,1684,-60.4,99,P-GPS,
0.371704162451759,36.9135432368848,11400,2018-04-18 06:03:26,1670.7057907625738,21.200000678400002,0.0,0.33449801070393603,1670.7057907625738,21.200000678400002,0.35999970196000003,0.371744011895808,1684,-66.1,99,P-GPS,
0.371704091296695,36.9135432747262,11500,2018-04-18 06:03:26,1671.305790781774,21.8000006976,0.0,0.32553901041724803,1671.305790781774,21.8000006976,0.35999970196000003,0.371744011895808,1684,-71.7,99,P-GPS,
0.371703979703092,36.9135433034161,11600,2018-04-18 06:03:26,1671.8057907977739,22.300000713600003,0.0,0.313012010016384,1671.8057907977739,22.300000713600003,0.35999970196000003,0.371744011895808,1684,-77.4,99,P-GPS,
0.37170385955914,36.9135433325731,11700,2018-04-18 06:03:26,1672.305790813774,22.8000007296,0.0,0.299639009588448,1672.305790813774,22.8000007296,0.35999970196000003,0.371744011895808,1684,-83.1,99,P-GPS,
0.371703690841503,36.9135433690259,11800,2018-04-18 06:03:26,1672.805790829774,23.300000745600002,0.0,0.28116000899712,1672.805790829774,23.300000745600002,0.35999970196000003,0.371744011895808,1684,-88.7,99,P-GPS,
0.371703524645104,36.9135433995806,11900,2018-04-18 06:03:26,1673.3057908457738,23.8000007616,0.0,0.2633500084272,1673.3057908457738,23.8000007616,0.35999970196000003,0.371744011895808,1684,-89.9,99,P-GPS,
0.371703311804929,36.9135434414773,12000,2018-04-18 06:03:26,1673.905790864974,24.400000780800003,0.0,0.2406000076992,1673.905790864974,24.400000780800003,0.35999970196000003,0.371744011895808,1684,-89.9,99,P-GPS,
0.371703124126224,36.9135434891017,12100,2018-04-18 06:03:26,1674.4057908809739,24.9000007968,0.0,0.22013000704416,1674.4057908809739,24.9000007968,0.35999970196000003,0.371744011895808,1684,-90.0,99,P-GPS,
0.371702934543835,36.9135435613986,12200,2018-04-18 06:03:26,1674.9057908969737,25.400000812800002,0.0,0.19814100634051202,1674.9057908969737,25.400000812800002,0.35999970196000003,0.371744011895808,1684,-90.0,99,P-GPS,
0.371702763378743,36.9135436529551,12300,2018-04-18 06:03:27,1675.405790912974,25.9000008288,0.0,0.17670500565456,1675.405790912974,25.9000008288,0.35999970196000003,0.371744011895808,1684,-88.6,99,P-GPS,
0.371702637861295,36.9135437474866,12400,2018-04-18 06:03:27,1675.9057909289738,26.4000008448,0.0,0.159239005095648,1675.9057909289738,26.4000008448,0.35999970196000003,0.371744011895808,1684,-82.9,99,P-GPS,
0.371702516968055,36.9135438217296,12500,2018-04-18 06:03:27,1676.505790948174,27.000000864,0.0,0.143497004591904,1676.505790948174,27.000000864,0.35999970196000003,0.371744011895808,1684,-82.9,99,P-GPS,
0.371702356698149,36.9135438720938,12600,2018-04-18 06:03:27,1677.005790964174,27.50000088,0.0,0.125872004027904,1677.005790964174,27.50000088,0.35999970196000003,0.371744011895808,1684,-77.2,99,P-GPS,
0.371702198395989,36.9135439206209,12700,2018-04-18 06:03:27,1677.505790980174,28.000000896,0.0,0.108901003484832,1677.505790980174,28.000000896,0.35999970196000003,0.371744011895808,1684,-71.6,99,P-GPS,
0.371702040343031,36.9135440001896,12800,2018-04-18 06:03:27,1678.005790996174,28.500000912,0.0,0.090033002881056,1678.005790996174,28.500000912,0.35999970196000003,0.371744011895808,1684,-66.0,99,P-GPS,
0.371701913234428,36.9135440928854,12900,2018-04-18 06:03:27,1678.6057910153738,29.1000009312,0.0,0.07279400232940801,1678.6057910153738,29.1000009312,0.35999970196000003,0.371744011895808,1684,-62.6,99,P-GPS,
0.371701772531574,36.9135442151229,13000,2018-04-18 06:03:27,1679.1057910313739,29.6000009472,0.0,0.052227501671280006,1679.1057910313739,29.6000009472,0.35999970196000003,0.371744011895808,1684,-62.6,99,P-GPS,
0.371701654860211,36.9135443196391,13100,2018-04-18 06:03:27,1679.605791047374,30.1000009632,0.0,0.0349681011189792,1679.605791047374,30.1000009632,0.35999970196000003,0.371744011895808,1684,-62.6,99,P-GPS,
0.371701498568873,36.9135444159771,13200,2018-04-18 06:03:27,1680.105791063374,30.6000009792,0.0,0.0176782005657024,1680.105791063374,30.6000009792,0.35999970196000003,0.371744011895808,1684,-62.6,99,P-GPS,
0.371701389573453,36.9135444977683,13300,2018-04-18 06:03:28,1680.6057910793738,31.100000995200002,0.0,0.011907800381049601,1680.6057910793738,31.100000995200002,0.35999970196000003,0.371744011895808,1684,-62.6,99,P-GPS,
0.371701282190293,36.913544593691,13400,2018-04-18 06:03:28,1681.2057910985739,31.7000010144,0.0,0.0206919006621408,1681.2057910985739,31.7000010144,0.35999970196000003,0.371744011895808,1684,-62.6,99,P-GPS,
0.371701228128293,36.9135446695353,13500,2018-04-18 06:03:28,1681.705791114574,32.2000010304,0.0,0.0286987009183584,1681.705791114574,32.2000010304,0.35999970196000003,0.371744011895808,1684,-60.4,99,P-GPS,
0.37170119301039,36.9135448326477,13700,2018-04-18 06:03:28,1682.705791146574,33.200001062400005,0.0,0.042068001346176005,1682.705791146574,33.200001062400005,0.35999970196000003,0.371744011895808,1684,-57.3,99,P-GPS,
0.371701140025707,36.9135449451439,13800,2018-04-18 06:03:28,1683.2057911625739,33.7000010784,0.0,0.055188601766035204,1683.2057911625739,33.7000010784,0.35999970196000003,0.371744011895808,1684,-54.3,99,P-GPS,
0.371701103274983,36.9135450393587,13900,2018-04-18 06:03:28,1683.705791178574,34.2000010944,0.0,0.0658744021079808,1683.705791178574,34.2000010944,0.35999970196000003,0.371744011895808,1684,-53.5,99,P-GPS,
0.37170105756741,36.9135451216884,14000,2018-04-18 06:03:28,1684.205791194574,34.7000011104,0.0,0.07623880243964161,1684.205791194574,34.7000011104,0.35999970196000003,0.371744011895808,1684,-53.5,99,P-GPS,
0.371701041443779,36.9135451889649,14100,2018-04-18 06:03:28,1684.7057912105738,35.200001126400004,0.0,0.08336560266769921,1684.7057912105738,35.200001126400004,0.35999970196000003,0.371744011895808,1684,-53.5,99,P-GPS,
0.371701037714642,36.9135452636234,14200,2018-04-18 06:03:28,1685.2057912265739,35.700001142400005,0.0,0.0905418028973376,1685.2057912265739,35.700001142400005,0.35999970196000003,0.371744011895808,1684,-53.5,99,P-GPS,
0.37170106444209,36.9135453203181,14300,2018-04-18 06:03:28,1685.705791242574,36.2000011584,0.0,0.09451320302442241,1685.705791242574,36.2000011584,0.35999970196000003,0.371744011895808,1684,-53.5,99,P-GPS,
0.371701059252646,36.9135453913835,14400,2018-04-18 06:03:29,1686.205791258574,36.7000011744,0.0,0.10179800325753602,1686.205791258574,36.7000011744,0.35999970196000003,0.371744011895808,1684,-53.5,99,P-GPS,
0.371701068173059,36.9135454498838,14500,2018-04-18 06:03:29,1686.7057912745738,37.2000011904,0.0,0.10724800343193601,1686.7057912745738,37.2000011904,0.35999970196000003,0.371744011895808,1684,-53.5,99,P-GPS,
0.371701060002341,36.9135455079304,14600,2018-04-18 06:03:29,1687.305791293774,37.800001209600005,0.0,0.11351600363251202,1687.305791293774,37.800001209600005,0.35999970196000003,0.371744011895808,1684,-53.5,99,P-GPS,
0.371701080734876,36.9135455425352,14700,2018-04-18 06:03:29,1687.805791309774,38.3000012256,0.0,0.11618300371785602,1687.805791309774,38.3000012256,0.35999970196000003,0.371744011895808,1684,-53.5,99,P-GPS,
0.371701104989328,36.9135455483361,14800,2018-04-18 06:03:29,1688.3057913257737,38.8000012416,0.0,0.11581800370617601,1688.3057913257737,38.8000012416,0.35999970196000003,0.371744011895808,1684,-53.3,99,P-GPS,
0.371701137429357,36.9135455418303,14900,2018-04-18 06:03:29,1688.805791341774,39.3000012576,0.0,0.113929003645728,1688.805791341774,39.3000012576,0.35999970196000003,0.371744011895808,1684,-51.2,99,P-GPS,
0.371701125938446,36.9135455475777,15000,2018-04-18 06:03:29,1689.3057913577738,39.800001273599996,0.0,0.11494900367836801,1689.3057913577738,39.800001273599996,0.35999970196000003,0.371744011895808,1684,-48.4,99,P-GPS,
0.371701113095518,36.9135455441996,15100,2018-04-18 06:03:29,1689.805791373774,40.3000012896,0.0,0.1150750036824,1689.805791373774,40.3000012896,0.35999970196000003,0.371744011895808,1684,-46.7,99,P-GPS,
0.371701101240039,36.9135455315777,15200,2018-04-18 06:03:29,1690.405791392974,40.9000013088,0.0,0.11422000365504001,1690.405791392974,40.9000013088,0.35999970196000003,0.371744011895808,1684,-46.7,99,P-GPS,
0.371701098661805,36.9135454992173,15300,2018-04-18 06:03:29,1690.9057914089738,41.4000013248,0.0,0.11097000355104,1690.9057914089738,41.4000013248,0.35999970196000003,0.371744011895808,1684,-46.7,99,P-GPS,
0.371701091571763,36.9135454684866,15400,2018-04-18 06:03:30,1691.405791424974,41.9000013408,0.0,0.10810300345929601,1691.405791424974,41.9000013408,0.35999970196000003,0.371744011895808,1684,-46.6,99,P-GPS,
0.37170109996741,36.9135454415549,15500,2018-04-18 06:03:30,1691.9057914409739,42.400001356800004,0.0,0.10498100335939199,1691.9057914409739,42.400001356800004,0.35999970196000003,0.371744011895808,1684,-46.6,99,P-GPS,
0.371701110445633,36.9135454077309,15600,2018-04-18 06:03:30,1692.405791456974,42.900001372800006,0.0,0.10106300323401601,1692.405791456974,42.900001372800006,0.35999970196000003,0.371744011895808,1684,-46.7,99,P-GPS,
0.371701123994287,36.9135453607063,15700,2018-04-18 06:03:30,1692.9057914729738,43.4000013888,0.0,0.09566400306124802,1692.9057914729738,43.4000013888,0.35999970196000003,0.371744011895808,1684,-46.7,99,P-GPS,
0.3717011474622,36.9135453302522,15800,2018-04-18 06:03:30,1693.405791488974,43.9000014048,0.0,0.0915237029287584,1693.405791488974,43.9000014048,0.35999970196000003,0.371744011895808,1684,-46.7,99,P-GPS,
0.371701176523208,36.9135452923864,15900,2018-04-18 06:03:30,1693.9057915049739,44.4000014208,0.0,0.08639900276476802,1693.9057915049739,44.4000014208,0.35999970196000003,0.371744011895808,1684,-46.7,99,P-GPS,
0.371701219074654,36.9135452579687,16000,2018-04-18 06:03:30,1694.4057915209737,44.900001436800004,0.0,0.08113410259629121,1694.4057915209737,44.900001436800004,0.35999970196000003,0.371744011895808,1684,-46.6,99,P-GPS,
0.371701270882582,36.9135452351702,16100,2018-04-18 06:03:30,1694.8057915337738,45.3000014496,0.0,0.0769272024616704,1694.8057915337738,45.3000014496,0.35999970196000003,0.371744011895808,1684,-46.6,99,P-GPS,
0.371701329020577,36.9135452448995,16200,2018-04-18 06:03:30,1695.305791549774,45.800001465600005,0.0,0.07640970244511042,1695.305791549774,45.800001465600005,0.35999970196000003,0.371744011895808,1684,-46.6,99,P-GPS,
0.371701387827252,36.9135452744736,16300,2018-04-18 06:03:30,1695.805791565774,46.300001481600006,0.0,0.07863680251637761,1695.805791565774,46.300001481600006,0.35999970196000003,0.371744011895808,1684,-46.6,99,P-GPS,
0.371701407439315,36.9135453138237,16400,2018-04-18 06:03:31,1696.3057915817737,46.8000014976,0.0,0.0827837026490784,1696.3057915817737,46.8000014976,0.35999970196000003,0.371744011895808,1684,-46.7,99,P-GPS,
0.371701414776677,36.913545342508,16500,2018-04-18 06:03:31,1696.7057915945738,47.2000015104,0.0,0.08590470274895042,1696.7057915945738,47.2000015104,0.35999970196000003,0.371744011895808,1684,-46.7,99,P-GPS,
0.371701419182432,36.9135453503564,16600,2018-04-18 06:03:31,1697.2057916105741,47.70000152640001,0.0,0.0867441027758112,1697.2057916105741,47.70000152640001,0.35999970196000003,0.371744011895808,1684,-46.6,99,P-GPS,
0.371701433384499,36.9135453520475,16700,2018-04-18 06:03:31,1697.705791626574,48.20000154240001,0.0,0.0868496027791872,1697.705791626574,48.20000154240001,0.35999970196000003,0.371744011895808,1684,-46.6,99,P-GPS,
0.371701430564645,36.9135453415869,16800,2018-04-18 06:03:31,1698.2057916425738,48.7000015584,0.0,0.0857017027424544,1698.2057916425738,48.7000015584,0.35999970196000003,0.371744011895808,1684,-46.6,99,P-GPS,
0.371701436817463,36.9135453264882,16900,2018-04-18 06:03:31,1698.705791658574,49.200001574400005,0.0,0.08399390268780481,1698.705791658574,49.200001574400005,0.35999970196000003,0.371744011895808,1684,-46.6,99,P-GPS,
0.371701435346571,36.9135452944615,17000,2018-04-18 06:03:31,1699.3057916777739,49.8000015936,0.0,0.0804424025741568,1699.3057916777739,49.8000015936,0.35999970196000003,0.371744011895808,1684,-46.7,99,P-GPS,
0.371701422270064,36.9135452665491,17100,2018-04-18 06:03:31,1699.8057916937737,50.3000016096,0.0,0.07742120247747841,1699.8057916937737,50.3000016096,0.35999970196000003,0.371744011895808,1684,-46.7,99,P-GPS,
0.371701388723812,36.9135452518278,17200,2018-04-18 06:03:31,1700.305791709774,50.800001625600004,0.0,0.0761233024359456,1700.305791709774,50.800001625600004,0.35999970196000003,0.371744011895808,1684,-46.7,99,P-GPS,
0.371701376933877,36.9135452365729,17300,2018-04-18 06:03:31,1700.8057917257738,51.300001641600005,0.0,0.07460290238729281,1700.8057917257738,51.300001641600005,0.35999970196000003,0.371744011895808,1684,-46.7,99,P-GPS,
0.371701381994572,36.9135451903083,17400,2018-04-18 06:03:32,1701.3057917417739,51.8000016576,0.0,0.0694293022217376,1701.3057917417739,51.8000016576,0.35999970196000003,0.371744011895808,1684,-46.6,99,P-GPS,
0.371701405454446,36.9135451326225,17500,2018-04-18 06:03:32,1701.805791757774,52.3000016736,0.0,0.06274240200775681,1701.805791757774,52.3000016736,0.35999970196000003,0.371744011895808,1684,-46.7,99,P-GPS,
0.371701427025222,36.9135450479732,17600,2018-04-18 06:03:32,1702.305791773774,52.8000016896,0.0,0.053141001700512,1702.305791773774,52.8000016896,0.35999970196000003,0.371744011895808,1684,-46.6,99,P-GPS,
0.371701451609739,36.9135449652235,17700,2018-04-18 06:03:32,1702.8057917897738,53.3000017056,0.0,0.043786301401161604,1702.8057917897738,53.3000017056,0.35999970196000003,0.371744011895808,1684,-46.6,99,P-GPS,
0.371701448949879,36.913544874868,17800,2018-04-18 06:03:32,1703.4057918089738,53.900001724800006,0.0,0.0337646010804672,1703.4057918089738,53.900001724800006,0.35999970196000003,0.371744011895808,1684,-46.6,99,P-GPS,
0.371701446626802,36.9135447969625,17900,2018-04-18 06:03:32,1703.905791824974,54.40000174080001,0.0,0.0251436008045952,1703.905791824974,54.40000174080001,0.35999970196000003,0.371744011895808,1684,-46.7,99,P-GPS,
0.371701390127225,36.9135447381469,18000,2018-04-18 06:03:32,1704.4057918409737,54.9000017568,0.0,0.020379000652128002,1704.4057918409737,54.9000017568,0.35999970196000003,0.371744011895808,1684,-46.7,99,P-GPS,
0.371701342242626,36.9135446952903,18100,2018-04-18 06:03:32,1704.905791856974,55.4000017728,0.0,0.019520000624640002,1704.905791856974,55.4000017728,0.35999970196000003,0.371744011895808,1684,-46.7,99,P-GPS,
0.371701267037622,36.9135446681222,18200,2018-04-18 06:03:32,1705.4057918729739,55.900001788800004,0.0,0.0246799007897568,1705.4057918729739,55.900001788800004,0.35999970196000003,0.371744011895808,1684,-46.7,99,P-GPS,
0.371701221763011,36.9135446459335,18300,2018-04-18 06:03:32,1706.005791892174,56.500001808,0.0,0.028487500911600003,1706.005791892174,56.500001808,0.35999970196000003,0.371744011895808,1684,-46.7,99,P-GPS,
0.371701164340819,36.9135446219531,18400,2018-04-18 06:03:33,1706.505791908174,57.000001824,0.0,0.0341129010916128,1706.505791908174,57.000001824,0.35999970196000003,0.371744011895808,1684,-46.7,99,P-GPS,
0.37170112674595,36.9135445848192,18500,2018-04-18 06:03:33,1707.0057919241738,57.50000184,0.0,0.037862001211584,1707.0057919241738,57.50000184,0.35999970196000003,0.371744011895808,1684,-46.7,99,P-GPS,
0.371701086550253,36.9135445256977,18600,2018-04-18 06:03:33,1707.505791940174,58.000001856000004,0.0,0.0426134013636288,1707.505791940174,58.000001856000004,0.35999970196000003,0.371744011895808,1684,-46.7,99,P-GPS,
0.371701061267845,36.9135444764391,18700,2018-04-18 06:03:33,1708.0057919561739,58.500001872,0.0,0.046344701483030395,1708.0057919561739,58.500001872,0.35999970196000003,0.371744011895808,1684,-46.6,99,P-GPS,
0.371701014112586,36.9135444381343,18800,2018-04-18 06:03:33,1708.505791972174,59.000001888,0.0,0.0525068016802176,1708.505791972174,59.000001888,0.35999970196000003,0.371744011895808,1684,-46.7,99,P-GPS,
0.371700977523892,36.9135444210805,18900,2018-04-18 06:03:33,1709.005791988174,59.500001904,0.0,0.05695000182240001,1709.005791988174,59.500001904,0.35999970196000003,0.371744011895808,1684,-46.7,99,P-GPS,
0.371700922276486,36.9135444049205,19000,2018-04-18 06:03:33,1709.505792004174,60.00000192,0.0,0.0633507020272224,1709.505792004174,60.00000192,0.35999970196000003,0.371744011895808,1684,-46.7,99,P-GPS,
0.371700894457167,36.9135443928478,19100,2018-04-18 06:03:33,1710.0057920201739,60.500001936000004,0.0,0.0667029021344928,1710.0057920201739,60.500001936000004,0.35999970196000003,0.371744011895808,1684,-46.6,99,P-GPS,
0.371700817385152,36.9135443923278,19200,2018-04-18 06:03:33,1710.5057920361737,61.000001952,0.0,0.0749426023981632,1710.5057920361737,61.000001952,0.35999970196000003,0.371744011895808,1684,-46.7,99,P-GPS,
0.371700758991593,36.9135443845641,19300,2018-04-18 06:03:34,1711.005792052174,61.500001968,0.0,0.08143670260597441,1711.005792052174,61.500001968,0.35999970196000003,0.371744011895808,1684,-46.7,99,P-GPS,
0.371700710563297,36.9135443713641,19400,2018-04-18 06:03:34,1711.5057920681738,62.000001984,0.0,0.08701860278459521,1711.5057920681738,62.000001984,0.35999970196000003,0.371744011895808,1684,-46.7,99,P-GPS,
0.371700714309939,36.9135443622521,19500,2018-04-18 06:03:34,1712.005792084174,62.50000200000001,0.0,0.0868821027802272,1712.005792084174,62.50000200000001,0.35999970196000003,0.371744011895808,1684,-46.7,99,P-GPS,
0.371700692440343,36.9135443752075,19600,2018-04-18 06:03:34,1712.505792100174,63.000002015999996,0.0,0.0888621028435872,1712.505792100174,63.000002015999996,0.35999970196000003,0.371744011895808,1684,-46.6,99,P-GPS,
0.37170068985071,36.9135443608106,19700,2018-04-18 06:03:34,1713.105792119374,63.600002035200006,0.0,0.08954730286551361,1713.105792119374,63.600002035200006,0.35999970196000003,0.371744011895808,1684,-46.7,99,P-GPS,
0.371700658800354,36.9135443451199,19800,2018-04-18 06:03:34,1713.605792135374,64.1000020512,0.0,0.0933401029868832,1713.605792135374,64.1000020512,0.35999970196000003,0.371744011895808,1684,-46.7,99,P-GPS,
0.371700656489796,36.9135443222398,19900,2018-04-18 06:03:34,1714.1057921513739,64.6000020672,0.0,0.09430460301774721,1714.1057921513739,64.6000020672,0.35999970196000003,0.371744011895808,1684,-46.7,99,P-GPS,
0.371700644557983,36.9135443039253,20000,2018-04-18 06:03:34,1714.605792167374,65.10000208320001,0.0,0.0961846030779072,1714.605792167374,65.10000208320001,0.35999970196000003,0.371744011895808,1684,-46.6,99,P-GPS,
0.371700666277558,36.913544299078,20100,2018-04-18 06:03:34,1715.205792186574,65.7000021024,0.0,0.0940634030100288,1715.205792186574,65.7000021024,0.35999970196000003,0.371744011895808,1684,-46.7,98,P-GPS,
0.371700642927911,36.9135443121482,20200,2018-04-18 06:03:34,1715.705792202574,66.20000211840001,0.0,0.09607830307450561,1715.705792202574,66.20000211840001,0.35999970196000003,0.371744011895808,1684,-46.7,98,P-GPS,
0.371700635655076,36.9135443163072,20300,2018-04-18 06:03:34,1716.2057922185738,66.70000213440001,0.0,0.09671310309481922,1716.2057922185738,66.70000213440001,0.35999970196000003,0.371744011895808,1684,-46.7,98,P-GPS,
0.3717005965598,36.9135443306483,20400,2018-04-18 06:03:35,1716.605792231374,67.1000021472,0.0,0.10044000321408,1716.605792231374,67.1000021472,0.35999970196000003,0.371744011895808,1684,-46.6,98,P-GPS,
0.371700588190412,36.9135443459615,20500,2018-04-18 06:03:35,1717.105792247374,67.6000021632,0.0,0.1009000032288,1717.105792247374,67.6000021632,0.35999970196000003,0.371744011895808,1684,-46.6,98,P-GPS,
0.371700565526136,36.9135443651888,20600,2018-04-18 06:03:35,1717.605792263374,68.1000021792,0.0,0.102844003291008,1717.605792263374,68.1000021792,0.35999970196000003,0.371744011895808,1684,-46.6,98,P-GPS,
0.371700570830792,36.9135443798137,20700,2018-04-18 06:03:35,1718.1057922793739,68.6000021952,0.0,0.101916003261312,1718.1057922793739,68.6000021952,0.35999970196000003,0.371744011895808,1684,-46.6,98,P-GPS,
0.371700544299979,36.9135443910631,20800,2018-04-18 06:03:35,1718.605792295374,69.1000022112,0.0,0.10455500334576001,1718.605792295374,69.1000022112,0.35999970196000003,0.371744011895808,1684,-46.7,98,P-GPS,
0.371700527635908,36.9135443954741,20900,2018-04-18 06:03:35,1719.105792311374,69.60000222720001,0.0,0.10628300340105601,1719.105792311374,69.60000222720001,0.35999970196000003,0.371744011895808,1684,-46.7,98,P-GPS,
0.371700528154771,36.913544395581,21000,2018-04-18 06:03:35,1719.6057923273738,70.10000224320001,0.0,0.10622400339916802,1719.6057923273738,70.10000224320001,0.35999970196000003,0.371744011895808,1684,-46.7,98,P-GPS,
0.371700556969477,36.9135443940947,21100,2018-04-18 06:03:35,1720.105792343374,70.60000225920001,0.0,0.10310800329945602,1720.105792343374,70.60000225920001,0.35999970196000003,0.371744011895808,1684,-46.7,98,P-GPS,
0.371700553946677,36.9135443931763,21200,2018-04-18 06:03:35,1720.605792359374,71.1000022752,0.0,0.103457003310624,1720.605792359374,71.1000022752,0.35999970196000003,0.371744011895808,1684,-46.7,98,P-GPS,
0.371700571649288,36.9135443951815,21300,2018-04-18 06:03:35,1721.105792375374,71.6000022912,0.0,0.101483003247456,1721.105792375374,71.6000022912,0.35999970196000003,0.371744011895808,1684,-46.7,98,P-GPS,
0.371700576987735,36.9135443993347,21400,2018-04-18 06:03:36,1721.6057923913738,72.1000023072,0.0,0.10081100322595202,1721.6057923913738,72.1000023072,0.35999970196000003,0.371744011895808,1684,-46.7,98,P-GPS,
0.371700601414191,36.9135444017585,21500,2018-04-18 06:03:36,1722.105792407374,72.6000023232,0.0,0.0980936031389952,1722.105792407374,72.6000023232,0.35999970196000003,0.371744011895808,1684,-46.6,98,P-GPS,
0.371700595050232,36.9135444024619,21600,2018-04-18 06:03:36,1722.605792423374,73.1000023392,0.0,0.09877320316074241,1722.605792423374,73.1000023392,0.35999970196000003,0.371744011895808,1684,-46.7,98,P-GPS,
0.371700608816487,36.913544403049,21700,2018-04-18 06:03:36,1723.1057924393738,73.6000023552,0.0,0.09725820311226241,1723.1057924393738,73.6000023552,0.35999970196000003,0.371744011895808,1684,-46.6,98,P-GPS,
0.371700627981441,36.9135443750051,21800,2018-04-18 06:03:36,1723.605792455374,74.1000023712,0.0,0.095831503066608,1723.605792455374,74.1000023712,0.35999970196000003,0.371744011895808,1684,-46.7,98,P-GPS,
0.371700663516532,36.9135443443833,21900,2018-04-18 06:03:36,1724.105792471374,74.6000023872,0.0,0.09285750297144,1724.105792471374,74.6000023872,0.35999970196000003,0.371744011895808,1659,-46.7,98,P-GPS,
0.371700699258842,36.9135443118109,22000,2018-04-18 06:03:36,1724.605792487374,75.10000240320001,0.0,0.0901351028843232,1724.605792487374,75.10000240320001,0.35999970196000003,0.371744011895808,1580,-46.6,98,P-GPS,
0.371700744162778,36.9135442968872,22100,2018-04-18 06:03:36,1725.105792503374,75.60000241920001,0.0,0.08599620275187841,1725.105792503374,75.60000241920001,0.35999970196000003,0.371744011895808,1580,-46.6,98,P-GPS,
0.371700784401833,36.9135442872179,22200,2018-04-18 06:03:36,1725.605792519374,76.1000024352,0.0,0.08223680263157761,1725.605792519374,76.1000024352,0.35999970196000003,0.371744011895808,1220,-46.6,98,P-GPS,
0.371700833243753,36.9135442764572,22300,2018-04-18 06:03:36,1726.005792532174,76.500002448,0.0,0.0777496024879872,1726.005792532174,76.500002448,0.35999970196000003,0.371744011895808,1024,-46.6,98,P-GPS,
0.371700853323079,36.9135442999101,22400,2018-04-18 06:03:37,1726.405792544974,76.9000024608,0.0,0.0746375023884,1726.405792544974,76.9000024608,0.35999970196000003,0.371744011895808,1024,-46.6,98,P-GPS,
0.371700878077259,36.9135443250149,22500,2018-04-18 06:03:37,1726.705792554574,77.20000247040001,0.0,0.0710044022721408,1726.705792554574,77.20000247040001,0.35999970196000003,0.371744011895808,1024,-46.6,98,P-GPS,
0.371700871783934,36.9135443456596,22600,2018-04-18 06:03:37,1726.9057925609739,77.4000024768,0.0,0.0708029022656928,1726.9057925609739,77.4000024768,0.35999970196000003,0.371744011895808,1024,-46.7,98,P-GPS,
0.371700885316711,36.9135443444567,22700,2018-04-18 06:03:37,1727.005792564174,77.50000248,0.0,0.0694467022222944,1727.005792564174,77.50000248,0.35999970196000003,0.371744011895808,1024,-46.7,98,P-GPS,
0.371700880299475,36.9135443067452,22900,2018-04-18 06:03:37,1727.205792570574,77.70000248640001,0.0,0.0715887022908384,1727.205792570574,77.70000248640001,0.35999970196000003,0.371744011895808,1024,-46.7,98,P-GPS,
0.371700838249387,36.9135443073026,23000,2018-04-18 06:03:37,1727.205792570574,77.70000248640001,0.0,0.0758507024272224,1727.205792570574,77.70000248640001,0.35999970196000003,0.371744011895808,1024,-46.7,98,P-GPS,
0.371700829206027,36.9135442977386,23100,2018-04-18 06:03:37,1727.205792570574,77.70000248640001,0.0,0.0771923024701536,1727.205792570574,77.70000248640001,0.35999970196000003,0.371744011895808,904,-46.7,98,P-GPS,
0.371700865649993,36.9135442705081,23300,2018-04-18 06:03:37,1727.305792573774,77.8000024896,0.35999970196000003,0.0747926023933632,1727.305792573774,77.8000024896,0.35999970196000003,0.371744011895808,794,-46.7,98,P-GPS,
0.371700916638203,36.9135442516847,23400,2018-04-18 06:03:38,1727.305792573774,77.8000024896,0.35999970196000003,0.07079830226554559,1727.305792573774,77.8000024896,0.35999970196000003,0.371744011895808,746,-46.7,98,P-GPS,
0.371701023877754,36.9135441949025,23500,2018-04-18 06:03:38,1727.305792573774,77.8000024896,0.35999970196000003,0.06468630206996161,1727.305792573774,77.8000024896,0.35999970196000003,0.371744011895808,707,-46.7,98,P-GPS,
0.371701140376841,36.9135441201429,23600,2018-04-18 06:03:38,1727.205792570574,77.70000248640001,0.35999970196000003,0.0619789019833248,1727.305792573774,77.8000024896,0.35999970196000003,0.371744011895808,692,-46.7,98,P-GPS,
0.371701319272609,36.9135440109617,23700,2018-04-18 06:03:38,1727.205792570574,77.70000248640001,0.35999970196000003,0.0644909020637088,1727.305792573774,77.8000024896,0.35999970196000003,0.371744011895808,689,-46.7,98,P-GPS,
0.371701508565993,36.9135438988788,23800,2018-04-18 06:03:38,1727.105792567374,77.6000024832,0.0,0.0749714023990848,1727.305792573774,77.8000024896,0.35999970196000003,0.371744011895808,674,-46.7,98,P-GPS,
0.371701771440924,36.9135437460376,23900,2018-04-18 06:03:38,1727.105792567374,77.6000024832,0.0,0.09786890313180481,1727.305792573774,77.8000024896,0.35999970196000003,0.371744011895808,656,-46.7,98,P-GPS,
0.371702113936792,36.9135435052888,24000,2018-04-18 06:03:38,1727.005792564174,77.50000248,0.0,0.13871500443888,1727.305792573774,77.8000024896,0.35999970196000003,0.371744011895808,660,-46.7,98,P-GPS,
0.371702530828429,36.9135432173361,24100,2018-04-18 06:03:38,1726.8057925577739,77.3000024736,0.0,0.191528006128896,1727.305792573774,77.8000024896,0.35999970196000003,0.371744011895808,659,-46.7,98,P-GPS,
0.371702989209277,36.913542892139,24200,2018-04-18 06:03:38,1726.705792554574,77.20000247040001,0.35999970196000003,0.25208000806656,1727.305792573774,77.8000024896,0.35999970196000003,0.371744011895808,658,-46.7,98,P-GPS,
0.371703503288417,36.9135425659488,24300,2018-04-18 06:03:39,1726.6057925513737,77.1000024672,0.35999970196000003,0.317859010171488,1727.305792573774,77.8000024896,0.35999970196000003,0.371744011895808,666,-46.7,98,P-GPS,
0.371704218377106,36.9135421615619,24400,2018-04-18 06:03:39,1726.5057925481738,77.000002464,0.35999970196000003,0.40676401301644804,1727.305792573774,77.8000024896,0.35999970196000003,0.40676401301644804,666,-46.7,98,P-GPS,
0.371705131609619,36.9135416616463,24500,2018-04-18 06:03:39,1726.405792544974,76.9000024608,0.7919993443119999,0.5203940166526081,1727.305792573774,77.8000024896,0.7919993443119999,0.5203940166526081,708,-46.6,98,P-GPS,
0.371706348744895,36.9135410146269,24600,2018-04-18 06:03:39,1726.2057925385739,76.7000024544,1.151999046272,0.671712021494784,1727.305792573774,77.8000024896,1.151999046272,0.671712021494784,724,-46.6,98,P-GPS,
0.371707375325762,36.913540482223,24700,2018-04-18 06:03:39,1726.105792535374,76.6000024512,1.151999046272,0.7990800255705601,1727.305792573774,77.8000024896,1.151999046272,0.7990800255705601,756,-46.6,98,P-GPS,
0.371708408247382,36.9135399154287,24800,2018-04-18 06:03:39,1726.005792532174,76.500002448,1.151999046272,0.929500029744,1727.305792573774,77.8000024896,1.151999046272,0.929500029744,756,-46.6,98,P-GPS,
0.371709342997849,36.9135394211848,24900,2018-04-18 06:03:39,1725.8057925257738,76.3000024416,1.151999046272,1.04652003348864,1727.305792573774,77.8000024896,1.151999046272,1.04652003348864,784,-46.7,98,P-GPS,
0.371710152465605,36.9135390206944,25000,2018-04-18 06:03:39,1725.7057925225738,76.2000024384,1.151999046272,1.14629003668128,1727.305792573774,77.8000024896,1.151999046272,1.14629003668128,998,-46.7,98,P-GPS,
0.371710885761265,36.9135386748125,25100,2018-04-18 06:03:39,1725.605792519374,76.1000024352,1.151999046272,1.23577003954464,1727.305792573774,77.8000024896,1.151999046272,1.23577003954464,998,-46.7,98,P-GPS,
0.371711387098919,36.9135384408548,25200,2018-04-18 06:03:39,1725.505792516174,76.000002432,1.151999046272,1.2968500414992,1727.305792573774,77.8000024896,1.151999046272,1.2968500414992,1024,-46.6,98,P-GPS,
0.371711849624239,36.9135382311338,25300,2018-04-18 06:03:39,1725.505792516174,76.000002432,0.7919993443119999,1.35289004329248,1727.305792573774,77.8000024896,1.151999046272,1.35289004329248,1024,-46.6,98,P-GPS,
0.371712050271337,36.9135381548575,25400,2018-04-18 06:03:40,1725.405792512974,75.90000242880001,0.7199994039200001,1.3763600440435202,1727.305792573774,77.8000024896,1.151999046272,1.3763600440435202,1024,-46.6,98,P-GPS,
0.371712282296923,36.9135380838642,25500,2018-04-18 06:03:40,1725.405792512974,75.90000242880001,0.7199994039200001,1.4025300448809601,1727.305792573774,77.8000024896,1.151999046272,1.4025300448809601,1024,-46.7,98,P-GPS,
0.371712318343346,36.913538072537,25600,2018-04-18 06:03:40,1725.405792512974,75.90000242880001,0.7199994039200001,1.40662004501184,1727.305792573774,77.8000024896,1.151999046272,1.40662004501184,1024,-46.7,98,P-GPS,
0.371712398290175,36.9135380414494,25700,2018-04-18 06:03:40,1725.305792509774,75.8000024256,0.7199994039200001,1.4160200453126401,1727.305792573774,77.8000024896,1.151999046272,1.4160200453126401,877,-46.7,98,P-GPS,
0.371712311038146,36.913538086613,25800,2018-04-18 06:03:40,1725.305792509774,75.8000024256,0.35999970196000003,1.4051200449638401,1727.305792573774,77.8000024896,1.151999046272,1.4160200453126401,699,-46.6,98,P-GPS,
0.371712296526267,36.9135381155867,25900,2018-04-18 06:03:40,1725.305792509774,75.8000024256,0.35999970196000003,1.4020800448665602,1727.305792573774,77.8000024896,1.151999046272,1.4160200453126401,622,-46.6,98,P-GPS,
0.37171217532118,36.9135381549994,26000,2018-04-18 06:03:40,1725.305792509774,75.8000024256,0.35999970196000003,1.38826004442432,1727.305792573774,77.8000024896,1.151999046272,1.4160200453126401,622,-46.7,98,P-GPS,
0.371712113491604,36.9135381829768,26100,2018-04-18 06:03:40,1725.205792506574,75.7000024224,0.35999970196000003,1.38076004418432,1727.305792573774,77.8000024896,1.151999046272,1.4160200453126401,791,-46.7,98,P-GPS,
0.371711953740434,36.9135382013861,26200,2018-04-18 06:03:40,1725.105792503374,75.60000241920001,0.0,1.364500043664,1727.305792573774,77.8000024896,1.151999046272,1.4160200453126401,1024,-46.7,98,P-GPS,
0.371711815429358,36.9135382272004,26300,2018-04-18 06:03:41,1724.9057924969738,75.4000024128,0.0,1.3498700431958401,1727.305792573774,77.8000024896,1.151999046272,1.4160200453126401,1024,-46.7,98,P-GPS,
0.371711553424118,36.9135382754612,26400,2018-04-18 06:03:41,1724.9057924969738,75.4000024128,0.0,1.3222700423126401,1727.305792573774,77.8000024896,1.151999046272,1.4160200453126401,1024,-46.7,98,P-GPS,
0.371711314882313,36.9135383226787,26500,2018-04-18 06:03:41,1724.9057924969738,75.4000024128,0.0,1.2970200415046402,1727.305792573774,77.8000024896,1.151999046272,1.4160200453126401,1024,-46.7,98,P-GPS,
0.371711041676635,36.9135383242692,26600,2018-04-18 06:03:41,1724.8057924937739,75.3000024096,0.0,1.2713800406841602,1727.305792573774,77.8000024896,1.151999046272,1.4160200453126401,1024,-46.7,98,P-GPS,
0.371710793922723,36.9135383488881,26700,2018-04-18 06:03:41,1724.8057924937739,75.3000024096,0.0,1.24687003989984,1727.305792573774,77.8000024896,1.151999046272,1.4160200453126401,1024,-46.6,98,P-GPS,
0.371710527508471,36.913538367785,26800,2018-04-18 06:03:41,1724.8057924937739,75.3000024096,0.35999970196000003,1.2211500390768,1727.305792573774,77.8000024896,1.151999046272,1.4160200453126401,1024,-43.6,98,P-GPS,
0.371710268732435,36.9135384273457,26900,2018-04-18 06:03:41,1724.8057924937739,75.3000024096,0.35999970196000003,1.19371003819872,1727.305792573774,77.8000024896,1.151999046272,1.4160200453126401,1024,-43.6,98,P-GPS,
0.371709954484269,36.9135384938564,27000,2018-04-18 06:03:41,1724.8057924937739,75.3000024096,0.35999970196000003,1.16091003714912,1727.305792573774,77.8000024896,1.151999046272,1.4160200453126401,1024,-38.0,98,P-GPS,
0.371709631972157,36.9135385796708,27100,2018-04-18 06:03:41,1724.8057924937739,75.3000024096,0.35999970196000003,1.1262700360406401,1727.305792573774,77.8000024896,1.151999046272,1.4160200453126401,1024,-32.3,98,P-GPS,
0.371709282038676,36.9135386242932,27200,2018-04-18 06:03:41,1724.8057924937739,75.3000024096,0.7199994039200001,1.0921200349478402,1727.305792573774,77.8000024896,1.151999046272,1.4160200453126401,1024,-21.0,98,P-GPS,
0.371708605707616,36.9135386120442,27400,2018-04-18 06:03:41,1724.8057924937739,75.3000024096,0.7199994039200001,1.0341500330928,1727.305792573774,77.8000024896,1.151999046272,1.4160200453126401,1024,-22.1,98,P-GPS,
0.371708290486047,36.9135385848307,27500,2018-04-18 06:03:42,1724.8057924937739,75.3000024096,0.7199994039200001,1.0094800323033601,1727.305792573774,77.8000024896,1.151999046272,1.4160200453126401,1024,-27.7,98,P-GPS,
0.371707955484177,36.9135385487733,27600,2018-04-18 06:03:42,1724.8057924937739,75.3000024096,0.7199994039200001,0.98451003150432,1727.305792573774,77.8000024896,1.151999046272,1.4160200453126401,1024,-33.4,98,P-GPS,
0.371707621801753,36.9135385542168,27700,2018-04-18 06:03:42,1724.8057924937739,75.3000024096,0.7199994039200001,0.9572220306311041,1727.305792573774,77.8000024896,1.151999046272,1.4160200453126401,1024,-39.0,98,P-GPS,
0.37170728187791,36.9135385437874,27800,2018-04-18 06:03:42,1724.8057924937739,75.3000024096,0.7199994039200001,0.931402029804864,1727.305792573774,77.8000024896,1.151999046272,1.4160200453126401,1024,-44.7,98,P-GPS,
0.37170697916442,36.9135385635248,27900,2018-04-18 06:03:42,1724.9057924969738,75.4000024128,0.7199994039200001,0.90673502901552,1727.305792573774,77.8000024896,1.151999046272,1.4160200453126401,1024,-50.3,98,P-GPS,
0.371706669249543,36.9135385564336,28000,2018-04-18 06:03:42,1724.9057924969738,75.4000024128,0.35999970196000003,0.8843970283007041,1727.305792573774,77.8000024896,1.151999046272,1.4160200453126401,1024,-56.0,98,P-GPS,
0.371706407865962,36.9135385769466,28100,2018-04-18 06:03:42,1724.9057924969738,75.4000024128,0.35999970196000003,0.8639000276448,1727.305792573774,77.8000024896,1.151999046272,1.4160200453126401,1024,-61.6,98,P-GPS,
0.371706134963785,36.9135386045424,28200,2018-04-18 06:03:42,1724.9057924969738,75.4000024128,0.35999970196000003,0.842503026960096,1727.305792573774,77.8000024896,1.151999046272,1.4160200453126401,1024,-67.2,98,P-GPS,
0.371705894613797,36.9135386503799,28300,2018-04-18 06:03:42,1724.9057924969738,75.4000024128,0.35999970196000003,0.8222150263108801,1727.305792573774,77.8000024896,1.151999046272,1.4160200453126401,1024,-72.9,98,P-GPS,
0.371705589306399,36.9135387246927,28400,2018-04-18 06:03:43,1724.9057924969738,75.4000024128,0.35999970196000003,0.7955760254584321,1727.305792573774,77.8000024896,1.151999046272,1.4160200453126401,1024,-78.5,98,P-GPS,
0.37170531428236,36.9135388058879,28500,2018-04-18 06:03:43,1724.9057924969738,75.4000024128,0.35999970196000003,0.7708270246664641,1727.305792573774,77.8000024896,1.151999046272,1.4160200453126401,1024,-78.5,98,P-GPS,
0.371704926065382,36.91353890287,28600,2018-04-18 06:03:43,1724.9057924969738,75.4000024128,0.35999970196000003,0.7385000236320001,1727.305792573774,77.8000024896,1.151999046272,1.4160200453126401,1024,-84.1,98,P-GPS,
0.371704587091024,36.913538999062,28700,2018-04-18 06:03:43,1724.9057924969738,75.4000024128,0.35999970196000003,0.710232022727424,1727.305792573774,77.8000024896,1.151999046272,1.4160200453126401,1024,-89.8,98,P-GPS,
0.371704156022052,36.9135391519176,28800,2018-04-18 06:03:43,1724.9057924969738,75.4000024128,0.35999970196000003,0.6728170215301441,1727.305792573774,77.8000024896,1.151999046272,1.4160200453126401,1024,-89.9,98,P-GPS,
0.371703809639495,36.9135393165877,28900,2018-04-18 06:03:43,1724.9057924969738,75.4000024128,0.503999582744,0.6398360204747521,1727.305792573774,77.8000024896,1.151999046272,1.4160200453126401,1024,-90.0,98,P-GPS,
0.371703408348198,36.9135395351526,29000,2018-04-18 06:03:43,1724.8057924937739,75.3000024096,0.503999582744,0.6002600192083201,1727.305792573774,77.8000024896,1.151999046272,1.4160200453126401,1024,-90.0,98,P-GPS,
0.37170309732168,36.9135397497567,29100,2018-04-18 06:03:43,1724.8057924937739,75.3000024096,0.35999970196000003,0.566048018113536,1727.305792573774,77.8000024896,1.151999046272,1.4160200453126401,1024,-89.9,98,P-GPS,
0.371702745058672,36.9135399807038,29200,2018-04-18 06:03:43,1724.8057924937739,75.3000024096,0.35999970196000003,0.5299590169586881,1727.305792573774,77.8000024896,1.151999046272,1.4160200453126401,1024,-90.0,98,P-GPS,
0.371702478351363,36.9135401895785,29300,2018-04-18 06:03:43,1724.8057924937739,75.3000024096,0.35999970196000003,0.5001280160040961,1727.305792573774,77.8000024896,1.151999046272,1.4160200453126401,1024,-89.9,98,P-GPS,
0.371702151771703,36.9135404166995,29400,2018-04-18 06:03:44,1724.8057924937739,75.3000024096,0.35999970196000003,0.468294014985408,1727.305792573774,77.8000024896,1.151999046272,1.4160200453126401,1024,-90.0,98,P-GPS,
0.371701906973061,36.9135406286848,29500,2018-04-18 06:03:44,1724.8057924937739,75.3000024096,0.35999970196000003,0.441208014118656,1727.305792573774,77.8000024896,1.151999046272,1.4160200453126401,1024,-89.9,98,P-GPS,
