latitude,longitude,time_millisecond,datetime_utc,altitude_m,ascent_m,speed_kph,distance_m,max_altitude_m,max_ascent_m,max_speed_kph,max_distance_m,rc_throttle,gimbal_pitch_degrees,battery_percent,flycState,message
0.341420150146681,36.9110502635272,0,2018-04-04 05:44:18,1645.1146766436802,0.0,0.0,0.0,1645.1146766436802,0.0,0.0,0.0,364,0.0,99,Motors_Started,
0.341420090731274,36.9110501929286,100,2018-04-04 05:44:18,1645.1146766436802,0.0,0.0,0.010261200328358401,1645.1146766436802,0.0,0.0,0.010261200328358401,364,0.0,99,Motors_Started,
0.341420050664223,36.9110501225003,200,2018-04-04 05:44:18,1645.1146766436802,0.0,0.0,0.0191922006141504,1645.1146766436802,0.0,0.0,0.0191922006141504,364,0.0,99,Motors_Started,
0.341420007069963,36.9110500412449,300,2018-04-04 05:44:18,1645.1146766436802,0.0,0.0,0.029396800940697604,1645.1146766436802,0.0,0.0,0.029396800940697604,364,0.0,99,Motors_Started,Setting new Return-To-Home altitude to 45m (148 ft). Setting new Maximum Flight Altitude to 150m (492 ft)
0.341419952250839,36.9110499581158,400,2018-04-04 05:44:18,1645.1146766436802,0.0,0.0,0.0404698012950336,1645.1146766436802,0.0,0.0,0.0404698012950336,364,0.0,99,Motors_Started,
0.341419887288951,36.9110498705041,500,2018-04-04 05:44:18,1645.1146766436802,0.0,0.0,0.052580101682563204,1645.1146766436802,0.0,0.0,0.052580101682563204,364,0.0,99,Motors_Started,
0.341419807812742,36.9110498044792,600,2018-04-04 05:44:18,1645.1146766436802,0.0,0.0,0.0636804020377728,1645.1146766436802,0.0,0.0,0.0636804020377728,364,0.0,99,Motors_Started,
0.341419726387285,36.9110497403996,700,2018-04-04 05:44:18,1645.1146766436802,0.0,0.0,0.07486610239571521,1645.1146766436802,0.0,0.0,0.07486610239571521,364,0.0,99,Motors_Started,
0.341419654471127,36.9110496709359,800,2018-04-04 05:44:18,1645.1146766436802,0.0,0.0,0.0859132027492224,1645.1146766436802,0.0,0.0,0.0859132027492224,397,0.0,99,Motors_Started,
0.341419593116243,36.9110495906526,900,2018-04-04 05:44:18,1645.1146766436802,0.0,0.0,0.0971401031084832,1645.1146766436802,0.0,0.0,0.0971401031084832,469,0.0,99,Motors_Started,
0.341419515552641,36.9110495285451,1000,2018-04-04 05:44:19,1645.1146766436802,0.0,0.0,0.10798400345548802,1645.1146766436802,0.0,0.0,0.10798400345548802,656,0.0,99,Motors_Started,
0.341419435675834,36.9110494670318,1100,2018-04-04 05:44:19,1645.1146766436802,0.0,0.0,0.11898800380761601,1645.1146766436802,0.0,0.0,0.11898800380761601,959,0.0,99,Motors_Started,
0.341419363333024,36.9110493979524,1200,2018-04-04 05:44:19,1645.1146766436802,0.0,0.0,0.130081004162592,1645.1146766436802,0.0,0.0,0.130081004162592,1024,0.0,99,Motors_Started,
0.341419301448081,36.9110493194324,1300,2018-04-04 05:44:19,1645.1146766436802,0.0,0.0,0.141174004517568,1645.1146766436802,0.0,0.0,0.141174004517568,1024,0.0,99,Motors_Started,
0.341419224259835,36.9110492561301,1400,2018-04-04 05:44:19,1645.1146766436802,0.0,0.0,0.152157004869024,1645.1146766436802,0.0,0.0,0.152157004869024,1024,0.0,99,Motors_Started,
0.341419145901553,36.9110491956285,1500,2018-04-04 05:44:19,1645.1146766436802,0.0,0.0,0.16301700521654403,1645.1146766436802,0.0,0.0,0.16301700521654403,1024,0.0,99,Assisted_Takeoff,
0.34141907494292,36.9110491228845,1600,2018-04-04 05:44:19,1645.1146766436802,0.0,0.0,0.174316005578112,1645.1146766436802,0.0,0.0,0.174316005578112,1024,0.0,99,Assisted_Takeoff,
0.341419014806926,36.9110490421461,1700,2018-04-04 05:44:19,1645.1146766436802,0.0,0.0,0.185441005934112,1645.1146766436802,0.0,0.0,0.185441005934112,1024,0.0,99,Assisted_Takeoff,
0.341418938489084,36.9110489738076,1800,2018-04-04 05:44:19,1645.1146766436802,0.0,0.0,0.19678900629724802,1645.1146766436802,0.0,0.0,0.19678900629724802,1024,0.0,99,Assisted_Takeoff,
0.341418860310744,36.9110489095364,1900,2018-04-04 05:44:19,1645.1146766436802,0.0,0.0,0.20795500665456002,1645.1146766436802,0.0,0.0,0.20795500665456002,1024,0.0,99,Assisted_Takeoff,
0.34141878776275,36.9110488329799,2000,2018-04-04 05:44:20,1645.1146766436802,0.0,0.0,0.21968400702988802,1645.1146766436802,0.0,0.0,0.21968400702988802,1024,0.0,99,Assisted_Takeoff,
0.341418726264563,36.9110487497523,2100,2018-04-04 05:44:20,1645.1146766436802,0.0,0.0,0.23110700739542403,1645.1146766436802,0.0,0.0,0.23110700739542403,1024,0.0,99,Assisted_Takeoff,
0.341418645831642,36.911048678642,2200,2018-04-04 05:44:20,1645.1146766436802,0.0,0.0,0.242998007775936,1645.1146766436802,0.0,0.0,0.242998007775936,1024,0.0,99,Assisted_Takeoff,
0.341418565629147,36.9110486135004,2300,2018-04-04 05:44:20,1645.1146766436802,0.0,0.0,0.25439700814070404,1645.1146766436802,0.0,0.0,0.25439700814070404,1024,0.0,99,Assisted_Takeoff,
0.341418489920343,36.9110485352908,2400,2018-04-04 05:44:20,1645.1146766436802,0.0,0.0,0.266502008528064,1645.1146766436802,0.0,0.0,0.266502008528064,1024,0.0,99,Assisted_Takeoff,
0.34141842688409,36.9110484518781,2500,2018-04-04 05:44:20,1645.1146766436802,0.0,0.0,0.278051008897632,1645.1146766436802,0.0,0.0,0.278051008897632,1024,0.0,99,Assisted_Takeoff,
0.341418347507216,36.9110483820258,2600,2018-04-04 05:44:20,1645.1146766436802,0.0,0.0,0.28976500927248,1645.1146766436802,0.0,0.0,0.28976500927248,1024,0.0,99,Assisted_Takeoff,
0.341418268439746,36.911048318504,2700,2018-04-04 05:44:20,1645.1146766436802,0.0,0.0,0.30095200963046403,1645.1146766436802,0.0,0.0,0.30095200963046403,1024,0.0,99,Assisted_Takeoff,
0.341418195589676,36.9110482437022,2800,2018-04-04 05:44:20,1645.1146766436802,0.0,0.0,0.312563010002016,1645.1146766436802,0.0,0.0,0.312563010002016,1024,0.0,99,Assisted_Takeoff,
0.341418134754265,36.9110481628514,2900,2018-04-04 05:44:20,1645.1146766436802,0.0,0.0,0.323732010359424,1645.1146766436802,0.0,0.0,0.323732010359424,1024,0.0,99,Assisted_Takeoff,
0.341418079237352,36.9110480920891,3000,2018-04-04 05:44:21,1645.1146766436802,0.0,0.0,0.33368601067795206,1645.1146766436802,0.0,0.0,0.33368601067795206,1024,0.0,99,Assisted_Takeoff,
0.341418028074898,36.9110480278178,3100,2018-04-04 05:44:21,1645.1146766436802,0.0,0.0,0.342786010969152,1645.1146766436802,0.0,0.0,0.342786010969152,1024,0.0,99,Assisted_Takeoff,
0.341417980974598,36.9110479750194,3200,2018-04-04 05:44:21,1645.1146766436802,0.0,0.0,0.35065001122080003,1645.1146766436802,0.0,0.0,0.35065001122080003,1024,0.0,99,Assisted_Takeoff,
0.341417865383572,36.9110478508557,3400,2018-04-04 05:44:21,1645.1146766436802,0.0,0.0,0.36951401182444804,1645.1146766436802,0.0,0.0,0.36951401182444804,1024,0.0,99,Assisted_Takeoff,
0.341417722095157,36.9110477066052,3600,2018-04-04 05:44:21,1645.1146766436802,0.0,0.0,0.392119012547808,1645.1146766436802,0.0,0.0,0.392119012547808,1024,0.0,99,Assisted_Takeoff,
0.341417661578107,36.9110476448232,3700,2018-04-04 05:44:21,1645.1146766436802,0.0,0.0,0.40173501285552,1645.1146766436802,0.0,0.0,0.40173501285552,1024,0.0,99,Assisted_Takeoff,
0.341417604584195,36.9110475660805,3800,2018-04-04 05:44:21,1645.1146766436802,0.0,0.0,0.412451013198432,1645.1146766436802,0.0,0.0,0.412451013198432,1024,0.0,99,Assisted_Takeoff,
0.341417552997532,36.9110474843325,3900,2018-04-04 05:44:22,1645.1146766436802,0.0,0.0,0.42300501353616005,1645.1146766436802,0.0,0.0,0.42300501353616005,1024,0.0,99,Assisted_Takeoff,
0.341417503353603,36.911047411657,4000,2018-04-04 05:44:22,1645.1146766436802,0.0,0.0,0.432682013845824,1645.1146766436802,0.0,0.0,0.432682013845824,1024,0.0,99,Assisted_Takeoff,
0.341417457305278,36.9110473465464,4100,2018-04-04 05:44:22,1645.1146766436802,0.0,0.0,0.441474014127168,1645.1146766436802,0.0,0.0,0.441474014127168,1024,0.0,99,Assisted_Takeoff,
0.341417412603676,36.9110472920831,4200,2018-04-04 05:44:22,1645.1146766436802,0.0,0.0,0.449296014377472,1645.1146766436802,0.0,0.0,0.449296014377472,1024,0.0,99,Assisted_Takeoff,
0.341417370038592,36.9110472385095,4300,2018-04-04 05:44:22,1645.1146766436802,0.0,0.0,0.45688501462032005,1645.1146766436802,0.0,0.0,0.45688501462032005,1024,0.0,99,Assisted_Takeoff,
0.341417301051191,36.9110471939943,4400,2018-04-04 05:44:22,1645.1146766436802,0.0,0.0,0.465727014903264,1645.1146766436802,0.0,0.0,0.465727014903264,1024,0.0,99,Assisted_Takeoff,
0.341417230831871,36.9110471469076,4500,2018-04-04 05:44:22,1645.1146766436802,0.0,0.0,0.474882015196224,1645.1146766436802,0.0,0.0,0.474882015196224,1024,0.0,99,Assisted_Takeoff,
0.341417159927791,36.9110471068773,4600,2018-04-04 05:44:22,1645.1146766436802,0.0,0.0,0.48352901547292804,1645.1146766436802,0.0,0.0,0.48352901547292804,1024,0.0,99,Assisted_Takeoff,
0.341417101053027,36.911047062846,4700,2018-04-04 05:44:22,1645.1146766436802,0.0,0.0,0.491588015730816,1645.1146766436802,0.0,0.0,0.491588015730816,1024,0.0,99,Assisted_Takeoff,
0.341417043036453,36.9110470235641,4800,2018-04-04 05:44:22,1645.1146766436802,0.0,0.0,0.499204015974528,1645.1146766436802,0.0,0.0,0.499204015974528,1024,0.0,99,Assisted_Takeoff,
0.34141694064478,36.9110469419874,5000,2018-04-04 05:44:23,1645.1146766436802,0.0,0.0,0.513637016436384,1645.1146766436802,0.0,0.0,0.513637016436384,1024,0.0,99,Assisted_Takeoff,
0.341416894158403,36.911046898468,5100,2018-04-04 05:44:23,1645.1146766436802,0.0,0.0,0.520709016662688,1645.1146766436802,0.0,0.0,0.520709016662688,1082,0.0,99,Assisted_Takeoff,
0.341416846436852,36.9110468560876,5200,2018-04-04 05:44:23,1645.1146766436802,0.0,0.0,0.5277870168891841,1645.1146766436802,0.0,0.0,0.5277870168891841,1111,0.0,99,Assisted_Takeoff,
0.341416802460721,36.9110468121121,5300,2018-04-04 05:44:23,1645.1146766436802,0.0,0.0,0.5347020171104641,1645.1146766436802,0.0,0.0,0.5347020171104641,1141,0.0,99,Assisted_Takeoff,
0.341416755739035,36.9110467679513,5400,2018-04-04 05:44:23,1645.1146766436802,0.0,0.0,0.541844017339008,1645.1146766436802,0.0,0.0,0.541844017339008,1152,0.0,99,Assisted_Takeoff,
0.341416712814065,36.9110467228452,5500,2018-04-04 05:44:23,1645.1146766436802,0.0,0.0,0.548768017560576,1645.1146766436802,0.0,0.0,0.548768017560576,1160,0.0,99,Assisted_Takeoff,
0.341416666336645,36.9110466763762,5600,2018-04-04 05:44:23,1645.1146766436802,0.0,0.0,0.556076017794432,1645.1146766436802,0.0,0.0,0.556076017794432,1159,0.0,99,Assisted_Takeoff,
0.34141662543176,36.9110466303922,5700,2018-04-04 05:44:23,1645.1146766436802,0.0,0.0,0.562914018013248,1645.1146766436802,0.0,0.0,0.562914018013248,1183,0.0,99,Assisted_Takeoff,
0.341416577609245,36.9110465818654,5800,2018-04-04 05:44:23,1645.1146766436802,0.0,0.0,0.57049001825568,1645.1146766436802,0.0,0.0,0.57049001825568,1192,0.0,99,Assisted_Takeoff,
0.341416534623209,36.91104653909,5900,2018-04-04 05:44:24,1645.1146766436802,0.0,0.0,0.577233018471456,1645.1146766436802,0.0,0.0,0.577233018471456,1198,0.0,99,Assisted_Takeoff,
0.34141646976717,36.9110465266249,6000,2018-04-04 05:44:24,1645.1146766436802,0.0,0.0,0.5832670186645441,1645.1146766436802,0.0,0.0,0.5832670186645441,1195,0.0,99,Assisted_Takeoff,
0.341416373303033,36.9110466083557,6100,2018-04-04 05:44:24,1645.1146766436802,0.0,0.35999970196000003,0.584487018703584,1645.1146766436802,0.0,0.35999970196000003,0.584487018703584,1192,0.0,99,Assisted_Takeoff,
0.341416265101072,36.9110468005858,6200,2018-04-04 05:44:24,1645.1146766436802,0.0,0.7199994039200001,0.5787540185201281,1645.1146766436802,0.0,0.7199994039200001,0.584487018703584,1198,0.0,99,P-GPS,Obstacle Avoided. Revise Flight Route
0.341416203580086,36.9110470572167,6300,2018-04-04 05:44:24,1645.1146766436802,0.0,0.7199994039200001,0.565464018094848,1645.1146766436802,0.0,0.7199994039200001,0.584487018703584,1204,0.0,99,P-GPS,
0.341416181320885,36.9110473535622,6400,2018-04-04 05:44:24,1645.1146766436802,0.0,0.7199994039200001,0.5472780175128961,1645.1146766436802,0.0,0.7199994039200001,0.584487018703584,1206,0.0,99,P-GPS,Home Point Recorded. RTH Altitude:  45m.
0.341416194799516,36.9110476418212,6500,2018-04-04 05:44:24,1645.2146766468802,0.1000000032,0.7199994039200001,0.527706016886592,1645.2146766468802,0.1000000032,0.7199994039200001,0.584487018703584,1208,0.0,99,P-GPS,
0.341416273236778,36.9110481955887,6700,2018-04-04 05:44:24,1645.2146766468802,0.1000000032,0.7199994039200001,0.48863201563622405,1645.2146766468802,0.1000000032,0.7199994039200001,0.584487018703584,1211,0.0,99,P-GPS,Obstacle Avoided. Revise Flight Route
0.341416361786677,36.9110484419021,6800,2018-04-04 05:44:24,1645.3146766500802,0.2000000064,0.7199994039200001,0.46746101495875203,1645.3146766500802,0.2000000064,0.7199994039200001,0.584487018703584,1206,0.0,99,P-GPS,
0.341416465782368,36.9110486522192,6900,2018-04-04 05:44:24,1645.4146766532804,0.3000000096,0.7199994039200001,0.447192014310144,1645.4146766532804,0.3000000096,0.7199994039200001,0.584487018703584,1201,0.0,99,P-GPS,
0.341416602296456,36.9110488483753,7000,2018-04-04 05:44:25,1645.4146766532804,0.3000000096,0.7199994039200001,0.42477001359264,1645.4146766532804,0.3000000096,0.7199994039200001,0.584487018703584,1208,0.0,99,P-GPS,
0.341416747137594,36.9110490040643,7100,2018-04-04 05:44:25,1645.5146766564803,0.4000000128,0.35999970196000003,0.40352101291267206,1645.5146766564803,0.4000000128,0.7199994039200001,0.584487018703584,1210,0.0,99,P-GPS,
0.341416901699727,36.9110491512494,7200,2018-04-04 05:44:25,1645.6146766596803,0.500000016,0.35999970196000003,0.3818360122187521,1645.6146766596803,0.500000016,0.7199994039200001,0.584487018703584,1227,0.0,99,P-GPS,
0.341417047808608,36.9110492788561,7300,2018-04-04 05:44:25,1645.6146766596803,0.500000016,0.35999970196000003,0.361959011582688,1645.6146766596803,0.500000016,0.7199994039200001,0.584487018703584,1241,0.0,99,P-GPS,
0.3414171824565,36.9110494301459,7400,2018-04-04 05:44:25,1645.7146766628803,0.6000000192,0.35999970196000003,0.342791010969312,1645.7146766628803,0.6000000192,0.7199994039200001,0.584487018703584,1242,0.0,99,P-GPS,
0.341417306435641,36.9110495639247,7500,2018-04-04 05:44:25,1645.8146766660805,0.7000000224,0.503999582744,0.325667010421344,1645.8146766660805,0.7000000224,0.7199994039200001,0.584487018703584,1240,0.0,99,P-GPS,
0.341417455125605,36.9110496760139,7600,2018-04-04 05:44:25,1645.9146766692802,0.8000000256,0.503999582744,0.306741009815712,1645.9146766692802,0.8000000256,0.7199994039200001,0.584487018703584,1203,0.0,99,P-GPS,
0.341417609818014,36.9110497517246,7700,2018-04-04 05:44:25,1646.0146766724802,0.9000000288000001,0.35999970196000003,0.288176009221632,1646.0146766724802,0.9000000288000001,0.7199994039200001,0.584487018703584,1207,0.0,99,P-GPS,
0.341417778993804,36.9110497995565,7800,2018-04-04 05:44:25,1646.1146766756801,1.000000032,0.35999970196000003,0.268687008597984,1646.1146766756801,1.000000032,0.7199994039200001,0.584487018703584,1207,0.0,99,P-GPS,
0.341417947072023,36.9110498125195,7900,2018-04-04 05:44:25,1646.2146766788803,1.1000000352000001,0.35999970196000003,0.250076008002432,1646.2146766788803,1.1000000352000001,0.7199994039200001,0.584487018703584,1222,0.0,99,P-GPS,
0.341418074460311,36.9110498462611,8000,2018-04-04 05:44:26,1646.2146766788803,1.1000000352000001,0.0,0.23544700753430403,1646.2146766788803,1.1000000352000001,0.7199994039200001,0.584487018703584,1226,0.0,99,P-GPS,
0.341418180730124,36.9110498791418,8100,2018-04-04 05:44:26,1646.3146766820803,1.2000000384,0.0,0.223144007140608,1646.3146766820803,1.2000000384,0.7199994039200001,0.584487018703584,1221,0.0,99,P-GPS,
0.341418302008491,36.9110498872464,8200,2018-04-04 05:44:26,1646.4146766852803,1.3000000416000002,0.0,0.209741006711712,1646.4146766852803,1.3000000416000002,0.7199994039200001,0.584487018703584,1214,0.0,99,P-GPS,
0.341418428510906,36.9110498657441,8300,2018-04-04 05:44:26,1646.5146766884802,1.4000000448,0.0,0.19650000628800002,1646.5146766884802,1.4000000448,0.7199994039200001,0.584487018703584,1207,-0.2,99,P-GPS,
0.341418541570516,36.9110498197173,8400,2018-04-04 05:44:26,1646.6146766916804,1.5000000480000002,0.0,0.18556700593814401,1646.6146766916804,1.5000000480000002,0.7199994039200001,0.584487018703584,1203,-0.9,99,P-GPS,
0.341418649000594,36.9110497605861,8500,2018-04-04 05:44:26,1646.6146766916804,1.5000000480000002,0.0,0.17605700563382398,1646.6146766916804,1.5000000480000002,0.7199994039200001,0.584487018703584,1203,-2.0,99,P-GPS,
0.34141876700986,36.9110497030608,8600,2018-04-04 05:44:26,1646.7146766948802,1.6000000512,0.35999970196000003,0.165961005310752,1646.7146766948802,1.6000000512,0.7199994039200001,0.584487018703584,1192,-3.4,99,P-GPS,
0.341418902129186,36.9110496636301,8700,2018-04-04 05:44:26,1646.8146766980801,1.7000000544000002,0.35999970196000003,0.153988004927616,1646.8146766980801,1.7000000544000002,0.7199994039200001,0.584487018703584,1181,-3.4,99,P-GPS,
0.34141908504253,36.9110495590598,8900,2018-04-04 05:44:26,1646.91467670128,1.8000000576000001,0.0,0.14200900454428803,1646.91467670128,1.8000000576000001,0.7199994039200001,0.584487018703584,1182,-7.2,99,P-GPS,
0.341419155689316,36.9110494952693,9000,2018-04-04 05:44:27,1647.0146767044803,1.9000000608000003,0.0,0.13974600447187202,1647.0146767044803,1.9000000608000003,0.7199994039200001,0.584487018703584,1180,-9.1,99,P-GPS,
0.341419237271917,36.9110494282562,9100,2018-04-04 05:44:27,1647.0146767044803,1.9000000608000003,0.0,0.137599004403168,1647.0146767044803,1.9000000608000003,0.7199994039200001,0.584487018703584,1181,-9.2,99,P-GPS,
0.341419304472101,36.9110493497094,9200,2018-04-04 05:44:27,1647.1146767076802,2.000000064,0.0,0.138459004430688,1647.1146767076802,2.000000064,0.7199994039200001,0.584487018703584,1182,-9.2,99,P-GPS,
0.341419376512835,36.9110492745811,9300,2018-04-04 05:44:27,1647.2146767108802,2.1000000672000003,0.0,0.139628004468096,1647.2146767108802,2.1000000672000003,0.7199994039200001,0.584487018703584,1187,-9.3,99,P-GPS,
0.341419430698495,36.9110491985984,9400,2018-04-04 05:44:27,1647.2146767108802,2.1000000672000003,0.0,0.142918004573376,1647.2146767108802,2.1000000672000003,0.7199994039200001,0.584487018703584,1190,-9.6,99,P-GPS,
0.341419482715882,36.9110491349364,9500,2018-04-04 05:44:27,1647.3146767140802,2.2000000704000002,0.0,0.145809004665888,1647.3146767140802,2.2000000704000002,0.7199994039200001,0.584487018703584,1198,-10.0,99,P-GPS,
0.341419530552238,36.9110490630681,9600,2018-04-04 05:44:27,1647.3146767140802,2.2000000704000002,0.0,0.150229004807328,1647.3146767140802,2.2000000704000002,0.7199994039200001,0.584487018703584,1207,-10.5,99,P-GPS,
0.341419575151248,36.9110489859452,9700,2018-04-04 05:44:27,1647.4146767172804,2.3000000736,0.0,0.155799004985568,1647.4146767172804,2.3000000736,0.7199994039200001,0.584487018703584,1212,-11.0,99,P-GPS,
0.341419607365942,36.9110489086863,9800,2018-04-04 05:44:27,1647.5146767204803,2.4000000768,0.0,0.16230500519376,1647.5146767204803,2.4000000768,0.7199994039200001,0.584487018703584,1213,-11.4,99,P-GPS,
0.341419638117478,36.9110488528462,9900,2018-04-04 05:44:28,1647.5146767204803,2.4000000768,0.0,0.166888005340416,1647.5146767204803,2.4000000768,0.7199994039200001,0.584487018703584,1209,-12.0,99,P-GPS,
0.341419637297557,36.9110488205447,10000,2018-04-04 05:44:28,1647.61467672368,2.50000008,0.0,0.17029900544956802,1647.61467672368,2.50000008,0.7199994039200001,0.584487018703584,1212,-12.0,99,P-GPS,
0.341419617520104,36.911048802872,10100,2018-04-04 05:44:28,1647.7146767268803,2.6000000832000003,0.0,0.17289300553257603,1647.7146767268803,2.6000000832000003,0.7199994039200001,0.584487018703584,1221,-12.6,99,P-GPS,
0.341419598196988,36.9110488085056,10200,2018-04-04 05:44:28,1647.8146767300802,2.7000000864,0.0,0.17305500553776,1647.8146767300802,2.7000000864,0.7199994039200001,0.584487018703584,1235,-13.2,99,P-GPS,
0.341419592561757,36.911048813636,10300,2018-04-04 05:44:28,1647.8146767300802,2.7000000864,0.0,0.17274600552787203,1647.8146767300802,2.7000000864,0.7199994039200001,0.584487018703584,1237,-13.8,99,P-GPS,
0.3414195925642,36.9110488286385,10400,2018-04-04 05:44:28,1647.9146767332802,2.8000000896,0.0,0.17119000547808,1647.9146767332802,2.8000000896,0.7199994039200001,0.584487018703584,1236,-14.7,99,P-GPS,
0.341419587323867,36.9110488424966,10500,2018-04-04 05:44:28,1648.0146767364802,2.9000000928,0.0,0.16996800543897603,1648.0146767364802,2.9000000928,0.7199994039200001,0.584487018703584,1240,-15.6,99,P-GPS,
0.341419557000612,36.9110488494995,10600,2018-04-04 05:44:28,1648.1146767396804,3.0000000960000004,0.0,0.17052000545664,1648.1146767396804,3.0000000960000004,0.7199994039200001,0.584487018703584,1238,-16.6,99,P-GPS,
0.34141950302095,36.9110488497907,10700,2018-04-04 05:44:28,1648.2146767428803,3.1000000992000003,0.0,0.172901005532832,1648.2146767428803,3.1000000992000003,0.7199994039200001,0.584487018703584,1224,-17.5,99,P-GPS,
0.341419450073722,36.9110488292049,10800,2018-04-04 05:44:28,1648.3146767460803,3.2000001024,0.0,0.177488005679616,1648.3146767460803,3.2000001024,0.7199994039200001,0.584487018703584,1212,-18.4,99,P-GPS,
0.341419415778691,36.9110487900075,10900,2018-04-04 05:44:28,1648.41467674928,3.3000001056,0.0,0.18308500585872,1648.41467674928,3.3000001056,0.7199994039200001,0.584487018703584,1207,-19.3,99,P-GPS,
0.341419372083468,36.9110487149766,11000,2018-04-04 05:44:29,1648.5146767524805,3.4000001088000005,0.0,0.192721006167072,1648.5146767524805,3.4000001088000005,0.7199994039200001,0.584487018703584,1213,-20.2,99,P-GPS,
0.341419329822089,36.911048625563,11100,2018-04-04 05:44:29,1648.5146767524805,3.4000001088000005,0.35999970196000003,0.203716006518912,1648.5146767524805,3.4000001088000005,0.7199994039200001,0.584487018703584,1216,-21.0,99,P-GPS,
0.341419321065132,36.9110485592609,11200,2018-04-04 05:44:29,1648.6146767556802,3.500000112,0.35999970196000003,0.210758006744256,1648.6146767556802,3.500000112,0.7199994039200001,0.584487018703584,1235,-21.4,99,P-GPS,
0.341419340702538,36.9110485080447,11300,2018-04-04 05:44:29,1648.7146767588802,3.6000001152000003,0.0,0.214971006879072,1648.7146767588802,3.6000001152000003,0.7199994039200001,0.584487018703584,1248,-21.4,99,P-GPS,
0.341419370742444,36.9110484553619,11400,2018-04-04 05:44:29,1648.8146767620801,3.7000001184,0.0,0.218961007006752,1648.8146767620801,3.7000001184,0.7199994039200001,0.584487018703584,1273,-21.4,99,P-GPS,
0.341419401333579,36.9110484117321,11500,2018-04-04 05:44:29,1648.9146767652803,3.8000001216000006,0.0,0.222127007108064,1648.9146767652803,3.8000001216000006,0.7199994039200001,0.584487018703584,1272,-21.4,99,P-GPS,
0.341419453879395,36.9110483671292,11600,2018-04-04 05:44:29,1649.0146767684803,3.9000001248,0.0,0.224652007188864,1649.0146767684803,3.9000001248,0.7199994039200001,0.584487018703584,1266,-21.4,99,P-GPS,
0.341419500741943,36.9110483423155,11700,2018-04-04 05:44:29,1649.1146767716803,4.000000128,0.0,0.225522007216704,1649.1146767716803,4.000000128,0.7199994039200001,0.584487018703584,1270,-21.4,99,P-GPS,
0.341419543629458,36.9110483263998,11800,2018-04-04 05:44:29,1649.2146767748802,4.100000131200001,0.0,0.225729007223328,1649.2146767748802,4.100000131200001,0.7199994039200001,0.584487018703584,1285,-21.4,99,P-GPS,
0.341419617822181,36.9110483025893,11900,2018-04-04 05:44:29,1649.3146767780804,4.200000134400001,0.0,0.225957007230624,1649.3146767780804,4.200000134400001,0.7199994039200001,0.584487018703584,1298,-21.4,99,P-GPS,
0.341419705510633,36.9110482745488,12000,2018-04-04 05:44:30,1649.4146767812801,4.3000001376,0.0,0.22664200725254402,1649.4146767812801,4.3000001376,0.7199994039200001,0.584487018703584,1320,-21.4,99,P-GPS,
0.341419808173442,36.9110482503304,12100,2018-04-04 05:44:30,1649.5146767844801,4.4000001408000005,0.35999970196000003,0.22708300726665603,1649.5146767844801,4.4000001408000005,0.7199994039200001,0.584487018703584,1326,-21.4,99,P-GPS,
0.341419914387073,36.9110482427815,12200,2018-04-04 05:44:30,1649.7146767908803,4.6000001472,0.35999970196000003,0.22624000723968,1649.7146767908803,4.6000001472,0.7199994039200001,0.584487018703584,1332,-21.4,99,P-GPS,
0.341420016343138,36.9110482511012,12300,2018-04-04 05:44:30,1649.8146767940802,4.7000001504,0.0,0.224284007177088,1649.8146767940802,4.7000001504,0.7199994039200001,0.584487018703584,1330,-21.4,99,P-GPS,
0.341420114035122,36.9110482556213,12400,2018-04-04 05:44:30,1649.9146767972802,4.8000001536,0.0,0.22332400714636802,1649.9146767972802,4.8000001536,0.7199994039200001,0.584487018703584,1326,-21.4,99,P-GPS,
0.341420201058355,36.9110482504749,12500,2018-04-04 05:44:30,1650.1146768036804,5.00000016,0.0,0.223931007165792,1650.1146768036804,5.00000016,0.7199994039200001,0.584487018703584,1325,-21.4,99,P-GPS,
0.341420269756707,36.9110482585623,12600,2018-04-04 05:44:30,1650.31467681008,5.200000166400001,0.0,0.223357007147424,1650.31467681008,5.200000166400001,0.7199994039200001,0.584487018703584,1326,-21.4,99,P-GPS,
0.341420324250143,36.9110482732341,12700,2018-04-04 05:44:30,1650.4146768132803,5.3000001696000005,0.0,0.22217400710956803,1650.4146768132803,5.3000001696000005,0.7199994039200001,0.584487018703584,1326,-21.4,99,P-GPS,
0.341420344546255,36.9110482865365,12800,2018-04-04 05:44:30,1650.6146768196802,5.5000001759999995,0.0,0.22091000706912,1650.6146768196802,5.5000001759999995,0.7199994039200001,0.584487018703584,1327,-21.4,99,P-GPS,
0.341420299084984,36.9110483003356,13000,2018-04-04 05:44:31,1650.9146768292803,5.8000001856,0.0,0.21894200700614402,1650.9146768292803,5.8000001856,0.7199994039200001,0.584487018703584,1337,-21.4,99,P-GPS,
0.341420285873417,36.9110483148564,13100,2018-04-04 05:44:31,1651.0146768324803,5.9000001888,0.0,0.21722500695120003,1651.0146768324803,5.9000001888,0.7199994039200001,0.584487018703584,1346,-21.4,99,P-GPS,
0.341420271157169,36.9110483128276,13200,2018-04-04 05:44:31,1651.2146768388802,6.100000195200001,0.0,0.21734300695497602,1651.2146768388802,6.100000195200001,0.7199994039200001,0.584487018703584,1353,-21.4,99,P-GPS,
0.341420246497642,36.9110483091329,13300,2018-04-04 05:44:31,1651.4146768452802,6.3000002016,0.0,0.217601006963232,1651.4146768452802,6.3000002016,0.7199994039200001,0.584487018703584,1360,-21.4,99,P-GPS,
0.341420194569005,36.911048310469,13400,2018-04-04 05:44:31,1651.5146768484801,6.4000002048,0.0,0.217244006951808,1651.5146768484801,6.4000002048,0.7199994039200001,0.584487018703584,1370,-21.4,99,P-GPS,
0.341420140417543,36.9110483134999,13500,2018-04-04 05:44:31,1651.7146768548803,6.6000002112,0.0,0.21685400693932802,1651.7146768548803,6.6000002112,0.7199994039200001,0.584487018703584,1385,-21.4,99,P-GPS,
0.341420101885301,36.9110483161947,13600,2018-04-04 05:44:31,1651.9146768612804,6.800000217600001,0.0,0.21661800693177602,1651.9146768612804,6.800000217600001,0.7199994039200001,0.584487018703584,1384,-21.4,99,P-GPS,
0.341420083013263,36.9110483062154,13700,2018-04-04 05:44:31,1652.1146768676801,7.000000224,0.0,0.21778900696924802,1652.1146768676801,7.000000224,0.7199994039200001,0.584487018703584,1386,-21.4,99,P-GPS,
0.341420063843221,36.9110482808997,13800,2018-04-04 05:44:31,1652.3146768740803,7.200000230400001,0.0,0.22068500706192,1652.3146768740803,7.200000230400001,0.7199994039200001,0.584487018703584,1390,-21.4,99,P-GPS,
0.341420040914729,36.9110482569564,13900,2018-04-04 05:44:32,1652.5146768804802,7.4000002368,0.0,0.223469007151008,1652.5146768804802,7.4000002368,0.7199994039200001,0.584487018703584,1398,-21.4,99,P-GPS,
0.341419996312462,36.9110482204184,14000,2018-04-04 05:44:32,1652.7146768868804,7.600000243200001,0.0,0.22784500729104,1652.7146768868804,7.600000243200001,0.7199994039200001,0.584487018703584,1401,-21.4,99,P-GPS,
0.341419926936677,36.9110481937729,14100,2018-04-04 05:44:32,1652.91467689328,7.8000002496,0.35999970196000003,0.231500007408,1652.91467689328,7.8000002496,0.7199994039200001,0.584487018703584,1403,-21.4,99,P-GPS,
0.341419836350409,36.9110481877058,14200,2018-04-04 05:44:32,1653.1146768996803,8.000000256,0.35999970196000003,0.23346300747081603,1653.1146768996803,8.000000256,0.7199994039200001,0.584487018703584,1400,-21.4,99,P-GPS,
0.341419754631832,36.9110481988883,14300,2018-04-04 05:44:32,1653.3146769060802,8.200000262400001,0.0,0.233771007480672,1653.3146769060802,8.200000262400001,0.7199994039200001,0.584487018703584,1401,-21.4,99,P-GPS,
0.341419703933485,36.9110482009311,14400,2018-04-04 05:44:32,1653.5146769124804,8.400000268800001,0.0,0.23467500750960002,1653.5146769124804,8.400000268800001,0.7199994039200001,0.584487018703584,1396,-21.4,99,P-GPS,
0.341419677959803,36.9110481841888,14500,2018-04-04 05:44:32,1653.7146769188803,8.6000002752,0.0,0.237118007587776,1653.7146769188803,8.6000002752,0.7199994039200001,0.584487018703584,1397,-21.4,99,P-GPS,
0.341419630626636,36.9110481756035,14600,2018-04-04 05:44:32,1654.0146769284802,8.9000002848,0.0,0.23926600765651201,1654.0146769284802,8.9000002848,0.7199994039200001,0.584487018703584,1397,-21.4,99,P-GPS,
0.341419569656878,36.9110481780713,14700,2018-04-04 05:44:32,1654.2146769348803,9.1000002912,0.0,0.24072800770329603,1654.2146769348803,9.1000002912,0.7199994039200001,0.584487018703584,1401,-21.4,99,P-GPS,
0.341419512289239,36.9110481829619,14800,2018-04-04 05:44:32,1654.4146769412803,9.3000002976,0.0,0.241997007743904,1654.4146769412803,9.3000002976,0.7199994039200001,0.584487018703584,1401,-21.4,99,P-GPS,
0.341419462446639,36.9110481773026,14900,2018-04-04 05:44:32,1654.6146769476804,9.500000304,0.0,0.24427700781686398,1654.6146769476804,9.500000304,0.7199994039200001,0.584487018703584,1398,-21.5,99,P-GPS,
0.341419439173732,36.9110481468746,15000,2018-04-04 05:44:33,1654.8146769540801,9.7000003104,0.0,0.24830500794576002,1654.8146769540801,9.7000003104,0.7199994039200001,0.584487018703584,1399,-21.8,99,P-GPS,
0.341419447554519,36.9110480884543,15100,2018-04-04 05:44:33,1655.0146769604803,9.900000316800002,0.0,0.254183008133856,1655.0146769604803,9.900000316800002,0.7199994039200001,0.584487018703584,1399,-22.3,99,P-GPS,
0.341419467810734,36.9110480323305,15200,2018-04-04 05:44:33,1655.2146769668802,10.100000323200002,0.0,0.259462008302784,1655.2146769668802,10.100000323200002,0.7199994039200001,0.584487018703584,1400,-22.7,99,P-GPS,
0.341419488239564,36.9110479820608,15300,2018-04-04 05:44:33,1655.5146769764804,10.400000332800001,0.0,0.264171008453472,1655.5146769764804,10.400000332800001,0.7199994039200001,0.584487018703584,1400,-23.2,98,P-GPS,
0.341419508545446,36.9110479581732,15400,2018-04-04 05:44:33,1655.71467698288,10.600000339200001,0.0,0.266109008515488,1655.71467698288,10.600000339200001,0.7199994039200001,0.584487018703584,1402,-24.2,98,P-GPS,
0.341419545070631,36.9110479547472,15600,2018-04-04 05:44:33,1656.2146769988803,11.1000003552,0.0,0.265417008493344,1656.2146769988803,11.1000003552,0.7199994039200001,0.584487018703584,1396,-24.2,98,P-GPS,
0.341419574236877,36.9110479520664,15700,2018-04-04 05:44:33,1656.4146770052803,11.3000003616,0.0,0.264902008476864,1656.4146770052803,11.3000003616,0.7199994039200001,0.584487018703584,1389,-24.8,98,P-GPS,
0.341419623098339,36.9110479439158,15800,2018-04-04 05:44:33,1656.6146770116802,11.500000368000002,0.0,0.2645250084648,1656.6146770116802,11.500000368000002,0.7199994039200001,0.584487018703584,1380,-25.2,98,P-GPS,
0.341419667403415,36.911047933124,15900,2018-04-04 05:44:33,1656.8146770180801,11.7000003744,0.0,0.264652008468864,1656.8146770180801,11.7000003744,0.7199994039200001,0.584487018703584,1376,-25.2,98,P-GPS,
0.341419718646476,36.9110479170391,16000,2018-04-04 05:44:34,1657.1146770276803,12.000000384000002,0.0,0.26531500849008,1657.1146770276803,12.000000384000002,0.7199994039200001,0.584487018703584,1368,-25.2,98,P-GPS,
0.341419777419463,36.9110478891121,16100,2018-04-04 05:44:34,1657.3146770340804,12.200000390400001,0.0,0.267278008552896,1657.3146770340804,12.200000390400001,0.7199994039200001,0.584487018703584,1366,-25.2,98,P-GPS,
0.341419831026211,36.9110478687725,16200,2018-04-04 05:44:34,1657.5146770404801,12.400000396800001,0.0,0.26866100859715203,1657.5146770404801,12.400000396800001,0.7199994039200001,0.584487018703584,1377,-25.2,98,P-GPS,
0.341419884424518,36.9110478483516,16300,2018-04-04 05:44:34,1657.7146770468803,12.6000004032,0.0,0.27019800864633603,1657.7146770468803,12.6000004032,0.7199994039200001,0.584487018703584,1371,-25.2,98,P-GPS,
0.341419937053385,36.9110478464716,16400,2018-04-04 05:44:34,1658.0146770564802,12.9000004128,0.0,0.269829008634528,1658.0146770564802,12.9000004128,0.7199994039200001,0.584487018703584,1374,-25.2,98,P-GPS,
0.341419989278399,36.9110478615865,16500,2018-04-04 05:44:34,1658.2146770628804,13.100000419200002,0.0,0.267704008566528,1658.2146770628804,13.100000419200002,0.7199994039200001,0.584487018703584,1380,-24.5,98,P-GPS,
0.341420096133637,36.9110479339612,16700,2018-04-04 05:44:34,1658.6146770756802,13.500000432,0.0,0.259127008292064,1658.6146770756802,13.500000432,0.7199994039200001,0.584487018703584,1380,-24.0,98,P-GPS,
0.341420121350906,36.9110479635349,16800,2018-04-04 05:44:34,1658.8146770820804,13.7000004384,0.0,0.255789008185248,1658.8146770820804,13.7000004384,0.7199994039200001,0.584487018703584,1380,-22.7,98,P-GPS,
0.341420123080314,36.9110479806122,16900,2018-04-04 05:44:35,1659.0146770884803,13.9000004448,0.0,0.25388700812438403,1659.0146770884803,13.9000004448,0.7199994039200001,0.584487018703584,1368,-21.2,98,P-GPS,
0.341420128617838,36.911048018254,17000,2018-04-04 05:44:35,1659.2146770948805,14.100000451200001,0.0,0.24969500799024,1659.2146770948805,14.100000451200001,0.7199994039200001,0.584487018703584,1358,-21.2,98,P-GPS,
0.34142014520354,36.9110480518692,17100,2018-04-04 05:44:35,1659.5146771044801,14.400000460800001,0.0,0.245946007870272,1659.5146771044801,14.400000460800001,0.7199994039200001,0.584487018703584,1355,-20.4,98,P-GPS,
0.341420148549178,36.9110480788113,17200,2018-04-04 05:44:35,1659.7146771108803,14.600000467200001,0.0,0.242949007774368,1659.7146771108803,14.600000467200001,0.7199994039200001,0.584487018703584,1358,-20.4,98,P-GPS,
0.341420144247643,36.9110480885228,17300,2018-04-04 05:44:35,1659.9146771172802,14.8000004736,0.0,0.24187000773984,1659.9146771172802,14.8000004736,0.7199994039200001,0.584487018703584,1355,-20.4,98,P-GPS,
0.341420127247502,36.9110480979774,17400,2018-04-04 05:44:35,1660.1146771236802,15.00000048,0.0,0.24083200770662402,1660.1146771236802,15.00000048,0.7199994039200001,0.584487018703584,1364,-20.4,98,P-GPS,
0.34142011095492,36.9110480975567,17500,2018-04-04 05:44:35,1660.31467713008,15.200000486400002,0.0,0.240904007708928,1660.31467713008,15.200000486400002,0.7199994039200001,0.584487018703584,1380,-20.4,98,P-GPS,
0.341420097067549,36.9110481211156,17600,2018-04-04 05:44:35,1660.5146771364803,15.4000004928,0.0,0.23831800762617603,1660.5146771364803,15.4000004928,0.7199994039200001,0.584487018703584,1397,-20.4,98,P-GPS,
0.341420110410205,36.9110481636629,17700,2018-04-04 05:44:35,1660.7146771428802,15.6000004992,0.0,0.23355500747376,1660.7146771428802,15.6000004992,0.7199994039200001,0.584487018703584,1398,-20.4,98,P-GPS,
0.341420144147494,36.9110482462931,17800,2018-04-04 05:44:35,1661.01467715248,15.900000508800002,0.0,0.224326007178432,1661.01467715248,15.900000508800002,0.7199994039200001,0.584487018703584,1395,-20.4,98,P-GPS,
0.341420188166778,36.9110483206859,17900,2018-04-04 05:44:35,1661.2146771588802,16.1000005152,0.0,0.21609300691497602,1661.2146771588802,16.1000005152,0.7199994039200001,0.584487018703584,1400,-20.4,98,P-GPS,
0.34142021941499,36.9110484105662,18000,2018-04-04 05:44:36,1661.4146771652802,16.3000005216,0.0,0.20620100659843202,1661.4146771652802,16.3000005216,0.7199994039200001,0.584487018703584,1402,-20.4,98,P-GPS,
0.341420247867977,36.9110484764434,18100,2018-04-04 05:44:36,1661.6146771716803,16.500000528,0.0,0.19902800636889603,1661.6146771716803,16.500000528,0.7199994039200001,0.584487018703584,1406,-20.4,98,P-GPS,
0.341420278117953,36.9110485541562,18200,2018-04-04 05:44:36,1661.9146771812802,16.800000537600003,0.0,0.190621006099872,1661.9146771812802,16.800000537600003,0.7199994039200001,0.584487018703584,1410,-20.4,98,P-GPS,
0.34142030440511,36.9110486093775,18300,2018-04-04 05:44:36,1662.1146771876802,17.000000544,0.0,0.184746005911872,1662.1146771876802,17.000000544,0.7199994039200001,0.584487018703584,1406,-20.4,98,P-GPS,
0.341420304961224,36.911048666543,18500,2018-04-04 05:44:36,1662.7146772068804,17.600000563200002,0.0,0.178424005709568,1662.7146772068804,17.600000563200002,0.7199994039200001,0.584487018703584,1415,-20.4,98,P-GPS,
0.341420302390725,36.9110487196017,18600,2018-04-04 05:44:36,1662.9146772132801,17.8000005696,0.0,0.172524005520768,1662.9146772132801,17.8000005696,0.7199994039200001,0.584487018703584,1419,-20.4,98,P-GPS,
0.341420314395614,36.911048785997,18700,2018-04-04 05:44:36,1663.2146772228803,18.1000005792,0.0,0.16532000529024002,1663.2146772228803,18.1000005792,0.7199994039200001,0.584487018703584,1415,-20.4,98,P-GPS,
0.34142034166228,36.9110489755816,18900,2018-04-04 05:44:37,1663.71467723888,18.6000005952,0.0,0.14480000463360002,1663.71467723888,18.6000005952,0.7199994039200001,0.584487018703584,1411,-20.4,98,P-GPS,
0.341420351763518,36.9110490431664,19000,2018-04-04 05:44:37,1663.9146772452802,18.8000006016,0.0,0.137549004401568,1663.9146772452802,18.8000006016,0.7199994039200001,0.584487018703584,1412,-20.4,98,P-GPS,
0.34142035579066,36.9110490798328,19100,2018-04-04 05:44:37,1664.1146772516802,19.000000608,0.0,0.133603004275296,1664.1146772516802,19.000000608,0.7199994039200001,0.584487018703584,1417,-20.4,98,P-GPS,
0.341420345837611,36.9110491057182,19200,2018-04-04 05:44:37,1664.4146772612803,19.300000617600002,0.0,0.130579004178528,1664.4146772612803,19.300000617600002,0.7199994039200001,0.584487018703584,1416,-20.4,98,P-GPS,
0.341420336980504,36.9110491118507,19300,2018-04-04 05:44:37,1664.6146772676802,19.500000624000002,0.0,0.129746004151872,1664.6146772676802,19.500000624000002,0.7199994039200001,0.584487018703584,1411,-20.4,98,P-GPS,
0.341420392976179,36.9110491016713,19500,2018-04-04 05:44:37,1665.1146772836803,20.00000064,0.0,0.13199500422384,1665.1146772836803,20.00000064,0.7199994039200001,0.584487018703584,1405,-20.4,98,P-GPS,
0.341420428733552,36.9110490561476,19600,2018-04-04 05:44:37,1665.4146772932804,20.3000006496,0.0,0.137793004409376,1665.4146772932804,20.3000006496,0.7199994039200001,0.584487018703584,1407,-20.4,98,P-GPS,
0.34142045545469,36.9110489865158,19700,2018-04-04 05:44:37,1665.6146772996801,20.500000656,0.0,0.146011004672352,1665.6146772996801,20.500000656,0.7199994039200001,0.584487018703584,1414,-20.4,98,P-GPS,
0.341420470400549,36.9110489518996,19800,2018-04-04 05:44:37,1665.9146773092803,20.800000665600002,0.0,0.150143004804576,1665.9146773092803,20.800000665600002,0.7199994039200001,0.584487018703584,1414,-20.4,98,P-GPS,
0.341420479953816,36.9110489364185,19900,2018-04-04 05:44:37,1666.1146773156804,21.000000672,0.0,0.152069004866208,1666.1146773156804,21.000000672,0.7199994039200001,0.584487018703584,1414,-20.4,98,P-GPS,
0.341420483409374,36.9110489352323,20000,2018-04-04 05:44:38,1666.3146773220801,21.200000678400002,0.0,0.15229000487328,1666.3146773220801,21.200000678400002,0.7199994039200001,0.584487018703584,1418,-20.4,98,P-GPS,
0.341420501998876,36.911048909652,20100,2018-04-04 05:44:38,1666.6146773316802,21.500000688,0.0,0.155558004977856,1666.6146773316802,21.500000688,0.7199994039200001,0.584487018703584,1423,-20.4,98,P-GPS,
0.341420538826952,36.9110488824316,20200,2018-04-04 05:44:38,1666.9146773412804,21.8000006976,0.0,0.15955000510560002,1666.9146773412804,21.8000006976,0.7199994039200001,0.584487018703584,1423,-20.4,98,P-GPS,
0.341420586636439,36.91104884828,20300,2018-04-04 05:44:38,1667.11467734768,22.000000703999998,0.0,0.164697005270304,1667.11467734768,22.000000703999998,0.7199994039200001,0.584487018703584,1425,-20.4,98,P-GPS,
0.341420662030953,36.9110488596939,20400,2018-04-04 05:44:38,1667.4146773572802,22.300000713600003,0.0,0.16616700531734402,1667.4146773572802,22.300000713600003,0.7199994039200001,0.584487018703584,1425,-20.4,98,P-GPS,
0.341420749188533,36.9110488769147,20500,2018-04-04 05:44:38,1667.6146773636804,22.50000072,0.0,0.16797200537510398,1667.6146773636804,22.50000072,0.7199994039200001,0.584487018703584,1426,-20.4,98,P-GPS,
0.341420863953123,36.9110489040987,20600,2018-04-04 05:44:38,1667.9146773732803,22.8000007296,0.0,0.170748005463936,1667.9146773732803,22.8000007296,0.7199994039200001,0.584487018703584,1435,-20.4,98,P-GPS,
0.341420973278711,36.911048895628,20700,2018-04-04 05:44:38,1668.1146773796802,23.000000736000004,0.0,0.17753400568108801,1668.1146773796802,23.000000736000004,0.7199994039200001,0.584487018703584,1435,-20.4,98,P-GPS,
0.341421071994172,36.9110488786962,20800,2018-04-04 05:44:38,1668.4146773892803,23.300000745600002,0.0,0.18500000592000002,1668.4146773892803,23.300000745600002,0.7199994039200001,0.584487018703584,1448,-20.4,98,P-GPS,
0.341421143120535,36.9110488530668,20900,2018-04-04 05:44:38,1668.7146773988802,23.6000007552,0.0,0.191821006138272,1668.7146773988802,23.6000007552,0.7199994039200001,0.584487018703584,1448,-20.4,98,P-GPS,
0.34142118905324,36.911048863182,21000,2018-04-04 05:44:39,1668.9146774052804,23.8000007616,0.0,0.193902006204864,1668.9146774052804,23.8000007616,0.7199994039200001,0.584487018703584,1454,-20.4,98,P-GPS,
0.341421230254502,36.9110488771042,21100,2018-04-04 05:44:39,1669.2146774148803,24.100000771200005,0.0,0.195442006254144,1669.2146774148803,24.100000771200005,0.7199994039200001,0.584487018703584,1454,-20.4,98,P-GPS,
0.341421262520491,36.9110488834669,21200,2018-04-04 05:44:39,1669.5146774244802,24.400000780800003,0.0,0.197117006307744,1669.5146774244802,24.400000780800003,0.7199994039200001,0.584487018703584,1456,-20.4,98,P-GPS,
0.341421294570712,36.9110488690254,21300,2018-04-04 05:44:39,1669.81467743408,24.7000007904,0.0,0.200611006419552,1669.81467743408,24.7000007904,0.7199994039200001,0.584487018703584,1455,-20.4,98,P-GPS,
0.341421316783502,36.911048881043,21400,2018-04-04 05:44:39,1670.0146774404802,24.9000007968,0.0,0.201164006437248,1670.0146774404802,24.9000007968,0.7199994039200001,0.584487018703584,1456,-20.4,98,P-GPS,
0.341421344011086,36.9110489106145,21500,2018-04-04 05:44:39,1670.3146774500804,25.2000008064,0.0,0.200653006420896,1670.3146774500804,25.2000008064,0.7199994039200001,0.584487018703584,1458,-20.4,98,P-GPS,
0.341421366494198,36.9110489564711,21600,2018-04-04 05:44:39,1670.6146774596803,25.500000816000004,0.0,0.19855300635369602,1670.6146774596803,25.500000816000004,0.7199994039200001,0.584487018703584,1451,-20.4,98,P-GPS,
0.341421387028062,36.9110489940187,21700,2018-04-04 05:44:39,1670.8146774660802,25.7000008224,0.0,0.197104006307328,1670.8146774660802,25.7000008224,0.7199994039200001,0.584487018703584,1441,-20.4,98,P-GPS,
0.341421408421745,36.9110490196439,21800,2018-04-04 05:44:39,1671.1146774756803,26.000000832,0.0,0.196758006296256,1671.1146774756803,26.000000832,0.7199994039200001,0.584487018703584,1429,-20.4,98,P-GPS,
0.341421431981259,36.9110490060781,21900,2018-04-04 05:44:39,1671.4146774852802,26.3000008416,0.0,0.199683006389856,1671.4146774852802,26.3000008416,0.7199994039200001,0.584487018703584,1438,-20.4,98,P-GPS,
0.341421471892793,36.9110489912212,22000,2018-04-04 05:44:40,1671.71467749488,26.6000008512,0.0,0.20401800652857602,1671.71467749488,26.6000008512,0.7199994039200001,0.584487018703584,1443,-20.4,98,P-GPS,
0.34142151119936,36.9110489619795,22100,2018-04-04 05:44:40,1671.9146775012803,26.8000008576,0.0,0.209423006701536,1671.9146775012803,26.8000008576,0.7199994039200001,0.584487018703584,1448,-20.4,98,P-GPS,
0.341421544315397,36.9110489071907,22200,2018-04-04 05:44:40,1672.2146775108804,27.100000867200002,0.0,0.216303006921696,1672.2146775108804,27.100000867200002,0.7199994039200001,0.584487018703584,1437,-20.4,98,P-GPS,
0.34142157087369,36.9110488356682,22300,2018-04-04 05:44:40,1672.51467752048,27.4000008768,0.0,0.22399600716787202,1672.51467752048,27.4000008768,0.7199994039200001,0.584487018703584,1442,-20.4,98,P-GPS,
0.341421613019449,36.9110487927761,22400,2018-04-04 05:44:40,1672.7146775268802,27.600000883200003,0.0,0.23068300738185601,1672.7146775268802,27.600000883200003,0.7199994039200001,0.584487018703584,1451,-20.4,98,P-GPS,
0.341421670978214,36.9110487602454,22500,2018-04-04 05:44:40,1673.0146775364803,27.9000008928,0.0,0.23780200760966402,1673.0146775364803,27.9000008928,0.7199994039200001,0.584487018703584,1454,-20.4,98,P-GPS,
0.341421736453876,36.9110487528207,22600,2018-04-04 05:44:40,1673.31467754608,28.200000902400003,0.0,0.243603007795296,1673.31467754608,28.200000902400003,0.7199994039200001,0.584487018703584,1458,-20.4,98,P-GPS,
0.341421812078001,36.9110487440834,22700,2018-04-04 05:44:40,1673.5146775524802,28.4000009088,0.0,0.25041500801328004,1673.5146775524802,28.4000009088,0.7199994039200001,0.584487018703584,1456,-20.4,98,P-GPS,
0.341421888165418,36.9110487604093,22800,2018-04-04 05:44:40,1673.8146775620803,28.7000009184,0.0,0.25553200817702404,1673.8146775620803,28.7000009184,0.7199994039200001,0.584487018703584,1456,-20.4,98,P-GPS,
0.341421957393015,36.9110487588365,22900,2018-04-04 05:44:40,1674.1146775716802,29.000000928000002,0.0,0.26151500836848,1674.1146775716802,29.000000928000002,0.7199994039200001,0.584487018703584,1455,-20.4,98,P-GPS,
0.341422038776946,36.9110487684838,23000,2018-04-04 05:44:41,1674.41467758128,29.300000937600004,0.0,0.267866008571712,1674.41467758128,29.300000937600004,0.7199994039200001,0.584487018703584,1455,-20.4,98,P-GPS,
0.341422117171869,36.9110487630087,23100,2018-04-04 05:44:41,1674.7146775908802,29.6000009472,0.0,0.27512400880396803,1674.7146775908802,29.6000009472,0.7199994039200001,0.584487018703584,1458,-20.4,98,P-GPS,
0.341422190648076,36.9110487584061,23200,2018-04-04 05:44:41,1674.9146775972804,29.8000009536,0.0,0.281967009022944,1674.9146775972804,29.8000009536,0.7199994039200001,0.584487018703584,1455,-20.4,98,P-GPS,
0.341422235592316,36.911048722988,23300,2018-04-04 05:44:41,1675.21467760688,30.1000009632,0.0,0.28832800922649604,1675.21467760688,30.1000009632,0.7199994039200001,0.584487018703584,1459,-20.4,98,P-GPS,
0.341422264055075,36.911048715938,23500,2018-04-04 05:44:41,1675.8146776260803,30.700000982400002,0.0,0.291342009322944,1675.8146776260803,30.700000982400002,0.7199994039200001,0.584487018703584,1463,-20.4,98,P-GPS,
0.341422264088458,36.9110487532939,23600,2018-04-04 05:44:41,1676.1146776356802,31.000000992,0.0,0.288911009245152,1676.1146776356802,31.000000992,0.7199994039200001,0.584487018703584,1471,-20.4,98,P-GPS,
0.341422260621501,36.9110487817659,23700,2018-04-04 05:44:41,1676.3146776420801,31.2000009984,0.0,0.286766009176512,1676.3146776420801,31.2000009984,0.7199994039200001,0.584487018703584,1480,-20.4,98,P-GPS,
0.341422251327971,36.9110488176005,23800,2018-04-04 05:44:41,1676.6146776516803,31.500001007999998,0.0,0.283643009076576,1676.6146776516803,31.500001007999998,0.7199994039200001,0.584487018703584,1475,-20.4,98,P-GPS,
0.341422231080712,36.9110488315806,23900,2018-04-04 05:44:42,1676.9146776612804,31.800001017600003,0.0,0.28090700898902404,1676.9146776612804,31.800001017600003,0.7199994039200001,0.584487018703584,1475,-20.4,98,P-GPS,
0.341422212840511,36.9110488366906,24000,2018-04-04 05:44:42,1677.2146776708803,32.1000010272,0.0,0.278914008925248,1677.2146776708803,32.1000010272,0.7199994039200001,0.584487018703584,1506,-20.4,98,P-GPS,
0.341422190618764,36.9110488168286,24100,2018-04-04 05:44:42,1677.4146776772802,32.3000010336,0.0,0.278157008901024,1677.4146776772802,32.3000010336,0.7199994039200001,0.584487018703584,1508,-20.4,98,P-GPS,
0.341422194262408,36.9110488234675,24200,2018-04-04 05:44:42,1677.7146776868803,32.6000010432,0.0,0.27806200889798405,1677.7146776868803,32.6000010432,0.7199994039200001,0.584487018703584,1507,-20.4,98,P-GPS,
0.34142220051319,36.9110488253003,24300,2018-04-04 05:44:42,1678.0146776964802,32.9000010528,0.0,0.278514008912448,1678.0146776964802,32.9000010528,0.7199994039200001,0.584487018703584,1507,-20.4,98,P-GPS,
0.341422223419697,36.9110488596618,24400,2018-04-04 05:44:42,1678.4146777092803,33.3000010656,0.0,0.27844300891017604,1678.4146777092803,33.3000010656,0.7199994039200001,0.584487018703584,1510,-20.4,98,P-GPS,
0.34142222714232,36.9110488788986,24500,2018-04-04 05:44:42,1678.7146777188805,33.600001075200005,0.0,0.277593008882976,1678.7146777188805,33.600001075200005,0.7199994039200001,0.584487018703584,1510,-20.4,98,P-GPS,
0.34142223833543,36.9110489037283,24600,2018-04-04 05:44:42,1679.0146777284801,33.9000010848,0.0,0.27711300886761603,1679.0146777284801,33.9000010848,0.7199994039200001,0.584487018703584,1512,-20.4,98,P-GPS,
0.34142222062773,36.9110489133264,24700,2018-04-04 05:44:42,1679.3146777380803,34.2000010944,0.0,0.27488100879619204,1679.3146777380803,34.2000010944,0.7199994039200001,0.584487018703584,1512,-20.4,98,P-GPS,
0.341422188944724,36.9110489803095,24800,2018-04-04 05:44:42,1679.6146777476804,34.500001104,0.0,0.26789600857267204,1679.6146777476804,34.500001104,0.7199994039200001,0.584487018703584,1516,-20.4,98,P-GPS,
0.341422139738032,36.911049045359,24900,2018-04-04 05:44:42,1679.9146777572803,34.800001113600004,0.0,0.259431008301792,1679.9146777572803,34.800001113600004,0.7199994039200001,0.584487018703584,1517,-20.4,98,P-GPS,
0.341422088656186,36.9110491281851,25000,2018-04-04 05:44:43,1680.2146777668802,35.1000011232,0.0,0.2498250079944,1680.2146777668802,35.1000011232,0.7199994039200001,0.584487018703584,1518,-20.4,98,P-GPS,
0.341422036588318,36.91104918281,25100,2018-04-04 05:44:43,1680.61467777968,35.500001136,0.0,0.24177000773664,1680.61467777968,35.500001136,0.7199994039200001,0.584487018703584,1518,-20.4,98,P-GPS,
0.341422000011837,36.9110492578816,25200,2018-04-04 05:44:43,1680.9146777892802,35.8000011456,0.0,0.234149007492768,1680.9146777892802,35.8000011456,0.7199994039200001,0.584487018703584,1519,-20.4,98,P-GPS,
0.341421968244966,36.9110493026826,25300,2018-04-04 05:44:43,1681.2146777988803,36.1000011552,0.0,0.228681007317792,1681.2146777988803,36.1000011552,0.7199994039200001,0.584487018703584,1520,-20.4,98,P-GPS,
0.341421935502657,36.9110493625482,25400,2018-04-04 05:44:43,1681.5146778084802,36.4000011648,0.0,0.222391007116512,1681.5146778084802,36.4000011648,0.7199994039200001,0.584487018703584,1533,-20.4,98,P-GPS,
0.341421895543084,36.911049396763,25500,2018-04-04 05:44:43,1681.9146778212803,36.8000011776,0.0,0.216714006934848,1681.9146778212803,36.8000011776,0.7199994039200001,0.584487018703584,1538,-20.4,98,P-GPS,
0.34142185088545,36.9110494485947,25600,2018-04-04 05:44:43,1682.2146778308804,37.10000118720001,0.0,0.20972300671113603,1682.2146778308804,37.10000118720001,0.7199994039200001,0.584487018703584,1531,-20.4,98,P-GPS,
0.341421782622706,36.9110495509242,25800,2018-04-04 05:44:43,1682.9146778532802,37.800001209600005,0.0,0.198083006338656,1682.9146778532802,37.800001209600005,0.7199994039200001,0.584487018703584,1528,-20.4,98,P-GPS,
0.341421780191439,36.9110495898314,25900,2018-04-04 05:44:43,1683.3146778660803,38.2000012224,0.0,0.19614200627654402,1683.3146778660803,38.2000012224,0.7199994039200001,0.584487018703584,1534,-20.4,98,P-GPS,
0.341421792604253,36.911049647377,26000,2018-04-04 05:44:44,1683.7146778788804,38.600001235200004,0.0,0.19508000624256,1683.7146778788804,38.600001235200004,0.7199994039200001,0.584487018703584,1536,-20.4,98,P-GPS,
0.341421792948669,36.9110496720858,26100,2018-04-04 05:44:44,1684.1146778916805,39.000001248000004,0.0,0.19416800621337602,1684.1146778916805,39.000001248000004,0.7199994039200001,0.584487018703584,1522,-20.4,98,P-GPS,
0.341421793980288,36.9110497289698,26200,2018-04-04 05:44:44,1684.4146779012801,39.3000012576,0.0,0.19222700615126403,1684.4146779012801,39.3000012576,0.7199994039200001,0.584487018703584,1522,-20.4,98,P-GPS,
0.341421781959115,36.9110497546742,26300,2018-04-04 05:44:44,1684.7146779108803,39.60000126720001,0.0,0.19008500608272,1684.7146779108803,39.60000126720001,0.7199994039200001,0.584487018703584,1519,-20.4,98,P-GPS,
0.341421761826662,36.9110498269076,26500,2018-04-04 05:44:44,1685.4146779332802,40.3000012896,0.0,0.185689005942048,1685.4146779332802,40.3000012896,0.7199994039200001,0.584487018703584,1527,-20.4,98,P-GPS,
0.341421761041752,36.9110498553046,26600,2018-04-04 05:44:44,1685.8146779460803,40.700001302400004,0.0,0.18480400591372803,1685.8146779460803,40.700001302400004,0.7199994039200001,0.584487018703584,1541,-20.4,98,P-GPS,
0.341421756519563,36.9110498419262,26700,2018-04-04 05:44:44,1686.1146779556802,41.000001312,0.0,0.184688005910016,1686.1146779556802,41.000001312,0.7199994039200001,0.584487018703584,1541,-20.4,98,P-GPS,
0.341421742397696,36.9110498441744,26800,2018-04-04 05:44:44,1686.5146779684803,41.4000013248,0.0,0.18310600585939202,1686.5146779684803,41.4000013248,0.7199994039200001,0.584487018703584,1548,-20.4,98,P-GPS,
0.341421713476531,36.9110498250822,26900,2018-04-04 05:44:44,1686.8146779780802,41.7000013344,0.0,0.180559005777888,1686.8146779780802,41.7000013344,0.7199994039200001,0.584487018703584,1564,-20.4,98,P-GPS,
0.341421725917843,36.9110498429839,27000,2018-04-04 05:44:45,1687.2146779908803,42.100001347200006,0.0,0.18136800580377602,1687.2146779908803,42.100001347200006,0.7199994039200001,0.584487018703584,1574,-20.4,98,P-GPS,
0.341421752893018,36.9110498384852,27100,2018-04-04 05:44:45,1687.5146780004802,42.400001356800004,0.0,0.184396005900672,1687.5146780004802,42.400001356800004,0.7199994039200001,0.584487018703584,1573,-20.4,98,P-GPS,
0.341421811786509,36.9110498423458,27200,2018-04-04 05:44:45,1687.9146780132803,42.800001369600004,0.35999970196000003,0.190628006100096,1687.9146780132803,42.800001369600004,0.7199994039200001,0.584487018703584,1574,-20.4,98,P-GPS,
0.341421883117242,36.9110497957869,27300,2018-04-04 05:44:45,1688.3146780260804,43.2000013824,0.35999970196000003,0.199613006387616,1688.3146780260804,43.2000013824,0.7199994039200001,0.584487018703584,1584,-20.4,98,P-GPS,
0.341421981510271,36.9110497738521,27400,2018-04-04 05:44:45,1688.7146780388803,43.6000013952,0.35999970196000003,0.210813006746016,1688.7146780388803,43.6000013952,0.7199994039200001,0.584487018703584,1603,-20.4,98,P-GPS,
0.341422059168322,36.911049726411,27500,2018-04-04 05:44:45,1689.1146780516804,44.000001407999996,0.35999970196000003,0.220537007057184,1689.1146780516804,44.000001407999996,0.7199994039200001,0.584487018703584,1607,-20.4,98,P-GPS,
0.341422182659744,36.9110497130165,27700,2018-04-04 05:44:45,1689.9146780772803,44.8000014336,0.35999970196000003,0.234172007493504,1689.9146780772803,44.8000014336,0.7199994039200001,0.584487018703584,1608,-20.4,98,P-GPS,
0.341422256736033,36.9110497380764,27800,2018-04-04 05:44:45,1690.4146780932801,45.3000014496,0.35999970196000003,0.24144300772617602,1690.4146780932801,45.3000014496,0.7199994039200001,0.584487018703584,1608,-20.4,98,P-GPS,
0.341422322724655,36.9110497070253,27900,2018-04-04 05:44:45,1690.8146781060802,45.7000014624,0.35999970196000003,0.24940400798092802,1690.8146781060802,45.7000014624,0.7199994039200001,0.584487018703584,1614,-20.4,98,P-GPS,
0.341422374133818,36.9110496844129,28000,2018-04-04 05:44:46,1691.21467811888,46.1000014752,0.35999970196000003,0.255568008178176,1691.21467811888,46.1000014752,0.7199994039200001,0.584487018703584,1612,-20.4,98,P-GPS,
0.34142238721918,36.9110496367533,28100,2018-04-04 05:44:46,1691.6146781316802,46.500001487999995,0.35999970196000003,0.258356008267392,1691.6146781316802,46.500001487999995,0.7199994039200001,0.584487018703584,1627,-20.4,98,P-GPS,
0.341422391930268,36.9110496175829,28200,2018-04-04 05:44:46,1692.1146781476805,47.000001504000004,0.35999970196000003,0.25944200830214403,1692.1146781476805,47.000001504000004,0.7199994039200001,0.584487018703584,1630,-20.4,98,P-GPS,
0.341422369690608,36.9110495689052,28300,2018-04-04 05:44:46,1692.5146781604803,47.4000015168,0.35999970196000003,0.258631008276192,1692.5146781604803,47.4000015168,0.7199994039200001,0.584487018703584,1653,-20.4,98,P-GPS,
0.341422345284304,36.9110495642705,28400,2018-04-04 05:44:46,1692.9146781732804,47.8000015296,0.35999970196000003,0.25619800819833605,1692.9146781732804,47.8000015296,0.7199994039200001,0.584487018703584,1666,-20.4,98,P-GPS,
0.341422310604146,36.9110495334582,28500,2018-04-04 05:44:46,1693.3146781860803,48.20000154240001,0.35999970196000003,0.253603008115296,1693.3146781860803,48.20000154240001,0.7199994039200001,0.584487018703584,1663,-20.4,98,P-GPS,
0.341422291170296,36.9110495324132,28600,2018-04-04 05:44:46,1693.8146782020804,48.7000015584,0.0,0.251594008051008,1693.8146782020804,48.7000015584,0.7199994039200001,0.584487018703584,1646,-20.4,98,P-GPS,
0.341422270353896,36.91104951781,28700,2018-04-04 05:44:46,1694.3146782180802,49.200001574400005,0.0,0.24993800799801602,1694.3146782180802,49.200001574400005,0.7199994039200001,0.584487018703584,1631,-20.4,98,P-GPS,
0.341422249207737,36.9110495407651,28900,2018-04-04 05:44:46,1695.2146782468803,50.1000016032,0.0,0.246878007900096,1695.2146782468803,50.1000016032,0.7199994039200001,0.584487018703584,1625,-20.4,98,P-GPS,
0.341422236863317,36.9110495950453,29000,2018-04-04 05:44:47,1695.7146782628802,50.6000016192,0.0,0.243672007797504,1695.7146782628802,50.6000016192,0.7199994039200001,0.584487018703584,1615,-20.4,98,P-GPS,
0.3414222044068,36.9110496311958,29100,2018-04-04 05:44:47,1696.1146782756803,51.00000163200001,0.0,0.239024007648768,1696.1146782756803,51.00000163200001,0.7199994039200001,0.584487018703584,1614,-20.4,98,P-GPS,
0.34142219638997,36.9110496965868,29200,2018-04-04 05:44:47,1696.61467829168,51.500001648,0.0,0.236127007556064,1696.61467829168,51.500001648,0.7199994039200001,0.584487018703584,1607,-20.4,98,P-GPS,
0.341422170624729,36.9110497141824,29300,2018-04-04 05:44:47,1697.0146783044802,51.90000166080001,0.0,0.232846007451072,1697.0146783044802,51.90000166080001,0.7199994039200001,0.584487018703584,1594,-20.4,98,P-GPS,
0.341422151779561,36.9110497658439,29400,2018-04-04 05:44:47,1697.41467831728,52.3000016736,0.0,0.229371007339872,1697.41467831728,52.3000016736,0.7199994039200001,0.584487018703584,1597,-20.4,98,P-GPS,
0.341422111010651,36.9110497925686,29500,2018-04-04 05:44:47,1697.8146783300801,52.70000168640001,0.0,0.224261007176352,1697.8146783300801,52.70000168640001,0.7199994039200001,0.584487018703584,1603,-20.4,98,P-GPS,
0.341422111085559,36.9110498360356,29600,2018-04-04 05:44:47,1698.3146783460804,53.2000017024,0.0,0.22319000714208,1698.3146783460804,53.2000017024,0.7199994039200001,0.584487018703584,1592,-20.4,98,P-GPS,
0.341422110678448,36.9110498364628,29700,2018-04-04 05:44:47,1698.7146783588803,53.6000017152,0.0,0.223136007140352,1698.7146783588803,53.6000017152,0.7199994039200001,0.584487018703584,1594,-20.4,98,P-GPS,
0.341422128862468,36.9110498782853,29800,2018-04-04 05:44:47,1699.1146783716804,54.000001728,0.0,0.224177007173664,1699.1146783716804,54.000001728,0.7199994039200001,0.584487018703584,1604,-20.4,98,P-GPS,
0.341422127946469,36.9110498986356,29900,2018-04-04 05:44:47,1699.5146783844802,54.40000174080001,0.0,0.22365500715696002,1699.5146783844802,54.40000174080001,0.7199994039200001,0.584487018703584,1611,-20.4,98,P-GPS,
0.34142211718164,36.9110499585216,30000,2018-04-04 05:44:48,1699.9146783972803,54.8000017536,0.0,0.22136000708352,1699.9146783972803,54.8000017536,0.7199994039200001,0.584487018703584,1608,-20.4,98,P-GPS,
0.341422072862722,36.9110499946645,30100,2018-04-04 05:44:48,1700.3146784100802,55.20000176640001,0.0,0.215898006908736,1700.3146784100802,55.20000176640001,0.7199994039200001,0.584487018703584,1606,-20.4,98,P-GPS,
0.341422034066672,36.911050086215,30200,2018-04-04 05:44:48,1700.7146784228803,55.6000017792,0.0,0.210429006733728,1700.7146784228803,55.6000017792,0.7199994039200001,0.584487018703584,1596,-20.4,98,P-GPS,
0.341421983914668,36.9110501320202,30300,2018-04-04 05:44:48,1701.2146784388801,56.10000179520001,0.0,0.2044500065424,1701.2146784388801,56.10000179520001,0.7199994039200001,0.584487018703584,1595,-20.4,98,P-GPS,
0.341421971374835,36.9110501963096,30400,2018-04-04 05:44:48,1701.6146784516802,56.500001808,0.35999970196000003,0.20267000648544,1701.6146784516802,56.500001808,0.7199994039200001,0.584487018703584,1606,-20.4,98,P-GPS,
