latitude,longitude,time_millisecond,datetime_utc,altitude_m,ascent_m,speed_kph,distance_m,max_altitude_m,max_ascent_m,max_speed_kph,max_distance_m,rc_throttle,gimbal_pitch_degrees,battery_percent,flycState,message
0.376748526489685,36.9245188346447,0,2018-04-02 06:10:45,1626.9415803621375,0.0,0.0,0.0,1626.9415803621375,0.0,0.0,0.0,364,0.0,98,Motors_Started,
0.376748459936401,36.9245188030776,100,2018-04-02 06:10:45,1626.9415803621375,0.0,0.0,0.00819143026212576,1626.9415803621375,0.0,0.0,0.00819143026212576,364,0.0,98,Motors_Started,
0.376748397106146,36.9245187671917,200,2018-04-02 06:10:45,1626.9415803621375,0.0,0.0,0.0162261005192352,1626.9415803621375,0.0,0.0,0.0162261005192352,364,0.0,98,Motors_Started,
0.376748312857781,36.9245187566645,300,2018-04-02 06:10:45,1626.9415803621375,0.0,0.0,0.025290300809289602,1626.9415803621375,0.0,0.0,0.025290300809289602,364,0.0,98,Motors_Started,
0.376748230376279,36.9245187427253,400,2018-04-02 06:10:45,1626.9415803621375,0.0,0.0,0.034479601103347204,1626.9415803621375,0.0,0.0,0.034479601103347204,364,0.0,98,Motors_Started,
0.376748159628122,36.9245187185878,500,2018-04-02 06:10:46,1626.9415803621375,0.0,0.0,0.0427899013692768,1626.9415803621375,0.0,0.0,0.0427899013692768,364,0.0,98,Motors_Started,
0.37674809344653,36.92451868884,600,2018-04-02 06:10:46,1626.9415803621375,0.0,0.0,0.050813301626025605,1626.9415803621375,0.0,0.0,0.050813301626025605,364,0.0,98,Motors_Started,
0.376748071854177,36.9245186800467,700,2018-04-02 06:10:46,1626.9415803621375,0.0,0.0,0.0534013017088416,1626.9415803621375,0.0,0.0,0.0534013017088416,364,0.0,98,Motors_Started,
0.376748046324653,36.9245186693212,800,2018-04-02 06:10:46,1626.9415803621375,0.0,0.0,0.0564736018071552,1626.9415803621375,0.0,0.0,0.0564736018071552,489,0.0,98,Motors_Started,
0.376748028625095,36.9245186764411,900,2018-04-02 06:10:46,1626.9415803621375,0.0,0.0,0.058093501858992,1626.9415803621375,0.0,0.0,0.058093501858992,961,0.0,98,Motors_Started,Setting new Return-To-Home altitude to 30m (98 ft). Setting new Maximum Flight Altitude to 150m (492 ft)
0.376748000770153,36.9245186776169,1000,2018-04-02 06:10:46,1626.9415803621375,0.0,0.0,0.0610153019524896,1626.9415803621375,0.0,0.0,0.0610153019524896,1024,0.0,98,Motors_Started,
0.376747942560201,36.924518661931,1100,2018-04-02 06:10:46,1626.9415803621375,0.0,0.0,0.06771730216695361,1626.9415803621375,0.0,0.0,0.06771730216695361,1024,0.0,98,Motors_Started,
0.376747877373995,36.9245186391743,1200,2018-04-02 06:10:46,1626.9415803621375,0.0,0.0,0.0753874024123968,1626.9415803621375,0.0,0.0,0.0753874024123968,1024,0.0,98,Motors_Started,
0.376747848568857,36.9245185970485,1300,2018-04-02 06:10:46,1626.9415803621375,0.0,0.0,0.0798849025563168,1626.9415803621375,0.0,0.0,0.0798849025563168,1024,0.0,98,Motors_Started,
0.376747819990886,36.9245185586348,1400,2018-04-02 06:10:47,1626.9415803621375,0.0,0.0,0.0843496026991872,1626.9415803621375,0.0,0.0,0.0843496026991872,1024,0.0,98,Motors_Started,
0.376747792311409,36.9245185348319,1500,2018-04-02 06:10:47,1626.9415803621375,0.0,0.0,0.08819010282208321,1626.9415803621375,0.0,0.0,0.08819010282208321,1024,0.0,98,Motors_Started,
0.376747759131863,36.9245185158083,1600,2018-04-02 06:10:47,1626.9415803621375,0.0,0.0,0.09240750295704,1626.9415803621375,0.0,0.0,0.09240750295704,1024,0.0,98,Assisted_Takeoff,
0.376747721345448,36.9245184816083,1700,2018-04-02 06:10:47,1626.9415803621375,0.0,0.0,0.0977657031285024,1626.9415803621375,0.0,0.0,0.0977657031285024,1024,0.0,98,Assisted_Takeoff,
0.376747682598659,36.9245184449882,1800,2018-04-02 06:10:47,1626.9415803621375,0.0,0.0,0.103367003307744,1626.9415803621375,0.0,0.0,0.103367003307744,1024,0.0,98,Assisted_Takeoff,
0.376747672953792,36.9245184229285,1900,2018-04-02 06:10:47,1626.9415803621375,0.0,0.0,0.10538400337228801,1626.9415803621375,0.0,0.0,0.10538400337228801,1024,0.0,98,Assisted_Takeoff,
0.376747658982964,36.9245184045203,2000,2018-04-02 06:10:47,1626.9415803621375,0.0,0.0,0.107679003445728,1626.9415803621375,0.0,0.0,0.107679003445728,1024,0.0,98,Assisted_Takeoff,
0.376747636991642,36.924518402223,2100,2018-04-02 06:10:47,1626.9415803621375,0.0,0.0,0.109987003519584,1626.9415803621375,0.0,0.0,0.109987003519584,1024,0.0,98,Assisted_Takeoff,
0.376747608851315,36.9245183965382,2200,2018-04-02 06:10:47,1626.9415803621375,0.0,0.0,0.11308000361856,1626.9415803621375,0.0,0.0,0.11308000361856,1024,0.0,98,Assisted_Takeoff,
0.376747537129756,36.9245183726676,2300,2018-04-02 06:10:47,1626.9415803621375,0.0,0.0,0.121426003885632,1626.9415803621375,0.0,0.0,0.121426003885632,1024,0.0,98,Assisted_Takeoff,
0.376747467940428,36.9245183455509,2400,2018-04-02 06:10:47,1626.9415803621375,0.0,0.0,0.1296750041496,1626.9415803621375,0.0,0.0,0.1296750041496,1024,0.0,98,Assisted_Takeoff,
0.376747391468698,36.9245182672233,2500,2018-04-02 06:10:48,1626.9415803621375,0.0,0.0,0.14111500451568001,1626.9415803621375,0.0,0.0,0.14111500451568001,1024,0.0,98,Assisted_Takeoff,
0.37674732621939,36.9245181954086,2600,2018-04-02 06:10:48,1626.9415803621375,0.0,0.0,0.15122600483923201,1626.9415803621375,0.0,0.0,0.15122600483923201,1024,0.0,98,Assisted_Takeoff,
0.37674725786586,36.9245181427422,2700,2018-04-02 06:10:48,1626.9415803621375,0.0,0.0,0.160696005142272,1626.9415803621375,0.0,0.0,0.160696005142272,1024,0.0,98,Assisted_Takeoff,
0.3767471968387,36.9245181032956,2800,2018-04-02 06:10:48,1626.9415803621375,0.0,0.0,0.168756005400192,1626.9415803621375,0.0,0.0,0.168756005400192,1024,0.0,98,Assisted_Takeoff,
0.376747167124482,36.9245180860134,2900,2018-04-02 06:10:48,1626.9415803621375,0.0,0.0,0.172577005522464,1626.9415803621375,0.0,0.0,0.172577005522464,1024,0.0,98,Assisted_Takeoff,
0.376747139405516,36.9245180689931,3000,2018-04-02 06:10:48,1626.9415803621375,0.0,0.0,0.176191005638112,1626.9415803621375,0.0,0.0,0.176191005638112,1024,0.0,98,Assisted_Takeoff,
0.376747108704054,36.9245180394897,3100,2018-04-02 06:10:48,1626.9415803621375,0.0,0.0,0.180769005784608,1626.9415803621375,0.0,0.0,0.180769005784608,1024,0.0,98,Assisted_Takeoff,
0.376747072268026,36.924518006651,3200,2018-04-02 06:10:48,1626.9415803621375,0.0,0.0,0.186094005955008,1626.9415803621375,0.0,0.0,0.186094005955008,1024,0.0,98,Assisted_Takeoff,
0.376747032983036,36.9245179928175,3300,2018-04-02 06:10:48,1626.9415803621375,0.0,0.0,0.19065300610089603,1626.9415803621375,0.0,0.0,0.19065300610089603,1024,0.0,98,Assisted_Takeoff,
0.376746992083851,36.924517979495,3400,2018-04-02 06:10:48,1626.9415803621375,0.0,0.0,0.19534500625104,1626.9415803621375,0.0,0.0,0.19534500625104,1024,0.0,98,Assisted_Takeoff,
0.376746917391196,36.9245179537007,3500,2018-04-02 06:10:49,1626.9415803621375,0.0,0.0,0.20400300652809603,1626.9415803621375,0.0,0.0,0.20400300652809603,1024,0.0,98,Assisted_Takeoff,
0.37674684273111,36.924517923519,3600,2018-04-02 06:10:49,1626.9415803621375,0.0,0.0,0.2129000068128,1626.9415803621375,0.0,0.0,0.2129000068128,1024,0.0,98,Assisted_Takeoff,
0.376746795632438,36.9245179098854,3700,2018-04-02 06:10:49,1626.9415803621375,0.0,0.0,0.218231006983392,1626.9415803621375,0.0,0.0,0.218231006983392,1024,0.0,98,Assisted_Takeoff,
0.376746759192747,36.9245178975679,3800,2018-04-02 06:10:49,1626.9415803621375,0.0,0.0,0.22245100711843202,1626.9415803621375,0.0,0.0,0.22245100711843202,1024,0.0,98,Assisted_Takeoff,
0.37674672288211,36.9245178694231,3900,2018-04-02 06:10:49,1626.9415803621375,0.0,0.0,0.227487007279584,1626.9415803621375,0.0,0.0,0.227487007279584,1024,0.0,98,Assisted_Takeoff,
0.376746684519226,36.9245178382594,4000,2018-04-02 06:10:49,1626.9415803621375,0.0,0.0,0.232886007452352,1626.9415803621375,0.0,0.0,0.232886007452352,1024,0.0,98,Assisted_Takeoff,
0.376746611729408,36.9245178224316,4100,2018-04-02 06:10:49,1626.9415803621375,0.0,0.0,0.240854007707328,1626.9415803621375,0.0,0.0,0.240854007707328,1024,0.0,98,Assisted_Takeoff,
0.376746540049374,36.9245178091503,4200,2018-04-02 06:10:49,1626.9415803621375,0.0,0.0,0.24860300795529602,1626.9415803621375,0.0,0.0,0.24860300795529602,1024,0.0,98,Assisted_Takeoff,
0.376746465648618,36.9245177796709,4300,2018-04-02 06:10:49,1626.9415803621375,0.0,0.0,0.25746000823872,1626.9415803621375,0.0,0.0,0.25746000823872,1024,0.0,98,Assisted_Takeoff,
0.376746400899649,36.9245177486539,4400,2018-04-02 06:10:49,1626.9415803621375,0.0,0.0,0.265442008494144,1626.9415803621375,0.0,0.0,0.265442008494144,1024,0.0,98,Assisted_Takeoff,
0.376746335136567,36.9245177316147,4500,2018-04-02 06:10:50,1626.9415803621375,0.0,0.0,0.27282100873027204,1626.9415803621375,0.0,0.0,0.27282100873027204,1024,0.0,98,Assisted_Takeoff,
0.376746274970854,36.9245177171923,4600,2018-04-02 06:10:50,1626.9415803621375,0.0,0.0,0.27952300894473603,1626.9415803621375,0.0,0.0,0.27952300894473603,1038,0.0,98,Assisted_Takeoff,
0.37674618609608,36.9245177167022,4700,2018-04-02 06:10:50,1626.9415803621375,0.0,0.0,0.28843300922985604,1626.9415803621375,0.0,0.0,0.28843300922985604,1101,0.0,98,Assisted_Takeoff,
0.376746100767243,36.9245177142154,4800,2018-04-02 06:10:50,1626.9415803621375,0.0,0.0,0.29714000950848,1626.9415803621375,0.0,0.0,0.29714000950848,1114,0.0,98,Assisted_Takeoff,
0.376746021010941,36.9245177232119,4900,2018-04-02 06:10:50,1626.9415803621375,0.0,0.0,0.304807009753824,1626.9415803621375,0.0,0.0,0.304807009753824,1110,0.0,98,Assisted_Takeoff,
0.376745949463626,36.9245177275672,5000,2018-04-02 06:10:50,1626.9415803621375,0.0,0.0,0.31190500998096,1626.9415803621375,0.0,0.0,0.31190500998096,1113,0.0,98,Assisted_Takeoff,
0.376745885579768,36.9245177407302,5100,2018-04-02 06:10:50,1626.9415803621375,0.0,0.0,0.317882010172224,1626.9415803621375,0.0,0.0,0.317882010172224,1134,0.0,98,Assisted_Takeoff,
0.376745824163817,36.9245177483217,5200,2018-04-02 06:10:50,1626.9415803621375,0.0,0.0,0.323887010364384,1626.9415803621375,0.0,0.0,0.323887010364384,1132,0.0,98,Assisted_Takeoff,
0.376745803345381,36.9245177611802,5300,2018-04-02 06:10:50,1626.9415803621375,0.0,0.0,0.325509010416288,1626.9415803621375,0.0,0.0,0.325509010416288,1133,0.0,98,Assisted_Takeoff,
0.376745781556801,36.9245177703279,5400,2018-04-02 06:10:51,1626.9415803621375,0.0,0.0,0.32739501047664005,1626.9415803621375,0.0,0.0,0.32739501047664005,1136,0.0,98,Assisted_Takeoff,
0.376745763765236,36.9245177820421,5500,2018-04-02 06:10:51,1626.9415803621375,0.0,0.0,0.32877501052080005,1626.9415803621375,0.0,0.0,0.32877501052080005,1165,0.0,98,Assisted_Takeoff,
0.376745706203405,36.9245177992906,5700,2018-04-02 06:10:51,1626.9415803621375,0.0,0.0,0.334098010691136,1626.9415803621375,0.0,0.0,0.334098010691136,1155,0.0,98,Assisted_Takeoff,
0.376745677119802,36.9245178087354,5800,2018-04-02 06:10:51,1626.9415803621375,0.0,0.0,0.336779010776928,1626.9415803621375,0.0,0.0,0.336779010776928,1149,0.0,98,Assisted_Takeoff,
0.376745701182912,36.9245178208468,5900,2018-04-02 06:10:51,1626.9415803621375,0.0,0.0,0.33380501068176005,1626.9415803621375,0.0,0.0,0.336779010776928,1140,0.0,98,Assisted_Takeoff,
0.376745789878557,36.9245178314267,6000,2018-04-02 06:10:51,1626.9415803621375,0.0,0.35999970196000003,0.32413201037222406,1626.9415803621375,0.0,0.35999970196000003,0.336779010776928,1166,0.0,98,P-GPS,Home Point Recorded. RTH Altitude:  30m.
0.376745997355349,36.9245178415109,6100,2018-04-02 06:10:51,1626.9415803621375,0.0,0.7199994039200001,0.30216100966915205,1626.9415803621375,0.0,0.7199994039200001,0.336779010776928,1195,0.0,98,P-GPS,
0.376746210089574,36.9245178461502,6200,2018-04-02 06:10:51,1626.9415803621375,0.0,0.7199994039200001,0.280071008962272,1626.9415803621375,0.0,0.7199994039200001,0.336779010776928,1222,0.0,98,P-GPS,
0.376746451253987,36.9245178541113,6300,2018-04-02 06:10:51,1626.9415803621375,0.0,0.35999970196000003,0.255242008167744,1626.9415803621375,0.0,0.7199994039200001,0.336779010776928,1215,0.0,98,P-GPS,
0.376746647898778,36.9245178491089,6400,2018-04-02 06:10:51,1627.0415803653375,0.1000000032,0.35999970196000003,0.23591300754921604,1627.0415803653375,0.1000000032,0.7199994039200001,0.336779010776928,1225,0.0,98,P-GPS,
0.37674676780518,36.9245178043948,6500,2018-04-02 06:10:52,1627.0415803653375,0.1000000032,0.0,0.22666200725318403,1627.0415803653375,0.1000000032,0.7199994039200001,0.336779010776928,1246,0.0,98,P-GPS,
0.376746829710479,36.9245177567826,6600,2018-04-02 06:10:52,1627.0415803653375,0.1000000032,0.0,0.223544007153408,1627.0415803653375,0.1000000032,0.7199994039200001,0.336779010776928,1257,0.0,98,P-GPS,
0.376746830653348,36.9245176637524,6700,2018-04-02 06:10:52,1627.1415803685377,0.2000000064,0.0,0.229171007333472,1627.1415803685377,0.2000000064,0.7199994039200001,0.336779010776928,1289,0.0,98,P-GPS,
0.376746814327383,36.9245175771917,6800,2018-04-02 06:10:52,1627.2415803717377,0.3000000096,0.0,0.236234007559488,1627.2415803717377,0.3000000096,0.7199994039200001,0.336779010776928,1305,0.0,98,P-GPS,
0.376746818232798,36.9245175370359,6900,2018-04-02 06:10:52,1627.2415803717377,0.3000000096,0.0,0.23855900763388801,1627.2415803717377,0.3000000096,0.7199994039200001,0.336779010776928,1297,0.0,98,P-GPS,
0.376746806346786,36.9245175082166,7000,2018-04-02 06:10:52,1627.3415803749374,0.4000000128,0.0,0.24155600772979202,1627.3415803749374,0.4000000128,0.7199994039200001,0.336779010776928,1298,0.0,98,P-GPS,
0.376746698876403,36.9245174387479,7100,2018-04-02 06:10:52,1627.4415803781374,0.500000016,0.0,0.255741008183712,1627.4415803781374,0.500000016,0.7199994039200001,0.336779010776928,1305,0.0,98,P-GPS,
0.376746577921689,36.92451735077,7200,2018-04-02 06:10:52,1627.6415803845375,0.7000000224,0.35999970196000003,0.27236900871580805,1627.6415803845375,0.7000000224,0.7199994039200001,0.336779010776928,1316,0.0,98,P-GPS,
0.376746440982984,36.9245172181412,7300,2018-04-02 06:10:52,1627.7415803877375,0.8000000256,0.35999970196000003,0.29343000938976,1627.7415803877375,0.8000000256,0.7199994039200001,0.336779010776928,1297,0.0,98,P-GPS,
0.376746328838153,36.9245171121404,7400,2018-04-02 06:10:53,1627.9415803941376,1.000000032,0.0,0.310513009936416,1627.9415803941376,1.000000032,0.7199994039200001,0.336779010776928,1279,0.0,98,P-GPS,
0.37674628611226,36.9245171197482,7500,2018-04-02 06:10:53,1628.0415803973376,1.1000000352000001,0.0,0.31375201004006403,1628.0415803973376,1.1000000352000001,0.7199994039200001,0.336779010776928,1299,0.0,98,P-GPS,
0.376746310678559,36.92451718752,7600,2018-04-02 06:10:53,1628.2415804037375,1.3000000416000002,0.0,0.30703200982502404,1628.2415804037375,1.3000000416000002,0.7199994039200001,0.336779010776928,1311,0.0,98,P-GPS,
0.376746368627146,36.924517282745,7700,2018-04-02 06:10:53,1628.3415804069375,1.4000000448,0.0,0.295579009458528,1628.3415804069375,1.4000000448,0.7199994039200001,0.336779010776928,1310,0.0,98,P-GPS,
0.37674643244668,36.9245173863899,7800,2018-04-02 06:10:53,1628.5415804133374,1.6000000512,0.0,0.283136009060352,1628.5415804133374,1.6000000512,0.7199994039200001,0.336779010776928,1307,0.0,98,P-GPS,
0.376746522173945,36.9245174925879,7900,2018-04-02 06:10:53,1628.6415804165376,1.7000000544000002,0.35999970196000003,0.26824200858374403,1628.6415804165376,1.7000000544000002,0.7199994039200001,0.336779010776928,1324,0.0,98,P-GPS,
0.376746608553942,36.9245175856285,8000,2018-04-02 06:10:53,1628.7415804197376,1.8000000576000001,0.35999970196000003,0.2545250081448,1628.7415804197376,1.8000000576000001,0.7199994039200001,0.336779010776928,1333,0.0,98,P-GPS,
0.376746684165447,36.9245176821093,8100,2018-04-02 06:10:53,1628.9415804261375,2.000000064,0.35999970196000003,0.241664007733248,1628.9415804261375,2.000000064,0.7199994039200001,0.336779010776928,1335,0.0,98,P-GPS,
0.376746736667703,36.9245177734166,8200,2018-04-02 06:10:53,1629.0415804293377,2.1000000672000003,0.0,0.23139500740464,1629.0415804293377,2.1000000672000003,0.7199994039200001,0.336779010776928,1331,0.0,98,P-GPS,
0.376746762588053,36.9245178421715,8300,2018-04-02 06:10:53,1629.2415804357374,2.3000000736,0.0,0.22507400720236803,1629.2415804357374,2.3000000736,0.7199994039200001,0.336779010776928,1344,0.0,98,P-GPS,
0.376746781787408,36.9245179221802,8400,2018-04-02 06:10:53,1629.4415804421376,2.50000008,0.0,0.218953007006496,1629.4415804421376,2.50000008,0.7199994039200001,0.336779010776928,1347,0.0,98,P-GPS,
0.37674679586327,36.9245180161924,8500,2018-04-02 06:10:54,1629.5415804453376,2.6000000832000003,0.0,0.212892006812544,1629.5415804453376,2.6000000832000003,0.7199994039200001,0.336779010776928,1337,0.0,98,P-GPS,
0.376746796417756,36.9245181036072,8600,2018-04-02 06:10:54,1629.7415804517375,2.8000000896,0.0,0.20886500668368,1629.7415804517375,2.8000000896,0.7199994039200001,0.336779010776928,1332,0.0,98,P-GPS,
0.376746770899224,36.9245181668799,8700,2018-04-02 06:10:54,1629.9415804581374,3.0000000960000004,0.0,0.208878006684096,1629.9415804581374,3.0000000960000004,0.7199994039200001,0.336779010776928,1335,0.0,98,P-GPS,
0.376746735814805,36.9245182342874,8800,2018-04-02 06:10:54,1630.0415804613374,3.1000000992000003,0.0,0.21002700672086402,1630.0415804613374,3.1000000992000003,0.7199994039200001,0.336779010776928,1351,0.0,98,P-GPS,
0.376746692782358,36.9245182739267,8900,2018-04-02 06:10:54,1630.2415804677375,3.3000001056,0.0,0.21324000682368002,1630.2415804677375,3.3000001056,0.7199994039200001,0.336779010776928,1349,0.0,98,P-GPS,
0.376746653684639,36.9245183122845,9000,2018-04-02 06:10:54,1630.4415804741375,3.500000112,0.0,0.21621600691891202,1630.4415804741375,3.500000112,0.7199994039200001,0.336779010776928,1350,0.0,98,P-GPS,
0.376746611197314,36.9245183188862,9100,2018-04-02 06:10:54,1630.5415804773377,3.6000001152000003,0.0,0.220579007058528,1630.5415804773377,3.6000001152000003,0.7199994039200001,0.336779010776928,1349,0.0,98,P-GPS,
0.376746591768349,36.9245183227726,9200,2018-04-02 06:10:54,1630.7415804837376,3.8000001216000006,0.0,0.22255500712176002,1630.7415804837376,3.8000001216000006,0.7199994039200001,0.336779010776928,1349,0.0,98,P-GPS,
0.37674660062057,36.9245183597725,9300,2018-04-02 06:10:54,1630.9415804901375,4.000000128,0.0,0.22058300705865602,1630.9415804901375,4.000000128,0.7199994039200001,0.336779010776928,1347,0.0,98,P-GPS,
0.37674661524359,36.9245184217779,9400,2018-04-02 06:10:55,1631.1415804965375,4.200000134400001,0.0,0.21744500695824,1631.1415804965375,4.200000134400001,0.7199994039200001,0.336779010776928,1345,0.0,98,P-GPS,
0.376746602668746,36.9245184631382,9500,2018-04-02 06:10:55,1631.3415805029376,4.4000001408000005,0.0,0.217893006972576,1631.3415805029376,4.4000001408000005,0.7199994039200001,0.336779010776928,1334,0.0,98,P-GPS,
0.376746599872707,36.9245184769795,9600,2018-04-02 06:10:55,1631.4415805061376,4.500000144,0.0,0.21791200697318402,1631.4415805061376,4.500000144,0.7199994039200001,0.336779010776928,1331,0.0,98,P-GPS,
0.376746605459899,36.9245184406214,9700,2018-04-02 06:10:55,1631.6415805125373,4.7000001504,0.0,0.218077006978464,1631.6415805125373,4.7000001504,0.7199994039200001,0.336779010776928,1329,0.0,98,P-GPS,
0.376746609671462,36.9245184122673,9800,2018-04-02 06:10:55,1631.8415805189375,4.9000001568,0.0,0.2182750069848,1631.8415805189375,4.9000001568,0.7199994039200001,0.336779010776928,1335,0.0,98,P-GPS,
0.376746636513511,36.9245183830133,9900,2018-04-02 06:10:55,1631.9415805221374,5.00000016,0.0,0.21609400691500802,1631.9415805221374,5.00000016,0.7199994039200001,0.336779010776928,1336,0.0,98,P-GPS,
0.376746665079269,36.9245183776712,10000,2018-04-02 06:10:55,1632.1415805285376,5.200000166400001,0.0,0.213147006820704,1632.1415805285376,5.200000166400001,0.7199994039200001,0.336779010776928,1390,0.0,98,P-GPS,
0.376746715968144,36.9245183823723,10100,2018-04-02 06:10:55,1632.3415805349375,5.4000001728,0.0,0.207528006640896,1632.3415805349375,5.4000001728,0.7199994039200001,0.336779010776928,1392,0.0,98,P-GPS,
0.376746754611527,36.9245183903233,10200,2018-04-02 06:10:55,1632.5415805413377,5.6000001792,0.0,0.20314400650060802,1632.5415805413377,5.6000001792,0.7199994039200001,0.336779010776928,1356,0.0,98,P-GPS,
0.376746777451675,36.9245184239376,10300,2018-04-02 06:10:55,1632.6415805445374,5.7000001824,0.0,0.19979400639340802,1632.6415805445374,5.7000001824,0.7199994039200001,0.336779010776928,1333,0.0,98,P-GPS,
0.376746790178372,36.9245184758711,10400,2018-04-02 06:10:55,1632.8415805509376,5.9000001888,0.0,0.197167006309344,1632.8415805509376,5.9000001888,0.7199994039200001,0.336779010776928,1335,0.0,98,P-GPS,
0.376746810701652,36.9245185224141,10500,2018-04-02 06:10:56,1633.0415805573375,6.100000195200001,0.0,0.193939006206048,1633.0415805573375,6.100000195200001,0.7199994039200001,0.336779010776928,1321,0.0,98,P-GPS,
0.376746819177703,36.9245185766711,10600,2018-04-02 06:10:56,1633.2415805637377,6.3000002016,0.0,0.192019006144608,1633.2415805637377,6.3000002016,0.7199994039200001,0.336779010776928,1314,0.0,98,P-GPS,
0.376746816709389,36.9245186675175,10700,2018-04-02 06:10:56,1633.4415805701376,6.500000208,0.0,0.19104400611340802,1633.4415805701376,6.500000208,0.7199994039200001,0.336779010776928,1306,0.0,98,P-GPS,
0.376746803969257,36.9245187614946,10800,2018-04-02 06:10:56,1633.6415805765375,6.7000002144,0.0,0.191727006135264,1633.6415805765375,6.7000002144,0.7199994039200001,0.336779010776928,1340,0.0,98,P-GPS,
0.376746794885797,36.9245188323102,10900,2018-04-02 06:10:56,1633.8415805829375,6.900000220800001,0.0,0.19256500616208,1633.8415805829375,6.900000220800001,0.7199994039200001,0.336779010776928,1329,0.0,98,P-GPS,
0.376746780603529,36.9245188899193,11000,2018-04-02 06:10:56,1633.9415805861374,7.000000224,0.0,0.19425000621600003,1633.9415805861374,7.000000224,0.7199994039200001,0.336779010776928,1331,0.0,98,P-GPS,
0.376746787321674,36.9245189279564,11100,2018-04-02 06:10:56,1634.1415805925376,7.200000230400001,0.0,0.193684006197888,1634.1415805925376,7.200000230400001,0.7199994039200001,0.336779010776928,1315,0.0,98,P-GPS,
0.376746782234415,36.9245189814903,11200,2018-04-02 06:10:56,1634.2415805957376,7.3000002336000005,0.0,0.19465800622905602,1634.2415805957376,7.3000002336000005,0.7199994039200001,0.336779010776928,1294,0.0,98,P-GPS,
0.376746760779666,36.9245190421057,11300,2018-04-02 06:10:56,1634.4415806021375,7.50000024,0.0,0.197708006326656,1634.4415806021375,7.50000024,0.7199994039200001,0.336779010776928,1262,0.0,98,P-GPS,
0.376746719527922,36.9245190852655,11400,2018-04-02 06:10:56,1634.6415806085374,7.7000002464,0.0,0.202869006491808,1634.6415806085374,7.7000002464,0.7199994039200001,0.336779010776928,1246,0.0,98,P-GPS,
0.376746680016986,36.9245190620514,11500,2018-04-02 06:10:57,1634.7415806117376,7.8000002496,0.0,0.20689000662048002,1634.7415806117376,7.8000002496,0.7199994039200001,0.336779010776928,1229,0.0,98,P-GPS,
0.376746629855618,36.9245190375625,11600,2018-04-02 06:10:57,1634.8415806149376,7.9000002528,0.0,0.212121006787872,1634.8415806149376,7.9000002528,0.7199994039200001,0.336779010776928,1248,0.0,98,P-GPS,
0.376746579397467,36.9245190307464,11700,2018-04-02 06:10:57,1634.9415806181376,8.000000256,0.0,0.21762400696396803,1634.9415806181376,8.000000256,0.7199994039200001,0.336779010776928,1264,0.0,98,P-GPS,
0.376746531734947,36.9245190470788,11800,2018-04-02 06:10:57,1635.1415806245377,8.200000262400001,0.0,0.223083007138656,1635.1415806245377,8.200000262400001,0.7199994039200001,0.336779010776928,1276,0.0,98,P-GPS,
0.376746492132003,36.9245190536818,11900,2018-04-02 06:10:57,1635.2415806277377,8.300000265600001,0.0,0.22754000728128002,1635.2415806277377,8.300000265600001,0.7199994039200001,0.336779010776928,1275,0.0,98,P-GPS,
0.376746461369881,36.9245190534072,12000,2018-04-02 06:10:57,1635.3415806309374,8.400000268800001,0.0,0.230939007390048,1635.3415806309374,8.400000268800001,0.7199994039200001,0.336779010776928,1245,0.0,98,P-GPS,
0.376746468552134,36.9245190136657,12100,2018-04-02 06:10:57,1635.4415806341374,8.500000272,0.0,0.22971900735100803,1635.4415806341374,8.500000272,0.7199994039200001,0.336779010776928,1230,0.0,98,P-GPS,
0.376746462550096,36.9245189805687,12200,2018-04-02 06:10:57,1635.5415806373376,8.6000002752,0.0,0.230096007363072,1635.5415806373376,8.6000002752,0.7199994039200001,0.336779010776928,1241,0.0,98,P-GPS,
0.376746441166998,36.9245189940629,12300,2018-04-02 06:10:57,1635.6415806405375,8.700000278400001,0.0,0.232577007442464,1635.6415806405375,8.700000278400001,0.7199994039200001,0.336779010776928,1249,0.0,98,P-GPS,
0.376746404932084,36.9245190285356,12400,2018-04-02 06:10:58,1635.7415806437375,8.800000281600001,0.0,0.236913007581216,1635.7415806437375,8.800000281600001,0.7199994039200001,0.336779010776928,1254,0.0,98,P-GPS,
0.376746399693786,36.9245190867033,12500,2018-04-02 06:10:58,1635.8415806469375,8.9000002848,0.0,0.23816800762137602,1635.8415806469375,8.9000002848,0.7199994039200001,0.336779010776928,1252,0.0,98,P-GPS,
0.376746408208106,36.9245191357965,12600,2018-04-02 06:10:58,1635.9415806501377,9.000000288,0.0,0.23793400761388803,1635.9415806501377,9.000000288,0.7199994039200001,0.336779010776928,1243,0.0,98,P-GPS,
0.376746447555791,36.9245191294338,12700,2018-04-02 06:10:58,1636.0415806533376,9.1000002912,0.0,0.233503007472096,1636.0415806533376,9.1000002912,0.7199994039200001,0.336779010776928,1234,0.0,98,P-GPS,
0.376746474398655,36.9245191038242,12800,2018-04-02 06:10:58,1636.1415806565374,9.2000002944,0.0,0.23016000736512002,1636.1415806565374,9.2000002944,0.7199994039200001,0.336779010776928,1247,0.0,98,P-GPS,
0.376746493155073,36.9245190626697,12900,2018-04-02 06:10:58,1636.2415806597373,9.3000002976,0.0,0.227537007281184,1636.2415806597373,9.3000002976,0.7199994039200001,0.336779010776928,1252,0.0,98,P-GPS,
0.376746495340037,36.9245190098586,13000,2018-04-02 06:10:58,1636.3415806629375,9.4000003008,0.35999970196000003,0.22671500725488003,1636.3415806629375,9.4000003008,0.7199994039200001,0.336779010776928,1254,0.0,98,P-GPS,
0.376746533560432,36.9245189475226,13100,2018-04-02 06:10:58,1636.4415806661375,9.500000304,0.0,0.221981007103392,1636.4415806661375,9.500000304,0.7199994039200001,0.336779010776928,1252,0.0,98,P-GPS,
0.376746579682852,36.9245189000723,13200,2018-04-02 06:10:58,1636.5415806693375,9.6000003072,0.0,0.216619006931808,1636.5415806693375,9.6000003072,0.7199994039200001,0.336779010776928,1251,0.0,98,P-GPS,
0.376746633625059,36.9245188410184,13300,2018-04-02 06:10:58,1636.6415806725374,9.7000003104,0.0,0.21049900673596803,1636.6415806725374,9.7000003104,0.7199994039200001,0.336779010776928,1249,0.0,98,P-GPS,
0.376746677892273,36.9245187779255,13400,2018-04-02 06:10:58,1636.7415806757376,9.8000003136,0.0,0.20567200658150403,1636.7415806757376,9.8000003136,0.7199994039200001,0.336779010776928,1241,0.0,98,P-GPS,
0.376746756227758,36.9245186764952,13500,2018-04-02 06:10:59,1636.8415806789376,9.900000316800002,0.503999582744,0.197648006324736,1636.8415806789376,9.900000316800002,0.7199994039200001,0.336779010776928,1235,0.0,98,P-GPS,
0.376746832517509,36.9245185719775,13600,2018-04-02 06:10:59,1637.0415806853377,10.100000323200002,0.35999970196000003,0.190631006100192,1637.0415806853377,10.100000323200002,0.7199994039200001,0.336779010776928,1233,0.0,98,P-GPS,
0.376746877320075,36.9245184503472,13700,2018-04-02 06:10:59,1637.1415806885375,10.2000003264,0.35999970196000003,0.18831100602595202,1637.1415806885375,10.2000003264,0.7199994039200001,0.336779010776928,1231,0.0,98,P-GPS,
0.376746901188993,36.9245183449141,13800,2018-04-02 06:10:59,1637.2415806917375,10.3000003296,0.35999970196000003,0.18877000604064,1637.2415806917375,10.3000003296,0.7199994039200001,0.336779010776928,1231,0.0,98,P-GPS,
0.376746919678346,36.9245182345273,13900,2018-04-02 06:10:59,1637.3415806949374,10.400000332800001,0.35999970196000003,0.190743006103776,1637.3415806949374,10.400000332800001,0.7199994039200001,0.336779010776928,1224,0.0,98,P-GPS,
0.376746935553232,36.9245181684985,14000,2018-04-02 06:10:59,1637.4415806981376,10.500000336,0.0,0.19180400613772802,1637.4415806981376,10.500000336,0.7199994039200001,0.336779010776928,1221,0.0,98,P-GPS,
0.37674696071717,36.9245181312448,14100,2018-04-02 06:10:59,1637.5415807013376,10.600000339200001,0.0,0.19088600610835202,1637.5415807013376,10.600000339200001,0.7199994039200001,0.336779010776928,1221,0.0,98,P-GPS,
0.376746974505205,36.9245181197517,14200,2018-04-02 06:10:59,1637.6415807045375,10.700000342400001,0.0,0.19001900608060798,1637.6415807045375,10.700000342400001,0.7199994039200001,0.336779010776928,1221,0.0,98,P-GPS,
0.376746987937018,36.924518141659,14300,2018-04-02 06:10:59,1637.8415807109377,10.9000003488,0.0,0.1876500060048,1637.8415807109377,10.9000003488,0.7199994039200001,0.336779010776928,1210,0.0,98,P-GPS,
0.37674698450833,36.9245181787229,14400,2018-04-02 06:11:00,1637.9415807141377,11.000000351999999,0.0,0.18634600596307202,1637.9415807141377,11.000000351999999,0.7199994039200001,0.336779010776928,1210,0.0,98,P-GPS,
0.376746974844736,36.9245182601438,14500,2018-04-02 06:11:00,1638.0415807173374,11.1000003552,0.0,0.184000005888,1638.0415807173374,11.1000003552,0.7199994039200001,0.336779010776928,1211,0.0,98,P-GPS,
0.376746944883809,36.9245183481225,14600,2018-04-02 06:11:00,1638.1415807205374,11.2000003584,0.0,0.184017005888544,1638.1415807205374,11.2000003584,0.7199994039200001,0.336779010776928,1213,0.0,98,P-GPS,
0.376746916358355,36.9245183783293,14700,2018-04-02 06:11:00,1638.2415807237376,11.3000003616,0.0,0.186108005955456,1638.2415807237376,11.3000003616,0.7199994039200001,0.336779010776928,1202,0.0,98,P-GPS,
0.37674687650056,36.9245183991326,14800,2018-04-02 06:11:00,1638.3415807269375,11.4000003648,0.0,0.189773006072736,1638.3415807269375,11.4000003648,0.7199994039200001,0.336779010776928,1197,0.0,98,P-GPS,
0.376746828064936,36.9245184199544,14900,2018-04-02 06:11:00,1638.4415807301375,11.500000368000002,0.0,0.19442300622153602,1638.4415807301375,11.500000368000002,0.7199994039200001,0.336779010776928,1193,0.0,98,P-GPS,
0.376746766960832,36.92451847142,15000,2018-04-02 06:11:00,1638.5415807333375,11.6000003712,0.0,0.19979600639347203,1638.5415807333375,11.6000003712,0.7199994039200001,0.336779010776928,1216,0.0,98,P-GPS,
0.376746736504044,36.9245185260772,15100,2018-04-02 06:11:00,1638.6415807365377,11.7000003744,0.0,0.20199300646377602,1638.6415807365377,11.7000003744,0.7199994039200001,0.336779010776928,1243,0.0,98,P-GPS,
0.376746702327483,36.9245185965164,15200,2018-04-02 06:11:00,1638.7415807397376,11.8000003776,0.0,0.204579006546528,1638.7415807397376,11.8000003776,0.7199994039200001,0.336779010776928,1266,0.0,98,P-GPS,
0.376746670309424,36.9245186523695,15300,2018-04-02 06:11:00,1638.8415807429374,11.9000003808,0.0,0.207411006637152,1638.8415807429374,11.9000003808,0.7199994039200001,0.336779010776928,1283,0.0,98,P-GPS,
0.376746638944778,36.9245187077095,15400,2018-04-02 06:11:00,1638.9415807461373,12.000000384000002,0.0,0.210381006732192,1638.9415807461373,12.000000384000002,0.7199994039200001,0.336779010776928,1277,0.0,98,P-GPS,
0.376746617131364,36.9245187351873,15500,2018-04-02 06:11:01,1639.0415807493375,12.1000003872,0.0,0.21262000680384002,1639.0415807493375,12.1000003872,0.7199994039200001,0.336779010776928,1265,0.0,98,P-GPS,
0.376746593454195,36.9245187649715,15600,2018-04-02 06:11:01,1639.1415807525375,12.200000390400001,0.0,0.21510500688336,1639.1415807525375,12.200000390400001,0.7199994039200001,0.336779010776928,1261,0.0,98,P-GPS,
0.376746566955747,36.9245187581131,15700,2018-04-02 06:11:01,1639.3415807589377,12.400000396800001,0.0,0.218078006978496,1639.3415807589377,12.400000396800001,0.7199994039200001,0.336779010776928,1269,0.0,98,P-GPS,
0.376746530447254,36.9245187514789,15800,2018-04-02 06:11:01,1639.4415807621376,12.500000400000001,0.35999970196000003,0.22216500710928,1639.4415807621376,12.500000400000001,0.7199994039200001,0.336779010776928,1272,0.0,98,P-GPS,
0.376746507853815,36.9245187132727,15900,2018-04-02 06:11:01,1639.5415807653376,12.6000004032,0.35999970196000003,0.22489000719648,1639.5415807653376,12.6000004032,0.7199994039200001,0.336779010776928,1270,0.0,98,P-GPS,
0.376746491065779,36.9245186937823,16000,2018-04-02 06:11:01,1639.6415807685376,12.700000406400001,0.0,0.226893007260576,1639.6415807685376,12.700000406400001,0.7199994039200001,0.336779010776928,1261,0.0,98,P-GPS,
0.376746506257126,36.9245186789892,16100,2018-04-02 06:11:01,1639.8415807749375,12.9000004128,0.0,0.225328007210496,1639.8415807749375,12.9000004128,0.7199994039200001,0.336779010776928,1256,-0.1,98,P-GPS,
0.376746522541973,36.9245186770316,16200,2018-04-02 06:11:01,1639.9415807781374,13.000000416,0.0,0.22353900715324804,1639.9415807781374,13.000000416,0.7199994039200001,0.336779010776928,1258,-0.2,98,P-GPS,
0.376746555924668,36.9245186601545,16300,2018-04-02 06:11:01,1640.0415807813374,13.100000419200002,0.0,0.21999600703987202,1640.0415807813374,13.100000419200002,0.7199994039200001,0.336779010776928,1268,-0.3,98,P-GPS,
0.376746575779064,36.9245186484427,16400,2018-04-02 06:11:01,1640.1415807845376,13.2000004224,0.0,0.21791700697334399,1640.1415807845376,13.2000004224,0.7199994039200001,0.336779010776928,1271,-0.3,98,P-GPS,
0.376746630430866,36.9245186362515,16500,2018-04-02 06:11:02,1640.3415807909375,13.4000004288,0.0,0.212004006784128,1640.3415807909375,13.4000004288,0.7199994039200001,0.336779010776928,1262,-0.8,98,P-GPS,
0.376746679592776,36.9245186312025,16600,2018-04-02 06:11:02,1640.4415807941375,13.500000432,0.0,0.206628006612096,1640.4415807941375,13.500000432,0.7199994039200001,0.336779010776928,1257,-1.4,98,P-GPS,
0.376746731006417,36.9245186291252,16700,2018-04-02 06:11:02,1640.5415807973377,13.600000435200002,0.0,0.20097200643110402,1640.5415807973377,13.600000435200002,0.7199994039200001,0.336779010776928,1257,-2.0,98,P-GPS,
0.376746765373099,36.9245186384771,16800,2018-04-02 06:11:02,1640.6415808005374,13.7000004384,0.0,0.19705800630585601,1640.6415808005374,13.7000004384,0.7199994039200001,0.336779010776928,1257,-2.7,98,P-GPS,
0.376746844471917,36.9245186781908,16900,2018-04-02 06:11:02,1640.7415808037374,13.800000441600002,0.0,0.18785800601145602,1640.7415808037374,13.800000441600002,0.7199994039200001,0.336779010776928,1257,-3.3,98,P-GPS,
0.376746916879458,36.9245187211313,17000,2018-04-02 06:11:02,1640.9415808101376,14.000000448,0.0,0.17944300574217603,1640.9415808101376,14.000000448,0.7199994039200001,0.336779010776928,1255,-3.7,98,P-GPS,
0.37674700465381,36.9245187212729,17100,2018-04-02 06:11:02,1641.0415808133375,14.100000451200001,0.0,0.169706005430592,1641.0415808133375,14.100000451200001,0.7199994039200001,0.336779010776928,1257,-4.2,98,P-GPS,
0.376747070533326,36.9245187110581,17200,2018-04-02 06:11:02,1641.1415808165375,14.2000004544,0.0,0.162493005199776,1641.1415808165375,14.2000004544,0.7199994039200001,0.336779010776928,1266,-4.5,98,P-GPS,
0.376747174640973,36.9245186905575,17300,2018-04-02 06:11:02,1641.2415808197375,14.300000457600001,0.0,0.15118500483792002,1641.2415808197375,14.300000457600001,0.7199994039200001,0.336779010776928,1267,-4.8,98,P-GPS,
0.376747261921093,36.9245186877581,17400,2018-04-02 06:11:03,1641.3415808229377,14.400000460800001,0.0,0.141573004530336,1641.3415808229377,14.400000460800001,0.7199994039200001,0.336779010776928,1267,-5.1,98,P-GPS,
0.376747355266759,36.9245186913755,17500,2018-04-02 06:11:03,1641.4415808261376,14.500000464000001,0.0,0.131218004198976,1641.4415808261376,14.500000464000001,0.7199994039200001,0.336779010776928,1266,-5.4,98,P-GPS,
0.376747416065937,36.9245187101395,17600,2018-04-02 06:11:03,1641.6415808325376,14.7000004704,0.0,0.12426000397632,1641.6415808325376,14.7000004704,0.7199994039200001,0.336779010776928,1271,-5.6,98,P-GPS,
0.376747491180359,36.9245187200061,17700,2018-04-02 06:11:03,1641.7415808357375,14.8000004736,0.0,0.11583600370675201,1641.7415808357375,14.8000004736,0.7199994039200001,0.336779010776928,1273,-5.6,98,P-GPS,
0.376747543203038,36.9245187365132,17800,2018-04-02 06:11:03,1641.8415808389375,14.9000004768,0.0,0.109891003516512,1641.8415808389375,14.9000004768,0.7199994039200001,0.336779010776928,1273,-6.0,98,P-GPS,
0.376747597208348,36.9245187065952,17900,2018-04-02 06:11:03,1641.9415808421375,15.00000048,0.0,0.10431800333817601,1641.9415808421375,15.00000048,0.7199994039200001,0.336779010776928,1273,-6.4,98,P-GPS,
0.376747627614654,36.9245186832061,18000,2018-04-02 06:11:03,1642.0415808453376,15.1000004832,0.0,0.101369003243808,1642.0415808453376,15.1000004832,0.7199994039200001,0.336779010776928,1282,-6.8,98,P-GPS,
0.376747698780914,36.9245186465876,18100,2018-04-02 06:11:03,1642.2415808517376,15.3000004896,0.0,0.09439200302054401,1642.2415808517376,15.3000004896,0.7199994039200001,0.336779010776928,1282,-7.2,98,P-GPS,
0.376747758921386,36.9245186342045,18200,2018-04-02 06:11:03,1642.3415808549373,15.4000004928,0.0,0.0882206028230592,1642.3415808549373,15.4000004928,0.7199994039200001,0.336779010776928,1291,-7.7,98,P-GPS,
0.376747846321197,36.924518585967,18300,2018-04-02 06:11:03,1642.4415808581377,15.500000496,0.0,0.0805356025771392,1642.4415808581377,15.500000496,0.7199994039200001,0.336779010776928,1290,-8.0,98,P-GPS,
0.376747915522739,36.9245185524715,18400,2018-04-02 06:11:03,1642.6415808645374,15.700000502400002,0.0,0.0748392023948544,1642.6415808645374,15.700000502400002,0.7199994039200001,0.336779010776928,1286,-8.1,98,P-GPS,
0.376747969253248,36.9245184865752,18500,2018-04-02 06:11:04,1642.7415808677374,15.8000005056,0.0,0.0730633023380256,1642.7415808677374,15.8000005056,0.7199994039200001,0.336779010776928,1298,-8.1,98,P-GPS,
0.376747992573381,36.9245184451651,18600,2018-04-02 06:11:04,1642.9415808741376,16.000000512,0.0,0.0734932023517824,1642.9415808741376,16.000000512,0.7199994039200001,0.336779010776928,1306,-8.1,98,P-GPS,
0.376748009984297,36.9245184040155,18700,2018-04-02 06:11:04,1643.0415808773375,16.1000005152,0.0,0.0747824023930368,1643.0415808773375,16.1000005152,0.7199994039200001,0.336779010776928,1322,-8.1,98,P-GPS,
0.376748002349744,36.9245183927587,18800,2018-04-02 06:11:04,1643.1415808805375,16.2000005184,0.0,0.07623720243959041,1643.1415808805375,16.2000005184,0.7199994039200001,0.336779010776928,1323,-8.1,98,P-GPS,
0.376748009882519,36.9245183847796,18900,2018-04-02 06:11:04,1643.3415808869374,16.400000524800003,0.0,0.0761784024377088,1643.3415808869374,16.400000524800003,0.7199994039200001,0.336779010776928,1315,-8.1,98,P-GPS,
0.376748008577321,36.9245184080911,19000,2018-04-02 06:11:04,1643.4415808901374,16.500000528,0.0,0.0746137023876384,1643.4415808901374,16.500000528,0.7199994039200001,0.336779010776928,1315,-8.1,98,P-GPS,
0.376748039812098,36.9245184466691,19100,2018-04-02 06:11:04,1643.6415808965376,16.7000005344,0.0,0.0692139022148448,1643.6415808965376,16.7000005344,0.7199994039200001,0.336779010776928,1324,-8.1,98,P-GPS,
0.376748045918356,36.9245185053936,19200,2018-04-02 06:11:04,1643.7415808997375,16.800000537600003,0.0,0.0647818020730176,1643.7415808997375,16.800000537600003,0.7199994039200001,0.336779010776928,1324,-8.1,98,P-GPS,
0.376748048934642,36.9245185439759,19300,2018-04-02 06:11:04,1643.9415809061377,17.000000544,0.0,0.0621704019894528,1643.9415809061377,17.000000544,0.7199994039200001,0.336779010776928,1309,-8.1,98,P-GPS,
0.37674802095146,36.9245185779893,19400,2018-04-02 06:11:05,1644.1415809125376,17.2000005504,0.0,0.0630489020175648,1644.1415809125376,17.2000005504,0.7199994039200001,0.336779010776928,1309,-8.1,98,P-GPS,
0.376748016817655,36.9245185860075,19500,2018-04-02 06:11:05,1644.2415809157374,17.3000005536,0.0,0.06306310201801921,1644.2415809157374,17.3000005536,0.7199994039200001,0.336779010776928,1304,-8.1,98,P-GPS,
0.37674800361016,36.9245186040046,19600,2018-04-02 06:11:05,1644.4415809221375,17.50000056,0.0,0.0635527020336864,1644.4415809221375,17.50000056,0.7199994039200001,0.336779010776928,1301,-8.1,98,P-GPS,
0.3767480106772,36.9245185974248,19700,2018-04-02 06:11:05,1644.5415809253375,17.600000563200002,0.0,0.0631366020203712,1644.5415809253375,17.600000563200002,0.7199994039200001,0.336779010776928,1310,-8.1,98,P-GPS,
0.376747991047529,36.9245186092884,19800,2018-04-02 06:11:05,1644.7415809317376,17.8000005696,0.0,0.0646031020672992,1644.7415809317376,17.8000005696,0.7199994039200001,0.336779010776928,1316,-8.1,98,P-GPS,
0.376747984247554,36.9245186446704,19900,2018-04-02 06:11:05,1644.8415809349376,17.9000005728,0.0,0.0638942020446144,1644.8415809349376,17.9000005728,0.7199994039200001,0.336779010776928,1315,-8.1,98,P-GPS,
0.376747955489233,36.9245187836453,20100,2018-04-02 06:11:05,1645.1415809445375,18.2000005824,0.0,0.06375150204004801,1645.1415809445375,18.2000005824,0.7199994039200001,0.336779010776928,1322,-8.1,98,P-GPS,
0.376747931357321,36.9245188676132,20200,2018-04-02 06:11:05,1645.3415809509374,18.4000005888,0.0,0.0662838021210816,1645.3415809509374,18.4000005888,0.7199994039200001,0.336779010776928,1325,-8.1,98,P-GPS,
0.37674791060728,36.9245189308594,20300,2018-04-02 06:11:05,1645.4415809541374,18.500000592000003,0.0,0.06932060221825921,1645.4415809541374,18.500000592000003,0.7199994039200001,0.336779010776928,1325,-8.1,98,P-GPS,
0.376747869291621,36.9245189929813,20400,2018-04-02 06:11:05,1645.5415809573376,18.6000005952,0.0,0.075175502405616,1645.5415809573376,18.6000005952,0.7199994039200001,0.336779010776928,1325,-8.1,98,P-GPS,
0.376747867667248,36.9245190418806,20500,2018-04-02 06:11:06,1645.7415809637375,18.8000006016,0.0,0.076804002457728,1645.7415809637375,18.8000006016,0.7199994039200001,0.336779010776928,1327,-8.1,98,P-GPS,
0.37674784566412,36.9245191029819,20600,2018-04-02 06:11:06,1645.8415809669375,18.900000604800002,0.35999970196000003,0.0813802026041664,1645.8415809669375,18.900000604800002,0.7199994039200001,0.336779010776928,1330,-8.1,98,P-GPS,
0.37674781765529,36.9245191843227,20700,2018-04-02 06:11:06,1646.0415809733374,19.1000006112,0.35999970196000003,0.08789610281267521,1646.0415809733374,19.1000006112,0.7199994039200001,0.336779010776928,1335,-8.1,98,P-GPS,
0.376747771225502,36.9245192753932,20800,2018-04-02 06:11:06,1646.1415809765374,19.2000006144,0.0,0.09724490311183681,1646.1415809765374,19.2000006144,0.7199994039200001,0.336779010776928,1334,-8.1,98,P-GPS,
0.376747733318583,36.9245193394908,20900,2018-04-02 06:11:06,1646.3415809829376,19.4000006208,0.0,0.10455600334579201,1646.3415809829376,19.4000006208,0.7199994039200001,0.336779010776928,1332,-8.1,98,P-GPS,
0.376747694540039,36.924519394104,21000,2018-04-02 06:11:06,1646.5415809893375,19.6000006272,0.0,0.11149000356768,1646.5415809893375,19.6000006272,0.7199994039200001,0.336779010776928,1331,-8.1,98,P-GPS,
0.376747699251941,36.9245194548127,21100,2018-04-02 06:11:06,1646.7415809957376,19.800000633600003,0.0,0.114974003679168,1646.7415809957376,19.800000633600003,0.7199994039200001,0.336779010776928,1334,-8.1,98,P-GPS,
0.376747693201458,36.9245195235062,21200,2018-04-02 06:11:06,1646.9415810021374,20.00000064,0.0,0.12023000384736,1646.9415810021374,20.00000064,0.7199994039200001,0.336779010776928,1338,-8.1,98,P-GPS,
0.376747715873876,36.9245196085577,21300,2018-04-02 06:11:06,1647.0415810053375,20.1000006432,0.0,0.124631003988192,1647.0415810053375,20.1000006432,0.7199994039200001,0.336779010776928,1345,-8.1,98,P-GPS,
0.376747726760839,36.924519697728,21400,2018-04-02 06:11:07,1647.2415810117375,20.3000006496,0.0,0.130848004187136,1647.2415810117375,20.3000006496,0.7199994039200001,0.336779010776928,1343,-8.1,98,P-GPS,
0.376747760368666,36.9245197861661,21500,2018-04-02 06:11:07,1647.4415810181376,20.500000656,0.0,0.135849004347168,1647.4415810181376,20.500000656,0.7199994039200001,0.336779010776928,1346,-8.1,98,P-GPS,
0.376747776834677,36.9245198806477,21600,2018-04-02 06:11:07,1647.6415810245376,20.7000006624,0.0,0.143109004579488,1647.6415810245376,20.7000006624,0.7199994039200001,0.336779010776928,1349,-8.1,98,P-GPS,
0.376747793819755,36.9245199777081,21700,2018-04-02 06:11:07,1647.7415810277373,20.800000665600002,0.0,0.150984004831488,1647.7415810277373,20.800000665600002,0.7199994039200001,0.336779010776928,1351,-8.1,98,P-GPS,
0.376747798967674,36.9245200806805,21800,2018-04-02 06:11:07,1647.9415810341375,21.000000672,0.0,0.16045400513452798,1647.9415810341375,21.000000672,0.7199994039200001,0.336779010776928,1353,-8.1,98,P-GPS,
0.376747839472776,36.9245202003919,21900,2018-04-02 06:11:07,1648.1415810405376,21.200000678400002,0.0,0.17001000544032,1648.1415810405376,21.200000678400002,0.7199994039200001,0.336779010776928,1355,-8.1,98,P-GPS,
0.376747873137191,36.9245203187553,22000,2018-04-02 06:11:07,1648.3415810469376,21.400000684800002,0.0,0.180324005770368,1648.3415810469376,21.400000684800002,0.7199994039200001,0.336779010776928,1355,-8.1,98,P-GPS,
0.376747928639855,36.9245204363662,22100,2018-04-02 06:11:07,1648.5415810533377,21.6000006912,0.0,0.19012100608387203,1648.5415810533377,21.6000006912,0.7199994039200001,0.336779010776928,1355,-8.1,98,P-GPS,
0.37674796222122,36.924520543367,22200,2018-04-02 06:11:07,1648.7415810597374,21.8000006976,0.0,0.200109006403488,1648.7415810597374,21.8000006976,0.7199994039200001,0.336779010776928,1357,-8.1,98,P-GPS,
0.37674801472714,36.9245206329266,22300,2018-04-02 06:11:07,1648.9415810661376,22.000000703999998,0.0,0.207916006653312,1648.9415810661376,22.000000703999998,0.7199994039200001,0.336779010776928,1356,-8.3,98,P-GPS,
0.376748040395488,36.9245207168745,22400,2018-04-02 06:11:07,1649.1415810725375,22.2000007104,0.0,0.216179006917728,1649.1415810725375,22.2000007104,0.7199994039200001,0.336779010776928,1356,-8.5,98,P-GPS,
0.376748024488033,36.9245207339257,22500,2018-04-02 06:11:08,1649.3415810789377,22.4000007168,0.0,0.21846000699072,1649.3415810789377,22.4000007168,0.7199994039200001,0.336779010776928,1355,-8.7,98,P-GPS,
0.376747984867991,36.9245207457363,22600,2018-04-02 06:11:08,1649.4415810821376,22.50000072,0.0,0.22089100706851203,1649.4415810821376,22.50000072,0.7199994039200001,0.336779010776928,1352,-9.0,98,P-GPS,
0.376748013773686,36.9245207726878,22700,2018-04-02 06:11:08,1649.6415810885374,22.7000007264,0.0,0.222932007133824,1649.6415810885374,22.7000007264,0.7199994039200001,0.336779010776928,1352,-9.2,98,P-GPS,
0.376748023160037,36.924520820593,22800,2018-04-02 06:11:08,1649.8415810949375,22.900000732800002,0.0,0.227828007290496,1649.8415810949375,22.900000732800002,0.7199994039200001,0.336779010776928,1353,-9.4,98,P-GPS,
0.37674803414267,36.9245208509908,22900,2018-04-02 06:11:08,1649.9415810981375,23.000000736000004,0.0,0.230813007386016,1649.9415810981375,23.000000736000004,0.7199994039200001,0.336779010776928,1356,-9.6,98,P-GPS,
0.376748031011987,36.9245208837198,23000,2018-04-02 06:11:08,1650.1415811045376,23.2000007424,0.0,0.234432007501824,1650.1415811045376,23.2000007424,0.7199994039200001,0.336779010776928,1359,-9.8,98,P-GPS,
0.376748052449638,36.9245208822173,23100,2018-04-02 06:11:08,1650.3415811109376,23.4000007488,0.0,0.23372000747904,1650.3415811109376,23.4000007488,0.7199994039200001,0.336779010776928,1359,-10.0,98,P-GPS,
0.376748063050401,36.92452088017,23200,2018-04-02 06:11:08,1650.5415811173375,23.6000007552,0.0,0.23323500746352002,1650.5415811173375,23.6000007552,0.7199994039200001,0.336779010776928,1360,-10.3,98,P-GPS,
0.376748095519132,36.9245208875784,23300,2018-04-02 06:11:08,1650.7415811237374,23.8000007616,0.0,0.23327000746464,1650.7415811237374,23.8000007616,0.7199994039200001,0.336779010776928,1360,-10.5,98,P-GPS,
0.376748115388591,36.9245209100893,23400,2018-04-02 06:11:09,1650.9415811301376,24.000000768000003,0.0,0.235281007528992,1650.9415811301376,24.000000768000003,0.7199994039200001,0.336779010776928,1362,-10.7,98,P-GPS,
0.376748190320628,36.9245209458631,23500,2018-04-02 06:11:09,1651.1415811365375,24.2000007744,0.0,0.23773300760745603,1651.1415811365375,24.2000007744,0.7199994039200001,0.336779010776928,1366,-10.9,98,P-GPS,
0.376748249429481,36.9245209898413,23600,2018-04-02 06:11:09,1651.3415811429375,24.400000780800003,0.0,0.241638007732416,1651.3415811429375,24.400000780800003,0.7199994039200001,0.336779010776928,1368,-11.1,98,P-GPS,
0.376748299274523,36.9245210299088,23700,2018-04-02 06:11:09,1651.5415811493374,24.600000787200003,0.0,0.24542600785363203,1651.5415811493374,24.600000787200003,0.7199994039200001,0.336779010776928,1369,-11.1,98,P-GPS,
0.376748302909617,36.924521072575,23800,2018-04-02 06:11:09,1651.7415811557375,24.800000793600002,0.0,0.25010500800336,1651.7415811557375,24.800000793600002,0.7199994039200001,0.336779010776928,1369,-11.4,98,P-GPS,
0.376748321617182,36.9245211255656,23900,2018-04-02 06:11:09,1651.9415811621375,25.000000800000002,0.0,0.25577600818483204,1651.9415811621375,25.000000800000002,0.7199994039200001,0.336779010776928,1368,-11.6,98,P-GPS,
0.37674830300651,36.9245211891395,24000,2018-04-02 06:11:09,1652.1415811685376,25.2000008064,0.0,0.26300500841616,1652.1415811685376,25.2000008064,0.7199994039200001,0.336779010776928,1368,-11.8,98,P-GPS,
0.376748322123628,36.9245212206167,24100,2018-04-02 06:11:09,1652.3415811749373,25.400000812800002,0.0,0.2663000085216,1652.3415811749373,25.400000812800002,0.7199994039200001,0.336779010776928,1369,-12.1,98,P-GPS,
0.37674832518551,36.9245212518588,24200,2018-04-02 06:11:09,1652.5415811813375,25.6000008192,0.0,0.269734008631488,1652.5415811813375,25.6000008192,0.7199994039200001,0.336779010776928,1369,-12.3,98,P-GPS,
0.376748360776375,36.9245212445375,24300,2018-04-02 06:11:09,1652.7415811877377,25.8000008256,0.0,0.268622008595904,1652.7415811877377,25.8000008256,0.7199994039200001,0.336779010776928,1369,-12.6,98,P-GPS,
0.376748367413912,36.9245212415479,24400,2018-04-02 06:11:09,1652.9415811941376,26.000000832,0.0,0.26824000858368,1652.9415811941376,26.000000832,0.7199994039200001,0.336779010776928,1370,-12.6,98,P-GPS,
0.376748397864187,36.924521228809,24500,2018-04-02 06:11:10,1653.1415812005378,26.200000838400005,0.0,0.266624008531968,1653.1415812005378,26.200000838400005,0.7199994039200001,0.336779010776928,1368,-13.2,98,P-GPS,
0.376748414613954,36.9245212178109,24600,2018-04-02 06:11:10,1653.3415812069375,26.4000008448,0.0,0.26530900848988803,1653.3415812069375,26.4000008448,0.7199994039200001,0.336779010776928,1367,-13.4,98,P-GPS,
0.376748446036817,36.9245211867196,24700,2018-04-02 06:11:10,1653.5415812133376,26.6000008512,0.0,0.26171200837478403,1653.5415812133376,26.6000008512,0.7199994039200001,0.336779010776928,1368,-13.7,98,P-GPS,
0.376748449807479,36.924521163281,24800,2018-04-02 06:11:10,1653.8415812229375,26.900000860800002,0.0,0.25909300829097603,1653.8415812229375,26.900000860800002,0.7199994039200001,0.336779010776928,1368,-14.0,98,P-GPS,
0.376748494258708,36.9245211329209,24900,2018-04-02 06:11:10,1654.0415812293375,27.100000867200002,0.0,0.25560200817926404,1654.0415812293375,27.100000867200002,0.7199994039200001,0.336779010776928,1369,-14.2,98,P-GPS,
0.376748513897335,36.9245211100081,25000,2018-04-02 06:11:10,1654.1415812325374,27.200000870400004,0.0,0.25303300809705603,1654.1415812325374,27.200000870400004,0.7199994039200001,0.336779010776928,1369,-14.4,98,P-GPS,
0.376748538285727,36.9245210782699,25100,2018-04-02 06:11:10,1654.3415812389376,27.4000008768,0.0,0.24950300798409603,1654.3415812389376,27.4000008768,0.7199994039200001,0.336779010776928,1366,-14.4,98,P-GPS,
0.376748536226966,36.924521074764,25200,2018-04-02 06:11:10,1654.5415812453375,27.600000883200003,0.0,0.249112007971584,1654.5415812453375,27.600000883200003,0.7199994039200001,0.336779010776928,1365,-14.4,98,P-GPS,
0.376748553519006,36.9245210499696,25300,2018-04-02 06:11:10,1654.7415812517377,27.8000008896,0.0,0.246371007883872,1654.7415812517377,27.8000008896,0.7199994039200001,0.336779010776928,1363,-14.4,98,P-GPS,
0.376748559142837,36.92452102245,25400,2018-04-02 06:11:11,1654.9415812581374,28.000000896,0.0,0.24331900778620802,1654.9415812581374,28.000000896,0.7199994039200001,0.336779010776928,1362,-14.4,98,P-GPS,
0.376748613957076,36.9245209469216,25500,2018-04-02 06:11:11,1655.1415812645375,28.200000902400003,0.0,0.235094007523008,1655.1415812645375,28.200000902400003,0.7199994039200001,0.336779010776928,1367,-14.4,98,P-GPS,
0.376748655077323,36.9245208730521,25600,2018-04-02 06:11:11,1655.3415812709375,28.4000009088,0.0,0.227129007268128,1655.3415812709375,28.4000009088,0.7199994039200001,0.336779010776928,1376,-14.4,98,P-GPS,
0.376748694231223,36.9245207776032,25700,2018-04-02 06:11:11,1655.5415812773376,28.600000915200003,0.0,0.21686800693977604,1655.5415812773376,28.600000915200003,0.7199994039200001,0.336779010776928,1374,-14.5,98,P-GPS,
0.376748702008672,36.9245207178319,25800,2018-04-02 06:11:11,1655.7415812837373,28.800000921600002,0.0,0.2103250067304,1655.7415812837373,28.800000921600002,0.7199994039200001,0.336779010776928,1374,-14.5,98,P-GPS,
0.376748743188357,36.9245206632263,25900,2018-04-02 06:11:11,1655.9415812901375,29.000000928000002,0.0,0.20476800655257602,1655.9415812901375,29.000000928000002,0.7199994039200001,0.336779010776928,1374,-14.6,98,P-GPS,
0.376748763401621,36.9245206421711,26000,2018-04-02 06:11:11,1656.1415812965374,29.200000934400002,0.0,0.20272300648713598,1656.1415812965374,29.200000934400002,0.7199994039200001,0.336779010776928,1376,-14.7,98,P-GPS,
0.376748784491396,36.9245206085785,26100,2018-04-02 06:11:11,1656.3415813029376,29.4000009408,0.0,0.199344006379008,1656.3415813029376,29.4000009408,0.7199994039200001,0.336779010776928,1375,-14.7,98,P-GPS,
0.376748774590456,36.9245205928409,26200,2018-04-02 06:11:11,1656.5415813093373,29.6000009472,0.0,0.19745500631856003,1656.5415813093373,29.6000009472,0.7199994039200001,0.336779010776928,1375,-14.8,98,P-GPS,
0.376748796719993,36.9245205524883,26300,2018-04-02 06:11:11,1656.7415813157374,29.8000009536,0.0,0.19338000618815998,1656.7415813157374,29.8000009536,0.7199994039200001,0.336779010776928,1375,-14.9,98,P-GPS,
0.37674880171443,36.924520524513,26400,2018-04-02 06:11:11,1656.9415813221374,30.00000096,0.0,0.19039600609267202,1656.9415813221374,30.00000096,0.7199994039200001,0.336779010776928,1374,-15.0,98,P-GPS,
0.376748817530285,36.9245204683247,26500,2018-04-02 06:11:12,1657.1415813285375,30.2000009664,0.0,0.184532005905024,1657.1415813285375,30.2000009664,0.7199994039200001,0.336779010776928,1374,-15.0,98,P-GPS,
0.37674880070622,36.924520434957,26600,2018-04-02 06:11:12,1657.3415813349377,30.400000972800004,0.0,0.180554005777728,1657.3415813349377,30.400000972800004,0.7199994039200001,0.336779010776928,1374,-15.1,98,P-GPS,
0.376748796796122,36.9245204061129,26700,2018-04-02 06:11:12,1657.5415813413374,30.6000009792,0.0,0.17732000567424,1657.5415813413374,30.6000009792,0.7199994039200001,0.336779010776928,1377,-15.3,98,P-GPS,
0.376748768374686,36.9245204132813,26800,2018-04-02 06:11:12,1657.7415813477376,30.8000009856,0.0,0.177599005683168,1657.7415813477376,30.8000009856,0.7199994039200001,0.336779010776928,1369,-15.4,98,P-GPS,
0.376748761982229,36.9245203994529,26900,2018-04-02 06:11:12,1657.9415813541375,31.000000992,0.0,0.17597200563110402,1657.9415813541375,31.000000992,0.7199994039200001,0.336779010776928,1365,-15.4,97,P-GPS,
0.37674874044911,36.9245203944841,27000,2018-04-02 06:11:12,1658.1415813605377,31.2000009984,0.0,0.175084005602688,1658.1415813605377,31.2000009984,0.7199994039200001,0.336779010776928,1369,-15.4,97,P-GPS,
0.376748750878276,36.924520340398,27100,2018-04-02 06:11:12,1658.3415813669376,31.400001004800004,0.0,0.16929400541740802,1658.3415813669376,31.400001004800004,0.7199994039200001,0.336779010776928,1363,-15.4,97,P-GPS,
0.376748741681232,36.9245202985551,27200,2018-04-02 06:11:12,1658.5415813733375,31.6000010112,0.0,0.16454200526534402,1658.5415813733375,31.6000010112,0.7199994039200001,0.336779010776928,1362,-15.4,97,P-GPS,
0.376748734310691,36.9245202436447,27300,2018-04-02 06:11:12,1658.7415813797375,31.800001017600003,0.0,0.158381005068192,1658.7415813797375,31.800001017600003,0.7199994039200001,0.336779010776928,1363,-15.4,97,P-GPS,
0.376748697083036,36.9245202178207,27400,2018-04-02 06:11:12,1658.9415813861376,32.000001024,0.0,0.15498000495936,1658.9415813861376,32.000001024,0.7199994039200001,0.336779010776928,1367,-15.4,97,P-GPS,
0.376748683619468,36.9245201755572,27500,2018-04-02 06:11:13,1659.1415813925375,32.2000010304,0.0,0.15013500480432,1659.1415813925375,32.2000010304,0.7199994039200001,0.336779010776928,1369,-15.4,97,P-GPS,
0.37674866287187,36.9245201535583,27600,2018-04-02 06:11:13,1659.2415813957373,32.3000010336,0.0,0.1474500047184,1659.2415813957373,32.3000010336,0.7199994039200001,0.336779010776928,1375,-15.4,97,P-GPS,
0.376748701465382,36.9245201318292,27700,2018-04-02 06:11:13,1659.4415814021374,32.50000104,0.0,0.145558004657856,1659.4415814021374,32.50000104,0.7199994039200001,0.336779010776928,1376,-15.4,97,P-GPS,
0.376748724293724,36.9245201412785,27800,2018-04-02 06:11:13,1659.6415814085376,32.700001046400004,0.0,0.14695800470265602,1659.6415814085376,32.700001046400004,0.7199994039200001,0.336779010776928,1381,-15.4,97,P-GPS,
0.37674877733988,36.9245201155592,27900,2018-04-02 06:11:13,1659.9415814181375,33.000001056,0.0,0.145148004644736,1659.9415814181375,33.000001056,0.7199994039200001,0.336779010776928,1382,-15.4,97,P-GPS,
0.376748793448856,36.9245201011216,28000,2018-04-02 06:11:13,1660.1415814245377,33.200001062400005,0.0,0.143932004605824,1660.1415814245377,33.200001062400005,0.7199994039200001,0.336779010776928,1385,-15.4,97,P-GPS,
0.376748816536527,36.9245200701479,28100,2018-04-02 06:11:13,1660.3415814309374,33.4000010688,0.0,0.141128004516096,1660.3415814309374,33.4000010688,0.7199994039200001,0.336779010776928,1387,-15.4,97,P-GPS,
0.376748815748564,36.9245200524324,28200,2018-04-02 06:11:13,1660.5415814373375,33.600001075200005,0.0,0.13919000445408,1660.5415814373375,33.600001075200005,0.7199994039200001,0.336779010776928,1381,-15.4,97,P-GPS,
0.376748827595901,36.924520027969,28300,2018-04-02 06:11:13,1660.7415814437375,33.8000010816,0.0,0.136862004379584,1660.7415814437375,33.8000010816,0.7199994039200001,0.336779010776928,1382,-15.4,97,P-GPS,
0.376748817139866,36.924520024084,28400,2018-04-02 06:11:13,1660.9415814501376,34.000001088,0.0,0.136162004357184,1660.9415814501376,34.000001088,0.7199994039200001,0.336779010776928,1384,-15.4,97,P-GPS,
0.376748826653236,36.9245200132022,28500,2018-04-02 06:11:14,1661.1415814565373,34.2000010944,0.0,0.135244004327808,1661.1415814565373,34.2000010944,0.7199994039200001,0.336779010776928,1387,-15.4,97,P-GPS,
0.376748816226716,36.9245200183152,28600,2018-04-02 06:11:14,1661.3415814629375,34.4000011008,0.0,0.13551500433648,1661.3415814629375,34.4000011008,0.7199994039200001,0.336779010776928,1388,-15.4,97,P-GPS,
0.376748825833721,36.9245200400209,28700,2018-04-02 06:11:14,1661.5415814693374,34.6000011072,0.0,0.138114004419648,1661.5415814693374,34.6000011072,0.7199994039200001,0.336779010776928,1398,-15.4,97,P-GPS,
0.376748815688719,36.9245200719742,28800,2018-04-02 06:11:14,1661.7415814757376,34.800001113600004,0.0,0.141304004521728,1661.7415814757376,34.800001113600004,0.7199994039200001,0.336779010776928,1397,-15.4,97,P-GPS,
0.376748821413921,36.9245200977839,28900,2018-04-02 06:11:14,1661.9415814821377,35.00000112,0.0,0.14424400461580802,1661.9415814821377,35.00000112,0.7199994039200001,0.336779010776928,1397,-15.4,97,P-GPS,
0.376748803954151,36.9245201394606,29000,2018-04-02 06:11:14,1662.2415814917374,35.300001129600005,0.0,0.14834500474704002,1662.2415814917374,35.300001129600005,0.7199994039200001,0.336779010776928,1397,-15.4,97,P-GPS,
0.376748805750122,36.9245201709816,29100,2018-04-02 06:11:14,1662.4415814981376,35.500001136,0.0,0.151816004858112,1662.4415814981376,35.500001136,0.7199994039200001,0.336779010776928,1397,-15.4,97,P-GPS,
0.376748799142506,36.9245201961141,29200,2018-04-02 06:11:14,1662.6415815045375,35.700001142400005,0.0,0.154407004941024,1662.6415815045375,35.700001142400005,0.7199994039200001,0.336779010776928,1401,-15.4,97,P-GPS,
0.376748823631658,36.9245201868704,29300,2018-04-02 06:11:14,1662.8415815109377,35.9000011488,0.0,0.15396000492672,1662.8415815109377,35.9000011488,0.7199994039200001,0.336779010776928,1403,-15.4,97,P-GPS,
0.376748834421321,36.9245201846364,29400,2018-04-02 06:11:14,1663.1415815205376,36.2000011584,0.0,0.15398000492736003,1663.1415815205376,36.2000011584,0.7199994039200001,0.336779010776928,1394,-15.4,97,P-GPS,
