latitude,longitude,time_millisecond,datetime_utc,altitude_m,ascent_m,speed_kph,distance_m,max_altitude_m,max_ascent_m,max_speed_kph,max_distance_m,rc_throttle,gimbal_pitch_degrees,battery_percent,flycState,message
0.0,0.0,100,2017-11-02 07:19:50,1785.397029832713,0.0,0.35999970196000003,0.0,1785.397029832713,0.0,0.0,0.0,1024,0.0,98,Motors_Started,
0.0,0.0,200,2017-11-02 07:19:50,1785.397029832713,0.0,0.35999970196000003,0.0,1785.397029832713,0.0,0.0,0.0,1024,0.0,98,Motors_Started,
0.0,0.0,300,2017-11-02 07:19:50,1785.397029832713,0.0,0.35999970196000003,0.0,1785.397029832713,0.0,0.0,0.0,1024,0.0,98,Motors_Started,
0.0,0.0,400,2017-11-02 07:19:50,1785.397029832713,0.0,0.35999970196000003,0.0,1785.397029832713,0.0,0.0,0.0,1024,0.0,98,Motors_Started,
0.0,0.0,500,2017-11-02 07:19:50,1785.397029832713,0.0,0.35999970196000003,0.0,1785.397029832713,0.0,0.0,0.0,1024,0.0,98,Motors_Started,
0.0,0.0,600,2017-11-02 07:19:51,1785.397029832713,0.0,0.35999970196000003,0.0,1785.397029832713,0.0,0.0,0.0,1024,0.0,98,Motors_Started,Setting new Return-To-Home altitude to 30m (98 ft). Setting new Maximum Flight Altitude to 8m (26 ft)
0.0,0.0,700,2017-11-02 07:19:51,1785.397029832713,0.0,0.35999970196000003,0.0,1785.397029832713,0.0,0.0,0.0,1024,0.0,98,Motors_Started,
0.0,0.0,800,2017-11-02 07:19:51,1785.397029832713,0.0,0.35999970196000003,0.0,1785.397029832713,0.0,0.0,0.0,1024,0.0,98,Motors_Started,
0.0,0.0,900,2017-11-02 07:19:51,1785.397029832713,0.0,0.35999970196000003,0.0,1785.397029832713,0.0,0.0,0.0,1024,0.0,98,Motors_Started,
0.0,0.0,1000,2017-11-02 07:19:51,1785.397029832713,0.0,0.35999970196000003,0.0,1785.397029832713,0.0,0.0,0.0,1024,0.0,98,Motors_Started,
0.0,0.0,1100,2017-11-02 07:19:51,1785.397029832713,0.0,0.35999970196000003,0.0,1785.397029832713,0.0,0.0,0.0,1024,0.0,98,Motors_Started,
0.0,0.0,1200,2017-11-02 07:19:51,1785.397029832713,0.0,0.35999970196000003,0.0,1785.397029832713,0.0,0.0,0.0,1024,0.0,98,Motors_Started,
0.0,0.0,1300,2017-11-02 07:19:51,1785.397029832713,0.0,0.35999970196000003,0.0,1785.397029832713,0.0,0.0,0.0,1024,0.0,98,Motors_Started,
0.0,0.0,1400,2017-11-02 07:19:51,1785.397029832713,0.0,0.35999970196000003,0.0,1785.397029832713,0.0,0.0,0.0,1024,0.0,98,Motors_Started,
0.0,0.0,1500,2017-11-02 07:19:51,1785.397029832713,0.0,0.35999970196000003,0.0,1785.397029832713,0.0,0.0,0.0,1024,0.0,98,Motors_Started,
0.0,0.0,1600,2017-11-02 07:19:52,1785.397029832713,0.0,0.35999970196000003,0.0,1785.397029832713,0.0,0.0,0.0,1024,0.0,98,Assisted_Takeoff,
0.0,0.0,1700,2017-11-02 07:19:52,1785.397029832713,0.0,0.35999970196000003,0.0,1785.397029832713,0.0,0.0,0.0,364,0.0,98,Assisted_Takeoff,
0.0,0.0,1800,2017-11-02 07:19:52,1785.397029832713,0.0,0.35999970196000003,0.0,1785.397029832713,0.0,0.0,0.0,544,0.0,98,Assisted_Takeoff,
0.0,0.0,1900,2017-11-02 07:19:52,1785.397029832713,0.0,0.8063993323904,0.0,1785.397029832713,0.0,0.0,0.0,544,0.0,98,Assisted_Takeoff,
0.0,0.0,2000,2017-11-02 07:19:52,1785.397029832713,0.0,0.8063993323904,0.0,1785.397029832713,0.0,0.0,0.0,1024,0.0,98,Assisted_Takeoff,
0.0,0.0,2100,2017-11-02 07:19:52,1785.397029832713,0.0,0.35999970196000003,0.0,1785.397029832713,0.0,0.0,0.0,1024,0.0,98,Assisted_Takeoff,
0.0,0.0,2200,2017-11-02 07:19:52,1785.397029832713,0.0,0.35999970196000003,0.0,1785.397029832713,0.0,0.0,0.0,1024,0.0,98,Assisted_Takeoff,
0.0,0.0,2300,2017-11-02 07:19:52,1785.397029832713,0.0,0.0,0.0,1785.397029832713,0.0,0.0,0.0,1024,0.0,98,Assisted_Takeoff,
0.0,0.0,2400,2017-11-02 07:19:52,1785.397029832713,0.0,0.35999970196000003,0.0,1785.397029832713,0.0,0.0,0.0,1024,0.0,98,Assisted_Takeoff,
0.0,0.0,2500,2017-11-02 07:19:52,1785.397029832713,0.0,0.35999970196000003,0.0,1785.397029832713,0.0,0.0,0.0,1024,0.0,98,Assisted_Takeoff,
0.0,0.0,2600,2017-11-02 07:19:53,1785.397029832713,0.0,0.5075995797636,0.0,1785.397029832713,0.0,0.0,0.0,1024,0.0,98,Assisted_Takeoff,
0.0,0.0,2700,2017-11-02 07:19:53,1785.397029832713,0.0,0.5075995797636,0.0,1785.397029832713,0.0,0.0,0.0,1024,0.0,98,Assisted_Takeoff,
0.0,0.0,2800,2017-11-02 07:19:53,1785.397029832713,0.0,0.5075995797636,0.0,1785.397029832713,0.0,0.0,0.0,1024,0.0,98,Assisted_Takeoff,
0.0,0.0,2900,2017-11-02 07:19:53,1785.397029832713,0.0,0.35999970196000003,0.0,1785.397029832713,0.0,0.0,0.0,1024,0.0,98,Assisted_Takeoff,
0.0,0.0,3000,2017-11-02 07:19:53,1785.397029832713,0.0,0.35999970196000003,0.0,1785.397029832713,0.0,0.0,0.0,1024,0.0,98,Assisted_Takeoff,
0.0,0.0,3100,2017-11-02 07:19:53,1785.397029832713,0.0,0.35999970196000003,0.0,1785.397029832713,0.0,0.0,0.0,1024,0.0,98,Assisted_Takeoff,
0.0,0.0,3200,2017-11-02 07:19:53,1785.397029832713,0.0,0.35999970196000003,0.0,1785.397029832713,0.0,0.0,0.0,1024,0.0,98,Assisted_Takeoff,
0.0,0.0,3300,2017-11-02 07:19:53,1785.397029832713,0.0,0.7199994039200001,0.0,1785.397029832713,0.0,0.0,0.0,1024,0.0,98,Assisted_Takeoff,
0.0,0.0,3400,2017-11-02 07:19:53,1785.397029832713,0.0,0.7199994039200001,0.0,1785.397029832713,0.0,0.0,0.0,1024,0.0,98,Assisted_Takeoff,
0.0,0.0,3500,2017-11-02 07:19:53,1785.397029832713,0.0,0.7199994039200001,0.0,1785.397029832713,0.0,0.0,0.0,1024,0.0,98,Assisted_Takeoff,
0.0,0.0,3600,2017-11-02 07:19:54,1785.397029832713,0.0,0.7199994039200001,0.0,1785.397029832713,0.0,0.0,0.0,1024,0.0,98,Assisted_Takeoff,
0.0,0.0,3700,2017-11-02 07:19:54,1785.397029832713,0.0,0.35999970196000003,0.0,1785.397029832713,0.0,0.0,0.0,1024,0.0,98,Assisted_Takeoff,
0.0,0.0,3800,2017-11-02 07:19:54,1785.397029832713,0.0,0.0,0.0,1785.397029832713,0.0,0.0,0.0,1024,0.0,98,Assisted_Takeoff,
0.0,0.0,3900,2017-11-02 07:19:54,1785.397029832713,0.0,0.0,0.0,1785.397029832713,0.0,0.0,0.0,1024,0.0,98,Assisted_Takeoff,
0.0,0.0,4000,2017-11-02 07:19:54,1785.397029832713,0.0,0.35999970196000003,0.0,1785.397029832713,0.0,0.0,0.0,1024,0.0,98,Assisted_Takeoff,
0.0,0.0,4100,2017-11-02 07:19:54,1785.397029832713,0.0,0.7199994039200001,0.0,1785.397029832713,0.0,0.0,0.0,1024,0.0,98,Assisted_Takeoff,
0.0,0.0,4200,2017-11-02 07:19:54,1785.397029832713,0.0,0.5075995797636,0.0,1785.397029832713,0.0,0.0,0.0,1024,0.0,98,Assisted_Takeoff,
0.0,0.0,4300,2017-11-02 07:19:54,1785.397029832713,0.0,0.35999970196000003,0.0,1785.397029832713,0.0,0.0,0.0,1024,0.0,98,Assisted_Takeoff,
0.0,0.0,4400,2017-11-02 07:19:54,1785.397029832713,0.0,0.35999970196000003,0.0,1785.397029832713,0.0,0.0,0.0,1024,0.0,98,Assisted_Takeoff,
0.0,0.0,4500,2017-11-02 07:19:54,1785.397029832713,0.0,0.35999970196000003,0.0,1785.397029832713,0.0,0.0,0.0,1024,0.0,98,Assisted_Takeoff,
0.0,0.0,4600,2017-11-02 07:19:55,1785.397029832713,0.0,0.7199994039200001,0.0,1785.397029832713,0.0,0.0,0.0,1024,0.0,98,Assisted_Takeoff,
0.0,0.0,4700,2017-11-02 07:19:55,1785.397029832713,0.0,0.7199994039200001,0.0,1785.397029832713,0.0,0.0,0.0,1024,0.0,98,Assisted_Takeoff,
0.0,0.0,4800,2017-11-02 07:19:55,1785.397029832713,0.0,0.7199994039200001,0.0,1785.397029832713,0.0,0.0,0.0,1024,0.0,98,Assisted_Takeoff,
0.0,0.0,4900,2017-11-02 07:19:55,1785.397029832713,0.0,0.35999970196000003,0.0,1785.397029832713,0.0,0.0,0.0,1024,0.0,98,Assisted_Takeoff,
0.0,0.0,5000,2017-11-02 07:19:55,1785.397029832713,0.0,0.35999970196000003,0.0,1785.397029832713,0.0,0.0,0.0,1024,0.0,98,Assisted_Takeoff,
0.0,0.0,5100,2017-11-02 07:19:55,1785.397029832713,0.0,0.35999970196000003,0.0,1785.397029832713,0.0,0.0,0.0,1024,0.0,98,Assisted_Takeoff,
0.0,0.0,5200,2017-11-02 07:19:55,1785.397029832713,0.0,0.35999970196000003,0.0,1785.397029832713,0.0,0.0,0.0,1024,0.0,98,Assisted_Takeoff,
0.0,0.0,5300,2017-11-02 07:19:55,1785.397029832713,0.0,0.35999970196000003,0.0,1785.397029832713,0.0,0.0,0.0,1024,0.0,98,Assisted_Takeoff,
0.0,0.0,5400,2017-11-02 07:19:55,1785.397029832713,0.0,0.7199994039200001,0.0,1785.397029832713,0.0,0.0,0.0,1024,0.0,98,Assisted_Takeoff,
0.0,0.0,5500,2017-11-02 07:19:55,1785.397029832713,0.0,0.7199994039200001,0.0,1785.397029832713,0.0,0.0,0.0,1024,0.0,98,Assisted_Takeoff,
0.0,0.0,5600,2017-11-02 07:19:56,1785.397029832713,0.0,0.7199994039200001,0.0,1785.397029832713,0.0,0.0,0.0,1024,0.0,98,Assisted_Takeoff,
0.0,0.0,5700,2017-11-02 07:19:56,1785.397029832713,0.0,0.35999970196000003,0.0,1785.397029832713,0.0,0.0,0.0,1024,0.0,98,Assisted_Takeoff,
0.0,0.0,5800,2017-11-02 07:19:56,1785.397029832713,0.0,0.35999970196000003,0.0,1785.397029832713,0.0,0.0,0.0,1024,0.0,98,Assisted_Takeoff,
0.0,0.0,5900,2017-11-02 07:19:56,1785.397029832713,0.0,0.0,0.0,1785.397029832713,0.0,0.0,0.0,1024,0.0,98,Assisted_Takeoff,
0.0,0.0,6000,2017-11-02 07:19:56,1785.397029832713,0.0,0.35999970196000003,0.0,1785.397029832713,0.0,0.0,0.0,1024,0.0,98,Assisted_Takeoff,
0.0,0.0,6100,2017-11-02 07:19:56,1785.397029832713,0.0,0.35999970196000003,0.0,1785.397029832713,0.0,0.0,0.0,1024,0.0,98,Assisted_Takeoff,
0.0,0.0,6200,2017-11-02 07:19:56,1785.397029832713,0.0,0.35999970196000003,0.0,1785.397029832713,0.0,0.0,0.0,1024,0.0,98,Assisted_Takeoff,
0.0,0.0,6300,2017-11-02 07:19:56,1785.397029832713,0.0,0.35999970196000003,0.0,1785.397029832713,0.0,0.0,0.0,1024,0.0,98,Assisted_Takeoff,
0.0,0.0,6400,2017-11-02 07:19:56,1785.397029832713,0.0,0.35999970196000003,0.0,1785.397029832713,0.0,0.0,0.0,1024,0.0,98,Assisted_Takeoff,
0.0,0.0,6500,2017-11-02 07:19:56,1785.397029832713,0.0,0.0,0.0,1785.397029832713,0.0,0.0,0.0,1024,0.0,98,Assisted_Takeoff,
0.0,0.0,6600,2017-11-02 07:19:57,1785.397029832713,0.0,0.0,0.0,1785.397029832713,0.0,0.0,0.0,1024,0.0,98,Assisted_Takeoff,
0.0,0.0,6700,2017-11-02 07:19:57,1785.397029832713,0.0,0.0,0.0,1785.397029832713,0.0,0.0,0.0,1024,0.0,98,Assisted_Takeoff,
0.0,0.0,6800,2017-11-02 07:19:57,1785.397029832713,0.0,0.0,0.0,1785.397029832713,0.0,0.0,0.0,1024,0.0,98,Assisted_Takeoff,
0.0,0.0,6900,2017-11-02 07:19:57,1785.397029832713,0.0,0.0,0.0,1785.397029832713,0.0,0.0,0.0,1024,0.0,98,Assisted_Takeoff,
0.0,0.0,7000,2017-11-02 07:19:57,1785.397029832713,0.0,0.0,0.0,1785.397029832713,0.0,0.0,0.0,1024,0.0,98,Assisted_Takeoff,
0.0,0.0,7100,2017-11-02 07:19:57,1785.397029832713,0.0,0.35999970196000003,0.0,1785.397029832713,0.0,0.0,0.0,1024,0.0,98,Assisted_Takeoff,
0.0,0.0,7200,2017-11-02 07:19:57,1785.397029832713,0.0,0.35999970196000003,0.0,1785.397029832713,0.0,0.0,0.0,1024,0.0,98,Assisted_Takeoff,
0.0,0.0,7300,2017-11-02 07:19:57,1785.397029832713,0.0,0.35999970196000003,0.0,1785.397029832713,0.0,0.0,0.0,1024,0.0,98,Assisted_Takeoff,
0.0,0.0,7400,2017-11-02 07:19:57,1785.397029832713,0.0,0.35999970196000003,0.0,1785.397029832713,0.0,0.0,0.0,1024,0.0,98,Assisted_Takeoff,
0.0,0.0,7500,2017-11-02 07:19:57,1785.397029832713,0.0,0.35999970196000003,0.0,1785.397029832713,0.0,0.0,0.0,1024,0.0,98,Assisted_Takeoff,
0.0,0.0,7600,2017-11-02 07:19:58,1785.397029832713,0.0,0.0,0.0,1785.397029832713,0.0,0.0,0.0,1024,0.0,98,Assisted_Takeoff,
0.0,0.0,7800,2017-11-02 07:19:58,1785.397029832713,0.0,0.0,0.0,1785.397029832713,0.0,0.0,0.0,1024,0.0,98,Assisted_Takeoff,
0.0,0.0,7900,2017-11-02 07:19:58,1785.397029832713,0.0,0.0,0.0,1785.397029832713,0.0,0.0,0.0,1024,0.0,98,Assisted_Takeoff,
0.0,0.0,8000,2017-11-02 07:19:58,1785.397029832713,0.0,0.0,0.0,1785.397029832713,0.0,0.0,0.0,1024,0.0,98,Assisted_Takeoff,
0.0,0.0,8100,2017-11-02 07:19:58,1785.397029832713,0.0,0.35999970196000003,0.0,1785.397029832713,0.0,0.0,0.0,1024,0.0,98,Assisted_Takeoff,
0.0,0.0,8200,2017-11-02 07:19:58,1785.397029832713,0.0,0.35999970196000003,0.0,1785.397029832713,0.0,0.0,0.0,1024,0.0,98,Assisted_Takeoff,
0.0,0.0,8300,2017-11-02 07:19:58,1785.397029832713,0.0,0.35999970196000003,0.0,1785.397029832713,0.0,0.0,0.0,1024,0.0,98,Assisted_Takeoff,
0.0,0.0,8400,2017-11-02 07:19:58,1785.397029832713,0.0,0.35999970196000003,0.0,1785.397029832713,0.0,0.0,0.0,1024,0.0,98,Assisted_Takeoff,
0.0,0.0,8500,2017-11-02 07:19:58,1785.397029832713,0.0,0.35999970196000003,0.0,1785.397029832713,0.0,0.0,0.0,1024,0.0,98,Assisted_Takeoff,
0.0,0.0,8600,2017-11-02 07:19:59,1785.397029832713,0.0,0.35999970196000003,0.0,1785.397029832713,0.0,0.0,0.0,1024,0.0,98,Assisted_Takeoff,
0.0,0.0,8700,2017-11-02 07:19:59,1785.397029832713,0.0,0.35999970196000003,0.0,1785.397029832713,0.0,0.0,0.0,1024,0.0,98,Assisted_Takeoff,
0.0,0.0,8800,2017-11-02 07:19:59,1785.397029832713,0.0,0.35999970196000003,0.0,1785.397029832713,0.0,0.0,0.0,1024,0.0,98,Assisted_Takeoff,
0.0,0.0,8900,2017-11-02 07:19:59,1785.397029832713,0.0,0.35999970196000003,0.0,1785.397029832713,0.0,0.0,0.0,1024,0.0,98,Assisted_Takeoff,
0.0,0.0,9000,2017-11-02 07:19:59,1785.397029832713,0.0,0.35999970196000003,0.0,1785.397029832713,0.0,0.0,0.0,1024,0.0,98,Assisted_Takeoff,
0.0,0.0,9100,2017-11-02 07:19:59,1785.397029832713,0.0,0.35999970196000003,0.0,1785.397029832713,0.0,0.0,0.0,1024,0.0,98,Assisted_Takeoff,
0.0,0.0,9200,2017-11-02 07:19:59,1785.397029832713,0.0,0.35999970196000003,0.0,1785.397029832713,0.0,0.0,0.0,1024,0.0,98,Assisted_Takeoff,
0.0,0.0,9300,2017-11-02 07:19:59,1785.397029832713,0.0,0.35999970196000003,0.0,1785.397029832713,0.0,0.0,0.0,1024,0.0,98,Assisted_Takeoff,
0.0,0.0,9400,2017-11-02 07:19:59,1785.397029832713,0.0,0.35999970196000003,0.0,1785.397029832713,0.0,0.35999970196000003,0.0,1024,0.0,98,Assisted_Takeoff,
0.0,0.0,9500,2017-11-02 07:19:59,1785.397029832713,0.0,0.35999970196000003,0.0,1785.397029832713,0.0,0.35999970196000003,0.0,1024,0.0,98,Assisted_Takeoff,
0.0,0.0,9600,2017-11-02 07:20:00,1785.397029832713,0.0,0.35999970196000003,0.0,1785.397029832713,0.0,0.35999970196000003,0.0,1024,0.0,98,Assisted_Takeoff,
0.0,0.0,9700,2017-11-02 07:20:00,1785.397029832713,0.0,0.0,0.0,1785.397029832713,0.0,0.35999970196000003,0.0,1024,0.0,98,Assisted_Takeoff,
0.0,0.0,9800,2017-11-02 07:20:00,1785.397029832713,0.0,0.0,0.0,1785.397029832713,0.0,0.35999970196000003,0.0,1024,0.0,98,Assisted_Takeoff,
0.0,0.0,9900,2017-11-02 07:20:00,1785.397029832713,0.0,0.0,0.0,1785.397029832713,0.0,0.35999970196000003,0.0,1024,0.0,98,Assisted_Takeoff,
0.0,0.0,10000,2017-11-02 07:20:00,1785.397029832713,0.0,0.35999970196000003,0.0,1785.397029832713,0.0,0.35999970196000003,0.0,1024,0.0,98,Assisted_Takeoff,
0.0,0.0,10100,2017-11-02 07:20:00,1785.397029832713,0.0,0.35999970196000003,0.0,1785.397029832713,0.0,0.35999970196000003,0.0,1024,0.0,98,Assisted_Takeoff,
0.0,0.0,10200,2017-11-02 07:20:00,1785.397029832713,0.0,0.0,0.0,1785.397029832713,0.0,0.35999970196000003,0.0,1024,0.0,98,Assisted_Takeoff,
0.0,0.0,10300,2017-11-02 07:20:00,1785.397029832713,0.0,0.0,0.0,1785.397029832713,0.0,0.35999970196000003,0.0,1024,0.0,98,Assisted_Takeoff,
0.0,0.0,10400,2017-11-02 07:20:00,1785.397029832713,0.0,0.0,0.0,1785.397029832713,0.0,0.35999970196000003,0.0,1024,0.0,98,Assisted_Takeoff,
0.0,0.0,10500,2017-11-02 07:20:00,1785.397029832713,0.0,0.0,0.0,1785.397029832713,0.0,0.35999970196000003,0.0,1037,0.0,98,Assisted_Takeoff,
0.0,0.0,10600,2017-11-02 07:20:01,1785.397029832713,0.0,0.0,0.0,1785.397029832713,0.0,0.35999970196000003,0.0,1070,0.0,98,Assisted_Takeoff,
0.0,0.0,10700,2017-11-02 07:20:01,1785.397029832713,0.0,0.35999970196000003,0.0,1785.397029832713,0.0,0.35999970196000003,0.0,1380,0.0,98,Assisted_Takeoff,
0.0,0.0,10800,2017-11-02 07:20:01,1785.397029832713,0.0,0.0,0.0,1785.397029832713,0.0,0.35999970196000003,0.0,1684,0.0,98,Assisted_Takeoff,
0.0,0.0,10900,2017-11-02 07:20:01,1785.397029832713,0.0,0.0,0.0,1785.397029832713,0.0,0.35999970196000003,0.0,1684,0.0,98,Assisted_Takeoff,
0.0,0.0,11000,2017-11-02 07:20:01,1785.397029832713,0.0,0.0,0.0,1785.397029832713,0.0,0.35999970196000003,0.0,1684,0.0,98,Assisted_Takeoff,
0.0,0.0,11100,2017-11-02 07:20:01,1785.397029832713,0.0,0.0,0.0,1785.397029832713,0.0,0.35999970196000003,0.0,1684,0.0,98,Assisted_Takeoff,
0.0,0.0,11200,2017-11-02 07:20:01,1785.397029832713,0.0,0.0,0.0,1785.397029832713,0.0,0.35999970196000003,0.0,1684,0.0,98,Assisted_Takeoff,
0.0,0.0,11300,2017-11-02 07:20:01,1785.397029832713,0.0,0.7199994039200001,0.0,1785.397029832713,0.0,0.7199994039200001,0.0,1684,0.0,98,Assisted_Takeoff,
0.0,0.0,11400,2017-11-02 07:20:01,1785.397029832713,0.0,1.7999985098000002,0.0,1785.397029832713,0.0,1.7999985098000002,0.0,1684,0.0,98,GPS_Atti,
0.0,0.0,11500,2017-11-02 07:20:01,1785.397029832713,0.0,2.51999791372,0.0,1785.397029832713,0.0,2.51999791372,0.0,1684,0.0,98,GPS_Atti,Obstacle Avoided. Revise Flight Route
0.0,0.0,11600,2017-11-02 07:20:02,1785.497029835913,0.10000000320000002,3.2399973176400003,0.0,1785.497029835913,0.10000000320000002,3.2399973176400003,0.0,1684,0.0,98,GPS_Atti,Setting new Maximum Flight Altitude to 30m (98 ft)
0.0,0.0,11700,2017-11-02 07:20:02,1785.5970298391132,0.20000000640000004,3.9599967215600005,0.0,1785.5970298391132,0.20000000640000004,3.9599967215600005,0.0,1684,0.0,98,GPS_Atti,
0.0,0.0,11800,2017-11-02 07:20:02,1785.7970298455132,0.4000000128000001,3.977996706658,0.0,1785.7970298455132,0.4000000128000001,3.977996706658,0.0,1684,0.0,98,GPS_Atti,
0.0,0.0,11900,2017-11-02 07:20:02,1786.097029855113,0.7000000224000001,4.0247966679128,0.0,1786.097029855113,0.7000000224000001,4.0247966679128,0.0,1684,0.0,98,GPS_Atti,
0.0,0.0,12000,2017-11-02 07:20:02,1786.3970298647132,1.000000032,3.6719969599919997,0.0,1786.3970298647132,1.000000032,4.0247966679128,0.0,1684,0.0,98,GPS_Atti,
0.0,0.0,12100,2017-11-02 07:20:02,1786.6970298743133,1.3000000416000002,3.2183973355224,0.0,1786.6970298743133,1.3000000416000002,4.0247966679128,0.0,1684,0.0,98,GPS_Atti,
0.0,0.0,12200,2017-11-02 07:20:02,1786.997029883913,1.6000000512000003,3.3191972520712003,0.0,1786.997029883913,1.6000000512000003,4.0247966679128,0.0,1684,0.0,98,GPS_Atti,
0.0,0.0,12300,2017-11-02 07:20:02,1787.397029896713,2.000000064,3.3191972520712003,0.0,1787.397029896713,2.000000064,4.0247966679128,0.0,1684,0.0,98,GPS_Atti,
0.0,0.0,12400,2017-11-02 07:20:02,1787.8970299127132,2.50000008,3.0743974547383996,0.0,1787.8970299127132,2.50000008,4.0247966679128,0.0,1684,0.0,98,GPS_Atti,
0.0,0.0,12500,2017-11-02 07:20:02,1788.3970299287132,3.0000000960000004,3.2615972997575997,0.0,1788.3970299287132,3.0000000960000004,4.0247966679128,0.0,1684,0.0,98,GPS_Atti,
0.0,0.0,12600,2017-11-02 07:20:03,1788.897029944713,3.500000112,3.2615972997575997,0.0,1788.897029944713,3.500000112,4.0247966679128,0.0,1684,0.0,98,GPS_Atti,
0.0,0.0,12700,2017-11-02 07:20:03,1789.3970299607133,4.000000128,2.96999754117,0.0,1789.3970299607133,4.000000128,4.0247966679128,0.0,1684,0.0,98,GPS_Atti,
0.0,0.0,12800,2017-11-02 07:20:03,1789.8970299767132,4.5000001439999995,2.96999754117,0.0,1789.8970299767132,4.5000001439999995,4.0247966679128,0.0,1684,0.0,98,GPS_Atti,
0.0,0.0,12900,2017-11-02 07:20:03,1790.4970299959132,5.1000001632,3.0743974547383996,0.0,1790.4970299959132,5.1000001632,4.0247966679128,0.0,1684,0.0,98,GPS_Atti,
0.0,0.0,13000,2017-11-02 07:20:03,1790.9970300119132,5.600000179200001,3.4163971716004,0.0,1790.9970300119132,5.600000179200001,4.0247966679128,0.0,1684,0.0,98,GPS_Atti,
0.0,0.0,13100,2017-11-02 07:20:03,1791.497030027913,6.1000001952,3.4163971716004,0.0,1791.497030027913,6.1000001952,4.0247966679128,0.0,1684,0.0,98,GPS_Atti,
0.0637860710939868,36.9221976833989,13200,2017-11-02 07:20:03,1791.9970300439131,6.6000002112,3.5459970643060004,0.0,1791.9970300439131,6.6000002112,4.0247966679128,0.0,1684,0.0,98,GPS_Atti,
0.0637860710939868,36.9221976833989,13300,2017-11-02 07:20:03,1792.4970300599132,7.100000227200002,3.3947971894827997,0.0,1792.4970300599132,7.100000227200002,4.0247966679128,0.0,1684,0.0,98,GPS_Atti,
0.0637900724874418,36.9221953413969,13400,2017-11-02 07:20:03,1792.9970300759132,7.600000243199999,3.3947971894827997,0.51559501649904,1792.9970300759132,7.600000243199999,4.0247966679128,0.51559501649904,1684,0.0,98,GPS_Atti,
0.0637908261003831,36.9221948900684,13500,2017-11-02 07:20:03,1793.5970300951133,8.200000262400001,3.3947971894827997,0.6132770196248641,1793.5970300951133,8.200000262400001,4.0247966679128,0.6132770196248641,1684,0.0,98,GPS_Atti,
0.0637916262045863,36.922194292422795,13600,2017-11-02 07:20:04,1794.097030111113,8.700000278400001,3.3947971894827997,0.7237630231604161,1794.097030111113,8.700000278400001,4.0247966679128,0.7237630231604161,1684,0.0,98,GPS_Atti,
0.0637924044424507,36.9221937513575,13700,2017-11-02 07:20:04,1794.5970301271132,9.2000002944,2.9015975977976,0.8290060265281921,1794.5970301271132,9.2000002944,4.0247966679128,0.8290060265281921,1684,0.0,98,GPS_Atti,
0.0637931872289662,36.922193179454005,13800,2017-11-02 07:20:04,1795.0970301431132,9.7000003104,2.8115976723076,0.936543029969376,1795.0970301431132,9.7000003104,4.0247966679128,0.936543029969376,1684,0.0,98,GPS_Atti,
0.0637939200255079,36.9221926594287,13900,2017-11-02 07:20:04,1795.5970301591133,10.2000003264,2.8115976723076,1.03634003316288,1795.5970301591133,10.2000003264,4.0247966679128,1.03634003316288,1684,0.0,98,GPS_Atti,
0.0637947475095543,36.922191906129896,14000,2017-11-02 07:20:04,1796.197030178313,10.800000345599999,3.0563974696404,1.1592000370944,1796.197030178313,10.800000345599999,4.0247966679128,1.1592000370944,1684,0.0,98,GPS_Atti,
0.0637955367797196,36.922191278576705,14100,2017-11-02 07:20:04,1796.6970301943131,11.3000003616,3.0563974696404,1.27097004067104,1796.6970301943131,11.3000003616,4.0247966679128,1.27097004067104,1684,0.0,98,GPS_Atti,
0.0637964193540264,36.9221903830876,14200,2017-11-02 07:20:04,1797.1970302103132,11.8000003776,2.8115976723076,1.4083300450665603,1797.1970302103132,11.8000003776,4.0247966679128,1.4083300450665603,1684,0.0,98,GPS_Atti,
0.0637972483818377,36.9221896589785,14300,2017-11-02 07:20:04,1797.7970302295132,12.4000003968,2.8115976723076,1.5301400489644799,1797.7970302295132,12.4000003968,4.0247966679128,1.5301400489644799,1684,0.0,98,GPS_Atti,
0.0637981894490386,36.922188703002,14400,2017-11-02 07:20:04,1798.2970302455133,12.900000412799999,2.8115976723076,1.67734005367488,1798.2970302455133,12.900000412799999,4.0247966679128,1.67734005367488,1684,0.0,98,GPS_Atti,
0.0637990771716711,36.9221879219373,14500,2017-11-02 07:20:04,1798.897030264713,13.500000432000002,2.8115976723076,1.8084000578688002,1798.897030264713,13.500000432000002,4.0247966679128,1.8084000578688002,1684,0.0,98,GPS_Atti,
0.0638000336594224,36.9221869941918,14600,2017-11-02 07:20:05,1799.3970302807131,14.000000448,3.0959974368559995,1.9555000625760002,1799.3970302807131,14.000000448,4.0247966679128,1.9555000625760002,1684,0.0,98,GPS_Atti,
0.0638009285512796,36.9221862390741,14700,2017-11-02 07:20:05,1799.9970302999131,14.600000467200001,3.0959974368559995,2.08557006673824,1799.9970302999131,14.600000467200001,4.0247966679128,2.08557006673824,1684,0.0,98,GPS_Atti,
0.0638018721254701,36.9221853370299,14800,2017-11-02 07:20:05,1800.5970303191132,15.200000486399999,3.0959974368559995,2.2299700713590402,1800.5970303191132,15.200000486399999,4.0247966679128,2.2299700713590402,1684,0.0,98,GPS_Atti,
0.0638027544831938,36.9221846010518,14900,2017-11-02 07:20:05,1801.197030338313,15.8000005056,2.8115976723076,2.35768007544576,1801.197030338313,15.8000005056,4.0247966679128,2.35768007544576,1684,0.0,98,GPS_Atti,
0.0638036490998439,36.9221838074791,15000,2017-11-02 07:20:05,1801.6970303543133,16.3000005216,2.8115976723076,2.49044007969408,1801.6970303543133,16.3000005216,4.0247966679128,2.49044007969408,1684,0.0,98,GPS_Atti,
0.0638044688748364,36.9221831013957,15100,2017-11-02 07:20:05,1802.297030373513,16.900000540799997,2.8115976723076,2.6106500835408006,1802.297030373513,16.900000540799997,4.0247966679128,2.6106500835408006,1684,0.0,98,GPS_Atti,
0.0638052277395096,36.922182318717105,15200,2017-11-02 07:20:05,1802.7970303895133,17.400000556800002,2.8115976723076,2.7309000873888003,1802.7970303895133,17.400000556800002,4.0247966679128,2.7309000873888003,1684,0.0,98,GPS_Atti,
0.0638058800795188,36.9221815983191,15300,2017-11-02 07:20:05,1803.2970304055132,17.9000005728,2.5955978511316,2.8376600908051204,1803.2970304055132,17.9000005728,4.0247966679128,2.8376600908051204,1684,0.0,98,GPS_Atti,
0.0638065068627279,36.9221807912004,15400,2017-11-02 07:20:05,1803.8970304247132,18.500000592000003,2.8115976723076,2.94846009435072,1803.8970304247132,18.500000592000003,4.0247966679128,2.94846009435072,1684,-4.7,98,GPS_Atti,
0.0638071284609713,36.922180121124704,15500,2017-11-02 07:20:05,1804.3970304407133,19.000000608,2.8115976723076,3.0492500975760004,1804.3970304407133,19.000000608,4.0247966679128,3.0492500975760004,1684,-10.3,98,GPS_Atti,
0.0638077330273189,36.9221793987001,15600,2017-11-02 07:20:06,1804.897030456713,19.500000624000002,2.5955978511316,3.15239010087648,1804.897030456713,19.500000624000002,4.0247966679128,3.15239010087648,1684,-16.0,98,GPS_Atti,Home Point Recorded. RTH Altitude:  30m.
0.0638082898232619,36.9221787204944,15700,2017-11-02 07:20:06,1805.3970304727131,20.00000064,2.9015975977976,3.2484001039488004,1805.3970304727131,20.00000064,4.0247966679128,3.2484001039488004,1684,-21.6,98,GPS_Atti,
0.0638088768252126,36.922177929844295,15800,2017-11-02 07:20:06,1805.9970304919132,20.600000659200003,3.0959974368559995,3.3552301073673596,1805.9970304919132,20.600000659200003,4.0247966679128,3.3552301073673596,1684,-27.3,98,GPS_Atti,
0.06380953171536499,36.9221772381259,15900,2017-11-02 07:20:06,1806.5970305111132,21.2000006784,3.0563974696404,3.4606501107408003,1806.5970305111132,21.2000006784,4.0247966679128,3.4606501107408003,1684,-32.9,98,GPS_Atti,
0.063810305924866,36.9221765143459,16000,2017-11-02 07:20:06,1807.0970305271132,21.700000694400003,3.2183973355224,3.5784401145100806,1807.0970305271132,21.700000694400003,4.0247966679128,3.5784401145100806,1684,-34.0,98,GPS_Atti,
0.0638110892194561,36.92217593867971,16100,2017-11-02 07:20:06,1807.697030546313,22.3000007136,3.2183973355224,3.68617011795744,1807.697030546313,22.3000007136,4.0247966679128,3.68617011795744,1684,-34.1,98,GPS_Atti,
0.0638119550859275,36.9221753905165,16200,2017-11-02 07:20:06,1808.1970305623133,22.8000007296,3.0743974547383996,3.79888012156416,1808.1970305623133,22.8000007296,4.0247966679128,3.79888012156416,1684,-34.2,98,GPS_Atti,
0.0638127847830292,36.9221748947835,16300,2017-11-02 07:20:06,1808.7970305815131,23.400000748800004,3.2183973355224,3.90481012495392,1808.7970305815131,23.400000748800004,4.0247966679128,3.90481012495392,1684,-34.2,98,GPS_Atti,
0.0638135940252459,36.922174296125704,16400,2017-11-02 07:20:06,1809.3970306007132,24.000000768000003,3.2183973355224,4.016490128527681,1809.3970306007132,24.000000768000003,4.0247966679128,4.016490128527681,1684,-38.8,98,GPS_Atti,
0.0638143594330071,36.9221737242665,16500,2017-11-02 07:20:06,1809.8970306167132,24.500000784000004,2.9015975977976,4.12254013192128,1809.8970306167132,24.500000784000004,4.0247966679128,4.12254013192128,1684,-44.5,98,GPS_Atti,
0.0638151087517417,36.9221730952086,16600,2017-11-02 07:20:07,1810.397030632713,25.000000800000002,2.9015975977976,4.2313401354028795,1810.397030632713,25.000000800000002,4.0247966679128,4.2313401354028795,1684,-50.0,98,GPS_Atti,
0.0638157989188764,36.9221725461333,16700,2017-11-02 07:20:07,1810.997030651913,25.600000819200005,2.5955978511316,4.32937013853984,1810.997030651913,25.600000819200005,4.0247966679128,4.32937013853984,1684,-55.7,98,GPS_Atti,
0.0638163968704845,36.9221719979487,16800,2017-11-02 07:20:07,1811.4970306679131,26.100000835200003,2.4155980001516,4.41951014142432,1811.4970306679131,26.100000835200003,4.0247966679128,4.41951014142432,1684,-61.4,98,GPS_Atti,
0.0638169438127129,36.922171540966204,16900,2017-11-02 07:20:07,1812.0970306871131,26.700000854400002,2.0987982624268002,4.49877014396064,1812.0970306871131,26.700000854400002,4.0247966679128,4.49877014396064,1684,-67.0,98,GPS_Atti,
0.0638174799355593,36.9221710895999,17000,2017-11-02 07:20:07,1812.697030706313,27.3000008736,1.9403983935644,4.5767001464543995,1812.697030706313,27.3000008736,4.0247966679128,4.5767001464543995,1684,-72.7,98,GPS_Atti,
0.063817991016194,36.9221707435244,17100,2017-11-02 07:20:07,1813.2970307255132,27.9000008928,1.9403983935644,4.6449501486384,1813.2970307255132,27.9000008928,4.0247966679128,4.6449501486384,1684,-78.3,98,GPS_Atti,
0.0638184978791587,36.922170390552296,17200,2017-11-02 07:20:07,1813.8970307447132,28.500000912,1.8359984799959999,4.713350150827201,1813.8970307447132,28.500000912,4.0247966679128,4.713350150827201,1684,-84.0,98,GPS_Atti,
0.0638189658711652,36.922170135276396,17300,2017-11-02 07:20:07,1814.3970307607133,29.000000928,1.4831987720752,4.77146015268672,1814.3970307607133,29.000000928,4.0247966679128,4.77146015268672,1684,-89.6,98,GPS_Atti,
0.0638193887910987,36.9221698841735,17400,2017-11-02 07:20:07,1814.9970307799133,29.6000009472,1.4831987720752,4.8254501544144,1814.9970307799133,29.6000009472,4.0247966679128,4.8254501544144,1684,-89.9,98,GPS_Atti,
0.0638197585162807,36.922169687691294,17500,2017-11-02 07:20:07,1815.4970307959131,30.1000009632,1.1375990581936,4.87103015587296,1815.4970307959131,30.1000009632,4.0247966679128,4.87103015587296,1684,-89.9,98,GPS_Atti,
0.0638201219035586,36.9221694381151,17600,2017-11-02 07:20:08,1815.9970308119132,30.6000009792,1.1375990581936,4.919850157435201,1815.9970308119132,30.6000009792,4.0247966679128,4.919850157435201,1684,-90.0,98,GPS_Atti,
0.0638204196026626,36.9221692561006,17700,2017-11-02 07:20:08,1816.497030827913,31.100000995200002,0.7199994039200001,4.95826015866432,1816.497030827913,31.100000995200002,4.0247966679128,4.95826015866432,1684,-90.0,98,GPS_Atti,
0.0638206341762143,36.9221690000496,17800,2017-11-02 07:20:08,1816.9970308439133,31.6000010112,0.7199994039200001,4.9948001598336,1816.9970308439133,31.6000010112,4.0247966679128,4.9948001598336,1684,-90.0,98,GPS_Atti,
0.0638207872401793,36.9221688359437,17900,2017-11-02 07:20:08,1817.4970308599131,32.1000010272,0.35999970196000003,5.0195501606256006,1817.4970308599131,32.1000010272,4.0247966679128,5.0195501606256006,1684,-90.0,98,GPS_Atti,
0.0638208755441835,36.9221686655535,18000,2017-11-02 07:20:08,1817.997030875913,32.6000010432,0.0,5.03922016125504,1817.997030875913,32.6000010432,4.0247966679128,5.03922016125504,1684,-90.0,98,GPS_Atti,
0.0638209414147431,36.9221685873695,18100,2017-11-02 07:20:08,1818.4970308919133,33.100001059200004,0.0,5.05042016161344,1818.4970308919133,33.100001059200004,4.0247966679128,5.05042016161344,1684,-90.0,98,GPS_Atti,
0.0638209936812817,36.922168495289604,18200,2017-11-02 07:20:08,1819.097030911113,33.70000107840001,0.0,5.06144016196608,1819.097030911113,33.70000107840001,4.0247966679128,5.06144016196608,1684,-89.9,98,GPS_Atti,
0.0638210571384873,36.92216847668521,18300,2017-11-02 07:20:08,1819.5970309271133,34.2000010944,0.0,5.068190162182081,1819.5970309271133,34.2000010944,4.0247966679128,5.068190162182081,1684,-89.9,98,GPS_Atti,
0.063821139759222,36.922168428031895,18400,2017-11-02 07:20:08,1820.0970309431132,34.7000011104,0.35999970196000003,5.078710162518721,1820.0970309431132,34.7000011104,4.0247966679128,5.078710162518721,1684,-89.9,98,GPS_Atti,
0.0638212059587273,36.9221684445508,18500,2017-11-02 07:20:08,1820.5970309591132,35.2000011264,0.35999970196000003,5.08319016266208,1820.5970309591132,35.2000011264,4.0247966679128,5.08319016266208,1684,-90.0,98,GPS_Atti,
0.0638211946475553,36.9221684551431,18600,2017-11-02 07:20:09,1821.097030975113,35.7000011424,0.0,5.081470162607041,1821.097030975113,35.7000011424,4.0247966679128,5.08319016266208,1684,-90.0,98,GPS_Atti,
0.0638211392283492,36.922168438921794,18700,2017-11-02 07:20:09,1821.5970309911131,36.200001158400006,0.0,5.07789016249248,1821.5970309911131,36.200001158400006,4.0247966679128,5.08319016266208,1684,-90.0,98,GPS_Atti,
0.0638210292204435,36.922168374886496,18800,2017-11-02 07:20:09,1822.0970310071132,36.7000011744,0.0,5.07307016233824,1822.0970310071132,36.7000011744,4.0247966679128,5.08319016266208,1684,-90.0,98,GPS_Atti,
0.0638209785823489,36.922168405269396,18900,2017-11-02 07:20:09,1822.6970310263132,37.3000011936,0.35999970196000003,5.066580162130561,1822.6970310263132,37.3000011936,4.0247966679128,5.08319016266208,1684,-89.9,98,GPS_Atti,
0.06382093592363,36.9221684828816,19000,2017-11-02 07:20:09,1823.1970310423133,37.800001209600005,0.35999970196000003,5.0574001618368,1823.1970310423133,37.800001209600005,4.0247966679128,5.08319016266208,1684,-90.0,98,GPS_Atti,
0.063820900478918,36.9221685926025,19100,2017-11-02 07:20:09,1823.697031058313,38.3000012256,0.35999970196000003,5.0465501614896,1823.697031058313,38.3000012256,4.0247966679128,5.08319016266208,1684,-90.0,98,GPS_Atti,
0.0638207749812529,36.922168731449396,19200,2017-11-02 07:20:09,1824.1970310743134,38.8000012416,0.35999970196000003,5.02594016083008,1824.1970310743134,38.8000012416,4.0247966679128,5.08319016266208,1684,-89.9,98,GPS_Atti,
0.0638206325868529,36.9221688976386,19300,2017-11-02 07:20:09,1824.5970310871132,39.2000012544,0.8063993323904,5.0019501600624,1824.5970310871132,39.2000012544,4.0247966679128,5.08319016266208,1684,-90.0,98,GPS_Atti,
0.0638204548584751,36.9221690811905,19400,2017-11-02 07:20:09,1825.197031106313,39.80000127360001,0.7199994039200001,4.973700159158399,1825.197031106313,39.80000127360001,4.0247966679128,5.08319016266208,1684,-90.0,98,GPS_Atti,
0.063820344801716,36.9221692661298,19500,2017-11-02 07:20:09,1825.697031122313,40.3000012896,0.7199994039200001,4.9511401584364805,1825.697031122313,40.3000012896,4.0247966679128,5.08319016266208,1684,-90.0,98,GPS_Atti,
0.0638201965546883,36.9221694640701,19600,2017-11-02 07:20:10,1826.2970311415131,40.90000130880001,0.35999970196000003,4.9244001575808,1826.2970311415131,40.90000130880001,4.0247966679128,5.08319016266208,1684,-89.9,98,GPS_Atti,
0.0638201113610122,36.9221696337494,19700,2017-11-02 07:20:10,1826.7970311575132,41.4000013248,0.35999970196000003,4.9050901569628795,1826.7970311575132,41.4000013248,4.0247966679128,5.08319016266208,1684,-89.9,98,GPS_Atti,
0.063820011540652,36.9221698267887,19800,2017-11-02 07:20:10,1827.2970311735132,41.9000013408,0.35999970196000003,4.882880156252161,1827.2970311735132,41.9000013408,4.0247966679128,5.08319016266208,1684,-90.0,98,GPS_Atti,
0.0638199435987116,36.922169984614705,19900,2017-11-02 07:20:10,1827.797031189513,42.4000013568,0.35999970196000003,4.865910155709121,1827.797031189513,42.4000013568,4.0247966679128,5.08319016266208,1684,-90.0,98,GPS_Atti,
0.0638198237550041,36.922170156152504,20000,2017-11-02 07:20:10,1828.2970312055131,42.900001372800006,0.35999970196000003,4.843520154992641,1828.2970312055131,42.900001372800006,4.0247966679128,5.08319016266208,1684,-89.9,98,GPS_Atti,
0.0638197462117578,36.9221703314995,20100,2017-11-02 07:20:10,1828.7970312215132,43.40000138880001,0.35999970196000003,4.824520154384641,1828.7970312215132,43.40000138880001,4.0247966679128,5.08319016266208,1684,-89.9,98,GPS_Atti,
0.0638196398841355,36.92217054566329,20200,2017-11-02 07:20:10,1829.2970312375132,43.9000014048,0.7199994039200001,4.80034015361088,1829.2970312375132,43.9000014048,4.0247966679128,5.08319016266208,1684,-89.9,98,GPS_Atti,
0.0638195812340965,36.9221707557717,20300,2017-11-02 07:20:10,1829.797031253513,44.4000014208,0.7199994039200001,4.780600152979201,1829.797031253513,44.4000014208,4.0247966679128,5.08319016266208,1684,-90.0,98,GPS_Atti,
0.0638194657839309,36.922171059778,20400,2017-11-02 07:20:10,1830.2970312695131,44.9000014368,0.35999970196000003,4.7494501519824,1830.2970312695131,44.9000014368,4.0247966679128,5.08319016266208,1684,-90.0,98,GPS_Atti,
0.0638193825183325,36.9221713104976,20500,2017-11-02 07:20:10,1830.7970312855132,45.400001452800005,0.35999970196000003,4.724860151195521,1830.7970312855132,45.400001452800005,4.0247966679128,5.08319016266208,1684,-90.0,98,GPS_Atti,
0.0638192821866409,36.922171564291794,20600,2017-11-02 07:20:11,1831.2970313015132,45.9000014688,0.35999970196000003,4.69862015035584,1831.2970313015132,45.9000014688,4.0247966679128,5.08319016266208,1684,-90.0,98,GPS_Atti,
0.0638191908602447,36.9221717756314,20700,2017-11-02 07:20:11,1831.697031314313,46.3000014816,0.35999970196000003,4.67612014963584,1831.697031314313,46.3000014816,4.0247966679128,5.08319016266208,1684,-90.0,98,GPS_Atti,
0.06381902385679901,36.9221720336309,20800,2017-11-02 07:20:11,1832.197031330313,46.80000149760001,0.35999970196000003,4.643830148602561,1832.197031330313,46.80000149760001,4.0247966679128,5.08319016266208,1684,-89.9,98,GPS_Atti,
0.0638189089375062,36.9221722188614,20900,2017-11-02 07:20:11,1832.597031343113,47.2000015104,0.35999970196000003,4.621100147875201,1832.597031343113,47.2000015104,4.0247966679128,5.08319016266208,1684,-90.0,98,GPS_Atti,
0.0638187769977167,36.9221724573464,21000,2017-11-02 07:20:11,1833.0970313591133,47.700001526399994,0.35999970196000003,4.593270146984641,1833.0970313591133,47.700001526399994,4.0247966679128,5.08319016266208,1684,-90.0,98,GPS_Atti,
0.06381868079901601,36.9221726769145,21100,2017-11-02 07:20:11,1833.5970313751131,48.200001542399995,0.35999970196000003,4.5699001462368,1833.5970313751131,48.200001542399995,4.0247966679128,5.08319016266208,1684,-90.0,98,GPS_Atti,
0.0638185588871846,36.92217298929471,21200,2017-11-02 07:20:11,1833.997031387913,48.6000015552,0.35999970196000003,4.538050145217601,1833.997031387913,48.6000015552,4.0247966679128,5.08319016266208,1684,-90.0,98,GPS_Atti,
0.0638184513121742,36.9221732269383,21300,2017-11-02 07:20:11,1834.497031403913,49.1000015712,0.35999970196000003,4.5125501444016,1834.497031403913,49.1000015712,4.0247966679128,5.08319016266208,1684,-89.9,98,GPS_Atti,
0.0638182908257614,36.9221734722108,21400,2017-11-02 07:20:11,1834.9970314199131,49.6000015872,0.0,4.4818801434201605,1834.9970314199131,49.6000015872,4.0247966679128,5.08319016266208,1684,-89.9,98,GPS_Atti,
0.0638181728743058,36.9221736265638,21500,2017-11-02 07:20:11,1835.3970314327132,50.000001600000004,0.0,4.4610901427548795,1835.3970314327132,50.000001600000004,4.0247966679128,5.08319016266208,1684,-90.0,98,GPS_Atti,
0.0638180616939203,36.922173762353104,21600,2017-11-02 07:20:12,1835.897031448713,50.500001616000006,0.0,4.44214014214848,1835.897031448713,50.500001616000006,4.0247966679128,5.08319016266208,1684,-89.9,98,GPS_Atti,
0.063817987905866,36.9221738409417,21700,2017-11-02 07:20:12,1836.397031464713,51.000001632,0.0,4.43034014177088,1836.397031464713,51.000001632,4.0247966679128,5.08319016266208,1684,-89.9,98,GPS_Atti,
0.0638179398276854,36.922173917706104,21800,2017-11-02 07:20:12,1836.8970314807132,51.50000164800001,0.0,4.4209501414704,1836.8970314807132,51.50000164800001,4.0247966679128,5.08319016266208,1684,-89.9,98,GPS_Atti,
0.0638179182475455,36.922173978486796,21900,2017-11-02 07:20:12,1837.3970314967132,52.000001664,0.0,4.414980141279361,1837.3970314967132,52.000001664,4.0247966679128,5.08319016266208,1684,-90.0,98,GPS_Atti,
0.0638179103854179,36.9221740931665,22000,2017-11-02 07:20:12,1837.897031512713,52.500001680000004,0.0,4.4066801410137595,1837.897031512713,52.500001680000004,4.0247966679128,5.08319016266208,1684,-90.0,98,GPS_Atti,
0.063817923351089,36.9221741634111,22100,2017-11-02 07:20:12,1838.3970315287133,53.000001696000005,0.0,4.403190140902081,1838.3970315287133,53.000001696000005,4.0247966679128,5.08319016266208,1684,-89.9,98,GPS_Atti,
0.063817970807204,36.9221742612957,22200,2017-11-02 07:20:12,1838.8970315447132,53.500001712,0.0,4.40099014083168,1838.8970315447132,53.500001712,4.0247966679128,5.08319016266208,1684,-89.9,98,GPS_Atti,
0.0638180496760036,36.9221743330605,22300,2017-11-02 07:20:12,1839.397031560713,54.00000172800001,0.0,4.4033501409072,1839.397031560713,54.00000172800001,4.0247966679128,5.08319016266208,1684,-89.9,98,GPS_Atti,
0.0638181016722205,36.922174392310204,22400,2017-11-02 07:20:12,1839.8970315767133,54.500001744,0.0,4.404140140932481,1839.8970315767133,54.500001744,4.0247966679128,5.08319016266208,1684,-90.0,98,GPS_Atti,
0.0638181333291718,36.9221743931774,22500,2017-11-02 07:20:12,1840.3970315927131,55.00000176,0.0,4.40693014102176,1840.3970315927131,55.00000176,4.0247966679128,5.08319016266208,1684,-89.9,98,GPS_Atti,
0.0638181249654834,36.9221743858547,22600,2017-11-02 07:20:13,1840.8970316087132,55.500001776,0.0,4.406660141013121,1840.8970316087132,55.500001776,4.0247966679128,5.08319016266208,1684,-89.9,98,GPS_Atti,
0.0638181136640821,36.9221743511317,22700,2017-11-02 07:20:13,1841.397031624713,56.000001792,0.0,4.40792014105344,1841.397031624713,56.000001792,4.0247966679128,5.08319016266208,1684,-89.9,98,GPS_Atti,
0.0638180802940077,36.9221743351952,22800,2017-11-02 07:20:13,1841.8970316407133,56.50000180800001,0.0,4.405960140990721,1841.8970316407133,56.50000180800001,4.0247966679128,5.08319016266208,1684,-89.9,98,GPS_Atti,
0.0638180614301124,36.9221743134733,22900,2017-11-02 07:20:13,1842.2970316535132,56.90000182080001,0.0,4.40569014098208,1842.2970316535132,56.90000182080001,4.0247966679128,5.08319016266208,1684,-89.9,98,GPS_Atti,
0.0638180465787032,36.9221743034656,23000,2017-11-02 07:20:13,1842.7970316695132,57.4000018368,0.0,4.40501014096032,1842.7970316695132,57.4000018368,4.0247966679128,5.08319016266208,1684,-89.9,98,GPS_Atti,
0.06381804437379,36.9221742884882,23100,2017-11-02 07:20:13,1843.297031685513,57.90000185280001,0.0,4.4058001409856,1843.297031685513,57.90000185280001,4.0247966679128,5.08319016266208,1684,-90.0,98,GPS_Atti,
0.063818031665413,36.9221743116041,23200,2017-11-02 07:20:13,1843.697031698313,58.30000186560001,0.0,4.40314014090048,1843.697031698313,58.30000186560001,4.0247966679128,5.08319016266208,1684,-89.9,98,GPS_Atti,
0.0638180100233923,36.922174317682796,23300,2017-11-02 07:20:13,1844.1970317143132,58.8000018816,0.0,4.4008001408256,1844.1970317143132,58.8000018816,4.0247966679128,5.08319016266208,1684,-89.9,98,GPS_Atti,
0.0638179699278442,36.9221742950894,23400,2017-11-02 07:20:13,1844.697031730313,59.30000189760001,0.0,4.39869014075808,1844.697031730313,59.30000189760001,4.0247966679128,5.08319016266208,1684,-90.0,98,GPS_Atti,
0.0638179294544971,36.9221742598312,23500,2017-11-02 07:20:13,1845.0970317431131,59.700001910400005,0.0,4.397380140716161,1845.0970317431131,59.700001910400005,4.0247966679128,5.08319016266208,1684,-89.9,98,GPS_Atti,
0.0638179027610431,36.922174163550295,23600,2017-11-02 07:20:14,1845.597031759113,60.2000019264,0.0,4.401340140842881,1845.597031759113,60.2000019264,4.0247966679128,5.08319016266208,1684,-89.9,98,GPS_Atti,
0.0638178757158452,36.922174076206495,23700,2017-11-02 07:20:14,1846.0970317751132,60.7000019424,0.0,4.40471014095072,1846.0970317751132,60.7000019424,4.0247966679128,5.08319016266208,1684,-89.9,98,GPS_Atti,
0.0638178546828626,36.92217395383361,23800,2017-11-02 07:20:14,1846.597031791113,61.2000019584,0.0,4.410960141150721,1846.597031791113,61.2000019584,4.0247966679128,5.08319016266208,1684,-90.0,98,GPS_Atti,
0.0638178114411607,36.9221738582315,23900,2017-11-02 07:20:14,1847.0970318071131,61.7000019744,0.0,4.41348014123136,1847.0970318071131,61.7000019744,4.0247966679128,5.08319016266208,1684,-90.0,98,GPS_Atti,
0.0638177378029231,36.922173742757394,24000,2017-11-02 07:20:14,1847.497031819913,62.1000019872,0.0,4.41466014126912,1847.497031819913,62.1000019872,4.0247966679128,5.08319016266208,1684,-90.0,98,GPS_Atti,
0.0638176555665013,36.922173654124705,24100,2017-11-02 07:20:14,1847.9970318359133,62.600002003200004,0.0,4.41333014122656,1847.9970318359133,62.600002003200004,4.0247966679128,5.08319016266208,1684,-90.0,98,GPS_Atti,
0.0638175854294183,36.9221735592034,24200,2017-11-02 07:20:14,1848.497031851913,63.100002019200005,0.0,4.4135401412332795,1848.497031851913,63.100002019200005,4.0247966679128,5.08319016266208,1684,-90.0,98,GPS_Atti,
0.0638175353743068,36.9221734921856,24300,2017-11-02 07:20:14,1848.9970318679132,63.600002035200006,0.0,4.413660141237121,1848.9970318679132,63.600002035200006,4.0247966679128,5.08319016266208,1684,-90.0,98,GPS_Atti,
0.0638175092703495,36.9221733647424,24400,2017-11-02 07:20:14,1849.4970318839132,64.1000020512,0.0,4.42001014144032,1849.4970318839132,64.1000020512,4.0247966679128,5.08319016266208,1684,-89.9,98,GPS_Atti,
0.0638174717379723,36.9221732693651,24500,2017-11-02 07:20:14,1849.9970318999133,64.60000206720001,0.0,4.423210141542721,1849.9970318999133,64.60000206720001,4.0247966679128,5.08319016266208,1684,-89.9,98,GPS_Atti,
0.0638174425497421,36.92217314802,24600,2017-11-02 07:20:15,1850.497031915913,65.1000020832,0.0,4.4289501417264,1850.497031915913,65.1000020832,4.0247966679128,5.08319016266208,1684,-90.0,97,GPS_Atti,
0.0638174198362052,36.9221730716154,24700,2017-11-02 07:20:15,1850.9970319319132,65.60000209920001,0.0,4.432210141830721,1850.9970319319132,65.60000209920001,4.0247966679128,5.08319016266208,1684,-89.9,97,GPS_Atti,
0.0638173916510965,36.9221729162646,24800,2017-11-02 07:20:15,1851.4970319479132,66.10000211520001,0.0,4.44044014209408,1851.4970319479132,66.10000211520001,4.0247966679128,5.08319016266208,1684,-89.9,97,GPS_Atti,
0.063817347061043,36.9221727807472,24900,2017-11-02 07:20:15,1851.997031963913,66.6000021312,0.0,4.44592014226944,1851.997031963913,66.6000021312,4.0247966679128,5.08319016266208,1684,-89.9,97,GPS_Atti,
0.0638173053891611,36.922172624888894,25000,2017-11-02 07:20:15,1852.4970319799131,67.10000214720002,0.0,4.453120142499841,1852.4970319799131,67.10000214720002,4.0247966679128,5.08319016266208,1684,-89.9,97,GPS_Atti,
0.0638172468172874,36.9221725214994,25100,2017-11-02 07:20:15,1852.9970319959132,67.60000216319999,0.0,4.4552501425680004,1852.9970319959132,67.60000216319999,4.0247966679128,5.08319016266208,1684,-90.0,97,GPS_Atti,
0.0638171809206726,36.9221723395449,25200,2017-11-02 07:20:15,1853.4970320119132,68.1000021792,0.0,4.46231014279392,1853.4970320119132,68.1000021792,4.0247966679128,5.08319016266208,1684,-89.9,97,GPS_Atti,
0.063817106819957,36.922172212161705,25300,2017-11-02 07:20:15,1853.997032027913,68.6000021952,0.0,4.46489014287648,1853.997032027913,68.6000021952,4.0247966679128,5.08319016266208,1684,-90.0,97,GPS_Atti,
0.0638170552275943,36.92217206917171,25400,2017-11-02 07:20:15,1854.4970320439134,69.1000022112,0.0,4.47057014305824,1854.4970320439134,69.1000022112,4.0247966679128,5.08319016266208,1684,-90.0,97,GPS_Atti,
0.0638170077617087,36.9221719676001,25500,2017-11-02 07:20:15,1854.9970320599132,69.60000222720001,0.0,4.47372014315904,1854.9970320599132,69.60000222720001,4.0247966679128,5.08319016266208,1684,-90.0,97,GPS_Atti,
0.0638169440634933,36.922171812300704,25600,2017-11-02 07:20:16,1855.497032075913,70.1000022432,0.0,4.4793501433392,1855.497032075913,70.1000022432,4.0247966679128,5.08319016266208,1684,-90.0,97,GPS_Atti,
0.0638168315184718,36.922171571006395,25800,2017-11-02 07:20:16,1856.4970321079131,71.10000227520001,0.0,4.48708014358656,1856.4970321079131,71.10000227520001,4.0247966679128,5.08319016266208,1684,-89.9,97,GPS_Atti,
0.0638167786559227,36.9221714898549,25900,2017-11-02 07:20:16,1856.9970321239132,71.6000022912,0.0,4.4884501436304,1856.9970321239132,71.6000022912,4.0247966679128,5.08319016266208,1684,-89.9,97,GPS_Atti,
0.0638167209992346,36.922171388902,26000,2017-11-02 07:20:16,1857.5970321431132,72.2000023104,0.0,4.490880143708161,1857.5970321431132,72.2000023104,4.0247966679128,5.08319016266208,1684,-90.0,97,GPS_Atti,
0.0638166548616101,36.922171337840005,26100,2017-11-02 07:20:16,1858.097032159113,72.70000232640001,0.0,4.489000143648,1858.097032159113,72.70000232640001,4.0247966679128,5.08319016266208,1684,-89.9,97,GPS_Atti,
0.0638166028784208,36.9221712589987,26200,2017-11-02 07:20:16,1858.597032175113,73.2000023424,0.0,4.490360143691521,1858.597032175113,73.2000023424,4.0247966679128,5.08319016266208,1684,-89.9,97,GPS_Atti,
0.0638165721008293,36.9221712093862,26300,2017-11-02 07:20:16,1859.0970321911132,73.7000023584,0.0,4.491380143724161,1859.0970321911132,73.7000023584,4.0247966679128,5.08319016266208,1684,-89.9,97,GPS_Atti,
0.0638165157957496,36.9221711496526,26400,2017-11-02 07:20:16,1859.5970322071132,74.2000023744,0.0,4.491020143712641,1859.5970322071132,74.2000023744,4.0247966679128,5.08319016266208,1684,-89.9,97,GPS_Atti,
0.0638164532830415,36.92217111515011,26500,2017-11-02 07:20:16,1860.097032223113,74.7000023904,0.0,4.4883001436256,1860.097032223113,74.7000023904,4.0247966679128,5.08319016266208,1684,-90.0,97,GPS_Atti,
0.063816414565157,36.9221710627049,26600,2017-11-02 07:20:17,1860.5970322391133,75.20000240640002,0.0,4.48891014364512,1860.5970322391133,75.20000240640002,4.0247966679128,5.08319016266208,1684,-89.9,97,GPS_Atti,
0.063816365337295,36.9221710475392,26700,2017-11-02 07:20:17,1861.0970322551132,75.7000024224,0.0,4.485910143549121,1861.0970322551132,75.7000024224,4.0247966679128,5.08319016266208,1684,-90.0,97,GPS_Atti,
0.0638163180342538,36.922170991297705,26800,2017-11-02 07:20:17,1861.597032271113,76.2000024384,0.0,4.48609014355488,1861.597032271113,76.2000024384,4.0247966679128,5.08319016266208,1684,-90.0,97,GPS_Atti,
0.0638162686761162,36.9221709830565,26900,2017-11-02 07:20:17,1862.0970322871133,76.70000245439999,0.0,4.48259014344288,1862.0970322871133,76.70000245439999,4.0247966679128,5.08319016266208,1684,-90.0,97,GPS_Atti,
0.0638162241967969,36.9221709913042,27000,2017-11-02 07:20:17,1862.597032303113,77.20000247040001,0.0,4.47827014330464,1862.597032303113,77.20000247040001,4.0247966679128,5.08319016266208,1684,-89.9,97,GPS_Atti,
0.0638161671914863,36.9221710252906,27100,2017-11-02 07:20:17,1863.0970323191132,77.70000248640001,0.0,4.47102014307264,1863.0970323191132,77.70000248640001,4.0247966679128,5.08319016266208,1684,-89.9,97,GPS_Atti,
0.0638161070269944,36.9221710330415,27200,2017-11-02 07:20:17,1863.597032335113,78.20000250240001,0.0,4.465440142894081,1863.597032335113,78.20000250240001,4.0247966679128,5.08319016266208,1684,-89.9,97,GPS_Atti,
0.0638160562358262,36.9221710639939,27300,2017-11-02 07:20:17,1864.0970323511133,78.70000251840001,0.0,4.45894014268608,1864.0970323511133,78.70000251840001,4.0247966679128,5.08319016266208,1684,-89.9,97,GPS_Atti,
0.0638159847569054,36.92217109789679,27400,2017-11-02 07:20:17,1864.697032370313,79.30000253760001,0.0,4.45049014241568,1864.697032370313,79.30000253760001,4.0247966679128,5.08319016266208,1684,-90.0,97,GPS_Atti,
0.0638159166456067,36.9221711486912,27500,2017-11-02 07:20:17,1865.1970323863134,79.80000255360001,0.0,4.44107014211424,1865.1970323863134,79.80000255360001,4.0247966679128,5.08319016266208,1684,-89.9,97,GPS_Atti,
0.0638158554323969,36.922171191314995,27600,2017-11-02 07:20:18,1865.6970324023132,80.30000256960001,0.0,4.43284014185088,1865.6970324023132,80.30000256960001,4.0247966679128,5.08319016266208,1684,-89.9,97,GPS_Atti,
0.0638158018663601,36.922171244019296,27700,2017-11-02 07:20:18,1866.197032418313,80.80000258560001,0.0,4.42449014158368,1866.197032418313,80.80000258560001,4.0247966679128,5.08319016266208,1684,-89.9,97,GPS_Atti,
0.0638157662392623,36.922171288966204,27800,2017-11-02 07:20:18,1866.6970324343133,81.3000026016,0.0,4.418210141382721,1866.6970324343133,81.3000026016,4.0247966679128,5.08319016266208,1684,-89.9,97,GPS_Atti,
0.0638157482579837,36.922171350117296,27900,2017-11-02 07:20:18,1867.1970324503131,81.80000261760001,0.0,4.4122001411904,1867.1970324503131,81.80000261760001,4.0247966679128,5.08319016266208,1684,-89.9,97,GPS_Atti,
0.0638157388911738,36.922171375282204,28000,2017-11-02 07:20:18,1867.797032469513,82.40000263680001,0.0,4.40956014110592,1867.797032469513,82.40000263680001,4.0247966679128,5.08319016266208,1684,-90.0,97,GPS_Atti,
0.0638157330841425,36.9221714173771,28100,2017-11-02 07:20:18,1868.2970324855132,82.9000026528,0.0,4.40597014099104,1868.2970324855132,82.9000026528,4.0247966679128,5.08319016266208,1684,-90.0,97,GPS_Atti,
0.0638157426333381,36.9221714767318,28200,2017-11-02 07:20:18,1868.797032501513,83.4000026688,0.0,4.4024001408768,1868.797032501513,83.4000026688,4.0247966679128,5.08319016266208,1684,-89.9,97,GPS_Atti,
0.0638157442324701,36.922171539769295,28300,2017-11-02 07:20:18,1869.2970325175131,83.9000026848,0.0,4.39789014073248,1869.2970325175131,83.9000026848,4.0247966679128,5.08319016266208,1684,-89.9,97,GPS_Atti,
0.063815769388673,36.922171575331504,28400,2017-11-02 07:20:18,1869.7970325335132,84.4000027008,0.0,4.397380140716161,1869.7970325335132,84.4000027008,4.0247966679128,5.08319016266208,1684,-90.0,97,GPS_Atti,
0.0638157634806782,36.9221716195098,28500,2017-11-02 07:20:18,1870.2970325495132,84.9000027168,0.0,4.39364014059648,1870.2970325495132,84.9000027168,4.0247966679128,5.08319016266208,1684,-90.0,97,GPS_Atti,
0.0638157213267769,36.922171663144205,28600,2017-11-02 07:20:19,1870.797032565513,85.4000027328,0.0,4.38692014038144,1870.797032565513,85.4000027328,4.0247966679128,5.08319016266208,1684,-90.0,97,GPS_Atti,
0.0638156894809261,36.9221717303569,28700,2017-11-02 07:20:19,1871.2970325815133,85.9000027488,0.0,4.37933014013856,1871.2970325815133,85.9000027488,4.0247966679128,5.08319016266208,1649,-89.9,97,GPS_Atti,
0.0638157208708126,36.9221717676471,28800,2017-11-02 07:20:19,1871.7970325975132,86.40000276479999,0.35999970196000003,4.37923014013536,1871.7970325975132,86.40000276479999,4.0247966679128,5.08319016266208,1409,-89.9,97,GPS_Atti,
0.0638157531889121,36.9221718351082,28900,2017-11-02 07:20:19,1872.297032613513,86.9000027808,0.35999970196000003,4.377000140064,1872.297032613513,86.9000027808,4.0247966679128,5.08319016266208,1055,-89.9,97,GPS_Atti,
0.063815807276051,36.922171922559,29000,2017-11-02 07:20:19,1872.697032626313,87.3000027936,0.0,4.37517014000544,1872.697032626313,87.3000027936,4.0247966679128,5.08319016266208,1024,-89.9,97,GPS_Atti,
0.0638158722411958,36.922171975252496,29100,2017-11-02 07:20:19,1873.1970326423134,87.8000028096,0.0,4.3768001400576,1873.1970326423134,87.8000028096,4.0247966679128,5.08319016266208,1024,-89.9,97,GPS_Atti,
0.0638159785916164,36.922171992538,29200,2017-11-02 07:20:19,1873.497032651913,88.10000281920001,0.35999970196000003,4.38451014030432,1873.497032651913,88.10000281920001,4.0247966679128,5.08319016266208,1024,-89.9,97,GPS_Atti,
0.063816145422447,36.9221719811921,29300,2017-11-02 07:20:19,1873.7970326615132,88.4000028288,0.35999970196000003,4.39942014078144,1873.7970326615132,88.4000028288,4.0247966679128,5.08319016266208,1024,-89.9,97,GPS_Atti,
0.0638164330447395,36.9221718987066,29400,2017-11-02 07:20:19,1873.9970326679133,88.60000283520002,0.7199994039200001,4.4297101417507205,1873.9970326679133,88.60000283520002,4.0247966679128,5.08319016266208,1024,-89.9,97,GPS_Atti,
0.0638167833914379,36.922171794899604,29500,2017-11-02 07:20:19,1874.097032671113,88.70000283840001,1.07999910588,4.466910142941121,1874.097032671113,88.70000283840001,4.0247966679128,5.08319016266208,1024,-89.9,97,GPS_Atti,
0.0638172549855625,36.922171715011295,29600,2017-11-02 07:20:20,1874.197032674313,88.8000028416,1.4399988078400001,4.512820144410241,1874.197032674313,88.8000028416,4.0247966679128,5.08319016266208,1024,-90.0,97,GPS_Atti,
0.0638177364448008,36.9221716407393,29700,2017-11-02 07:20:20,1874.197032674313,88.8000028416,1.7999985098000002,4.55933014589856,1874.197032674313,88.8000028416,4.0247966679128,5.08319016266208,1024,-90.0,97,GPS_Atti,
0.063818301013307,36.9221716302155,29800,2017-11-02 07:20:20,1874.197032674313,88.8000028416,1.7999985098000002,4.60873014747936,1874.197032674313,88.8000028416,4.0247966679128,5.08319016266208,962,-90.0,97,GPS_Atti,
0.0638188565113801,36.92217162607879,29900,2017-11-02 07:20:20,1874.197032674313,88.8000028416,1.7999985098000002,4.6572201490310405,1874.197032674313,88.8000028416,4.0247966679128,5.08319016266208,805,-89.9,97,GPS_Atti,
0.0638194064434317,36.922171692488604,30000,2017-11-02 07:20:20,1874.197032674313,88.8000028416,1.7999985098000002,4.7007101504227204,1874.197032674313,88.8000028416,4.0247966679128,5.08319016266208,697,-90.0,97,GPS_Atti,
0.0638199190417761,36.9221717534706,30100,2017-11-02 07:20:20,1874.197032674313,88.8000028416,1.7999985098000002,4.741660151733121,1874.197032674313,88.8000028416,4.0247966679128,5.08319016266208,755,-90.0,97,GPS_Atti,
0.06382042081096799,36.9221718666515,30200,2017-11-02 07:20:20,1874.197032674313,88.8000028416,1.7999985098000002,4.77851015291232,1874.197032674313,88.8000028416,4.0247966679128,5.08319016266208,957,-90.0,97,GPS_Atti,
0.0638209175775799,36.922171934313795,30300,2017-11-02 07:20:20,1874.097032671113,88.70000283840001,1.4399988078400001,4.81831015418592,1874.197032674313,88.8000028416,4.0247966679128,5.08319016266208,1024,-90.0,97,GPS_Atti,
0.0638213257307833,36.92217201746521,30400,2017-11-02 07:20:20,1873.9970326679133,88.60000283520002,1.07999910588,4.849440155182081,1874.197032674313,88.8000028416,4.0247966679128,5.08319016266208,1024,-89.9,97,GPS_Atti,
0.0638219785544403,36.922172170036795,30600,2017-11-02 07:20:21,1873.8970326647132,88.50000283199999,0.7199994039200001,4.898470156751041,1874.197032674313,88.8000028416,4.0247966679128,5.08319016266208,1024,-89.9,97,GPS_Atti,
0.0638222537614758,36.922172251858605,30700,2017-11-02 07:20:21,1873.7970326615132,88.4000028288,0.5075995797636,4.91821015738272,1874.197032674313,88.8000028416,4.0247966679128,5.08319016266208,882,-89.9,97,GPS_Atti,
0.0638223990089097,36.922172366296394,30800,2017-11-02 07:20:21,1873.7970326615132,88.4000028288,0.35999970196000003,4.9241501575728,1874.197032674313,88.8000028416,4.0247966679128,5.08319016266208,607,-89.9,97,GPS_Atti,
0.0638224838834108,36.922172463551505,30900,2017-11-02 07:20:21,1873.7970326615132,88.4000028288,0.35999970196000003,4.92573015762336,1874.197032674313,88.8000028416,4.0247966679128,5.08319016266208,515,-89.9,97,GPS_Atti,
0.0638225505551649,36.9221725183241,31000,2017-11-02 07:20:21,1873.7970326615132,88.4000028288,0.0,4.9283601577075205,1874.197032674313,88.8000028416,4.0247966679128,5.08319016266208,651,-89.9,97,GPS_Atti,
0.0638226660900096,36.92217252507729,31100,2017-11-02 07:20:21,1873.6970326583132,88.3000028256,0.35999970196000003,4.938520158032641,1874.197032674313,88.8000028416,4.0247966679128,5.08319016266208,846,-89.9,97,GPS_Atti,
0.0638227861486717,36.9221724696837,31200,2017-11-02 07:20:21,1873.5970326551133,88.20000282240001,0.0,4.953010158496321,1874.197032674313,88.8000028416,4.0247966679128,5.08319016266208,961,-90.0,97,GPS_Atti,
0.0638227846407326,36.9221724399453,31300,2017-11-02 07:20:21,1873.497032651913,88.10000281920001,0.35999970196000003,4.954750158552001,1874.197032674313,88.8000028416,4.0247966679128,5.08319016266208,990,-89.9,97,GPS_Atti,
0.0638227791007661,36.9221723430821,31400,2017-11-02 07:20:21,1873.2970326455131,87.9000028128,0.35999970196000003,4.960350158731201,1874.197032674313,88.8000028416,4.0247966679128,5.08319016266208,894,-89.9,97,GPS_Atti,
0.0638227080322132,36.922172275967895,31500,2017-11-02 07:20:21,1873.2970326455131,87.9000028128,0.7199994039200001,4.9581001586592,1874.197032674313,88.8000028416,4.0247966679128,5.08319016266208,751,-89.9,97,GPS_Atti,
0.06382256750401001,36.92217224619311,31600,2017-11-02 07:20:21,1873.2970326455131,87.9000028128,0.7199994039200001,4.94716015830912,1874.197032674313,88.8000028416,4.0247966679128,5.08319016266208,670,-89.9,97,GPS_Atti,
0.0638223815780451,36.922172257080796,31700,2017-11-02 07:20:22,1873.2970326455131,87.9000028128,0.7199994039200001,4.92951015774432,1874.197032674313,88.8000028416,4.0247966679128,5.08319016266208,718,-90.0,97,GPS_Atti,
0.0638222090248623,36.922172268161205,31800,2017-11-02 07:20:22,1873.1970326423134,87.8000028096,0.7199994039200001,4.913100157219201,1874.197032674313,88.8000028416,4.0247966679128,5.08319016266208,913,-90.0,97,GPS_Atti,
0.0638219910576334,36.9221722822885,31900,2017-11-02 07:20:22,1873.1970326423134,87.8000028096,1.07999910588,4.8923901565564805,1874.197032674313,88.8000028416,4.0247966679128,5.08319016266208,999,-90.0,97,GPS_Atti,
0.0638216950521111,36.922172268775796,32000,2017-11-02 07:20:22,1873.0970326391132,87.70000280640001,1.4399988078400001,4.86642015572544,1874.197032674313,88.8000028416,4.0247966679128,5.08319016266208,1013,-90.0,97,GPS_Atti,
0.0638213489295965,36.9221722947329,32100,2017-11-02 07:20:22,1872.9970326359132,87.60000280319998,1.4399988078400001,4.8334501546704,1874.197032674313,88.8000028416,4.0247966679128,5.08319016266208,982,-89.9,97,GPS_Atti,
0.0638210869162143,36.922172248771,32200,2017-11-02 07:20:22,1872.9970326359132,87.60000280319998,1.07999910588,4.812830154010561,1874.197032674313,88.8000028416,4.0247966679128,5.08319016266208,875,-89.9,97,GPS_Atti,
