latitude,longitude,time_millisecond,datetime_utc,altitude_m,ascent_m,speed_kph,distance_m,max_altitude_m,max_ascent_m,max_speed_kph,max_distance_m,rc_throttle,gimbal_pitch_degrees,battery_percent,flycState,message
0.349714655687199,36.8934929030363,0,2018-04-04 08:26:40,1764.9834548794822,0.0,0.0,0.0,1764.9834548794822,0.0,0.0,0.0,364,0.0,99,P-GPS,
0.349714621941011,36.8934928687507,100,2018-04-04 08:26:40,1764.9834548794822,0.0,0.0,0.00534977017119264,1764.9834548794822,0.0,0.0,0.00534977017119264,364,0.0,99,Motors_Started,
0.349714593068905,36.8934928181149,200,2018-04-04 08:26:40,1764.9834548794822,0.0,0.0,0.0117334003754688,1764.9834548794822,0.0,0.0,0.0117334003754688,364,0.0,99,Motors_Started,Setting new Return-To-Home altitude to 30m (98 ft). Setting new Maximum Flight Altitude to 150m (492 ft)
0.349714587297332,36.8934927876393,300,2018-04-04 08:26:40,1764.9834548794822,0.0,0.0,0.014917000477344,1764.9834548794822,0.0,0.0,0.014917000477344,364,0.0,99,Motors_Started,
0.349714579323262,36.8934927435594,400,2018-04-04 08:26:40,1764.9834548794822,0.0,0.0,0.0196629006292128,1764.9834548794822,0.0,0.0,0.0196629006292128,364,0.0,99,Motors_Started,
0.349714583005389,36.8934926985078,500,2018-04-04 08:26:40,1764.9834548794822,0.0,0.0,0.0241379007724128,1764.9834548794822,0.0,0.0,0.0241379007724128,364,0.0,99,Motors_Started,
0.349714583289451,36.8934926515413,600,2018-04-04 08:26:40,1764.9834548794822,0.0,0.0,0.029103000931296003,1764.9834548794822,0.0,0.0,0.029103000931296003,364,0.0,99,Motors_Started,
0.349714573228712,36.8934926238224,700,2018-04-04 08:26:40,1764.9834548794822,0.0,0.0,0.032375501036016004,1764.9834548794822,0.0,0.0,0.032375501036016004,364,0.0,99,Motors_Started,
0.3497145477232,36.8934926045078,800,2018-04-04 08:26:40,1764.9834548794822,0.0,0.0,0.035302001129664,1764.9834548794822,0.0,0.0,0.035302001129664,364,0.0,99,Motors_Started,
0.349714528580625,36.8934925854844,900,2018-04-04 08:26:41,1764.9834548794822,0.0,0.0,0.038037001217184,1764.9834548794822,0.0,0.0,0.038037001217184,364,0.0,99,Motors_Started,
0.34971451500568,36.8934925547395,1000,2018-04-04 08:26:41,1764.9834548794822,0.0,0.0,0.041772301336713606,1764.9834548794822,0.0,0.0,0.041772301336713606,364,0.0,99,Motors_Started,
0.349714509494956,36.8934925385665,1100,2018-04-04 08:26:41,1764.9834548794822,0.0,0.0,0.043669501397424,1764.9834548794822,0.0,0.0,0.043669501397424,364,0.0,99,Motors_Started,
0.349714504993987,36.8934925286951,1200,2018-04-04 08:26:41,1764.9834548794822,0.0,0.0,0.044874701435990406,1764.9834548794822,0.0,0.0,0.044874701435990406,364,0.0,99,Motors_Started,
0.349714510979244,36.8934925143362,1300,2018-04-04 08:26:41,1764.9834548794822,0.0,0.0,0.0461234014759488,1764.9834548794822,0.0,0.0,0.0461234014759488,364,0.0,99,Motors_Started,
0.349714511631512,36.8934924859633,1400,2018-04-04 08:26:41,1764.9834548794822,0.0,0.0,0.0490689015702048,1764.9834548794822,0.0,0.0,0.0490689015702048,364,0.0,99,Motors_Started,
0.349714501042046,36.893492473293,1500,2018-04-04 08:26:41,1764.9834548794822,0.0,0.0,0.0507894016252608,1764.9834548794822,0.0,0.0,0.0507894016252608,364,0.0,99,Motors_Started,
0.349714474760493,36.8934924646196,1600,2018-04-04 08:26:41,1764.9834548794822,0.0,0.0,0.05274220168775041,1764.9834548794822,0.0,0.0,0.05274220168775041,364,0.0,99,Assisted_Takeoff,
0.349714453230594,36.8934924469384,1700,2018-04-04 08:26:41,1764.9834548794822,0.0,0.0,0.0554924017757568,1764.9834548794822,0.0,0.0,0.0554924017757568,417,0.0,99,Assisted_Takeoff,
0.34971443897218,36.8934924212285,1800,2018-04-04 08:26:41,1764.9834548794822,0.0,0.0,0.05874960187998721,1764.9834548794822,0.0,0.0,0.05874960187998721,727,0.0,99,Assisted_Takeoff,
0.349714431433794,36.8934924049689,1900,2018-04-04 08:26:41,1764.9834548794822,0.0,0.0,0.06074250194376,1764.9834548794822,0.0,0.0,0.06074250194376,1024,0.0,99,Assisted_Takeoff,
0.349714426591184,36.8934923951295,2000,2018-04-04 08:26:42,1764.9834548794822,0.0,0.0,0.0619613019827616,1764.9834548794822,0.0,0.0,0.0619613019827616,1024,0.0,99,Assisted_Takeoff,
0.349714428856502,36.893492396942,2100,2018-04-04 08:26:42,1764.9834548794822,0.0,0.0,0.0616742019735744,1764.9834548794822,0.0,0.0,0.0619613019827616,1024,0.0,99,Assisted_Takeoff,
0.349714429057322,36.8934923973237,2200,2018-04-04 08:26:42,1764.9834548794822,0.0,0.0,0.06162630197204161,1764.9834548794822,0.0,0.0,0.0619613019827616,1024,0.0,99,Assisted_Takeoff,
0.349714435655217,36.8934923856087,2300,2018-04-04 08:26:42,1764.9834548794822,0.0,0.0,0.0625267020008544,1764.9834548794822,0.0,0.0,0.0625267020008544,1024,0.0,99,Assisted_Takeoff,
0.349714438389082,36.8934923608372,2400,2018-04-04 08:26:42,1764.9834548794822,0.0,0.0,0.0649569020786208,1764.9834548794822,0.0,0.0,0.0649569020786208,1024,0.0,99,Assisted_Takeoff,
0.349714445638253,36.8934923416457,2500,2018-04-04 08:26:42,1764.9834548794822,0.0,0.0,0.06665580213298561,1764.9834548794822,0.0,0.0,0.06665580213298561,1024,0.0,99,Assisted_Takeoff,
0.349714448747627,36.893492329879,2600,2018-04-04 08:26:42,1764.9834548794822,0.0,0.0,0.0677647021684704,1764.9834548794822,0.0,0.0,0.0677647021684704,1024,0.0,99,Assisted_Takeoff,
0.349714455238211,36.8934923265144,2700,2018-04-04 08:26:42,1764.9834548794822,0.0,0.0,0.0678763021720416,1764.9834548794822,0.0,0.0,0.0678763021720416,1024,0.0,99,Assisted_Takeoff,
0.349714456983572,36.8934923237844,2800,2018-04-04 08:26:42,1764.9834548794822,0.0,0.0,0.0680999021791968,1764.9834548794822,0.0,0.0,0.0680999021791968,1024,0.0,99,Assisted_Takeoff,
0.349714461244484,36.8934923068053,2900,2018-04-04 08:26:43,1764.9834548794822,0.0,0.0,0.06974020223168641,1764.9834548794822,0.0,0.0,0.06974020223168641,1025,0.0,99,Assisted_Takeoff,
0.34971446236479,36.893492279429,3000,2018-04-04 08:26:43,1764.9834548794822,0.0,0.0,0.0726036023233152,1764.9834548794822,0.0,0.0,0.0726036023233152,1126,0.0,99,Assisted_Takeoff,
0.349714466134651,36.8934922565919,3100,2018-04-04 08:26:43,1764.9834548794822,0.0,0.0,0.074914002397248,1764.9834548794822,0.0,0.0,0.074914002397248,1276,0.0,99,Assisted_Takeoff,
0.349714466955705,36.8934922424653,3200,2018-04-04 08:26:43,1764.9834548794822,0.0,0.0,0.07639760244472321,1764.9834548794822,0.0,0.0,0.07639760244472321,1276,0.0,99,Assisted_Takeoff,
0.349714470474327,36.8934922349843,3300,2018-04-04 08:26:43,1764.9834548794822,0.0,0.0,0.07709240246695681,1764.9834548794822,0.0,0.0,0.07709240246695681,1337,0.0,99,Assisted_Takeoff,
0.349714473005069,36.893492229426,3400,2018-04-04 08:26:43,1764.9834548794822,0.0,0.0,0.0776141024836512,1764.9834548794822,0.0,0.0,0.0776141024836512,1391,0.0,99,Assisted_Takeoff,
0.349714477259455,36.8934922120347,3500,2018-04-04 08:26:43,1764.9834548794822,0.0,0.0,0.0793627025396064,1764.9834548794822,0.0,0.0,0.0793627025396064,1424,0.0,99,Assisted_Takeoff,
0.349714496071018,36.8934922133491,3600,2018-04-04 08:26:43,1764.9834548794822,0.0,0.0,0.0787232025191424,1764.9834548794822,0.0,0.0,0.0793627025396064,1434,0.0,99,Assisted_Takeoff,
0.349714535707173,36.89349222151,3700,2018-04-04 08:26:43,1764.9834548794822,0.0,0.0,0.076954002462528,1764.9834548794822,0.0,0.0,0.0793627025396064,1445,0.0,99,P-GPS,Obstacle Avoided. Revise Flight Route
0.349714588191487,36.893492213802,3800,2018-04-04 08:26:43,1764.9834548794822,0.0,0.0,0.0770123024643936,1764.9834548794822,0.0,0.0,0.0793627025396064,1446,0.0,99,P-GPS,
0.349714626291288,36.8934921943602,3900,2018-04-04 08:26:44,1765.0834548826822,0.1000000032,0.0,0.0788754025240128,1765.0834548826822,0.1000000032,0.0,0.0793627025396064,1447,0.0,99,P-GPS,
0.349714610562756,36.893492172255,4000,2018-04-04 08:26:44,1765.1834548858824,0.2000000064,0.0,0.0814206026054592,1765.1834548858824,0.2000000064,0.0,0.0814206026054592,1447,0.0,99,P-GPS,
0.349714504322216,36.8934921378447,4200,2018-04-04 08:26:44,1765.4834548954823,0.500000016,0.0,0.0867413027757216,1765.4834548954823,0.500000016,0.0,0.0867413027757216,1447,0.0,99,P-GPS,
0.349714377690015,36.8934920464599,4300,2018-04-04 08:26:44,1765.6834549018822,0.7000000224,0.503999582744,0.100146003204672,1765.6834549018822,0.7000000224,0.503999582744,0.100146003204672,1455,0.0,99,P-GPS,Home Point Recorded. RTH Altitude:  30m.
0.349714244388541,36.89349191463,4400,2018-04-04 08:26:44,1765.8834549082824,0.9000000288000001,0.35999970196000003,0.119052003809664,1765.8834549082824,0.9000000288000001,0.503999582744,0.119052003809664,1468,0.0,99,P-GPS,
0.349714195152054,36.8934918491023,4500,2018-04-04 08:26:44,1766.183454917882,1.2000000384,0.0,0.127903004092896,1766.183454917882,1.2000000384,0.503999582744,0.127903004092896,1467,0.0,99,P-GPS,
0.349714191993254,36.8934918314286,4600,2018-04-04 08:26:44,1766.4834549274822,1.5000000480000002,0.35999970196000003,0.12984500415504002,1766.4834549274822,1.5000000480000002,0.503999582744,0.12984500415504002,1434,0.0,99,P-GPS,
0.349714195278182,36.8934917734188,4700,2018-04-04 08:26:44,1766.6834549338823,1.7000000544000002,0.7919993443119999,0.135652004340864,1766.6834549338823,1.7000000544000002,0.7919993443119999,0.135652004340864,1439,0.0,99,P-GPS,
0.349714071607249,36.8934916069923,4800,2018-04-04 08:26:44,1766.9834549434822,2.000000064,1.007999165488,0.158086005058752,1766.9834549434822,2.000000064,1.007999165488,0.158086005058752,1466,0.0,99,P-GPS,
0.349713886472555,36.8934913873497,4900,2018-04-04 08:26:45,1767.2834549530821,2.3000000736,1.007999165488,0.18901500604848,1767.2834549530821,2.3000000736,1.007999165488,0.18901500604848,1500,0.0,99,P-GPS,
0.349713684167904,36.8934911724809,5000,2018-04-04 08:26:45,1767.4834549594823,2.50000008,0.7919993443119999,0.220697007062304,1767.4834549594823,2.50000008,1.007999165488,0.220697007062304,1569,0.0,99,P-GPS,
0.349713478454207,36.8934909914541,5100,2018-04-04 08:26:45,1767.7834549690824,2.8000000896,0.7919993443119999,0.249654007988928,1767.7834549690824,2.8000000896,1.007999165488,0.249654007988928,1584,0.0,99,P-GPS,
0.349713276530307,36.8934908767225,5200,2018-04-04 08:26:45,1768.083454978682,3.1000000992000003,0.7199994039200001,0.272577008722464,1768.083454978682,3.1000000992000003,1.007999165488,0.272577008722464,1596,0.0,99,P-GPS,
0.349713083208051,36.893490810353,5300,2018-04-04 08:26:45,1768.3834549882822,3.4000001088000005,0.7199994039200001,0.291094009315008,1768.3834549882822,3.4000001088000005,1.007999165488,0.291094009315008,1585,0.0,99,P-GPS,
0.349712898119819,36.8934907466246,5400,2018-04-04 08:26:45,1768.7834550010823,3.8000001216000006,0.7919993443119999,0.309364009899648,1768.7834550010823,3.8000001216000006,1.007999165488,0.309364009899648,1561,0.0,99,P-GPS,
0.349712757234071,36.8934906884575,5500,2018-04-04 08:26:45,1769.0834550106822,4.100000131200001,0.7919993443119999,0.324377010380064,1769.0834550106822,4.100000131200001,1.007999165488,0.324377010380064,1546,0.0,99,P-GPS,
0.349712654872524,36.8934906439276,5600,2018-04-04 08:26:45,1769.4834550234823,4.500000144,0.35999970196000003,0.335589010738848,1769.4834550234823,4.500000144,1.007999165488,0.335589010738848,1540,0.0,99,P-GPS,
0.349712584985,36.8934905649625,5700,2018-04-04 08:26:45,1769.8834550362822,4.9000001568,0.35999970196000003,0.34731601111411203,1769.8834550362822,4.9000001568,1.007999165488,0.34731601111411203,1549,0.0,99,P-GPS,
0.349712512721983,36.8934904668728,5800,2018-04-04 08:26:45,1770.2834550490822,5.3000001696000005,0.35999970196000003,0.360811011545952,1770.2834550490822,5.3000001696000005,1.007999165488,0.360811011545952,1548,0.0,99,P-GPS,
0.349712463826527,36.8934903699575,5900,2018-04-04 08:26:45,1770.6834550618821,5.7000001824,0.503999582744,0.372507011920224,1770.6834550618821,5.7000001824,1.007999165488,0.372507011920224,1546,0.0,99,P-GPS,
0.349712422374078,36.8934902829956,6000,2018-04-04 08:26:46,1771.0834550746822,6.100000195200001,0.503999582744,0.382847012251104,1771.0834550746822,6.100000195200001,1.007999165488,0.382847012251104,1532,-0.1,99,P-GPS,
0.349712392380175,36.8934901672507,6100,2018-04-04 08:26:46,1771.4834550874823,6.500000208,0.503999582744,0.394849012635168,1771.4834550874823,6.500000208,1.007999165488,0.394849012635168,1525,-2.1,99,P-GPS,
0.349712356852413,36.8934900581108,6200,2018-04-04 08:26:46,1771.7834550970822,6.800000217600001,0.503999582744,0.406746013015872,1771.7834550970822,6.800000217600001,1.007999165488,0.406746013015872,1526,-5.9,99,P-GPS,
0.349712335314002,36.8934899559127,6300,2018-04-04 08:26:46,1772.1834551098823,7.200000230400001,0.0,0.417124013347968,1772.1834551098823,7.200000230400001,1.007999165488,0.417124013347968,1522,-10.3,99,P-GPS,
0.349712312918418,36.8934898947735,6400,2018-04-04 08:26:46,1772.5834551226822,7.600000243200001,0.0,0.424013013568416,1772.5834551226822,7.600000243200001,1.007999165488,0.424013013568416,1523,-14.8,99,P-GPS,
0.349712295050317,36.8934898703901,6500,2018-04-04 08:26:46,1772.8834551322823,7.9000002528,0.0,0.42737301367593605,1772.8834551322823,7.9000002528,1.007999165488,0.42737301367593605,1516,-14.8,99,P-GPS,
0.349712275410061,36.8934898859363,6600,2018-04-04 08:26:46,1773.2834551450824,8.300000265600001,0.0,0.42736001367552007,1773.2834551450824,8.300000265600001,1.007999165488,0.42737301367593605,1499,-19.3,99,P-GPS,
0.349712300707531,36.8934899743226,6700,2018-04-04 08:26:46,1773.5834551546823,8.6000002752,0.0,0.41791901337340803,1773.5834551546823,8.6000002752,1.007999165488,0.42737301367593605,1491,-20.2,99,P-GPS,
0.349712345040087,36.8934900938398,6800,2018-04-04 08:26:46,1773.9834551674824,9.000000288,0.0,0.404496012943872,1773.9834551674824,9.000000288,1.007999165488,0.42737301367593605,1490,-20.2,99,P-GPS,
0.349712406136252,36.8934902084585,6900,2018-04-04 08:26:47,1774.2834551770825,9.3000002976,0.0,0.390347012491104,1774.2834551770825,9.3000002976,1.007999165488,0.42737301367593605,1498,-20.2,99,P-GPS,
0.349712459673384,36.8934903001797,7000,2018-04-04 08:26:47,1774.6834551898824,9.7000003104,0.0,0.378707012118624,1774.6834551898824,9.7000003104,1.007999165488,0.42737301367593605,1498,-20.2,99,P-GPS,
0.349712539953027,36.8934903960282,7100,2018-04-04 08:26:47,1774.9834551994823,10.00000032,0.0,0.36480301167369605,1774.9834551994823,10.00000032,1.007999165488,0.42737301367593605,1492,-20.2,99,P-GPS,
0.349712623257708,36.8934904996534,7200,2018-04-04 08:26:47,1775.2834552090821,10.3000003296,0.0,0.35002201120070403,1775.2834552090821,10.3000003296,1.007999165488,0.42737301367593605,1489,-20.2,99,P-GPS,
0.349712702451382,36.8934905649812,7300,2018-04-04 08:26:47,1775.6834552218822,10.700000342400001,0.0,0.33879401084140803,1775.6834552218822,10.700000342400001,1.007999165488,0.42737301367593605,1496,-20.2,99,P-GPS,
0.349712767045242,36.8934906120816,7400,2018-04-04 08:26:47,1775.9834552314824,11.000000351999999,0.0,0.330176010565632,1775.9834552314824,11.000000351999999,1.007999165488,0.42737301367593605,1495,-20.2,99,P-GPS,
0.349712838956311,36.8934906447964,7500,2018-04-04 08:26:47,1776.3834552442822,11.4000003648,0.0,0.32230501031376,1776.3834552442822,11.4000003648,1.007999165488,0.42737301367593605,1492,-20.2,99,P-GPS,
0.349712920976048,36.8934907082785,7600,2018-04-04 08:26:47,1776.6834552538824,11.7000003744,0.0,0.31109900995516804,1776.6834552538824,11.7000003744,1.007999165488,0.42737301367593605,1495,-20.2,99,P-GPS,
0.349712995479397,36.8934907652391,7700,2018-04-04 08:26:47,1776.9834552634825,12.000000384000002,0.0,0.30100300963209603,1776.9834552634825,12.000000384000002,1.007999165488,0.42737301367593605,1497,-20.2,99,P-GPS,
0.349713065274913,36.8934908352556,7800,2018-04-04 08:26:47,1777.3834552762823,12.400000396800001,0.0,0.290096009283072,1777.3834552762823,12.400000396800001,1.007999165488,0.42737301367593605,1499,-20.2,99,P-GPS,
0.349713120750606,36.8934908860977,7900,2018-04-04 08:26:47,1777.6834552858822,12.700000406400001,0.0,0.281857009019424,1777.6834552858822,12.700000406400001,1.007999165488,0.42737301367593605,1500,-20.2,99,P-GPS,
0.349713178182264,36.8934909517189,8000,2018-04-04 08:26:48,1778.083455298682,13.100000419200002,0.0,0.272183008709856,1778.083455298682,13.100000419200002,1.007999165488,0.42737301367593605,1500,-20.2,99,P-GPS,
0.349713246864027,36.89349100852,8100,2018-04-04 08:26:48,1778.3834553082822,13.4000004288,0.0,0.262546008401472,1778.3834553082822,13.4000004288,1.007999165488,0.42737301367593605,1499,-20.2,99,P-GPS,
0.349713340195343,36.8934910773166,8200,2018-04-04 08:26:48,1778.783455321082,13.800000441600002,0.0,0.25024200800774404,1778.783455321082,13.800000441600002,1.007999165488,0.42737301367593605,1500,-20.2,99,P-GPS,
0.349713428954802,36.8934911424073,8300,2018-04-04 08:26:48,1779.0834553306822,14.100000451200001,0.0,0.23862900763612802,1779.0834553306822,14.100000451200001,1.007999165488,0.42737301367593605,1492,-20.5,99,P-GPS,
0.349713520318856,36.8934912222984,8400,2018-04-04 08:26:48,1779.4834553434823,14.500000464000001,0.0,0.22555500721776,1779.4834553434823,14.500000464000001,1.007999165488,0.42737301367593605,1492,-21.3,99,P-GPS,
0.349713597955636,36.8934912690418,8500,2018-04-04 08:26:48,1779.7834553530822,14.8000004736,0.0,0.21645600692659203,1779.7834553530822,14.8000004736,1.007999165488,0.42737301367593605,1491,-22.5,99,P-GPS,
0.34971367390087,36.8934913066652,8600,2018-04-04 08:26:48,1780.1834553658823,15.200000486400002,0.0,0.20841000666912002,1780.1834553658823,15.200000486400002,1.007999165488,0.42737301367593605,1479,-23.9,99,P-GPS,
0.349713763171254,36.8934913536098,8700,2018-04-04 08:26:48,1780.4834553754824,15.500000496,0.0,0.19884500636304003,1780.4834553754824,15.500000496,1.007999165488,0.42737301367593605,1475,-24.9,99,P-GPS,
0.349713860908834,36.8934914276593,8800,2018-04-04 08:26:48,1780.8834553882823,15.900000508800002,0.0,0.18636000596352,1780.8834553882823,15.900000508800002,1.007999165488,0.42737301367593605,1477,-24.9,99,P-GPS,
0.349713937996422,36.8934914934448,8900,2018-04-04 08:26:49,1781.1834553978824,16.2000005184,0.0,0.175901005628832,1781.1834553978824,16.2000005184,1.007999165488,0.42737301367593605,1479,-24.9,99,P-GPS,
0.349714004064023,36.8934915452799,9000,2018-04-04 08:26:49,1781.483455407482,16.500000528,0.0,0.16747700535926402,1781.483455407482,16.500000528,1.007999165488,0.42737301367593605,1477,-24.9,99,P-GPS,
0.349714046100167,36.8934915749547,9100,2018-04-04 08:26:49,1781.7834554170822,16.800000537600003,0.0,0.16250300520009603,1781.7834554170822,16.800000537600003,1.007999165488,0.42737301367593605,1475,-24.9,99,P-GPS,
0.349714065812482,36.8934916054603,9200,2018-04-04 08:26:49,1782.0834554266823,17.1000005472,0.0,0.158506005072192,1782.0834554266823,17.1000005472,1.007999165488,0.42737301367593605,1475,-24.9,99,P-GPS,
0.349714102757856,36.8934916316112,9300,2018-04-04 08:26:49,1782.4834554394822,17.50000056,0.0,0.15418000493376002,1782.4834554394822,17.50000056,1.007999165488,0.42737301367593605,1472,-24.9,99,P-GPS,
0.34971416197098,36.8934916664795,9400,2018-04-04 08:26:49,1782.7834554490823,17.8000005696,0.0,0.14806600473811202,1782.7834554490823,17.8000005696,1.007999165488,0.42737301367593605,1472,-24.9,99,P-GPS,
0.349714227400181,36.8934916970804,9500,2018-04-04 08:26:49,1783.083455458682,18.1000005792,0.0,0.142314004554048,1783.083455458682,18.1000005792,1.007999165488,0.42737301367593605,1475,-24.9,99,P-GPS,
0.349714297597135,36.8934917167724,9600,2018-04-04 08:26:49,1783.3834554682821,18.4000005888,0.0,0.13779700440950401,1783.3834554682821,18.4000005888,1.007999165488,0.42737301367593605,1469,-24.9,99,P-GPS,
0.349714398995393,36.8934917195362,9700,2018-04-04 08:26:49,1783.6834554778823,18.700000598400003,0.0,0.13467000430944,1783.6834554778823,18.700000598400003,1.007999165488,0.42737301367593605,1462,-24.9,99,P-GPS,
0.349714497964866,36.8934917240996,9800,2018-04-04 08:26:49,1783.9834554874824,19.000000608,0.0,0.132271004232672,1783.9834554874824,19.000000608,1.007999165488,0.42737301367593605,1457,-24.9,99,P-GPS,
0.349714577435043,36.8934917282,9900,2018-04-04 08:26:49,1784.3834555002823,19.4000006208,0.0,0.13093600418995202,1784.3834555002823,19.4000006208,1.007999165488,0.42737301367593605,1451,-24.9,99,P-GPS,
0.349714628582156,36.8934917279157,10000,2018-04-04 08:26:50,1784.6834555098824,19.7000006304,0.0,0.130713004182816,1784.6834555098824,19.7000006304,1.007999165488,0.42737301367593605,1424,-24.9,99,P-GPS,
0.349714661361194,36.8934917033736,10100,2018-04-04 08:26:50,1784.983455519482,20.00000064,0.0,0.133409004269088,1784.983455519482,20.00000064,1.007999165488,0.42737301367593605,1384,-24.9,99,P-GPS,
0.349714669185886,36.8934916799626,10200,2018-04-04 08:26:50,1785.2834555290822,20.3000006496,0.0,0.136019004352608,1785.2834555290822,20.3000006496,1.007999165488,0.42737301367593605,1347,-24.9,99,P-GPS,
0.349714677801716,36.8934916385187,10400,2018-04-04 08:26:50,1785.7834555450825,20.800000665600002,0.0,0.140641004500512,1785.7834555450825,20.800000665600002,1.007999165488,0.42737301367593605,1322,-24.9,99,P-GPS,
0.349714713107584,36.8934916051247,10500,2018-04-04 08:26:50,1785.9834555514822,21.000000672,0.0,0.144474004623168,1785.9834555514822,21.000000672,1.007999165488,0.42737301367593605,1302,-24.9,99,P-GPS,
0.349714769702069,36.8934915563526,10600,2018-04-04 08:26:50,1786.1834555578823,21.200000678400002,0.0,0.15029200480934402,1786.1834555578823,21.200000678400002,1.007999165488,0.42737301367593605,1321,-24.9,99,P-GPS,
0.349714822581017,36.8934914533611,10700,2018-04-04 08:26:50,1786.3834555642823,21.400000684800002,0.0,0.16227500519280003,1786.3834555642823,21.400000684800002,1.007999165488,0.42737301367593605,1381,-24.9,99,P-GPS,
0.349714847357716,36.8934913435639,10800,2018-04-04 08:26:50,1786.5834555706824,21.6000006912,0.0,0.1747250055912,1786.5834555706824,21.6000006912,1.007999165488,0.42737301367593605,1396,-24.9,99,P-GPS,
0.349714861625888,36.8934912133584,10900,2018-04-04 08:26:50,1786.7834555770821,21.8000006976,0.0,0.18928900605724802,1786.7834555770821,21.8000006976,1.007999165488,0.42737301367593605,1437,-24.9,99,P-GPS,
0.349714860124666,36.893491103134,11000,2018-04-04 08:26:51,1787.0834555866822,22.1000007072,0.0,0.201443006446176,1787.0834555866822,22.1000007072,1.007999165488,0.42737301367593605,1439,-24.9,99,P-GPS,
0.349714862578808,36.8934910036927,11100,2018-04-04 08:26:51,1787.3834555962824,22.4000007168,0.0,0.212464006798848,1787.3834555962824,22.4000007168,1.007999165488,0.42737301367593605,1436,-24.9,99,P-GPS,
0.349714872079506,36.893490952751,11200,2018-04-04 08:26:51,1787.583455602682,22.6000007232,0.0,0.218211006982752,1787.583455602682,22.6000007232,1.007999165488,0.42737301367593605,1432,-24.9,99,P-GPS,
0.349714903685034,36.893490897976,11300,2018-04-04 08:26:51,1787.8834556122822,22.900000732800002,0.0,0.22467000718944,1787.8834556122822,22.900000732800002,1.007999165488,0.42737301367593605,1439,-24.9,99,P-GPS,
0.349714942214503,36.8934908625382,11400,2018-04-04 08:26:51,1788.0834556186824,23.1000007392,0.0,0.229138007332416,1788.0834556186824,23.1000007392,1.007999165488,0.42737301367593605,1437,-24.9,99,P-GPS,
0.349714994673681,36.8934908042811,11500,2018-04-04 08:26:51,1788.3834556282823,23.4000007488,0.0,0.23641500756528003,1788.3834556282823,23.4000007488,1.007999165488,0.42737301367593605,1440,-24.9,99,P-GPS,
0.349715036627589,36.8934907538956,11600,2018-04-04 08:26:51,1788.5834556346822,23.6000007552,0.0,0.242719007767008,1788.5834556346822,23.6000007552,1.007999165488,0.42737301367593605,1442,-24.9,99,P-GPS,
0.349715074492729,36.8934907106852,11700,2018-04-04 08:26:51,1788.8834556442823,23.9000007648,0.0,0.24820700794262404,1788.8834556442823,23.9000007648,1.007999165488,0.42737301367593605,1440,-24.9,99,P-GPS,
0.349715113116723,36.8934906950888,11800,2018-04-04 08:26:51,1789.0834556506823,24.100000771200005,0.0,0.25074700802390404,1789.0834556506823,24.100000771200005,1.007999165488,0.42737301367593605,1440,-24.9,99,P-GPS,
0.3497151744311,36.8934906590005,11900,2018-04-04 08:26:52,1789.3834556602822,24.400000780800003,0.0,0.256127008196064,1789.3834556602822,24.400000780800003,1.007999165488,0.42737301367593605,1440,-24.9,99,P-GPS,
0.349715231629127,36.8934906176171,12000,2018-04-04 08:26:52,1789.6834556698823,24.7000007904,0.0,0.262094008387008,1789.6834556698823,24.7000007904,1.007999165488,0.42737301367593605,1429,-24.9,99,P-GPS,
0.349715283492575,36.8934905126788,12100,2018-04-04 08:26:52,1789.9834556794824,25.000000800000002,0.0,0.27483300879465605,1789.9834556794824,25.000000800000002,1.007999165488,0.42737301367593605,1435,-24.9,99,P-GPS,
0.3497153141748,36.8934904042964,12200,2018-04-04 08:26:52,1790.283455689082,25.3000008096,0.0,0.287357009195424,1790.283455689082,25.3000008096,1.007999165488,0.42737301367593605,1435,-24.9,99,P-GPS,
0.349715367818646,36.8934903144567,12300,2018-04-04 08:26:52,1790.4834556954822,25.500000816000004,0.0,0.29855500955376,1790.4834556954822,25.500000816000004,1.007999165488,0.42737301367593605,1436,-24.9,99,P-GPS,
0.349715424112479,36.8934902849666,12400,2018-04-04 08:26:52,1790.7834557050824,25.8000008256,0.0,0.303422009709504,1790.7834557050824,25.8000008256,1.007999165488,0.42737301367593605,1433,-24.9,99,P-GPS,
0.349715488723031,36.8934902317852,12500,2018-04-04 08:26:52,1791.083455714682,26.100000835200003,0.0,0.311164009957248,1791.083455714682,26.100000835200003,1.007999165488,0.42737301367593605,1432,-24.9,99,P-GPS,
0.349715537565969,36.893490193877,12600,2018-04-04 08:26:52,1791.3834557242822,26.4000008448,0.0,0.31683001013856005,1791.3834557242822,26.4000008448,1.007999165488,0.42737301367593605,1429,-24.9,99,P-GPS,
0.349715583844719,36.8934901142925,12700,2018-04-04 08:26:52,1791.5834557306823,26.6000008512,0.0,0.32684501045904,1791.5834557306823,26.6000008512,1.007999165488,0.42737301367593605,1428,-24.9,99,P-GPS,
0.349715610871902,36.8934900247494,12800,2018-04-04 08:26:52,1791.8834557402822,26.900000860800002,0.0,0.33724301079177604,1791.8834557402822,26.900000860800002,1.007999165488,0.42737301367593605,1429,-24.9,99,P-GPS,
0.349715638762568,36.8934898882124,12900,2018-04-04 08:26:52,1792.1834557498821,27.200000870400004,0.0,0.35263501128432,1792.1834557498821,27.200000870400004,1.007999165488,0.42737301367593605,1426,-24.9,99,P-GPS,
0.349715679724652,36.8934897684329,13000,2018-04-04 08:26:53,1792.3834557562823,27.4000008768,0.0,0.366711011734752,1792.3834557562823,27.4000008768,1.007999165488,0.42737301367593605,1425,-24.9,99,P-GPS,
0.349715736852605,36.8934896189813,13100,2018-04-04 08:26:53,1792.6834557658824,27.7000008864,0.0,0.384483012303456,1792.6834557658824,27.7000008864,1.007999165488,0.42737301367593605,1424,-24.9,99,P-GPS,
0.34971577850006,36.8934895127492,13200,2018-04-04 08:26:53,1792.983455775482,28.000000896,0.0,0.397153012708896,1792.983455775482,28.000000896,1.007999165488,0.42737301367593605,1422,-24.9,99,P-GPS,
0.349715826457837,36.8934893771752,13300,2018-04-04 08:26:53,1793.1834557818822,28.200000902400003,0.0,0.413141013220512,1793.1834557818822,28.200000902400003,1.007999165488,0.42737301367593605,1421,-24.9,99,P-GPS,
0.349715878396651,36.8934892696781,13400,2018-04-04 08:26:53,1793.3834557882822,28.4000009088,0.0,0.42631001364192,1793.3834557882822,28.4000009088,1.007999165488,0.42737301367593605,1421,-24.9,99,P-GPS,
0.349715952416047,36.8934891448374,13500,2018-04-04 08:26:53,1793.6834557978823,28.7000009184,0.0,0.442106014147392,1793.6834557978823,28.7000009184,1.007999165488,0.442106014147392,1424,-24.9,99,P-GPS,
0.349716010791693,36.8934890652556,13600,2018-04-04 08:26:53,1793.8834558042822,28.9000009248,0.0,0.452601014483232,1793.8834558042822,28.9000009248,1.007999165488,0.452601014483232,1424,-24.9,99,P-GPS,
0.349716038643174,36.8934889436529,13700,2018-04-04 08:26:53,1794.1834558138821,29.200000934400002,0.0,0.466386014924352,1794.1834558138821,29.200000934400002,1.007999165488,0.466386014924352,1424,-24.9,99,P-GPS,
0.349716041012865,36.8934888463314,13800,2018-04-04 08:26:53,1794.3834558202823,29.4000009408,0.0,0.476702015254464,1794.3834558202823,29.4000009408,1.007999165488,0.476702015254464,1424,-24.9,99,P-GPS,
0.349716055754253,36.8934887649831,13900,2018-04-04 08:26:54,1794.6834558298824,29.700000950400003,0.0,0.485794015545408,1794.6834558298824,29.700000950400003,1.007999165488,0.485794015545408,1424,-24.9,99,P-GPS,
0.349716089605024,36.8934887481126,14000,2018-04-04 08:26:54,1794.883455836282,29.900000956800003,0.0,0.488787015641184,1794.883455836282,29.900000956800003,1.007999165488,0.488787015641184,1423,-24.9,99,P-GPS,
0.349716126363483,36.893488732051,14100,2018-04-04 08:26:54,1795.1834558458822,30.2000009664,0.0,0.49182001573824,1795.1834558458822,30.2000009664,1.007999165488,0.49182001573824,1424,-24.9,99,P-GPS,
0.349716120661486,36.893488747595,14200,2018-04-04 08:26:54,1795.3834558522824,30.400000972800004,0.0,0.489979015679328,1795.3834558522824,30.400000972800004,1.007999165488,0.49182001573824,1424,-24.9,99,P-GPS,
0.34971610665412,36.893488760273,14300,2018-04-04 08:26:54,1795.683455861882,30.700000982400002,0.0,0.488132015620224,1795.683455861882,30.700000982400002,1.007999165488,0.49182001573824,1424,-24.9,99,P-GPS,
0.349716078919683,36.89348879274,14400,2018-04-04 08:26:54,1795.8834558682822,30.900000988800002,0.35999970196000003,0.48370801547865605,1795.8834558682822,30.900000988800002,1.007999165488,0.49182001573824,1420,-24.9,99,P-GPS,
0.349716030782573,36.8934888135154,14500,2018-04-04 08:26:54,1796.1834558778824,31.2000009984,0.35999970196000003,0.47979301535337604,1796.1834558778824,31.2000009984,1.007999165488,0.49182001573824,1421,-24.9,99,P-GPS,
0.34971599060428,36.8934888611795,14600,2018-04-04 08:26:54,1796.3834558842823,31.400001004800004,0.35999970196000003,0.473351015147232,1796.3834558842823,31.400001004800004,1.007999165488,0.49182001573824,1424,-24.9,99,P-GPS,
0.349715989283713,36.8934888830619,14700,2018-04-04 08:26:54,1796.5834558906822,31.6000010112,0.0,0.47099501507184,1796.5834558906822,31.6000010112,1.007999165488,0.49182001573824,1420,-24.9,99,P-GPS,
0.349716016297258,36.8934889158249,14800,2018-04-04 08:26:54,1796.8834559002823,31.9000010208,0.0,0.468500014992,1796.8834559002823,31.9000010208,1.007999165488,0.49182001573824,1419,-24.9,99,P-GPS,
0.349716075469824,36.8934889407179,14900,2018-04-04 08:26:54,1797.0834559066823,32.1000010272,0.35999970196000003,0.46806001497792005,1797.0834559066823,32.1000010272,1.007999165488,0.49182001573824,1419,-24.9,99,P-GPS,
0.349716143251465,36.8934889937729,15000,2018-04-04 08:26:55,1797.2834559130824,32.3000010336,0.35999970196000003,0.465137014884384,1797.2834559130824,32.3000010336,1.007999165488,0.49182001573824,1418,-24.9,99,P-GPS,
0.349716218534634,36.8934890553601,15100,2018-04-04 08:26:55,1797.583455922682,32.6000010432,0.35999970196000003,0.46182701477846405,1797.583455922682,32.6000010432,1.007999165488,0.49182001573824,1417,-24.9,99,P-GPS,
0.349716274104166,36.8934891568308,15200,2018-04-04 08:26:55,1797.7834559290823,32.800001049600006,0.35999970196000003,0.453808014521856,1797.7834559290823,32.800001049600006,1.007999165488,0.49182001573824,1418,-24.9,99,P-GPS,
0.34971633004081,36.8934892418404,15300,2018-04-04 08:26:55,1797.9834559354822,33.000001056,0.35999970196000003,0.44769701432630404,1797.9834559354822,33.000001056,1.007999165488,0.49182001573824,1419,-24.9,99,P-GPS,
0.349716371732844,36.893489338062,15400,2018-04-04 08:26:55,1798.1834559418824,33.200001062400005,0.35999970196000003,0.43998001407936005,1798.1834559418824,33.200001062400005,1.007999165488,0.49182001573824,1420,-24.9,99,P-GPS,
0.349716423711148,36.893489446962,15500,2018-04-04 08:26:55,1798.4834559514823,33.500001072,0.35999970196000003,0.431702013814464,1798.4834559514823,33.500001072,1.007999165488,0.49182001573824,1419,-24.9,99,P-GPS,
0.349716467167194,36.8934895739456,15600,2018-04-04 08:26:55,1798.6834559578822,33.7000010784,0.35999970196000003,0.421468013486976,1798.6834559578822,33.7000010784,1.007999165488,0.49182001573824,1419,-24.9,99,P-GPS,
0.349716512502464,36.8934896543699,15700,2018-04-04 08:26:55,1798.8834559642823,33.9000010848,0.35999970196000003,0.416113013315616,1798.8834559642823,33.9000010848,1.007999165488,0.49182001573824,1417,-24.9,99,P-GPS,
0.349716544055399,36.893489713356,15800,2018-04-04 08:26:55,1799.0834559706823,34.1000010912,0.35999970196000003,0.41220801319065603,1799.0834559706823,34.1000010912,1.007999165488,0.49182001573824,1415,-24.9,99,P-GPS,
0.349716586402881,36.8934897602723,15900,2018-04-04 08:26:56,1799.2834559770822,34.3000010976,0.35999970196000003,0.41017201312550405,1799.2834559770822,34.3000010976,1.007999165488,0.49182001573824,1415,-24.9,99,P-GPS,
0.34971664547367,36.8934898322212,16000,2018-04-04 08:26:56,1799.4834559834821,34.500001104,0.35999970196000003,0.40691101302115207,1799.4834559834821,34.500001104,1.007999165488,0.49182001573824,1415,-24.9,99,P-GPS,
0.349716693803038,36.8934898738589,16100,2018-04-04 08:26:56,1799.6834559898823,34.7000011104,0.35999970196000003,0.40600901299228803,1799.6834559898823,34.7000011104,1.007999165488,0.49182001573824,1411,-24.9,99,P-GPS,
0.34971672008246,36.8934899180788,16200,2018-04-04 08:26:56,1799.8834559962822,34.900001116800006,0.35999970196000003,0.403593012914976,1799.8834559962822,34.900001116800006,1.007999165488,0.49182001573824,1410,-24.9,99,P-GPS,
0.34971673377462,36.8934899779514,16300,2018-04-04 08:26:56,1800.0834560026822,35.1000011232,0.35999970196000003,0.39901501276848,1800.0834560026822,35.1000011232,1.007999165488,0.49182001573824,1408,-24.9,99,P-GPS,
0.349716749631594,36.8934900743507,16400,2018-04-04 08:26:56,1800.3834560122823,35.4000011328,0.35999970196000003,0.391372012523904,1800.3834560122823,35.4000011328,1.007999165488,0.49182001573824,1404,-24.9,99,P-GPS,
0.349716762032398,36.8934901614641,16500,2018-04-04 08:26:56,1800.5834560186822,35.6000011392,0.35999970196000003,0.384468012302976,1800.5834560186822,35.6000011392,1.007999165488,0.49182001573824,1402,-24.9,99,P-GPS,
0.349716767109073,36.8934902420528,16600,2018-04-04 08:26:56,1800.7834560250824,35.8000011456,0.35999970196000003,0.377752012088064,1800.7834560250824,35.8000011456,1.007999165488,0.49182001573824,1402,-24.9,99,P-GPS,
0.34971678263364,36.8934902964332,16700,2018-04-04 08:26:56,1800.983456031482,36.000001152,0.35999970196000003,0.374123011971936,1800.983456031482,36.000001152,1.007999165488,0.49182001573824,1404,-24.9,99,P-GPS,
0.34971680987303,36.893490331924,16800,2018-04-04 08:26:56,1801.1834560378823,36.2000011584,0.0,0.373011011936352,1801.1834560378823,36.2000011584,1.007999165488,0.49182001573824,1407,-24.9,99,P-GPS,
0.349716836962806,36.8934903632716,16900,2018-04-04 08:26:56,1801.3834560442822,36.4000011648,0.0,0.372302011913664,1801.3834560442822,36.4000011648,1.007999165488,0.49182001573824,1404,-24.9,99,P-GPS,
0.34971684359668,36.8934904109999,17000,2018-04-04 08:26:57,1801.5834560506823,36.6000011712,0.0,0.36877801180089603,1801.5834560506823,36.6000011712,1.007999165488,0.49182001573824,1401,-24.9,99,P-GPS,
0.34971686285303,36.8934904606419,17100,2018-04-04 08:26:57,1801.783456057082,36.8000011776,0.0,0.36608001171456,1801.783456057082,36.8000011776,1.007999165488,0.49182001573824,1402,-24.9,99,P-GPS,
0.349716885145411,36.8934904945402,17200,2018-04-04 08:26:57,1801.9834560634822,37.000001184000006,0.0,0.36497201167910404,1801.9834560634822,37.000001184000006,1.007999165488,0.49182001573824,1409,-24.9,99,P-GPS,
0.349716915557824,36.8934905043656,17300,2018-04-04 08:26:57,1802.1834560698821,37.2000011904,0.0,0.366481011727392,1802.1834560698821,37.2000011904,1.007999165488,0.49182001573824,1418,-24.9,99,P-GPS,
0.349716938558577,36.8934905009044,17400,2018-04-04 08:26:57,1802.3834560762823,37.400001196800005,0.0,0.368519011792608,1802.3834560762823,37.400001196800005,1.007999165488,0.49182001573824,1416,-24.9,99,P-GPS,
0.349716990093741,36.893490524139,17500,2018-04-04 08:26:57,1802.5834560826822,37.6000012032,0.0,0.37064201186054396,1802.5834560826822,37.6000012032,1.007999165488,0.49182001573824,1419,-24.9,99,P-GPS,
0.349717051680475,36.8934905627501,17600,2018-04-04 08:26:57,1802.8834560922821,37.9000012128,0.0,0.372458011918656,1802.8834560922821,37.9000012128,1.007999165488,0.49182001573824,1419,-24.9,99,P-GPS,
0.349717140246659,36.8934905730364,17700,2018-04-04 08:26:57,1803.0834560986823,38.1000012192,0.0,0.378783012121056,1803.0834560986823,38.1000012192,1.007999165488,0.49182001573824,1420,-24.9,99,P-GPS,
0.349717223138937,36.8934905627057,17800,2018-04-04 08:26:57,1803.2834561050822,38.3000012256,0.0,0.386331012362592,1803.2834561050822,38.3000012256,1.007999165488,0.49182001573824,1420,-24.9,99,P-GPS,
0.349717300586512,36.8934905499019,17900,2018-04-04 08:26:58,1803.4834561114824,38.500001232,0.0,0.39368401259788804,1803.4834561114824,38.500001232,1.007999165488,0.49182001573824,1420,-24.9,99,P-GPS,
0.349717357045276,36.8934905536024,18000,2018-04-04 08:26:58,1803.7834561210823,38.8000012416,0.0,0.39812701274006407,1803.7834561210823,38.8000012416,1.007999165488,0.49182001573824,1417,-24.9,99,P-GPS,
0.34971740538645,36.8934905589366,18100,2018-04-04 08:26:58,1803.9834561274822,39.000001248000004,0.0,0.401813012858016,1803.9834561274822,39.000001248000004,1.007999165488,0.49182001573824,1415,-24.9,99,P-GPS,
0.3497174410738,36.8934905780671,18200,2018-04-04 08:26:58,1804.1834561338824,39.2000012544,0.0,0.40347501291119997,1804.1834561338824,39.2000012544,1.007999165488,0.49182001573824,1414,-24.9,99,P-GPS,
0.349717479359333,36.8934905920888,18300,2018-04-04 08:26:58,1804.483456143482,39.500001264,0.0,0.405764012984448,1804.483456143482,39.500001264,1.007999165488,0.49182001573824,1419,-24.9,99,P-GPS,
0.349717510448568,36.8934906119296,18400,2018-04-04 08:26:58,1804.6834561498822,39.7000012704,0.0,0.40706001302592,1804.6834561498822,39.7000012704,1.007999165488,0.49182001573824,1419,-24.9,99,P-GPS,
0.349717559648339,36.8934906485242,18500,2018-04-04 08:26:58,1804.9834561594823,40.00000128,0.0,0.40883401308268796,1804.9834561594823,40.00000128,1.007999165488,0.49182001573824,1420,-24.9,99,P-GPS,
0.349717610997657,36.8934907084466,18600,2018-04-04 08:26:58,1805.1834561658823,40.2000012864,0.0,0.409352013099264,1805.1834561658823,40.2000012864,1.007999165488,0.49182001573824,1424,-24.9,99,P-GPS,
0.349717656683449,36.8934907749574,18700,2018-04-04 08:26:58,1805.4834561754822,40.500001296,0.0,0.409119013091808,1805.4834561754822,40.500001296,1.007999165488,0.49182001573824,1422,-24.9,99,P-GPS,
0.349717672823569,36.8934908419704,18800,2018-04-04 08:26:58,1805.7834561850823,40.8000013056,0.0,0.40633501300272,1805.7834561850823,40.8000013056,1.007999165488,0.49182001573824,1421,-25.1,99,P-GPS,
0.34971767827967,36.8934908854458,18900,2018-04-04 08:26:58,1806.0834561946824,41.100001315200004,0.0,0.40413301293225606,1806.0834561946824,41.100001315200004,1.007999165488,0.49182001573824,1419,-25.2,99,P-GPS,
0.349717655126453,36.893490915582,19000,2018-04-04 08:26:59,1806.2834562010821,41.30000132160001,0.0,0.40013301280425606,1806.2834562010821,41.30000132160001,1.007999165488,0.49182001573824,1419,-25.2,99,P-GPS,
0.3497176095746,36.893490917364,19100,2018-04-04 08:26:59,1806.5834562106822,41.600001331200005,0.0,0.395809012665888,1806.5834562106822,41.600001331200005,1.007999165488,0.49182001573824,1411,-25.2,99,P-GPS,
0.349717557037333,36.8934909177408,19200,2018-04-04 08:26:59,1806.8834562202824,41.9000013408,0.0,0.3909500125104,1806.8834562202824,41.9000013408,1.007999165488,0.49182001573824,1404,-25.2,98,P-GPS,
0.349717505344617,36.8934908801388,19300,2018-04-04 08:26:59,1807.0834562266823,42.100001347200006,0.0,0.38862501243600006,1807.0834562266823,42.100001347200006,1.007999165488,0.49182001573824,1404,-25.2,98,P-GPS,
0.349717465672261,36.8934908466414,19400,2018-04-04 08:26:59,1807.2834562330822,42.300001353599995,0.0,0.38722401239116805,1807.2834562330822,42.300001353599995,1.007999165488,0.49182001573824,1404,-25.2,98,P-GPS,
0.349717426710721,36.893490782829,19500,2018-04-04 08:26:59,1807.5834562426821,42.6000013632,0.0,0.38800701241622404,1807.5834562426821,42.6000013632,1.007999165488,0.49182001573824,1406,-25.2,98,P-GPS,
0.349717403347435,36.893490731715,19600,2018-04-04 08:26:59,1807.7834562490823,42.800001369600004,0.0,0.38944501246224006,1807.7834562490823,42.800001369600004,1.007999165488,0.49182001573824,1407,-25.2,98,P-GPS,
0.349717395522354,36.8934906286497,19700,2018-04-04 08:26:59,1807.9834562554825,43.000001376,0.0,0.3959830126714561,1807.9834562554825,43.000001376,1.007999165488,0.49182001573824,1406,-25.2,98,P-GPS,
0.349717406555469,36.8934905262952,19800,2018-04-04 08:26:59,1808.2834562650821,43.300001385600005,0.0,0.404276012936832,1808.2834562650821,43.300001385600005,1.007999165488,0.49182001573824,1404,-25.2,98,P-GPS,
0.349717433075087,36.8934903992935,19900,2018-04-04 08:27:00,1808.4834562714823,43.500001392,0.0,0.41583301330665606,1808.4834562714823,43.500001392,1.007999165488,0.49182001573824,1404,-25.4,98,P-GPS,
0.349717459848335,36.8934903127453,20000,2018-04-04 08:27:00,1808.6834562778822,43.7000013984,0.0,0.42452001358464003,1808.6834562778822,43.7000013984,1.007999165488,0.49182001573824,1401,-25.6,98,P-GPS,
0.349717500964917,36.8934902227884,20100,2018-04-04 08:27:00,1808.8834562842824,43.9000014048,0.0,0.434687013909984,1808.8834562842824,43.9000014048,1.007999165488,0.49182001573824,1394,-25.8,98,P-GPS,
0.349717550224534,36.8934901667742,20200,2018-04-04 08:27:00,1809.083456290682,44.100001411200004,0.0,0.442947014174304,1809.083456290682,44.100001411200004,1.007999165488,0.49182001573824,1394,-25.8,98,P-GPS,
0.349717594864865,36.893490087041,20300,2018-04-04 08:27:00,1809.2834562970822,44.30000141760001,0.0,0.45265501448496,1809.2834562970822,44.30000141760001,1.007999165488,0.49182001573824,1389,-25.8,98,P-GPS,
0.349717615329725,36.8934900246728,20400,2018-04-04 08:27:00,1809.4834563034822,44.500001424,0.0,0.45911001469152,1809.4834563034822,44.500001424,1.007999165488,0.49182001573824,1390,-25.8,98,P-GPS,
0.349717619743215,36.8934899432191,20500,2018-04-04 08:27:00,1809.6834563098823,44.7000014304,0.0,0.465817014906144,1809.6834563098823,44.7000014304,1.007999165488,0.49182001573824,1393,-25.8,98,P-GPS,
0.34971761520637,36.8934898804409,20600,2018-04-04 08:27:00,1809.883456316282,44.900001436800004,0.0,0.470423015053536,1809.883456316282,44.900001436800004,1.007999165488,0.49182001573824,1396,-25.8,98,P-GPS,
0.349717619104662,36.8934898065654,20700,2018-04-04 08:27:00,1810.0834563226822,45.1000014432,0.0,0.476627015252064,1810.0834563226822,45.1000014432,1.007999165488,0.49182001573824,1410,-25.8,98,P-GPS,
0.349717631542717,36.8934897732597,20800,2018-04-04 08:27:00,1810.2834563290824,45.3000014496,0.0,0.48026201536838403,1810.2834563290824,45.3000014496,1.007999165488,0.49182001573824,1410,-25.8,98,P-GPS,
0.34971764004177,36.8934897347134,20900,2018-04-04 08:27:00,1810.4834563354823,45.50000145600001,0.0,0.4840250154888,1810.4834563354823,45.50000145600001,1.007999165488,0.49182001573824,1414,-25.8,98,P-GPS,
0.349717637498547,36.8934897321054,21000,2018-04-04 08:27:01,1810.6834563418824,45.7000014624,0.0,0.484042015489344,1810.6834563418824,45.7000014624,1.007999165488,0.49182001573824,1419,-25.8,98,P-GPS,
0.349717613440323,36.8934897350688,21100,2018-04-04 08:27:01,1810.8834563482822,45.9000014688,0.0,0.481972015423104,1810.8834563482822,45.9000014688,1.007999165488,0.49182001573824,1418,-25.8,98,P-GPS,
0.349717575294226,36.8934897608472,21200,2018-04-04 08:27:01,1811.1834563578823,46.2000014784,0.0,0.476983015263456,1811.1834563578823,46.2000014784,1.007999165488,0.49182001573824,1419,-25.8,98,P-GPS,
0.349717542766667,36.8934897700484,21300,2018-04-04 08:27:01,1811.3834563642822,46.4000014848,0.0,0.473776015160832,1811.3834563642822,46.4000014848,1.007999165488,0.49182001573824,1420,-25.8,98,P-GPS,
0.349717527177369,36.8934897890339,21400,2018-04-04 08:27:01,1811.5834563706824,46.600001491200004,0.0,0.47104801507353605,1811.5834563706824,46.600001491200004,1.007999165488,0.49182001573824,1420,-25.8,98,P-GPS,
0.3497175210361,36.8934897769313,21500,2018-04-04 08:27:01,1811.8834563802823,46.9000015008,0.0,0.471577015090464,1811.8834563802823,46.9000015008,1.007999165488,0.49182001573824,1420,-25.8,98,P-GPS,
0.349717524866811,36.8934897664309,21600,2018-04-04 08:27:01,1812.0834563866822,47.100001507200005,0.0,0.47272601512723206,1812.0834563866822,47.100001507200005,1.007999165488,0.49182001573824,1420,-25.8,98,P-GPS,
0.34971752839626,36.893489755703,21700,2018-04-04 08:27:01,1812.3834563962823,47.4000015168,0.0,0.47387101516387203,1812.3834563962823,47.4000015168,1.007999165488,0.49182001573824,1420,-25.8,98,P-GPS,
0.349717534753705,36.8934897829443,21800,2018-04-04 08:27:01,1812.5834564026825,47.6000015232,0.0,0.472117015107744,1812.5834564026825,47.6000015232,1.007999165488,0.49182001573824,1421,-25.8,98,P-GPS,
0.349717545107352,36.8934897954178,21900,2018-04-04 08:27:02,1812.7834564090822,47.8000015296,0.0,0.471882015100224,1812.7834564090822,47.8000015296,1.007999165488,0.49182001573824,1420,-25.8,98,P-GPS,
0.349717549958487,36.8934898200373,22000,2018-04-04 08:27:02,1812.9834564154824,48.000001536000006,0.0,0.470250015048,1812.9834564154824,48.000001536000006,1.007999165488,0.49182001573824,1414,-25.8,98,P-GPS,
0.349717569688918,36.8934898282156,22100,2018-04-04 08:27:02,1813.1834564218823,48.20000154240001,0.0,0.47109401507500803,1813.1834564218823,48.20000154240001,1.007999165488,0.49182001573824,1414,-25.8,98,P-GPS,
0.349717593470714,36.8934898545512,22200,2018-04-04 08:27:02,1813.3834564282824,48.4000015488,0.0,0.470804015065728,1813.3834564282824,48.4000015488,1.007999165488,0.49182001573824,1419,-25.8,98,P-GPS,
0.349717617033891,36.8934898780203,22300,2018-04-04 08:27:02,1813.5834564346821,48.6000015552,0.0,0.470757015064224,1813.5834564346821,48.6000015552,1.007999165488,0.49182001573824,1421,-25.8,98,P-GPS,
0.349717630787322,36.893489915117,22400,2018-04-04 08:27:02,1813.8834564442823,48.9000015648,0.0,0.468896015004672,1813.8834564442823,48.9000015648,1.007999165488,0.49182001573824,1420,-25.8,98,P-GPS,
0.349717642434972,36.8934899242369,22500,2018-04-04 08:27:02,1814.1834564538824,49.200001574400005,0.0,0.46909401501100806,1814.1834564538824,49.200001574400005,1.007999165488,0.49182001573824,1420,-25.8,98,P-GPS,
0.34971764623006,36.8934899343401,22600,2018-04-04 08:27:02,1814.383456460282,49.4000015808,0.0,0.46860101499523205,1814.383456460282,49.4000015808,1.007999165488,0.49182001573824,1417,-25.8,98,P-GPS,
0.349717628700471,36.8934899348331,22700,2018-04-04 08:27:02,1814.6834564698822,49.70000159040001,0.0,0.4671810149497921,1814.6834564698822,49.70000159040001,1.007999165488,0.49182001573824,1417,-25.8,98,P-GPS,
0.349717596520789,36.8934899506282,22800,2018-04-04 08:27:02,1814.9834564794824,50.000001600000004,0.0,0.46340901482908803,1814.9834564794824,50.000001600000004,1.007999165488,0.49182001573824,1415,-25.8,98,P-GPS,
0.349717568460664,36.8934899480309,22900,2018-04-04 08:27:02,1815.183456485882,50.20000160640001,0.0,0.46141801476537603,1815.183456485882,50.20000160640001,1.007999165488,0.49182001573824,1412,-25.8,98,P-GPS,
0.349717558467514,36.8934899514338,23000,2018-04-04 08:27:03,1815.4834564954822,50.500001616000006,0.0,0.460369014731808,1815.4834564954822,50.500001616000006,1.007999165488,0.49182001573824,1396,-25.8,98,P-GPS,
0.349717552807246,36.8934899307927,23100,2018-04-04 08:27:03,1815.6834565018823,50.7000016224,0.0,0.461568014770176,1815.6834565018823,50.7000016224,1.007999165488,0.49182001573824,1394,-25.8,98,P-GPS,
0.34971756192755,36.8934899129084,23200,2018-04-04 08:27:03,1815.8834565082823,50.9000016288,0.0,0.463701014838432,1815.8834565082823,50.9000016288,1.007999165488,0.49182001573824,1396,-25.8,98,P-GPS,
0.349717575996288,36.8934898638311,23300,2018-04-04 08:27:03,1816.0834565146824,51.1000016352,0.0,0.46871301499881607,1816.0834565146824,51.1000016352,1.007999165488,0.49182001573824,1397,-25.8,98,P-GPS,
0.34971759055926,36.8934898389751,23400,2018-04-04 08:27:03,1816.383456524282,51.4000016448,0.0,0.471828015098496,1816.383456524282,51.4000016448,1.007999165488,0.49182001573824,1397,-25.8,98,P-GPS,
0.34971760080319,36.8934897982817,23500,2018-04-04 08:27:03,1816.5834565306823,51.6000016512,0.0,0.47589001522848,1816.5834565306823,51.6000016512,1.007999165488,0.49182001573824,1397,-25.8,98,P-GPS,
0.349717611141163,36.8934897925615,23600,2018-04-04 08:27:03,1816.7834565370824,51.8000016576,0.0,0.477143015268576,1816.7834565370824,51.8000016576,1.007999165488,0.49182001573824,1404,-25.8,98,P-GPS,
0.349717629129566,36.8934897446351,23700,2018-04-04 08:27:03,1817.083456546682,52.1000016672,0.0,0.48239001543648,1817.083456546682,52.1000016672,1.007999165488,0.49182001573824,1407,-25.8,98,P-GPS,
0.349717646665873,36.8934896948583,23800,2018-04-04 08:27:03,1817.2834565530823,52.3000016736,0.0,0.487762015608384,1817.2834565530823,52.3000016736,1.007999165488,0.49182001573824,1407,-25.8,98,P-GPS,
0.349717662165606,36.8934896422079,23900,2018-04-04 08:27:04,1817.4834565594822,52.500001680000004,0.0,0.49322801578329606,1817.4834565594822,52.500001680000004,1.007999165488,0.49322801578329606,1400,-25.8,98,P-GPS,
0.349717657206587,36.8934896343042,24000,2018-04-04 08:27:04,1817.7834565690823,52.8000016896,0.0,0.49350101579203204,1817.7834565690823,52.8000016896,1.007999165488,0.49350101579203204,1401,-25.8,98,P-GPS,
0.34971764911322,36.8934896320383,24100,2018-04-04 08:27:04,1817.9834565754823,53.000001696000005,0.0,0.49307901577852803,1817.9834565754823,53.000001696000005,1.007999165488,0.49350101579203204,1406,-25.8,98,P-GPS,
0.349717644544214,36.8934896572562,24200,2018-04-04 08:27:04,1818.2834565850821,53.3000017056,0.0,0.49066901570140803,1818.2834565850821,53.3000017056,1.007999165488,0.49350101579203204,1412,-25.8,98,P-GPS,
0.349717630268663,36.8934896728912,24300,2018-04-04 08:27:04,1818.4834565914823,53.500001712,0.0,0.48831501562608004,1818.4834565914823,53.500001712,1.007999165488,0.49350101579203204,1416,-25.8,98,P-GPS,
0.349717593928917,36.893489694316,24400,2018-04-04 08:27:04,1818.683456597882,53.7000017184,0.0,0.48382701548246404,1818.683456597882,53.7000017184,1.007999165488,0.49350101579203204,1419,-25.8,98,P-GPS,
0.349717559932096,36.8934896923911,24500,2018-04-04 08:27:04,1818.8834566042822,53.900001724800006,0.0,0.48144001540608,1818.8834566042822,53.900001724800006,1.007999165488,0.49350101579203204,1415,-25.8,98,P-GPS,
0.349717549211845,36.8934897001518,24600,2018-04-04 08:27:04,1819.1834566138823,54.200001734400004,0.0,0.48000001536000003,1819.1834566138823,54.200001734400004,1.007999165488,0.49350101579203204,1416,-25.8,98,P-GPS,
0.349717546035972,36.893489685824,24700,2018-04-04 08:27:04,1819.3834566202822,54.40000174080001,0.0,0.48094801539033605,1819.3834566202822,54.40000174080001,1.007999165488,0.49350101579203204,1417,-25.8,98,P-GPS,
0.34971754298264,36.8934896859819,24800,2018-04-04 08:27:04,1819.5834566266824,54.6000017472,0.0,0.480708015382656,1819.5834566266824,54.6000017472,1.007999165488,0.49350101579203204,1418,-25.8,98,P-GPS,
0.349717550649761,36.8934896951634,24900,2018-04-04 08:27:05,1819.8834566362823,54.9000017568,0.0,0.48051901537660807,1819.8834566362823,54.9000017568,1.007999165488,0.49350101579203204,1425,-25.8,98,P-GPS,
0.34971756390672,36.8934897296425,25000,2018-04-04 08:27:05,1819.9834566394823,55.00000176,0.0,0.4786750153176,1819.9834566394823,55.00000176,1.007999165488,0.49350101579203204,1436,-25.8,98,P-GPS,
0.349717581362826,36.8934897552357,25100,2018-04-04 08:27:05,1820.2834566490824,55.3000017696,0.0,0.4779000152928,1820.2834566490824,55.3000017696,1.007999165488,0.49350101579203204,1421,-25.8,98,P-GPS,
0.349717604025881,36.8934897880757,25200,2018-04-04 08:27:05,1820.4834566554823,55.500001776000005,0.0,0.47696001526272,1820.4834566554823,55.500001776000005,1.007999165488,0.49350101579203204,1420,-25.8,98,P-GPS,
0.349717636503364,36.893489784896,25300,2018-04-04 08:27:05,1820.6834566618822,55.7000017824,0.0,0.47970601535059204,1820.6834566618822,55.7000017824,1.007999165488,0.49350101579203204,1419,-25.8,98,P-GPS,
0.349717678922702,36.8934897754212,25400,2018-04-04 08:27:05,1820.8834566682822,55.900001788800004,0.0,0.48373501547952,1820.8834566682822,55.900001788800004,1.007999165488,0.49350101579203204,1420,-25.8,98,P-GPS,
0.349717729346453,36.8934897695988,25500,2018-04-04 08:27:05,1821.0834566746823,56.10000179520001,0.0,0.48811001561952,1821.0834566746823,56.10000179520001,1.007999165488,0.49350101579203204,1420,-25.8,98,P-GPS,
0.349717784115706,36.8934898054788,25600,2018-04-04 08:27:05,1821.3834566842825,56.400001804800006,0.0,0.489579015666528,1821.3834566842825,56.400001804800006,1.007999165488,0.49350101579203204,1420,-25.8,98,P-GPS,
0.349717847812904,36.8934898154219,25700,2018-04-04 08:27:05,1821.5834566906822,56.60000181120001,0.0,0.493869015803808,1821.5834566906822,56.60000181120001,1.007999165488,0.493869015803808,1421,-25.8,98,P-GPS,
0.349717923622264,36.893489804739,25800,2018-04-04 08:27:05,1821.7834566970823,56.8000018176,0.0,0.500779016024928,1821.7834566970823,56.8000018176,1.007999165488,0.500779016024928,1422,-25.8,98,P-GPS,
0.349718005432441,36.8934897685994,25900,2018-04-04 08:27:06,1822.0834567066822,57.100001827199996,0.0,0.510158016325056,1822.0834567066822,57.100001827199996,1.007999165488,0.510158016325056,1419,-25.8,98,P-GPS,
0.34971809949788,36.8934897401488,26000,2018-04-04 08:27:06,1822.2834567130824,57.3000018336,0.0,0.51998001663936,1822.2834567130824,57.3000018336,1.007999165488,0.51998001663936,1419,-25.8,98,P-GPS,
0.349718211274683,36.8934896542773,26100,2018-04-04 08:27:06,1822.483456719482,57.50000184,0.0,0.535596017139072,1822.483456719482,57.50000184,1.007999165488,0.535596017139072,1417,-25.8,98,P-GPS,
0.349718316304028,36.8934895507655,26200,2018-04-04 08:27:06,1822.7834567290822,57.8000018496,0.0,0.551984017663488,1822.7834567290822,57.8000018496,1.007999165488,0.551984017663488,1417,-25.8,98,P-GPS,
0.349718407321834,36.893489436779,26300,2018-04-04 08:27:06,1822.9834567354824,58.000001856000004,0.0,0.56801501817648,1822.9834567354824,58.000001856000004,1.007999165488,0.56801501817648,1414,-25.8,98,P-GPS,
0.349718485295397,36.8934893590098,26400,2018-04-04 08:27:06,1823.183456741882,58.2000018624,0.0,0.5802520185680641,1823.183456741882,58.2000018624,1.007999165488,0.5802520185680641,1414,-25.8,98,P-GPS,
0.349718571693307,36.8934892447321,26500,2018-04-04 08:27:06,1823.4834567514822,58.500001872,0.0,0.595942019070144,1823.4834567514822,58.500001872,1.007999165488,0.595942019070144,1411,-25.8,98,P-GPS,
0.349718661202767,36.8934891535365,26600,2018-04-04 08:27:06,1823.6834567578824,58.7000018784,0.0,0.610139019524448,1823.6834567578824,58.7000018784,1.007999165488,0.610139019524448,1409,-25.8,98,P-GPS,
0.349718744549788,36.8934890476786,26700,2018-04-04 08:27:06,1823.8834567642823,58.900001884800005,0.0,0.62495501999856,1823.8834567642823,58.900001884800005,1.007999165488,0.62495501999856,1406,-25.8,98,P-GPS,
0.349718827321561,36.8934889748833,26800,2018-04-04 08:27:06,1824.0834567706825,59.10000189120001,0.0,0.637206020390592,1824.0834567706825,59.10000189120001,1.007999165488,0.637206020390592,1401,-25.8,98,P-GPS,
0.349718904039593,36.8934888817858,26900,2018-04-04 08:27:07,1824.2834567770822,59.3000018976,0.0,0.650516020816512,1824.2834567770822,59.3000018976,1.007999165488,0.650516020816512,1401,-25.8,98,P-GPS,
0.349718960747305,36.8934888115284,27000,2018-04-04 08:27:07,1824.5834567866823,59.6000019072,0.0,0.660468021134976,1824.5834567866823,59.6000019072,1.007999165488,0.660468021134976,1400,-25.8,98,P-GPS,
0.349719015881941,36.8934887239926,27100,2018-04-04 08:27:07,1824.7834567930822,59.800001913600006,0.0,0.671625021492,1824.7834567930822,59.800001913600006,1.007999165488,0.671625021492,1400,-25.8,98,P-GPS,
0.349719081599834,36.8934886774859,27200,2018-04-04 08:27:07,1824.9834567994824,60.00000192,0.0,0.680481021775392,1824.9834567994824,60.00000192,1.007999165488,0.680481021775392,1398,-25.8,98,P-GPS,
0.349719153090968,36.8934886249212,27300,2018-04-04 08:27:07,1825.183456805882,60.2000019264,0.0,0.6902690220886081,1825.183456805882,60.2000019264,1.007999165488,0.6902690220886081,1397,-25.8,98,P-GPS,
0.349719207559977,36.893488599949,27400,2018-04-04 08:27:07,1825.4834568154822,60.500001936000004,0.0,0.6965750222904,1825.4834568154822,60.500001936000004,1.007999165488,0.6965750222904,1400,-25.8,98,P-GPS,
0.349719267952451,36.893488548389,27500,2018-04-04 08:27:07,1825.6834568218824,60.7000019424,0.0,0.7053940225726081,1825.6834568218824,60.7000019424,1.007999165488,0.7053940225726081,1392,-25.8,98,P-GPS,
0.349719312622705,36.8934885051818,27600,2018-04-04 08:27:07,1825.883456828282,60.9000019488,0.0,0.7123050227937601,1825.883456828282,60.9000019488,1.007999165488,0.7123050227937601,1392,-25.8,98,P-GPS,
0.349719347980296,36.893488419252,27700,2018-04-04 08:27:07,1826.0834568346822,61.10000195520001,0.0,0.721737023095584,1826.0834568346822,61.10000195520001,1.007999165488,0.721737023095584,1413,-25.8,98,P-GPS,
0.349719380870386,36.8934883421321,27800,2018-04-04 08:27:07,1826.3834568442824,61.400001964800005,0.0,0.73031502337008,1826.3834568442824,61.400001964800005,1.007999165488,0.73031502337008,1408,-25.8,98,P-GPS,
0.349719437209256,36.8934882378163,27900,2018-04-04 08:27:07,1826.5834568506823,61.6000019712,0.0,0.7428900237724801,1826.5834568506823,61.6000019712,1.007999165488,0.7428900237724801,1413,-25.8,98,P-GPS,
0.349719506364794,36.8934881672532,28000,2018-04-04 08:27:08,1826.7834568570825,61.800001977600004,0.0,0.7538750241240001,1826.7834568570825,61.800001977600004,1.007999165488,0.7538750241240001,1418,-25.8,98,P-GPS,
0.349719575168589,36.8934880955243,28100,2018-04-04 08:27:08,1826.9834568634822,62.000001984,0.0,0.764922024477504,1826.9834568634822,62.000001984,1.007999165488,0.764922024477504,1419,-25.8,98,P-GPS,
0.349719631146351,36.8934880758788,28200,2018-04-04 08:27:08,1827.1834568698823,62.200001990400004,0.0,0.7709060246689919,1827.1834568698823,62.200001990400004,1.007999165488,0.7709060246689919,1419,-25.8,98,P-GPS,
0.349719669910239,36.8934880449793,28300,2018-04-04 08:27:08,1827.4834568794822,62.50000200000001,0.0,0.7763930248445761,1827.4834568794822,62.50000200000001,1.007999165488,0.7763930248445761,1420,-25.8,98,P-GPS,
0.349719663498648,36.8934880348375,28400,2018-04-04 08:27:08,1827.6834568858822,62.7000020064,0.0,0.776667024853344,1827.6834568858822,62.7000020064,1.007999165488,0.776667024853344,1417,-25.8,98,P-GPS,
0.349719676078785,36.8934880347074,28500,2018-04-04 08:27:08,1827.8834568922823,62.9000020128,0.0,0.77768002488576,1827.8834568922823,62.9000020128,1.007999165488,0.77768002488576,1405,-25.8,98,P-GPS,
0.34971969876871,36.8934880835395,28600,2018-04-04 08:27:08,1828.1834569018822,63.2000020224,0.0,0.7757320248234241,1828.1834569018822,63.2000020224,1.007999165488,0.77768002488576,1417,-25.8,98,P-GPS,
0.349719754323891,36.8934881627808,28700,2018-04-04 08:27:08,1828.3834569082824,63.4000020288,0.0,0.774184024773888,1828.3834569082824,63.4000020288,1.007999165488,0.77768002488576,1418,-25.8,98,P-GPS,
0.349719811039745,36.893488270568,28800,2018-04-04 08:27:08,1828.6834569178823,63.7000020384,0.35999970196000003,0.7707520246640641,1828.6834569178823,63.7000020384,1.007999165488,0.77768002488576,1417,-25.8,98,P-GPS,
0.349719893271689,36.8934883793075,28900,2018-04-04 08:27:09,1828.8834569242822,63.900002044800004,0.35999970196000003,0.7696210246278721,1828.8834569242822,63.900002044800004,1.007999165488,0.77768002488576,1417,-25.8,98,P-GPS,
0.34971995706069,36.893488478304,29000,2018-04-04 08:27:09,1829.0834569306824,64.1000020512,0.35999970196000003,0.767903024572896,1829.0834569306824,64.1000020512,1.007999165488,0.77768002488576,1419,-25.8,98,P-GPS,
0.349720015695666,36.8934885494837,29100,2018-04-04 08:27:09,1829.383456940282,64.4000020608,0.35999970196000003,0.76790502457296,1829.383456940282,64.4000020608,1.007999165488,0.77768002488576,1419,-25.8,98,P-GPS,
0.349720041256537,36.8934886023423,29200,2018-04-04 08:27:09,1829.5834569466822,64.6000020672,0.0,0.766432024525824,1829.5834569466822,64.6000020672,1.007999165488,0.77768002488576,1415,-25.8,98,P-GPS,
