latitude,longitude,time_millisecond,datetime_utc,altitude_m,ascent_m,speed_kph,distance_m,max_altitude_m,max_ascent_m,max_speed_kph,max_distance_m,rc_throttle,gimbal_pitch_degrees,battery_percent,flycState,message
0.37664746206311406,36.924102926793296,0,2018-04-16 06:36:20,1626.5571809498356,0.0,0.0,0.0,1626.5571809498356,0.0,0.0,0.0,364,0.0,99,Motors_Started,
0.376647492699845,36.9241029195279,100,2018-04-16 06:36:20,1626.5571809498356,0.0,0.0,0.0035014801120473605,1626.5571809498356,0.0,0.0,0.0035014801120473605,364,0.0,99,Motors_Started,
0.376647525834609,36.924102922002604,200,2018-04-16 06:36:20,1626.5571809498356,0.0,0.0,0.007111760227576321,1626.5571809498356,0.0,0.0,0.007111760227576321,364,0.0,99,Motors_Started,
0.37664757196028503,36.924102911626704,300,2018-04-16 06:36:20,1626.5571809498356,0.0,0.0,0.012337100394787201,1626.5571809498356,0.0,0.0,0.012337100394787201,364,0.0,99,Motors_Started,
0.376647615386001,36.9241029111976,400,2018-04-16 06:36:20,1626.5571809498356,0.0,0.0,0.0171384005484288,1626.5571809498356,0.0,0.0,0.0171384005484288,364,0.0,99,Motors_Started,Setting new Return-To-Home altitude to 45m (148 ft). Setting new Maximum Flight Altitude to 150m (492 ft)
0.376647635977676,36.9241029345987,500,2018-04-16 06:36:21,1626.5571809498356,0.0,0.0,0.0193598006195136,1626.5571809498356,0.0,0.0,0.0193598006195136,364,0.0,99,Motors_Started,
0.37664765557111407,36.9241029632186,600,2018-04-16 06:36:21,1626.5571809498356,0.0,0.0,0.0218972007007104,1626.5571809498356,0.0,0.0,0.0218972007007104,364,0.0,99,Motors_Started,
0.37664768767914397,36.9241029792123,700,2018-04-16 06:36:21,1626.5571809498356,0.0,0.0,0.025758100824259198,1626.5571809498356,0.0,0.0,0.025758100824259198,364,0.0,99,Motors_Started,
0.37664772111109895,36.924102996708996,800,2018-04-16 06:36:21,1626.5571809498356,0.0,0.0,0.029838500954832006,1626.5571809498356,0.0,0.0,0.029838500954832006,364,0.0,99,Motors_Started,
0.37664773361429205,36.9241030005722,900,2018-04-16 06:36:21,1626.5571809498356,0.0,0.0,0.0312928010013696,1626.5571809498356,0.0,0.0,0.0312928010013696,364,0.0,99,Motors_Started,
0.376647746959391,36.9241030099159,1000,2018-04-16 06:36:21,1626.5571809498356,0.0,0.0,0.0330031010560992,1626.5571809498356,0.0,0.0,0.0330031010560992,364,0.0,99,Motors_Started,
0.37664777465515203,36.9241030060821,1100,2018-04-16 06:36:21,1626.5571809498356,0.0,0.0,0.0358629011476128,1626.5571809498356,0.0,0.0,0.0358629011476128,364,0.0,99,Motors_Started,
0.376647802280076,36.9241030084091,1200,2018-04-16 06:36:21,1626.5571809498356,0.0,0.0,0.0389076012450432,1626.5571809498356,0.0,0.0,0.0389076012450432,364,0.0,99,Motors_Started,
0.376647814202729,36.9241030001495,1300,2018-04-16 06:36:21,1626.5571809498356,0.0,0.0,0.0400007012800224,1626.5571809498356,0.0,0.0,0.0400007012800224,364,0.0,99,Motors_Started,
0.376647824948831,36.9241029999683,1400,2018-04-16 06:36:22,1626.5571809498356,0.0,0.0,0.0411673013173536,1626.5571809498356,0.0,0.0,0.0411673013173536,413,0.0,99,Motors_Started,
0.376647851957389,36.924103022619704,1500,2018-04-16 06:36:22,1626.5571809498356,0.0,0.0,0.0446489014287648,1626.5571809498356,0.0,0.0,0.0446489014287648,413,0.0,99,Assisted_Takeoff,
0.37664788004479105,36.9241030505647,1600,2018-04-16 06:36:22,1626.5571809498356,0.0,0.0,0.04847710155126721,1626.5571809498356,0.0,0.0,0.04847710155126721,1017,0.0,99,Assisted_Takeoff,
0.376647892503202,36.924103068604296,1700,2018-04-16 06:36:22,1626.5571809498356,0.0,0.0,0.050398301612745604,1626.5571809498356,0.0,0.0,0.050398301612745604,1024,0.0,99,Assisted_Takeoff,
0.37664790154106603,36.92410308571979,1800,2018-04-16 06:36:22,1626.5571809498356,0.0,0.0,0.05197000166304001,1626.5571809498356,0.0,0.0,0.05197000166304001,1024,0.0,99,Assisted_Takeoff,
0.3766479312292279,36.9241030912342,1900,2018-04-16 06:36:22,1626.5571809498356,0.0,0.0,0.0552859017691488,1626.5571809498356,0.0,0.0,0.0552859017691488,1024,0.0,99,Assisted_Takeoff,
0.37664796134404294,36.924103101357204,2000,2018-04-16 06:36:22,1626.5571809498356,0.0,0.0,0.0588187018821984,1626.5571809498356,0.0,0.0,0.0588187018821984,1024,0.0,99,Assisted_Takeoff,
0.37664797806734895,36.9241030993086,2100,2018-04-16 06:36:22,1626.5571809498356,0.0,0.0,0.060504801936153596,1626.5571809498356,0.0,0.0,0.060504801936153596,1024,0.0,99,Assisted_Takeoff,
0.37664799171696606,36.9241031045201,2200,2018-04-16 06:36:22,1626.5571809498356,0.0,0.0,0.062128201988102406,1626.5571809498356,0.0,0.0,0.062128201988102406,1024,0.0,99,Assisted_Takeoff,
0.376648025285711,36.9241031316497,2300,2018-04-16 06:36:22,1626.5571809498356,0.0,0.0,0.06664800213273599,1626.5571809498356,0.0,0.0,0.06664800213273599,1169,0.0,99,Assisted_Takeoff,
0.376648056909279,36.9241031637221,2400,2018-04-16 06:36:22,1626.5571809498356,0.0,0.0,0.07120450227854401,1626.5571809498356,0.0,0.0,0.07120450227854401,1238,0.0,99,Assisted_Takeoff,
0.37664807526672794,36.92410318315439,2500,2018-04-16 06:36:23,1626.5571809498356,0.0,0.0,0.0739112023651584,1626.5571809498356,0.0,0.0,0.0739112023651584,1269,0.0,99,Assisted_Takeoff,
0.37664808987794196,36.9241032030775,2600,2018-04-16 06:36:23,1626.5571809498356,0.0,0.0,0.0762781024408992,1626.5571809498356,0.0,0.0,0.0762781024408992,1338,0.0,99,Assisted_Takeoff,
0.37664809254777604,36.9241032077227,2700,2018-04-16 06:36:23,1626.5571809498356,0.0,0.0,0.0767587024562784,1626.5571809498356,0.0,0.0,0.0767587024562784,1389,0.0,99,Assisted_Takeoff,
0.37664809499858404,36.924103216247296,2800,2018-04-16 06:36:23,1626.5571809498356,0.0,0.0,0.07739720247671039,1626.5571809498356,0.0,0.0,0.07739720247671039,1485,0.0,99,Assisted_Takeoff,
0.376648091413565,36.9241032426916,2900,2018-04-16 06:36:23,1626.5571809498356,0.0,0.0,0.07830910250589121,1626.5571809498356,0.0,0.0,0.07830910250589121,1596,0.0,99,Assisted_Takeoff,
0.376648105484135,36.92410326098629,3000,2018-04-16 06:36:23,1626.5571809498356,0.0,0.0,0.0806279025800928,1626.5571809498356,0.0,0.0,0.0806279025800928,1684,0.0,99,Assisted_Takeoff,
0.37664817035808706,36.92410322849079,3100,2018-04-16 06:36:23,1626.5571809498356,0.0,0.0,0.08561420273965441,1626.5571809498356,0.0,0.0,0.08561420273965441,1684,0.0,99,P-GPS,
0.37664826107707394,36.9241031632999,3200,2018-04-16 06:36:23,1626.5571809498356,0.0,0.35999970196000003,0.0926659029653088,1626.5571809498356,0.0,0.35999970196000003,0.0926659029653088,1684,0.0,99,P-GPS,
0.376648343056201,36.924103093613205,3300,2018-04-16 06:36:23,1626.6571809530358,0.10000000320000002,0.35999970196000003,0.09971270319080641,1626.6571809530358,0.10000000320000002,0.35999970196000003,0.09971270319080641,1684,0.0,99,P-GPS,
0.376648421995024,36.9241030341722,3400,2018-04-16 06:36:23,1626.8571809594355,0.3000000096,0.35999970196000003,0.107416003437312,1626.8571809594355,0.3000000096,0.35999970196000003,0.107416003437312,1684,0.0,99,P-GPS,Home Point Recorded. RTH Altitude:  45m.
0.376648542257242,36.9241029378791,3500,2018-04-16 06:36:24,1626.9571809626357,0.4000000128000001,0.35999970196000003,0.12013100384419201,1626.9571809626357,0.4000000128000001,0.35999970196000003,0.12013100384419201,1684,0.0,99,P-GPS,
0.37664865375110296,36.924102840313,3600,2018-04-16 06:36:24,1627.2571809722356,0.7000000224000001,0.35999970196000003,0.132871004251872,1627.2571809722356,0.7000000224000001,0.35999970196000003,0.132871004251872,1684,0.0,99,P-GPS,
0.37664882827388796,36.9241026825741,3700,2018-04-16 06:36:24,1627.4571809786357,0.9000000288000001,0.0,0.15433900493884803,1627.4571809786357,0.9000000288000001,0.35999970196000003,0.15433900493884803,1684,0.0,99,P-GPS,
0.37664896637733897,36.9241025541226,3800,2018-04-16 06:36:24,1627.8571809914356,1.3000000416000002,0.0,0.17234600551507198,1627.8571809914356,1.3000000416000002,0.35999970196000003,0.17234600551507198,1684,0.0,99,P-GPS,
0.376648998687296,36.9241024052842,3900,2018-04-16 06:36:24,1628.1571810010357,1.6000000512000003,0.0,0.18045500577456,1628.1571810010357,1.6000000512000003,0.35999970196000003,0.18045500577456,1684,0.0,99,P-GPS,
0.37664902726974503,36.9241023126742,4000,2018-04-16 06:36:24,1628.6571810170356,2.1000000672,0.0,0.186978005983296,1628.6571810170356,2.1000000672,0.35999970196000003,0.186978005983296,1684,0.0,99,P-GPS,
0.37664894726673404,36.9241021943446,4100,2018-04-16 06:36:24,1629.0571810298356,2.50000008,0.0,0.184156005892992,1629.0571810298356,2.50000008,0.35999970196000003,0.186978005983296,1684,0.0,99,P-GPS,
0.37664890065089596,36.924102124924005,4200,2018-04-16 06:36:24,1629.5571810458355,3.0000000960000004,0.0,0.183153005860896,1629.5571810458355,3.0000000960000004,0.35999970196000003,0.186978005983296,1684,0.0,99,P-GPS,
0.376648714565344,36.924102073659796,4300,2018-04-16 06:36:24,1630.0571810618358,3.500000112,0.0,0.168526005392832,1630.0571810618358,3.500000112,0.35999970196000003,0.186978005983296,1684,0.0,99,P-GPS,
0.376648546153294,36.924102057087296,4400,2018-04-16 06:36:24,1630.5571810778356,4.000000128,0.0,0.154557004945824,1630.5571810778356,4.000000128,0.35999970196000003,0.186978005983296,1684,0.0,99,P-GPS,
0.37664828678857604,36.9241020238746,4500,2018-04-16 06:36:25,1631.1571810970354,4.6000001472,0.0,0.13599000435168002,1631.1571810970354,4.6000001472,0.35999970196000003,0.186978005983296,1684,0.0,99,P-GPS,
0.37664807333050804,36.924101999008606,4600,2018-04-16 06:36:25,1631.6571811130357,5.1000001632,0.0,0.123554003953728,1631.6571811130357,5.1000001632,0.35999970196000003,0.186978005983296,1684,0.0,99,P-GPS,
0.376647864253769,36.9241019922733,4700,2018-04-16 06:36:25,1632.1571811290355,5.600000179200001,0.0,0.11313800362041601,1632.1571811290355,5.600000179200001,0.35999970196000003,0.186978005983296,1684,0.0,99,P-GPS,
0.3766477047338379,36.924101978199296,4800,2018-04-16 06:36:25,1632.6571811450356,6.1000001952,0.0,0.10888400348428799,1632.6571811450356,6.1000001952,0.35999970196000003,0.186978005983296,1684,0.0,99,P-GPS,
0.37664758413371796,36.924101946208204,4900,2018-04-16 06:36:25,1633.0571811578354,6.500000208,0.0,0.10988600351635201,1633.0571811578354,6.500000208,0.35999970196000003,0.186978005983296,1684,0.0,99,P-GPS,
0.37664747904778495,36.9241019075724,5000,2018-04-16 06:36:25,1633.5571811738357,7.000000224,0.0,0.11335700362742403,1633.5571811738357,7.000000224,0.35999970196000003,0.186978005983296,1684,0.0,99,P-GPS,
0.376647445132182,36.9241018824812,5100,2018-04-16 06:36:25,1634.0571811898355,7.50000024,0.0,0.11614700371670403,1634.0571811898355,7.50000024,0.35999970196000003,0.186978005983296,1684,0.0,99,P-GPS,
0.376647398794808,36.924101859132904,5200,2018-04-16 06:36:25,1634.4571812026356,7.9000002528,0.0,0.118936003805952,1634.4571812026356,7.9000002528,0.35999970196000003,0.186978005983296,1684,0.0,99,P-GPS,
0.376647444552455,36.924101825041106,5300,2018-04-16 06:36:25,1634.9571812186355,8.4000002688,0.0,0.12253400392108801,1634.9571812186355,8.4000002688,0.35999970196000003,0.186978005983296,1684,0.0,99,P-GPS,
0.37664746258584403,36.924101796445,5400,2018-04-16 06:36:26,1635.4571812346358,8.9000002848,0.0,0.125699004022368,1635.4571812346358,8.9000002848,0.35999970196000003,0.186978005983296,1684,0.0,99,P-GPS,
0.376647535086614,36.924101732313,5500,2018-04-16 06:36:26,1635.8571812474356,9.3000002976,0.0,0.13307900425852803,1635.8571812474356,9.3000002976,0.35999970196000003,0.186978005983296,1684,0.0,99,P-GPS,
0.37664756789568893,36.924101686027704,5600,2018-04-16 06:36:26,1636.3571812634357,9.8000003136,0.0,0.13847900443132802,1636.3571812634357,9.8000003136,0.35999970196000003,0.186978005983296,1684,0.0,99,P-GPS,
0.3766476699462029,36.9241016328936,5700,2018-04-16 06:36:26,1636.8571812794355,10.300000329600001,0.0,0.14573200466342404,1636.8571812794355,10.300000329600001,0.35999970196000003,0.186978005983296,1684,0.0,99,P-GPS,
0.376647744264316,36.9241015968947,5800,2018-04-16 06:36:26,1637.3571812954358,10.800000345599999,0.0,0.15118300483785602,1637.3571812954358,10.800000345599999,0.35999970196000003,0.186978005983296,1684,0.0,99,P-GPS,
0.37664784483946,36.924101581483995,5900,2018-04-16 06:36:26,1637.7571813082357,11.200000358400002,0.0,0.15554100497731202,1637.7571813082357,11.200000358400002,0.35999970196000003,0.186978005983296,1684,0.0,99,P-GPS,
0.3766479146101429,36.924101583269604,6000,2018-04-16 06:36:26,1638.2571813242357,11.700000374400002,0.0,0.15765300504489602,1638.2571813242357,11.700000374400002,0.35999970196000003,0.186978005983296,1684,0.0,99,P-GPS,
0.376648055255594,36.9241016015688,6100,2018-04-16 06:36:26,1638.7571813402355,12.2000003904,0.0,0.16146000516672002,1638.7571813402355,12.2000003904,0.35999970196000003,0.186978005983296,1684,0.0,99,P-GPS,
0.37664816770453796,36.9241016261819,6200,2018-04-16 06:36:26,1639.2571813562356,12.700000406400001,0.0,0.164549005265568,1639.2571813562356,12.700000406400001,0.35999970196000003,0.186978005983296,1684,0.0,99,P-GPS,
0.376648295448641,36.9241016505421,6300,2018-04-16 06:36:26,1639.6571813690357,13.100000419199999,0.0,0.16950400542412802,1639.6571813690357,13.100000419199999,0.35999970196000003,0.186978005983296,1684,0.0,99,P-GPS,
0.376648400338347,36.924101677417795,6400,2018-04-16 06:36:26,1640.1571813850355,13.600000435200002,0.0,0.17375300556009599,1640.1571813850355,13.600000435200002,0.35999970196000003,0.186978005983296,1684,0.0,99,P-GPS,
0.37664849819806107,36.924101699548004,6500,2018-04-16 06:36:27,1640.6571814010356,14.100000451200001,0.0,0.178611005715552,1640.6571814010356,14.100000451200001,0.35999970196000003,0.186978005983296,1684,0.0,99,P-GPS,
0.37664857760017606,36.9241017327145,6600,2018-04-16 06:36:27,1641.1571814170356,14.600000467200001,0.0,0.18171900581500802,1641.1571814170356,14.600000467200001,0.35999970196000003,0.186978005983296,1684,0.0,99,P-GPS,
0.37664868162599296,36.9241017536516,6700,2018-04-16 06:36:27,1641.6571814330357,15.100000483200002,0.0,0.188183006021856,1641.6571814330357,15.100000483200002,0.35999970196000003,0.188183006021856,1684,0.0,99,P-GPS,
0.376648774029605,36.9241017795203,6800,2018-04-16 06:36:27,1642.1571814490355,15.6000004992,0.0,0.193813006202016,1642.1571814490355,15.6000004992,0.35999970196000003,0.193813006202016,1684,0.0,99,P-GPS,
0.376648934784711,36.924101788528,7000,2018-04-16 06:36:27,1643.1571814810356,16.6000005312,0.0,0.20699000662368,1643.1571814810356,16.6000005312,0.35999970196000003,0.20699000662368,1684,0.0,99,P-GPS,
0.37664903282518203,36.924101767070105,7100,2018-04-16 06:36:27,1643.6571814970355,17.1000005472,0.0,0.217128006948096,1643.6571814970355,17.1000005472,0.35999970196000003,0.217128006948096,1684,0.0,99,P-GPS,
0.37664912561147795,36.9241017640172,7200,2018-04-16 06:36:27,1644.2571815162357,17.700000566400004,0.0,0.225707007222624,1644.2571815162357,17.700000566400004,0.35999970196000003,0.225707007222624,1684,0.0,99,P-GPS,
0.37664922182890603,36.924101764606,7300,2018-04-16 06:36:27,1644.7571815322356,18.2000005824,0.0,0.23452100750467203,1644.7571815322356,18.2000005824,0.35999970196000003,0.23452100750467203,1684,0.0,99,P-GPS,
0.376649288266164,36.924101794733296,7400,2018-04-16 06:36:27,1645.2571815482356,18.7000005984,0.0,0.23893800764601603,1645.2571815482356,18.7000005984,0.35999970196000003,0.23893800764601603,1684,0.0,99,P-GPS,
0.3766493288233761,36.924101808109995,7500,2018-04-16 06:36:28,1645.7571815642357,19.2000006144,0.0,0.242016007744512,1645.7571815642357,19.2000006144,0.35999970196000003,0.242016007744512,1684,0.0,99,P-GPS,
0.376649355107276,36.9241018288735,7600,2018-04-16 06:36:28,1646.3571815834355,19.800000633599996,0.0,0.24336100778755201,1646.3571815834355,19.800000633599996,0.35999970196000003,0.24336100778755201,1684,0.0,99,P-GPS,
0.37664934391742294,36.9241018489903,7700,2018-04-16 06:36:28,1646.8571815994355,20.3000006496,0.0,0.241166007717312,1646.8571815994355,20.3000006496,0.35999970196000003,0.24336100778755201,1684,0.0,99,P-GPS,
0.37664933473706996,36.924101873188704,7800,2018-04-16 06:36:28,1647.4571816186356,20.900000668800004,0.0,0.23894900764636803,1647.4571816186356,20.900000668800004,0.35999970196000003,0.24336100778755201,1684,0.0,99,P-GPS,
0.37664930591116896,36.924101858459295,7900,2018-04-16 06:36:28,1647.9571816346356,21.400000684800002,0.0,0.236978007583296,1647.9571816346356,21.400000684800002,0.35999970196000003,0.24336100778755201,1684,0.0,99,P-GPS,
0.376649277977655,36.9241018464771,8000,2018-04-16 06:36:28,1648.5571816538356,22.000000704000005,0.0,0.234973007519136,1648.5571816538356,22.000000704000005,0.35999970196000003,0.24336100778755201,1684,0.0,99,P-GPS,
0.37664923850173,36.924101815639794,8100,2018-04-16 06:36:28,1649.0571816698355,22.50000072,0.0,0.23301200745638403,1649.0571816698355,22.50000072,0.35999970196000003,0.24336100778755201,1684,0.0,99,P-GPS,
0.37664920101494903,36.924101804379,8200,2018-04-16 06:36:28,1649.6571816890357,23.100000739200006,0.0,0.23016500736528,1649.6571816890357,23.100000739200006,0.35999970196000003,0.24336100778755201,1684,0.0,99,P-GPS,
0.3766491406135179,36.924101790462295,8300,2018-04-16 06:36:28,1650.1571817050356,23.6000007552,0.0,0.22541500721328,1650.1571817050356,23.6000007552,0.35999970196000003,0.24336100778755201,1684,0.0,99,P-GPS,
0.376649092230004,36.9241017909342,8400,2018-04-16 06:36:28,1650.7571817242358,24.2000007744,0.0,0.2209500070704,1650.7571817242358,24.2000007744,0.35999970196000003,0.24336100778755201,1684,0.0,99,P-GPS,
0.37664906846775004,36.9241017862195,8500,2018-04-16 06:36:29,1651.3571817434356,24.8000007936,0.0,0.21909000701088002,1651.3571817434356,24.8000007936,0.35999970196000003,0.24336100778755201,1684,0.0,99,P-GPS,
0.376649051357689,36.9241017850046,8600,2018-04-16 06:36:29,1651.8571817594357,25.3000008096,0.0,0.21762000696384,1651.8571817594357,25.3000008096,0.35999970196000003,0.24336100778755201,1684,0.0,99,P-GPS,
0.3766490162028401,36.9241017347889,8700,2018-04-16 06:36:29,1652.4571817786357,25.900000828800003,0.0,0.21781000696992003,1652.4571817786357,25.900000828800003,0.35999970196000003,0.24336100778755201,1684,0.0,99,P-GPS,
0.376648983079474,36.9241016982971,8800,2018-04-16 06:36:29,1652.9571817946355,26.4000008448,0.0,0.21742500695760003,1652.9571817946355,26.4000008448,0.35999970196000003,0.24336100778755201,1684,0.0,99,P-GPS,
0.37664892882379203,36.924101658910395,8900,2018-04-16 06:36:29,1653.5571818138355,27.000000864000004,0.0,0.215603006899296,1653.5571818138355,27.000000864000004,0.35999970196000003,0.24336100778755201,1684,0.0,99,P-GPS,
0.376648880004669,36.924101632371396,9000,2018-04-16 06:36:29,1654.0571818298356,27.50000088,0.0,0.21350500683216003,1654.0571818298356,27.50000088,0.35999970196000003,0.24336100778755201,1684,0.0,99,P-GPS,
0.376648842646535,36.9241016260275,9100,2018-04-16 06:36:29,1654.6571818490356,28.1000008992,0.0,0.21093800675001598,1654.6571818490356,28.1000008992,0.35999970196000003,0.24336100778755201,1684,0.0,99,P-GPS,
0.376648807695242,36.9241016481687,9200,2018-04-16 06:36:29,1655.2571818682354,28.7000009184,0.0,0.206422006605504,1655.2571818682354,28.7000009184,0.35999970196000003,0.24336100778755201,1684,0.0,99,P-GPS,
0.376648785778828,36.9241016519501,9300,2018-04-16 06:36:29,1655.7571818842357,29.200000934400002,0.0,0.204371006539872,1655.7571818842357,29.200000934400002,0.35999970196000003,0.24336100778755201,1684,0.0,99,P-GPS,
0.376648757477286,36.9241016648814,9400,2018-04-16 06:36:30,1656.3571819034355,29.8000009536,0.0,0.20110900643548804,1656.3571819034355,29.8000009536,0.35999970196000003,0.24336100778755201,1684,0.0,99,P-GPS,
0.37664872102293795,36.9241016592117,9500,2018-04-16 06:36:30,1656.8571819194358,30.300000969600003,0.0,0.198673006357536,1656.8571819194358,30.300000969600003,0.35999970196000003,0.24336100778755201,1684,0.0,99,P-GPS,
0.376648656400581,36.9241016377604,9700,2018-04-16 06:36:30,1657.9571819546354,31.400001004800004,0.0,0.195418006253376,1657.9571819546354,31.400001004800004,0.35999970196000003,0.24336100778755201,1684,0.0,99,P-GPS,
0.376648625031864,36.9241016230568,9800,2018-04-16 06:36:30,1658.5571819738357,32.000001024,0.0,0.194282006217024,1658.5571819738357,32.000001024,0.35999970196000003,0.24336100778755201,1684,0.0,99,P-GPS,
0.37664858278269897,36.9241016008681,9900,2018-04-16 06:36:30,1659.0571819898355,32.50000104,0.0,0.19306400617804803,1659.0571819898355,32.50000104,0.35999970196000003,0.24336100778755201,1684,0.0,99,P-GPS,
0.37664854267493797,36.9241016021233,10000,2018-04-16 06:36:30,1659.6571820090358,33.100001059200004,0.0,0.190107006083424,1659.6571820090358,33.100001059200004,0.35999970196000003,0.24336100778755201,1684,0.0,99,P-GPS,
0.37664851918789,36.9241016071006,10100,2018-04-16 06:36:30,1660.1571820250356,33.6000010752,0.0,0.18803500601712,1660.1571820250356,33.6000010752,0.35999970196000003,0.24336100778755201,1684,0.0,99,P-GPS,
0.37664849684238105,36.9241016297225,10200,2018-04-16 06:36:30,1660.6571820410356,34.1000010912,0.0,0.184518005904576,1660.6571820410356,34.1000010912,0.35999970196000003,0.24336100778755201,1684,0.0,99,P-GPS,
0.376648495667459,36.924101616141,10300,2018-04-16 06:36:30,1661.2571820602357,34.7000011104,0.0,0.18562000593984002,1661.2571820602357,34.7000011104,0.35999970196000003,0.24336100778755201,1684,0.0,99,P-GPS,
0.37664849522289395,36.9241016269204,10400,2018-04-16 06:36:30,1661.7571820762355,35.2000011264,0.0,0.1846500059088,1661.7571820762355,35.2000011264,0.35999970196000003,0.24336100778755201,1684,0.0,99,P-GPS,
0.376648485738022,36.9241016274449,10500,2018-04-16 06:36:31,1662.2571820922358,35.7000011424,0.0,0.18394900588636803,1662.2571820922358,35.7000011424,0.35999970196000003,0.24336100778755201,1684,0.0,99,P-GPS,
0.37664847784902505,36.9241016507409,10600,2018-04-16 06:36:31,1662.8571821114356,36.3000011616,0.0,0.181374005803968,1662.8571821114356,36.3000011616,0.35999970196000003,0.24336100778755201,1684,0.0,99,P-GPS,
0.376648484253695,36.9241016816505,10700,2018-04-16 06:36:31,1663.3571821274356,36.8000011776,0.0,0.179148005732736,1663.3571821274356,36.8000011776,0.35999970196000003,0.24336100778755201,1684,0.0,99,P-GPS,
0.376648490666508,36.924101724127496,10800,2018-04-16 06:36:31,1663.8571821434357,37.3000011936,0.0,0.17598600563155198,1663.8571821434357,37.3000011936,0.35999970196000003,0.24336100778755201,1684,0.0,99,P-GPS,
0.37664849042956894,36.924101724633104,10900,2018-04-16 06:36:31,1664.3571821594355,37.800001209600005,0.0,0.175926005629632,1664.3571821594355,37.800001209600005,0.35999970196000003,0.24336100778755201,1684,0.0,99,P-GPS,
0.37664847849796007,36.9241017338217,11000,2018-04-16 06:36:31,1664.9571821786358,38.4000012288,0.0,0.174287005577184,1664.9571821786358,38.4000012288,0.35999970196000003,0.24336100778755201,1684,0.0,99,P-GPS,
0.376648471905204,36.924101720103,11100,2018-04-16 06:36:31,1665.4571821946356,38.9000012448,0.0,0.17498000559936003,1665.4571821946356,38.9000012448,0.35999970196000003,0.24336100778755201,1684,0.0,99,P-GPS,
0.376648463408798,36.9241017290117,11200,2018-04-16 06:36:31,1665.9571822106354,39.4000012608,0.0,0.17361400555564804,1665.9571822106354,39.4000012608,0.35999970196000003,0.24336100778755201,1684,0.0,99,P-GPS,
0.376648455945639,36.924101721659,11300,2018-04-16 06:36:31,1666.5571822298357,40.00000128,0.0,0.173713005558816,1666.5571822298357,40.00000128,0.35999970196000003,0.24336100778755201,1684,0.0,99,P-GPS,
0.37664844034840206,36.9241017302987,11400,2018-04-16 06:36:32,1667.0571822458355,40.500001296,0.0,0.17186900549980805,1667.0571822458355,40.500001296,0.35999970196000003,0.24336100778755201,1684,0.0,99,P-GPS,
0.376648435938576,36.9241017148677,11500,2018-04-16 06:36:32,1667.5571822618358,41.000001311999995,0.0,0.17289400553260803,1667.5571822618358,41.000001311999995,0.35999970196000003,0.24336100778755201,1684,0.0,99,P-GPS,
0.37664843500466294,36.9241017224474,11600,2018-04-16 06:36:32,1668.1571822810356,41.600001331200005,0.0,0.172172005509504,1668.1571822810356,41.600001331200005,0.35999970196000003,0.24336100778755201,1684,0.0,99,P-GPS,
0.376648452772616,36.924101710536604,11700,2018-04-16 06:36:32,1668.6571822970354,42.1000013472,0.0,0.174446005582272,1668.6571822970354,42.1000013472,0.35999970196000003,0.24336100778755201,1684,0.0,99,P-GPS,
0.37664846452183903,36.924101717662,11800,2018-04-16 06:36:32,1669.1571823130357,42.60000136320001,0.0,0.17466300558921602,1669.1571823130357,42.60000136320001,0.35999970196000003,0.24336100778755201,1684,0.0,99,P-GPS,
0.37664849474738793,36.9241017615255,12000,2018-04-16 06:36:32,1670.2571823482358,43.700001398400005,0.0,0.17314700554070403,1670.2571823482358,43.700001398400005,0.35999970196000003,0.24336100778755201,1684,0.0,99,P-GPS,
0.37664851281090295,36.92410173326179,12100,2018-04-16 06:36:32,1670.7571823642356,44.2000014144,0.0,0.17683300565865598,1670.7571823642356,44.2000014144,0.35999970196000003,0.24336100778755201,1684,0.0,99,P-GPS,
0.376648514348969,36.924101720826,12200,2018-04-16 06:36:32,1671.2571823802355,44.7000014304,0.0,0.17798500569552,1671.2571823802355,44.7000014304,0.35999970196000003,0.24336100778755201,1684,0.0,99,P-GPS,
0.376648532563115,36.924101727410296,12300,2018-04-16 06:36:32,1671.7571823962357,45.2000014464,0.0,0.17877700572086402,1671.7571823962357,45.2000014464,0.35999970196000003,0.24336100778755201,1684,0.0,99,P-GPS,
0.37664853992042496,36.9241017687032,12400,2018-04-16 06:36:32,1672.2571824122356,45.700001462399996,0.0,0.175934005629888,1672.2571824122356,45.700001462399996,0.35999970196000003,0.24336100778755201,1684,0.0,99,P-GPS,
0.3766485295016401,36.9241017950619,12500,2018-04-16 06:36:33,1672.8571824314356,46.3000014816,0.0,0.173003005536096,1672.8571824314356,46.3000014816,0.35999970196000003,0.24336100778755201,1684,0.0,99,P-GPS,
0.376648498493624,36.924101824618894,12600,2018-04-16 06:36:33,1673.3571824474357,46.80000149760001,0.0,0.168246005383872,1673.3571824474357,46.80000149760001,0.35999970196000003,0.24336100778755201,1684,0.0,99,P-GPS,
0.37664851704729996,36.924101828481795,12700,2018-04-16 06:36:33,1673.8571824634357,47.30000151360001,0.0,0.16935600541939203,1673.8571824634357,47.30000151360001,0.35999970196000003,0.24336100778755201,1684,0.0,99,P-GPS,
0.376648532067253,36.9241018468774,12800,2018-04-16 06:36:33,1674.3571824794356,47.8000015296,0.0,0.169058005409856,1674.3571824794356,47.8000015296,0.35999970196000003,0.24336100778755201,1684,0.0,99,P-GPS,
0.37664857249419004,36.9241018317486,12900,2018-04-16 06:36:33,1674.8571824954356,48.300001545600004,0.0,0.17342900554972804,1674.8571824954356,48.300001545600004,0.35999970196000003,0.24336100778755201,1684,0.0,99,P-GPS,
0.376648596199449,36.9241018333896,13000,2018-04-16 06:36:33,1675.4571825146356,48.9000015648,0.0,0.175189005606048,1675.4571825146356,48.9000015648,0.35999970196000003,0.24336100778755201,1684,0.0,99,P-GPS,
0.37664865893606797,36.924101814481,13100,2018-04-16 06:36:33,1675.9571825306355,49.4000015808,0.0,0.18170200581446402,1675.9571825306355,49.4000015808,0.35999970196000003,0.24336100778755201,1684,0.0,99,P-GPS,
0.376648701519065,36.924101823334,13200,2018-04-16 06:36:33,1676.4571825466357,49.900001596799996,0.0,0.184543005905376,1676.4571825466357,49.900001596799996,0.35999970196000003,0.24336100778755201,1684,0.0,99,P-GPS,
0.376648736250518,36.924101820016496,13300,2018-04-16 06:36:33,1676.9571825626356,50.40000161280001,0.0,0.187687006005984,1676.9571825626356,50.40000161280001,0.35999970196000003,0.24336100778755201,1684,0.0,99,P-GPS,
0.37664874779130103,36.9241018340285,13400,2018-04-16 06:36:34,1677.4571825786354,50.9000016288,0.0,0.18764500600464,1677.4571825786354,50.9000016288,0.35999970196000003,0.24336100778755201,1684,0.0,99,P-GPS,
0.376648786453004,36.924101815578105,13500,2018-04-16 06:36:34,1677.9571825946357,51.4000016448,0.0,0.19225300615209598,1677.9571825946357,51.4000016448,0.35999970196000003,0.24336100778755201,1684,0.0,99,P-GPS,
0.376648805683299,36.924101816627996,13600,2018-04-16 06:36:34,1678.4571826106355,51.90000166080001,0.0,0.193822006202304,1678.4571826106355,51.90000166080001,0.35999970196000003,0.24336100778755201,1684,0.0,99,P-GPS,
0.376648851733253,36.92410180993021,13700,2018-04-16 06:36:34,1678.9571826266356,52.400001676799995,0.0,0.198262006344384,1678.9571826266356,52.400001676799995,0.35999970196000003,0.24336100778755201,1684,0.0,99,P-GPS,
0.37664887481726095,36.9241018386213,13800,2018-04-16 06:36:34,1679.4571826426356,52.90000169280001,0.0,0.19830700634582402,1679.4571826426356,52.90000169280001,0.35999970196000003,0.24336100778755201,1684,0.0,99,P-GPS,
0.376648900839796,36.924101855886896,13900,2018-04-16 06:36:34,1680.0571826618357,53.500001712,0.0,0.19945500638256,1680.0571826618357,53.500001712,0.35999970196000003,0.24336100778755201,1684,0.0,99,P-GPS,
0.37664890521461,36.9241018922069,14000,2018-04-16 06:36:34,1680.5571826778355,54.00000172800001,0.0,0.19746500631888,1680.5571826778355,54.00000172800001,0.35999970196000003,0.24336100778755201,1684,0.0,99,P-GPS,
0.376648913492805,36.924101927547795,14100,2018-04-16 06:36:34,1680.9571826906358,54.40000174080001,0.0,0.19595900627068802,1680.9571826906358,54.40000174080001,0.35999970196000003,0.24336100778755201,1684,0.0,99,P-GPS,
0.376648909685503,36.924101988891394,14200,2018-04-16 06:36:34,1681.5571827098356,55.00000176,0.0,0.19181800613817598,1681.5571827098356,55.00000176,0.35999970196000003,0.24336100778755201,1684,0.0,99,P-GPS,
0.376648920819989,36.9241020473497,14300,2018-04-16 06:36:34,1682.0571827258354,55.500001776,0.0,0.189422006061504,1682.0571827258354,55.500001776,0.35999970196000003,0.24336100778755201,1684,0.0,99,P-GPS,
0.37664892923171706,36.924102110137206,14400,2018-04-16 06:36:34,1682.5571827418357,56.000001792,0.0,0.18673000597536002,1682.5571827418357,56.000001792,0.35999970196000003,0.24336100778755201,1684,0.0,99,P-GPS,
0.376648941358739,36.924102155772204,14500,2018-04-16 06:36:35,1683.0571827578356,56.50000180800001,0.0,0.18551000593632,1683.0571827578356,56.50000180800001,0.35999970196000003,0.24336100778755201,1684,0.0,99,P-GPS,
0.37664893180872905,36.9241022111229,14600,2018-04-16 06:36:35,1683.5571827738356,57.000001824,0.0,0.181791005817312,1683.5571827738356,57.000001824,0.35999970196000003,0.24336100778755201,1684,0.0,99,P-GPS,
0.37664891594524197,36.9241022529472,14700,2018-04-16 06:36:35,1684.0571827898357,57.50000184,0.0,0.178201005702432,1684.0571827898357,57.50000184,0.35999970196000003,0.24336100778755201,1684,0.0,99,P-GPS,
0.37664889127757306,36.9241023023138,14800,2018-04-16 06:36:35,1684.5571828058357,58.000001856,0.0,0.17344600555027198,1684.5571828058357,58.000001856,0.35999970196000003,0.24336100778755201,1684,0.0,99,P-GPS,
0.37664888153214904,36.9241023383305,14900,2018-04-16 06:36:35,1685.0571828218356,58.500001872,0.0,0.17088000546816,1685.0571828218356,58.500001872,0.35999970196000003,0.24336100778755201,1684,0.0,99,P-GPS,
0.37664886274072,36.9241023843305,15000,2018-04-16 06:36:35,1685.5571828378356,59.000001888,0.0,0.167037005345184,1685.5571828378356,59.000001888,0.35999970196000003,0.24336100778755201,1684,0.0,99,P-GPS,
0.37664886054069197,36.924102389378604,15100,2018-04-16 06:36:35,1686.0571828538357,59.500001904,0.0,0.16660700533142403,1686.0571828538357,59.500001904,0.35999970196000003,0.24336100778755201,1684,0.0,99,P-GPS,
0.376648847205364,36.924102415049795,15200,2018-04-16 06:36:35,1686.5571828698355,60.00000192,0.0,0.164212005254784,1686.5571828698355,60.00000192,0.35999970196000003,0.24336100778755201,1684,0.0,99,P-GPS,
0.3766488453595229,36.9241024426715,15300,2018-04-16 06:36:35,1687.0571828858356,60.500001936,0.0,0.16297900521532802,1687.0571828858356,60.500001936,0.35999970196000003,0.24336100778755201,1684,0.0,99,P-GPS,
0.3766488236116529,36.9241024867724,15400,2018-04-16 06:36:36,1687.5571829018356,61.000001952,0.0,0.159123005091936,1687.5571829018356,61.000001952,0.35999970196000003,0.24336100778755201,1684,0.0,99,P-GPS,
0.376648814095841,36.924102525727704,15500,2018-04-16 06:36:36,1688.0571829178357,61.500001968,0.0,0.15683000501856,1688.0571829178357,61.500001968,0.35999970196000003,0.24336100778755201,1684,0.0,99,P-GPS,
0.376648791506066,36.9241025813275,15600,2018-04-16 06:36:36,1688.5571829338355,62.000001984,0.0,0.15275200488806404,1688.5571829338355,62.000001984,0.35999970196000003,0.24336100778755201,1684,0.0,99,P-GPS,
0.376648796169115,36.9241026359831,15700,2018-04-16 06:36:36,1689.0571829498358,62.50000200000001,0.0,0.151844004859008,1689.0571829498358,62.50000200000001,0.35999970196000003,0.24336100778755201,1684,0.0,99,P-GPS,
0.37664878832815707,36.9241027036142,15800,2018-04-16 06:36:36,1689.5571829658356,63.000002015999996,0.0,0.14956200478598403,1689.5571829658356,63.000002015999996,0.35999970196000003,0.24336100778755201,1684,0.0,99,P-GPS,
0.37664880422584207,36.9241027547571,15900,2018-04-16 06:36:36,1690.1571829850357,63.600002035200006,0.0,0.150478004815296,1690.1571829850357,63.600002035200006,0.35999970196000003,0.24336100778755201,1684,0.0,99,P-GPS,
0.37664880197370393,36.9241028145675,16000,2018-04-16 06:36:36,1690.6571830010357,64.1000020512,0.0,0.149528004784896,1690.6571830010357,64.1000020512,0.35999970196000003,0.24336100778755201,1684,0.0,99,P-GPS,
0.37664881921973997,36.9241028580036,16100,2018-04-16 06:36:36,1691.0571830138356,64.500002064,0.0,0.151118004835776,1691.0571830138356,64.500002064,0.35999970196000003,0.24336100778755201,1684,0.0,99,P-GPS,
0.376648815234937,36.9241029153919,16200,2018-04-16 06:36:36,1691.6571830330354,65.1000020832,0.0,0.150486004815552,1691.6571830330354,65.1000020832,0.35999970196000003,0.24336100778755201,1684,0.0,99,P-GPS,
0.376648825766899,36.924102960430204,16300,2018-04-16 06:36:36,1692.1571830490357,65.60000209920001,0.0,0.15169800485433602,1692.1571830490357,65.60000209920001,0.35999970196000003,0.24336100778755201,1684,0.0,99,P-GPS,
0.376648816952132,36.9241030172435,16400,2018-04-16 06:36:36,1692.6571830650355,66.10000211520001,0.0,0.151007004832224,1692.6571830650355,66.10000211520001,0.35999970196000003,0.24336100778755201,1684,0.0,98,P-GPS,
0.3766488237403,36.924103021862294,16500,2018-04-16 06:36:36,1693.1571830810356,66.6000021312,0.0,0.15179500485744002,1693.1571830810356,66.6000021312,0.35999970196000003,0.24336100778755201,1684,0.0,98,P-GPS,
0.37664880973893894,36.924103024216706,16600,2018-04-16 06:36:37,1693.6571830970356,67.10000214720002,0.0,0.150261004808352,1693.6571830970356,67.10000214720002,0.35999970196000003,0.24336100778755201,1684,0.0,98,P-GPS,
0.37664880931879996,36.924103005623,16700,2018-04-16 06:36:37,1694.1571831130357,67.60000216319999,0.0,0.15007900480252803,1694.1571831130357,67.60000216319999,0.35999970196000003,0.24336100778755201,1684,0.0,98,P-GPS,
0.376648800512989,36.924103003178104,16800,2018-04-16 06:36:37,1694.6571831290355,68.1000021792,0.0,0.149086004770752,1694.6571831290355,68.1000021792,0.35999970196000003,0.24336100778755201,1684,0.0,98,P-GPS,
0.376648829294109,36.9241029762125,16900,2018-04-16 06:36:37,1695.1571831450358,68.6000021952,0.0,0.15214400486860802,1695.1571831450358,68.6000021952,0.35999970196000003,0.24336100778755201,1684,0.0,98,P-GPS,
0.376648840078479,36.924102967801296,17000,2018-04-16 06:36:37,1695.6571831610356,69.1000022112,0.0,0.15331200490598404,1695.6571831610356,69.1000022112,0.35999970196000003,0.24336100778755201,1684,0.0,98,P-GPS,
0.376648890296435,36.9241029514576,17100,2018-04-16 06:36:37,1696.1571831770354,69.60000222720001,0.0,0.15885200508326403,1696.1571831770354,69.60000222720001,0.35999970196000003,0.24336100778755201,1684,0.0,98,P-GPS,
0.376648919572601,36.9241029522527,17200,2018-04-16 06:36:37,1696.6571831930357,70.1000022432,0.0,0.16210900518748803,1696.6571831930357,70.1000022432,0.35999970196000003,0.24336100778755201,1684,0.0,98,P-GPS,
0.3766489898334461,36.9241029465354,17300,2018-04-16 06:36:37,1697.1571832090356,70.60000225920001,0.0,0.16991200543718402,1697.1571832090356,70.60000225920001,0.35999970196000003,0.24336100778755201,1684,0.0,98,P-GPS,
0.37664902730638505,36.924102969082796,17400,2018-04-16 06:36:38,1697.6571832250356,71.10000227520001,0.0,0.174128005572096,1697.6571832250356,71.10000227520001,0.35999970196000003,0.24336100778755201,1684,0.0,98,P-GPS,
0.376649066532344,36.9241029568255,17500,2018-04-16 06:36:38,1698.1571832410355,71.6000022912,0.0,0.178458005710656,1698.1571832410355,71.6000022912,0.35999970196000003,0.24336100778755201,1684,0.0,98,P-GPS,
0.376649074842294,36.924102968708205,17600,2018-04-16 06:36:38,1698.6571832570357,72.1000023072,0.0,0.179411005741152,1698.6571832570357,72.1000023072,0.35999970196000003,0.24336100778755201,1684,0.0,98,P-GPS,
0.376649089052096,36.9241029959833,17700,2018-04-16 06:36:38,1699.1571832730356,72.6000023232,0.0,0.18109500579503998,1699.1571832730356,72.6000023232,0.35999970196000003,0.24336100778755201,1684,0.0,98,P-GPS,
0.376649085946653,36.9241030474857,17800,2018-04-16 06:36:38,1699.6571832890354,73.1000023392,0.0,0.18108400579468803,1699.6571832890354,73.1000023392,0.35999970196000003,0.24336100778755201,1024,0.0,98,P-GPS,
0.376649121036364,36.9241030684564,17900,2018-04-16 06:36:38,1700.1571833050357,73.6000023552,0.0,0.18515900592508802,1700.1571833050357,73.6000023552,0.35999970196000003,0.24336100778755201,1024,0.0,98,P-GPS,
0.37664916197381804,36.9241031088894,18100,2018-04-16 06:36:38,1701.0571833338356,74.500002384,0.0,0.19012200608390403,1701.0571833338356,74.500002384,0.35999970196000003,0.24336100778755201,1024,0.0,98,P-GPS,
0.37664916740305,36.9241031318442,18200,2018-04-16 06:36:38,1701.4571833466357,74.9000023968,0.0,0.19101000611232002,1701.4571833466357,74.9000023968,0.35999970196000003,0.24336100778755201,1024,0.0,98,P-GPS,
0.37664921724727796,36.9241031519003,18300,2018-04-16 06:36:38,1701.7571833562356,75.20000240640002,0.0,0.196786006297152,1701.7571833562356,75.20000240640002,0.35999970196000003,0.24336100778755201,1024,0.0,98,P-GPS,
0.37664924676608297,36.924103188593996,18400,2018-04-16 06:36:38,1702.0571833658357,75.50000241600002,0.0,0.20059400641900804,1702.0571833658357,75.50000241600002,0.35999970196000003,0.24336100778755201,1024,0.0,98,P-GPS,
0.376649283808298,36.9241031808697,18500,2018-04-16 06:36:39,1702.1571833690357,75.60000241920001,0.0,0.20455000654560002,1702.1571833690357,75.60000241920001,0.35999970196000003,0.24336100778755201,1024,0.0,98,P-GPS,
0.3766493014166629,36.9241031898746,18600,2018-04-16 06:36:39,1702.2571833722357,75.7000024224,0.0,0.20662900661212805,1702.2571833722357,75.7000024224,0.35999970196000003,0.24336100778755201,1024,0.0,98,P-GPS,
0.376649322802204,36.9241031622431,18700,2018-04-16 06:36:39,1702.2571833722357,75.7000024224,0.0,0.2085750066744,1702.2571833722357,75.7000024224,0.35999970196000003,0.24336100778755201,1024,0.0,98,P-GPS,
0.37664933062036404,36.9241031536084,18800,2018-04-16 06:36:39,1702.2571833722357,75.7000024224,0.0,0.20932000669824002,1702.2571833722357,75.7000024224,0.35999970196000003,0.24336100778755201,1024,0.0,98,P-GPS,
0.376649351423736,36.924103148810204,18900,2018-04-16 06:36:39,1702.2571833722357,75.7000024224,0.35999970196000003,0.211554006769728,1702.2571833722357,75.7000024224,0.35999970196000003,0.24336100778755201,1024,0.0,98,P-GPS,
0.376649376010798,36.924103162966205,19000,2018-04-16 06:36:39,1702.2571833722357,75.7000024224,0.35999970196000003,0.214457006862624,1702.2571833722357,75.7000024224,0.35999970196000003,0.24336100778755201,1024,0.0,98,P-GPS,
0.376649454763978,36.9241031254367,19100,2018-04-16 06:36:39,1702.3571833754354,75.80000242560001,0.35999970196000003,0.22269900712636803,1702.3571833754354,75.80000242560001,0.35999970196000003,0.24336100778755201,1024,0.0,98,P-GPS,
0.376649548314828,36.9241031024198,19200,2018-04-16 06:36:39,1702.3571833754354,75.80000242560001,0.0,0.23282500745040002,1702.3571833754354,75.80000242560001,0.35999970196000003,0.24336100778755201,1024,0.0,98,P-GPS,
0.37664968170311897,36.9241030651066,19300,2018-04-16 06:36:39,1702.3571833754354,75.80000242560001,0.0,0.247316007914112,1702.3571833754354,75.80000242560001,0.35999970196000003,0.247316007914112,1024,0.0,98,P-GPS,
0.37664981973003203,36.9241030513031,19400,2018-04-16 06:36:40,1702.3571833754354,75.80000242560001,0.0,0.262552008401664,1702.3571833754354,75.80000242560001,0.35999970196000003,0.262552008401664,1024,0.0,98,P-GPS,
0.37665002260484204,36.924103028716395,19500,2018-04-16 06:36:40,1702.3571833754354,75.80000242560001,0.0,0.28497300911913603,1702.3571833754354,75.80000242560001,0.35999970196000003,0.28497300911913603,1024,0.0,98,P-GPS,
0.37665022744599796,36.9241030171107,19600,2018-04-16 06:36:40,1702.3571833754354,75.80000242560001,0.0,0.307691009846112,1702.3571833754354,75.80000242560001,0.35999970196000003,0.307691009846112,1024,0.0,98,P-GPS,
0.37665049228717296,36.924102994912204,19700,2018-04-16 06:36:40,1702.3571833754354,75.80000242560001,0.0,0.33706501078608,1702.3571833754354,75.80000242560001,0.35999970196000003,0.33706501078608,1024,0.0,98,P-GPS,
0.37665074023405604,36.9241029829325,19800,2018-04-16 06:36:40,1702.3571833754354,75.80000242560001,0.0,0.364606011667392,1702.3571833754354,75.80000242560001,0.35999970196000003,0.364606011667392,1024,0.0,98,P-GPS,
0.37665101094007297,36.9241029328203,19900,2018-04-16 06:36:40,1702.3571833754354,75.80000242560001,0.0,0.394657012629024,1702.3571833754354,75.80000242560001,0.35999970196000003,0.394657012629024,1024,0.0,98,P-GPS,
0.376651255993211,36.9241028922253,20000,2018-04-16 06:36:40,1702.3571833754354,75.80000242560001,0.0,0.42192601350163206,1702.3571833754354,75.80000242560001,0.35999970196000003,0.42192601350163206,1024,0.0,98,P-GPS,
0.37665153641778104,36.9241028523341,20100,2018-04-16 06:36:40,1702.3571833754354,75.80000242560001,0.0,0.453169014501408,1702.3571833754354,75.80000242560001,0.35999970196000003,0.453169014501408,1024,0.0,98,P-GPS,
0.37665178892756396,36.92410283194479,20200,2018-04-16 06:36:40,1702.3571833754354,75.80000242560001,0.0,0.48128901540124797,1702.3571833754354,75.80000242560001,0.35999970196000003,0.48128901540124797,1024,0.0,98,P-GPS,
0.376652089717454,36.9241027842099,20300,2018-04-16 06:36:40,1702.3571833754354,75.80000242560001,0.0,0.514868016475776,1702.3571833754354,75.80000242560001,0.35999970196000003,0.514868016475776,1024,0.0,98,P-GPS,
0.37665235431354904,36.9241027529334,20400,2018-04-16 06:36:40,1702.3571833754354,75.80000242560001,0.0,0.544392017420544,1702.3571833754354,75.80000242560001,0.35999970196000003,0.544392017420544,1024,-0.2,98,P-GPS,
0.376652619181593,36.92410270532321,20500,2018-04-16 06:36:41,1702.3571833754354,75.80000242560001,0.0,0.5740320183690241,1702.3571833754354,75.80000242560001,0.35999970196000003,0.5740320183690241,1024,-0.6,98,P-GPS,
0.37665284583819897,36.924102678076,20600,2018-04-16 06:36:41,1702.3571833754354,75.80000242560001,0.0,0.599347019179104,1702.3571833754354,75.80000242560001,0.35999970196000003,0.599347019179104,1024,-1.0,98,P-GPS,
0.37665333988531,36.924102614513295,20800,2018-04-16 06:36:41,1702.3571833754354,75.80000242560001,0.0,0.6545710209462721,1702.3571833754354,75.80000242560001,0.35999970196000003,0.6545710209462721,1024,-1.9,98,P-GPS,
0.376653611094515,36.9241025414307,20900,2018-04-16 06:36:41,1702.3571833754354,75.80000242560001,0.0,0.685151021924832,1702.3571833754354,75.80000242560001,0.35999970196000003,0.685151021924832,1024,-2.3,98,P-GPS,
0.37665382826543503,36.924102500092104,21000,2018-04-16 06:36:41,1702.3571833754354,75.80000242560001,0.0,0.7095490227055681,1702.3571833754354,75.80000242560001,0.35999970196000003,0.7095490227055681,1024,-2.9,98,P-GPS,
0.37665406835019105,36.924102435581005,21100,2018-04-16 06:36:41,1702.3571833754354,75.80000242560001,0.0,0.7366870235739841,1702.3571833754354,75.80000242560001,0.35999970196000003,0.7366870235739841,1024,-3.5,98,P-GPS,
0.376654252605372,36.9241024063706,21200,2018-04-16 06:36:41,1702.3571833754354,75.80000242560001,0.0,0.757364024235648,1702.3571833754354,75.80000242560001,0.35999970196000003,0.757364024235648,1024,-4.2,98,P-GPS,
0.376654479372712,36.924102348059,21300,2018-04-16 06:36:41,1702.3571833754354,75.80000242560001,0.0,0.783017025056544,1702.3571833754354,75.80000242560001,0.35999970196000003,0.783017025056544,1024,-4.8,98,P-GPS,
0.37665464843614005,36.9241023258789,21400,2018-04-16 06:36:41,1702.3571833754354,75.80000242560001,0.0,0.8019570256626241,1702.3571833754354,75.80000242560001,0.35999970196000003,0.8019570256626241,1024,-5.4,98,P-GPS,
0.37665487602095904,36.9241022671688,21500,2018-04-16 06:36:42,1702.3571833754354,75.80000242560001,0.0,0.827734026487488,1702.3571833754354,75.80000242560001,0.35999970196000003,0.827734026487488,1024,-5.4,98,P-GPS,
0.376655033362846,36.924102250564204,21600,2018-04-16 06:36:42,1702.3571833754354,75.80000242560001,0.0,0.8453260270504321,1702.3571833754354,75.80000242560001,0.35999970196000003,0.8453260270504321,1024,-5.4,98,P-GPS,
0.376655228035184,36.924102169267,21700,2018-04-16 06:36:42,1702.3571833754354,75.80000242560001,0.0,0.8677220277671039,1702.3571833754354,75.80000242560001,0.35999970196000003,0.8677220277671039,1024,-6.7,98,P-GPS,
0.376655355019618,36.924102133770205,21800,2018-04-16 06:36:42,1702.3571833754354,75.80000242560001,0.0,0.8821640282292479,1702.3571833754354,75.80000242560001,0.35999970196000003,0.8821640282292479,1024,-7.3,98,P-GPS,
0.37665551145771897,36.92410209083621,21900,2018-04-16 06:36:42,1702.3571833754354,75.80000242560001,0.0,0.899956028798592,1702.3571833754354,75.80000242560001,0.35999970196000003,0.899956028798592,1024,-8.0,98,P-GPS,
0.3766556066500421,36.9241020933577,22000,2018-04-16 06:36:42,1702.3571833754354,75.80000242560001,0.0,0.9104570291346241,1702.3571833754354,75.80000242560001,0.35999970196000003,0.9104570291346241,1024,-8.6,98,P-GPS,
0.37665573969065896,36.9241020548274,22100,2018-04-16 06:36:42,1702.3571833754354,75.80000242560001,0.0,0.9256160296197121,1702.3571833754354,75.80000242560001,0.35999970196000003,0.9256160296197121,1024,-9.2,98,P-GPS,
0.3766558179031961,36.924102052386104,22200,2018-04-16 06:36:42,1702.2571833722357,75.7000024224,0.0,0.934294029897408,1702.3571833754354,75.80000242560001,0.35999970196000003,0.934294029897408,1024,-9.9,98,P-GPS,
0.376655920296498,36.924101997822,22300,2018-04-16 06:36:42,1702.2571833722357,75.7000024224,0.35999970196000003,0.9462630302804161,1702.3571833754354,75.80000242560001,0.35999970196000003,0.9462630302804161,1024,-10.5,98,P-GPS,
0.376655958162706,36.9241019915964,22400,2018-04-16 06:36:42,1702.2571833722357,75.7000024224,0.35999970196000003,0.9505240304167679,1702.3571833754354,75.80000242560001,0.35999970196000003,0.9505240304167679,1024,-11.1,98,P-GPS,
0.376656006630085,36.9241019313689,22500,2018-04-16 06:36:43,1702.2571833722357,75.7000024224,0.35999970196000003,0.9566340306122879,1702.3571833754354,75.80000242560001,0.35999970196000003,0.9566340306122879,1024,-11.7,98,P-GPS,
0.376656008133138,36.9241019155696,22600,2018-04-16 06:36:43,1702.2571833722357,75.7000024224,0.35999970196000003,0.9570050306241601,1702.3571833754354,75.80000242560001,0.35999970196000003,0.9570050306241601,1024,-12.2,98,P-GPS,
0.376656045235606,36.9241018701409,22700,2018-04-16 06:36:43,1702.2571833722357,75.7000024224,0.35999970196000003,0.961707030774624,1702.3571833754354,75.80000242560001,0.35999970196000003,0.961707030774624,1024,-12.3,98,P-GPS,
0.376656038148618,36.9241018793477,22800,2018-04-16 06:36:43,1702.2571833722357,75.7000024224,0.35999970196000003,0.9608000307455999,1702.3571833754354,75.80000242560001,0.35999970196000003,0.961707030774624,1024,-12.3,98,P-GPS,
0.37665607994589,36.9241018329676,22900,2018-04-16 06:36:43,1702.2571833722357,75.7000024224,0.35999970196000003,0.9660500309136001,1702.3571833754354,75.80000242560001,0.35999970196000003,0.9660500309136001,1024,-12.3,98,P-GPS,
0.376656085910881,36.9241018242951,23000,2018-04-16 06:36:43,1702.2571833722357,75.7000024224,0.35999970196000003,0.966829030938528,1702.3571833754354,75.80000242560001,0.35999970196000003,0.966829030938528,1024,-12.3,98,P-GPS,
0.376656115253813,36.924101789459996,23100,2018-04-16 06:36:43,1702.2571833722357,75.7000024224,0.35999970196000003,0.970563031058016,1702.3571833754354,75.80000242560001,0.35999970196000003,0.970563031058016,1024,-12.3,98,P-GPS,
0.37665610346387796,36.9241018018822,23200,2018-04-16 06:36:43,1702.2571833722357,75.7000024224,0.35999970196000003,0.9690840310106881,1702.3571833754354,75.80000242560001,0.35999970196000003,0.970563031058016,1024,-12.3,98,P-GPS,
0.376656090071555,36.9241017803004,23300,2018-04-16 06:36:43,1702.2571833722357,75.7000024224,0.35999970196000003,0.967921030973472,1702.3571833754354,75.80000242560001,0.35999970196000003,0.970563031058016,1024,-12.3,98,P-GPS,
0.37665604528934493,36.924101800909796,23400,2018-04-16 06:36:43,1702.2571833722357,75.7000024224,0.35999970196000003,0.962683030805856,1702.3571833754354,75.80000242560001,0.35999970196000003,0.970563031058016,1024,-12.3,98,P-GPS,
0.37665600784164704,36.924101783569704,23500,2018-04-16 06:36:44,1702.2571833722357,75.7000024224,0.35999970196000003,0.958808030681856,1702.3571833754354,75.80000242560001,0.35999970196000003,0.970563031058016,1024,-12.3,98,P-GPS,
0.37665595418441705,36.9241018011425,23600,2018-04-16 06:36:44,1702.2571833722357,75.7000024224,0.35999970196000003,0.9526360304843521,1702.3571833754354,75.80000242560001,0.35999970196000003,0.970563031058016,1024,-12.3,98,P-GPS,
0.37665587777131104,36.9241018148707,23700,2018-04-16 06:36:44,1702.2571833722357,75.7000024224,0.35999970196000003,0.9440110302083522,1702.3571833754354,75.80000242560001,0.35999970196000003,0.970563031058016,1024,-12.3,98,P-GPS,
0.376655789475449,36.9241018621057,23800,2018-04-16 06:36:44,1702.2571833722357,75.7000024224,0.35999970196000003,0.9335970298751041,1702.3571833754354,75.80000242560001,0.35999970196000003,0.970563031058016,1024,-12.3,98,P-GPS,
0.376655716071708,36.9241018696096,23900,2018-04-16 06:36:44,1702.2571833722357,75.7000024224,0.35999970196000003,0.925394029612608,1702.3571833754354,75.80000242560001,0.35999970196000003,0.970563031058016,1024,-12.3,98,P-GPS,
0.37665554595467704,36.9241019305968,24100,2018-04-16 06:36:44,1702.2571833722357,75.7000024224,0.503999582744,0.905778028984896,1702.3571833754354,75.80000242560001,0.503999582744,0.970563031058016,1024,-12.3,98,P-GPS,
0.37665509473401504,36.9241026662289,24300,2018-04-16 06:36:44,1702.2571833722357,75.7000024224,3.203997347444,0.849294027177408,1702.3571833754354,75.80000242560001,3.203997347444,0.970563031058016,1024,-12.3,98,P-GPS,
0.376654577281279,36.9241036972714,24400,2018-04-16 06:36:44,1702.2571833722357,75.7000024224,5.6519953207719995,0.7958810254681921,1702.3571833754354,75.80000242560001,5.6519953207719995,0.970563031058016,1024,-12.3,98,P-GPS,
0.376653752143821,36.924105332271296,24500,2018-04-16 06:36:45,1702.2571833722357,75.7000024224,7.55999374116,0.748898023964736,1702.3571833754354,75.80000242560001,7.55999374116,0.970563031058016,1024,-12.3,98,P-GPS,
0.376652758499863,36.924107348979504,24600,2018-04-16 06:36:45,1702.2571833722357,75.7000024224,9.17999239998,0.767299024553568,1702.3571833754354,75.80000242560001,9.17999239998,0.970563031058016,1024,-12.3,98,P-GPS,
0.37665145986625703,36.9241098342589,24700,2018-04-16 06:36:45,1702.2571833722357,75.7000024224,10.7999910588,0.8875160284005121,1702.3571833754354,75.80000242560001,10.7999910588,0.970563031058016,1024,-12.3,98,P-GPS,
0.376650066930273,36.924112576119,24800,2018-04-16 06:36:45,1702.2571833722357,75.7000024224,11.915990134876001,1.1114500355664,1702.3571833754354,75.80000242560001,11.915990134876001,1.1114500355664,1024,-12.3,98,P-GPS,
0.37664838813560203,36.9241156321967,24900,2018-04-16 06:36:45,1702.2571833722357,75.7000024224,11.915990134876001,1.4166400453324801,1702.3571833754354,75.80000242560001,11.915990134876001,1.4166400453324801,1024,-12.3,98,P-GPS,
0.37664665721851,36.9241189145551,25000,2018-04-16 06:36:45,1702.2571833722357,75.7000024224,14.327988138008,1.7801500569648,1702.3571833754354,75.80000242560001,14.327988138008,1.7801500569648,1024,-12.3,98,P-GPS,
0.3766446842193761,36.924122373168395,25100,2018-04-16 06:36:45,1702.3571833754354,75.80000242560001,15.623987065063998,2.18446006990272,1702.3571833754354,75.80000242560001,15.623987065063998,2.18446006990272,1024,-12.3,98,P-GPS,
0.376642682577133,36.9241260737781,25200,2018-04-16 06:36:45,1702.3571833754354,75.80000242560001,16.73998614114,2.62833008410656,1702.3571833754354,75.80000242560001,16.73998614114,2.62833008410656,1024,-12.3,98,P-GPS,
0.376640481174886,36.9241299574796,25300,2018-04-16 06:36:46,1702.3571833754354,75.80000242560001,17.567985455647996,3.10454009934528,1702.3571833754354,75.80000242560001,17.567985455647996,3.10454009934528,1024,-12.3,98,P-GPS,
0.37663584176297704,36.9241384243389,25500,2018-04-16 06:36:46,1702.4571833786356,75.90000242880001,19.655983727016,4.153590132914879,1702.4571833786356,75.90000242880001,19.655983727016,4.153590132914879,1024,-12.3,98,P-GPS,
0.37663339678927293,36.924143005381104,25600,2018-04-16 06:36:46,1702.4571833786356,75.90000242880001,20.771982803092,4.72339015114848,1702.4571833786356,75.90000242880001,20.771982803092,4.72339015114848,1024,-12.3,98,P-GPS,
0.37663073738959496,36.924147680028,25700,2018-04-16 06:36:46,1702.4571833786356,75.90000242880001,21.563982147404,5.3129101700131205,1702.4571833786356,75.90000242880001,21.563982147404,5.3129101700131205,1024,-12.3,98,P-GPS,
0.37662804286193696,36.924152639945,25800,2018-04-16 06:36:46,1702.4571833786356,75.90000242880001,22.859981074460002,5.93511018992352,1702.4571833786356,75.90000242880001,22.859981074460002,5.93511018992352,1024,-12.3,98,P-GPS,
0.37662517064661205,36.9241577623957,25900,2018-04-16 06:36:46,1702.4571833786356,75.90000242880001,22.859981074460002,6.582540210641281,1702.4571833786356,75.90000242880001,22.859981074460002,6.582540210641281,1024,-12.3,98,P-GPS,
0.37662229086798,36.9241631420275,26000,2018-04-16 06:36:46,1702.4571833786356,75.90000242880001,24.47997973328,7.25768023224576,1702.4571833786356,75.90000242880001,24.47997973328,7.25768023224576,1024,-12.3,98,P-GPS,
0.376616203895765,36.924174416060204,26200,2018-04-16 06:36:46,1702.5571833818356,76.000002432,26.063978421904,8.67662027765184,1702.5571833818356,76.000002432,26.063978421904,8.67662027765184,1024,-12.3,98,P-GPS,
0.376613027946323,36.924180187759106,26300,2018-04-16 06:36:46,1702.5571833818356,76.000002432,26.387978153667998,9.40642030100544,1702.5571833818356,76.000002432,26.387978153667998,9.40642030100544,1024,-12.3,98,P-GPS,
0.37660985406337605,36.9241861184885,26400,2018-04-16 06:36:47,1702.5571833818356,76.000002432,26.891977736412,10.1526003248832,1702.5571833818356,76.000002432,26.891977736412,10.1526003248832,1024,-12.3,98,P-GPS,
0.37660318310183205,36.9241983903306,26600,2018-04-16 06:36:47,1702.4571833786356,75.90000242880001,28.187976663468003,11.7023003744736,1702.5571833818356,76.000002432,28.187976663468003,11.7023003744736,1024,-12.3,98,P-GPS,
0.37659959832989603,36.9242048770739,26700,2018-04-16 06:36:47,1702.4571833786356,75.90000242880001,28.511976395232,12.5246004007872,1702.5571833818356,76.000002432,28.511976395232,12.5246004007872,1024,-12.3,98,P-GPS,
0.376596075630989,36.9242114480111,26800,2018-04-16 06:36:47,1702.4571833786356,75.90000242880001,28.979976007780003,13.352600427283198,1702.5571833818356,76.000002432,28.979976007780003,13.352600427283198,1024,-12.3,98,P-GPS,
0.376592453912916,36.9242180650109,26900,2018-04-16 06:36:47,1702.4571833786356,75.90000242880001,29.303975739544004,14.190100454083199,1702.5571833818356,76.000002432,29.303975739544004,14.190100454083199,1024,-12.3,98,P-GPS,
0.37658889856044897,36.9242247229343,27000,2018-04-16 06:36:47,1702.4571833786356,75.90000242880001,29.771975352092,15.0286004809152,1702.5571833818356,76.000002432,29.771975352092,15.0286004809152,1024,-12.3,98,P-GPS,
0.37658520519084,36.9242315083562,27100,2018-04-16 06:36:47,1702.4571833786356,75.90000242880001,29.771975352092,15.886700508374402,1702.5571833818356,76.000002432,29.771975352092,15.886700508374402,1024,-12.3,98,P-GPS,
0.37658157740518505,36.9242383170149,27200,2018-04-16 06:36:47,1702.4571833786356,75.90000242880001,30.095975083855997,16.744000535808002,1702.5571833818356,76.000002432,30.095975083855997,16.744000535808002,1024,-12.3,98,P-GPS,
0.37657787830345296,36.924245256007204,27300,2018-04-16 06:36:47,1702.4571833786356,75.90000242880001,30.275974934835993,17.6179005637728,1702.5571833818356,76.000002432,30.275974934835993,17.6179005637728,1024,-12.3,98,P-GPS,
0.37657425560831304,36.9242521828544,27400,2018-04-16 06:36:48,1702.4571833786356,75.90000242880001,30.275974934835993,18.486900591580802,1702.5571833818356,76.000002432,30.275974934835993,18.486900591580802,1024,-12.3,98,P-GPS,
0.376570540743244,36.9242592139289,27500,2018-04-16 06:36:48,1702.4571833786356,75.90000242880001,30.599974666599998,19.3708006198656,1702.5571833818356,76.000002432,30.599974666599998,19.3708006198656,1024,-12.3,98,P-GPS,
0.37656689734732396,36.9242662002257,27600,2018-04-16 06:36:48,1702.4571833786356,75.90000242880001,30.599974666599998,20.2468006478976,1702.5571833818356,76.000002432,30.599974666599998,20.2468006478976,1024,-12.3,98,P-GPS,
0.376563242005139,36.9242732260243,27700,2018-04-16 06:36:48,1702.3571833754354,75.80000242560001,30.275974934835993,21.1273006760736,1702.5571833818356,76.000002432,30.599974666599998,21.1273006760736,1024,-12.3,98,P-GPS,
0.37655968037665,36.924280157984704,27800,2018-04-16 06:36:48,1702.3571833754354,75.80000242560001,30.095975083855997,21.9938007038016,1702.5571833818356,76.000002432,30.599974666599998,21.9938007038016,1024,-12.3,98,P-GPS,
0.37655610417684293,36.9242870909729,27900,2018-04-16 06:36:48,1702.2571833722357,75.7000024224,30.095975083855997,22.861200731558405,1702.5571833818356,76.000002432,30.599974666599998,22.861200731558405,1024,-12.3,98,P-GPS,
0.376552638717742,36.9242938763863,28000,2018-04-16 06:36:48,1702.2571833722357,75.7000024224,29.303975739544004,23.708500758672,1702.5571833818356,76.000002432,30.599974666599998,23.708500758672,1024,-12.3,98,P-GPS,
0.37654923919759603,36.92430058853461,28100,2018-04-16 06:36:48,1702.2571833722357,75.7000024224,28.511976395232,24.5451007854432,1702.5571833818356,76.000002432,30.599974666599998,24.5451007854432,1024,-12.3,98,P-GPS,
0.37654594425612303,36.924307133562706,28200,2018-04-16 06:36:48,1702.1571833690357,75.60000241920001,28.187976663468003,25.360000811520006,1702.5571833818356,76.000002432,30.599974666599998,25.360000811520006,1024,-12.3,98,P-GPS,
0.376542719878385,36.9243136275092,28300,2018-04-16 06:36:48,1702.1571833690357,75.60000241920001,27.683977080724002,26.1663008373216,1702.5571833818356,76.000002432,30.599974666599998,26.1663008373216,1024,-12.3,98,P-GPS,
0.376539592985818,36.9243199445543,28400,2018-04-16 06:36:48,1702.0571833658357,75.50000241600002,26.891977736412,26.950100862403197,1702.5571833818356,76.000002432,30.599974666599998,26.950100862403197,1024,-12.3,97,P-GPS,
0.376536641405019,36.924326075756,28500,2018-04-16 06:36:49,1702.0571833658357,75.50000241600002,26.387978153667998,27.7067008866144,1702.5571833818356,76.000002432,30.599974666599998,27.7067008866144,1024,-12.3,97,P-GPS,
0.37653378271066495,36.9243320394435,28600,2018-04-16 06:36:49,1702.0571833658357,75.50000241600002,25.595978809356,28.4421009101472,1702.5571833818356,76.000002432,30.599974666599998,28.4421009101472,1024,-12.3,97,P-GPS,
0.37653096057162205,36.924338056182606,28700,2018-04-16 06:36:49,1702.0571833658357,75.50000241600002,25.127979196807996,29.181000933792003,1702.5571833818356,76.000002432,30.599974666599998,29.181000933792003,1024,-12.3,97,P-GPS,
0.37652820052189095,36.924343911848396,28800,2018-04-16 06:36:49,1702.0571833658357,75.50000241600002,24.623979614063998,29.900700956822398,1702.5571833818356,76.000002432,30.599974666599998,29.900700956822398,1024,-12.3,97,P-GPS,
0.376525496953113,36.9243497280809,28900,2018-04-16 06:36:49,1702.0571833658357,75.50000241600002,23.831980269752002,30.613800979641603,1702.5571833818356,76.000002432,30.599974666599998,30.613800979641603,1024,-12.3,97,P-GPS,
