latitude,longitude,time_millisecond,datetime_utc,altitude_m,ascent_m,speed_kph,distance_m,max_altitude_m,max_ascent_m,max_speed_kph,max_distance_m,rc_throttle,gimbal_pitch_degrees,battery_percent,flycState,message
0.0670574093100021,36.965817292227,100,2017-11-03 05:09:08,1804.3734708399481,0.0,0.0,0.0,1804.3734708399481,0.0,0.0,0.0,1024,0.0,97,Motors_Started,
0.0670573976519715,36.9658172822128,200,2017-11-03 05:09:08,1804.3734708399481,0.0,0.0,0.0017090800546905602,1804.3734708399481,0.0,0.0,0.0017090800546905602,1024,0.0,97,Motors_Started,
0.0670573906504766,36.9658172768728,300,2017-11-03 05:09:08,1804.3734708399481,0.0,0.0,0.0026872500859920004,1804.3734708399481,0.0,0.0,0.0026872500859920004,1024,0.0,97,Motors_Started,
0.0670573881679137,36.965817266040794,400,2017-11-03 05:09:08,1804.3734708399481,0.0,0.0,0.0037427201197670398,1804.3734708399481,0.0,0.0,0.0037427201197670398,1024,0.0,97,Motors_Started,
0.0670573865321417,36.965817259779996,500,2017-11-03 05:09:08,1804.3734708399481,0.0,0.0,0.0044086301410761605,1804.3734708399481,0.0,0.0,0.0044086301410761605,364,0.0,97,Motors_Started,
0.067057391678839,36.965817265685295,600,2017-11-03 05:09:08,1804.3734708399481,0.0,0.0,0.00354347011339104,1804.3734708399481,0.0,0.0,0.0044086301410761605,535,0.0,97,Motors_Started,
0.0670573926331071,36.9658172909979,700,2017-11-03 05:09:08,1804.3734708399481,0.0,0.0,0.0018596000595072,1804.3734708399481,0.0,0.0,0.0044086301410761605,768,0.0,97,Motors_Started,
0.0670573800916457,36.9658173158973,800,2017-11-03 05:09:09,1804.3734708399481,0.0,0.0,0.0041817001338144,1804.3734708399481,0.0,0.0,0.0044086301410761605,1024,0.0,97,Motors_Started,
0.0670573543834003,36.9658173310994,900,2017-11-03 05:09:09,1804.3734708399481,0.0,0.0,0.007483100239459201,1804.3734708399481,0.0,0.0,0.007483100239459201,1024,0.0,97,Motors_Started,
0.0670573307408361,36.9658173438714,1000,2017-11-03 05:09:09,1804.3734708399481,0.0,0.0,0.010455900334588802,1804.3734708399481,0.0,0.0,0.010455900334588802,1024,0.0,97,Motors_Started,
0.0670573166140845,36.965817351701496,1100,2017-11-03 05:09:09,1804.3734708399481,0.0,0.0,0.012247700391926401,1804.3734708399481,0.0,0.0,0.012247700391926401,1024,0.0,97,Motors_Started,
0.0670573018343267,36.9658173579644,1200,2017-11-03 05:09:09,1804.3734708399481,0.0,0.0,0.0140104004483328,1804.3734708399481,0.0,0.0,0.0140104004483328,1024,0.0,97,Motors_Started,
0.0670572943052159,36.9658173606986,1300,2017-11-03 05:09:09,1804.3734708399481,0.0,0.0,0.014884400476300802,1804.3734708399481,0.0,0.0,0.014884400476300802,1024,0.0,97,Motors_Started,
0.0670572910173875,36.9658173591848,1400,2017-11-03 05:09:09,1804.3734708399481,0.0,0.0,0.015116100483715202,1804.3734708399481,0.0,0.0,0.015116100483715202,1024,0.0,97,Motors_Started,
0.0670572886007766,36.9658173578894,1500,2017-11-03 05:09:09,1804.3734708399481,0.0,0.0,0.015281100488995199,1804.3734708399481,0.0,0.0,0.015281100488995199,1024,0.0,97,Motors_Started,
0.0670572734806741,36.9658173540182,1600,2017-11-03 05:09:09,1804.3734708399481,0.0,0.0,0.0165946005310272,1804.3734708399481,0.0,0.0,0.0165946005310272,1024,0.0,97,Assisted_Takeoff,
0.0670572408246724,36.9658173525152,1700,2017-11-03 05:09:09,1804.3734708399481,0.0,0.0,0.0199000006368,1804.3734708399481,0.0,0.0,0.0199000006368,1024,0.0,97,Assisted_Takeoff,
0.067057210128096,36.9658173643257,1800,2017-11-03 05:09:10,1804.3734708399481,0.0,0.0,0.023556700753814403,1804.3734708399481,0.0,0.0,0.023556700753814403,1024,0.0,97,Assisted_Takeoff,
0.0670571922074769,36.965817391040794,1900,2017-11-03 05:09:10,1804.3734708399481,0.0,0.0,0.0265262008488384,1804.3734708399481,0.0,0.0,0.0265262008488384,1024,0.0,97,Assisted_Takeoff,
0.0670571808470444,36.965817417409,2000,2017-11-03 05:09:10,1804.3734708399481,0.0,0.0,0.028970400927052803,1804.3734708399481,0.0,0.0,0.028970400927052803,1024,0.0,97,Assisted_Takeoff,
0.0670571736615353,36.96581743350821,2100,2017-11-03 05:09:10,1804.3734708399481,0.0,0.0,0.030554500977744,1804.3734708399481,0.0,0.0,0.030554500977744,1024,0.0,97,Assisted_Takeoff,
0.0670571719598113,36.9658174461496,2200,2017-11-03 05:09:10,1804.3734708399481,0.0,0.0,0.0314592010066944,1804.3734708399481,0.0,0.0,0.0314592010066944,1024,0.0,97,Assisted_Takeoff,
0.0670571695053391,36.9658174531875,2300,2017-11-03 05:09:10,1804.3734708399481,0.0,0.0,0.032118101027779206,1804.3734708399481,0.0,0.0,0.032118101027779206,1024,0.0,97,Assisted_Takeoff,
0.06705717443056801,36.9658174548833,2400,2017-11-03 05:09:10,1804.3734708399481,0.0,0.0,0.031771801016697604,1804.3734708399481,0.0,0.0,0.032118101027779206,1024,0.0,97,Assisted_Takeoff,
0.0670571740926659,36.9658174564228,2500,2017-11-03 05:09:10,1804.3734708399481,0.0,0.0,0.0319003010208096,1804.3734708399481,0.0,0.0,0.032118101027779206,1024,0.0,97,Assisted_Takeoff,
0.0670571636409052,36.9658174530655,2600,2017-11-03 05:09:10,1804.3734708399481,0.0,0.0,0.032654201044934404,1804.3734708399481,0.0,0.0,0.032654201044934404,1024,0.0,97,Assisted_Takeoff,
0.0670571357851493,36.9658174508451,2700,2017-11-03 05:09:10,1804.3734708399481,0.0,0.0,0.035162201125190404,1804.3734708399481,0.0,0.0,0.035162201125190404,1024,0.0,97,Assisted_Takeoff,
0.0670571104233554,36.965817444325296,2800,2017-11-03 05:09:11,1804.3734708399481,0.0,0.0,0.0372942011934144,1804.3734708399481,0.0,0.0,0.0372942011934144,1024,0.0,97,Assisted_Takeoff,
0.0670570941857331,36.9658174407646,2900,2017-11-03 05:09:11,1804.3734708399481,0.0,0.0,0.038741701239734395,1804.3734708399481,0.0,0.0,0.038741701239734395,1024,0.0,97,Assisted_Takeoff,
0.0670570841679528,36.9658174341442,3000,2017-11-03 05:09:11,1804.3734708399481,0.0,0.0,0.03945200126246401,1804.3734708399481,0.0,0.0,0.03945200126246401,1024,0.0,97,Assisted_Takeoff,
0.0670570762276599,36.9658174307205,3100,2017-11-03 05:09:11,1804.3734708399481,0.0,0.0,0.0401151012836832,1804.3734708399481,0.0,0.0,0.0401151012836832,1024,0.0,97,Assisted_Takeoff,
0.0670570582687724,36.9658174411157,3200,2017-11-03 05:09:11,1804.3734708399481,0.0,0.0,0.0424041013569312,1804.3734708399481,0.0,0.0,0.0424041013569312,1024,0.0,97,Assisted_Takeoff,
0.0670569979797045,36.965817497288704,3400,2017-11-03 05:09:11,1804.3734708399481,0.0,0.0,0.0511116016355712,1804.3734708399481,0.0,0.0,0.0511116016355712,1024,0.0,97,Assisted_Takeoff,
0.0670569796873931,36.9658175138076,3500,2017-11-03 05:09:11,1804.3734708399481,0.0,0.0,0.05375680172021761,1804.3734708399481,0.0,0.0,0.05375680172021761,1024,0.0,97,Assisted_Takeoff,
0.0670569685871046,36.9658175280719,3600,2017-11-03 05:09:11,1804.3734708399481,0.0,0.0,0.0555874017787968,1804.3734708399481,0.0,0.0,0.0555874017787968,1024,0.0,97,Assisted_Takeoff,
0.0670569614655118,36.9658175364138,3700,2017-11-03 05:09:11,1804.3734708399481,0.0,0.0,0.056725101815203204,1804.3734708399481,0.0,0.0,0.056725101815203204,1024,0.0,97,Assisted_Takeoff,
0.0670569633634633,36.9658175406019,3800,2017-11-03 05:09:12,1804.3734708399481,0.0,0.0,0.0567651018164832,1804.3734708399481,0.0,0.0,0.0567651018164832,1024,0.0,97,Assisted_Takeoff,
0.067056961719142,36.9658175431413,3900,2017-11-03 05:09:12,1804.3734708399481,0.0,0.0,0.0570624018259968,1804.3734708399481,0.0,0.0,0.0570624018259968,1024,0.0,97,Assisted_Takeoff,
0.0670569499198439,36.965817559161295,4000,2017-11-03 05:09:12,1804.3734708399481,0.0,0.0,0.0590852018907264,1804.3734708399481,0.0,0.0,0.0590852018907264,1024,0.0,97,Assisted_Takeoff,
0.0670569216748899,36.9658175877113,4100,2017-11-03 05:09:12,1804.3734708399481,0.0,0.0,0.0634069020290208,1804.3734708399481,0.0,0.0,0.0634069020290208,1024,0.0,97,Assisted_Takeoff,
0.06705689693679,36.9658176151865,4200,2017-11-03 05:09:12,1804.3734708399481,0.0,0.0,0.06735350215531201,1804.3734708399481,0.0,0.0,0.06735350215531201,1024,0.0,97,Assisted_Takeoff,
0.0670568810175286,36.9658176315213,4300,2017-11-03 05:09:12,1804.3734708399481,0.0,0.0,0.06982230223431361,1804.3734708399481,0.0,0.0,0.06982230223431361,1024,0.0,97,Assisted_Takeoff,
0.0670568642197217,36.9658176515753,4500,2017-11-03 05:09:12,1804.3734708399481,0.0,0.0,0.07260440232334081,1804.3734708399481,0.0,0.0,0.07260440232334081,1024,0.0,97,Assisted_Takeoff,
0.0670568158068959,36.9658177018022,4700,2017-11-03 05:09:12,1804.3734708399481,0.0,0.0,0.0801917025661344,1804.3734708399481,0.0,0.0,0.0801917025661344,1024,0.0,97,Assisted_Takeoff,
0.0670567885410438,36.9658177310995,4800,2017-11-03 05:09:13,1804.3734708399481,0.0,0.0,0.0845432027053824,1804.3734708399481,0.0,0.0,0.0845432027053824,1024,0.0,97,Assisted_Takeoff,
0.0670567710971517,36.9658177474407,4900,2017-11-03 05:09:13,1804.3734708399481,0.0,0.0,0.087177002789664,1804.3734708399481,0.0,0.0,0.087177002789664,1024,0.0,97,Assisted_Takeoff,
0.0670567622327168,36.965817757444206,5000,2017-11-03 05:09:13,1804.3734708399481,0.0,0.0,0.08862610283603521,1804.3734708399481,0.0,0.0,0.08862610283603521,1024,0.0,97,Assisted_Takeoff,
0.0670567546144487,36.965817763767,5100,2017-11-03 05:09:13,1804.3734708399481,0.0,0.0,0.08972450287118403,1804.3734708399481,0.0,0.0,0.08972450287118403,1024,0.0,97,Assisted_Takeoff,
0.0670567564130651,36.9658177635807,5200,2017-11-03 05:09:13,1804.3734708399481,0.0,0.0,0.08955020286560639,1804.3734708399481,0.0,0.0,0.08972450287118403,1024,0.0,97,Assisted_Takeoff,
0.0670567554156431,36.9658177637541,5300,2017-11-03 05:09:13,1804.3734708399481,0.0,0.0,0.08965140286884479,1804.3734708399481,0.0,0.0,0.08972450287118403,1024,0.0,97,Assisted_Takeoff,
0.0670567628519327,36.965817758499796,5400,2017-11-03 05:09:13,1804.3734708399481,0.0,0.0,0.08863890283644481,1804.3734708399481,0.0,0.0,0.08972450287118403,1024,0.0,97,Assisted_Takeoff,
0.0670567655714341,36.965817756148795,5500,2017-11-03 05:09:13,1804.3734708399481,0.0,0.0,0.08824070282370239,1804.3734708399481,0.0,0.0,0.08972450287118403,1024,0.0,97,Assisted_Takeoff,
0.0670567757015771,36.965817767421896,5600,2017-11-03 05:09:13,1804.3734708399481,0.0,0.0,0.08807560281841921,1804.3734708399481,0.0,0.0,0.08972450287118403,1024,0.0,97,Assisted_Takeoff,
0.0670567795418552,36.9658177950512,5700,2017-11-03 05:09:13,1804.3734708399481,0.0,0.0,0.0896186028677952,1804.3734708399481,0.0,0.0,0.08972450287118403,1024,0.0,97,Assisted_Takeoff,
0.0670567890023006,36.9658178224622,5800,2017-11-03 05:09:14,1804.3734708399481,0.0,0.0,0.0907493029039776,1804.3734708399481,0.0,0.0,0.0907493029039776,1024,0.0,97,Assisted_Takeoff,
0.0670567927823262,36.9658178392766,5900,2017-11-03 05:09:14,1804.3734708399481,0.0,0.0,0.09166040293313281,1804.3734708399481,0.0,0.0,0.09166040293313281,1024,0.0,97,Assisted_Takeoff,
0.0670567821538793,36.965817851115,6000,2017-11-03 05:09:14,1804.3734708399481,0.0,0.0,0.09341840298938882,1804.3734708399481,0.0,0.0,0.09341840298938882,1024,0.0,97,Assisted_Takeoff,
0.0670567551412503,36.965817859945,6100,2017-11-03 05:09:14,1804.3734708399481,0.0,0.0,0.0963227030823264,1804.3734708399481,0.0,0.0,0.0963227030823264,1024,0.0,97,Assisted_Takeoff,
0.0670567293051721,36.965817862842,6200,2017-11-03 05:09:14,1804.3734708399481,0.0,0.0,0.0987174031589568,1804.3734708399481,0.0,0.0,0.0987174031589568,1024,0.0,97,Assisted_Takeoff,
0.0670567108211114,36.965817866209996,6300,2017-11-03 05:09:14,1804.3734708399481,0.0,0.0,0.10053800321721601,1804.3734708399481,0.0,0.0,0.10053800321721601,1024,0.0,97,Assisted_Takeoff,
0.0670566967314068,36.965817863587105,6400,2017-11-03 05:09:14,1804.3734708399481,0.0,0.0,0.101571003250272,1804.3734708399481,0.0,0.0,0.101571003250272,1024,0.0,97,Assisted_Takeoff,
0.0670566858725351,36.9658178631653,6500,2017-11-03 05:09:14,1804.3734708399481,0.0,0.0,0.102487003279584,1804.3734708399481,0.0,0.0,0.102487003279584,1024,0.0,97,Assisted_Takeoff,
0.0670566794963627,36.9658178584827,6600,2017-11-03 05:09:14,1804.3734708399481,0.0,0.0,0.102724003287168,1804.3734708399481,0.0,0.0,0.102724003287168,1024,0.0,97,Assisted_Takeoff,
0.0670566737727891,36.965817856495704,6700,2017-11-03 05:09:14,1804.3734708399481,0.0,0.0,0.10309300329897601,1804.3734708399481,0.0,0.0,0.10309300329897601,1024,0.0,97,Assisted_Takeoff,
0.0670566741701295,36.9658178510422,6800,2017-11-03 05:09:15,1804.3734708399481,0.0,0.0,0.10269000328608001,1804.3734708399481,0.0,0.0,0.10309300329897601,1024,0.0,97,Assisted_Takeoff,
0.0670566729679307,36.9658178494342,6900,2017-11-03 05:09:15,1804.3734708399481,0.0,0.0,0.10268800328601599,1804.3734708399481,0.0,0.0,0.10309300329897601,1024,0.0,97,Assisted_Takeoff,
0.0670566788747042,36.965817844434596,7000,2017-11-03 05:09:15,1804.3734708399481,0.0,0.0,0.101829003258528,1804.3734708399481,0.0,0.0,0.10309300329897601,1024,0.0,97,Assisted_Takeoff,
0.0670566793050205,36.9658178444796,7100,2017-11-03 05:09:15,1804.3734708399481,0.0,0.0,0.101794003257408,1804.3734708399481,0.0,0.0,0.10309300329897601,1024,0.0,97,Assisted_Takeoff,
0.0670566853111291,36.965817842197104,7200,2017-11-03 05:09:15,1804.3734708399481,0.0,0.0,0.10110800323545599,1804.3734708399481,0.0,0.0,0.10309300329897601,1024,0.0,97,Assisted_Takeoff,
0.0670566857463307,36.9658178431114,7300,2017-11-03 05:09:15,1804.3734708399481,0.0,0.0,0.101131003236192,1804.3734708399481,0.0,0.0,0.10309300329897601,1034,0.0,97,Assisted_Takeoff,
0.0670566744551072,36.96581784124,7400,2017-11-03 05:09:15,1804.3734708399481,0.0,0.0,0.102009003264288,1804.3734708399481,0.0,0.0,0.10309300329897601,1072,0.0,97,Assisted_Takeoff,
0.0670566446126496,36.965817842064396,7500,2017-11-03 05:09:15,1804.3734708399481,0.0,0.0,0.10474000335167999,1804.3734708399481,0.0,0.0,0.10474000335167999,1447,0.0,97,Assisted_Takeoff,
0.0670566158978895,36.965817839886796,7600,2017-11-03 05:09:15,1804.3734708399481,0.0,0.0,0.107211003430752,1804.3734708399481,0.0,0.0,0.107211003430752,1684,0.0,97,Assisted_Takeoff,
0.067056597454947,36.9658178398076,7700,2017-11-03 05:09:15,1804.3734708399481,0.0,0.0,0.1089000034848,1804.3734708399481,0.0,0.0,0.1089000034848,1684,0.0,97,Assisted_Takeoff,
0.0670565854272596,36.965817836141895,7800,2017-11-03 05:09:16,1804.3734708399481,0.0,0.0,0.10978600351315201,1804.3734708399481,0.0,0.0,0.10978600351315201,1684,0.0,97,Assisted_Takeoff,
0.0670565764117866,36.9658178343562,7900,2017-11-03 05:09:16,1804.3734708399481,0.0,0.0,0.11051600353651202,1804.3734708399481,0.0,0.0,0.11051600353651202,1684,0.0,97,Assisted_Takeoff,
0.0670565927768345,36.9658178132809,8000,2017-11-03 05:09:16,1804.3734708399481,0.0,0.0,0.107716003446912,1804.3734708399481,0.0,0.0,0.11051600353651202,1684,0.0,97,Assisted_Takeoff,
0.0670566876674875,36.9658177875037,8100,2017-11-03 05:09:16,1804.3734708399481,0.0,0.35999970196000003,0.09733340311466882,1804.3734708399481,0.0,0.35999970196000003,0.11051600353651202,1684,0.0,97,Assisted_Takeoff,
0.0670570111391604,36.9658177406405,8200,2017-11-03 05:09:16,1804.3734708399481,0.0,1.7999985098000002,0.06668790213401281,1804.3734708399481,0.0,1.7999985098000002,0.11051600353651202,1684,0.0,97,GPS_Atti,
0.0670575951692008,36.9658176724086,8300,2017-11-03 05:09:16,1804.3734708399481,0.0,2.51999791372,0.0470602015059264,1804.3734708399481,0.0,2.51999791372,0.11051600353651202,1684,0.0,97,GPS_Atti,
0.0670583521334799,36.9658176122617,8400,2017-11-03 05:09:16,1804.473470843148,0.10000000320000002,2.51999791372,0.11072300354313601,1804.473470843148,0.10000000320000002,2.51999791372,0.11072300354313601,1684,0.0,97,GPS_Atti,
0.0670591466781753,36.9658175572686,8500,2017-11-03 05:09:16,1804.5734708463483,0.20000000640000004,2.5451978928572,0.195441006254112,1804.5734708463483,0.20000000640000004,2.5451978928572,0.195441006254112,1684,0.0,97,GPS_Atti,
0.0670599675531817,36.9658174660601,8600,2017-11-03 05:09:16,1804.673470849548,0.3000000096,2.5451978928572,0.28514800912473603,1804.673470849548,0.3000000096,2.5451978928572,0.28514800912473603,1684,0.0,97,GPS_Atti,
0.0670607398118068,36.9658173295664,8700,2017-11-03 05:09:16,1804.873470855948,0.500000016,2.2751981163872,0.37039501185264007,1804.873470855948,0.500000016,2.5451978928572,0.37039501185264007,1684,0.0,97,GPS_Atti,
0.0670614543624478,36.9658171192824,8800,2017-11-03 05:09:17,1805.0734708623481,0.7000000224000001,1.9403983935644,0.45024501440784004,1805.0734708623481,0.7000000224000001,2.5451978928572,0.45024501440784004,1684,0.0,97,GPS_Atti,
0.0670620854309072,36.9658168886683,8900,2017-11-03 05:09:17,1805.3734708719483,1.000000032,1.9403983935644,0.5219460167022719,1805.3734708719483,1.000000032,2.5451978928572,0.5219460167022719,1684,0.0,97,GPS_Atti,
0.0670627163910751,36.9658166998943,9000,2017-11-03 05:09:17,1805.673470881548,1.3000000416000002,1.8359984799959999,0.593844019003008,1805.673470881548,1.3000000416000002,2.5451978928572,0.593844019003008,1684,0.0,97,GPS_Atti,Home Point Recorded. RTH Altitude:  30m.
0.0670633318118162,36.965816556366896,9100,2017-11-03 05:09:17,1806.073470894348,1.7000000544000002,1.7999985098000002,0.663683021237856,1806.073470894348,1.7000000544000002,2.5451978928572,0.663683021237856,1684,0.0,97,GPS_Atti,
0.0670639369709175,36.9658164423659,9200,2017-11-03 05:09:17,1806.573470910348,2.2000000704,1.4399988078400001,0.732042023425344,1806.573470910348,2.2000000704,2.5451978928572,0.732042023425344,1684,0.0,97,GPS_Atti,
0.0670644692775054,36.9658163366469,9300,2017-11-03 05:09:17,1806.9734709231482,2.6000000832000003,1.4831987720752,0.79227002535264,1806.9734709231482,2.6000000832000003,2.5451978928572,0.79227002535264,1684,0.0,97,GPS_Atti,
0.0670649448938867,36.965816181895704,9400,2017-11-03 05:09:17,1807.473470939148,3.1000000992,1.1375990581936,0.8470510271056322,1807.473470939148,3.1000000992,2.5451978928572,0.8470510271056322,1684,0.0,97,GPS_Atti,
0.0670653392720823,36.965816009238,9500,2017-11-03 05:09:17,1807.973470955148,3.6000001152000003,1.1375990581936,0.893327028586464,1807.973470955148,3.6000001152000003,2.5451978928572,0.893327028586464,1684,0.0,97,GPS_Atti,
0.0670657092203611,36.9658158320262,9600,2017-11-03 05:09:17,1808.573470974348,4.2000001344,1.1375990581936,0.9371760299896322,1808.573470974348,4.2000001344,2.5451978928572,0.9371760299896322,1684,0.0,97,GPS_Atti,
0.0670660558509503,36.965815720003704,9700,2017-11-03 05:09:17,1809.073470990348,4.700000150400001,1.07999910588,0.9773150312740799,1809.073470990348,4.700000150400001,2.5451978928572,0.9773150312740799,1684,0.0,97,GPS_Atti,
0.0670663850978998,36.965815641629206,9800,2017-11-03 05:09:18,1809.6734710095482,5.3000001696,1.07999910588,1.0149000324768,1809.6734710095482,5.3000001696,2.5451978928572,1.0149000324768,1684,0.0,97,GPS_Atti,
0.0670666729107202,36.965815576347794,9900,2017-11-03 05:09:18,1810.173471025548,5.8000001856,1.1375990581936,1.04769003352608,1810.173471025548,5.8000001856,2.5451978928572,1.04769003352608,1684,0.0,97,GPS_Atti,
0.0670669541088012,36.965815511327705,10000,2017-11-03 05:09:18,1810.673471041548,6.300000201600001,1.1375990581936,1.07976003455232,1810.673471041548,6.300000201600001,2.5451978928572,1.07976003455232,1684,0.0,97,GPS_Atti,
0.0670672216507508,36.9658154429524,10100,2017-11-03 05:09:18,1811.173471057548,6.800000217600001,1.2995989240756,1.1104000355328,1811.173471057548,6.800000217600001,2.5451978928572,1.1104000355328,1684,0.0,97,GPS_Atti,
0.0670674810097693,36.9658153475494,10200,2017-11-03 05:09:18,1811.6734710735482,7.3000002336000005,1.1375990581936,1.14072003650304,1811.6734710735482,7.3000002336000005,2.5451978928572,1.14072003650304,1684,0.0,97,GPS_Atti,
0.0670677192690389,36.9658152614283,10300,2017-11-03 05:09:18,1812.173471089548,7.8000002496,1.1375990581936,1.16856003739392,1812.173471089548,7.8000002496,2.5451978928572,1.16856003739392,1684,0.0,97,GPS_Atti,
0.0670679156691556,36.9658151972239,10400,2017-11-03 05:09:18,1812.673471105548,8.3000002656,0.8063993323904,1.19137003812384,1812.673471105548,8.3000002656,2.5451978928572,1.19137003812384,1684,0.0,97,GPS_Atti,
0.067068056000317,36.9658151523498,10500,2017-11-03 05:09:18,1813.1734711215481,8.8000002816,0.8063993323904,1.2076500386448001,1813.1734711215481,8.8000002816,2.5451978928572,1.2076500386448001,1684,0.0,97,GPS_Atti,
0.0670681655245749,36.965815109043,10600,2017-11-03 05:09:18,1813.673471137548,9.3000002976,0.5075995797636,1.2205500390575998,1813.673471137548,9.3000002976,2.5451978928572,1.2205500390575998,1684,0.0,97,GPS_Atti,
0.0670682472952618,36.9658151008082,10700,2017-11-03 05:09:18,1814.1734711535482,9.8000003136,0.5075995797636,1.2296400393484799,1814.1734711535482,9.8000003136,2.5451978928572,1.2296400393484799,1684,0.0,97,GPS_Atti,
0.0670683346482547,36.965815115534895,10800,2017-11-03 05:09:19,1814.773471172748,10.400000332800001,0.7199994039200001,1.2388400396428803,1814.773471172748,10.400000332800001,2.5451978928572,1.2388400396428803,1684,0.0,97,GPS_Atti,
0.0670684390966526,36.9658151327797,10900,2017-11-03 05:09:19,1815.2734711887483,10.9000003488,0.7199994039200001,1.2498700399958398,1815.2734711887483,10.9000003488,2.5451978928572,1.2498700399958398,1684,0.0,97,GPS_Atti,
0.06706856112573199,36.965815163261105,11000,2017-11-03 05:09:19,1815.7734712047481,11.4000003648,0.7199994039200001,1.2625500404016001,1815.7734712047481,11.4000003648,2.5451978928572,1.2625500404016001,1684,0.0,97,GPS_Atti,
0.0670686482784262,36.965815210559,11100,2017-11-03 05:09:19,1816.273471220748,11.900000380800002,0.35999970196000003,1.2711000406752,1816.273471220748,11.900000380800002,2.5451978928572,1.2711000406752,1684,0.0,97,GPS_Atti,
0.0670687156113286,36.9658152725644,11200,2017-11-03 05:09:19,1816.773471236748,12.4000003968,0.35999970196000003,1.27723004087136,1816.773471236748,12.4000003968,2.5451978928572,1.27723004087136,1684,0.0,97,GPS_Atti,
0.0670687608429891,36.965815347752795,11300,2017-11-03 05:09:19,1817.273471252748,12.900000412799999,0.35999970196000003,1.280750040984,1817.273471252748,12.900000412799999,2.5451978928572,1.280750040984,1684,0.0,97,GPS_Atti,
0.0670688194197481,36.9658153899483,11400,2017-11-03 05:09:19,1817.7734712687482,13.4000004288,0.35999970196000003,1.2863900411644802,1817.7734712687482,13.4000004288,2.5451978928572,1.2863900411644802,1684,0.0,97,GPS_Atti,
0.0670688698249751,36.965815424594204,11500,2017-11-03 05:09:19,1818.273471284748,13.9000004448,0.35999970196000003,1.29129004132128,1818.273471284748,13.9000004448,2.5451978928572,1.29129004132128,1684,0.0,97,GPS_Atti,
0.0670689288576985,36.9658154924299,11600,2017-11-03 05:09:19,1818.7734713007483,14.400000460800001,0.35999970196000003,1.29659004149088,1818.7734713007483,14.400000460800001,2.5451978928572,1.29659004149088,1684,0.0,97,GPS_Atti,
0.0670689830995396,36.9658155872741,11700,2017-11-03 05:09:19,1819.373471319948,15.00000048,0.35999970196000003,1.3009700416310401,1819.373471319948,15.00000048,2.5451978928572,1.3009700416310401,1684,0.0,97,GPS_Atti,
0.0670690427201312,36.965815706677205,11800,2017-11-03 05:09:19,1819.8734713359481,15.500000496,0.35999970196000003,1.30567004178144,1819.8734713359481,15.500000496,2.5451978928572,1.30567004178144,1684,0.0,97,GPS_Atti,
0.0670690980872271,36.96581584772721,11900,2017-11-03 05:09:20,1820.3734713519482,16.000000512,0.35999970196000003,1.309750041912,1820.3734713519482,16.000000512,2.5451978928572,1.309750041912,1684,0.0,97,GPS_Atti,
0.06706918607857,36.9658160109788,12000,2017-11-03 05:09:20,1820.873471367948,16.500000528,0.5075995797636,1.3173800421561601,1820.873471367948,16.500000528,2.5451978928572,1.3173800421561601,1684,0.0,97,GPS_Atti,
0.067069268513662,36.965816162255,12100,2017-11-03 05:09:20,1821.4734713871483,17.1000005472,0.0,1.3247900423932801,1821.4734713871483,17.1000005472,2.5451978928572,1.3247900423932801,1684,0.0,97,GPS_Atti,
0.0670693653100016,36.965816283837704,12200,2017-11-03 05:09:20,1821.973471403148,17.6000005632,0.0,1.3343000426976,1821.973471403148,17.6000005632,2.5451978928572,1.3343000426976,1684,0.0,97,GPS_Atti,
0.0670694514270055,36.9658164064825,12300,2017-11-03 05:09:20,1822.473471419148,18.100000579200003,0.0,1.3427700429686402,1822.473471419148,18.100000579200003,2.5451978928572,1.3427700429686402,1684,0.0,97,GPS_Atti,
0.0670695378420147,36.965816553786794,12400,2017-11-03 05:09:20,1822.9734714351482,18.6000005952,0.0,1.3512600432403201,1822.9734714351482,18.6000005952,2.5451978928572,1.3512600432403201,1684,0.0,97,GPS_Atti,
0.0670695715947734,36.9658167067031,12500,2017-11-03 05:09:20,1823.473471451148,19.1000006112,0.0,1.3540900433308802,1823.473471451148,19.1000006112,2.5451978928572,1.3540900433308802,1684,0.0,97,GPS_Atti,
0.0670696002439886,36.965816872751,12600,2017-11-03 05:09:20,1823.973471467148,19.6000006272,0.35999970196000003,1.35651004340832,1823.973471467148,19.6000006272,2.5451978928572,1.35651004340832,1684,0.0,97,GPS_Atti,
0.0670696187496262,36.9658170298489,12700,2017-11-03 05:09:20,1824.4734714831482,20.1000006432,0.0,1.3580800434585603,1824.4734714831482,20.1000006432,2.5451978928572,1.3580800434585603,1684,0.0,97,GPS_Atti,
0.0670696624798613,36.9658171752969,12800,2017-11-03 05:09:21,1825.073471502348,20.7000006624,0.0,1.36269004360608,1825.073471502348,20.7000006624,2.5451978928572,1.36269004360608,1684,0.0,97,GPS_Atti,
0.0670697005317122,36.965817294025506,12900,2017-11-03 05:09:21,1825.573471518348,21.2000006784,0.0,1.3668600437395202,1825.573471518348,21.2000006784,2.5451978928572,1.3668600437395202,1684,0.0,97,GPS_Atti,
0.0670697309673305,36.9658173990915,13000,2017-11-03 05:09:21,1826.073471534348,21.700000694400003,0.0,1.3702900438492802,1826.073471534348,21.700000694400003,2.5451978928572,1.3702900438492802,1684,0.0,97,GPS_Atti,
0.0670697228772207,36.965817470340205,13100,2017-11-03 05:09:21,1826.5734715503481,22.2000007104,0.0,1.3694900438236803,1826.5734715503481,22.2000007104,2.5451978928572,1.3702900438492802,1684,0.0,97,GPS_Atti,
0.067069738454916,36.9658175304614,13200,2017-11-03 05:09:21,1827.073471566348,22.700000726400003,0.0,1.3713300438825602,1827.073471566348,22.700000726400003,2.5451978928572,1.3713300438825602,1684,0.0,97,GPS_Atti,
0.0670697704766387,36.965817580983895,13300,2017-11-03 05:09:21,1827.5734715823482,23.2000007424,0.0,1.3750100440003201,1827.5734715823482,23.2000007424,2.5451978928572,1.3750100440003201,1684,0.0,97,GPS_Atti,
0.0670698106014988,36.9658176258109,13400,2017-11-03 05:09:21,1828.073471598348,23.700000758399998,0.0,1.3796000441472,1828.073471598348,23.700000758399998,2.5451978928572,1.3796000441472,1684,0.0,97,GPS_Atti,
0.0670698229304483,36.9658176747489,13500,2017-11-03 05:09:21,1828.5734716143481,24.2000007744,0.0,1.3811300441961603,1828.5734716143481,24.2000007744,2.5451978928572,1.3811300441961603,1684,0.0,97,GPS_Atti,
0.067069821414367,36.9658177155998,13600,2017-11-03 05:09:21,1829.1734716335482,24.8000007936,0.0,1.3811000441952,1829.1734716335482,24.8000007936,2.5451978928572,1.3811300441961603,1684,0.0,97,GPS_Atti,
0.0670698085545447,36.965817756714,13700,2017-11-03 05:09:21,1829.673471649548,25.3000008096,0.0,1.3798400441548802,1829.673471649548,25.3000008096,2.5451978928572,1.3811300441961603,1684,0.0,97,GPS_Atti,
0.0670697626601076,36.9658177909017,13800,2017-11-03 05:09:22,1830.173471665548,25.800000825599998,0.0,1.37489004399648,1830.173471665548,25.800000825599998,2.5451978928572,1.3811300441961603,1684,0.0,97,GPS_Atti,
0.0670696967814057,36.9658178103304,13900,2017-11-03 05:09:22,1830.673471681548,26.300000841600003,0.0,1.36766004376512,1830.673471681548,26.300000841600003,2.5451978928572,1.3811300441961603,1684,0.0,97,GPS_Atti,
0.0670696441875499,36.9658178161372,14000,2017-11-03 05:09:22,1831.1734716975482,26.8000008576,0.0,1.3618400435788802,1831.1734716975482,26.8000008576,2.5451978928572,1.3811300441961603,1684,0.0,97,GPS_Atti,
0.0670696146166354,36.9658177888805,14100,2017-11-03 05:09:22,1831.673471713548,27.3000008736,0.0,1.35843004346976,1831.673471713548,27.3000008736,2.5451978928572,1.3811300441961603,1684,0.0,97,GPS_Atti,
0.0670696297904765,36.965817764784,14200,2017-11-03 05:09:22,1832.273471732748,27.9000008928,0.0,1.3600100435203202,1832.273471732748,27.9000008928,2.5451978928572,1.3811300441961603,1684,0.0,97,GPS_Atti,
0.0670696935163754,36.9658177342941,14300,2017-11-03 05:09:22,1832.773471748748,28.400000908800006,0.0,1.36696004374272,1832.773471748748,28.400000908800006,2.5451978928572,1.3811300441961603,1684,0.0,97,GPS_Atti,
0.0670697918581084,36.9658176730831,14400,2017-11-03 05:09:22,1833.2734717647481,28.9000009248,0.35999970196000003,1.37767004408544,1833.2734717647481,28.9000009248,2.5451978928572,1.3811300441961603,1684,0.0,97,GPS_Atti,
0.0670699040904687,36.9658175896769,14500,2017-11-03 05:09:22,1833.8734717839482,29.500000944,0.35999970196000003,1.38989004447648,1833.8734717839482,29.500000944,2.5451978928572,1.38989004447648,1684,0.0,97,GPS_Atti,
0.0670700148783991,36.9658175182569,14600,2017-11-03 05:09:22,1834.373471799948,30.00000096,0.0,1.40204004486528,1834.373471799948,30.00000096,2.5451978928572,1.40204004486528,1684,0.0,97,GPS_Atti,
0.0670700919070571,36.965817433199895,14700,2017-11-03 05:09:22,1834.8734718159483,30.500000976,0.0,1.4104700451350403,1834.8734718159483,30.500000976,2.5451978928572,1.4104700451350403,1684,0.0,97,GPS_Atti,
0.0670701704485395,36.9658173723272,14800,2017-11-03 05:09:23,1835.473471835148,31.100000995200002,0.0,1.41914004541248,1835.473471835148,31.100000995200002,2.5451978928572,1.41914004541248,1684,0.0,97,GPS_Atti,
0.067070227424538,36.9658173512455,14900,2017-11-03 05:09:23,1835.9734718511481,31.6000010112,0.0,1.42547004561504,1835.9734718511481,31.6000010112,2.5451978928572,1.42547004561504,1684,0.0,97,GPS_Atti,
0.0670702892549282,36.965817369134705,15000,2017-11-03 05:09:23,1836.4734718671482,32.1000010272,0.0,1.4323500458352,1836.4734718671482,32.1000010272,2.5451978928572,1.4323500458352,1684,0.0,97,GPS_Atti,
0.0670703542282152,36.9658173758215,15100,2017-11-03 05:09:23,1836.973471883148,32.6000010432,0.0,1.43958004606656,1836.973471883148,32.6000010432,2.5451978928572,1.43958004606656,1684,0.0,97,GPS_Atti,
0.0670704162035368,36.9658173445587,15200,2017-11-03 05:09:23,1837.5734719023483,33.2000010624,0.0,1.44646004628672,1837.5734719023483,33.2000010624,2.5451978928572,1.44646004628672,1684,0.0,97,GPS_Atti,
0.0670704360884665,36.965817266818,15300,2017-11-03 05:09:23,1838.073471918348,33.70000107840001,0.0,1.44866004635712,1838.073471918348,33.70000107840001,2.5451978928572,1.44866004635712,1684,0.0,97,GPS_Atti,
0.0670704618520789,36.9658171906575,15400,2017-11-03 05:09:23,1838.573471934348,34.2000010944,0.0,1.4515700464502401,1838.573471934348,34.2000010944,2.5451978928572,1.4515700464502401,1684,0.0,97,GPS_Atti,
0.0670704680255101,36.965817104208796,15500,2017-11-03 05:09:23,1839.0734719503482,34.7000011104,0.0,1.4523600464755202,1839.0734719503482,34.7000011104,2.5451978928572,1.4523600464755202,1684,0.0,97,GPS_Atti,
0.0670704594696654,36.9658170290439,15600,2017-11-03 05:09:23,1839.673471969548,35.300001129600005,0.0,1.4515500464496,1839.673471969548,35.300001129600005,2.5451978928572,1.4523600464755202,1684,0.0,97,GPS_Atti,
0.0670704500670297,36.965816951106206,15700,2017-11-03 05:09:23,1840.1734719855483,35.8000011456,0.35999970196000003,1.4507100464227198,1840.1734719855483,35.8000011456,2.5451978928572,1.4523600464755202,1684,0.0,97,GPS_Atti,
0.0670704651040816,36.9658168749007,15800,2017-11-03 05:09:24,1840.6734720015481,36.3000011616,0.35999970196000003,1.4526300464841602,1840.6734720015481,36.3000011616,2.5451978928572,1.4526300464841602,1684,0.0,97,GPS_Atti,
0.0670704902847111,36.965816769749104,15900,2017-11-03 05:09:24,1841.273472020748,36.900001180800004,0.35999970196000003,1.4558400465868802,1841.273472020748,36.900001180800004,2.5451978928572,1.4558400465868802,1684,0.0,97,GPS_Atti,
0.0670705469545622,36.965816675952,16000,2017-11-03 05:09:24,1841.7734720367482,37.4000011968,0.35999970196000003,1.46259004680288,1841.7734720367482,37.4000011968,2.5451978928572,1.46259004680288,1684,0.0,97,GPS_Atti,
0.0670705922334476,36.965816590199104,16100,2017-11-03 05:09:24,1842.273472052748,37.90000121280001,0.35999970196000003,1.4681000469791998,1842.273472052748,37.90000121280001,2.5451978928572,1.4681000469791998,1684,0.0,97,GPS_Atti,
0.0670706136442292,36.9658165484275,16200,2017-11-03 05:09:24,1842.8734720719483,38.500001232,0.0,1.47073004706336,1842.8734720719483,38.500001232,2.5451978928572,1.47073004706336,1684,0.0,97,GPS_Atti,
0.0670706348091159,36.9658165258278,16300,2017-11-03 05:09:24,1843.3734720879481,39.000001248000004,0.0,1.4732200471430401,1843.3734720879481,39.000001248000004,2.5451978928572,1.4732200471430401,1684,0.0,97,GPS_Atti,
0.0670706651502844,36.965816553217294,16400,2017-11-03 05:09:24,1843.873472103948,39.500001264000005,0.0,1.47642004724544,1843.873472103948,39.500001264000005,2.5451978928572,1.47642004724544,1684,0.0,97,GPS_Atti,
0.0670706669676279,36.965816606711606,16500,2017-11-03 05:09:24,1844.4734721231482,40.10000128320001,0.0,1.4763000472416001,1844.4734721231482,40.10000128320001,2.5451978928572,1.47642004724544,1684,0.0,97,GPS_Atti,
0.0670706925521116,36.9658167108227,16600,2017-11-03 05:09:24,1844.973472139148,40.6000012992,0.0,1.47859004731488,1844.973472139148,40.6000012992,2.5451978928572,1.47859004731488,1684,0.0,97,GPS_Atti,
0.0670707072716168,36.9658168054891,16700,2017-11-03 05:09:24,1845.4734721551479,41.100001315200004,0.0,1.4798000473536,1845.4734721551479,41.100001315200004,2.5451978928572,1.4798000473536,1684,0.0,97,GPS_Atti,
0.0670707134857591,36.9658169563713,16800,2017-11-03 05:09:25,1845.9734721711482,41.600001331200005,0.0,1.47998004735936,1845.9734721711482,41.600001331200005,2.5451978928572,1.47998004735936,1684,0.0,97,GPS_Atti,
0.0670706836103256,36.9658171045021,16900,2017-11-03 05:09:25,1846.573472190348,42.2000013504,0.0,1.47633004724256,1846.573472190348,42.2000013504,2.5451978928572,1.47998004735936,1684,0.0,97,GPS_Atti,
0.0670706414466536,36.9658172831571,17000,2017-11-03 05:09:25,1847.0734722063482,42.7000013664,0.0,1.4714900470876802,1847.0734722063482,42.7000013664,2.5451978928572,1.47998004735936,1684,0.0,97,GPS_Atti,
0.0670706002730756,36.965817432746,17100,2017-11-03 05:09:25,1847.573472222348,43.200001382399996,0.0,1.4670000469439999,1847.573472222348,43.200001382399996,2.5451978928572,1.47998004735936,1684,0.0,97,GPS_Atti,
0.0670705783216505,36.9658175929015,17200,2017-11-03 05:09:25,1848.0734722383481,43.700001398400005,0.0,1.46486004687552,1848.0734722383481,43.700001398400005,2.5451978928572,1.47998004735936,1684,0.0,97,GPS_Atti,
0.0670705674615575,36.965817705399395,17300,2017-11-03 05:09:25,1848.573472254348,44.2000014144,0.0,1.46399004684768,1848.573472254348,44.2000014144,2.5451978928572,1.47998004735936,1684,0.0,97,GPS_Atti,
0.0670705649244417,36.9658178008088,17400,2017-11-03 05:09:25,1849.173472273548,44.80000143360001,0.0,1.4640800468505601,1849.173472273548,44.80000143360001,2.5451978928572,1.47998004735936,1684,0.0,97,GPS_Atti,
0.067070546641901,36.96581785714871,17500,2017-11-03 05:09:25,1849.673472289548,45.3000014496,0.0,1.4623000467936,1849.673472289548,45.3000014496,2.5451978928572,1.47998004735936,1684,0.0,97,GPS_Atti,
0.0670705126855868,36.9658179347288,17600,2017-11-03 05:09:25,1850.173472305548,45.800001465600005,0.0,1.4589300466857602,1850.173472305548,45.800001465600005,2.5451978928572,1.47998004735936,1684,0.0,97,GPS_Atti,
0.0670704338591266,36.9658180081058,17700,2017-11-03 05:09:25,1850.6734723215482,46.3000014816,0.35999970196000003,1.4506000464192,1850.6734723215482,46.3000014816,2.5451978928572,1.47998004735936,1684,0.0,97,GPS_Atti,
0.0670703341869549,36.9658181056564,17800,2017-11-03 05:09:26,1851.173472337548,46.80000149760001,0.35999970196000003,1.4401700460854399,1851.173472337548,46.80000149760001,2.5451978928572,1.47998004735936,1684,0.0,97,GPS_Atti,
0.06707021796165,36.9658181943576,17900,2017-11-03 05:09:26,1851.6734723535483,47.30000151360001,0.35999970196000003,1.42793004569376,1851.6734723535483,47.30000151360001,2.5451978928572,1.47998004735936,1684,0.0,97,GPS_Atti,
0.0670700821885033,36.9658182746891,18000,2017-11-03 05:09:26,1852.173472369548,47.8000015296,0.35999970196000003,1.41353004523296,1852.173472369548,47.8000015296,2.5451978928572,1.47998004735936,1684,0.0,97,GPS_Atti,
0.0670699173915992,36.9658183044403,18100,2017-11-03 05:09:26,1852.673472385548,48.300001545600004,0.35999970196000003,1.3955200446566403,1852.673472385548,48.300001545600004,2.5451978928572,1.47998004735936,1684,0.0,97,GPS_Atti,
0.0670697291678999,36.9658183376987,18200,2017-11-03 05:09:26,1853.1734724015482,48.8000015616,0.35999970196000003,1.3749700439990402,1853.1734724015482,48.8000015616,2.5451978928572,1.47998004735936,1684,0.0,97,GPS_Atti,
0.0670693342832582,36.9658183939701,18400,2017-11-03 05:09:26,1854.273472436748,49.900001596799996,0.35999970196000003,1.33178004261696,1854.273472436748,49.900001596799996,2.5451978928572,1.47998004735936,1684,0.0,97,GPS_Atti,
0.0670691276825683,36.96581840351529,18500,2017-11-03 05:09:26,1854.7734724527481,50.40000161280001,0.35999970196000003,1.3090000418880001,1854.7734724527481,50.40000161280001,2.5451978928572,1.47998004735936,1684,0.0,97,GPS_Atti,
0.0670689166231987,36.9658184013099,18600,2017-11-03 05:09:26,1855.2734724687482,50.9000016288,0.5075995797636,1.2856100411395202,1855.2734724687482,50.9000016288,2.5451978928572,1.47998004735936,1684,0.0,97,GPS_Atti,
0.0670687333157718,36.9658183591679,18700,2017-11-03 05:09:26,1855.773472484748,51.4000016448,0.5075995797636,1.2648800404761602,1855.773472484748,51.4000016448,2.5451978928572,1.47998004735936,1684,0.0,97,GPS_Atti,
0.0670685636921597,36.9658183246099,18800,2017-11-03 05:09:27,1856.2734725007483,51.90000166080001,0.5075995797636,1.24574003986368,1856.2734725007483,51.90000166080001,2.5451978928572,1.47998004735936,1684,0.0,97,GPS_Atti,
0.0670684293504153,36.9658182965223,18900,2017-11-03 05:09:27,1856.7734725167481,52.400001676799995,0.35999970196000003,1.23057003937824,1856.7734725167481,52.400001676799995,2.5451978928572,1.47998004735936,1684,0.0,97,GPS_Atti,
0.0670682949793589,36.965818302699496,19000,2017-11-03 05:09:27,1857.273472532748,52.90000169280001,0.35999970196000003,1.21576003890432,1857.273472532748,52.90000169280001,2.5451978928572,1.47998004735936,1684,0.0,97,GPS_Atti,
0.0670681702519478,36.965818300472705,19100,2017-11-03 05:09:27,1857.8734725519482,53.500001712,0.0,1.20192003846144,1857.8734725519482,53.500001712,2.5451978928572,1.47998004735936,1684,0.0,97,GPS_Atti,
0.0670680340277222,36.9658183297379,19200,2017-11-03 05:09:27,1858.373472567948,54.00000172800001,0.0,1.1871500379888003,1858.373472567948,54.00000172800001,2.5451978928572,1.47998004735936,1684,0.0,97,GPS_Atti,
0.0670678921918785,36.9658183579775,19300,2017-11-03 05:09:27,1858.873472583948,54.500001744,0.35999970196000003,1.1717700374966402,1858.873472583948,54.500001744,2.5451978928572,1.47998004735936,1684,0.0,97,GPS_Atti,
0.0670677238091408,36.9658183795431,19400,2017-11-03 05:09:27,1859.3734725999482,55.00000176,0.5075995797636,1.1533900369084802,1859.3734725999482,55.00000176,2.5451978928572,1.47998004735936,1684,0.0,97,GPS_Atti,
0.067067587907347,36.965818357288,19500,2017-11-03 05:09:27,1859.873472615948,55.500001776,0.35999970196000003,1.1381000364192,1859.873472615948,55.500001776,2.5451978928572,1.47998004735936,1684,0.0,97,GPS_Atti,
0.067067460488118,36.965818364829104,19600,2017-11-03 05:09:27,1860.4734726351483,56.10000179520001,0.35999970196000003,1.1241000359712,1860.4734726351483,56.10000179520001,2.5451978928572,1.47998004735936,1684,0.0,97,GPS_Atti,
0.067067372353472,36.9658183690408,19700,2017-11-03 05:09:27,1860.973472651148,56.600001811199995,0.0,1.1144000356608001,1860.973472651148,56.600001811199995,2.5451978928572,1.47998004735936,1684,0.0,97,GPS_Atti,
0.0670672816947378,36.9658184202548,19800,2017-11-03 05:09:28,1861.4734726671481,57.100001827199996,0.0,1.10501003536032,1861.4734726671481,57.100001827199996,2.5451978928572,1.47998004735936,1684,0.0,97,GPS_Atti,
0.0670672287198262,36.965818467906,19900,2017-11-03 05:09:28,1862.0734726863482,57.7000018464,0.0,1.09978003519296,1862.0734726863482,57.7000018464,2.5451978928572,1.47998004735936,1684,0.0,97,GPS_Atti,
0.0670671825273838,36.9658185508389,20000,2017-11-03 05:09:28,1862.573472702348,58.2000018624,0.0,1.0958200350662402,1862.573472702348,58.2000018624,2.5451978928572,1.47998004735936,1684,0.0,97,GPS_Atti,
0.0670671762790441,36.9658186444262,20100,2017-11-03 05:09:28,1863.073472718348,58.7000018784,0.0,1.09651003508832,1863.073472718348,58.7000018784,2.5451978928572,1.47998004735936,1684,0.0,97,GPS_Atti,
0.0670671915701333,36.965818750507104,20200,2017-11-03 05:09:28,1863.5734727343481,59.2000018944,0.0,1.0998700351958401,1863.5734727343481,59.2000018944,2.5451978928572,1.47998004735936,1684,0.0,97,GPS_Atti,
0.0670671578450581,36.9658189143668,20300,2017-11-03 05:09:28,1864.0734727503482,59.700001910400005,0.0,1.099000035168,1864.0734727503482,59.700001910400005,2.5451978928572,1.47998004735936,1684,0.0,97,GPS_Atti,
0.0670671459606738,36.965819058906895,20400,2017-11-03 05:09:28,1864.573472766348,60.2000019264,0.0,1.1004500352144,1864.573472766348,60.2000019264,2.5451978928572,1.47998004735936,1684,0.0,97,GPS_Atti,
0.0670670671211861,36.9658192206168,20500,2017-11-03 05:09:28,1865.0734727823483,60.7000019424,0.0,1.09521003504672,1865.0734727823483,60.7000019424,2.5451978928572,1.47998004735936,1684,0.0,97,GPS_Atti,
0.0670670342852414,36.9658193419105,20600,2017-11-03 05:09:28,1865.5734727983481,61.2000019584,0.0,1.0943600350195202,1865.5734727983481,61.2000019584,2.5451978928572,1.47998004735936,1684,0.0,97,GPS_Atti,
0.0670669763794013,36.9658194358426,20700,2017-11-03 05:09:28,1866.173472817548,61.80000197760001,0.0,1.0903000348896,1866.173472817548,61.80000197760001,2.5451978928572,1.47998004735936,1684,0.0,97,GPS_Atti,
0.0670668797866172,36.9658195101831,20800,2017-11-03 05:09:28,1866.6734728335482,62.300001993600006,0.0,1.08167003461344,1866.6734728335482,62.300001993600006,2.5451978928572,1.47998004735936,1684,0.0,97,GPS_Atti,
0.0670667874163883,36.9658195677413,20900,2017-11-03 05:09:29,1867.173472849548,62.80000200960001,0.0,1.07316003434112,1867.173472849548,62.80000200960001,2.5451978928572,1.47998004735936,1684,0.0,97,GPS_Atti,
0.0670666747736602,36.9658196333075,21000,2017-11-03 05:09:29,1867.673472865548,63.3000020256,0.0,1.06276003400832,1867.673472865548,63.3000020256,2.5451978928572,1.47998004735936,1684,0.0,96,GPS_Atti,
0.0670665937878833,36.9658196979401,21100,2017-11-03 05:09:29,1868.2734728847481,63.900002044800004,0.0,1.0558300337865603,1868.2734728847481,63.900002044800004,2.5451978928572,1.47998004735936,1684,0.0,96,GPS_Atti,
0.0670665193745064,36.9658197631572,21200,2017-11-03 05:09:29,1868.773472900748,64.4000020608,0.0,1.0497000335904,1868.773472900748,64.4000020608,2.5451978928572,1.47998004735936,1684,0.0,96,GPS_Atti,
0.0670664292694432,36.9658198219616,21300,2017-11-03 05:09:29,1869.2734729167482,64.9000020768,0.0,1.04178003333696,1869.2734729167482,64.9000020768,2.5451978928572,1.47998004735936,1684,0.0,96,GPS_Atti,
0.0670663574729758,36.965819865962104,21400,2017-11-03 05:09:29,1869.773472932748,65.40000209280001,0.0,1.03543003313376,1869.773472932748,65.40000209280001,2.5451978928572,1.47998004735936,1684,0.0,96,GPS_Atti,
0.0670663266286181,36.965819882952104,21500,2017-11-03 05:09:29,1870.373472951948,66.000002112,0.0,1.03266003304512,1870.373472951948,66.000002112,2.5451978928572,1.47998004735936,1684,0.0,96,GPS_Atti,
0.0670662838575365,36.965819894831206,21600,2017-11-03 05:09:29,1870.8734729679481,66.500002128,0.0,1.02847003291104,1870.8734729679481,66.500002128,2.5451978928572,1.47998004735936,1684,0.0,96,GPS_Atti,
0.0670662644871952,36.965819890272705,21700,2017-11-03 05:09:29,1871.373472983948,67.00000214399999,0.0,1.02626003284032,1871.373472983948,67.00000214399999,2.5451978928572,1.47998004735936,1684,0.0,96,GPS_Atti,
0.0670662716425781,36.9658198937499,21800,2017-11-03 05:09:30,1871.873472999948,67.50000216000001,0.0,1.02713003286816,1871.873472999948,67.50000216000001,2.5451978928572,1.47998004735936,1684,0.0,96,GPS_Atti,
0.067066280499685,36.9658198788176,21900,2017-11-03 05:09:30,1872.373473015948,68.00000217600001,0.0,1.02761003288352,1872.373473015948,68.00000217600001,2.5451978928572,1.47998004735936,1684,0.0,96,GPS_Atti,
0.0670663117918648,36.965819868679205,22000,2017-11-03 05:09:30,1872.9734730351481,68.6000021952,0.0,1.0306400329804801,1872.9734730351481,68.6000021952,2.5451978928572,1.47998004735936,1684,0.0,96,GPS_Atti,
0.0670663124660406,36.9658198636326,22100,2017-11-03 05:09:30,1873.4734730511482,69.1000022112,0.0,1.0305500329776,1873.4734730511482,69.1000022112,2.5451978928572,1.47998004735936,1684,0.0,96,GPS_Atti,
0.0670663110916339,36.9658198625706,22200,2017-11-03 05:09:30,1873.9734730671482,69.60000222720001,0.0,1.03037003297184,1873.9734730671482,69.60000222720001,2.5451978928572,1.47998004735936,1684,0.0,96,GPS_Atti,
0.067066331385303,36.965819863502,22300,2017-11-03 05:09:30,1874.473473083148,70.1000022432,0.0,1.03257003304224,1874.473473083148,70.1000022432,2.5451978928572,1.47998004735936,1684,0.0,96,GPS_Atti,
0.0670663666118035,36.965819836337296,22400,2017-11-03 05:09:30,1874.973473099148,70.60000225920001,0.35999970196000003,1.03551003313632,1874.973473099148,70.60000225920001,2.5451978928572,1.47998004735936,1684,0.0,96,GPS_Atti,
0.0670663760698063,36.9658197903112,22500,2017-11-03 05:09:30,1875.4734731151482,71.10000227520001,0.5075995797636,1.03513003312416,1875.4734731151482,71.10000227520001,2.5451978928572,1.47998004735936,1684,0.0,96,GPS_Atti,
0.0670664046848242,36.9658196918164,22600,2017-11-03 05:09:30,1875.973473131148,71.6000022912,0.35999970196000003,1.0353200331302401,1875.973473131148,71.6000022912,2.5451978928572,1.47998004735936,1684,0.0,96,GPS_Atti,
0.0670663792713272,36.9658195990149,22700,2017-11-03 05:09:30,1876.473473147148,72.1000023072,0.35999970196000003,1.0299700329590402,1876.473473147148,72.1000023072,2.5451978928572,1.47998004735936,1684,0.0,96,GPS_Atti,
0.067066378911441,36.965819487716104,22800,2017-11-03 05:09:31,1877.073473166348,72.70000232640001,0.35999970196000003,1.02692003286144,1877.073473166348,72.70000232640001,2.5451978928572,1.47998004735936,1684,0.0,96,GPS_Atti,
0.0670663505927999,36.965819375477295,22900,2017-11-03 05:09:31,1877.573473182348,73.2000023424,0.5075995797636,1.02096003267072,1877.573473182348,73.2000023424,2.5451978928572,1.47998004735936,1684,0.0,96,GPS_Atti,
0.0670663861612737,36.965819268383605,23000,2017-11-03 05:09:31,1878.0734731983482,73.7000023584,0.5075995797636,1.02218003270976,1878.0734731983482,73.7000023584,2.5451978928572,1.47998004735936,1684,0.0,96,GPS_Atti,
0.0670664100016938,36.965819169130896,23100,2017-11-03 05:09:31,1878.673473217548,74.30000237760001,0.5075995797636,1.0224600327187199,1878.673473217548,74.30000237760001,2.5451978928572,1.47998004735936,1684,0.0,96,GPS_Atti,
0.067066479813088,36.9658190980363,23200,2017-11-03 05:09:31,1879.173473233548,74.8000023936,0.35999970196000003,1.0284900329116802,1879.173473233548,74.8000023936,2.5451978928572,1.47998004735936,1684,0.0,96,GPS_Atti,
0.0670665563825247,36.965819028513295,23300,2017-11-03 05:09:31,1879.6734732495481,75.30000240960001,0.35999970196000003,1.03537003313184,1879.6734732495481,75.30000240960001,2.5451978928572,1.47998004735936,1684,0.0,96,GPS_Atti,
0.0670666296722752,36.965818960846704,23400,2017-11-03 05:09:31,1880.1734732655482,75.80000242560001,0.35999970196000003,1.04202003334464,1880.1734732655482,75.80000242560001,2.5451978928572,1.47998004735936,1684,0.0,96,GPS_Atti,
0.0670667017586056,36.9658188824209,23500,2017-11-03 05:09:31,1880.7734732847482,76.4000024448,0.5075995797636,1.0484000335488002,1880.7734732847482,76.4000024448,2.5451978928572,1.47998004735936,1684,0.0,96,GPS_Atti,
0.06706674404115401,36.9658187704133,23600,2017-11-03 05:09:31,1881.273473300748,76.9000024608,0.35999970196000003,1.0510100336323198,1881.273473300748,76.9000024608,2.5451978928572,1.47998004735936,1684,0.0,96,GPS_Atti,
0.0670667063833866,36.965818547154,23700,2017-11-03 05:09:31,1881.773473316748,77.40000247680001,0.35999970196000003,1.04327003338464,1881.773473316748,77.40000247680001,2.5451978928572,1.47998004735936,1684,0.0,96,GPS_Atti,
0.0670666804031911,36.965818355174704,23800,2017-11-03 05:09:31,1882.2734733327482,77.9000024928,0.35999970196000003,1.0377600332083199,1882.2734733327482,77.9000024928,2.5451978928572,1.47998004735936,1684,0.0,96,GPS_Atti,
0.0670666767880454,36.9658181448029,23900,2017-11-03 05:09:32,1882.7734733487482,78.4000025088,0.35999970196000003,1.0349500331184,1882.7734733487482,78.4000025088,2.5451978928572,1.47998004735936,1684,0.0,96,GPS_Atti,
0.0670667093292418,36.9658178849386,24000,2017-11-03 05:09:32,1883.373473367948,79.00000252800001,0.8063993323904,1.03632003316224,1883.373473367948,79.00000252800001,2.5451978928572,1.47998004735936,1684,0.0,96,GPS_Atti,
0.067066766897994,36.9658175851741,24100,2017-11-03 05:09:32,1883.8734733839483,79.500002544,0.7199994039200001,1.0411300333161602,1883.8734733839483,79.500002544,2.5451978928572,1.47998004735936,1684,0.0,96,GPS_Atti,
0.0670667918294716,36.9658172153748,24200,2017-11-03 05:09:32,1884.3734733999481,80.00000256,1.07999910588,1.0434300333897601,1884.3734733999481,80.00000256,2.5451978928572,1.47998004735936,1684,0.0,96,GPS_Atti,
0.0670667757388164,36.9658168739094,24300,2017-11-03 05:09:32,1884.9734734191481,80.6000025792,0.7199994039200001,1.04264003336448,1884.9734734191481,80.6000025792,2.5451978928572,1.47998004735936,1684,0.0,96,GPS_Atti,
0.0670667507470864,36.965816569096,24400,2017-11-03 05:09:32,1885.4734734351482,81.10000259520002,0.7199994039200001,1.04193003334176,1885.4734734351482,81.10000259520002,2.5451978928572,1.47998004735936,1684,0.0,96,GPS_Atti,
0.067066735784943,36.9658162362294,24500,2017-11-03 05:09:32,1885.973473451148,81.6000026112,0.35999970196000003,1.0437900334012802,1885.973473451148,81.6000026112,2.5451978928572,1.47998004735936,1684,0.0,96,GPS_Atti,
0.0670667115813798,36.9658159487379,24600,2017-11-03 05:09:32,1886.4734734671479,82.10000262720001,0.35999970196000003,1.0452000334464,1886.4734734671479,82.10000262720001,2.5451978928572,1.47998004735936,1684,0.0,96,GPS_Atti,
0.0670666835819138,36.9658157096748,24700,2017-11-03 05:09:32,1886.9734734831482,82.60000264320001,0.35999970196000003,1.04626003348032,1886.9734734831482,82.60000264320001,2.5451978928572,1.47998004735936,1684,0.0,96,GPS_Atti,
0.0670666239776066,36.9658154230783,24800,2017-11-03 05:09:33,1887.473473499148,83.10000265920002,0.35999970196000003,1.0456000334592,1887.473473499148,83.10000265920002,2.5451978928572,1.47998004735936,1684,0.0,96,GPS_Atti,
0.0670665504370757,36.9658151513584,24900,2017-11-03 05:09:33,1887.973473515148,83.60000267520002,0.35999970196000003,1.0440600334099202,1887.973473515148,83.60000267520002,2.5451978928572,1.47998004735936,1684,0.0,96,GPS_Atti,
0.0670664597050615,36.9658148629719,25000,2017-11-03 05:09:33,1888.473473531148,84.10000269119999,0.35999970196000003,1.04208003334656,1888.473473531148,84.10000269119999,2.5451978928572,1.47998004735936,1684,0.0,96,GPS_Atti,
0.0670664168623284,36.965814626242704,25100,2017-11-03 05:09:33,1888.9734735471482,84.60000270720002,0.35999970196000003,1.0446500334288003,1888.9734735471482,84.60000270720002,2.5451978928572,1.47998004735936,1607,0.0,96,GPS_Atti,
0.0670663594417646,36.9658143756174,25200,2017-11-03 05:09:33,1889.473473563148,85.1000027232,0.0,1.04682003349824,1889.473473563148,85.1000027232,2.5451978928572,1.47998004735936,1343,0.0,96,GPS_Atti,
0.0670662895912878,36.9658141940484,25300,2017-11-03 05:09:33,1890.0734735823482,85.7000027424,0.0,1.04592003346944,1890.0734735823482,85.7000027424,2.5451978928572,1.47998004735936,1024,0.0,96,GPS_Atti,
0.0670662380526637,36.965813978285205,25400,2017-11-03 05:09:33,1890.573473598348,86.2000027584,0.0,1.0487000335584,1890.573473598348,86.2000027584,2.5451978928572,1.47998004735936,1024,0.0,96,GPS_Atti,
0.0670662637804505,36.96581380618429,25500,2017-11-03 05:09:33,1890.973473611148,86.60000277120001,0.35999970196000003,1.0582400338636802,1890.973473611148,86.60000277120001,2.5451978928572,1.47998004735936,1024,0.0,96,GPS_Atti,
0.0670663030161801,36.9658136320321,25600,2017-11-03 05:09:33,1891.273473620748,86.9000027808,0.35999970196000003,1.06952003422464,1891.273473620748,86.9000027808,2.5451978928572,1.47998004735936,1024,0.0,96,GPS_Atti,
0.0670663890289636,36.9658135069679,25700,2017-11-03 05:09:33,1891.5734736303482,87.2000027904,0.35999970196000003,1.08369003467808,1891.5734736303482,87.2000027904,2.5451978928572,1.47998004735936,1024,0.0,96,GPS_Atti,
0.0670665251733955,36.9658133236944,25800,2017-11-03 05:09:33,1891.773473636748,87.40000279680001,0.7199994039200001,1.10564003538048,1891.773473636748,87.40000279680001,2.5451978928572,1.47998004735936,1024,0.0,96,GPS_Atti,
0.0670667218666321,36.9658131469986,25900,2017-11-03 05:09:34,1891.973473643148,87.60000280319998,0.7199994039200001,1.13357003627424,1891.973473643148,87.60000280319998,2.5451978928572,1.47998004735936,1024,0.0,96,GPS_Atti,
0.0670669273143837,36.9658129526961,26000,2017-11-03 05:09:34,1891.973473643148,87.60000280319998,0.7199994039200001,1.16328003722496,1891.973473643148,87.60000280319998,2.5451978928572,1.47998004735936,1024,0.0,96,GPS_Atti,
0.0670671354702376,36.9658128103636,26100,2017-11-03 05:09:34,1891.973473643148,87.60000280319998,0.7199994039200001,1.19092003810944,1891.973473643148,87.60000280319998,2.5451978928572,1.47998004735936,1024,0.0,96,GPS_Atti,
0.0670673106338161,36.965812675298,26200,2017-11-03 05:09:34,1891.973473643148,87.60000280319998,0.7199994039200001,1.2149100388771201,1891.973473643148,87.60000280319998,2.5451978928572,1.47998004735936,1024,0.0,96,GPS_Atti,
0.0670674252502184,36.965812604009706,26300,2017-11-03 05:09:34,1892.073473646348,87.70000280640001,0.35999970196000003,1.2298100393539202,1892.073473646348,87.70000280640001,2.5451978928572,1.47998004735936,1024,0.0,96,GPS_Atti,
0.0670674705323606,36.965812560794895,26400,2017-11-03 05:09:34,1892.073473646348,87.70000280640001,0.5075995797636,1.23641003956512,1892.073473646348,87.70000280640001,2.5451978928572,1.47998004735936,1024,0.0,96,GPS_Atti,
0.0670674386278858,36.9658125929838,26500,2017-11-03 05:09:34,1892.073473646348,87.70000280640001,0.35999970196000003,1.23168003941376,1892.073473646348,87.70000280640001,2.5451978928572,1.47998004735936,1024,0.0,96,GPS_Atti,
0.0670673263776127,36.9658126453359,26600,2017-11-03 05:09:34,1892.073473646348,87.70000280640001,0.35999970196000003,1.2179100389731201,1892.073473646348,87.70000280640001,2.5451978928572,1.47998004735936,1024,0.0,96,GPS_Atti,
0.0670671611735976,36.9658127383911,26700,2017-11-03 05:09:34,1892.073473646348,87.70000280640001,0.7199994039200001,1.19688003830016,1892.073473646348,87.70000280640001,2.5451978928572,1.47998004735936,1024,0.0,96,GPS_Atti,
0.0670669139106611,36.965812849505795,26800,2017-11-03 05:09:35,1892.173473649548,87.8000028096,0.7199994039200001,1.1667400373356802,1892.173473649548,87.8000028096,2.5451978928572,1.47998004735936,1024,0.0,96,GPS_Atti,
0.067066654497904,36.9658129911939,26900,2017-11-03 05:09:35,1892.173473649548,87.8000028096,0.8063993323904,1.13393003628576,1892.173473649548,87.8000028096,2.5451978928572,1.47998004735936,1024,0.0,96,GPS_Atti,
0.0670663337791157,36.965813090705794,27000,2017-11-03 05:09:35,1892.173473649548,87.8000028096,0.8063993323904,1.09694003510208,1892.173473649548,87.8000028096,2.5451978928572,1.47998004735936,1024,0.0,96,GPS_Atti,
0.0670660135960854,36.965813165294705,27100,2017-11-03 05:09:35,1892.2734736527482,87.9000028128,0.8063993323904,1.06122003395904,1892.2734736527482,87.9000028128,2.5451978928572,1.47998004735936,1024,0.0,96,GPS_Atti,
0.0670656547586801,36.9658131940824,27200,2017-11-03 05:09:35,1892.2734736527482,87.9000028128,0.8063993323904,1.02396003276672,1892.2734736527482,87.9000028128,2.5451978928572,1.47998004735936,1024,0.0,96,GPS_Atti,
0.0670652981782981,36.9658132185899,27300,2017-11-03 05:09:35,1892.2734736527482,87.9000028128,0.5075995797636,0.987349031595168,1892.2734736527482,87.9000028128,2.5451978928572,1.47998004735936,1024,0.0,96,GPS_Atti,
0.0670649344571891,36.965813207062,27400,2017-11-03 05:09:35,1892.3734736559481,88.00000281600002,0.5075995797636,0.952202030470464,1892.3734736559481,88.00000281600002,2.5451978928572,1.47998004735936,1024,0.0,96,GPS_Atti,
0.0670646335891331,36.965813231070705,27500,2017-11-03 05:09:35,1892.3734736559481,88.00000281600002,0.5075995797636,0.9216240294919681,1892.3734736559481,88.00000281600002,2.5451978928572,1.47998004735936,1024,0.0,96,GPS_Atti,
0.0670643346117006,36.9658132219836,27600,2017-11-03 05:09:35,1892.3734736559481,88.00000281600002,0.5075995797636,0.893302028585664,1892.3734736559481,88.00000281600002,2.5451978928572,1.47998004735936,1024,0.0,96,GPS_Atti,
0.0670640637460969,36.9658132185685,27700,2017-11-03 05:09:35,1892.3734736559481,88.00000281600002,0.5075995797636,0.8676660277653121,1892.3734736559481,88.00000281600002,2.5451978928572,1.47998004735936,1024,0.0,96,GPS_Atti,
0.0670637770243339,36.9658131838135,27800,2017-11-03 05:09:35,1892.3734736559481,88.00000281600002,0.5075995797636,0.8427250269672,1892.3734736559481,88.00000281600002,2.5451978928572,1.47998004735936,1024,0.0,96,GPS_Atti,
0.0670635128320936,36.9658131769789,27900,2017-11-03 05:09:36,1892.3734736559481,88.00000281600002,0.35999970196000003,0.8186180261957761,1892.3734736559481,88.00000281600002,2.5451978928572,1.47998004735936,1024,0.0,96,GPS_Atti,
0.0670632436258742,36.9658131481955,28000,2017-11-03 05:09:36,1892.3734736559481,88.00000281600002,0.35999970196000003,0.7958210254662721,1892.3734736559481,88.00000281600002,2.5451978928572,1.47998004735936,1024,0.0,96,GPS_Atti,
0.067063020258725,36.9658131564539,28100,2017-11-03 05:09:36,1892.2734736527482,87.9000028128,0.35999970196000003,0.775158024805056,1892.3734736559481,88.00000281600002,2.5451978928572,1.47998004735936,1024,0.0,96,GPS_Atti,
0.0670627791146668,36.9658131458617,28200,2017-11-03 05:09:36,1892.2734736527482,87.9000028128,0.35999970196000003,0.7544590241426881,1892.3734736559481,88.00000281600002,2.5451978928572,1.47998004735936,1024,0.0,96,GPS_Atti,
0.0670625654212891,36.9658131647937,28300,2017-11-03 05:09:36,1892.2734736527482,87.9000028128,0.35999970196000003,0.7344750235032,1892.3734736559481,88.00000281600002,2.5451978928572,1.47998004735936,1024,0.0,96,GPS_Atti,
0.0670623251183222,36.965813161173,28400,2017-11-03 05:09:36,1892.2734736527482,87.9000028128,0.35999970196000003,0.714067022850144,1892.3734736559481,88.00000281600002,2.5451978928572,1.47998004735936,1024,0.0,96,GPS_Atti,
0.0670621232425626,36.9658131783814,28500,2017-11-03 05:09:36,1892.2734736527482,87.9000028128,0.35999970196000003,0.69577002226464,1892.3734736559481,88.00000281600002,2.5451978928572,1.47998004735936,1024,0.0,96,GPS_Atti,
0.0670619555299296,36.9658132063212,28600,2017-11-03 05:09:36,1892.2734736527482,87.9000028128,0.35999970196000003,0.679748021751936,1892.3734736559481,88.00000281600002,2.5451978928572,1.47998004735936,1024,0.0,96,GPS_Atti,
0.0670616940417205,36.9658132213049,28700,2017-11-03 05:09:36,1892.2734736527482,87.9000028128,0.35999970196000003,0.6572580210322562,1892.3734736559481,88.00000281600002,2.5451978928572,1.47998004735936,1024,0.0,96,GPS_Atti,
0.0670614325437409,36.965813234901205,28800,2017-11-03 05:09:37,1892.2734736527482,87.9000028128,0.35999970196000003,0.635417020333344,1892.3734736559481,88.00000281600002,2.5451978928572,1.47998004735936,1024,0.0,96,GPS_Atti,
0.0670612646161532,36.965813282460296,28900,2017-11-03 05:09:37,1892.2734736527482,87.9000028128,0.35999970196000003,0.618586019794752,1892.3734736559481,88.00000281600002,2.5451978928572,1.47998004735936,1024,0.0,96,GPS_Atti,
0.0670610749862925,36.9658133153954,29000,2017-11-03 05:09:37,1892.2734736527482,87.9000028128,0.35999970196000003,0.6014630192468161,1892.3734736559481,88.00000281600002,2.5451978928572,1.47998004735936,1024,0.0,96,GPS_Atti,
0.067060934533812,36.9658133556403,29100,2017-11-03 05:09:37,1892.2734736527482,87.9000028128,0.35999970196000003,0.587647018804704,1892.3734736559481,88.00000281600002,2.5451978928572,1.47998004735936,1024,0.0,96,GPS_Atti,
