latitude,longitude,time_millisecond,datetime_utc,altitude_m,ascent_m,speed_kph,distance_m,max_altitude_m,max_ascent_m,max_speed_kph,max_distance_m,rc_throttle,gimbal_pitch_degrees,battery_percent,flycState,message
0.308055157789741,36.87938533959,0,2017-11-15 13:23:15,1768.0911210789204,0.0,0.0,0.0,1768.0911210789204,0.0,0.0,0.0,1024,0.0,100,Motors_Started,
0.30805517498692403,36.8793853431538,100,2017-11-15 13:23:15,1768.0911210789204,0.0,0.0,0.00195306006249792,1768.0911210789204,0.0,0.0,0.00195306006249792,1024,0.0,100,Motors_Started,
0.30805519813444104,36.879385348267604,200,2017-11-15 13:23:15,1768.0911210789204,0.0,0.0,0.004589180146853761,1768.0911210789204,0.0,0.0,0.004589180146853761,1024,0.0,100,Motors_Started,
0.30805523267251694,36.879385346000795,300,2017-11-15 13:23:15,1768.0911210789204,0.0,0.0,0.008357880267452161,1768.0911210789204,0.0,0.0,0.008357880267452161,1024,0.0,100,Motors_Started,
0.30805526590051,36.8793853466044,400,2017-11-15 13:23:15,1768.0911210789204,0.0,0.0,0.0120479003855328,1768.0911210789204,0.0,0.0,0.0120479003855328,1024,0.0,100,Motors_Started,
0.308055274304502,36.879385341434,500,2017-11-15 13:23:15,1768.0911210789204,0.0,0.0,0.012958800414681601,1768.0911210789204,0.0,0.0,0.012958800414681601,1024,0.0,100,Motors_Started,
0.308055284881246,36.879385339263294,600,2017-11-15 13:23:15,1768.0911210789204,0.0,0.0,0.014133400452268801,1768.0911210789204,0.0,0.0,0.014133400452268801,1024,0.0,100,Motors_Started,
0.308055311102451,36.879385333276204,700,2017-11-15 13:23:15,1768.0911210789204,0.0,0.0,0.0170638005460416,1768.0911210789204,0.0,0.0,0.0170638005460416,1024,0.0,100,Motors_Started,
0.30805533706391997,36.8793853307398,800,2017-11-15 13:23:16,1768.0911210789204,0.0,0.0,0.0199607006387424,1768.0911210789204,0.0,0.0,0.0199607006387424,1024,0.0,100,Motors_Started,
0.308055343004483,36.8793853255875,900,2017-11-15 13:23:16,1768.0911210789204,0.0,0.0,0.0206558006609856,1768.0911210789204,0.0,0.0,0.0206558006609856,474,0.0,100,Motors_Started,
0.308055350011271,36.8793853225581,1000,2017-11-15 13:23:16,1768.0911210789204,0.0,0.0,0.02146000068672,1768.0911210789204,0.0,0.0,0.02146000068672,998,0.0,100,Motors_Started,
0.308055378761042,36.879385318470895,1100,2017-11-15 13:23:16,1768.0911210789204,0.0,0.0,0.0246853007899296,1768.0911210789204,0.0,0.0,0.0246853007899296,1024,0.0,100,Motors_Started,
0.308055407469289,36.8793853177913,1200,2017-11-15 13:23:16,1768.0911210789204,0.0,0.0,0.027871500891888005,1768.0911210789204,0.0,0.0,0.027871500891888005,1024,0.0,100,Motors_Started,
0.30805545590532,36.879385314265,1300,2017-11-15 13:23:16,1768.0911210789204,0.0,0.0,0.0332717010646944,1768.0911210789204,0.0,0.0,0.0332717010646944,1024,0.0,100,Motors_Started,
0.30805549657000897,36.8793853137651,1400,2017-11-15 13:23:16,1768.0911210789204,0.0,0.0,0.0377837012090784,1768.0911210789204,0.0,0.0,0.0377837012090784,1024,0.0,100,Motors_Started,
0.30805551576692103,36.879385309295,1500,2017-11-15 13:23:16,1768.0911210789204,0.0,0.0,0.039951501278448,1768.0911210789204,0.0,0.0,0.039951501278448,1024,0.0,100,Motors_Started,
0.308055535756886,36.879385308859895,1600,2017-11-15 13:23:16,1768.0911210789204,0.0,0.0,0.042170901349468805,1768.0911210789204,0.0,0.0,0.042170901349468805,1024,0.0,100,Assisted_Takeoff,
0.30805557611217,36.8793852724667,1700,2017-11-15 13:23:16,1768.0911210789204,0.0,0.0,0.0471151015076832,1768.0911210789204,0.0,0.0,0.0471151015076832,1024,0.0,100,Assisted_Takeoff,
0.308055611083005,36.87938524373521,1800,2017-11-15 13:23:16,1768.0911210789204,0.0,0.0,0.0515237016487584,1768.0911210789204,0.0,0.0,0.0515237016487584,1024,0.0,100,Assisted_Takeoff,
0.308055625800068,36.879385217228204,1900,2017-11-15 13:23:17,1768.0911210789204,0.0,0.0,0.05379500172144001,1768.0911210789204,0.0,0.0,0.05379500172144001,1024,0.0,100,Assisted_Takeoff,
0.30805564152961606,36.879385200548896,2000,2017-11-15 13:23:17,1768.0911210789204,0.0,0.0,0.05597280179112961,1768.0911210789204,0.0,0.0,0.05597280179112961,1025,0.0,100,Assisted_Takeoff,
0.30805567696903496,36.879385188102496,2100,2017-11-15 13:23:17,1768.0911210789204,0.0,0.0,0.0601434019245888,1768.0911210789204,0.0,0.0,0.0601434019245888,1025,0.0,100,Assisted_Takeoff,
0.30805570819281997,36.8793851783285,2200,2017-11-15 13:23:17,1768.0911210789204,0.0,0.0,0.0637811020409952,1768.0911210789204,0.0,0.0,0.0637811020409952,1039,0.0,100,Assisted_Takeoff,
0.308055723495716,36.879385176708496,2300,2017-11-15 13:23:17,1768.0911210789204,0.0,0.0,0.06546560209489921,1768.0911210789204,0.0,0.0,0.06546560209489921,1059,0.0,100,Assisted_Takeoff,
0.308055736640109,36.879385174007,2400,2017-11-15 13:23:17,1768.0911210789204,0.0,0.0,0.066953502142512,1768.0911210789204,0.0,0.0,0.066953502142512,1088,0.0,100,Assisted_Takeoff,
0.30805573376102,36.8793851379787,2500,2017-11-15 13:23:17,1768.0911210789204,0.0,0.0,0.06786200217158402,1768.0911210789204,0.0,0.0,0.06786200217158402,1141,0.0,100,Assisted_Takeoff,
0.308055734645672,36.8793851085199,2600,2017-11-15 13:23:17,1768.0911210789204,0.0,0.0,0.06910500221136001,1768.0911210789204,0.0,0.0,0.06910500221136001,1140,0.0,100,Assisted_Takeoff,
0.30805572366385303,36.8793850865976,2700,2017-11-15 13:23:17,1768.0911210789204,0.0,0.0,0.06893130220580161,1768.0911210789204,0.0,0.0,0.06910500221136001,1161,0.0,100,Assisted_Takeoff,
0.308055718349018,36.8793850692139,2800,2017-11-15 13:23:17,1768.0911210789204,0.0,0.0,0.0692099022147168,1768.0911210789204,0.0,0.0,0.0692099022147168,1161,0.0,100,Assisted_Takeoff,
0.30805573921549295,36.8793850579103,2900,2017-11-15 13:23:18,1768.0911210789204,0.0,0.0,0.0718461022990752,1768.0911210789204,0.0,0.0,0.0718461022990752,1203,0.0,100,Assisted_Takeoff,
0.308055760852628,36.8793850511031,3000,2017-11-15 13:23:18,1768.0911210789204,0.0,0.0,0.07434250237896,1768.0911210789204,0.0,0.0,0.07434250237896,1225,0.0,100,Assisted_Takeoff,
0.30805573774378603,36.8793850533955,3100,2017-11-15 13:23:18,1768.0911210789204,0.0,0.0,0.0719196023014272,1768.0911210789204,0.0,0.0,0.07434250237896,1252,0.0,100,Assisted_Takeoff,
0.308055714105701,36.879385050469295,3200,2017-11-15 13:23:18,1768.0911210789204,0.0,0.0,0.069721502231088,1768.0911210789204,0.0,0.0,0.07434250237896,1280,0.0,100,Assisted_Takeoff,
0.308055687770097,36.8793850507377,3300,2017-11-15 13:23:18,1768.0911210789204,0.0,0.0,0.0671221021479072,1768.0911210789204,0.0,0.0,0.07434250237896,1278,0.0,100,Assisted_Takeoff,
0.308055657587295,36.8793850536792,3400,2017-11-15 13:23:18,1768.0911210789204,0.0,0.0,0.0640319020490208,1768.0911210789204,0.0,0.0,0.07434250237896,1337,0.0,100,GPS_Atti,Obstacle Avoided. Revise Flight Route
0.308055551444908,36.8793850468585,3500,2017-11-15 13:23:18,1768.0911210789204,0.0,0.0,0.0545538017457216,1768.0911210789204,0.0,0.0,0.07434250237896,1442,0.0,100,GPS_Atti,
0.30805543158858,36.8793850047236,3600,2017-11-15 13:23:18,1768.0911210789204,0.0,0.0,0.048102001539264,1768.0911210789204,0.0,0.0,0.07434250237896,1494,0.0,100,GPS_Atti,
0.30805528940832,36.879384895490205,3700,2017-11-15 13:23:18,1768.1911210821202,0.10000000320000002,0.5075995797636,0.0515092016482944,1768.1911210821202,0.10000000320000002,0.5075995797636,0.07434250237896,1592,0.0,100,GPS_Atti,
0.308055137917432,36.8793847548358,3800,2017-11-15 13:23:18,1768.2911210853206,0.20000000640000004,0.5075995797636,0.0650648020820736,1768.2911210853206,0.20000000640000004,0.5075995797636,0.07434250237896,1684,0.0,100,GPS_Atti,
0.308054964392475,36.8793845907248,3900,2017-11-15 13:23:19,1768.3911210885203,0.3000000096,0.35999970196000003,0.08600950275230401,1768.3911210885203,0.3000000096,0.5075995797636,0.08600950275230401,1684,0.0,100,GPS_Atti,Setting new Return-To-Home altitude to 30m (98 ft). Setting new Maximum Flight Altitude to 120m (394 ft)
0.308054735265927,36.8793844987336,4000,2017-11-15 13:23:19,1768.5911210949203,0.500000016,0.35999970196000003,0.104649003348768,1768.5911210949203,0.500000016,0.5075995797636,0.104649003348768,1684,0.0,100,GPS_Atti,Home Point Recorded. RTH Altitude:  30m.
0.308054421842568,36.8793844589337,4100,2017-11-15 13:23:19,1768.7911211013204,0.7000000224000001,1.07999910588,0.127628004084096,1768.7911211013204,0.7000000224000001,1.07999910588,0.127628004084096,1684,0.0,100,GPS_Atti,
0.308054057641882,36.8793844242049,4200,2017-11-15 13:23:19,1769.0911211109205,1.000000032,1.07999910588,0.159154005092928,1769.0911211109205,1.000000032,1.07999910588,0.159154005092928,1684,0.0,100,GPS_Atti,
0.308053666633955,36.8793844180107,4300,2017-11-15 13:23:19,1769.3911211205204,1.3000000416000002,1.07999910588,0.19493900623804802,1769.3911211205204,1.3000000416000002,1.07999910588,0.19493900623804802,1684,0.0,100,GPS_Atti,Obstacle Avoided. Revise Flight Route
0.30805333894440806,36.8793844710016,4400,2017-11-15 13:23:19,1769.7911211333205,1.7000000544000002,0.8063993323904,0.22414600717267202,1769.7911211333205,1.7000000544000002,1.07999910588,0.22414600717267202,1684,0.0,100,GPS_Atti,
0.308053112431716,36.879384560454,4500,2017-11-15 13:23:19,1770.1911211461204,2.1000000672,0.35999970196000003,0.2434000077888,1770.1911211461204,2.1000000672,1.07999910588,0.2434000077888,1684,0.0,100,GPS_Atti,
0.308052932040425,36.8793845827919,4600,2017-11-15 13:23:19,1770.6911211621205,2.6000000832000003,0.35999970196000003,0.26143300836585603,1770.6911211621205,2.6000000832000003,1.07999910588,0.26143300836585603,1684,0.0,100,GPS_Atti,
0.30805277897849603,36.879384563056895,4700,2017-11-15 13:23:19,1771.0911211749203,3.0000000960000004,0.35999970196000003,0.278276008904832,1771.0911211749203,3.0000000960000004,1.07999910588,0.278276008904832,1684,0.0,100,GPS_Atti,
0.308052627800472,36.8793844719057,4800,2017-11-15 13:23:20,1771.5911211909204,3.500000112,0.35999970196000003,0.297436009517952,1771.5911211909204,3.500000112,1.07999910588,0.297436009517952,1684,0.0,100,GPS_Atti,
0.308052540666302,36.879384282088104,4900,2017-11-15 13:23:20,1772.1911212101204,4.100000131200001,0.35999970196000003,0.313901010044832,1772.1911212101204,4.100000131200001,1.07999910588,0.313901010044832,1684,0.0,100,GPS_Atti,
0.30805250482771,36.8793840922299,5000,2017-11-15 13:23:20,1772.6911212261202,4.6000001472,0.0,0.326008010432256,1772.6911212261202,4.6000001472,1.07999910588,0.326008010432256,1684,0.0,100,GPS_Atti,
0.30805254512498104,36.8793838920015,5100,2017-11-15 13:23:20,1773.1911212421203,5.1000001632,0.0,0.33216001062912,1773.1911212421203,5.1000001632,1.07999910588,0.33216001062912,1684,0.0,100,GPS_Atti,
0.30805258340115005,36.879383703790495,5200,2017-11-15 13:23:20,1773.6911212581203,5.600000179200001,0.0,0.33919201085414397,1773.6911212581203,5.600000179200001,1.07999910588,0.33919201085414397,1684,0.0,100,GPS_Atti,
0.308052660733513,36.8793834912495,5300,2017-11-15 13:23:20,1774.1911212741204,6.1000001952,0.35999970196000003,0.34548301105545604,1774.1911212741204,6.1000001952,1.07999910588,0.34548301105545604,1684,0.0,100,GPS_Atti,
0.30805272208554807,36.879383262484005,5400,2017-11-15 13:23:20,1774.5911212869203,6.500000208,0.35999970196000003,0.35597901139132804,1774.5911212869203,6.500000208,1.07999910588,0.35597901139132804,1684,0.0,100,GPS_Atti,
0.30805277608251197,36.8793830169124,5500,2017-11-15 13:23:20,1775.0911213029203,7.000000224,0.35999970196000003,0.36995401183852805,1775.0911213029203,7.000000224,1.07999910588,0.36995401183852805,1684,0.0,100,GPS_Atti,
0.308052820247948,36.879382808084294,5600,2017-11-15 13:23:20,1775.5911213189204,7.50000024,0.35999970196000003,0.383176012261632,1775.5911213189204,7.50000024,1.07999910588,0.383176012261632,1684,0.0,100,GPS_Atti,
0.30805284980868497,36.879382609473794,5700,2017-11-15 13:23:20,1775.9911213317205,7.9000002528,0.0,0.397554012721728,1775.9911213317205,7.9000002528,1.07999910588,0.397554012721728,1684,0.0,100,GPS_Atti,
0.308052880318398,36.8793824515439,5800,2017-11-15 13:23:20,1776.4911213477203,8.4000002688,0.0,0.409012013088384,1776.4911213477203,8.4000002688,1.07999910588,0.409012013088384,1684,0.0,100,GPS_Atti,
0.308052925238415,36.879382334747795,5900,2017-11-15 13:23:21,1776.9911213637204,8.9000002848,0.0,0.41629001332128,1776.9911213637204,8.9000002848,1.07999910588,0.41629001332128,1684,0.0,100,GPS_Atti,
0.308052957584198,36.8793822187745,6000,2017-11-15 13:23:21,1777.4911213797204,9.400000300800002,0.0,0.42462801358809604,1777.4911213797204,9.400000300800002,1.07999910588,0.42462801358809604,1684,0.0,100,GPS_Atti,
0.308052950463623,36.8793821036766,6100,2017-11-15 13:23:21,1777.8911213925205,9.8000003136,0.0,0.435598013939136,1777.8911213925205,9.8000003136,1.07999910588,0.435598013939136,1684,0.0,100,GPS_Atti,
0.308052932096606,36.879382006798295,6200,2017-11-15 13:23:21,1778.3911214085203,10.300000329600001,0.0,0.44567001426144004,1778.3911214085203,10.300000329600001,1.07999910588,0.44567001426144004,1684,0.0,100,GPS_Atti,
0.308052927248525,36.879381904538604,6300,2017-11-15 13:23:21,1778.8911214245202,10.800000345599999,0.0,0.45546401457484803,1778.8911214245202,10.800000345599999,1.07999910588,0.45546401457484803,1684,0.0,100,GPS_Atti,
0.308052930347861,36.8793818129584,6400,2017-11-15 13:23:21,1779.2911214373203,11.200000358400002,0.0,0.46385401484332806,1779.2911214373203,11.200000358400002,1.07999910588,0.46385401484332806,1684,0.0,100,GPS_Atti,
0.308052952949442,36.8793817193047,6500,2017-11-15 13:23:21,1779.7911214533206,11.700000374400002,0.0,0.47138001508416,1779.7911214533206,11.700000374400002,1.07999910588,0.47138001508416,1684,0.0,100,GPS_Atti,
0.308052981808727,36.8793816209608,6600,2017-11-15 13:23:21,1780.2911214693204,12.2000003904,0.0,0.479125015332,1780.2911214693204,12.2000003904,1.07999910588,0.479125015332,1684,0.0,100,GPS_Atti,
0.30805300378356104,36.8793814977984,6700,2017-11-15 13:23:21,1780.6911214821205,12.600000403200003,0.0,0.48979501567344,1780.6911214821205,12.600000403200003,1.07999910588,0.48979501567344,1684,0.0,100,GPS_Atti,
0.308053024190407,36.8793813715816,6800,2017-11-15 13:23:21,1781.1911214981203,13.100000419199999,0.0,0.501006016032192,1781.1911214981203,13.100000419199999,1.07999910588,0.501006016032192,1684,0.0,100,GPS_Atti,
0.30805303772013,36.879381206155,6900,2017-11-15 13:23:22,1781.6911215141204,13.600000435200002,0.0,0.516594016531008,1781.6911215141204,13.600000435200002,1.07999910588,0.516594016531008,1684,0.0,100,GPS_Atti,
0.30805305677475703,36.879381058084,7000,2017-11-15 13:23:22,1782.1911215301204,14.100000451200001,0.0,0.530361016971552,1782.1911215301204,14.100000451200001,1.07999910588,0.530361016971552,1684,0.0,100,GPS_Atti,
0.30805309159679306,36.87938093150861,7100,2017-11-15 13:23:22,1782.6911215461203,14.600000467200001,0.0,0.5413780173240961,1782.6911215461203,14.600000467200001,1.07999910588,0.5413780173240961,1684,0.0,100,GPS_Atti,
0.30805311177830297,36.8793808171965,7200,2017-11-15 13:23:22,1783.1911215621205,15.100000483200002,0.0,0.551986017663552,1783.1911215621205,15.100000483200002,1.07999910588,0.551986017663552,1684,0.0,100,GPS_Atti,
0.30805310586114804,36.879380682192796,7300,2017-11-15 13:23:22,1783.6911215781204,15.6000004992,0.0,0.5659630181108161,1783.6911215781204,15.6000004992,1.07999910588,0.5659630181108161,1684,0.0,100,GPS_Atti,
0.308053093494134,36.879380555493995,7400,2017-11-15 13:23:22,1784.1911215941204,16.1000005152,0.0,0.5794280185416961,1784.1911215941204,16.1000005152,1.07999910588,0.5794280185416961,1684,0.0,100,GPS_Atti,
0.30805310281555104,36.879380396063794,7500,2017-11-15 13:23:22,1784.6911216101203,16.6000005312,0.0,0.595349019051168,1784.6911216101203,16.6000005312,1.07999910588,0.595349019051168,1684,0.0,100,GPS_Atti,
0.308053118348871,36.8793802470204,7600,2017-11-15 13:23:22,1785.1911216261205,17.1000005472,0.0,0.6100430195213761,1785.1911216261205,17.1000005472,1.07999910588,0.6100430195213761,1684,0.0,100,GPS_Atti,
0.308053139864687,36.8793800961014,7700,2017-11-15 13:23:22,1785.7911216453203,17.700000566400004,0.0,0.6247900199932801,1785.7911216453203,17.700000566400004,1.07999910588,0.6247900199932801,1684,0.0,100,GPS_Atti,
0.308053157721186,36.879379942428706,7800,2017-11-15 13:23:23,1786.2911216613204,18.2000005824,0.35999970196000003,0.640076020482432,1786.2911216613204,18.2000005824,1.07999910588,0.640076020482432,1684,0.0,100,GPS_Atti,
0.30805318057395503,36.87937973327271,7900,2017-11-15 13:23:23,1786.8911216805204,18.800000601600004,0.35999970196000003,0.66108502115472,1786.8911216805204,18.800000601600004,1.07999910588,0.66108502115472,1684,0.0,100,GPS_Atti,
0.308053221400878,36.8793795430282,8000,2017-11-15 13:23:23,1787.3911216965205,19.300000617600002,0.35999970196000003,0.679621021747872,1787.3911216965205,19.300000617600002,1.07999910588,0.679621021747872,1684,0.0,100,GPS_Atti,
0.308053310058865,36.8793793710496,8100,2017-11-15 13:23:23,1787.9911217157203,19.900000636800005,0.0,0.694807022233824,1787.9911217157203,19.900000636800005,1.07999910588,0.694807022233824,1684,0.0,100,GPS_Atti,
0.308053401885397,36.879379218321205,8200,2017-11-15 13:23:23,1788.4911217317203,20.4000006528,0.0,0.7081660226613121,1788.4911217317203,20.4000006528,1.07999910588,0.7081660226613121,1684,0.0,100,GPS_Atti,
0.30805345756922603,36.8793790980366,8300,2017-11-15 13:23:23,1789.0911217509204,21.000000672,0.35999970196000003,0.719381023020192,1789.0911217509204,21.000000672,1.07999910588,0.719381023020192,1684,0.0,100,GPS_Atti,
0.30805348960987894,36.879378958912795,8400,2017-11-15 13:23:23,1789.6911217701206,21.600000691199998,0.35999970196000003,0.7334100234691201,1789.6911217701206,21.600000691199998,1.07999910588,0.7334100234691201,1684,0.0,100,GPS_Atti,
0.308053515247491,36.8793788341156,8500,2017-11-15 13:23:23,1790.2911217893204,22.2000007104,0.35999970196000003,0.746142023876544,1790.2911217893204,22.2000007104,1.07999910588,0.746142023876544,1684,0.0,100,GPS_Atti,
0.30805353026723997,36.8793787271609,8600,2017-11-15 13:23:23,1790.8911218085204,22.8000007296,0.0,0.757278024232896,1790.8911218085204,22.8000007296,1.07999910588,0.757278024232896,1684,0.0,100,GPS_Atti,
0.308053559040217,36.879378612760796,8700,2017-11-15 13:23:23,1791.3911218245205,23.300000745600002,0.0,0.768891024604512,1791.3911218245205,23.300000745600002,1.07999910588,0.768891024604512,1684,0.0,100,GPS_Atti,
0.308053592157883,36.8793785181794,8800,2017-11-15 13:23:23,1791.9911218437205,23.9000007648,0.0,0.7782960249054721,1791.9911218437205,23.9000007648,1.07999910588,0.7782960249054721,1684,0.0,100,GPS_Atti,
0.30805361426055,36.879378462658,8900,2017-11-15 13:23:24,1792.5911218629203,24.500000784000004,0.0,0.7837730250807361,1792.5911218629203,24.500000784000004,1.07999910588,0.7837730250807361,1684,0.0,100,GPS_Atti,
0.308053628616505,36.8793784215698,9000,2017-11-15 13:23:24,1793.1911218821206,25.100000803199997,0.0,0.7878850252123201,1793.1911218821206,25.100000803199997,1.07999910588,0.7878850252123201,1684,0.0,100,GPS_Atti,
0.3080536232919,36.879378398619,9100,2017-11-15 13:23:24,1793.7911219013204,25.7000008224,0.0,0.79050502529616,1793.7911219013204,25.7000008224,1.07999910588,0.79050502529616,1684,0.0,100,GPS_Atti,
0.308053614733409,36.87937841066,9200,2017-11-15 13:23:24,1794.2911219173204,26.200000838399998,0.0,0.789404025260928,1794.2911219173204,26.200000838399998,1.07999910588,0.79050502529616,1684,0.0,100,GPS_Atti,
0.30805358440343605,36.8793784493784,9300,2017-11-15 13:23:24,1794.8911219365204,26.8000008576,0.35999970196000003,0.7859460251502721,1794.8911219365204,26.8000008576,1.07999910588,0.79050502529616,1684,0.0,100,GPS_Atti,
0.3080535476873161,36.879378510010795,9400,2017-11-15 13:23:24,1795.4911219557205,27.4000008768,0.35999970196000003,0.780301024969632,1795.4911219557205,27.4000008768,1.07999910588,0.79050502529616,1684,0.0,100,GPS_Atti,
0.308053544127334,36.8793786059732,9500,2017-11-15 13:23:24,1796.0911219749203,28.000000896,0.35999970196000003,0.77001002464032,1796.0911219749203,28.000000896,1.07999910588,0.79050502529616,1684,0.0,100,GPS_Atti,
0.308053539648299,36.87937870359929,9600,2017-11-15 13:23:24,1796.6911219941205,28.600000915200003,0.35999970196000003,0.7595750243064,1796.6911219941205,28.600000915200003,1.07999910588,0.79050502529616,1684,0.0,100,GPS_Atti,
0.30805351542865506,36.879378794405795,9700,2017-11-15 13:23:24,1797.2911220133203,29.200000934400002,0.35999970196000003,0.750419024013408,1797.2911220133203,29.200000934400002,1.07999910588,0.79050502529616,1684,0.0,100,GPS_Atti,
0.308053490870295,36.8793788872394,9800,2017-11-15 13:23:24,1797.9911220357203,29.900000956800003,0.35999970196000003,0.741089023714848,1797.9911220357203,29.900000956800003,1.07999910588,0.79050502529616,1684,0.0,100,GPS_Atti,
0.30805348728751397,36.879378994209105,9900,2017-11-15 13:23:25,1798.5911220549203,30.500000976,0.35999970196000003,0.729679023349728,1798.5911220549203,30.500000976,1.07999910588,0.79050502529616,1684,0.0,99,GPS_Atti,
0.30805349654969705,36.8793790965565,10000,2017-11-15 13:23:25,1799.0911220709204,31.000000992,0.35999970196000003,0.718413022989216,1799.0911220709204,31.000000992,1.07999910588,0.79050502529616,1684,0.0,99,GPS_Atti,
0.308053540645314,36.879379196722,10100,2017-11-15 13:23:25,1799.6911220901204,31.6000010112,0.35999970196000003,0.70639002260448,1799.6911220901204,31.6000010112,1.07999910588,0.79050502529616,1684,0.0,99,GPS_Atti,
0.308053585759726,36.8793792772985,10200,2017-11-15 13:23:25,1800.2911221093202,32.2000010304,0.35999970196000003,0.696452022286464,1800.2911221093202,32.2000010304,1.07999910588,0.79050502529616,1684,0.0,99,GPS_Atti,
0.308053626160201,36.879379355531896,10300,2017-11-15 13:23:25,1800.7911221253205,32.700001046400004,0.35999970196000003,0.686906021980992,1800.7911221253205,32.700001046400004,1.07999910588,0.79050502529616,1684,0.0,99,GPS_Atti,
0.308053678729223,36.87937944053839,10400,2017-11-15 13:23:25,1801.3911221445203,33.3000010656,0.35999970196000003,0.676307021641824,1801.3911221445203,33.3000010656,1.07999910588,0.79050502529616,1684,0.0,99,GPS_Atti,
0.308053731638793,36.879379523854496,10500,2017-11-15 13:23:25,1801.8911221605204,33.800001081599994,0.35999970196000003,0.665898021308736,1801.8911221605204,33.800001081599994,1.07999910588,0.79050502529616,1684,0.0,99,GPS_Atti,
0.30805379000059696,36.879379620231205,10600,2017-11-15 13:23:25,1802.4911221797204,34.4000011008,0.35999970196000003,0.653954020926528,1802.4911221797204,34.4000011008,1.07999910588,0.79050502529616,1684,0.0,99,GPS_Atti,
0.308053873715239,36.879379764926895,10700,2017-11-15 13:23:25,1802.9911221957202,34.9000011168,0.35999970196000003,0.636161020357152,1802.9911221957202,34.9000011168,1.07999910588,0.79050502529616,1684,0.0,99,GPS_Atti,
0.308053950371798,36.8793799048039,10800,2017-11-15 13:23:26,1803.4911222117205,35.40000113280001,0.35999970196000003,0.619108019811456,1803.4911222117205,35.40000113280001,1.07999910588,0.79050502529616,1684,0.0,99,GPS_Atti,
0.308054015128909,36.8793800353255,10900,2017-11-15 13:23:26,1804.0911222309203,36.000001151999996,0.35999970196000003,0.60339001930848,1804.0911222309203,36.000001151999996,1.07999910588,0.79050502529616,1684,0.0,99,GPS_Atti,
0.308054078424084,36.8793801192839,11000,2017-11-15 13:23:26,1804.6911222501205,36.6000011712,0.0,0.5928010189696321,1804.6911222501205,36.6000011712,1.07999910588,0.79050502529616,1684,0.0,99,GPS_Atti,
0.308054096233155,36.879380190225,11100,2017-11-15 13:23:26,1805.1911222661204,37.1000011872,0.0,0.584674018709568,1805.1911222661204,37.1000011872,1.07999910588,0.79050502529616,1684,0.0,99,GPS_Atti,
0.308054124618969,36.8793802013067,11200,2017-11-15 13:23:26,1805.7911222853204,37.700001206399996,0.0,0.5828370186507841,1805.7911222853204,37.700001206399996,1.07999910588,0.79050502529616,1684,0.0,99,GPS_Atti,
0.308054191672594,36.8793801866626,11300,2017-11-15 13:23:26,1806.3911223045204,38.3000012256,0.0,0.5830140186564481,1806.3911223045204,38.3000012256,1.07999910588,0.79050502529616,1684,0.0,99,GPS_Atti,
0.30805426625369997,36.8793801596024,11400,2017-11-15 13:23:26,1806.8911223205203,38.8000012416,0.0,0.5845080187042561,1806.8911223205203,38.8000012416,1.07999910588,0.79050502529616,1684,0.0,99,GPS_Atti,
0.30805432516795395,36.8793801892026,11500,2017-11-15 13:23:26,1807.4911223397203,39.4000012608,0.0,0.580182018565824,1807.4911223397203,39.4000012608,1.07999910588,0.79050502529616,1684,0.0,99,GPS_Atti,
0.308054374699521,36.8793802089989,11600,2017-11-15 13:23:26,1807.9911223557203,39.900001276800005,0.0,0.577152018468864,1807.9911223557203,39.900001276800005,1.07999910588,0.79050502529616,1684,0.0,99,GPS_Atti,
0.30805440467591805,36.879380277570206,11700,2017-11-15 13:23:26,1808.5911223749204,40.500001296,0.0,0.56911501821168,1808.5911223749204,40.500001296,1.07999910588,0.79050502529616,1684,0.0,99,GPS_Atti,
0.308054423504802,36.8793803018368,11800,2017-11-15 13:23:26,1809.1911223941202,41.100001315200004,0.0,0.5661410181165121,1809.1911223941202,41.100001315200004,1.07999910588,0.79050502529616,1684,0.0,99,GPS_Atti,
0.308054428002564,36.879380329936104,11900,2017-11-15 13:23:27,1809.6911224101204,41.600001331200005,0.0,0.5629760180152321,1809.6911224101204,41.600001331200005,1.07999910588,0.79050502529616,1684,0.0,99,GPS_Atti,
0.30805443027953605,36.8793803022008,12000,2017-11-15 13:23:27,1810.2911224293202,42.2000013504,0.0,0.5659920181117439,1810.2911224293202,42.2000013504,1.07999910588,0.79050502529616,1684,0.0,99,GPS_Atti,
0.308054450308176,36.8793802414994,12100,2017-11-15 13:23:27,1810.8911224485205,42.800001369600004,0.0,0.572364018315648,1810.8911224485205,42.800001369600004,1.07999910588,0.79050502529616,1684,0.0,99,GPS_Atti,
0.30805447620654197,36.8793801669059,12200,2017-11-15 13:23:27,1811.4911224677203,43.40000138880001,0.0,0.580198018566336,1811.4911224677203,43.40000138880001,1.07999910588,0.79050502529616,1684,0.0,99,GPS_Atti,
0.308054535866216,36.8793801090898,12300,2017-11-15 13:23:27,1811.9911224837203,43.9000014048,0.0,0.5857520187440639,1811.9911224837203,43.9000014048,1.07999910588,0.79050502529616,1684,0.0,99,GPS_Atti,
0.308054581693073,36.8793800669915,12400,2017-11-15 13:23:27,1812.5911225029204,44.500001424,0.0,0.589826018874432,1812.5911225029204,44.500001424,1.07999910588,0.79050502529616,1684,0.0,99,GPS_Atti,
0.308054601976564,36.8793800836386,12500,2017-11-15 13:23:27,1813.0911225189204,45.00000144,0.0,0.58774501880784,1813.0911225189204,45.00000144,1.07999910588,0.79050502529616,1684,0.0,99,GPS_Atti,
0.30805460360256604,36.879380107443204,12600,2017-11-15 13:23:27,1813.6911225381202,45.6000014592,0.0,0.585093018722976,1813.6911225381202,45.6000014592,1.07999910588,0.79050502529616,1684,0.0,99,GPS_Atti,
0.30805460715053806,36.8793801239003,12700,2017-11-15 13:23:27,1814.2911225573205,46.20000147840001,0.0,0.5832320186634241,1814.2911225573205,46.20000147840001,1.07999910588,0.79050502529616,1684,0.0,99,GPS_Atti,
0.30805460402392604,36.8793801095185,12800,2017-11-15 13:23:27,1814.7911225733203,46.7000014944,0.0,0.584859018715488,1814.7911225733203,46.7000014944,1.07999910588,0.79050502529616,1684,0.0,99,GPS_Atti,
0.308054565663077,36.8793800508576,12900,2017-11-15 13:23:28,1815.3911225925206,47.30000151360001,0.0,0.5918060189377922,1815.3911225925206,47.30000151360001,1.07999910588,0.79050502529616,1684,0.0,99,GPS_Atti,
0.308054531616385,36.8793799736713,13000,2017-11-15 13:23:28,1815.8911226085204,47.8000015296,0.0,0.600764019224448,1815.8911226085204,47.8000015296,1.07999910588,0.79050502529616,1684,0.0,99,GPS_Atti,
0.30805450821686603,36.8793798595441,13100,2017-11-15 13:23:28,1816.4911226277204,48.4000015488,0.0,0.6136720196375041,1816.4911226277204,48.4000015488,1.07999910588,0.79050502529616,1684,0.0,99,GPS_Atti,
0.308054488374276,36.879379735136105,13200,2017-11-15 13:23:28,1816.9911226437205,48.9000015648,0.35999970196000003,0.627671020085472,1816.9911226437205,48.9000015648,1.07999910588,0.79050502529616,1684,0.0,99,GPS_Atti,
0.308054466136651,36.879379600654396,13300,2017-11-15 13:23:28,1817.4911226597203,49.4000015808,0.0,0.642814020570048,1817.4911226597203,49.4000015808,1.07999910588,0.79050502529616,1684,0.0,99,GPS_Atti,
0.30805446957389,36.8793795320932,13400,2017-11-15 13:23:28,1817.9911226757204,49.900001596799996,0.0,0.6503390208108479,1817.9911226757204,49.900001596799996,1.07999910588,0.79050502529616,1684,0.0,99,GPS_Atti,
0.308054473259058,36.8793795104951,13500,2017-11-15 13:23:28,1818.4911226917204,50.40000161280001,0.0,0.6526760208856321,1818.4911226917204,50.40000161280001,1.07999910588,0.79050502529616,1684,0.0,99,GPS_Atti,
0.30805447066291197,36.8793795159503,13600,2017-11-15 13:23:28,1819.0911227109202,51.000001632,0.0,0.652107020867424,1819.0911227109202,51.000001632,1.07999910588,0.79050502529616,1684,0.0,99,GPS_Atti,
0.30805441912347303,36.8793795187933,13700,2017-11-15 13:23:28,1819.5911227269205,51.50000164800001,0.0,0.65249002087968,1819.5911227269205,51.50000164800001,1.07999910588,0.79050502529616,1684,0.0,99,GPS_Atti,
0.308054377490267,36.8793795060543,13800,2017-11-15 13:23:29,1820.0911227429203,52.000001664,0.0,0.654493020943776,1820.0911227429203,52.000001664,1.07999910588,0.79050502529616,1684,0.0,99,GPS_Atti,
0.30805434725169,36.8793794442105,13900,2017-11-15 13:23:29,1820.6911227621206,52.600001683200006,0.0,0.66176002117632,1820.6911227621206,52.600001683200006,1.07999910588,0.79050502529616,1684,0.0,99,GPS_Atti,
0.30805431248522497,36.8793793196462,14100,2017-11-15 13:23:29,1821.7911227973202,53.7000017184,0.0,0.6760120216323839,1821.7911227973202,53.7000017184,1.07999910588,0.79050502529616,1684,0.0,99,GPS_Atti,
0.3080542876197,36.8793792783514,14200,2017-11-15 13:23:29,1822.2911228133205,54.200001734400004,0.0,0.680948021790336,1822.2911228133205,54.200001734400004,1.07999910588,0.79050502529616,1684,0.0,99,GPS_Atti,
0.30805426283640996,36.879379249950794,14300,2017-11-15 13:23:29,1822.7911228293203,54.700001750400006,0.0,0.684469021903008,1822.7911228293203,54.700001750400006,1.07999910588,0.79050502529616,1684,0.0,99,GPS_Atti,
0.30805423758982897,36.87937918342261,14400,2017-11-15 13:23:29,1823.3911228485206,55.3000017696,0.0,0.692199022150368,1823.3911228485206,55.3000017696,1.07999910588,0.79050502529616,1684,0.0,99,GPS_Atti,
0.308054188374587,36.879379031350496,14500,2017-11-15 13:23:29,1823.8911228645204,55.8000017856,0.0,0.70974002271168,1823.8911228645204,55.8000017856,1.07999910588,0.79050502529616,1684,0.0,99,GPS_Atti,
0.30805414742736303,36.879378897675,14600,2017-11-15 13:23:29,1824.3911228805202,56.3000018016,0.0,0.7251280232040961,1824.3911228805202,56.3000018016,1.07999910588,0.79050502529616,1684,0.0,99,GPS_Atti,
0.30805409232855296,36.8793787678466,14700,2017-11-15 13:23:29,1824.9911228997205,56.90000182080001,0.0,0.7403500236912001,1824.9911228997205,56.90000182080001,1.07999910588,0.79050502529616,1684,0.0,99,GPS_Atti,
0.30805405975030997,36.8793786812871,14800,2017-11-15 13:23:29,1825.3911229125204,57.3000018336,0.0,0.7504340240138879,1825.3911229125204,57.3000018336,1.07999910588,0.79050502529616,1684,0.0,99,GPS_Atti,
0.308054006928065,36.8793786117528,14900,2017-11-15 13:23:30,1825.8911229285204,57.8000018496,0.0,0.7590330242890561,1825.8911229285204,57.8000018496,1.07999910588,0.79050502529616,1684,0.0,99,GPS_Atti,
0.308053972851246,36.8793785650071,15000,2017-11-15 13:23:30,1826.3911229445202,58.30000186560001,0.0,0.7648020244736641,1826.3911229445202,58.30000186560001,1.07999910588,0.79050502529616,1684,0.0,99,GPS_Atti,
0.308053929242737,36.87937853853511,15100,2017-11-15 13:23:30,1826.8911229605205,58.8000018816,0.0,0.768549024593568,1826.8911229605205,58.8000018816,1.07999910588,0.79050502529616,1684,0.0,99,GPS_Atti,
0.308053912280457,36.8793785436038,15200,2017-11-15 13:23:30,1827.3911229765204,59.30000189760001,0.0,0.768332024586624,1827.3911229765204,59.30000189760001,1.07999910588,0.79050502529616,1684,0.0,99,GPS_Atti,
0.30805387614854196,36.8793785595995,15300,2017-11-15 13:23:30,1827.8911229925202,59.800001913600006,0.0,0.767318024554176,1827.8911229925202,59.800001913600006,1.07999910588,0.79050502529616,1684,0.0,99,GPS_Atti,
0.308053856568538,36.8793786033401,15400,2017-11-15 13:23:30,1828.3911230085205,60.30000192960001,0.0,0.7629490244143681,1828.3911230085205,60.30000192960001,1.07999910588,0.79050502529616,1684,0.0,99,GPS_Atti,
0.308053802023399,36.879378672817204,15500,2017-11-15 13:23:30,1828.8911230245203,60.800001945599995,0.35999970196000003,0.7565500242095999,1828.8911230245203,60.800001945599995,1.07999910588,0.79050502529616,1684,0.0,99,GPS_Atti,
0.308053766250556,36.8793787662444,15600,2017-11-15 13:23:30,1829.3911230405204,61.3000019616,0.35999970196000003,0.7471860239099521,1829.3911230405204,61.3000019616,1.07999910588,0.79050502529616,1684,0.0,99,GPS_Atti,
0.308053731434016,36.879378824317,15700,2017-11-15 13:23:30,1829.8911230565204,61.80000197760001,0.35999970196000003,0.7416880237340161,1829.8911230565204,61.80000197760001,1.07999910588,0.79050502529616,1684,0.0,99,GPS_Atti,
0.308053724916169,36.879378881364495,15800,2017-11-15 13:23:30,1830.3911230725205,62.300001993600006,0.35999970196000003,0.735648023540736,1830.3911230725205,62.300001993600006,1.07999910588,0.79050502529616,1684,0.0,99,GPS_Atti,
0.308053707807736,36.8793788911047,15900,2017-11-15 13:23:31,1830.9911230917203,62.9000020128,0.0,0.7350060235201921,1830.9911230917203,62.9000020128,1.07999910588,0.79050502529616,1684,0.0,99,GPS_Atti,
0.308053720967192,36.8793788856581,16000,2017-11-15 13:23:31,1831.4911231077206,63.4000020288,0.0,0.735277023528864,1831.4911231077206,63.4000020288,1.07999910588,0.79050502529616,1684,0.0,99,GPS_Atti,
0.308053728336716,36.8793788385334,16100,2017-11-15 13:23:31,1831.8911231205204,63.8000020416,0.0,0.740217023686944,1831.8911231205204,63.8000020416,1.07999910588,0.79050502529616,1684,0.0,99,GPS_Atti,
0.308053743818333,36.879378796939896,16200,2017-11-15 13:23:31,1832.3911231365203,64.30000205760001,0.0,0.7443700238198401,1832.3911231365203,64.30000205760001,1.07999910588,0.79050502529616,1684,0.0,99,GPS_Atti,
0.308053724588852,36.8793787390766,16300,2017-11-15 13:23:31,1832.9911231557205,64.9000020768,0.0,0.7511110240355521,1832.9911231557205,64.9000020768,1.07999910588,0.79050502529616,1684,0.0,99,GPS_Atti,
0.308053715623453,36.8793787006006,16400,2017-11-15 13:23:31,1833.4911231717203,65.40000209280001,0.0,0.755504024176128,1833.4911231717203,65.40000209280001,1.07999910588,0.79050502529616,1684,0.0,99,GPS_Atti,
0.308053694702223,36.8793786467247,16500,2017-11-15 13:23:31,1833.9911231877204,65.90000210880001,0.0,0.7618530243792961,1833.9911231877204,65.90000210880001,1.07999910588,0.79050502529616,1684,0.0,99,GPS_Atti,
0.308053698716134,36.8793786126698,16600,2017-11-15 13:23:31,1834.4911232037205,66.4000021248,0.0,0.7654590244946881,1834.4911232037205,66.4000021248,1.07999910588,0.79050502529616,1684,0.0,99,GPS_Atti,
0.30805369571043295,36.879378589166,16700,2017-11-15 13:23:31,1834.9911232197205,66.9000021408,0.0,0.768084024578688,1834.9911232197205,66.9000021408,1.07999910588,0.79050502529616,1684,0.0,99,GPS_Atti,
0.308053713452737,36.8793785816794,16800,2017-11-15 13:23:31,1835.5911232389203,67.50000216000001,0.0,0.768483024591456,1835.5911232389203,67.50000216000001,1.07999910588,0.79050502529616,1684,0.0,99,GPS_Atti,
0.308053700317098,36.8793785442633,16900,2017-11-15 13:23:32,1836.0911232549204,68.00000217600001,0.0,0.772857024731424,1836.0911232549204,68.00000217600001,1.07999910588,0.79050502529616,1684,0.0,99,GPS_Atti,
0.308053681501445,36.8793785050727,17000,2017-11-15 13:23:32,1836.5911232709204,68.500002192,0.0,0.7775580248818561,1836.5911232709204,68.500002192,1.07999910588,0.79050502529616,1684,0.0,99,GPS_Atti,
0.30805363635100297,36.8793784691635,17100,2017-11-15 13:23:32,1837.0911232869203,69.000002208,0.0,0.782532025041024,1837.0911232869203,69.000002208,1.07999910588,0.79050502529616,1684,0.0,99,GPS_Atti,
0.308053594551696,36.8793784399294,17200,2017-11-15 13:23:32,1837.5911233029206,69.500002224,0.0,0.786721025175072,1837.5911233029206,69.500002224,1.07999910588,0.79050502529616,1684,0.0,99,GPS_Atti,
0.30805350943720194,36.8793783869544,17300,2017-11-15 13:23:32,1838.0911233189204,70.00000224,0.0,0.7945970254271041,1838.0911233189204,70.00000224,1.07999910588,0.7945970254271041,1684,0.0,99,GPS_Atti,
0.308053434806428,36.8793783363647,17400,2017-11-15 13:23:32,1838.5911233349202,70.50000225600002,0.0,0.8020140256644481,1838.5911233349202,70.50000225600002,1.07999910588,0.8020140256644481,1684,0.0,99,GPS_Atti,
0.30805334670231604,36.879378263664606,17500,2017-11-15 13:23:32,1839.0911233509205,71.000002272,0.0,0.8122410259917121,1839.0911233509205,71.000002272,1.07999910588,0.8122410259917121,1684,0.0,99,GPS_Atti,
0.308053284726383,36.8793782009296,17600,2017-11-15 13:23:32,1839.6911233701203,71.6000022912,0.0,0.8207230262631361,1839.6911233701203,71.6000022912,1.07999910588,0.8207230262631361,1684,0.0,99,GPS_Atti,
0.308053225044318,36.879378141732396,17700,2017-11-15 13:23:32,1840.1911233861204,72.1000023072,0.0,0.8287890265212479,1840.1911233861204,72.1000023072,1.07999910588,0.8287890265212479,1684,0.0,99,GPS_Atti,
0.30805318600217,36.8793781118746,17800,2017-11-15 13:23:32,1840.6911234021204,72.6000023232,0.0,0.8331280266600961,1840.6911234021204,72.6000023232,1.07999910588,0.8331280266600961,1684,0.0,99,GPS_Atti,
0.308053145342366,36.879378055063704,17900,2017-11-15 13:23:33,1841.1911234181205,73.1000023392,0.0,0.840417026893344,1841.1911234181205,73.1000023392,1.07999910588,0.840417026893344,1684,0.0,99,GPS_Atti,
0.308053121896436,36.879378018658294,18000,2017-11-15 13:23:33,1841.6911234341203,73.6000023552,0.0,0.84501502704048,1841.6911234341203,73.6000023552,1.07999910588,0.84501502704048,1684,0.0,99,GPS_Atti,
0.30805306171158897,36.8793779738054,18100,2017-11-15 13:23:33,1842.1911234501206,74.1000023712,0.0,0.851629027252128,1842.1911234501206,74.1000023712,1.07999910588,0.851629027252128,1684,0.0,99,GPS_Atti,
0.308053025351284,36.8793779584172,18200,2017-11-15 13:23:33,1842.6911234661204,74.6000023872,0.0,0.8543890273404481,1842.6911234661204,74.6000023872,1.07999910588,0.8543890273404481,1684,0.0,99,GPS_Atti,
0.308053009175339,36.8793779602549,18300,2017-11-15 13:23:33,1843.1911234821202,75.1000024032,0.0,0.8546940273502082,1843.1911234821202,75.1000024032,1.07999910588,0.8546940273502082,1684,0.0,99,GPS_Atti,
0.308053025638297,36.8793779753673,18400,2017-11-15 13:23:33,1843.6911234981205,75.60000241920001,0.0,0.8525690272822081,1843.6911234981205,75.60000241920001,1.07999910588,0.8546940273502082,1684,0.0,99,GPS_Atti,
0.308052990273786,36.8793779972443,18500,2017-11-15 13:23:33,1844.1911235141204,76.10000243520001,0.0,0.851338027242816,1844.1911235141204,76.10000243520001,1.07999910588,0.8546940273502082,1684,0.0,99,GPS_Atti,
0.30805297831714,36.879378038701404,18600,2017-11-15 13:23:33,1844.6911235301204,76.6000024512,0.0,0.8472970271135041,1844.6911235301204,76.6000024512,1.07999910588,0.8546940273502082,1684,0.0,99,GPS_Atti,
0.308052957158563,36.879378074050706,18700,2017-11-15 13:23:33,1845.1911235461203,77.1000024672,0.0,0.8442100270147199,1845.1911235461203,77.1000024672,1.07999910588,0.8546940273502082,1684,0.0,99,GPS_Atti,
0.308052955225193,36.87937811993729,18800,2017-11-15 13:23:33,1845.6911235621205,77.6000024832,0.0,0.8393900268604799,1845.6911235621205,77.6000024832,1.07999910588,0.8546940273502082,1684,0.0,99,GPS_Atti,
0.30805292498051,36.8793781584395,18900,2017-11-15 13:23:34,1846.1911235781204,78.1000024992,0.0,0.836288026761216,1846.1911235781204,78.1000024992,1.07999910588,0.8546940273502082,1684,0.0,99,GPS_Atti,
0.30805291010691305,36.879378197649295,19000,2017-11-15 13:23:34,1846.6911235941202,78.6000025152,0.0,0.8326210266438722,1846.6911235941202,78.6000025152,1.07999910588,0.8546940273502082,1684,0.0,99,GPS_Atti,
0.308052855855098,36.879378201472896,19100,2017-11-15 13:23:34,1847.1911236101205,79.10000253119999,0.0,0.8340470266895041,1847.1911236101205,79.10000253119999,1.07999910588,0.8546940273502082,1684,0.0,99,GPS_Atti,
0.308052829229224,36.8793782187748,19200,2017-11-15 13:23:34,1847.6911236261203,79.60000254720002,0.0,0.8331310266601921,1847.6911236261203,79.60000254720002,1.07999910588,0.8546940273502082,1684,0.0,99,GPS_Atti,
0.308052757046815,36.8793782362045,19300,2017-11-15 13:23:34,1848.2911236453206,80.20000256640002,0.0,0.8338250266824,1848.2911236453206,80.20000256640002,1.07999910588,0.8546940273502082,1684,0.0,99,GPS_Atti,
0.30805271267517703,36.879378263095106,19400,2017-11-15 13:23:34,1848.7911236613204,80.7000025824,0.0,0.8325910266429121,1848.7911236613204,80.7000025824,1.07999910588,0.8546940273502082,1684,0.0,99,GPS_Atti,
0.308052631364729,36.8793782579214,19500,2017-11-15 13:23:34,1849.2911236773202,81.2000025984,0.0,0.836129026756128,1849.2911236773202,81.2000025984,1.07999910588,0.8546940273502082,1684,0.0,99,GPS_Atti,
0.308052595493568,36.8793782687542,19600,2017-11-15 13:23:34,1849.7911236933205,81.7000026144,0.0,0.836346026763072,1849.7911236933205,81.7000026144,1.07999910588,0.8546940273502082,1684,0.0,99,GPS_Atti,
0.30805254273788596,36.8793782721999,19700,2017-11-15 13:23:34,1850.2911237093203,82.20000263040001,0.0,0.8380030268160961,1850.2911237093203,82.20000263040001,1.07999910588,0.8546940273502082,1684,0.0,99,GPS_Atti,
0.308052514196555,36.8793783019586,19800,2017-11-15 13:23:35,1850.7911237253204,82.70000264640001,0.0,0.8360110267523522,1850.7911237253204,82.70000264640001,1.07999910588,0.8546940273502082,1684,0.0,99,GPS_Atti,
0.30805244563845197,36.879378343781795,19900,2017-11-15 13:23:35,1851.3911237445204,83.3000026656,0.0,0.834384026700288,1851.3911237445204,83.3000026656,1.07999910588,0.8546940273502082,1684,0.0,99,GPS_Atti,
0.308052405127447,36.8793783811936,20000,2017-11-15 13:23:35,1851.8911237605205,83.8000026816,0.0,0.8321530266288961,1851.8911237605205,83.8000026816,1.07999910588,0.8546940273502082,1608,0.0,99,GPS_Atti,
0.308052379896539,36.8793783663685,20100,2017-11-15 13:23:35,1852.3911237765203,84.30000269760001,0.0,0.8347210267110721,1852.3911237765203,84.30000269760001,1.07999910588,0.8546940273502082,1096,0.0,99,GPS_Atti,
0.308052397524853,36.879378355118796,20200,2017-11-15 13:23:35,1852.8911237925206,84.8000027136,0.0,0.835161026725152,1852.8911237925206,84.8000027136,1.07999910588,0.8546940273502082,1024,0.0,99,GPS_Atti,
0.30805237188622303,36.879378343743795,20300,2017-11-15 13:23:35,1853.2911238053205,85.20000272640002,0.0,0.837388026796416,1853.2911238053205,85.20000272640002,1.07999910588,0.8546940273502082,1024,0.0,99,GPS_Atti,
0.308052362667195,36.87937834336321,20400,2017-11-15 13:23:35,1853.6911238181206,85.60000273920001,0.0,0.837807026809824,1853.6911238181206,85.60000273920001,1.07999910588,0.8546940273502082,1024,0.0,99,GPS_Atti,
0.308052337283824,36.8793782988865,20500,2017-11-15 13:23:35,1853.9911238277202,85.9000027488,0.0,0.8434480269903362,1853.9911238277202,85.9000027488,1.07999910588,0.8546940273502082,1024,0.0,99,GPS_Atti,
0.30805232323686604,36.8793782515364,20600,2017-11-15 13:23:35,1854.1911238341204,86.10000275520001,0.0,0.848917027165344,1854.1911238341204,86.10000275520001,1.07999910588,0.8546940273502082,1024,0.0,99,GPS_Atti,
0.308052207246464,36.8793781845335,20700,2017-11-15 13:23:35,1854.2911238373204,86.2000027584,0.0,0.860674027541568,1854.2911238373204,86.2000027584,1.07999910588,0.860674027541568,1024,0.0,99,GPS_Atti,
0.30805211523225395,36.8793781257377,20800,2017-11-15 13:23:35,1854.3911238405205,86.3000027616,0.0,0.870647027860704,1854.3911238405205,86.3000027616,1.07999910588,0.870647027860704,1024,0.0,99,GPS_Atti,
0.30805203866526,36.879378087821706,20900,2017-11-15 13:23:36,1854.3911238405205,86.3000027616,0.0,0.877863028091616,1854.3911238405205,86.3000027616,1.07999910588,0.877863028091616,1024,0.0,99,GPS_Atti,
0.308052002617617,36.8793780549331,21000,2017-11-15 13:23:36,1854.2911238373204,86.2000027584,0.0,0.8828100282499202,1854.3911238405205,86.3000027616,1.07999910588,0.8828100282499202,1024,0.0,99,GPS_Atti,
0.30805192282864396,36.879378005872205,21100,2017-11-15 13:23:36,1854.2911238373204,86.2000027584,0.0,0.8913630285236159,1854.3911238405205,86.3000027616,1.07999910588,0.8913630285236159,1024,0.0,99,GPS_Atti,
0.308051870009453,36.8793779554035,21200,2017-11-15 13:23:36,1854.2911238373204,86.2000027584,0.0,0.898874028763968,1854.3911238405205,86.3000027616,1.07999910588,0.898874028763968,1024,0.0,99,GPS_Atti,
0.308051823051947,36.879377903622796,21300,2017-11-15 13:23:36,1854.1911238341204,86.10000275520001,0.0,0.9062610290003521,1854.3911238405205,86.3000027616,1.07999910588,0.9062610290003521,1024,0.0,99,GPS_Atti,
0.30805179486256296,36.8793778691797,21400,2017-11-15 13:23:36,1854.1911238341204,86.10000275520001,0.0,0.9110400291532801,1854.3911238405205,86.3000027616,1.07999910588,0.9110400291532801,1024,0.0,99,GPS_Atti,
0.30805171626551003,36.8793778717914,21500,2017-11-15 13:23:36,1854.1911238341204,86.10000275520001,0.0,0.914399029260768,1854.3911238405205,86.3000027616,1.07999910588,0.914399029260768,1024,0.0,99,GPS_Atti,
0.30805166556818103,36.8793778736709,21600,2017-11-15 13:23:36,1854.0911238309204,86.000002752,0.0,0.916583029330656,1854.3911238405205,86.3000027616,1.07999910588,0.916583029330656,1024,0.0,99,GPS_Atti,
0.30805160834516804,36.8793778658223,21700,2017-11-15 13:23:36,1854.0911238309204,86.000002752,0.0,0.9200860294427522,1854.3911238405205,86.3000027616,1.07999910588,0.9200860294427522,1024,0.0,99,GPS_Atti,
0.308051603194909,36.879377867364,21800,2017-11-15 13:23:36,1854.0911238309204,86.000002752,0.35999970196000003,0.9201770294456639,1854.3911238405205,86.3000027616,1.07999910588,0.9201770294456639,1024,0.0,99,GPS_Atti,
0.308051631093208,36.8793778475292,21900,2017-11-15 13:23:37,1854.0911238309204,86.000002752,0.35999970196000003,0.9208440294670079,1854.3911238405205,86.3000027616,1.07999910588,0.9208440294670079,1024,0.0,98,GPS_Atti,
0.308051689486258,36.8793778383296,22000,2017-11-15 13:23:37,1854.0911238309204,86.000002752,0.35999970196000003,0.9190250294088002,1854.3911238405205,86.3000027616,1.07999910588,0.9208440294670079,1024,0.0,98,GPS_Atti,
0.308051702117487,36.8793778354968,22100,2017-11-15 13:23:37,1854.0911238309204,86.000002752,0.35999970196000003,0.9187230293991361,1854.3911238405205,86.3000027616,1.07999910588,0.9208440294670079,1024,0.0,98,GPS_Atti,
0.308051738919813,36.8793778383842,22200,2017-11-15 13:23:37,1854.0911238309204,86.000002752,0.35999970196000003,0.9167260293352321,1854.3911238405205,86.3000027616,1.07999910588,0.9208440294670079,1024,0.0,98,GPS_Atti,
0.30805173681403103,36.879377787355,22300,2017-11-15 13:23:37,1854.0911238309204,86.000002752,0.35999970196000003,0.9219900295036801,1854.3911238405205,86.3000027616,1.07999910588,0.9219900295036801,1024,0.0,98,GPS_Atti,
0.308051765327271,36.879377728207004,22400,2017-11-15 13:23:37,1854.0911238309204,86.000002752,0.35999970196000003,0.92669002965408,1854.3911238405205,86.3000027616,1.07999910588,0.92669002965408,1024,0.0,98,GPS_Atti,
0.30805175312544203,36.879377630302,22500,2017-11-15 13:23:37,1854.1911238341204,86.10000275520001,0.35999970196000003,0.9371920299901441,1854.3911238405205,86.3000027616,1.07999910588,0.9371920299901441,1024,0.0,98,GPS_Atti,
0.308051778202055,36.8793775588176,22600,2017-11-15 13:23:37,1854.1911238341204,86.10000275520001,0.35999970196000003,0.94335503018736,1854.3911238405205,86.3000027616,1.07999910588,0.94335503018736,1024,0.0,98,GPS_Atti,
0.308051766255484,36.8793774561886,22700,2017-11-15 13:23:37,1854.1911238341204,86.10000275520001,0.35999970196000003,0.9543580305394561,1854.3911238405205,86.3000027616,1.07999910588,0.9543580305394561,1024,0.0,98,GPS_Atti,
0.308051788012514,36.8793773873833,22800,2017-11-15 13:23:38,1854.1911238341204,86.10000275520001,0.35999970196000003,0.96044503073424,1854.3911238405205,86.3000027616,1.07999910588,0.96044503073424,1024,0.0,98,GPS_Atti,
0.308051762811223,36.8793773262033,22900,2017-11-15 13:23:38,1854.1911238341204,86.10000275520001,0.35999970196000003,0.967802030969664,1854.3911238405205,86.3000027616,1.07999910588,0.967802030969664,1024,0.0,98,GPS_Atti,
0.308051769493136,36.8793772910334,23000,2017-11-15 13:23:38,1854.1911238341204,86.10000275520001,0.35999970196000003,0.9711160310757121,1854.3911238405205,86.3000027616,1.07999910588,0.9711160310757121,1024,0.0,98,GPS_Atti,
0.308051729608064,36.8793772055054,23100,2017-11-15 13:23:38,1854.0911238309204,86.000002752,0.35999970196000003,0.9816030314112961,1854.3911238405205,86.3000027616,1.07999910588,0.9816030314112961,1024,0.0,98,GPS_Atti,
0.30805172453251,36.879377148941295,23200,2017-11-15 13:23:38,1854.0911238309204,86.000002752,0.0,0.987621031603872,1854.3911238405205,86.3000027616,1.07999910588,0.987621031603872,1024,0.0,98,GPS_Atti,
0.30805168511429304,36.8793770808619,23300,2017-11-15 13:23:38,1854.0911238309204,86.000002752,0.0,0.9962980318815361,1854.3911238405205,86.3000027616,1.07999910588,0.9962980318815361,1024,0.0,98,GPS_Atti,
0.308051677944763,36.879377041485,23400,2017-11-15 13:23:38,1854.0911238309204,86.000002752,0.0,1.00064003202048,1854.3911238405205,86.3000027616,1.07999910588,1.00064003202048,1024,0.0,98,GPS_Atti,
0.308051616449323,36.879377027939896,23500,2017-11-15 13:23:38,1854.0911238309204,86.000002752,0.0,1.00469003215008,1854.3911238405205,86.3000027616,1.07999910588,1.00469003215008,1024,0.0,98,GPS_Atti,
0.30805159257928605,36.8793770453552,23600,2017-11-15 13:23:38,1854.0911238309204,86.000002752,0.0,1.00396003212672,1854.3911238405205,86.3000027616,1.07999910588,1.00469003215008,1024,0.0,98,GPS_Atti,
0.308051553641968,36.8793770753676,23700,2017-11-15 13:23:38,1854.0911238309204,86.000002752,0.0,1.0026200320838399,1854.3911238405205,86.3000027616,1.07999910588,1.00469003215008,1024,0.0,98,GPS_Atti,
0.308051552476918,36.8793771210829,23800,2017-11-15 13:23:38,1853.9911238277202,85.9000027488,0.0,0.99801003193632,1854.3911238405205,86.3000027616,1.07999910588,1.00469003215008,1024,0.0,98,GPS_Atti,
0.308051521141585,36.8793771406442,23900,2017-11-15 13:23:39,1853.9911238277202,85.9000027488,0.0,0.9974260319176321,1854.3911238405205,86.3000027616,1.07999910588,1.00469003215008,1024,0.0,98,GPS_Atti,
0.30805151056697805,36.8793771828887,24000,2017-11-15 13:23:39,1853.9911238277202,85.9000027488,0.5075995797636,0.993613031795616,1854.3911238405205,86.3000027616,1.07999910588,1.00469003215008,1024,0.0,98,GPS_Atti,
0.30805147889649104,36.8793771820906,24100,2017-11-15 13:23:39,1853.9911238277202,85.9000027488,0.35999970196000003,0.9951370318443841,1854.3911238405205,86.3000027616,1.07999910588,1.00469003215008,1024,0.0,98,GPS_Atti,
0.30805149338363697,36.879377213700295,24200,2017-11-15 13:23:39,1854.0911238309204,86.000002752,0.35999970196000003,0.9912700317206401,1854.3911238405205,86.3000027616,1.07999910588,1.00469003215008,1024,0.0,98,GPS_Atti,
0.308051452189195,36.8793772000626,24300,2017-11-15 13:23:39,1854.0911238309204,86.000002752,0.5075995797636,0.9945420318253441,1854.3911238405205,86.3000027616,1.07999910588,1.00469003215008,1024,0.0,98,GPS_Atti,
0.308051448118187,36.8793772116431,24400,2017-11-15 13:23:39,1854.0911238309204,86.000002752,0.5075995797636,0.993558031793856,1854.3911238405205,86.3000027616,1.07999910588,1.00469003215008,1024,0.0,98,GPS_Atti,
0.308051388291699,36.879377167048204,24500,2017-11-15 13:23:39,1854.0911238309204,86.000002752,0.5075995797636,1.00084003202688,1854.3911238405205,86.3000027616,1.07999910588,1.00469003215008,1024,0.0,98,GPS_Atti,
0.30805136927381394,36.8793771515835,24600,2017-11-15 13:23:39,1854.1911238341204,86.10000275520001,0.35999970196000003,1.0032900321052802,1854.3911238405205,86.3000027616,1.07999910588,1.00469003215008,1024,0.0,98,GPS_Atti,
0.308051324969349,36.879377103570704,24700,2017-11-15 13:23:39,1854.1911238341204,86.10000275520001,0.35999970196000003,1.01021003232672,1854.3911238405205,86.3000027616,1.07999910588,1.01021003232672,1024,0.0,98,GPS_Atti,
0.3080513119935,36.879377098247794,24800,2017-11-15 13:23:39,1854.1911238341204,86.10000275520001,0.35999970196000003,1.0113500323632,1854.3911238405205,86.3000027616,1.07999910588,1.0113500323632,1024,0.0,98,GPS_Atti,
0.30805123014566493,36.87937707276021,24900,2017-11-15 13:23:40,1854.1911238341204,86.10000275520001,0.35999970196000003,1.0177900325692801,1854.3911238405205,86.3000027616,1.07999910588,1.0177900325692801,1024,0.0,98,GPS_Atti,
0.308051187738439,36.87937708199829,25000,2017-11-15 13:23:40,1854.1911238341204,86.10000275520001,0.35999970196000003,1.0189000326048,1854.3911238405205,86.3000027616,1.07999910588,1.0189000326048,1024,0.0,98,GPS_Atti,
0.30805109350557597,36.8793770989324,25100,2017-11-15 13:23:40,1854.1911238341204,86.10000275520001,0.35999970196000003,1.0218000326976,1854.3911238405205,86.3000027616,1.07999910588,1.0218000326976,1024,-0.1,98,GPS_Atti,
0.30805103562538394,36.8793771386963,25200,2017-11-15 13:23:40,1854.1911238341204,86.10000275520001,0.35999970196000003,1.02071003266272,1854.3911238405205,86.3000027616,1.07999910588,1.0218000326976,1024,-0.3,98,GPS_Atti,
0.30805094038965297,36.87937717536239,25300,2017-11-15 13:23:40,1854.1911238341204,86.10000275520001,0.35999970196000003,1.02188003270016,1854.3911238405205,86.3000027616,1.07999910588,1.02188003270016,1024,-0.5,98,GPS_Atti,
0.308050896895848,36.8793772168216,25400,2017-11-15 13:23:40,1854.2911238373204,86.2000027584,0.35999970196000003,1.02003003264096,1854.3911238405205,86.3000027616,1.07999910588,1.02188003270016,1024,-0.5,98,GPS_Atti,
0.30805079424438697,36.8793772471263,25500,2017-11-15 13:23:40,1854.1911238341204,86.10000275520001,0.35999970196000003,1.02241003271712,1854.3911238405205,86.3000027616,1.07999910588,1.02241003271712,1024,-0.5,98,GPS_Atti,
0.308050734855492,36.8793772840686,25600,2017-11-15 13:23:40,1854.1911238341204,86.10000275520001,0.35999970196000003,1.02196003270272,1854.3911238405205,86.3000027616,1.07999910588,1.02241003271712,1024,-2.4,98,GPS_Atti,
0.308050639843724,36.8793773195732,25700,2017-11-15 13:23:40,1854.1911238341204,86.10000275520001,0.35999970196000003,1.02364003275648,1854.3911238405205,86.3000027616,1.07999910588,1.02364003275648,1024,-7.9,98,GPS_Atti,
0.30805058755095194,36.8793773651878,25800,2017-11-15 13:23:41,1854.1911238341204,86.10000275520001,0.35999970196000003,1.02211003270752,1854.3911238405205,86.3000027616,1.07999910588,1.02364003275648,1024,-7.9,98,GPS_Atti,
0.308050508589331,36.879377390022896,25900,2017-11-15 13:23:41,1854.1911238341204,86.10000275520001,0.35999970196000003,1.02412003277184,1854.3911238405205,86.3000027616,1.07999910588,1.02412003277184,1024,-13.2,98,GPS_Atti,
0.308050468599861,36.8793774240029,26000,2017-11-15 13:23:41,1854.1911238341204,86.10000275520001,0.35999970196000003,1.02312003273984,1854.3911238405205,86.3000027616,1.07999910588,1.02412003277184,1024,-18.4,98,GPS_Atti,
0.3080504176102,36.879377456791296,26100,2017-11-15 13:23:41,1854.1911238341204,86.10000275520001,0.35999970196000003,1.0228900327324801,1854.3911238405205,86.3000027616,1.07999910588,1.02412003277184,1024,-23.7,98,GPS_Atti,
0.30805041858678306,36.8793774860854,26200,2017-11-15 13:23:41,1854.1911238341204,86.10000275520001,0.35999970196000003,1.0200400326412802,1854.3911238405205,86.3000027616,1.07999910588,1.02412003277184,1024,-27.6,98,GPS_Atti,
0.308050361764253,36.8793774645708,26300,2017-11-15 13:23:41,1854.0911238309204,86.000002752,0.35999970196000003,1.02537003281184,1854.3911238405205,86.3000027616,1.07999910588,1.02537003281184,1024,-27.6,98,GPS_Atti,
0.308050340251779,36.8793774385624,26400,2017-11-15 13:23:41,1854.0911238309204,86.000002752,0.35999970196000003,1.02908003293056,1854.3911238405205,86.3000027616,1.07999910588,1.02908003293056,1024,-27.6,98,GPS_Atti,
0.308050270885329,36.879377416863605,26500,2017-11-15 13:23:41,1854.0911238309204,86.000002752,0.35999970196000003,1.03517003312544,1854.3911238405205,86.3000027616,1.07999910588,1.03517003312544,1024,-27.6,98,GPS_Atti,
0.308050249530417,36.8793774085601,26600,2017-11-15 13:23:41,1854.0911238309204,86.000002752,0.35999970196000003,1.0372000331904,1854.3911238405205,86.3000027616,1.07999910588,1.0372000331904,1024,-27.6,98,GPS_Atti,
0.308050210291545,36.8793773661289,26700,2017-11-15 13:23:41,1854.0911238309204,86.000002752,0.35999970196000003,1.04351003339232,1854.3911238405205,86.3000027616,1.07999910588,1.04351003339232,1024,-27.6,98,GPS_Atti,
0.308050221443829,36.879377328126104,26800,2017-11-15 13:23:42,1854.0911238309204,86.000002752,0.35999970196000003,1.04646003348672,1854.3911238405205,86.3000027616,1.07999910588,1.04646003348672,1024,-27.6,98,GPS_Atti,
0.308050173766055,36.8793772508386,26900,2017-11-15 13:23:42,1854.0911238309204,86.000002752,0.35999970196000003,1.0565500338096,1854.3911238405205,86.3000027616,1.07999910588,1.0565500338096,1024,-27.6,98,GPS_Atti,
0.3080501649224339,36.8793771825381,27000,2017-11-15 13:23:42,1854.0911238309204,86.000002752,0.35999970196000003,1.0635400340332801,1854.3911238405205,86.3000027616,1.07999910588,1.0635400340332801,1024,-27.6,98,GPS_Atti,
0.308050131400825,36.879377100944,27100,2017-11-15 13:23:42,1854.0911238309204,86.000002752,0.35999970196000003,1.07323003434336,1854.3911238405205,86.3000027616,1.07999910588,1.07323003434336,1024,-27.9,98,GPS_Atti,
0.30805013557375105,36.87937704361279,27200,2017-11-15 13:23:42,1854.0911238309204,86.000002752,0.0,1.0784300345097602,1854.3911238405205,86.3000027616,1.07999910588,1.0784300345097602,1024,-28.1,98,GPS_Atti,
0.308050069876646,36.879376984123894,27300,2017-11-15 13:23:42,1854.0911238309204,86.000002752,0.0,1.08788003481216,1854.3911238405205,86.3000027616,1.07999910588,1.08788003481216,1024,-28.1,98,GPS_Atti,
0.308050036883302,36.8793769418992,27400,2017-11-15 13:23:42,1854.0911238309204,86.000002752,0.0,1.0938000350016,1854.3911238405205,86.3000027616,1.07999910588,1.0938000350016,1024,-28.4,98,GPS_Atti,
0.308049973169642,36.879376854457604,27500,2017-11-15 13:23:42,1854.0911238309204,86.000002752,0.0,1.10579003538528,1854.3911238405205,86.3000027616,1.07999910588,1.10579003538528,1024,-28.7,98,GPS_Atti,
0.308049945362027,36.8793767751654,27600,2017-11-15 13:23:42,1854.0911238309204,86.000002752,0.0,1.11493003567776,1854.3911238405205,86.3000027616,1.07999910588,1.11493003567776,1024,-29.0,98,GPS_Atti,
0.308049840004295,36.8793766803003,27700,2017-11-15 13:23:42,1854.0911238309204,86.000002752,0.0,1.1300400361612801,1854.3911238405205,86.3000027616,1.07999910588,1.1300400361612801,1024,-29.2,98,GPS_Atti,
0.308049763727673,36.8793766057658,27800,2017-11-15 13:23:42,1854.1911238341204,86.10000275520001,0.0,1.1415500365296,1854.3911238405205,86.3000027616,1.07999910588,1.1415500365296,1024,-29.5,98,GPS_Atti,
0.30804965457831396,36.879376508296,27900,2017-11-15 13:23:43,1854.1911238341204,86.10000275520001,0.0,1.15716003702912,1854.3911238405205,86.3000027616,1.07999910588,1.15716003702912,1024,-29.7,98,GPS_Atti,
0.30804959831755796,36.8793764335746,28000,2017-11-15 13:23:43,1854.1911238341204,86.10000275520001,0.0,1.16752003736064,1854.3911238405205,86.3000027616,1.07999910588,1.16752003736064,1024,-30.0,98,GPS_Atti,
0.30804952222250803,36.8793763595957,28100,2017-11-15 13:23:43,1854.1911238341204,86.10000275520001,0.0,1.17898003772736,1854.3911238405205,86.3000027616,1.07999910588,1.17898003772736,1024,-30.1,98,GPS_Atti,
0.30804950136478604,36.8793763110969,28200,2017-11-15 13:23:43,1854.1911238341204,86.10000275520001,0.0,1.18478003791296,1854.3911238405205,86.3000027616,1.07999910588,1.18478003791296,1024,-30.1,98,GPS_Atti,
0.30804943098272397,36.8793762350625,28300,2017-11-15 13:23:43,1854.1911238341204,86.10000275520001,0.0,1.19611003827552,1854.3911238405205,86.3000027616,1.07999910588,1.19611003827552,1024,-30.1,98,GPS_Atti,
0.30804941615228104,36.879376185576,28400,2017-11-15 13:23:43,1854.1911238341204,86.10000275520001,0.0,1.2016400384524801,1854.3911238405205,86.3000027616,1.07999910588,1.2016400384524801,1024,-30.1,98,GPS_Atti,
0.308049370706175,36.879376134076296,28500,2017-11-15 13:23:43,1854.1911238341204,86.10000275520001,0.0,1.2091800386937601,1854.3911238405205,86.3000027616,1.07999910588,1.2091800386937601,1024,-30.1,98,GPS_Atti,
