latitude,longitude,time_millisecond,datetime_utc,altitude_m,ascent_m,speed_kph,distance_m,max_altitude_m,max_ascent_m,max_speed_kph,max_distance_m,rc_throttle,gimbal_pitch_degrees,battery_percent,flycState,message
0.368327474062397,36.910457119392,100,2017-11-07 06:10:47,1659.104911491369,0.0,0.0,0.0,1659.104911491369,0.0,0.0,0.0,1024,0.0,100,Motors_Started,
0.368327462866234,36.910457068257706,200,2017-11-07 06:10:47,1659.104911491369,0.0,0.0,0.00582104018627328,1659.104911491369,0.0,0.0,0.00582104018627328,1024,0.0,100,Motors_Started,
0.36832743913125604,36.9104570177455,300,2017-11-07 06:10:47,1659.104911491369,0.0,0.0,0.0119523003824736,1659.104911491369,0.0,0.0,0.0119523003824736,1024,0.0,100,Motors_Started,
0.36832741193807295,36.9104570073275,400,2017-11-07 06:10:47,1659.104911491369,0.0,0.0,0.0142489004559648,1659.104911491369,0.0,0.0,0.0142489004559648,1024,0.0,100,Motors_Started,
0.368327376818236,36.9104569872797,500,2017-11-07 06:10:47,1659.104911491369,0.0,0.0,0.0182423005837536,1659.104911491369,0.0,0.0,0.0182423005837536,1024,0.0,100,Motors_Started,
0.3683272927296621,36.910456859163205,700,2017-11-07 06:10:47,1659.104911491369,0.0,0.0,0.0352714011286848,1659.104911491369,0.0,0.0,0.0352714011286848,1024,0.0,100,Motors_Started,
0.368327244988366,36.91045683518,800,2017-11-07 06:10:47,1659.104911491369,0.0,0.0,0.0405937012989984,1659.104911491369,0.0,0.0,0.0405937012989984,404,0.0,100,Motors_Started,Setting new Return-To-Home altitude to 30m (98 ft). Setting new Maximum Flight Altitude to 100m (328 ft)
0.36832719641961703,36.9104568055191,900,2017-11-07 06:10:47,1659.104911491369,0.0,0.0,0.0466002014912064,1659.104911491369,0.0,0.0,0.0466002014912064,1012,0.0,100,Motors_Started,
0.3683271866904779,36.9104567693598,1000,2017-11-07 06:10:48,1659.104911491369,0.0,0.0,0.050363001611616005,1659.104911491369,0.0,0.0,0.050363001611616005,1024,0.0,100,Motors_Started,
0.368327165706552,36.9104567306784,1100,2017-11-07 06:10:48,1659.104911491369,0.0,0.0,0.055176101765635206,1659.104911491369,0.0,0.0,0.055176101765635206,1024,0.0,100,Motors_Started,
0.36832713410578205,36.910456730894396,1200,2017-11-07 06:10:48,1659.104911491369,0.0,0.0,0.05740810183705921,1659.104911491369,0.0,0.0,0.05740810183705921,1024,0.0,100,Motors_Started,
0.36832710193872104,36.910456717058004,1300,2017-11-07 06:10:48,1659.104911491369,0.0,0.0,0.06094480195023361,1659.104911491369,0.0,0.0,0.06094480195023361,1024,0.0,100,Motors_Started,
0.368327058112611,36.910456691602,1400,2017-11-07 06:10:48,1659.104911491369,0.0,0.0,0.06635300212329599,1659.104911491369,0.0,0.0,0.06635300212329599,1024,0.0,100,Motors_Started,
0.36832701619585206,36.9104566615586,1500,2017-11-07 06:10:48,1659.104911491369,0.0,0.0,0.0720049023041568,1659.104911491369,0.0,0.0,0.0720049023041568,1024,0.0,100,Assisted_Takeoff,
0.368326964593719,36.9104566238455,1600,2017-11-07 06:10:48,1659.104911491369,0.0,0.0,0.07903570252914241,1659.104911491369,0.0,0.0,0.07903570252914241,1024,0.0,100,Assisted_Takeoff,
0.36832691487162394,36.9104565823168,1700,2017-11-07 06:10:48,1659.104911491369,0.0,0.0,0.0862211027590752,1659.104911491369,0.0,0.0,0.0862211027590752,1024,0.0,100,Assisted_Takeoff,
0.368326855561861,36.9104565729939,1800,2017-11-07 06:10:48,1659.104911491369,0.0,0.0,0.0917758029368256,1659.104911491369,0.0,0.0,0.0917758029368256,1024,0.0,100,Assisted_Takeoff,
0.36832680224233,36.910456555498904,1900,2017-11-07 06:10:48,1659.104911491369,0.0,0.0,0.09753890312124479,1659.104911491369,0.0,0.0,0.09753890312124479,1024,0.0,100,Assisted_Takeoff,
0.368326785707924,36.9104565230011,2000,2017-11-07 06:10:49,1659.104911491369,0.0,0.0,0.101283003241056,1659.104911491369,0.0,0.0,0.101283003241056,1024,0.0,100,Assisted_Takeoff,
0.368326761271086,36.9104564904809,2100,2017-11-07 06:10:49,1659.104911491369,0.0,0.0,0.10570900338268802,1659.104911491369,0.0,0.0,0.10570900338268802,1024,0.0,100,Assisted_Takeoff,
0.36832673317615294,36.9104564420253,2200,2017-11-07 06:10:49,1659.104911491369,0.0,0.0,0.111634003572288,1659.104911491369,0.0,0.0,0.111634003572288,1024,0.0,100,Assisted_Takeoff,
0.36832669712097793,36.9104563988778,2300,2017-11-07 06:10:49,1659.104911491369,0.0,0.0,0.117834003770688,1659.104911491369,0.0,0.0,0.117834003770688,1024,0.0,100,Assisted_Takeoff,
0.36832665533714004,36.910456381607105,2400,2017-11-07 06:10:49,1659.104911491369,0.0,0.0,0.12256000392192001,1659.104911491369,0.0,0.0,0.12256000392192001,1024,0.0,100,Assisted_Takeoff,
0.36832661036481,36.910456361353205,2500,2017-11-07 06:10:49,1659.104911491369,0.0,0.0,0.127794004089408,1659.104911491369,0.0,0.0,0.127794004089408,1024,0.0,100,Assisted_Takeoff,
0.36832656021708005,36.910456326451296,2600,2017-11-07 06:10:49,1659.104911491369,0.0,0.0,0.134548004305536,1659.104911491369,0.0,0.0,0.134548004305536,1024,0.0,100,Assisted_Takeoff,
0.36832650856955396,36.910456292350794,2700,2017-11-07 06:10:49,1659.104911491369,0.0,0.0,0.141374004523968,1659.104911491369,0.0,0.0,0.141374004523968,1024,0.0,100,Assisted_Takeoff,
0.368326492939749,36.9104562829056,2800,2017-11-07 06:10:49,1659.104911491369,0.0,0.0,0.14337700458806402,1659.104911491369,0.0,0.0,0.14337700458806402,1024,0.0,100,Assisted_Takeoff,
0.368326467747516,36.910456269631794,2900,2017-11-07 06:10:49,1659.104911491369,0.0,0.0,0.14646900468700802,1659.104911491369,0.0,0.0,0.14646900468700802,1024,0.0,100,Assisted_Takeoff,
0.36832643770313206,36.9104562771133,3000,2017-11-07 06:10:50,1659.104911491369,0.0,0.0,0.148511004752352,1659.104911491369,0.0,0.0,0.148511004752352,1024,0.0,100,Assisted_Takeoff,
0.368326401504654,36.9104562783704,3100,2017-11-07 06:10:50,1659.104911491369,0.0,0.0,0.15157000485024003,1659.104911491369,0.0,0.0,0.15157000485024003,1024,0.0,100,Assisted_Takeoff,
0.36832635923207996,36.9104562580624,3200,2017-11-07 06:10:50,1659.104911491369,0.0,0.0,0.15666700501334402,1659.104911491369,0.0,0.0,0.15666700501334402,1024,0.0,100,Assisted_Takeoff,
0.368326313837371,36.9104562369365,3300,2017-11-07 06:10:50,1659.104911491369,0.0,0.0,0.162102005187264,1659.104911491369,0.0,0.0,0.162102005187264,1024,0.0,100,Assisted_Takeoff,
0.36832630090793295,36.910456230448,3400,2017-11-07 06:10:50,1659.104911491369,0.0,0.0,0.16368400523788798,1659.104911491369,0.0,0.0,0.16368400523788798,1024,0.0,100,Assisted_Takeoff,
0.36832627908678295,36.9104562226916,3500,2017-11-07 06:10:50,1659.104911491369,0.0,0.0,0.166141005316512,1659.104911491369,0.0,0.0,0.166141005316512,1024,0.0,100,Assisted_Takeoff,
0.36832624994191104,36.9104561886953,3600,2017-11-07 06:10:50,1659.104911491369,0.0,0.0,0.171006005472192,1659.104911491369,0.0,0.0,0.171006005472192,1024,0.0,100,Assisted_Takeoff,
0.3683262134267,36.910456159457794,3700,2017-11-07 06:10:50,1659.104911491369,0.0,0.0,0.176206005638592,1659.104911491369,0.0,0.0,0.176206005638592,1024,0.0,100,Assisted_Takeoff,
0.36832620753621104,36.910456144920104,3800,2017-11-07 06:10:50,1659.104911491369,0.0,0.0,0.17770900568668802,1659.104911491369,0.0,0.0,0.17770900568668802,1024,0.0,100,Assisted_Takeoff,
0.36832619214985796,36.9104561318369,3900,2017-11-07 06:10:51,1659.104911491369,0.0,0.0,0.179952005758464,1659.104911491369,0.0,0.0,0.179952005758464,1024,0.0,100,Assisted_Takeoff,
0.3683261668507589,36.910456094465395,4000,2017-11-07 06:10:51,1659.104911491369,0.0,0.0,0.18472400591116803,1659.104911491369,0.0,0.0,0.18472400591116803,1024,0.0,100,Assisted_Takeoff,
0.36832613512582,36.9104560630251,4100,2017-11-07 06:10:51,1659.104911491369,0.0,0.0,0.18965800606905603,1659.104911491369,0.0,0.0,0.18965800606905603,1024,0.0,100,Assisted_Takeoff,
0.3683261302750929,36.910456046195605,4200,2017-11-07 06:10:51,1659.104911491369,0.0,0.0,0.19124400611980802,1659.104911491369,0.0,0.0,0.19124400611980802,1024,0.0,100,Assisted_Takeoff,
0.36832611536506,36.9104560319769,4300,2017-11-07 06:10:51,1659.104911491369,0.0,0.0,0.193527006192864,1659.104911491369,0.0,0.0,0.193527006192864,1024,0.0,100,Assisted_Takeoff,
0.368326085626008,36.9104559924056,4400,2017-11-07 06:10:51,1659.104911491369,0.0,0.0,0.198863006363616,1659.104911491369,0.0,0.0,0.198863006363616,1024,0.0,100,Assisted_Takeoff,
0.368326051828467,36.910455959786,4500,2017-11-07 06:10:51,1659.104911491369,0.0,0.0,0.204068006530176,1659.104911491369,0.0,0.0,0.204068006530176,1024,0.0,100,Assisted_Takeoff,
0.368326005482544,36.910455943643,4600,2017-11-07 06:10:51,1659.104911491369,0.0,0.0,0.20920500669456002,1659.104911491369,0.0,0.0,0.20920500669456002,1024,0.0,100,Assisted_Takeoff,
0.368325958848793,36.910455927560704,4700,2017-11-07 06:10:51,1659.104911491369,0.0,0.0,0.21437900686012806,1659.104911491369,0.0,0.0,0.21437900686012806,1024,0.0,100,Assisted_Takeoff,
0.368325939552139,36.9104558876866,4800,2017-11-07 06:10:51,1659.104911491369,0.0,0.0,0.218818007002176,1659.104911491369,0.0,0.0,0.218818007002176,1024,0.0,100,Assisted_Takeoff,
0.368325914509113,36.9104558524339,4900,2017-11-07 06:10:51,1659.104911491369,0.0,0.0,0.22344700715030402,1659.104911491369,0.0,0.0,0.22344700715030402,1024,0.0,100,Assisted_Takeoff,
0.36832591610539506,36.9104558333178,5000,2017-11-07 06:10:52,1659.104911491369,0.0,0.0,0.22465700718902404,1659.104911491369,0.0,0.0,0.22465700718902404,1024,0.0,100,Assisted_Takeoff,
0.368325906756905,36.9104558157449,5100,2017-11-07 06:10:52,1659.104911491369,0.0,0.0,0.22670400725452802,1659.104911491369,0.0,0.0,0.22670400725452802,1024,0.0,100,Assisted_Takeoff,
0.368325883446951,36.9104558141786,5200,2017-11-07 06:10:52,1659.104911491369,0.0,0.0,0.228814007322048,1659.104911491369,0.0,0.0,0.228814007322048,1024,0.0,100,Assisted_Takeoff,
0.368325853920411,36.910455808606,5300,2017-11-07 06:10:52,1659.104911491369,0.0,0.0,0.23175100741603197,1659.104911491369,0.0,0.0,0.23175100741603197,1024,0.0,100,Assisted_Takeoff,
0.36832581067545295,36.910455778031896,5400,2017-11-07 06:10:52,1659.104911491369,0.0,0.0,0.23762800760409603,1659.104911491369,0.0,0.0,0.23762800760409603,1024,0.0,100,Assisted_Takeoff,
0.368325767723207,36.910455748804296,5500,2017-11-07 06:10:52,1659.104911491369,0.0,0.0,0.243387007788384,1659.104911491369,0.0,0.0,0.243387007788384,1024,0.0,100,Assisted_Takeoff,
0.368325750820365,36.9104557339757,5600,2017-11-07 06:10:52,1659.104911491369,0.0,0.0,0.24588500786832002,1659.104911491369,0.0,0.0,0.24588500786832002,1024,0.0,100,Assisted_Takeoff,
0.368325728888074,36.91045571977529,5700,2017-11-07 06:10:52,1659.104911491369,0.0,0.0,0.24877600796083202,1659.104911491369,0.0,0.0,0.24877600796083202,1024,0.0,100,Assisted_Takeoff,
0.368325694247814,36.9104557197247,5800,2017-11-07 06:10:52,1659.104911491369,0.0,0.0,0.251796008057472,1659.104911491369,0.0,0.0,0.251796008057472,1024,0.0,100,Assisted_Takeoff,
0.36832565666739703,36.9104557158036,5900,2017-11-07 06:10:52,1659.104911491369,0.0,0.0,0.25536000817152,1659.104911491369,0.0,0.0,0.25536000817152,1024,0.0,100,Assisted_Takeoff,
0.36832560935865605,36.9104556869341,6000,2017-11-07 06:10:53,1659.104911491369,0.0,0.0,0.26148700836758404,1659.104911491369,0.0,0.0,0.26148700836758404,1024,0.0,100,Assisted_Takeoff,
0.368325562938639,36.9104556594444,6100,2017-11-07 06:10:53,1659.104911491369,0.0,0.0,0.267444008558208,1659.104911491369,0.0,0.0,0.267444008558208,1024,0.0,100,Assisted_Takeoff,
0.368325544147209,36.9104556438233,6200,2017-11-07 06:10:53,1659.104911491369,0.0,0.0,0.27016000864511996,1659.104911491369,0.0,0.0,0.27016000864511996,1024,0.0,100,Assisted_Takeoff,
0.3683255209830011,36.910455628965295,6300,2017-11-07 06:10:53,1659.104911491369,0.0,0.0,0.27321000874272,1659.104911491369,0.0,0.0,0.27321000874272,1024,0.0,100,Assisted_Takeoff,
0.36832548896209205,36.910455591872704,6400,2017-11-07 06:10:53,1659.104911491369,0.0,0.0,0.27854500891344003,1659.104911491369,0.0,0.0,0.27854500891344003,1024,0.0,100,Assisted_Takeoff,
0.36832545350516704,36.9104555557557,6500,2017-11-07 06:10:53,1659.104911491369,0.0,0.0,0.28412000909184004,1659.104911491369,0.0,0.0,0.28412000909184004,1024,0.0,100,Assisted_Takeoff,
0.36832544253841104,36.9104555318531,6600,2017-11-07 06:10:53,1659.104911491369,0.0,0.0,0.28671500917488,1659.104911491369,0.0,0.0,0.28671500917488,1024,0.0,100,Assisted_Takeoff,
0.36832542488485603,36.910455510995604,6700,2017-11-07 06:10:53,1659.104911491369,0.0,0.0,0.28969100927011204,1659.104911491369,0.0,0.0,0.28969100927011204,1024,0.0,100,Assisted_Takeoff,
0.368325394366187,36.9104554690916,6800,2017-11-07 06:10:53,1659.104911491369,0.0,0.0,0.295242009447744,1659.104911491369,0.0,0.0,0.295242009447744,1024,0.0,100,Assisted_Takeoff,
0.36832535988470005,36.9104554306348,6900,2017-11-07 06:10:53,1659.104911491369,0.0,0.0,0.30090500962896,1659.104911491369,0.0,0.0,0.30090500962896,1056,0.0,100,Assisted_Takeoff,
0.368325350657529,36.91045537266589,7000,2017-11-07 06:10:54,1659.104911491369,0.0,0.0,0.30576200978438395,1659.104911491369,0.0,0.0,0.30576200978438395,1152,0.0,100,Assisted_Takeoff,
0.368325334073863,36.910455323595,7100,2017-11-07 06:10:54,1659.104911491369,0.0,0.0,0.310667009941344,1659.104911491369,0.0,0.0,0.310667009941344,1168,0.0,100,Assisted_Takeoff,
0.368325303828365,36.9104552599412,7200,2017-11-07 06:10:54,1659.104911491369,0.0,0.0,0.317811010169952,1659.104911491369,0.0,0.0,0.317811010169952,1168,0.0,100,Assisted_Takeoff,
0.36832527067894505,36.9104552041628,7300,2017-11-07 06:10:54,1659.104911491369,0.0,0.0,0.324654010388928,1659.104911491369,0.0,0.0,0.324654010388928,1146,0.0,100,Assisted_Takeoff,
0.36832526085942796,36.9104551756474,7400,2017-11-07 06:10:54,1659.104911491369,0.0,0.0,0.327563010482016,1659.104911491369,0.0,0.0,0.327563010482016,1189,0.0,100,Assisted_Takeoff,
0.36832524498820496,36.9104551467421,7500,2017-11-07 06:10:54,1659.104911491369,0.0,0.0,0.33101301059241606,1659.104911491369,0.0,0.0,0.33101301059241606,1189,0.0,100,Assisted_Takeoff,
0.36832521433559706,36.9104551085845,7600,2017-11-07 06:10:54,1659.104911491369,0.0,0.0,0.3363790107641281,1659.104911491369,0.0,0.0,0.3363790107641281,1289,0.0,100,Assisted_Takeoff,
0.368325183622329,36.910455068758104,7700,2017-11-07 06:10:54,1659.104911491369,0.0,0.0,0.341876010940032,1659.104911491369,0.0,0.0,0.341876010940032,1289,0.0,100,Assisted_Takeoff,
0.36832521075546293,36.910455055411205,7800,2017-11-07 06:10:54,1659.104911491369,0.0,0.35999970196000003,0.340632010900224,1659.104911491369,0.0,0.35999970196000003,0.341876010940032,1341,0.0,100,Assisted_Takeoff,
0.368325326453559,36.910455047102204,7900,2017-11-07 06:10:54,1659.104911491369,0.0,0.35999970196000003,0.33188001062016004,1659.104911491369,0.0,0.35999970196000003,0.341876010940032,1341,0.0,100,Assisted_Takeoff,
0.36832547393277504,36.910455016508706,8000,2017-11-07 06:10:55,1659.104911491369,0.0,0.35999970196000003,0.322736010327552,1659.104911491369,0.0,0.35999970196000003,0.341876010940032,1344,0.0,100,GPS_Atti,Obstacle Avoided. Revise Flight Route
0.368325573337882,36.910454958599,8100,2017-11-07 06:10:55,1659.104911491369,0.0,0.35999970196000003,0.32002601024083205,1659.104911491369,0.0,0.35999970196000003,0.341876010940032,1344,0.0,100,GPS_Atti,
0.368325651043159,36.9104548982168,8200,2017-11-07 06:10:55,1659.104911491369,0.0,0.0,0.31954701022550397,1659.104911491369,0.0,0.35999970196000003,0.341876010940032,1346,0.0,100,GPS_Atti,
0.368325688360988,36.9104548067839,8300,2017-11-07 06:10:55,1659.204911494569,0.10000000320000002,0.0,0.324917010397344,1659.204911494569,0.10000000320000002,0.35999970196000003,0.341876010940032,1356,0.0,100,GPS_Atti,
0.36832571366008704,36.910454699503205,8400,2017-11-07 06:10:55,1659.3049114977691,0.20000000640000004,0.0,0.332776010648832,1659.3049114977691,0.20000000640000004,0.35999970196000003,0.341876010940032,1358,0.0,100,GPS_Atti,
0.368325706321097,36.910454578542705,8500,2017-11-07 06:10:55,1659.4049115009689,0.3000000096,0.35999970196000003,0.34421001101472,1659.4049115009689,0.3000000096,0.35999970196000003,0.34421001101472,1355,0.0,100,GPS_Atti,
0.36832569781247704,36.9104544892495,8600,2017-11-07 06:10:55,1659.604911507369,0.500000016,0.35999970196000003,0.35293601129395197,1659.604911507369,0.500000016,0.35999970196000003,0.35293601129395197,1355,0.0,100,GPS_Atti,
0.368325666499535,36.910454391890795,8700,2017-11-07 06:10:55,1659.704911510569,0.6000000192,0.0,0.363871011643872,1659.704911510569,0.6000000192,0.35999970196000003,0.363871011643872,1358,0.0,100,GPS_Atti,
0.36832560516134205,36.9104543228499,8800,2017-11-07 06:10:55,1659.904911516969,0.8000000256000002,0.0,0.374041011969312,1659.904911516969,0.8000000256000002,0.35999970196000003,0.374041011969312,1358,0.0,100,GPS_Atti,
0.36832554627151504,36.9104542601658,8900,2017-11-07 06:10:55,1660.104911523369,1.000000032,0.0,0.383479012271328,1660.104911523369,1.000000032,0.35999970196000003,0.383479012271328,1355,0.0,100,GPS_Atti,Home Point Recorded. RTH Altitude:  30m.
0.368325569868889,36.9104542174176,9000,2017-11-07 06:10:56,1660.3049115297688,1.2000000384,0.0,0.38598401235148805,1660.3049115297688,1.2000000384,0.35999970196000003,0.38598401235148805,1350,0.0,100,GPS_Atti,
0.36832559604042703,36.9104541610197,9100,2017-11-07 06:10:56,1660.504911536169,1.4000000448000003,0.0,0.3896750124696,1660.504911536169,1.4000000448000003,0.35999970196000003,0.3896750124696,1335,0.0,100,GPS_Atti,
0.368325700424909,36.9104540461146,9200,2017-11-07 06:10:56,1660.7049115425689,1.6000000512000003,0.0,0.394593012626976,1660.7049115425689,1.6000000512000003,0.35999970196000003,0.394593012626976,1332,0.0,100,GPS_Atti,
0.368325789099791,36.9104539339679,9300,2017-11-07 06:10:56,1660.904911548969,1.8000000576000001,0.0,0.40073701282358404,1660.904911548969,1.8000000576000001,0.35999970196000003,0.40073701282358404,1337,0.0,100,GPS_Atti,
0.36832591484131605,36.91045384785121,9400,2017-11-07 06:10:56,1661.1049115553687,2.000000064,0.0,0.403016012896512,1661.1049115553687,2.000000064,0.35999970196000003,0.403016012896512,1336,0.0,100,GPS_Atti,
0.368326007836053,36.9104537604278,9500,2017-11-07 06:10:56,1661.304911561769,2.2000000704,0.0,0.407567013042144,1661.304911561769,2.2000000704,0.35999970196000003,0.407567013042144,1327,0.0,100,GPS_Atti,
0.3683261098088089,36.910453586038706,9600,2017-11-07 06:10:56,1661.5049115681688,2.4000000768,0.0,0.42119501347824,1661.5049115681688,2.4000000768,0.35999970196000003,0.42119501347824,1327,0.0,100,GPS_Atti,
0.3683261857671721,36.910453426559,9700,2017-11-07 06:10:56,1661.604911571369,2.50000008,0.0,0.43493001391776004,1661.604911571369,2.50000008,0.35999970196000003,0.43493001391776004,1343,0.0,100,GPS_Atti,
0.368326268573753,36.9104532842547,9800,2017-11-07 06:10:56,1661.804911577769,2.7000000863999998,0.0,0.44705501430576,1661.804911577769,2.7000000863999998,0.35999970196000003,0.44705501430576,1354,0.0,100,GPS_Atti,
0.36832634140021103,36.9104531623462,9900,2017-11-07 06:10:56,1662.0049115841691,2.9000000928,0.0,0.45771101464675207,1662.0049115841691,2.9000000928,0.35999970196000003,0.45771101464675207,1351,0.0,100,GPS_Atti,
0.36832641734900706,36.9104530533354,10000,2017-11-07 06:10:57,1662.2049115905688,3.1000000992,0.0,0.467182014949824,1662.2049115905688,3.1000000992,0.35999970196000003,0.467182014949824,1345,0.0,100,GPS_Atti,
0.36832648250060795,36.9104529424896,10100,2017-11-07 06:10:57,1662.304911593769,3.2000001024000007,0.0,0.477397015276704,1662.304911593769,3.2000001024000007,0.35999970196000003,0.477397015276704,1345,0.0,100,GPS_Atti,
0.368326537820072,36.910452826147704,10200,2017-11-07 06:10:57,1662.504911600169,3.4000001088000005,0.0,0.48864601563667204,1662.504911600169,3.4000001088000005,0.35999970196000003,0.48864601563667204,1345,0.0,100,GPS_Atti,
0.36832658215588504,36.9104527184388,10300,2017-11-07 06:10:57,1662.704911606569,3.6000001152000003,0.0,0.499352015979264,1662.704911606569,3.6000001152000003,0.35999970196000003,0.499352015979264,1346,0.0,100,GPS_Atti,
0.36832658664082296,36.9104526215485,10400,2017-11-07 06:10:57,1662.9049116129688,3.8000001215999997,0.0,0.50982001631424,1662.9049116129688,3.8000001215999997,0.35999970196000003,0.50982001631424,1338,0.0,100,GPS_Atti,
0.36832659227116793,36.910452528888705,10500,2017-11-07 06:10:57,1663.0049116161688,3.9000001248,0.0,0.51981501663408,1663.0049116161688,3.9000001248,0.35999970196000003,0.51981501663408,1348,0.0,100,GPS_Atti,
0.368326639897049,36.9104524494676,10600,2017-11-07 06:10:57,1663.204911622569,4.100000131200001,0.0,0.527533016881056,1663.204911622569,4.100000131200001,0.35999970196000003,0.527533016881056,1349,0.0,100,GPS_Atti,
0.368326680446118,36.9104523734468,10700,2017-11-07 06:10:57,1663.4049116289689,4.3000001376,0.0,0.53509501712304,1663.4049116289689,4.3000001376,0.35999970196000003,0.53509501712304,1341,0.0,100,GPS_Atti,
0.368326678420334,36.9104523259205,10800,2017-11-07 06:10:57,1663.604911635369,4.5000001439999995,0.0,0.540346017291072,1663.604911635369,4.5000001439999995,0.35999970196000003,0.540346017291072,1337,0.0,99,GPS_Atti,
0.36832665499761,36.9104522707832,10900,2017-11-07 06:10:57,1663.704911638569,4.6000001472,0.0,0.546823017498336,1663.704911638569,4.6000001472,0.35999970196000003,0.546823017498336,1340,0.0,99,GPS_Atti,
0.36832660998945294,36.91045216429001,11000,2017-11-07 06:10:58,1663.904911644969,4.8000001536,0.0,0.559342017898944,1663.904911644969,4.8000001536,0.35999970196000003,0.559342017898944,1340,0.0,99,GPS_Atti,
0.36832657045063005,36.910452066473,11100,2017-11-07 06:10:58,1664.1049116513689,5.00000016,0.0,0.5708180182661761,1664.1049116513689,5.00000016,0.35999970196000003,0.5708180182661761,1337,0.0,99,GPS_Atti,
0.368326547124187,36.9104519637023,11200,2017-11-07 06:10:58,1664.304911657769,5.200000166400001,0.0,0.5825250186408,1664.304911657769,5.200000166400001,0.35999970196000003,0.5825250186408,1340,0.0,99,GPS_Atti,
0.36832652450001097,36.9104518781182,11300,2017-11-07 06:10:58,1664.404911660969,5.3000001696,0.0,0.5923380189548161,1664.404911660969,5.3000001696,0.35999970196000003,0.5923380189548161,1345,0.0,99,GPS_Atti,
0.3683265199479,36.9104518218038,11400,2017-11-07 06:10:58,1664.6049116673692,5.500000176000001,0.0,0.5985910191549121,1664.6049116673692,5.500000176000001,0.35999970196000003,0.5985910191549121,1344,0.0,99,GPS_Atti,
0.36832651136070704,36.91045177548779,11500,2017-11-07 06:10:58,1664.8049116737689,5.7000001824,0.0,0.603829019322528,1664.8049116737689,5.7000001824,0.35999970196000003,0.603829019322528,1345,0.0,99,GPS_Atti,
0.36832652039327896,36.910451710463796,11600,2017-11-07 06:10:58,1665.004911680169,5.9000001888,0.0,0.6107710195446722,1665.004911680169,5.9000001888,0.35999970196000003,0.6107710195446722,1359,0.0,99,GPS_Atti,
0.3683265283490421,36.9104516582616,11700,2017-11-07 06:10:58,1665.104911683369,6.000000192000001,0.0,0.6163380197228161,1665.104911683369,6.000000192000001,0.35999970196000003,0.6163380197228161,1369,0.0,99,GPS_Atti,
0.36832652021170703,36.910451647386296,11800,2017-11-07 06:10:58,1665.304911689769,6.2000001984,0.0,0.6176840197658879,1665.304911689769,6.2000001984,0.35999970196000003,0.6176840197658879,1369,0.0,99,GPS_Atti,
0.368326514714895,36.910451629637606,11900,2017-11-07 06:10:58,1665.504911696169,6.400000204800001,0.0,0.619733019831456,1665.504911696169,6.400000204800001,0.35999970196000003,0.619733019831456,1382,0.0,99,GPS_Atti,
0.368326550346878,36.9104515968515,12000,2017-11-07 06:10:59,1665.7049117025688,6.6000002112,0.0,0.622659019925088,1665.7049117025688,6.6000002112,0.35999970196000003,0.622659019925088,1410,0.0,99,GPS_Atti,
0.36832657602723606,36.9104515641217,12100,2017-11-07 06:10:59,1665.904911708969,6.800000217600001,0.0,0.6257870200251839,1665.904911708969,6.800000217600001,0.35999970196000003,0.6257870200251839,1413,0.0,99,GPS_Atti,
0.368326595518286,36.9104515518894,12200,2017-11-07 06:10:59,1666.1049117153689,7.000000224,0.0,0.626789020057248,1666.1049117153689,7.000000224,0.35999970196000003,0.626789020057248,1414,0.0,99,GPS_Atti,
0.36832659799474204,36.9104515304556,12300,2017-11-07 06:10:59,1666.304911721769,7.200000230400001,0.0,0.6291000201312,1666.304911721769,7.200000230400001,0.35999970196000003,0.6291000201312,1417,0.0,99,GPS_Atti,
0.368326597258685,36.910451533785206,12400,2017-11-07 06:10:59,1666.5049117281692,7.4000002368,0.0,0.6287470201199041,1666.5049117281692,7.4000002368,0.35999970196000003,0.6291000201312,1417,0.0,99,GPS_Atti,
0.368326593313576,36.9104515256426,12500,2017-11-07 06:10:59,1666.8049117377689,7.7000002464,0.0,0.62971002015072,1666.8049117377689,7.7000002464,0.35999970196000003,0.62971002015072,1417,0.0,99,GPS_Atti,
0.368326592717769,36.910451531205,12600,2017-11-07 06:10:59,1667.004911744169,7.9000002528,0.0,0.629109020131488,1667.004911744169,7.9000002528,0.35999970196000003,0.62971002015072,1427,0.0,99,GPS_Atti,
0.368326590902868,36.9104515318201,12700,2017-11-07 06:10:59,1667.204911750569,8.1000002592,0.0,0.6290730201303361,1667.204911750569,8.1000002592,0.35999970196000003,0.62971002015072,1432,0.0,99,GPS_Atti,
0.368326589875931,36.9104515293389,12800,2017-11-07 06:10:59,1667.5049117601689,8.4000002688,0.0,0.629364020139648,1667.5049117601689,8.4000002688,0.35999970196000003,0.62971002015072,1436,0.0,99,GPS_Atti,
0.368326579331552,36.9104515305032,12900,2017-11-07 06:10:59,1667.704911766569,8.6000002752,0.0,0.62942002014144,1667.704911766569,8.6000002752,0.35999970196000003,0.62971002015072,1436,0.0,99,GPS_Atti,
0.36832657261951296,36.9104515542656,13000,2017-11-07 06:11:00,1668.004911776169,8.9000002848,0.0,0.62693002006176,1668.004911776169,8.9000002848,0.35999970196000003,0.62971002015072,1436,0.0,99,GPS_Atti,
0.36832656980149103,36.910451563850295,13100,2017-11-07 06:11:00,1668.204911782569,9.1000002912,0.0,0.625928020029696,1668.204911782569,9.1000002912,0.35999970196000003,0.62971002015072,1434,0.0,99,GPS_Atti,
0.368326582102146,36.910451530778396,13200,2017-11-07 06:11:00,1668.504911792169,9.400000300800002,0.0,0.629341020138912,1668.504911792169,9.400000300800002,0.35999970196000003,0.62971002015072,1428,0.0,99,GPS_Atti,
0.3683265985887171,36.9104514899975,13300,2017-11-07 06:11:00,1668.704911798569,9.6000003072,0.0,0.63353502027312,1668.704911798569,9.6000003072,0.35999970196000003,0.63353502027312,1431,0.0,99,GPS_Atti,
0.368326624098089,36.9104514533101,13400,2017-11-07 06:11:00,1669.004911808169,9.900000316799998,0.0,0.63714002038848,1669.004911808169,9.900000316799998,0.35999970196000003,0.63714002038848,1435,0.0,99,GPS_Atti,
0.368326650497405,36.9104514261437,13500,2017-11-07 06:11:00,1669.204911814569,10.100000323200002,0.0,0.639701020470432,1669.204911814569,10.100000323200002,0.35999970196000003,0.639701020470432,1435,0.0,99,GPS_Atti,
0.368326675479975,36.9104513806329,13600,2017-11-07 06:11:00,1669.5049118241689,10.400000332800001,0.0,0.644321020618272,1669.5049118241689,10.400000332800001,0.35999970196000003,0.644321020618272,1428,0.0,99,GPS_Atti,
0.368326692305058,36.910451333813704,13700,2017-11-07 06:11:00,1669.804911833769,10.700000342400001,0.0,0.6492250207752,1669.804911833769,10.700000342400001,0.35999970196000003,0.6492250207752,1430,0.0,99,GPS_Atti,
0.368326716368372,36.9104512937807,13800,2017-11-07 06:11:00,1670.0049118401691,10.9000003488,0.0,0.653287020905184,1670.0049118401691,10.9000003488,0.35999970196000003,0.653287020905184,1430,0.0,99,GPS_Atti,
0.36832674117568004,36.910451241056,13900,2017-11-07 06:11:00,1670.3049118497688,11.200000358400002,0.0,0.658754021080128,1670.3049118497688,11.200000358400002,0.35999970196000003,0.658754021080128,1431,0.0,99,GPS_Atti,
0.36832676223105393,36.9104512060163,14000,2017-11-07 06:11:01,1670.504911856169,11.4000003648,0.0,0.6623370211947841,1670.504911856169,11.4000003648,0.35999970196000003,0.6623370211947841,1429,0.0,99,GPS_Atti,
0.36832678203008296,36.9104511620315,14100,2017-11-07 06:11:01,1670.804911865769,11.700000374400002,0.0,0.6669360213419521,1670.804911865769,11.700000374400002,0.35999970196000003,0.6669360213419521,1425,0.0,99,GPS_Atti,
0.36832682358268204,36.910451104958504,14200,2017-11-07 06:11:01,1671.0049118721688,11.900000380800002,0.0,0.672728021527296,1671.0049118721688,11.900000380800002,0.35999970196000003,0.672728021527296,1426,0.0,99,GPS_Atti,
0.3683268586406379,36.9104510267655,14300,2017-11-07 06:11:01,1671.304911881769,12.2000003904,0.0,0.680971021791072,1671.304911881769,12.2000003904,0.35999970196000003,0.680971021791072,1427,0.0,99,GPS_Atti,
0.36832687794482394,36.910450943882,14400,2017-11-07 06:11:01,1671.504911888169,12.4000003968,0.0,0.689932022077824,1671.504911888169,12.4000003968,0.35999970196000003,0.689932022077824,1431,0.0,99,GPS_Atti,
0.368326890012408,36.9104508497989,14500,2017-11-07 06:11:01,1671.8049118977688,12.700000406400001,0.0,0.7002210224070721,1671.8049118977688,12.700000406400001,0.35999970196000003,0.7002210224070721,1431,0.0,99,GPS_Atti,
0.3683269175040039,36.9104507505714,14600,2017-11-07 06:11:01,1672.104911907369,13.000000416,0.0,0.710936022749952,1672.104911907369,13.000000416,0.35999970196000003,0.710936022749952,1434,0.0,99,GPS_Atti,
0.368326935875905,36.910450654558396,14700,2017-11-07 06:11:01,1672.304911913769,13.2000004224,0.0,0.7214010230848321,1672.304911913769,13.2000004224,0.35999970196000003,0.7214010230848321,1439,0.0,99,GPS_Atti,
0.368326969804739,36.910450585616005,14800,2017-11-07 06:11:01,1672.6049119233687,13.500000432000002,0.0,0.7287410233197121,1672.6049119233687,13.500000432000002,0.35999970196000003,0.7287410233197121,1435,0.0,99,GPS_Atti,
0.368326992577104,36.9104505086761,14900,2017-11-07 06:11:01,1672.8049119297689,13.7000004384,0.0,0.7370840235866881,1672.8049119297689,13.7000004384,0.35999970196000003,0.7370840235866881,1435,0.0,99,GPS_Atti,
0.36832700615181296,36.9104504247761,15000,2017-11-07 06:11:02,1673.104911939369,14.000000448,0.0,0.7462830238810562,1673.104911939369,14.000000448,0.35999970196000003,0.7462830238810562,1434,0.0,99,GPS_Atti,
0.36832701240259497,36.9104503308005,15100,2017-11-07 06:11:02,1673.4049119489691,14.300000457600001,0.0,0.7566610242131521,1673.4049119489691,14.300000457600001,0.35999970196000003,0.7566610242131521,1436,0.0,99,GPS_Atti,
0.368327017608731,36.910450234630204,15200,2017-11-07 06:11:02,1673.7049119585688,14.600000467200001,0.0,0.7672930245533761,1673.7049119585688,14.600000467200001,0.35999970196000003,0.7672930245533761,1438,0.0,99,GPS_Atti,
0.368327021579895,36.9104501339643,15300,2017-11-07 06:11:02,1673.904911964969,14.8000004736,0.0,0.7784340249098879,1673.904911964969,14.8000004736,0.35999970196000003,0.7784340249098879,1437,0.0,99,GPS_Atti,
0.36832702514578,36.9104500310555,15400,2017-11-07 06:11:02,1674.204911974569,15.100000483200002,0.0,0.789829025274528,1674.204911974569,15.100000483200002,0.35999970196000003,0.789829025274528,1436,0.0,99,GPS_Atti,
0.36832702875726203,36.910449932309206,15500,2017-11-07 06:11:02,1674.5049119841688,15.4000004928,0.0,0.800764025624448,1674.5049119841688,15.4000004928,0.35999970196000003,0.800764025624448,1436,0.0,99,GPS_Atti,
0.36832703236304404,36.910449841958794,15600,2017-11-07 06:11:02,1674.8049119937689,15.700000502400002,0.0,0.8107680259445761,1674.8049119937689,15.700000502400002,0.35999970196000003,0.8107680259445761,1436,0.0,99,GPS_Atti,
0.368327037188531,36.9104497524734,15700,2017-11-07 06:11:02,1675.004912000169,15.900000508800002,0.0,0.8206690262614079,1675.004912000169,15.900000508800002,0.35999970196000003,0.8206690262614079,1432,0.0,99,GPS_Atti,
0.36832704050607795,36.910449705141396,15800,2017-11-07 06:11:02,1675.3049120097692,16.2000005184,0.0,0.8259010264288321,1675.3049120097692,16.2000005184,0.35999970196000003,0.8259010264288321,1435,0.0,99,GPS_Atti,
0.36832704698178903,36.9104496649311,15900,2017-11-07 06:11:02,1675.6049120193688,16.500000528,0.0,0.830324026570368,1675.6049120193688,16.500000528,0.35999970196000003,0.830324026570368,1435,0.0,99,GPS_Atti,
0.36832701798958295,36.9104496208517,16000,2017-11-07 06:11:03,1675.804912025769,16.7000005344,0.0,0.8354070267330239,1675.804912025769,16.7000005344,0.35999970196000003,0.8354070267330239,1435,0.0,99,GPS_Atti,
0.36832699364923105,36.910449570145104,16100,2017-11-07 06:11:03,1676.1049120353691,17.000000544000002,0.0,0.841203026918496,1676.1049120353691,17.000000544000002,0.35999970196000003,0.841203026918496,1440,0.0,99,GPS_Atti,
0.36832697004921006,36.9104495044595,16200,2017-11-07 06:11:03,1676.404912044969,17.3000005536,0.0,0.848662027157184,1676.404912044969,17.3000005536,0.35999970196000003,0.848662027157184,1440,0.0,99,GPS_Atti,
0.368326961413367,36.910449449682496,16300,2017-11-07 06:11:03,1676.7049120545691,17.6000005632,0.0,0.8548040273537281,1676.7049120545691,17.6000005632,0.35999970196000003,0.8548040273537281,1439,0.0,99,GPS_Atti,
0.36832695514996505,36.9104494350685,16400,2017-11-07 06:11:03,1676.904912060969,17.8000005696,0.0,0.8564720274071039,1676.904912060969,17.8000005696,0.35999970196000003,0.8564720274071039,1442,0.0,99,GPS_Atti,
0.368326953538619,36.910449427835395,16500,2017-11-07 06:11:03,1677.2049120705692,18.100000579200003,0.0,0.857287027433184,1677.2049120705692,18.100000579200003,0.35999970196000003,0.857287027433184,1443,0.0,99,GPS_Atti,
0.36832694955157796,36.9104494147161,16600,2017-11-07 06:11:03,1677.4049120769691,18.3000005856,0.0,0.858772027480704,1677.4049120769691,18.3000005856,0.35999970196000003,0.858772027480704,1443,0.0,99,GPS_Atti,
0.368326948494311,36.9104493942341,16700,2017-11-07 06:11:03,1677.704912086569,18.6000005952,0.0,0.8610530275536961,1677.704912086569,18.6000005952,0.35999970196000003,0.8610530275536961,1446,0.0,99,GPS_Atti,
0.36832690823612196,36.9104493927888,16800,2017-11-07 06:11:03,1678.0049120961692,18.900000604800002,0.0,0.8615290275689279,1678.0049120961692,18.900000604800002,0.35999970196000003,0.8615290275689279,1445,0.0,99,GPS_Atti,
0.36832687803072495,36.9104493911925,16900,2017-11-07 06:11:03,1678.304912105769,19.2000006144,0.0,0.8619570275826242,1678.304912105769,19.2000006144,0.35999970196000003,0.8619570275826242,1454,0.0,99,GPS_Atti,
0.36832685698858203,36.91044940631279,17000,2017-11-07 06:11:04,1678.6049121153692,19.500000624000002,0.0,0.8604640275348481,1678.6049121153692,19.500000624000002,0.35999970196000003,0.8619570275826242,1457,0.0,99,GPS_Atti,
0.36832685274668897,36.9104494145555,17100,2017-11-07 06:11:04,1678.9049121249693,19.800000633599996,0.0,0.8595890275068482,1678.9049121249693,19.800000633599996,0.35999970196000003,0.8619570275826242,1457,0.0,99,GPS_Atti,
0.368326855871673,36.9104494240176,17200,2017-11-07 06:11:04,1679.204912134569,20.1000006432,0.0,0.8585120274723841,1679.204912134569,20.1000006432,0.35999970196000003,0.8619570275826242,1461,0.0,99,GPS_Atti,
0.368326864245743,36.9104494260047,17300,2017-11-07 06:11:04,1679.504912144169,20.4000006528,0.0,0.858217027462944,1679.504912144169,20.4000006528,0.35999970196000003,0.8619570275826242,1470,0.0,99,GPS_Atti,
0.36832686833537603,36.9104494318984,17400,2017-11-07 06:11:04,1679.8049121537692,20.7000006624,0.0,0.857528027440896,1679.8049121537692,20.7000006624,0.35999970196000003,0.8619570275826242,1467,0.0,99,GPS_Atti,
0.36832687645154105,36.9104494358779,17500,2017-11-07 06:11:04,1680.1049121633691,21.000000672,0.0,0.8570170274245439,1680.1049121633691,21.000000672,0.35999970196000003,0.8619570275826242,1471,0.0,99,GPS_Atti,
0.368326876374394,36.9104494867601,17600,2017-11-07 06:11:04,1680.304912169769,21.2000006784,0.0,0.851376027244032,1680.304912169769,21.2000006784,0.35999970196000003,0.8619570275826242,1471,0.0,99,GPS_Atti,
0.36832687444997997,36.910449532878,17700,2017-11-07 06:11:04,1680.6049121793692,21.500000688,0.0,0.8462800270809601,1680.6049121793692,21.500000688,0.35999970196000003,0.8619570275826242,1471,0.0,99,GPS_Atti,
0.36832686175015206,36.9104496090235,17800,2017-11-07 06:11:04,1680.904912188969,21.8000006976,0.0,0.837953026814496,1680.904912188969,21.8000006976,0.35999970196000003,0.8619570275826242,1471,0.0,99,GPS_Atti,
0.368326854023593,36.9104496701557,17900,2017-11-07 06:11:04,1681.2049121985692,22.1000007072,0.0,0.831248026599936,1681.2049121985692,22.1000007072,0.35999970196000003,0.8619570275826242,1470,0.0,99,GPS_Atti,
0.368326848772064,36.9104497459779,18000,2017-11-07 06:11:05,1681.5049122081691,22.400000716800005,0.0,0.82289502633264,1681.5049122081691,22.400000716800005,0.35999970196000003,0.8619570275826242,1467,0.0,99,GPS_Atti,
0.36832685754591704,36.910449799274296,18100,2017-11-07 06:11:05,1681.804912217769,22.700000726400003,0.0,0.8169070261410241,1681.804912217769,22.700000726400003,0.35999970196000003,0.8619570275826242,1465,0.0,99,GPS_Atti,
0.36832687178665996,36.9104498599441,18200,2017-11-07 06:11:05,1682.1049122273691,23.000000735999997,0.0,0.810052025921664,1682.1049122273691,23.000000735999997,0.35999970196000003,0.8619570275826242,1469,0.0,99,GPS_Atti,
0.3683268938431189,36.9104499075705,18300,2017-11-07 06:11:05,1682.4049122369693,23.300000745600002,0.0,0.804573025746336,1682.4049122369693,23.300000745600002,0.35999970196000003,0.8619570275826242,1471,0.0,99,GPS_Atti,
0.368326876576524,36.91044993976929,18400,2017-11-07 06:11:05,1682.7049122465692,23.6000007552,0.0,0.8011610256371521,1682.7049122465692,23.6000007552,0.35999970196000003,0.8619570275826242,1474,0.0,99,GPS_Atti,
0.36832686444135904,36.910449964590505,18500,2017-11-07 06:11:05,1682.904912252969,23.800000761600003,0.0,0.798524025552768,1682.904912252969,23.800000761600003,0.35999970196000003,0.8619570275826242,1475,0.0,99,GPS_Atti,
0.368326871951743,36.9104500051498,18600,2017-11-07 06:11:05,1683.2049122625692,24.100000771199998,0.0,0.793959025406688,1683.2049122625692,24.100000771199998,0.35999970196000003,0.8619570275826242,1475,0.0,99,GPS_Atti,
0.368326885437499,36.9104500414084,18700,2017-11-07 06:11:05,1683.5049122721693,24.4000007808,0.0,0.7898160252741121,1683.5049122721693,24.4000007808,0.35999970196000003,0.8619570275826242,1477,0.0,99,GPS_Atti,
0.368326884696964,36.9104500886515,18800,2017-11-07 06:11:05,1683.804912281769,24.7000007904,0.0,0.7845870251067841,1683.804912281769,24.7000007904,0.35999970196000003,0.8619570275826242,1480,0.0,99,GPS_Atti,
0.36832688942108005,36.910450118481,18900,2017-11-07 06:11:05,1684.1049122913691,25.000000800000002,0.0,0.781238024999616,1684.1049122913691,25.000000800000002,0.35999970196000003,0.8619570275826242,1480,0.0,99,GPS_Atti,
0.36832689187351597,36.9104501913911,19000,2017-11-07 06:11:06,1684.404912300969,25.3000008096,0.0,0.773136024740352,1684.404912300969,25.3000008096,0.35999970196000003,0.8619570275826242,1481,0.0,99,GPS_Atti,
0.368326894230689,36.910450245371706,19100,2017-11-07 06:11:06,1684.7049123105692,25.600000819200005,0.0,0.767132024548224,1684.7049123105692,25.600000819200005,0.35999970196000003,0.8619570275826242,1484,0.0,99,GPS_Atti,
0.36832687592168606,36.910450309625794,19200,2017-11-07 06:11:06,1685.0049123201693,25.900000828800003,0.0,0.760188024326016,1685.0049123201693,25.900000828800003,0.35999970196000003,0.8619570275826242,1486,0.0,99,GPS_Atti,
0.368326857546935,36.9104503535276,19300,2017-11-07 06:11:06,1685.304912329769,26.200000838399998,0.0,0.7555070241762241,1685.304912329769,26.200000838399998,0.35999970196000003,0.8619570275826242,1486,0.0,99,GPS_Atti,
0.36832684085823403,36.9104504174734,19400,2017-11-07 06:11:06,1685.604912339369,26.500000848000003,0.0,0.7485980239551361,1685.604912339369,26.500000848000003,0.35999970196000003,0.8619570275826242,1487,0.0,99,GPS_Atti,
0.36832683601483396,36.910450463249795,19500,2017-11-07 06:11:06,1685.9049123489692,26.8000008576,0.0,0.743581023794592,1685.9049123489692,26.8000008576,0.35999970196000003,0.8619570275826242,1486,0.0,99,GPS_Atti,
0.36832683849658293,36.9104505247696,19600,2017-11-07 06:11:06,1686.2049123585693,27.100000867200002,0.0,0.73674502357584,1686.2049123585693,27.100000867200002,0.35999970196000003,0.8619570275826242,1489,0.0,99,GPS_Atti,
0.3683268503282461,36.9104505613505,19700,2017-11-07 06:11:06,1686.6049123713692,27.50000088,0.0,0.73257002344224,1686.6049123713692,27.50000088,0.35999970196000003,0.8619570275826242,1489,0.0,99,GPS_Atti,
0.368326866309795,36.9104506027063,19800,2017-11-07 06:11:06,1686.904912380969,27.8000008896,0.0,0.7278250232904001,1686.904912380969,27.8000008896,0.35999970196000003,0.8619570275826242,1491,0.0,99,GPS_Atti,
0.36832688683877507,36.910450630499504,19900,2017-11-07 06:11:06,1687.204912390569,28.1000008992,0.0,0.724538023185216,1687.204912390569,28.1000008992,0.35999970196000003,0.8619570275826242,1495,0.0,99,GPS_Atti,
0.36832686583876795,36.910450685194704,20000,2017-11-07 06:11:07,1687.5049124001691,28.400000908800006,0.0,0.718697022998304,1687.5049124001691,28.400000908800006,0.35999970196000003,0.8619570275826242,1495,0.0,99,GPS_Atti,
0.368326850831842,36.910450720517,20100,2017-11-07 06:11:07,1687.8049124097693,28.7000009184,0.0,0.7149460228782721,1687.8049124097693,28.7000009184,0.35999970196000003,0.8619570275826242,1495,0.0,99,GPS_Atti,
0.368326828871664,36.9104507835871,20200,2017-11-07 06:11:07,1688.1049124193692,29.000000928,0.0,0.708209022662688,1688.1049124193692,29.000000928,0.35999970196000003,0.8619570275826242,1497,0.0,99,GPS_Atti,
0.36832682257202903,36.9104508242175,20300,2017-11-07 06:11:07,1688.404912428969,29.300000937600004,0.0,0.7037860225211521,1688.404912428969,29.300000937600004,0.35999970196000003,0.8619570275826242,1496,0.0,99,GPS_Atti,
0.368326814495964,36.9104508839269,20400,2017-11-07 06:11:07,1688.7049124385692,29.6000009472,0.0,0.697276022312832,1688.7049124385692,29.6000009472,0.35999970196000003,0.8619570275826242,1497,0.0,99,GPS_Atti,
0.36832681606354495,36.9104509253609,20500,2017-11-07 06:11:07,1689.004912448169,29.900000956800003,0.0,0.6926760221656321,1689.004912448169,29.900000956800003,0.35999970196000003,0.8619570275826242,1497,0.0,99,GPS_Atti,
0.36832680669693896,36.9104509943814,20600,2017-11-07 06:11:07,1689.4049124609692,30.300000969600003,0.0,0.685156021924992,1689.4049124609692,30.300000969600003,0.35999970196000003,0.8619570275826242,1505,0.0,99,GPS_Atti,
0.368326805426142,36.910451040430296,20700,2017-11-07 06:11:07,1689.7049124705693,30.6000009792,0.0,0.6800810217625921,1689.7049124705693,30.6000009792,0.35999970196000003,0.8619570275826242,1505,0.0,99,GPS_Atti,
0.3683267613521021,36.91045106496939,20800,2017-11-07 06:11:07,1690.0049124801692,30.900000988800006,0.0,0.677924021693568,1690.0049124801692,30.900000988800006,0.35999970196000003,0.8619570275826242,1516,0.0,99,GPS_Atti,
0.36832672508176795,36.9104510669966,20900,2017-11-07 06:11:07,1690.304912489769,31.2000009984,0.0,0.6781830217018561,1690.304912489769,31.2000009984,0.35999970196000003,0.8619570275826242,1516,0.0,99,GPS_Atti,
0.36832668716365397,36.910451094051105,21000,2017-11-07 06:11:08,1690.704912502569,31.6000010112,0.0,0.675731021623392,1690.704912502569,31.6000010112,0.35999970196000003,0.8619570275826242,1515,0.0,99,GPS_Atti,
0.36832666868569897,36.910451112255295,21100,2017-11-07 06:11:08,1691.004912512169,31.9000010208,0.0,0.673994021567808,1691.004912512169,31.9000010208,0.35999970196000003,0.8619570275826242,1515,0.0,99,GPS_Atti,
0.368326624459196,36.910451129893204,21200,2017-11-07 06:11:08,1691.4049125249692,32.300001033600005,0.0,0.672723021527136,1691.4049125249692,32.300001033600005,0.35999970196000003,0.8619570275826242,1516,0.0,99,GPS_Atti,
0.368326591497047,36.910451137709295,21300,2017-11-07 06:11:08,1691.704912534569,32.6000010432,0.0,0.6723880215164161,1691.704912534569,32.6000010432,0.35999970196000003,0.8619570275826242,1520,0.0,99,GPS_Atti,
0.368326559703713,36.9104511802604,21400,2017-11-07 06:11:08,1692.0049125441692,32.9000010528,0.0,0.668236021383552,1692.0049125441692,32.9000010528,0.35999970196000003,0.8619570275826242,1539,0.0,99,GPS_Atti,
0.368326542711918,36.9104512164553,21500,2017-11-07 06:11:08,1692.3049125537693,33.2000010624,0.0,0.6645500212655999,1692.3049125537693,33.2000010624,0.35999970196000003,0.8619570275826242,1523,0.0,99,GPS_Atti,
0.36832650033186703,36.9104512543429,21600,2017-11-07 06:11:08,1692.7049125665692,33.6000010752,0.0,0.661144021156608,1692.7049125665692,33.6000010752,0.35999970196000003,0.8619570275826242,1489,0.0,99,GPS_Atti,
0.368326467460096,36.9104512782278,21700,2017-11-07 06:11:08,1693.004912576169,33.9000010848,0.0,0.6591350210923201,1693.004912576169,33.9000010848,0.35999970196000003,0.8619570275826242,1482,0.0,99,GPS_Atti,
0.368326443949843,36.910451286618205,21800,2017-11-07 06:11:08,1693.304912585769,34.2000010944,0.0,0.6586650210772801,1693.304912585769,34.2000010944,0.35999970196000003,0.8619570275826242,1496,0.0,99,GPS_Atti,
0.36832639892988006,36.9104512635341,22000,2017-11-07 06:11:09,1694.0049126081692,34.9000011168,0.0,0.662079021186528,1694.0049126081692,34.9000011168,0.35999970196000003,0.8619570275826242,1512,0.0,99,GPS_Atti,
0.368326348715995,36.910451252371296,22100,2017-11-07 06:11:09,1694.304912617769,35.2000011264,0.0,0.6643290212585279,1694.304912617769,35.2000011264,0.35999970196000003,0.8619570275826242,1515,0.0,99,GPS_Atti,
0.36832625727296203,36.9104512214192,22200,2017-11-07 06:11:09,1694.6049126273692,35.500001136,0.0,0.6696900214300802,1694.6049126273692,35.500001136,0.35999970196000003,0.8619570275826242,1519,0.0,99,GPS_Atti,
0.368326198779661,36.910451195907505,22300,2017-11-07 06:11:09,1694.9049126369691,35.8000011456,0.0,0.673808021561856,1694.9049126369691,35.8000011456,0.35999970196000003,0.8619570275826242,1528,0.0,99,GPS_Atti,
0.368326080720321,36.9104511502821,22400,2017-11-07 06:11:09,1695.204912646569,36.1000011552,0.0,0.6816330218122562,1695.204912646569,36.1000011552,0.35999970196000003,0.8619570275826242,1527,0.0,99,GPS_Atti,
0.368325987171098,36.9104511134143,22500,2017-11-07 06:11:09,1695.6049126593691,36.500001168000004,0.0,0.6880510220176321,1695.6049126593691,36.500001168000004,0.35999970196000003,0.8619570275826242,1518,0.0,99,GPS_Atti,
0.36832583794089796,36.910451047127,22600,2017-11-07 06:11:09,1695.9049126689692,36.8000011776,0.0,0.699342022378944,1695.9049126689692,36.8000011776,0.35999970196000003,0.8619570275826242,1519,0.0,99,GPS_Atti,
0.36832572107357897,36.9104509898576,22700,2017-11-07 06:11:09,1696.304912681769,37.2000011904,0.0,0.7089560226865922,1696.304912681769,37.2000011904,0.35999970196000003,0.8619570275826242,1556,0.0,99,GPS_Atti,
0.368325472698415,36.910450873787106,22900,2017-11-07 06:11:09,1697.004912704169,37.90000121280001,0.0,0.729324023338368,1697.004912704169,37.90000121280001,0.35999970196000003,0.8619570275826242,1575,0.0,99,GPS_Atti,
0.36832533725095706,36.9104507913961,23000,2017-11-07 06:11:10,1697.3049127137692,38.2000012224,0.0,0.742736023767552,1697.3049127137692,38.2000012224,0.35999970196000003,0.8619570275826242,1581,0.0,99,GPS_Atti,
0.36832523531077005,36.9104507159353,23100,2017-11-07 06:11:10,1697.7049127265693,38.600001235200004,0.0,0.7543560241393921,1697.7049127265693,38.600001235200004,0.35999970196000003,0.8619570275826242,1586,0.0,99,GPS_Atti,
0.36832514788694004,36.9104506464983,23200,2017-11-07 06:11:10,1698.1049127393692,39.000001248000004,0.0,0.764882024476224,1698.1049127393692,39.000001248000004,0.35999970196000003,0.8619570275826242,1586,0.0,99,GPS_Atti,
0.368325086418878,36.9104505857306,23300,2017-11-07 06:11:10,1698.5049127521693,39.4000012608,0.0,0.7735650247540802,1698.5049127521693,39.4000012608,0.35999970196000003,0.8619570275826242,1600,0.0,99,GPS_Atti,
0.368325014486029,36.9104505693576,23400,2017-11-07 06:11:10,1698.9049127649691,39.80000127360001,0.0,0.778051024897632,1698.9049127649691,39.80000127360001,0.35999970196000003,0.8619570275826242,1610,0.0,99,GPS_Atti,
0.368324956806949,36.9104505579491,23500,2017-11-07 06:11:10,1699.3049127777692,40.2000012864,0.0,0.781513025008416,1699.3049127777692,40.2000012864,0.35999970196000003,0.8619570275826242,1612,0.0,99,GPS_Atti,
0.36832486758490995,36.9104505467965,23600,2017-11-07 06:11:10,1699.704912790569,40.6000012992,0.0,0.7862750251608001,1699.704912790569,40.6000012992,0.35999970196000003,0.8619570275826242,1621,0.0,99,GPS_Atti,
0.36832480214670205,36.9104505104137,23700,2017-11-07 06:11:10,1700.2049128065692,41.100001315200004,0.0,0.7927360253675519,1700.2049128065692,41.100001315200004,0.35999970196000003,0.8619570275826242,1621,0.0,99,GPS_Atti,
0.368324740319976,36.9104504845786,23800,2017-11-07 06:11:10,1700.604912819369,41.500001328,0.0,0.797994025535808,1700.604912819369,41.500001328,0.35999970196000003,0.8619570275826242,1631,0.0,99,GPS_Atti,
0.36832469857115,36.9104504471188,23900,2017-11-07 06:11:10,1701.004912832169,41.9000013408,0.0,0.803619025715808,1701.004912832169,41.9000013408,0.35999970196000003,0.8619570275826242,1639,0.0,99,GPS_Atti,
0.368324644657848,36.9104504111932,24000,2017-11-07 06:11:11,1701.5049128481692,42.4000013568,0.0,0.8096200259078401,1701.5049128481692,42.4000013568,0.35999970196000003,0.8619570275826242,1647,0.0,99,GPS_Atti,
0.368324608249911,36.910450362507895,24100,2017-11-07 06:11:11,1701.9049128609693,42.800001369600004,0.0,0.816184026117888,1701.9049128609693,42.800001369600004,0.35999970196000003,0.8619570275826242,1654,0.0,99,GPS_Atti,
0.36832453846090796,36.910450346822294,24200,2017-11-07 06:11:11,1702.404912876969,43.300001385600005,0.0,0.8208450262670401,1702.404912876969,43.300001385600005,0.35999970196000003,0.8619570275826242,1661,0.0,99,GPS_Atti,
0.368324492922693,36.9104503193824,24300,2017-11-07 06:11:11,1702.8049128897692,43.700001398400005,0.0,0.825666026421312,1702.8049128897692,43.700001398400005,0.35999970196000003,0.8619570275826242,1661,0.0,99,GPS_Atti,
0.368324438624671,36.9104502991113,24400,2017-11-07 06:11:11,1703.304912905769,44.2000014144,0.0,0.830168026565376,1703.304912905769,44.2000014144,0.35999970196000003,0.8619570275826242,1666,0.0,99,GPS_Atti,
0.36832440394044197,36.9104502754389,24500,2017-11-07 06:11:11,1703.8049129217693,44.7000014304,0.0,0.83414502669264,1703.8049129217693,44.7000014304,0.35999970196000003,0.8619570275826242,1684,0.0,99,GPS_Atti,
0.368324344672001,36.910450287389104,24600,2017-11-07 06:11:11,1704.3049129377691,45.2000014464,0.0,0.835656026740992,1704.3049129377691,45.2000014464,0.35999970196000003,0.8619570275826242,1684,0.0,99,GPS_Atti,
0.368324311798195,36.9104502821581,24700,2017-11-07 06:11:11,1704.7049129505692,45.6000014592,0.0,0.8377130268068161,1704.7049129505692,45.6000014592,0.35999970196000003,0.8619570275826242,1684,0.0,99,GPS_Atti,
0.36832425628942494,36.910450256480395,24800,2017-11-07 06:11:11,1705.204912966569,46.1000014752,0.0,0.8429080269730561,1705.204912966569,46.1000014752,0.35999970196000003,0.8619570275826242,1684,0.0,99,GPS_Atti,
0.36832420457370707,36.9104502158783,24900,2017-11-07 06:11:11,1705.7049129825693,46.600001491200004,0.0,0.8494430271821761,1705.7049129825693,46.600001491200004,0.35999970196000003,0.8619570275826242,1684,0.0,99,GPS_Atti,
0.36832411711853,36.910450201087706,25000,2017-11-07 06:11:12,1706.3049130017691,47.2000015104,0.0,0.855131027364192,1706.3049130017691,47.2000015104,0.35999970196000003,0.8619570275826242,1684,0.0,99,GPS_Atti,
0.36832405237241106,36.9104501809077,25100,2017-11-07 06:11:12,1706.804913017769,47.700001526399994,0.0,0.860311027529952,1706.804913017769,47.700001526399994,0.35999970196000003,0.8619570275826242,1684,0.0,99,GPS_Atti,
0.36832395581138105,36.910450192056,25200,2017-11-07 06:11:12,1707.3049130337693,48.200001542399995,0.0,0.864008027648256,1707.3049130337693,48.200001542399995,0.35999970196000003,0.864008027648256,1684,0.0,99,GPS_Atti,
0.368323910173831,36.9104501838444,25300,2017-11-07 06:11:12,1707.804913049769,48.70000155840001,0.0,0.8671300277481601,1707.804913049769,48.70000155840001,0.35999970196000003,0.8671300277481601,1684,0.0,99,GPS_Atti,
0.368323837920992,36.9104501941705,25400,2017-11-07 06:11:12,1708.3049130657691,49.200001574400005,0.0,0.8698150278340799,1708.3049130657691,49.200001574400005,0.35999970196000003,0.8698150278340799,1684,0.0,99,GPS_Atti,
0.368323791283985,36.9104501897585,25500,2017-11-07 06:11:12,1708.8049130817692,49.70000159040001,0.0,0.8726720279255041,1708.8049130817692,49.70000159040001,0.35999970196000003,0.8726720279255041,1684,0.0,99,GPS_Atti,
0.368323716595808,36.9104502052396,25600,2017-11-07 06:11:12,1709.3049130977693,50.200001606399994,0.0,0.8750870280027839,1709.3049130977693,50.200001606399994,0.35999970196000003,0.8750870280027839,1684,0.0,99,GPS_Atti,
0.368323670868693,36.9104502061464,25700,2017-11-07 06:11:12,1709.804913113769,50.7000016224,0.0,0.8774380280780161,1709.804913113769,50.7000016224,0.35999970196000003,0.8774380280780161,1684,0.0,99,GPS_Atti,
0.368323607553569,36.91045022262,25800,2017-11-07 06:11:12,1710.3049131297691,51.20000163840001,0.0,0.8792560281361921,1710.3049131297691,51.20000163840001,0.35999970196000003,0.8792560281361921,1684,0.0,99,GPS_Atti,
0.368323561600508,36.9104502295351,25900,2017-11-07 06:11:12,1710.8049131457692,51.700001654400005,0.0,0.881097028195104,1710.8049131457692,51.700001654400005,0.35999970196000003,0.881097028195104,1684,0.0,99,GPS_Atti,
0.36832347862721504,36.91045025061771,26000,2017-11-07 06:11:13,1711.304913161769,52.200001670400006,0.0,0.8836630282772162,1711.304913161769,52.200001670400006,0.35999970196000003,0.8836630282772162,1684,0.0,99,GPS_Atti,
0.368323421474938,36.910450241389,26100,2017-11-07 06:11:13,1711.8049131777693,52.7000016864,0.0,0.8877590284082879,1711.8049131777693,52.7000016864,0.35999970196000003,0.8877590284082879,1684,0.0,99,GPS_Atti,
0.368323338635584,36.9104502371857,26200,2017-11-07 06:11:13,1712.4049131969691,53.3000017056,0.0,0.892872028571904,1712.4049131969691,53.3000017056,0.35999970196000003,0.892872028571904,1684,0.0,99,GPS_Atti,
0.36832328286463395,36.9104502199102,26300,2017-11-07 06:11:13,1712.904913212969,53.8000017216,0.0,0.8977230287271359,1712.904913212969,53.8000017216,0.35999970196000003,0.8977230287271359,1684,0.0,99,GPS_Atti,
0.368323197021209,36.9104502439488,26400,2017-11-07 06:11:13,1713.4049132289692,54.300001737600006,0.0,0.900446028814272,1713.4049132289692,54.300001737600006,0.35999970196000003,0.900446028814272,1684,0.0,99,GPS_Atti,
0.368323129790492,36.910450259971704,26500,2017-11-07 06:11:13,1713.904913244969,54.8000017536,0.0,0.902911028893152,1713.904913244969,54.8000017536,0.35999970196000003,0.902911028893152,1684,0.0,99,GPS_Atti,
0.36832301940275103,36.9104502964851,26600,2017-11-07 06:11:13,1714.4049132609691,55.3000017696,0.0,0.9061360289963521,1714.4049132609691,55.3000017696,0.35999970196000003,0.9061360289963521,1684,0.0,99,GPS_Atti,
0.36832295651631497,36.9104503077019,26700,2017-11-07 06:11:13,1714.9049132769692,55.8000017856,0.0,0.9089380290860161,1714.9049132769692,55.8000017856,0.35999970196000003,0.9089380290860161,1684,0.0,99,GPS_Atti,
0.368322879304457,36.9104503068005,26800,2017-11-07 06:11:13,1715.4049132929692,56.3000018016,0.0,0.91379502924144,1715.4049132929692,56.3000018016,0.35999970196000003,0.91379502924144,1684,0.0,99,GPS_Atti,
0.368322830619681,36.910450295158604,26900,2017-11-07 06:11:13,1715.904913308969,56.80000181760001,0.0,0.917904029372928,1715.904913308969,56.80000181760001,0.35999970196000003,0.917904029372928,1684,0.0,99,GPS_Atti,
0.368322731636341,36.910450298498894,27000,2017-11-07 06:11:14,1716.4049133249694,57.3000018336,0.0,0.9238360295627522,1716.4049133249694,57.3000018336,0.35999970196000003,0.9238360295627522,1684,0.0,99,GPS_Atti,
0.36832266321889506,36.9104502819868,27100,2017-11-07 06:11:14,1716.9049133409692,57.8000018496,0.0,0.929702029750464,1716.9049133409692,57.8000018496,0.35999970196000003,0.929702029750464,1684,0.0,99,GPS_Atti,
0.36832257773535604,36.9104502933674,27200,2017-11-07 06:11:14,1717.404913356969,58.30000186560001,0.0,0.9341760298936321,1717.404913356969,58.30000186560001,0.35999970196000003,0.9341760298936321,1684,0.0,99,GPS_Atti,
0.36832252645809704,36.910450290457504,27300,2017-11-07 06:11:14,1718.0049133761693,58.900001884800005,0.0,0.937773030008736,1718.0049133761693,58.900001884800005,0.35999970196000003,0.937773030008736,1684,0.0,99,GPS_Atti,
0.36832242800074505,36.910450300617704,27400,2017-11-07 06:11:14,1718.504913392169,59.4000019008,0.0,0.9433300301865601,1718.504913392169,59.4000019008,0.35999970196000003,0.9433300301865601,1684,0.0,99,GPS_Atti,
0.36832235340254,36.9104502912979,27500,2017-11-07 06:11:14,1719.0049134081692,59.9000019168,0.0,0.949117030371744,1719.0049134081692,59.9000019168,0.35999970196000003,0.949117030371744,1684,0.0,99,GPS_Atti,
0.3683222595911379,36.9104502688193,27600,2017-11-07 06:11:14,1719.5049134241692,60.40000193280001,0.0,0.9574010306368321,1719.5049134241692,60.40000193280001,0.35999970196000003,0.9574010306368321,1684,0.0,99,GPS_Atti,
0.368322194762782,36.9104502353603,27700,2017-11-07 06:11:14,1720.004913440169,60.9000019488,0.0,0.9647340308714879,1720.004913440169,60.9000019488,0.35999970196000003,0.9647340308714879,1684,0.0,99,GPS_Atti,
0.368322087608725,36.91045021941029,27800,2017-11-07 06:11:14,1720.504913456169,61.400001964800005,0.0,0.9734290311497281,1720.504913456169,61.400001964800005,0.35999970196000003,0.9734290311497281,1684,0.0,98,GPS_Atti,
0.36832202075132797,36.9104501840274,27900,2017-11-07 06:11:14,1721.0049134721692,61.9000019808,0.0,0.9811120313955841,1721.0049134721692,61.9000019808,0.35999970196000003,0.9811120313955841,1684,0.0,98,GPS_Atti,
0.368321926080922,36.9104501371954,28000,2017-11-07 06:11:15,1721.5049134881692,62.4000019968,0.0,0.9917260317352321,1721.5049134881692,62.4000019968,0.35999970196000003,0.9917260317352321,1684,0.0,98,GPS_Atti,
0.36832186029748404,36.9104500923173,28100,2017-11-07 06:11:15,1722.004913504169,62.9000020128,0.0,1.00019003200608,1722.004913504169,62.9000020128,0.35999970196000003,1.00019003200608,1684,0.0,98,GPS_Atti,
0.368321753276145,36.910450089458706,28200,2017-11-07 06:11:15,1722.6049135233693,63.500002032,0.0,1.00791003225312,1722.6049135233693,63.500002032,0.35999970196000003,1.00791003225312,1684,0.0,98,GPS_Atti,
0.368321682241789,36.9104500856773,28300,2017-11-07 06:11:15,1723.1049135393691,64.000002048,0.0,1.01324003242368,1723.1049135393691,64.000002048,0.35999970196000003,1.01324003242368,1684,0.0,98,GPS_Atti,
0.368321596991117,36.910450105692505,28400,2017-11-07 06:11:15,1723.604913555369,64.500002064,0.0,1.0175800325625601,1723.604913555369,64.500002064,0.35999970196000003,1.0175800325625601,1684,0.0,98,GPS_Atti,
0.368321545621851,36.9104501067332,28500,2017-11-07 06:11:15,1724.1049135713693,65.00000208,0.0,1.02117003267744,1724.1049135713693,65.00000208,0.35999970196000003,1.02117003267744,1684,0.0,98,GPS_Atti,
0.36832144552547,36.9104500902756,28600,2017-11-07 06:11:15,1724.604913587369,65.500002096,0.0,1.02978003295296,1724.604913587369,65.500002096,0.35999970196000003,1.02978003295296,1684,0.0,98,GPS_Atti,
0.36832137428674494,36.9104500581496,28700,2017-11-07 06:11:15,1725.1049136033691,66.000002112,0.0,1.03766003320512,1725.1049136033691,66.000002112,0.35999970196000003,1.03766003320512,1684,0.0,98,GPS_Atti,
0.36832129693239796,36.9104500459414,28800,2017-11-07 06:11:15,1725.6049136193692,66.500002128,0.0,1.04432003341824,1725.6049136193692,66.500002128,0.35999970196000003,1.04432003341824,1684,0.0,98,GPS_Atti,
0.368321261131057,36.910450027288,28900,2017-11-07 06:11:15,1726.1049136353693,67.00000214399999,0.0,1.04851003355232,1726.1049136353693,67.00000214399999,0.35999970196000003,1.04851003355232,1684,0.0,98,GPS_Atti,
0.36832120753163705,36.9104499951299,29100,2017-11-07 06:11:16,1727.104913667369,68.00000217600001,0.0,1.05513003376416,1727.104913667369,68.00000217600001,0.35999970196000003,1.05513003376416,1684,0.0,98,GPS_Atti,
0.36832117426822497,36.9104499887501,29200,2017-11-07 06:11:16,1727.6049136833692,68.500002192,0.0,1.0581000338592,1727.6049136833692,68.500002192,0.35999970196000003,1.0581000338592,1684,0.0,98,GPS_Atti,
0.368321168146905,36.910449975487204,29300,2017-11-07 06:11:16,1728.104913699369,69.000002208,0.0,1.05966003390912,1728.104913699369,69.000002208,0.35999970196000003,1.05966003390912,1684,0.0,98,GPS_Atti,
0.36832112791212396,36.9104499577557,29400,2017-11-07 06:11:16,1728.604913715369,69.500002224,0.0,1.0641000340512001,1728.604913715369,69.500002224,0.35999970196000003,1.0641000340512001,1684,0.0,98,GPS_Atti,
