latitude,longitude,time_millisecond,datetime_utc,altitude_m,ascent_m,speed_kph,distance_m,max_altitude_m,max_ascent_m,max_speed_kph,max_distance_m,rc_throttle,gimbal_pitch_degrees,battery_percent,flycState,message
0.369658540078203,36.9022765343548,0,2017-11-16 06:29:00,1684.600029507198,0.0,0.0,0.0,1684.600029507198,0.0,0.0,0.0,1024,0.0,99,GPS_Atti,
0.369658523792135,36.9022765560299,100,2017-11-16 06:29:00,1684.600029507198,0.0,0.0,0.0030149500964784,1684.600029507198,0.0,0.0,0.0030149500964784,1024,0.0,99,Motors_Started,
0.369658493136677,36.902276567008,200,2017-11-16 06:29:00,1684.600029507198,0.0,0.0,0.0063589002034848,1684.600029507198,0.0,0.0,0.0063589002034848,1024,0.0,99,Motors_Started,
0.369658459823598,36.902276573846,300,2017-11-16 06:29:00,1684.600029507198,0.0,0.0,0.009946750318296,1684.600029507198,0.0,0.0,0.009946750318296,1024,0.0,99,Motors_Started,Setting new Return-To-Home altitude to 30m (98 ft). Setting new Maximum Flight Altitude to 120m (394 ft)
0.369658417873252,36.9022765523234,400,2017-11-16 06:29:00,1684.600029507198,0.0,0.0,0.013736000439552,1684.600029507198,0.0,0.0,0.013736000439552,1024,0.0,99,Motors_Started,
0.36965837105223,36.9022765330621,500,2017-11-16 06:29:00,1684.600029507198,0.0,0.0,0.018797300601513602,1684.600029507198,0.0,0.0,0.018797300601513602,1024,0.0,99,Motors_Started,
0.369658321658267,36.9022765199064,600,2017-11-16 06:29:00,1684.600029507198,0.0,0.0,0.0243427007789664,1684.600029507198,0.0,0.0,0.0243427007789664,1024,0.0,99,Motors_Started,
0.369658267027228,36.90227651238,700,2017-11-16 06:29:00,1684.600029507198,0.0,0.0,0.0304631009748192,1684.600029507198,0.0,0.0,0.0304631009748192,1024,0.0,99,Motors_Started,
0.36965821214378,36.9022765063278,800,2017-11-16 06:29:00,1684.600029507198,0.0,0.0,0.036601201171238405,1684.600029507198,0.0,0.0,0.036601201171238405,1024,0.0,99,Motors_Started,
0.369658153443259,36.9022764941352,900,2017-11-16 06:29:00,1684.600029507198,0.0,0.0,0.0432282013833024,1684.600029507198,0.0,0.0,0.0432282013833024,1024,0.0,99,Motors_Started,
0.369658096586137,36.9022764627336,1000,2017-11-16 06:29:01,1684.600029507198,0.0,0.0,0.049958001598656,1684.600029507198,0.0,0.0,0.049958001598656,800,0.0,99,Motors_Started,
0.369658039714359,36.9022764311564,1100,2017-11-16 06:29:01,1684.600029507198,0.0,0.0,0.056814601818067204,1684.600029507198,0.0,0.0,0.056814601818067204,1024,0.0,99,Motors_Started,
0.369658023633474,36.9022764144656,1200,2017-11-16 06:29:01,1684.600029507198,0.0,0.0,0.058959001886688,1684.600029507198,0.0,0.0,0.058959001886688,1024,0.0,99,Motors_Started,
0.369657996837428,36.9022763882602,1300,2017-11-16 06:29:01,1684.600029507198,0.0,0.0,0.06255810200185921,1684.600029507198,0.0,0.0,0.06255810200185921,1024,0.0,99,Motors_Started,
0.369657959485808,36.9022763487284,1400,2017-11-16 06:29:01,1684.600029507198,0.0,0.0,0.06778500216912,1684.600029507198,0.0,0.0,0.06778500216912,1024,0.0,99,Motors_Started,
0.369657922963066,36.9022763132387,1500,2017-11-16 06:29:01,1684.600029507198,0.0,0.0,0.0728991023327712,1684.600029507198,0.0,0.0,0.0728991023327712,1024,0.0,99,Motors_Started,
0.369657878589596,36.9022762912552,1600,2017-11-16 06:29:01,1684.600029507198,0.0,0.0,0.07837170250789441,1684.600029507198,0.0,0.0,0.07837170250789441,1024,0.0,99,Assisted_Takeoff,
0.369657830617264,36.9022762756618,1700,2017-11-16 06:29:01,1684.600029507198,0.0,0.0,0.08397750268728,1684.600029507198,0.0,0.0,0.08397750268728,1024,0.0,99,Assisted_Takeoff,
0.369657778363753,36.9022762618755,1800,2017-11-16 06:29:01,1684.600029507198,0.0,0.0,0.0899637028788384,1684.600029507198,0.0,0.0,0.0899637028788384,1024,0.0,99,Assisted_Takeoff,
0.369657728846028,36.9022762493483,1900,2017-11-16 06:29:01,1684.600029507198,0.0,0.0,0.0956193030598176,1684.600029507198,0.0,0.0,0.0956193030598176,1024,0.0,99,Assisted_Takeoff,
0.369657673237922,36.9022762151797,2000,2017-11-16 06:29:02,1684.600029507198,0.0,0.0,0.1027250032872,1684.600029507198,0.0,0.0,0.1027250032872,1024,0.0,99,Assisted_Takeoff,
0.369657631066108,36.9022761869423,2100,2017-11-16 06:29:02,1684.600029507198,0.0,0.0,0.108219003463008,1684.600029507198,0.0,0.0,0.108219003463008,1024,0.0,99,Assisted_Takeoff,
0.369657606924426,36.9022761692504,2200,2017-11-16 06:29:02,1684.600029507198,0.0,0.0,0.11143200356582401,1684.600029507198,0.0,0.0,0.11143200356582401,1024,0.0,99,Assisted_Takeoff,
0.369657582813684,36.9022761450503,2300,2017-11-16 06:29:02,1684.600029507198,0.0,0.0,0.11492000367744,1684.600029507198,0.0,0.0,0.11492000367744,1024,0.0,99,Assisted_Takeoff,
0.369657547456908,36.9022761068948,2400,2017-11-16 06:29:02,1684.600029507198,0.0,0.0,0.12018600384595202,1684.600029507198,0.0,0.0,0.12018600384595202,1044,0.0,99,Assisted_Takeoff,
0.369657499351044,36.9022760614066,2500,2017-11-16 06:29:02,1684.600029507198,0.0,0.0,0.127125004068,1684.600029507198,0.0,0.0,0.127125004068,1366,0.0,99,Assisted_Takeoff,
0.369657424424707,36.9022760097025,2600,2017-11-16 06:29:02,1684.600029507198,0.0,0.0,0.137101004387232,1684.600029507198,0.0,0.0,0.137101004387232,1684,0.0,99,Assisted_Takeoff,
0.369657347443274,36.9022759532031,2700,2017-11-16 06:29:02,1684.600029507198,0.0,0.0,0.147536004721152,1684.600029507198,0.0,0.0,0.147536004721152,1684,0.0,99,Assisted_Takeoff,
0.369657277245939,36.9022758937434,2800,2017-11-16 06:29:03,1684.600029507198,0.0,0.0,0.15747000503904002,1684.600029507198,0.0,0.0,0.15747000503904002,1684,0.0,99,Assisted_Takeoff,
0.369657203298297,36.9022758415918,2900,2017-11-16 06:29:03,1684.600029507198,0.0,0.0,0.167434005357888,1684.600029507198,0.0,0.0,0.167434005357888,1684,0.0,99,Assisted_Takeoff,
0.369657134911791,36.9022758081876,3000,2017-11-16 06:29:03,1684.600029507198,0.0,0.0,0.17589500562864002,1684.600029507198,0.0,0.0,0.17589500562864002,1684,0.0,99,Assisted_Takeoff,
0.369657074121977,36.9022757916745,3100,2017-11-16 06:29:03,1684.600029507198,0.0,0.0,0.18275000584800002,1684.600029507198,0.0,0.0,0.18275000584800002,1684,0.0,99,Assisted_Takeoff,
0.369657005243681,36.9022757639028,3200,2017-11-16 06:29:03,1684.600029507198,0.0,0.0,0.19098000611136,1684.600029507198,0.0,0.0,0.19098000611136,1684,0.0,99,GPS_Atti,Obstacle Avoided. Revise Flight Route
0.369656897473257,36.9022757071357,3300,2017-11-16 06:29:03,1684.600029507198,0.0,0.0,0.20452300654473599,1684.600029507198,0.0,0.0,0.20452300654473599,1684,0.0,99,GPS_Atti,
0.369656764076011,36.9022756288965,3400,2017-11-16 06:29:03,1684.7000295103983,0.1000000032,0.0,0.221688007094016,1684.7000295103983,0.1000000032,0.0,0.221688007094016,1684,0.0,99,GPS_Atti,Home Point Recorded. RTH Altitude:  30m.
0.369656641143145,36.9022755660698,3500,2017-11-16 06:29:03,1684.800029513598,0.2000000064,0.0,0.237041007585312,1684.800029513598,0.2000000064,0.0,0.237041007585312,1684,0.0,99,GPS_Atti,
0.369656539038078,36.9022755215152,3600,2017-11-16 06:29:03,1684.900029516798,0.3000000096,0.0,0.24940800798105603,1684.900029516798,0.3000000096,0.0,0.24940800798105603,1684,0.0,99,GPS_Atti,
0.369656487027205,36.9022755020482,3700,2017-11-16 06:29:03,1685.1000295231981,0.500000016,0.0,0.25554700817750403,1685.1000295231981,0.500000016,0.0,0.25554700817750403,1684,0.0,99,GPS_Atti,
0.36965649740365,36.9022754983696,3800,2017-11-16 06:29:03,1685.300029529598,0.7000000224,0.0,0.254702008150464,1685.300029529598,0.7000000224,0.0,0.25554700817750403,1684,0.0,99,GPS_Atti,
0.369656532366343,36.9022754906601,3900,2017-11-16 06:29:03,1685.6000295391982,1.000000032,0.0,0.25163500805232003,1685.6000295391982,1.000000032,0.0,0.25554700817750403,1684,0.0,99,GPS_Atti,
0.369656533182193,36.9022754603083,4000,2017-11-16 06:29:04,1686.000029551998,1.4000000448,0.0,0.253129008100128,1686.000029551998,1.4000000448,0.0,0.25554700817750403,1684,0.0,99,GPS_Atti,
0.369656538751472,36.9022754518258,4100,2017-11-16 06:29:04,1686.4000295647982,1.8000000576000001,0.0,0.253031008096992,1686.4000295647982,1.8000000576000001,0.0,0.25554700817750403,1684,0.0,99,GPS_Atti,
0.369656527098326,36.902275457317,4200,2017-11-16 06:29:04,1686.800029577598,2.2000000704000002,0.0,0.253883008124256,1686.800029577598,2.2000000704000002,0.0,0.25554700817750403,1684,0.0,99,GPS_Atti,
0.369656507389269,36.9022754783588,4300,2017-11-16 06:29:04,1687.300029593598,2.7000000864,0.0,0.25473000815136004,1687.300029593598,2.7000000864,0.0,0.25554700817750403,1684,0.0,99,GPS_Atti,
0.369656493931807,36.9022754904749,4400,2017-11-16 06:29:04,1687.8000296095981,3.2000001024,0.0,0.25544400817420804,1687.8000296095981,3.2000001024,0.0,0.25554700817750403,1684,0.0,99,GPS_Atti,
0.369656523709534,36.9022754885682,4500,2017-11-16 06:29:04,1688.3000296255982,3.7000001184,0.0,0.25259600808307203,1688.3000296255982,3.7000001184,0.0,0.25554700817750403,1684,0.0,99,GPS_Atti,
0.369656569038902,36.9022754136146,4600,2017-11-16 06:29:04,1688.800029641598,4.200000134400001,0.35999970196000003,0.252146008068672,1688.800029641598,4.200000134400001,0.35999970196000003,0.25554700817750403,1684,0.0,99,GPS_Atti,
0.369656640797915,36.9022752985067,4700,2017-11-16 06:29:04,1689.400029660798,4.8000001536,0.35999970196000003,0.25198700806358404,1689.400029660798,4.8000001536,0.35999970196000003,0.25554700817750403,1684,0.0,99,GPS_Atti,
0.36965671860334,36.9022751700065,4800,2017-11-16 06:29:04,1689.900029676798,5.3000001696000005,0.35999970196000003,0.25308000809856,1689.900029676798,5.3000001696000005,0.35999970196000003,0.25554700817750403,1684,0.0,99,GPS_Atti,
0.369656824190021,36.9022750681591,4900,2017-11-16 06:29:04,1690.400029692798,5.8000001856,0.0,0.250989008031648,1690.400029692798,5.8000001856,0.35999970196000003,0.25554700817750403,1684,0.0,99,GPS_Atti,
0.369656925935202,36.9022749734239,5000,2017-11-16 06:29:05,1690.8000297055983,6.200000198400001,0.0,0.249703007990496,1690.8000297055983,6.200000198400001,0.35999970196000003,0.25554700817750403,1684,0.0,99,GPS_Atti,
0.369657019577245,36.9022749140049,5100,2017-11-16 06:29:05,1691.2000297183981,6.6000002112,0.0,0.247102007907264,1691.2000297183981,6.6000002112,0.35999970196000003,0.25554700817750403,1684,0.0,99,GPS_Atti,
0.369657074573056,36.9022748826082,5200,2017-11-16 06:29:05,1691.7000297343982,7.1000002272,0.0,0.24555800785785603,1691.7000297343982,7.1000002272,0.35999970196000003,0.25554700817750403,1684,0.0,99,GPS_Atti,
0.369657080277495,36.9022748667663,5300,2017-11-16 06:29:05,1692.100029747198,7.50000024,0.0,0.24646000788672004,1692.100029747198,7.50000024,0.35999970196000003,0.25554700817750403,1684,0.0,99,GPS_Atti,
0.369657026278292,36.9022748079972,5400,2017-11-16 06:29:05,1692.600029763198,8.000000256,0.0,0.255333008170656,1692.600029763198,8.000000256,0.35999970196000003,0.25554700817750403,1684,0.0,99,GPS_Atti,
0.36965697564834,36.9022747542707,5500,2017-11-16 06:29:05,1693.1000297791982,8.500000272,0.0,0.263538008433216,1693.1000297791982,8.500000272,0.35999970196000003,0.263538008433216,1684,0.0,99,GPS_Atti,
0.369656944623225,36.9022746760486,5600,2017-11-16 06:29:05,1693.5000297919983,8.9000002848,0.35999970196000003,0.27236700871574404,1693.5000297919983,8.9000002848,0.35999970196000003,0.27236700871574404,1684,0.0,99,GPS_Atti,
0.369656952255742,36.9022746029033,5700,2017-11-16 06:29:05,1694.000029807998,9.4000003008,0.35999970196000003,0.278049008897568,1694.000029807998,9.4000003008,0.35999970196000003,0.278049008897568,1684,0.0,99,GPS_Atti,
0.369656984467993,36.902274509289,5800,2017-11-16 06:29:05,1694.5000298239981,9.900000316800002,0.35999970196000003,0.283971009087072,1694.5000298239981,9.900000316800002,0.35999970196000003,0.283971009087072,1684,0.0,99,GPS_Atti,
0.369657047420381,36.9022744256335,5900,2017-11-16 06:29:06,1695.000029839998,10.400000332800001,0.35999970196000003,0.287303009193696,1695.000029839998,10.400000332800001,0.35999970196000003,0.287303009193696,1684,0.0,99,GPS_Atti,
0.369657138733749,36.9022743251233,6000,2017-11-16 06:29:06,1695.4000298527983,10.8000003456,0.35999970196000003,0.290932009309824,1695.4000298527983,10.8000003456,0.35999970196000003,0.290932009309824,1684,0.0,99,GPS_Atti,
0.369657288636905,36.9022742305551,6100,2017-11-16 06:29:06,1695.9000298687981,11.3000003616,0.35999970196000003,0.2915500093296,1695.9000298687981,11.3000003616,0.35999970196000003,0.2915500093296,1684,0.0,99,GPS_Atti,
0.369657438255082,36.9022741379118,6200,2017-11-16 06:29:06,1696.400029884798,11.8000003776,0.35999970196000003,0.293313009386016,1696.400029884798,11.8000003776,0.35999970196000003,0.293313009386016,1684,0.0,99,GPS_Atti,
0.369657564531144,36.9022740626607,6300,2017-11-16 06:29:06,1696.900029900798,12.300000393600001,0.35999970196000003,0.295497009455904,1696.900029900798,12.300000393600001,0.35999970196000003,0.295497009455904,1684,0.0,99,GPS_Atti,
0.369657683259367,36.9022740097906,6400,2017-11-16 06:29:06,1697.400029916798,12.8000004096,0.0,0.29647000948704005,1697.400029916798,12.8000004096,0.35999970196000003,0.29647000948704005,1684,0.0,99,GPS_Atti,
0.369657774592277,36.9022739485966,6500,2017-11-16 06:29:06,1697.8000299295982,13.2000004224,0.0,0.299882009596224,1697.8000299295982,13.2000004224,0.35999970196000003,0.299882009596224,1684,0.0,99,GPS_Atti,
0.369657820341783,36.9022738803686,6600,2017-11-16 06:29:06,1698.300029945598,13.7000004384,0.0,0.30579400978540805,1698.300029945598,13.7000004384,0.35999970196000003,0.30579400978540805,1684,0.0,99,GPS_Atti,
0.369657872951923,36.9022738291527,6700,2017-11-16 06:29:06,1698.800029961598,14.2000004544,0.0,0.30984200991494404,1698.800029961598,14.2000004544,0.35999970196000003,0.30984200991494404,1684,0.0,99,GPS_Atti,
0.369657925361764,36.9022737915453,6800,2017-11-16 06:29:06,1699.3000299775981,14.7000004704,0.0,0.312578010002496,1699.3000299775981,14.7000004704,0.35999970196000003,0.312578010002496,1684,0.0,99,GPS_Atti,
0.369657997834036,36.9022737575994,6900,2017-11-16 06:29:06,1699.8000299935982,15.200000486400002,0.0,0.314618010067776,1699.8000299935982,15.200000486400002,0.35999970196000003,0.314618010067776,1684,0.0,99,GPS_Atti,
0.369658058045753,36.9022737198978,7000,2017-11-16 06:29:07,1700.300030009598,15.700000502400002,0.0,0.317536010161152,1700.300030009598,15.700000502400002,0.35999970196000003,0.317536010161152,1684,0.0,99,GPS_Atti,
0.369658138140771,36.9022736865386,7100,2017-11-16 06:29:07,1700.8000300255983,16.2000005184,0.0,0.319827010234464,1700.8000300255983,16.2000005184,0.35999970196000003,0.319827010234464,1684,0.0,99,GPS_Atti,
0.36965819859024,36.9022736521912,7200,2017-11-16 06:29:07,1701.3000300415981,16.7000005344,0.0,0.322749010327968,1701.3000300415981,16.7000005344,0.35999970196000003,0.322749010327968,1684,0.0,99,GPS_Atti,
0.36965827056258,36.902273619347,7300,2017-11-16 06:29:07,1701.800030057598,17.2000005504,0.0,0.32554301041737604,1701.800030057598,17.2000005504,0.35999970196000003,0.32554301041737604,1684,0.0,99,GPS_Atti,
0.369658329206105,36.9022735920475,7400,2017-11-16 06:29:07,1702.4000300767982,17.8000005696,0.0,0.32803501049712,1702.4000300767982,17.8000005696,0.35999970196000003,0.32803501049712,1684,0.0,99,GPS_Atti,
0.369658394270585,36.9022735701823,7500,2017-11-16 06:29:07,1702.900030092798,18.3000005856,0.0,0.33002601056083203,1702.900030092798,18.3000005856,0.35999970196000003,0.33002601056083203,1684,0.0,99,GPS_Atti,
0.369658433315787,36.9022735436044,7600,2017-11-16 06:29:07,1703.4000301087979,18.8000006016,0.0,0.33279501064944,1703.4000301087979,18.8000006016,0.35999970196000003,0.33279501064944,1684,0.0,99,GPS_Atti,
0.369658478433456,36.9022735171742,7700,2017-11-16 06:29:07,1704.0000301279981,19.4000006208,0.0,0.335592010738944,1704.0000301279981,19.4000006208,0.35999970196000003,0.335592010738944,1684,0.0,99,GPS_Atti,
0.369658509504167,36.9022735022156,7800,2017-11-16 06:29:07,1704.500030143998,19.900000636799998,0.0,0.337202010790464,1704.500030143998,19.900000636799998,0.35999970196000003,0.337202010790464,1684,0.0,99,GPS_Atti,
0.369658559394806,36.9022735015144,7900,2017-11-16 06:29:07,1705.1000301631982,20.500000656,0.0,0.33727001079264,1705.1000301631982,20.500000656,0.35999970196000003,0.33727001079264,1684,0.0,99,GPS_Atti,
0.369658599161408,36.90227351614,8000,2017-11-16 06:29:08,1705.600030179198,21.000000672,0.0,0.335701010742432,1705.600030179198,21.000000672,0.35999970196000003,0.33727001079264,1684,0.0,99,GPS_Atti,
0.369658646638693,36.9022735507968,8100,2017-11-16 06:29:08,1706.1000301951979,21.500000688,0.0,0.33199501062384,1706.1000301951979,21.500000688,0.35999970196000003,0.33727001079264,1684,0.0,99,GPS_Atti,
0.369658672851756,36.9022735850189,8200,2017-11-16 06:29:08,1706.700030214398,22.1000007072,0.0,0.32831001050592,1706.700030214398,22.1000007072,0.35999970196000003,0.33727001079264,1684,0.0,99,GPS_Atti,
0.369658704290496,36.9022736147883,8300,2017-11-16 06:29:08,1707.3000302335981,22.7000007264,0.0,0.32518001040576,1707.3000302335981,22.7000007264,0.35999970196000003,0.33727001079264,1684,0.0,99,GPS_Atti,
0.369658702399873,36.9022736381073,8400,2017-11-16 06:29:08,1707.8000302495982,23.2000007424,0.0,0.322579010322528,1707.8000302495982,23.2000007424,0.35999970196000003,0.33727001079264,1684,0.0,99,GPS_Atti,
0.369658714347766,36.9022736731313,8500,2017-11-16 06:29:08,1708.400030268798,23.8000007616,0.0,0.31876901020060805,1708.400030268798,23.8000007616,0.35999970196000003,0.33727001079264,1684,0.0,99,GPS_Atti,
0.369658728474518,36.9022737162213,8600,2017-11-16 06:29:08,1709.000030287998,24.400000780800003,0.0,0.31408701005078404,1709.000030287998,24.400000780800003,0.35999970196000003,0.33727001079264,1684,0.0,99,GPS_Atti,
0.3696587544368,36.9022737716244,8700,2017-11-16 06:29:08,1709.500030303998,24.9000007968,0.0,0.308149009860768,1709.500030303998,24.9000007968,0.35999970196000003,0.33727001079264,1684,0.0,99,GPS_Atti,
0.369658762111657,36.902273832251,8800,2017-11-16 06:29:08,1710.100030323198,25.500000816000004,0.0,0.30149700964790405,1710.100030323198,25.500000816000004,0.35999970196000003,0.33727001079264,1684,0.0,99,GPS_Atti,
0.369658773439113,36.9022739059263,8900,2017-11-16 06:29:08,1710.700030342398,26.100000835200003,0.0,0.293441009390112,1710.700030342398,26.100000835200003,0.35999970196000003,0.33727001079264,1684,0.0,99,GPS_Atti,
0.369658757833735,36.9022739820789,9000,2017-11-16 06:29:09,1711.3000303615981,26.700000854400002,0.0,0.284854009115328,1711.3000303615981,26.700000854400002,0.35999970196000003,0.33727001079264,1684,0.0,99,GPS_Atti,
0.369658736597197,36.9022740787723,9100,2017-11-16 06:29:09,1711.9000303807982,27.3000008736,0.0,0.273943008766176,1711.9000303807982,27.3000008736,0.35999970196000003,0.33727001079264,1684,0.0,99,GPS_Atti,
0.369658688207983,36.902274178397,9200,2017-11-16 06:29:09,1712.400030396798,27.8000008896,0.0,0.262509008400288,1712.400030396798,27.8000008896,0.35999970196000003,0.33727001079264,1684,0.0,99,GPS_Atti,
0.369658612548847,36.902274289563,9300,2017-11-16 06:29:09,1713.000030415998,28.4000009088,0.0,0.249759007992288,1713.000030415998,28.4000009088,0.35999970196000003,0.33727001079264,1684,0.0,99,GPS_Atti,
0.36965849715242,36.9022743872274,9400,2017-11-16 06:29:09,1713.600030435198,29.000000928000002,0.35999970196000003,0.238816007642112,1713.600030435198,29.000000928000002,0.35999970196000003,0.33727001079264,1684,0.0,99,GPS_Atti,
0.36965837261228,36.902274500738,9500,2017-11-16 06:29:09,1714.1000304511979,29.500000944,0.35999970196000003,0.22691100726115201,1714.1000304511979,29.500000944,0.35999970196000003,0.33727001079264,1684,0.0,99,GPS_Atti,
0.369658243606946,36.9022746098259,9600,2017-11-16 06:29:09,1714.7000304703981,30.1000009632,0.35999970196000003,0.21654000692928,1714.7000304703981,30.1000009632,0.35999970196000003,0.33727001079264,1684,0.0,99,GPS_Atti,
0.369658114544617,36.9022747136078,9700,2017-11-16 06:29:09,1715.3000304895982,30.700000982400002,0.35999970196000003,0.20793000665376002,1715.3000304895982,30.700000982400002,0.35999970196000003,0.33727001079264,1684,0.0,99,GPS_Atti,
0.36965798766766,36.9022747775308,9800,2017-11-16 06:29:09,1715.8000305055982,31.2000009984,0.0,0.20479600655347202,1715.8000305055982,31.2000009984,0.35999970196000003,0.33727001079264,1684,0.0,99,GPS_Atti,
0.369657874498944,36.9022748400139,9900,2017-11-16 06:29:09,1716.400030524798,31.800001017600003,0.0,0.202434006477888,1716.400030524798,31.800001017600003,0.35999970196000003,0.33727001079264,1684,0.0,99,GPS_Atti,
0.369657775929229,36.9022749131902,10000,2017-11-16 06:29:10,1717.000030543998,32.4000010368,0.0,0.19930400637772802,1717.000030543998,32.4000010368,0.35999970196000003,0.33727001079264,1684,0.0,99,GPS_Atti,
0.369657691849409,36.9022749817693,10100,2017-11-16 06:29:10,1717.500030559998,32.9000010528,0.0,0.19674100629571203,1717.500030559998,32.9000010528,0.35999970196000003,0.33727001079264,1684,0.0,99,GPS_Atti,
0.369657629825234,36.9022750336876,10200,2017-11-16 06:29:10,1718.1000305791981,33.500001072,0.0,0.195181006245792,1718.1000305791981,33.500001072,0.35999970196000003,0.33727001079264,1684,0.0,99,GPS_Atti,
0.36965758213788,36.9022751238791,10300,2017-11-16 06:29:10,1718.700030598398,34.1000010912,0.0,0.18960600606739203,1718.700030598398,34.1000010912,0.35999970196000003,0.33727001079264,1684,0.0,99,GPS_Atti,
0.369657519276685,36.9022752215896,10400,2017-11-16 06:29:10,1719.2000306143982,34.6000011072,0.0,0.184927005917664,1719.2000306143982,34.6000011072,0.35999970196000003,0.33727001079264,1684,0.0,99,GPS_Atti,
0.36965744845077,36.9022753048372,10500,2017-11-16 06:29:10,1719.800030633598,35.200001126400004,0.0,0.182842005850944,1719.800030633598,35.200001126400004,0.35999970196000003,0.33727001079264,1684,0.0,99,GPS_Atti,
0.369657348993553,36.9022753457142,10600,2017-11-16 06:29:10,1720.3000306495983,35.700001142400005,0.0,0.187127005988064,1720.3000306495983,35.700001142400005,0.35999970196000003,0.33727001079264,1684,0.0,99,GPS_Atti,
0.369657251106156,36.9022753915707,10700,2017-11-16 06:29:10,1720.900030668798,36.3000011616,0.0,0.191564006130048,1720.900030668798,36.3000011616,0.35999970196000003,0.33727001079264,1684,0.0,99,GPS_Atti,
0.369657137336544,36.9022754504747,10800,2017-11-16 06:29:10,1721.400030684798,36.8000011776,0.0,0.197134006308288,1721.400030684798,36.8000011776,0.35999970196000003,0.33727001079264,1684,0.0,99,GPS_Atti,
0.369657016330128,36.9022755352233,10900,2017-11-16 06:29:11,1722.0000307039982,37.400001196800005,0.0,0.202628006484096,1722.0000307039982,37.400001196800005,0.35999970196000003,0.33727001079264,1684,0.0,99,GPS_Atti,
0.369656914065473,36.9022755879745,11000,2017-11-16 06:29:11,1722.500030719998,37.9000012128,0.0,0.20921900669500804,1722.500030719998,37.9000012128,0.35999970196000003,0.33727001079264,1684,0.0,99,GPS_Atti,
0.369656826230461,36.9022756224514,11100,2017-11-16 06:29:11,1723.100030739198,38.500001232,0.0,0.21588900690844803,1723.100030739198,38.500001232,0.35999970196000003,0.33727001079264,1684,0.0,99,GPS_Atti,
0.369656747741089,36.9022756389356,11200,2017-11-16 06:29:11,1723.600030755198,39.000001248000004,0.0,0.22280700712982401,1723.600030755198,39.000001248000004,0.35999970196000003,0.33727001079264,1684,0.0,99,GPS_Atti,
0.369656673913952,36.9022756732798,11300,2017-11-16 06:29:11,1724.100030771198,39.500001264,0.0,0.22855500731376002,1724.100030771198,39.500001264,0.35999970196000003,0.33727001079264,1684,0.0,99,GPS_Atti,
0.369656602881225,36.9022756959232,11400,2017-11-16 06:29:11,1724.7000307903982,40.10000128320001,0.0,0.234739007511648,1724.7000307903982,40.10000128320001,0.35999970196000003,0.33727001079264,1684,0.0,99,GPS_Atti,
0.369656537263074,36.9022757271904,11500,2017-11-16 06:29:11,1725.3000308095982,40.700001302400004,0.0,0.24013200768422402,1725.3000308095982,40.700001302400004,0.35999970196000003,0.33727001079264,1684,0.0,99,GPS_Atti,
0.369656450817124,36.9022757357907,11600,2017-11-16 06:29:11,1725.800030825598,41.2000013184,0.0,0.24873100795939201,1725.800030825598,41.2000013184,0.35999970196000003,0.33727001079264,1684,0.0,99,GPS_Atti,
0.369656373001928,36.9022757723125,11700,2017-11-16 06:29:11,1726.300030841598,41.7000013344,0.0,0.255457008174624,1726.300030841598,41.7000013344,0.35999970196000003,0.33727001079264,1684,0.0,99,GPS_Atti,
0.369656306356229,36.9022758114626,11800,2017-11-16 06:29:11,1726.900030860798,42.300001353599995,0.0,0.261087008354784,1726.900030860798,42.300001353599995,0.35999970196000003,0.33727001079264,1684,0.0,99,GPS_Atti,
0.36965624991436,36.9022758712295,11900,2017-11-16 06:29:12,1727.4000308767982,42.800001369600004,0.0,0.265141008484512,1727.4000308767982,42.800001369600004,0.35999970196000003,0.33727001079264,1684,0.0,99,GPS_Atti,
0.369656192728292,36.9022759058467,12000,2017-11-16 06:29:12,1728.0000308959982,43.4000013888,0.0,0.27023400864748803,1728.0000308959982,43.4000013888,0.35999970196000003,0.33727001079264,1684,0.0,99,GPS_Atti,
0.369656154264445,36.9022759496722,12100,2017-11-16 06:29:12,1728.500030911998,43.9000014048,0.0,0.273168008741376,1728.500030911998,43.9000014048,0.35999970196000003,0.33727001079264,1684,0.0,99,GPS_Atti,
0.369656103419538,36.9022759624317,12200,2017-11-16 06:29:12,1729.000030927998,44.4000014208,0.0,0.27833500890672,1729.000030927998,44.4000014208,0.35999970196000003,0.33727001079264,1684,0.0,99,GPS_Atti,
0.369656066077689,36.9022760008796,12300,2017-11-16 06:29:12,1729.600030947198,45.00000144,0.0,0.28144700900630404,1729.600030947198,45.00000144,0.35999970196000003,0.33727001079264,1684,0.0,99,GPS_Atti,
0.369656037995172,36.9022760342484,12400,2017-11-16 06:29:12,1730.1000309631982,45.50000145600001,0.0,0.28375000908000003,1730.1000309631982,45.50000145600001,0.35999970196000003,0.33727001079264,1684,0.0,99,GPS_Atti,
0.369656008862309,36.9022760906215,12500,2017-11-16 06:29:12,1730.600030979198,46.00000147200001,0.0,0.285779009144928,1730.600030979198,46.00000147200001,0.35999970196000003,0.33727001079264,1684,0.0,99,GPS_Atti,
0.369655964101269,36.9022761054056,12600,2017-11-16 06:29:12,1731.200030998398,46.600001491200004,0.0,0.29040900929308805,1731.200030998398,46.600001491200004,0.35999970196000003,0.33727001079264,1684,0.0,99,GPS_Atti,
0.369655935538361,36.9022761156802,12700,2017-11-16 06:29:12,1731.700031014398,47.100001507200005,0.0,0.29335900938748805,1731.700031014398,47.100001507200005,0.35999970196000003,0.33727001079264,1684,0.0,99,GPS_Atti,
0.369655929083209,36.9022761028661,12800,2017-11-16 06:29:12,1732.2000310303981,47.6000015232,0.0,0.29429700941750403,1732.2000310303981,47.6000015232,0.35999970196000003,0.33727001079264,1684,0.0,99,GPS_Atti,
0.369655936961621,36.9022761014272,12900,2017-11-16 06:29:12,1732.800031049598,48.20000154240001,0.0,0.293458009390656,1732.800031049598,48.20000154240001,0.35999970196000003,0.33727001079264,1684,0.0,99,GPS_Atti,
0.369655929172773,36.9022760924201,13000,2017-11-16 06:29:13,1733.3000310655982,48.7000015584,0.0,0.294478009423296,1733.3000310655982,48.7000015584,0.35999970196000003,0.33727001079264,1684,0.0,99,GPS_Atti,
0.369655928466029,36.9022760886526,13100,2017-11-16 06:29:13,1733.800031081598,49.200001574400005,0.0,0.294626009428032,1733.800031081598,49.200001574400005,0.35999970196000003,0.33727001079264,1684,0.0,99,GPS_Atti,
0.369655930403877,36.9022760630875,13200,2017-11-16 06:29:13,1734.400031100798,49.8000015936,0.0,0.294906009436992,1734.400031100798,49.8000015936,0.35999970196000003,0.33727001079264,1684,0.0,99,GPS_Atti,
0.369655937342677,36.9022760506834,13300,2017-11-16 06:29:13,1734.9000311167981,50.3000016096,0.0,0.29439500942064,1734.9000311167981,50.3000016096,0.35999970196000003,0.33727001079264,1684,0.0,99,GPS_Atti,
0.369655934313771,36.9022760463602,13400,2017-11-16 06:29:13,1735.4000311327982,50.800001625600004,0.0,0.294814009434048,1735.4000311327982,50.800001625600004,0.35999970196000003,0.33727001079264,1684,0.0,99,GPS_Atti,
0.369655934343083,36.9022760477242,13500,2017-11-16 06:29:13,1735.900031148798,51.300001641600005,0.0,0.294783009433056,1735.900031148798,51.300001641600005,0.35999970196000003,0.33727001079264,1684,0.0,99,GPS_Atti,
0.369655921867574,36.9022760335386,13600,2017-11-16 06:29:13,1736.4000311647983,51.8000016576,0.0,0.29644000948608,1736.4000311647983,51.8000016576,0.35999970196000003,0.33727001079264,1684,0.0,99,GPS_Atti,
0.369655923092163,36.9022760216955,13700,2017-11-16 06:29:13,1736.9000311807981,52.3000016736,0.0,0.296556009489792,1736.9000311807981,52.3000016736,0.35999970196000003,0.33727001079264,1684,0.0,99,GPS_Atti,
0.369655938148757,36.9022760072754,13800,2017-11-16 06:29:13,1737.500031199998,52.9000016928,0.0,0.29522700944726404,1737.500031199998,52.9000016928,0.35999970196000003,0.33727001079264,1684,0.0,99,GPS_Atti,
0.369655971810323,36.902275995003,13900,2017-11-16 06:29:13,1738.0000312159982,53.400001708800005,0.0,0.29183700933878404,1738.0000312159982,53.400001708800005,0.35999970196000003,0.33727001079264,1684,0.0,99,GPS_Atti,
0.369655994434295,36.9022759618429,14000,2017-11-16 06:29:14,1738.500031231998,53.900001724800006,0.0,0.290162009285184,1738.500031231998,53.900001724800006,0.35999970196000003,0.33727001079264,1684,0.0,99,GPS_Atti,
0.369656029247171,36.9022759442742,14100,2017-11-16 06:29:14,1739.1000312511983,54.500001744,0.0,0.286827009178464,1739.1000312511983,54.500001744,0.35999970196000003,0.33727001079264,1684,0.0,99,GPS_Atti,
0.36965604880804,36.9022759268703,14200,2017-11-16 06:29:14,1739.6000312671981,55.00000176,0.0,0.285162009125184,1739.6000312671981,55.00000176,0.35999970196000003,0.33727001079264,1684,0.0,99,GPS_Atti,
0.369656081494168,36.9022759003684,14300,2017-11-16 06:29:14,1740.100031283198,55.500001776000005,0.0,0.282353009035296,1740.100031283198,55.500001776000005,0.35999970196000003,0.33727001079264,1684,0.0,99,GPS_Atti,
0.369656111213271,36.9022758616636,14400,2017-11-16 06:29:14,1740.6000312991982,56.000001792,0.0,0.280272008968704,1740.6000312991982,56.000001792,0.35999970196000003,0.33727001079264,1684,0.0,99,GPS_Atti,
0.369656162323614,36.9022758257114,14500,2017-11-16 06:29:14,1741.200031318398,56.60000181120001,0.0,0.275914008829248,1741.200031318398,56.60000181120001,0.35999970196000003,0.33727001079264,1684,0.0,99,GPS_Atti,
0.369656220691932,36.9022757884787,14600,2017-11-16 06:29:14,1741.7000313343979,57.100001827199996,0.0,0.270938008670016,1741.7000313343979,57.100001827199996,0.35999970196000003,0.33727001079264,1684,0.0,99,GPS_Atti,
0.369656285857376,36.9022757683865,14700,2017-11-16 06:29:14,1742.2000313503981,57.600001843200005,0.0,0.264759008472288,1742.2000313503981,57.600001843200005,0.35999970196000003,0.33727001079264,1684,0.0,99,GPS_Atti,
0.369656338009923,36.9022757721776,14800,2017-11-16 06:29:15,1742.700031366398,58.100001859200006,0.0,0.259136008292352,1742.700031366398,58.100001859200006,0.35999970196000003,0.33727001079264,1684,0.0,99,GPS_Atti,
0.369656388314187,36.902275784177,14900,2017-11-16 06:29:15,1743.200031382398,58.60000187520001,0.0,0.253414008109248,1743.200031382398,58.60000187520001,0.35999970196000003,0.33727001079264,1684,0.0,99,GPS_Atti,
0.369656460304439,36.9022757851138,15000,2017-11-16 06:29:15,1743.700031398398,59.10000189120001,0.0,0.24583300786665602,1743.700031398398,59.10000189120001,0.35999970196000003,0.33727001079264,1684,0.0,99,GPS_Atti,
0.369656541387922,36.9022758011173,15100,2017-11-16 06:29:15,1744.2000314143982,59.6000019072,0.0,0.236751007576032,1744.2000314143982,59.6000019072,0.35999970196000003,0.33727001079264,1684,0.0,99,GPS_Atti,
0.369656607978254,36.9022758288097,15200,2017-11-16 06:29:15,1744.700031430398,60.100001923200004,0.0,0.22873800731961602,1744.700031430398,60.100001923200004,0.35999970196000003,0.33727001079264,1684,0.0,99,GPS_Atti,
0.369656668740385,36.9022758484897,15300,2017-11-16 06:29:15,1745.2000314463983,60.600001939200006,0.0,0.221641007092512,1745.2000314463983,60.600001939200006,0.35999970196000003,0.33727001079264,1684,0.0,99,GPS_Atti,
0.369656720262725,36.9022758482863,15400,2017-11-16 06:29:15,1745.700031462398,61.10000195520001,0.0,0.216278006920896,1745.700031462398,61.10000195520001,0.35999970196000003,0.33727001079264,1684,0.0,99,GPS_Atti,
0.36965680771831,36.9022758626304,15600,2017-11-16 06:29:15,1746.7000314943982,62.1000019872,0.0,0.20662400661196803,1746.7000314943982,62.1000019872,0.35999970196000003,0.33727001079264,1684,0.0,99,GPS_Atti,
0.369656867249337,36.902275867219,15700,2017-11-16 06:29:15,1747.200031510398,62.600002003200004,0.0,0.200276006408832,1747.200031510398,62.600002003200004,0.35999970196000003,0.33727001079264,1684,0.0,99,GPS_Atti,
0.369656939882824,36.9022758604677,15800,2017-11-16 06:29:15,1747.700031526398,63.100002019200005,0.0,0.19308700617878402,1747.700031526398,63.100002019200005,0.35999970196000003,0.33727001079264,1684,0.0,99,GPS_Atti,
0.369657027043661,36.9022758427073,15900,2017-11-16 06:29:15,1748.3000315455981,63.7000020384,0.0,0.18500500592016,1748.3000315455981,63.7000020384,0.35999970196000003,0.33727001079264,1684,0.0,99,GPS_Atti,
0.369657085703471,36.9022758189922,16000,2017-11-16 06:29:16,1748.8000315615982,64.2000020544,0.0,0.180241005767712,1748.8000315615982,64.2000020544,0.35999970196000003,0.33727001079264,1684,0.0,99,GPS_Atti,
0.369657139979509,36.9022757999353,16100,2017-11-16 06:29:16,1749.300031577598,64.7000020704,0.0,0.175819005626208,1749.300031577598,64.7000020704,0.35999970196000003,0.33727001079264,1684,0.0,99,GPS_Atti,
0.369657208996223,36.9022757690428,16300,2017-11-16 06:29:16,1750.3000316095981,65.7000021024,0.0,0.170746005463872,1750.3000316095981,65.7000021024,0.35999970196000003,0.33727001079264,1684,0.0,98,GPS_Atti,
0.369657238203994,36.9022757483318,16400,2017-11-16 06:29:16,1750.800031625598,66.20000211840001,0.0,0.16911700541174401,1750.800031625598,66.20000211840001,0.35999970196000003,0.33727001079264,1684,0.0,98,GPS_Atti,
0.369657272888223,36.9022757384201,16500,2017-11-16 06:29:16,1751.3000316415983,66.70000213440001,0.0,0.16641000532512,1751.3000316415983,66.70000213440001,0.35999970196000003,0.33727001079264,1684,0.0,98,GPS_Atti,
0.369657294978066,36.902275744999,16600,2017-11-16 06:29:16,1751.800031657598,67.20000215040001,0.0,0.16394300524617603,1751.800031657598,67.20000215040001,0.35999970196000003,0.33727001079264,1684,0.0,98,GPS_Atti,
0.369657333891363,36.9022757478768,16700,2017-11-16 06:29:16,1752.3000316735981,67.7000021664,0.0,0.160129005124128,1752.3000316735981,67.7000021664,0.35999970196000003,0.33727001079264,1684,0.0,98,GPS_Atti,
0.369657367004144,36.9022757396374,16800,2017-11-16 06:29:16,1752.800031689598,68.2000021824,0.0,0.15757000504224,1752.800031689598,68.2000021824,0.35999970196000003,0.33727001079264,1684,0.0,98,GPS_Atti,
0.369657408540865,36.9022757362039,16900,2017-11-16 06:29:16,1753.3000317055983,68.7000021984,0.0,0.153987004927584,1753.3000317055983,68.7000021984,0.35999970196000003,0.33727001079264,1684,0.0,98,GPS_Atti,
0.369657416018679,36.9022757429092,17000,2017-11-16 06:29:17,1753.800031721598,69.2000022144,0.0,0.15287800489209602,1753.800031721598,69.2000022144,0.35999970196000003,0.33727001079264,1684,0.0,98,GPS_Atti,
0.369657434695304,36.9022757674604,17100,2017-11-16 06:29:17,1754.300031737598,69.7000022304,0.0,0.14961100478755202,1754.300031737598,69.7000022304,0.35999970196000003,0.33727001079264,1684,0.0,98,GPS_Atti,
0.369657463606698,36.9022757992512,17200,2017-11-16 06:29:17,1754.8000317535982,70.2000022464,0.0,0.14495900463868802,1754.8000317535982,70.2000022464,0.35999970196000003,0.33727001079264,1684,0.0,98,GPS_Atti,
0.36965750529975,36.9022758315055,17300,2017-11-16 06:29:17,1755.300031769598,70.7000022624,0.0,0.13910700445142402,1755.300031769598,70.7000022624,0.35999970196000003,0.33727001079264,1684,0.0,98,GPS_Atti,
0.369657532125108,36.9022758388542,17500,2017-11-16 06:29:17,1756.3000318015982,71.70000229440001,0.0,0.13618400435788802,1756.3000318015982,71.70000229440001,0.35999970196000003,0.33727001079264,1684,0.0,98,GPS_Atti,
0.369657557436013,36.9022758521277,17600,2017-11-16 06:29:17,1756.8000318175982,72.2000023104,0.0,0.13303000425696,1756.8000318175982,72.2000023104,0.35999970196000003,0.33727001079264,1684,0.0,98,GPS_Atti,
0.369657595180088,36.9022758674952,17700,2017-11-16 06:29:17,1757.300031833598,72.7000023264,0.0,0.128611004115552,1757.300031833598,72.7000023264,0.35999970196000003,0.33727001079264,1684,0.0,98,GPS_Atti,
0.369657640771635,36.9022758823039,17800,2017-11-16 06:29:17,1757.8000318495983,73.2000023424,0.0,0.123529003952928,1757.8000318495983,73.2000023424,0.35999970196000003,0.33727001079264,1684,0.0,98,GPS_Atti,
0.369657692847645,36.9022759228212,17900,2017-11-16 06:29:18,1758.3000318655982,73.7000023584,0.0,0.11619600371827202,1758.3000318655982,73.7000023584,0.35999970196000003,0.33727001079264,1684,0.0,98,GPS_Atti,
0.369657723815765,36.9022759824179,18000,2017-11-16 06:29:18,1758.800031881598,74.20000237440001,0.0,0.109576003506432,1758.800031881598,74.20000237440001,0.35999970196000003,0.33727001079264,1517,0.0,98,GPS_Atti,
0.369657763709386,36.9022760343897,18100,2017-11-16 06:29:18,1759.300031897598,74.7000023904,0.0,0.10269000328608001,1759.300031897598,74.7000023904,0.35999970196000003,0.33727001079264,1037,0.0,98,GPS_Atti,
0.369657794719845,36.9022760489361,18200,2017-11-16 06:29:18,1759.800031913598,75.2000024064,0.0,0.098916003165312,1759.800031913598,75.2000024064,0.35999970196000003,0.33727001079264,1024,0.0,98,GPS_Atti,
0.369657842729631,36.9022760508579,18300,2017-11-16 06:29:18,1760.2000319263982,75.60000241920001,0.0,0.09436510301968319,1760.2000319263982,75.60000241920001,0.35999970196000003,0.33727001079264,1024,0.0,98,GPS_Atti,
0.369657892516049,36.9022760606368,18400,2017-11-16 06:29:18,1760.600031939198,76.000002432,0.0,0.0892242028551744,1760.600031939198,76.000002432,0.35999970196000003,0.33727001079264,1024,0.0,98,GPS_Atti,
0.369657957412799,36.9022760764958,18500,2017-11-16 06:29:18,1761.0000319519982,76.4000024448,0.0,0.08240700263702401,1761.0000319519982,76.4000024448,0.35999970196000003,0.33727001079264,1024,0.0,98,GPS_Atti,
0.369658006497358,36.9022760710914,18600,2017-11-16 06:29:18,1761.200031958398,76.6000024512,0.0,0.078580502514576,1761.200031958398,76.6000024512,0.35999970196000003,0.33727001079264,1024,0.0,98,GPS_Atti,
0.369658058912085,36.9022760475058,18700,2017-11-16 06:29:18,1761.400031964798,76.8000024576,0.0,0.07612000243584,1761.400031964798,76.8000024576,0.35999970196000003,0.33727001079264,1024,0.0,98,GPS_Atti,
0.369658097271712,36.9022760170383,18800,2017-11-16 06:29:18,1761.500031967998,76.9000024608,0.0,0.0757250024232,1761.500031967998,76.9000024608,0.35999970196000003,0.33727001079264,1024,0.0,98,GPS_Atti,
0.369658123882115,36.9022759805883,18900,2017-11-16 06:29:19,1761.500031967998,76.9000024608,0.0,0.0770349024651168,1761.500031967998,76.9000024608,0.35999970196000003,0.33727001079264,1024,0.0,98,GPS_Atti,
0.369658114995696,36.90227594086,19000,2017-11-16 06:29:19,1761.500031967998,76.9000024608,0.0,0.0811817025978144,1761.500031967998,76.9000024608,0.35999970196000003,0.33727001079264,1024,0.0,98,GPS_Atti,
0.369658089253253,36.9022758745002,19100,2017-11-16 06:29:19,1761.500031967998,76.9000024608,0.0,0.0888698028438336,1761.500031967998,76.9000024608,0.35999970196000003,0.33727001079264,1024,0.0,98,GPS_Atti,
0.369658003571044,36.9022757754429,19200,2017-11-16 06:29:19,1761.500031967998,76.9000024608,0.0,0.103354003307328,1761.500031967998,76.9000024608,0.35999970196000003,0.33727001079264,1024,0.0,98,GPS_Atti,
0.369657899949896,36.9022756345065,19300,2017-11-16 06:29:19,1761.600031971198,77.000002464,0.0,0.12280400392972801,1761.600031971198,77.000002464,0.35999970196000003,0.33727001079264,1024,0.0,98,GPS_Atti,
0.369657797852971,36.9022754771736,19400,2017-11-16 06:29:19,1761.600031971198,77.000002464,0.0,0.14364500459664,1761.600031971198,77.000002464,0.35999970196000003,0.33727001079264,1024,0.0,98,GPS_Atti,
0.369657674197076,36.9022752965817,19500,2017-11-16 06:29:19,1761.600031971198,77.000002464,0.0,0.16798300537545602,1761.600031971198,77.000002464,0.35999970196000003,0.33727001079264,858,0.0,98,GPS_Atti,
0.36965758994464,36.902275078649,19600,2017-11-16 06:29:19,1761.600031971198,77.000002464,0.0,0.193311006185952,1761.600031971198,77.000002464,0.35999970196000003,0.33727001079264,805,0.0,98,GPS_Atti,
0.369657477178151,36.9022748591307,19700,2017-11-16 06:29:19,1761.600031971198,77.000002464,0.0,0.22062600706003202,1761.600031971198,77.000002464,0.35999970196000003,0.33727001079264,790,0.0,98,GPS_Atti,
0.369657344398084,36.9022746062671,19800,2017-11-16 06:29:19,1761.500031967998,76.9000024608,0.0,0.252294008073408,1761.600031971198,77.000002464,0.35999970196000003,0.33727001079264,788,0.0,98,GPS_Atti,
0.369657215470916,36.902274376956,19900,2017-11-16 06:29:20,1761.500031967998,76.9000024608,0.0,0.281524009008768,1761.600031971198,77.000002464,0.35999970196000003,0.33727001079264,812,0.0,98,GPS_Atti,
0.369657105941773,36.9022741455507,20000,2017-11-16 06:29:20,1761.400031964798,76.8000024576,0.0,0.30984200991494404,1761.600031971198,77.000002464,0.35999970196000003,0.33727001079264,1024,0.0,98,GPS_Atti,
0.369656980559727,36.9022739042026,20100,2017-11-16 06:29:20,1761.400031964798,76.8000024576,0.0,0.34003501088112,1761.600031971198,77.000002464,0.35999970196000003,0.34003501088112,1024,0.0,98,GPS_Atti,
0.369656913171458,36.9022736592851,20200,2017-11-16 06:29:20,1761.3000319615983,76.7000024544,0.0,0.367359011755488,1761.600031971198,77.000002464,0.35999970196000003,0.367359011755488,1024,0.0,98,GPS_Atti,
0.369656813202909,36.9022733760268,20300,2017-11-16 06:29:20,1761.3000319615983,76.7000024544,0.0,0.40029101280931206,1761.600031971198,77.000002464,0.35999970196000003,0.40029101280931206,1024,0.0,98,GPS_Atti,
0.369656683034867,36.9022731008828,20400,2017-11-16 06:29:20,1761.3000319615983,76.7000024544,0.35999970196000003,0.434086013890752,1761.600031971198,77.000002464,0.35999970196000003,0.434086013890752,1024,0.0,98,GPS_Atti,
0.369656536002658,36.9022728225033,20500,2017-11-16 06:29:20,1761.3000319615983,76.7000024544,0.35999970196000003,0.46909501501104,1761.600031971198,77.000002464,0.35999970196000003,0.46909501501104,1024,0.0,98,GPS_Atti,
0.369656425701632,36.902272534074,20600,2017-11-16 06:29:20,1761.3000319615983,76.7000024544,0.35999970196000003,0.5031650161012801,1761.600031971198,77.000002464,0.35999970196000003,0.5031650161012801,1024,0.0,98,GPS_Atti,
0.369656303343607,36.902272271743,20700,2017-11-16 06:29:20,1761.3000319615983,76.7000024544,0.35999970196000003,0.535317017130144,1761.600031971198,77.000002464,0.35999970196000003,0.535317017130144,887,0.0,98,GPS_Atti,
0.369656244875954,36.9022720674049,20800,2017-11-16 06:29:20,1761.3000319615983,76.7000024544,0.0,0.55848001787136,1761.600031971198,77.000002464,0.35999970196000003,0.55848001787136,688,0.0,98,GPS_Atti,
0.369656160121958,36.9022718820081,20900,2017-11-16 06:29:21,1761.3000319615983,76.7000024544,0.0,0.5811260185960321,1761.600031971198,77.000002464,0.35999970196000003,0.5811260185960321,729,0.0,98,GPS_Atti,
0.369656110851756,36.9022717159433,21000,2017-11-16 06:29:21,1761.3000319615983,76.7000024544,0.0,0.600073019202336,1761.600031971198,77.000002464,0.35999970196000003,0.600073019202336,952,0.0,98,GPS_Atti,
0.369656048049185,36.9022715658788,21100,2017-11-16 06:29:21,1761.200031958398,76.6000024512,0.0,0.618119019779808,1761.600031971198,77.000002464,0.35999970196000003,0.618119019779808,1024,0.0,98,GPS_Atti,
0.369656028950794,36.9022714563981,21200,2017-11-16 06:29:21,1761.1000319551981,76.500002448,0.0,0.629964020158848,1761.600031971198,77.000002464,0.35999970196000003,0.629964020158848,1024,0.0,98,GPS_Atti,
0.369655977417055,36.9022713368867,21300,2017-11-16 06:29:21,1761.0000319519982,76.4000024448,0.0,0.6444180206213761,1761.600031971198,77.000002464,0.35999970196000003,0.6444180206213761,1024,0.0,98,GPS_Atti,
0.369655792819901,36.9022709636157,21500,2017-11-16 06:29:21,1760.9000319487982,76.3000024416,0.0,0.6907260221032321,1761.600031971198,77.000002464,0.35999970196000003,0.6907260221032321,1024,0.0,98,GPS_Atti,
0.369655694375576,36.9022707820067,21600,2017-11-16 06:29:21,1760.9000319487982,76.3000024416,0.0,0.7136810228377921,1761.600031971198,77.000002464,0.35999970196000003,0.7136810228377921,1024,0.0,98,GPS_Atti,
0.369655604972372,36.9022706544186,21700,2017-11-16 06:29:21,1760.9000319487982,76.3000024416,0.0,0.730812023385984,1761.600031971198,77.000002464,0.35999970196000003,0.730812023385984,1024,0.0,98,GPS_Atti,
0.369655594385857,36.902270570579,21800,2017-11-16 06:29:21,1760.9000319487982,76.3000024416,0.0,0.7396860236699521,1761.600031971198,77.000002464,0.35999970196000003,0.7396860236699521,933,0.0,98,GPS_Atti,
0.36965559179826,36.9022705173439,21900,2017-11-16 06:29:21,1760.9000319487982,76.3000024416,0.0,0.745125023844,1761.600031971198,77.000002464,0.35999970196000003,0.745125023844,933,0.0,98,GPS_Atti,
0.369655631364564,36.9022704470207,22000,2017-11-16 06:29:22,1760.9000319487982,76.3000024416,0.0,0.750247024007904,1761.600031971198,77.000002464,0.35999970196000003,0.750247024007904,830,0.0,98,GPS_Atti,
0.369655671222359,36.90227040263,22100,2017-11-16 06:29:22,1760.9000319487982,76.3000024416,0.0,0.75281502409008,1761.600031971198,77.000002464,0.35999970196000003,0.75281502409008,832,0.0,98,GPS_Atti,
0.369655703206627,36.902270394792,22200,2017-11-16 06:29:22,1760.9000319487982,76.3000024416,0.0,0.7521060240673921,1761.600031971198,77.000002464,0.35999970196000003,0.75281502409008,828,0.0,98,GPS_Atti,
0.369655741904971,36.9022704125888,22300,2017-11-16 06:29:22,1760.800031945598,76.2000024384,0.0,0.748511023952352,1761.600031971198,77.000002464,0.35999970196000003,0.75281502409008,828,0.0,98,GPS_Atti,
0.369655780754759,36.9022704576562,22400,2017-11-16 06:29:22,1760.800031945598,76.2000024384,0.0,0.742159023749088,1761.600031971198,77.000002464,0.35999970196000003,0.75281502409008,836,0.0,98,GPS_Atti,
0.369655802276275,36.9022705083101,22500,2017-11-16 06:29:22,1760.700031942398,76.1000024352,0.0,0.7360400235532801,1761.600031971198,77.000002464,0.35999970196000003,0.75281502409008,838,0.0,98,GPS_Atti,
0.369655776217914,36.9022705013575,22600,2017-11-16 06:29:22,1760.700031942398,76.1000024352,0.0,0.7379470236143041,1761.600031971198,77.000002464,0.35999970196000003,0.75281502409008,965,0.0,98,GPS_Atti,
0.36965576013703,36.9022705155292,22700,2017-11-16 06:29:22,1760.600031939198,76.000002432,0.0,0.737262023592384,1761.600031971198,77.000002464,0.35999970196000003,0.75281502409008,1024,0.0,98,GPS_Atti,
0.369655747855305,36.9022705488135,22800,2017-11-16 06:29:22,1760.600031939198,76.000002432,0.0,0.7344800235033601,1761.600031971198,77.000002464,0.35999970196000003,0.75281502409008,1024,0.0,98,GPS_Atti,
0.369655734173119,36.9022705863588,22900,2017-11-16 06:29:22,1760.600031939198,76.000002432,0.0,0.7313460234030721,1761.600031971198,77.000002464,0.35999970196000003,0.75281502409008,1024,0.0,98,GPS_Atti,
0.369655710026551,36.9022705857945,23000,2017-11-16 06:29:23,1760.600031939198,76.000002432,0.0,0.732553023441696,1761.600031971198,77.000002464,0.35999970196000003,0.75281502409008,1024,0.0,98,GPS_Atti,
0.369655681465272,36.9022706210809,23100,2017-11-16 06:29:23,1760.600031939198,76.000002432,0.0,0.730388023372416,1761.600031971198,77.000002464,0.35999970196000003,0.75281502409008,1024,0.0,98,GPS_Atti,
0.369655704426332,36.9022706865681,23200,2017-11-16 06:29:23,1760.600031939198,76.000002432,0.35999970196000003,0.7227210231270721,1761.600031971198,77.000002464,0.35999970196000003,0.75281502409008,1024,0.0,98,GPS_Atti,
0.369655724221697,36.9022707759385,23300,2017-11-16 06:29:23,1760.600031939198,76.000002432,0.35999970196000003,0.712822022810304,1761.600031971198,77.000002464,0.35999970196000003,0.75281502409008,1024,0.0,98,GPS_Atti,
0.369655800997946,36.9022708678034,23400,2017-11-16 06:29:23,1760.5000319359983,75.90000242880001,0.35999970196000003,0.699901022396832,1761.600031971198,77.000002464,0.35999970196000003,0.75281502409008,1024,0.0,98,GPS_Atti,
0.369655844086575,36.9022709716924,23500,2017-11-16 06:29:23,1760.5000319359983,75.90000242880001,0.35999970196000003,0.68741502199728,1761.600031971198,77.000002464,0.35999970196000003,0.75281502409008,1024,0.0,98,GPS_Atti,
0.369655913036522,36.9022710873153,23600,2017-11-16 06:29:23,1760.5000319359983,75.90000242880001,0.35999970196000003,0.6725010215200321,1761.600031971198,77.000002464,0.35999970196000003,0.75281502409008,1024,0.0,98,GPS_Atti,
0.36965595472306,36.9022711987831,23700,2017-11-16 06:29:23,1760.5000319359983,75.90000242880001,0.35999970196000003,0.6593240210983681,1761.600031971198,77.000002464,0.35999970196000003,0.75281502409008,944,0.0,98,GPS_Atti,
0.369656018611803,36.9022713385258,23800,2017-11-16 06:29:23,1760.5000319359983,75.90000242880001,0.35999970196000003,0.642241020551712,1761.600031971198,77.000002464,0.35999970196000003,0.75281502409008,893,0.0,98,GPS_Atti,
0.369656056596888,36.9022714670581,23900,2017-11-16 06:29:24,1760.5000319359983,75.90000242880001,0.35999970196000003,0.6275420200813441,1761.600031971198,77.000002464,0.35999970196000003,0.75281502409008,847,0.0,98,GPS_Atti,
0.369656166684587,36.9022716987868,24100,2017-11-16 06:29:24,1760.400031932798,75.8000024256,0.35999970196000003,0.5990150191684801,1761.600031971198,77.000002464,0.35999970196000003,0.75281502409008,899,0.0,98,GPS_Atti,
0.369656202314942,36.9022718185379,24200,2017-11-16 06:29:24,1760.400031932798,75.8000024256,0.35999970196000003,0.58532001873024,1761.600031971198,77.000002464,0.35999970196000003,0.75281502409008,1024,0.0,98,GPS_Atti,
0.369656229254291,36.9022719419881,24300,2017-11-16 06:29:24,1760.400031932798,75.8000024256,0.35999970196000003,0.5717000182944,1761.600031971198,77.000002464,0.35999970196000003,0.75281502409008,1024,0.0,98,GPS_Atti,
0.369656279281719,36.9022720731562,24400,2017-11-16 06:29:24,1760.3000319295982,75.7000024224,0.35999970196000003,0.556171017797472,1761.600031971198,77.000002464,0.35999970196000003,0.75281502409008,1024,0.0,98,GPS_Atti,
0.369656296807033,36.9022721645887,24500,2017-11-16 06:29:24,1760.3000319295982,75.7000024224,0.0,0.546228017479296,1761.600031971198,77.000002464,0.35999970196000003,0.75281502409008,1024,0.0,98,GPS_Atti,
0.369656373146859,36.9022722232603,24600,2017-11-16 06:29:24,1760.3000319295982,75.7000024224,0.0,0.5365660171701121,1761.600031971198,77.000002464,0.35999970196000003,0.75281502409008,1024,0.0,98,GPS_Atti,
0.369656421825936,36.9022722855989,24700,2017-11-16 06:29:24,1760.3000319295982,75.7000024224,0.0,0.527944016894208,1761.600031971198,77.000002464,0.35999970196000003,0.75281502409008,1024,0.0,98,GPS_Atti,
0.369656503104833,36.9022723644955,24800,2017-11-16 06:29:24,1760.3000319295982,75.7000024224,0.0,0.516076016514432,1761.600031971198,77.000002464,0.35999970196000003,0.75281502409008,1024,0.0,98,GPS_Atti,
0.369656560323469,36.9022724469058,24900,2017-11-16 06:29:24,1760.3000319295982,75.7000024224,0.0,0.5050520161616641,1761.600031971198,77.000002464,0.35999970196000003,0.75281502409008,1024,0.0,98,GPS_Atti,
0.369656688613916,36.902272551252,25000,2017-11-16 06:29:25,1760.3000319295982,75.7000024224,0.0,0.48845101563043203,1761.600031971198,77.000002464,0.35999970196000003,0.75281502409008,1024,0.0,98,GPS_Atti,
0.369656777049824,36.9022726454722,25100,2017-11-16 06:29:25,1760.3000319295982,75.7000024224,0.0,0.474826015194432,1761.600031971198,77.000002464,0.35999970196000003,0.75281502409008,1024,0.0,98,GPS_Atti,
0.369656870033976,36.9022727512776,25200,2017-11-16 06:29:25,1760.3000319295982,75.7000024224,0.0,0.459863014715616,1761.600031971198,77.000002464,0.35999970196000003,0.75281502409008,1024,0.0,98,GPS_Atti,
0.369656925205659,36.9022728438117,25300,2017-11-16 06:29:25,1760.400031932798,75.8000024256,0.0,0.44797401433516804,1761.600031971198,77.000002464,0.35999970196000003,0.75281502409008,1024,0.0,98,GPS_Atti,
0.369657017040129,36.9022729415575,25400,2017-11-16 06:29:25,1760.400031932798,75.8000024256,0.0,0.43395001388640003,1761.600031971198,77.000002464,0.35999970196000003,0.75281502409008,1024,0.0,98,GPS_Atti,
0.369657075353081,36.9022730240032,25500,2017-11-16 06:29:25,1760.400031932798,75.8000024256,0.0,0.42298501353552,1761.600031971198,77.000002464,0.35999970196000003,0.75281502409008,1024,0.0,98,GPS_Atti,
0.369657191568615,36.9022731092667,25600,2017-11-16 06:29:25,1760.400031932798,75.8000024256,0.0,0.409341013098912,1761.600031971198,77.000002464,0.35999970196000003,0.75281502409008,1024,0.0,98,GPS_Atti,
0.369657277706789,36.9022731736683,25700,2017-11-16 06:29:25,1760.400031932798,75.8000024256,0.0,0.39921801277497604,1761.600031971198,77.000002464,0.35999970196000003,0.75281502409008,1024,0.0,98,GPS_Atti,
0.369657375038886,36.9022731722316,25800,2017-11-16 06:29:25,1760.400031932798,75.8000024256,0.0,0.39569201266214404,1761.600031971198,77.000002464,0.35999970196000003,0.75281502409008,1024,0.0,98,GPS_Atti,
0.369657434965625,36.9022731813253,25900,2017-11-16 06:29:25,1760.400031932798,75.8000024256,0.0,0.39260001256320004,1761.600031971198,77.000002464,0.35999970196000003,0.75281502409008,1024,0.0,98,GPS_Atti,
0.369657526510233,36.9022731555504,26000,2017-11-16 06:29:26,1760.400031932798,75.8000024256,0.0,0.392278012552896,1761.600031971198,77.000002464,0.35999970196000003,0.75281502409008,1024,0.0,98,GPS_Atti,
0.369657579947623,36.9022731499425,26100,2017-11-16 06:29:26,1760.400031932798,75.8000024256,0.0,0.391212012518784,1761.600031971198,77.000002464,0.35999970196000003,0.75281502409008,1024,0.0,98,GPS_Atti,
0.369657635860247,36.9022731710282,26200,2017-11-16 06:29:26,1760.400031932798,75.8000024256,0.0,0.387296012393472,1761.600031971198,77.000002464,0.35999970196000003,0.75281502409008,1024,0.0,98,GPS_Atti,
0.369657655917792,36.9022732006831,26300,2017-11-16 06:29:26,1760.400031932798,75.8000024256,0.0,0.383534012273088,1761.600031971198,77.000002464,0.35999970196000003,0.75281502409008,1024,0.0,98,GPS_Atti,
0.369657647777201,36.9022731688409,26400,2017-11-16 06:29:26,1760.400031932798,75.8000024256,0.0,0.38718901239004805,1761.600031971198,77.000002464,0.35999970196000003,0.75281502409008,1024,0.0,98,GPS_Atti,
0.369657627768509,36.9022731540986,26500,2017-11-16 06:29:26,1760.400031932798,75.8000024256,0.0,0.38934801245913603,1761.600031971198,77.000002464,0.35999970196000003,0.75281502409008,1024,0.0,98,GPS_Atti,
0.369657651108997,36.9022731235059,26600,2017-11-16 06:29:26,1760.400031932798,75.8000024256,0.0,0.39197101254307204,1761.600031971198,77.000002464,0.35999970196000003,0.75281502409008,1024,0.0,98,GPS_Atti,
0.369657652004641,36.9022731105429,26700,2017-11-16 06:29:26,1760.400031932798,75.8000024256,0.0,0.393341012586912,1761.600031971198,77.000002464,0.35999970196000003,0.75281502409008,1024,-0.6,98,GPS_Atti,
0.369657659887939,36.9022730503916,26800,2017-11-16 06:29:26,1760.3000319295982,75.7000024224,0.0,0.39960301278729604,1761.600031971198,77.000002464,0.35999970196000003,0.75281502409008,1024,-2.9,98,GPS_Atti,
0.369657639110622,36.9022730270544,26900,2017-11-16 06:29:26,1760.3000319295982,75.7000024224,0.0,0.402689012886048,1761.600031971198,77.000002464,0.35999970196000003,0.75281502409008,1024,-7.5,98,GPS_Atti,
0.369657622425584,36.9022730125262,27000,2017-11-16 06:29:27,1760.3000319295982,75.7000024224,0.0,0.40471801295097604,1761.600031971198,77.000002464,0.35999970196000003,0.75281502409008,1024,-13.2,98,GPS_Atti,
0.369657584507266,36.9022730161181,27100,2017-11-16 06:29:27,1760.3000319295982,75.7000024224,0.0,0.40541601297331203,1761.600031971198,77.000002464,0.35999970196000003,0.75281502409008,1024,-18.8,98,GPS_Atti,
0.369657530488522,36.9022729730795,27200,2017-11-16 06:29:27,1760.3000319295982,75.7000024224,0.0,0.41163401317228804,1761.600031971198,77.000002464,0.35999970196000003,0.75281502409008,1024,-21.1,98,GPS_Atti,
0.369657465723676,36.9022729593061,27300,2017-11-16 06:29:27,1760.3000319295982,75.7000024224,0.0,0.41512301328393597,1761.600031971198,77.000002464,0.35999970196000003,0.75281502409008,1024,-21.1,98,GPS_Atti,
0.369657444057228,36.9022728970254,27400,2017-11-16 06:29:27,1760.3000319295982,75.7000024224,0.0,0.4224500135184,1761.600031971198,77.000002464,0.35999970196000003,0.75281502409008,1024,-22.1,98,GPS_Atti,
0.36965740140828,36.9022728694336,27500,2017-11-16 06:29:27,1760.3000319295982,75.7000024224,0.0,0.42677201365670403,1761.600031971198,77.000002464,0.35999970196000003,0.75281502409008,1024,-24.0,98,GPS_Atti,
0.369657365317076,36.9022727978664,27600,2017-11-16 06:29:27,1760.3000319295982,75.7000024224,0.0,0.43556501393808,1761.600031971198,77.000002464,0.35999970196000003,0.75281502409008,1024,-24.0,98,GPS_Atti,
0.369657323384643,36.9022727566275,27700,2017-11-16 06:29:27,1760.3000319295982,75.7000024224,0.0,0.441349014123168,1761.600031971198,77.000002464,0.35999970196000003,0.75281502409008,1024,-25.3,98,GPS_Atti,
0.369657293097213,36.9022726327266,27800,2017-11-16 06:29:27,1760.3000319295982,75.7000024224,0.0,0.45549801457593597,1761.600031971198,77.000002464,0.35999970196000003,0.75281502409008,1024,-25.3,98,GPS_Atti,
0.369657248334544,36.9022725581756,27900,2017-11-16 06:29:27,1760.3000319295982,75.7000024224,0.0,0.46491501487728004,1761.600031971198,77.000002464,0.35999970196000003,0.75281502409008,1024,-25.3,98,GPS_Atti,
0.369657248769339,36.9022724581944,28000,2017-11-16 06:29:28,1760.3000319295982,75.7000024224,0.0,0.47548701521558406,1761.600031971198,77.000002464,0.35999970196000003,0.75281502409008,1024,-25.3,98,GPS_Atti,
0.369657225222039,36.9022724010868,28100,2017-11-16 06:29:28,1760.3000319295982,75.7000024224,0.0,0.482333015434656,1761.600031971198,77.000002464,0.35999970196000003,0.75281502409008,1024,-25.4,98,GPS_Atti,
0.369657193938001,36.9022722859725,28200,2017-11-16 06:29:28,1760.3000319295982,75.7000024224,0.0,0.49558601585875206,1761.600031971198,77.000002464,0.35999970196000003,0.75281502409008,1024,-26.4,98,GPS_Atti,
0.369657143293393,36.9022722235783,28300,2017-11-16 06:29:28,1760.3000319295982,75.7000024224,0.0,0.503912016125184,1761.600031971198,77.000002464,0.35999970196000003,0.75281502409008,1024,-27.6,98,GPS_Atti,
0.36965709462083,36.9022721060508,28400,2017-11-16 06:29:28,1760.3000319295982,75.7000024224,0.0,0.5180150165764801,1761.600031971198,77.000002464,0.35999970196000003,0.75281502409008,1024,-28.3,98,GPS_Atti,
0.36965704708655,36.9022720054732,28500,2017-11-16 06:29:28,1760.3000319295982,75.7000024224,0.0,0.53029001696928,1761.600031971198,77.000002464,0.35999970196000003,0.75281502409008,1024,-28.3,98,GPS_Atti,
0.369656994929117,36.9022719560131,28600,2017-11-16 06:29:28,1760.3000319295982,75.7000024224,0.0,0.537343017194976,1761.600031971198,77.000002464,0.35999970196000003,0.75281502409008,1024,-28.3,98,GPS_Atti,
0.369656944460381,36.9022719247769,28700,2017-11-16 06:29:28,1760.3000319295982,75.7000024224,0.0,0.542446017358272,1761.600031971198,77.000002464,0.35999970196000003,0.75281502409008,1024,-28.3,98,GPS_Atti,
0.369656912389804,36.9022718272731,28800,2017-11-16 06:29:28,1760.3000319295982,75.7000024224,0.0,0.553858017723456,1761.600031971198,77.000002464,0.35999970196000003,0.75281502409008,1024,-28.3,98,GPS_Atti,
0.369656876959748,36.9022717806094,28900,2017-11-16 06:29:28,1760.3000319295982,75.7000024224,0.0,0.560054017921728,1761.600031971198,77.000002464,0.35999970196000003,0.75281502409008,1024,-28.3,98,GPS_Atti,
0.369656848890259,36.9022717117776,29000,2017-11-16 06:29:29,1760.3000319295982,75.7000024224,0.0,0.56831001818592,1761.600031971198,77.000002464,0.35999970196000003,0.75281502409008,1024,-28.5,98,GPS_Atti,
0.369656811970177,36.9022716941478,29100,2017-11-16 06:29:29,1760.3000319295982,75.7000024224,0.0,0.5715280182888961,1761.600031971198,77.000002464,0.35999970196000003,0.75281502409008,1024,-28.8,98,GPS_Atti,
0.369656773867844,36.9022716114023,29200,2017-11-16 06:29:29,1760.3000319295982,75.7000024224,0.0,0.5816190186118081,1761.600031971198,77.000002464,0.35999970196000003,0.75281502409008,1024,-29.1,98,GPS_Atti,
0.369656740260017,36.9022715844904,29300,2017-11-16 06:29:29,1760.3000319295982,75.7000024224,0.0,0.5857030187424961,1761.600031971198,77.000002464,0.35999970196000003,0.75281502409008,1024,-29.5,98,GPS_Atti,
