latitude,longitude,time_millisecond,datetime_utc,altitude_m,ascent_m,speed_kph,distance_m,max_altitude_m,max_ascent_m,max_speed_kph,max_distance_m,rc_throttle,gimbal_pitch_degrees,battery_percent,flycState,message
0.335867975363846,36.9072025017467,0,2018-04-04 04:41:06,1643.1150427796895,0.0,0.0,0.0,1643.1150427796895,0.0,0.0,0.0,364,0.0,99,P-GPS,
0.335867997908432,36.907202484188105,100,2018-04-04 04:41:06,1643.1150427796895,0.0,0.0,0.00317776010168832,1643.1150427796895,0.0,0.0,0.00317776010168832,364,0.0,99,Motors_Started,Setting new Return-To-Home altitude to 30m (98 ft). Setting new Maximum Flight Altitude to 150m (492 ft)
0.335868027114575,36.9072024529909,200,2018-04-04 04:41:06,1643.1150427796895,0.0,0.0,0.00790674025301568,1643.1150427796895,0.0,0.0,0.00790674025301568,364,0.0,99,Motors_Started,
0.335868062578422,36.907202415738794,300,2018-04-04 04:41:06,1643.1150427796895,0.0,0.0,0.013621500435888003,1643.1150427796895,0.0,0.0,0.013621500435888003,364,0.0,99,Motors_Started,
0.335868080590641,36.9072023653845,400,2018-04-04 04:41:06,1643.1150427796895,0.0,0.0,0.0191542006129344,1643.1150427796895,0.0,0.0,0.0191542006129344,364,0.0,99,Motors_Started,
0.335868095975365,36.907202316215404,500,2018-04-04 04:41:06,1643.1150427796895,0.0,0.0,0.024608400787468798,1643.1150427796895,0.0,0.0,0.024608400787468798,364,0.0,99,Motors_Started,
0.33586812051683096,36.907202256306896,600,2018-04-04 04:41:06,1643.1150427796895,0.0,0.0,0.031709901014716796,1643.1150427796895,0.0,0.0,0.031709901014716796,364,0.0,99,Motors_Started,
0.33586815291391,36.9072022005738,700,2018-04-04 04:41:06,1643.1150427796895,0.0,0.0,0.0388786012441152,1643.1150427796895,0.0,0.0,0.0388786012441152,364,0.0,99,Motors_Started,
0.335868195551052,36.9072021098589,800,2018-04-04 04:41:06,1643.1150427796895,0.0,0.0,0.049987501599600005,1643.1150427796895,0.0,0.0,0.049987501599600005,364,0.0,99,Motors_Started,
0.335868239587841,36.9072020210588,900,2018-04-04 04:41:06,1643.1150427796895,0.0,0.0,0.0609981019519392,1643.1150427796895,0.0,0.0,0.0609981019519392,364,0.0,99,Motors_Started,
0.33586829408412705,36.9072019263253,1000,2018-04-04 04:41:07,1643.1150427796895,0.0,0.0,0.0731497023407904,1643.1150427796895,0.0,0.0,0.0731497023407904,364,0.0,99,Motors_Started,
0.33586834624400197,36.9072018472395,1100,2018-04-04 04:41:07,1643.1150427796895,0.0,0.0,0.08365750267704,1643.1150427796895,0.0,0.0,0.08365750267704,388,0.0,99,Motors_Started,
0.33586837785372897,36.9072017454517,1200,2018-04-04 04:41:07,1643.1150427796895,0.0,0.0,0.0952719030487008,1643.1150427796895,0.0,0.0,0.0952719030487008,996,0.0,99,Motors_Started,
0.33586839938705104,36.9072016495914,1300,2018-04-04 04:41:07,1643.1150427796895,0.0,0.0,0.10584700338710401,1643.1150427796895,0.0,0.0,0.10584700338710401,1024,0.0,99,Motors_Started,
0.33586843013125894,36.9072015558135,1400,2018-04-04 04:41:07,1643.1150427796895,0.0,0.0,0.11671700373494401,1643.1150427796895,0.0,0.0,0.11671700373494401,1024,0.0,99,Motors_Started,
0.33586846491197303,36.9072014768309,1500,2018-04-04 04:41:07,1643.1150427796895,0.0,0.0,0.126309004041888,1643.1150427796895,0.0,0.0,0.126309004041888,1024,0.0,99,Motors_Started,
0.335868482762976,36.9072014068512,1600,2018-04-04 04:41:07,1643.1150427796895,0.0,0.0,0.13419600429427198,1643.1150427796895,0.0,0.0,0.13419600429427198,1024,0.0,99,Assisted_Takeoff,
0.33586849416289893,36.9072013444974,1700,2018-04-04 04:41:07,1643.1150427796895,0.0,0.0,0.141032004513024,1643.1150427796895,0.0,0.0,0.141032004513024,1024,0.0,99,Assisted_Takeoff,
0.33586851455549604,36.9072012658114,1800,2018-04-04 04:41:07,1643.1150427796895,0.0,0.0,0.149951004798432,1643.1150427796895,0.0,0.0,0.149951004798432,1024,0.0,99,Assisted_Takeoff,
0.33586854489829304,36.9072011796365,1900,2018-04-04 04:41:07,1643.1150427796895,0.0,0.0,0.160086005122752,1643.1150427796895,0.0,0.0,0.160086005122752,1024,0.0,99,Assisted_Takeoff,
0.33586858286424304,36.9072011064406,2000,2018-04-04 04:41:07,1643.1150427796895,0.0,0.0,0.169233005415456,1643.1150427796895,0.0,0.0,0.169233005415456,1024,0.0,99,Assisted_Takeoff,
0.335868624807261,36.907201037006296,2100,2018-04-04 04:41:08,1643.1150427796895,0.0,0.0,0.17817900570172804,1643.1150427796895,0.0,0.0,0.17817900570172804,1024,0.0,99,Assisted_Takeoff,
0.33586867571241996,36.907200981726106,2200,2018-04-04 04:41:08,1643.1150427796895,0.0,0.0,0.18611200595558403,1643.1150427796895,0.0,0.0,0.18611200595558403,1024,0.0,99,Assisted_Takeoff,
0.335868724759932,36.9072009230585,2300,2018-04-04 04:41:08,1643.1150427796895,0.0,0.0,0.19433300621865598,1643.1150427796895,0.0,0.0,0.19433300621865598,1024,0.0,99,Assisted_Takeoff,
0.335868754959426,36.9072008778341,2400,2018-04-04 04:41:08,1643.1150427796895,0.0,0.0,0.200318006410176,1643.1150427796895,0.0,0.0,0.200318006410176,1024,0.0,99,Assisted_Takeoff,
0.33586877757973405,36.9072008277694,2500,2018-04-04 04:41:08,1643.1150427796895,0.0,0.0,0.20642600660563198,1643.1150427796895,0.0,0.0,0.20642600660563198,1024,0.0,99,Assisted_Takeoff,
0.335868806978034,36.907200762206394,2600,2018-04-04 04:41:08,1643.1150427796895,0.0,0.0,0.21441400686124804,1643.1150427796895,0.0,0.0,0.21441400686124804,1024,0.0,99,Assisted_Takeoff,
0.33586884238203496,36.9072006852382,2700,2018-04-04 04:41:08,1643.1150427796895,0.0,0.0,0.22383400716268803,1643.1150427796895,0.0,0.0,0.22383400716268803,1024,0.0,99,Assisted_Takeoff,
0.335868886739628,36.9072006171717,2800,2018-04-04 04:41:08,1643.1150427796895,0.0,0.0,0.23279300744937603,1643.1150427796895,0.0,0.0,0.23279300744937603,1024,0.0,99,Assisted_Takeoff,
0.335868930224782,36.90720055177739,2900,2018-04-04 04:41:09,1643.1150427796895,0.0,0.0,0.241448007726336,1643.1150427796895,0.0,0.0,0.241448007726336,1024,0.0,99,Assisted_Takeoff,
0.33586895397523103,36.907200497470896,3000,2018-04-04 04:41:09,1643.1150427796895,0.0,0.0,0.24803400793708802,1643.1150427796895,0.0,0.0,0.24803400793708802,1024,0.0,99,Assisted_Takeoff,
0.335868971543292,36.90720044173779,3100,2018-04-04 04:41:09,1643.1150427796895,0.0,0.0,0.254462008142784,1643.1150427796895,0.0,0.0,0.254462008142784,1024,0.0,99,Assisted_Takeoff,
0.33586897106005104,36.9072003959947,3200,2018-04-04 04:41:09,1643.1150427796895,0.0,0.0,0.259028008288896,1643.1150427796895,0.0,0.0,0.259028008288896,1024,0.0,99,Assisted_Takeoff,
0.335868973557677,36.9072003453985,3300,2018-04-04 04:41:09,1643.1150427796895,0.0,0.0,0.26424200845574397,1643.1150427796895,0.0,0.0,0.26424200845574397,1024,0.0,99,Assisted_Takeoff,
0.335868987424692,36.907200303139604,3400,2018-04-04 04:41:09,1643.1150427796895,0.0,0.0,0.26915500861296,1643.1150427796895,0.0,0.0,0.26915500861296,1024,0.0,99,Assisted_Takeoff,
0.335869011511007,36.9072002544507,3500,2018-04-04 04:41:09,1643.1150427796895,0.0,0.0,0.27519300880617603,1643.1150427796895,0.0,0.0,0.27519300880617603,1024,0.0,99,Assisted_Takeoff,
0.335869022784318,36.907200240605995,3600,2018-04-04 04:41:09,1643.1150427796895,0.0,0.0,0.277117008867744,1643.1150427796895,0.0,0.0,0.277117008867744,1024,0.0,99,Assisted_Takeoff,
0.33586903249676503,36.9072002211957,3700,2018-04-04 04:41:09,1643.1150427796895,0.0,0.0,0.27952900894492805,1643.1150427796895,0.0,0.0,0.27952900894492805,1024,0.0,99,Assisted_Takeoff,
0.33586905685869395,36.9072002065594,3800,2018-04-04 04:41:09,1643.1150427796895,0.0,0.0,0.282151009028832,1643.1150427796895,0.0,0.0,0.282151009028832,1024,0.0,99,Assisted_Takeoff,
0.33586908747140604,36.9072001781259,3900,2018-04-04 04:41:09,1643.1150427796895,0.0,0.0,0.286468009166976,1643.1150427796895,0.0,0.0,0.286468009166976,1024,0.0,99,Assisted_Takeoff,
0.33586910725130104,36.9072001768995,4000,2018-04-04 04:41:10,1643.1150427796895,0.0,0.0,0.287547009201504,1643.1150427796895,0.0,0.0,0.287547009201504,1024,0.0,99,Assisted_Takeoff,
0.335869126703471,36.907200166003896,4100,2018-04-04 04:41:10,1643.1150427796895,0.0,0.0,0.28958700926678405,1643.1150427796895,0.0,0.0,0.28958700926678405,1024,0.0,99,Assisted_Takeoff,
0.33586915324995803,36.907200158157295,4200,2018-04-04 04:41:10,1643.1150427796895,0.0,0.0,0.29168300933385605,1643.1150427796895,0.0,0.0,0.29168300933385605,1024,0.0,99,Assisted_Takeoff,
0.33586918756819395,36.9072001314192,4300,2018-04-04 04:41:10,1643.1150427796895,0.0,0.0,0.296061009473952,1643.1150427796895,0.0,0.0,0.296061009473952,1024,0.0,99,Assisted_Takeoff,
0.33586923816802,36.907200126686604,4400,2018-04-04 04:41:10,1643.1150427796895,0.0,0.0,0.29913000957216,1643.1150427796895,0.0,0.0,0.29913000957216,1024,0.0,99,Assisted_Takeoff,
0.335869285027718,36.907200117682706,4500,2018-04-04 04:41:10,1643.1150427796895,0.0,0.0,0.30248800967961603,1643.1150427796895,0.0,0.0,0.30248800967961603,1024,0.0,99,Assisted_Takeoff,
0.335869318071696,36.9072001292566,4600,2018-04-04 04:41:10,1643.1150427796895,0.0,0.0,0.30315400970092804,1643.1150427796895,0.0,0.0,0.30315400970092804,1024,0.0,99,Assisted_Takeoff,
0.335869342967755,36.9072001324898,4700,2018-04-04 04:41:10,1643.1150427796895,0.0,0.0,0.30421600973491203,1643.1150427796895,0.0,0.0,0.30421600973491203,1024,0.0,99,Assisted_Takeoff,
0.33586937976366804,36.907200151545204,4800,2018-04-04 04:41:10,1643.1150427796895,0.0,0.0,0.304461009742752,1643.1150427796895,0.0,0.0,0.304461009742752,1024,0.0,99,Assisted_Takeoff,
0.335869418986371,36.9072001622824,4900,2018-04-04 04:41:10,1643.1150427796895,0.0,0.0,0.30570500978256,1643.1150427796895,0.0,0.0,0.30570500978256,1024,0.0,99,Assisted_Takeoff,
0.335869470935363,36.907200157157895,5000,2018-04-04 04:41:11,1643.1150427796895,0.0,0.0,0.309258009896256,1643.1150427796895,0.0,0.0,0.309258009896256,1024,0.0,99,Assisted_Takeoff,
0.33586951921994795,36.90720013914321,5100,2018-04-04 04:41:11,1643.1150427796895,0.0,0.0,0.313853010043296,1643.1150427796895,0.0,0.0,0.313853010043296,1024,0.0,99,Assisted_Takeoff,
0.335869549785842,36.907200129862,5200,2018-04-04 04:41:11,1643.1150427796895,0.0,0.0,0.31658501013072,1643.1150427796895,0.0,0.0,0.31658501013072,1024,0.0,99,Assisted_Takeoff,
0.33586957310027504,36.9072001229721,5300,2018-04-04 04:41:11,1643.1150427796895,0.0,0.0,0.318662010197184,1643.1150427796895,0.0,0.0,0.318662010197184,1024,0.0,99,Assisted_Takeoff,
0.335869577288633,36.9072001255469,5400,2018-04-04 04:41:11,1643.1150427796895,0.0,0.0,0.31868401019788806,1643.1150427796895,0.0,0.0,0.31868401019788806,1071,0.0,99,Assisted_Takeoff,
0.335869584731436,36.907200126399104,5500,2018-04-04 04:41:11,1643.1150427796895,0.0,0.0,0.31906901021020806,1643.1150427796895,0.0,0.0,0.31906901021020806,1024,0.0,99,Assisted_Takeoff,
0.33586960350332395,36.9072001343682,5600,2018-04-04 04:41:11,1643.1150427796895,0.0,0.0,0.31951401022444803,1643.1150427796895,0.0,0.0,0.31951401022444803,1024,0.0,99,Assisted_Takeoff,
0.335869631742172,36.9072001392679,5700,2018-04-04 04:41:11,1643.1150427796895,0.0,0.0,0.3208580102674561,1643.1150427796895,0.0,0.0,0.3208580102674561,1024,0.0,99,Assisted_Takeoff,
0.335869644711914,36.907200149531896,5800,2018-04-04 04:41:11,1643.1150427796895,0.0,0.0,0.32075701026422404,1643.1150427796895,0.0,0.0,0.3208580102674561,1024,0.0,99,Assisted_Takeoff,
0.33586965774842203,36.907200155843206,5900,2018-04-04 04:41:11,1643.1150427796895,0.0,0.0,0.321027010272864,1643.1150427796895,0.0,0.0,0.321027010272864,1024,0.0,99,Assisted_Takeoff,
0.335869684073034,36.9072001651468,6000,2018-04-04 04:41:11,1643.1150427796895,0.0,0.0,0.321907010301024,1643.1150427796895,0.0,0.0,0.321907010301024,1024,0.0,99,Assisted_Takeoff,
0.335869716947247,36.9072001711289,6100,2018-04-04 04:41:12,1643.1150427796895,0.0,0.0,0.32354501035343997,1643.1150427796895,0.0,0.0,0.32354501035343997,1024,0.0,99,Assisted_Takeoff,
0.33586973549848104,36.9072001781484,6200,2018-04-04 04:41:12,1643.1150427796895,0.0,0.0,0.32416101037315204,1643.1150427796895,0.0,0.0,0.32416101037315204,1024,0.0,99,Assisted_Takeoff,
0.335869752203059,36.9072001827296,6300,2018-04-04 04:41:12,1643.1150427796895,0.0,0.0,0.324882010396224,1643.1150427796895,0.0,0.0,0.324882010396224,1024,0.0,99,Assisted_Takeoff,
0.33586978201986895,36.9072002153796,6400,2018-04-04 04:41:12,1643.1150427796895,0.0,0.0,0.324053010369696,1643.1150427796895,0.0,0.0,0.324882010396224,1024,0.0,99,Assisted_Takeoff,
0.335869817608698,36.9072002479285,6500,2018-04-04 04:41:12,1643.1150427796895,0.0,0.0,0.323711010358752,1643.1150427796895,0.0,0.0,0.324882010396224,1024,0.0,99,Assisted_Takeoff,
0.335869838486165,36.9072002782665,6600,2018-04-04 04:41:12,1643.1150427796895,0.0,0.0,0.32259201032294393,1643.1150427796895,0.0,0.0,0.324882010396224,1024,0.0,99,Assisted_Takeoff,
0.335869856841171,36.90720029780471,6700,2018-04-04 04:41:12,1643.1150427796895,0.0,0.0,0.322251010312032,1643.1150427796895,0.0,0.0,0.324882010396224,1024,0.0,99,Assisted_Takeoff,
0.335869887617134,36.9072003399833,6800,2018-04-04 04:41:12,1643.1150427796895,0.0,0.0,0.32095601027059195,1643.1150427796895,0.0,0.0,0.324882010396224,1024,0.0,99,Assisted_Takeoff,
0.33586992429295004,36.907200379169396,6900,2018-04-04 04:41:12,1643.1150427796895,0.0,0.0,0.32044901025436806,1643.1150427796895,0.0,0.0,0.324882010396224,1024,0.0,99,Assisted_Takeoff,
0.335869973254561,36.907200410734404,7000,2018-04-04 04:41:13,1643.1150427796895,0.0,0.0,0.32161001029152003,1643.1150427796895,0.0,0.0,0.324882010396224,1024,0.0,99,Assisted_Takeoff,
0.33587002152327,36.907200431996294,7100,2018-04-04 04:41:13,1643.1150427796895,0.0,0.0,0.32365501035696,1643.1150427796895,0.0,0.0,0.324882010396224,1024,0.0,99,Assisted_Takeoff,
0.33587005201751197,36.9072004722151,7200,2018-04-04 04:41:13,1643.1150427796895,0.0,0.0,0.322907010333024,1643.1150427796895,0.0,0.0,0.324882010396224,1024,0.0,99,Assisted_Takeoff,
0.33587007731946106,36.9072005115447,7300,2018-04-04 04:41:13,1643.1150427796895,0.0,0.0,0.321902010300864,1643.1150427796895,0.0,0.0,0.324882010396224,1024,0.0,99,Assisted_Takeoff,
0.335870110681393,36.9072005400766,7400,2018-04-04 04:41:13,1643.1150427796895,0.0,0.0,0.322452010318464,1643.1150427796895,0.0,0.0,0.324882010396224,1024,0.0,99,Assisted_Takeoff,
0.335870149567821,36.9072005607711,7500,2018-04-04 04:41:13,1643.1150427796895,0.0,0.0,0.324112010371584,1643.1150427796895,0.0,0.0,0.324882010396224,1024,0.0,99,Assisted_Takeoff,
0.33587017033292504,36.9072005973979,7600,2018-04-04 04:41:13,1643.1150427796895,0.0,0.0,0.32315501034096,1643.1150427796895,0.0,0.0,0.324882010396224,1024,0.0,99,Assisted_Takeoff,
0.3358701904596789,36.907200635724394,7700,2018-04-04 04:41:13,1643.1150427796895,0.0,0.0,0.322087010306784,1643.1150427796895,0.0,0.0,0.324882010396224,1024,0.0,99,Assisted_Takeoff,
0.3358701921956,36.9072007146523,7800,2018-04-04 04:41:13,1643.1150427796895,0.0,0.0,0.31665301013289604,1643.1150427796895,0.0,0.0,0.324882010396224,1024,0.0,99,Assisted_Takeoff,
0.335870198516405,36.907200793583,7900,2018-04-04 04:41:13,1643.1150427796895,0.0,0.0,0.31177700997686403,1643.1150427796895,0.0,0.0,0.324882010396224,1024,0.0,99,Assisted_Takeoff,
0.335870214484113,36.907200857217205,8000,2018-04-04 04:41:13,1643.1150427796895,0.0,0.0,0.3089460098862721,1643.1150427796895,0.0,0.0,0.324882010396224,1024,0.0,99,Assisted_Takeoff,
0.33587024364954504,36.907200900894104,8100,2018-04-04 04:41:14,1643.1150427796895,0.0,0.0,0.30874000987968,1643.1150427796895,0.0,0.0,0.324882010396224,1024,0.0,99,Assisted_Takeoff,
0.335870285528239,36.9072009798509,8200,2018-04-04 04:41:14,1643.1150427796895,0.0,0.0,0.30764000984448003,1643.1150427796895,0.0,0.0,0.324882010396224,1024,0.0,99,Assisted_Takeoff,
0.335870330875519,36.9072010589727,8300,2018-04-04 04:41:14,1643.1150427796895,0.0,0.0,0.30717800982969606,1643.1150427796895,0.0,0.0,0.324882010396224,1024,0.0,99,Assisted_Takeoff,
0.33587038654876195,36.9072011428469,8400,2018-04-04 04:41:14,1643.1150427796895,0.0,0.0,0.30778900984924806,1643.1150427796895,0.0,0.0,0.324882010396224,1024,0.0,99,Assisted_Takeoff,
0.33587044071732397,36.9072012138485,8500,2018-04-04 04:41:14,1643.1150427796895,0.0,0.0,0.30931700989814404,1643.1150427796895,0.0,0.0,0.324882010396224,1024,0.0,99,Assisted_Takeoff,
0.335870500576482,36.907201256465996,8600,2018-04-04 04:41:14,1643.1150427796895,0.0,0.0,0.313107010019424,1643.1150427796895,0.0,0.0,0.324882010396224,1024,0.0,99,Assisted_Takeoff,
0.335870557738938,36.9072012887253,8700,2018-04-04 04:41:14,1643.1150427796895,0.0,0.0,0.31727901015292803,1643.1150427796895,0.0,0.0,0.324882010396224,1024,0.0,99,Assisted_Takeoff,
0.33587059199325703,36.907201319946,8800,2018-04-04 04:41:14,1643.1150427796895,0.0,0.0,0.319287010217184,1643.1150427796895,0.0,0.0,0.324882010396224,1024,0.0,99,Assisted_Takeoff,
0.335870621648036,36.9072013582987,8900,2018-04-04 04:41:14,1643.1150427796895,0.0,0.0,0.32057901025852803,1643.1150427796895,0.0,0.0,0.324882010396224,1024,0.0,99,Assisted_Takeoff,
0.335870626986076,36.907201397268096,9000,2018-04-04 04:41:15,1643.1150427796895,0.0,0.0,0.31943301022185605,1643.1150427796895,0.0,0.0,0.324882010396224,1024,0.0,99,Assisted_Takeoff,
0.335870636840605,36.907201438600296,9100,2018-04-04 04:41:15,1643.1150427796895,0.0,0.0,0.318712010198784,1643.1150427796895,0.0,0.0,0.324882010396224,1024,0.0,99,Assisted_Takeoff,
0.335870650668537,36.9072014544293,9200,2018-04-04 04:41:15,1643.1150427796895,0.0,0.0,0.319494010223808,1643.1150427796895,0.0,0.0,0.324882010396224,1024,0.0,99,Assisted_Takeoff,
0.335870679455356,36.907201470086605,9300,2018-04-04 04:41:15,1643.1150427796895,0.0,0.0,0.3218530102992961,1643.1150427796895,0.0,0.0,0.324882010396224,1024,0.0,99,Assisted_Takeoff,
0.33587068768795403,36.9072014899283,9400,2018-04-04 04:41:15,1643.0150427764897,-0.10000000320000002,0.0,0.32193001030176005,1643.1150427796895,0.0,0.0,0.324882010396224,1024,0.0,99,Assisted_Takeoff,
0.33587069968633004,36.9072015190774,9500,2018-04-04 04:41:15,1643.0150427764897,-0.10000000320000002,0.0,0.322067010306144,1643.1150427796895,0.0,0.0,0.324882010396224,1024,0.0,99,Assisted_Takeoff,
0.335870692508149,36.9072015280074,9600,2018-04-04 04:41:15,1643.0150427764897,-0.10000000320000002,0.0,0.32098001027136,1643.1150427796895,0.0,0.0,0.324882010396224,1024,0.0,99,Assisted_Takeoff,
0.335870694248141,36.907201538208795,9700,2018-04-04 04:41:15,1643.0150427764897,-0.10000000320000002,0.0,0.320781010264992,1643.1150427796895,0.0,0.0,0.324882010396224,1024,0.0,99,Assisted_Takeoff,
0.33587070735222996,36.9072015580339,9800,2018-04-04 04:41:15,1643.0150427764897,-0.10000000320000002,0.0,0.321428010285696,1643.1150427796895,0.0,0.0,0.324882010396224,1024,0.0,99,Assisted_Takeoff,
0.33587073307024606,36.907201586075004,9900,2018-04-04 04:41:15,1643.0150427764897,-0.10000000320000002,0.0,0.32313701034038395,1643.1150427796895,0.0,0.0,0.324882010396224,1024,0.0,99,Assisted_Takeoff,
0.335870743608721,36.9072015979219,10000,2018-04-04 04:41:15,1643.0150427764897,-0.10000000320000002,0.0,0.323838010362816,1643.1150427796895,0.0,0.0,0.324882010396224,1024,0.0,99,Assisted_Takeoff,
0.33587075592545695,36.9072016090456,10100,2018-04-04 04:41:16,1643.0150427764897,-0.10000000320000002,0.0,0.32476001039232,1643.1150427796895,0.0,0.0,0.324882010396224,1024,0.0,99,Assisted_Takeoff,
0.33587078117448194,36.9072016048263,10200,2018-04-04 04:41:16,1643.0150427764897,-0.10000000320000002,0.0,0.327577010482464,1643.1150427796895,0.0,0.0,0.327577010482464,1024,0.0,99,Assisted_Takeoff,
0.33587081488083004,36.9072016041111,10300,2018-04-04 04:41:16,1643.0150427764897,-0.10000000320000002,0.0,0.33117401059756796,1643.1150427796895,0.0,0.0,0.33117401059756796,1024,0.0,99,Assisted_Takeoff,
0.33587083493104597,36.907201618045704,10400,2018-04-04 04:41:16,1643.0150427764897,-0.10000000320000002,0.0,0.3328390106508481,1643.1150427796895,0.0,0.0,0.3328390106508481,1024,0.0,99,Assisted_Takeoff,
0.335870854076662,36.907201641376,10500,2018-04-04 04:41:16,1643.0150427764897,-0.10000000320000002,0.0,0.334122010691904,1643.1150427796895,0.0,0.0,0.334122010691904,1024,0.0,99,Assisted_Takeoff,
0.33587085819744,36.907201653390004,10600,2018-04-04 04:41:16,1643.0150427764897,-0.10000000320000002,0.0,0.33418201069382397,1643.1150427796895,0.0,0.0,0.33418201069382397,1024,0.0,99,Assisted_Takeoff,
0.335870865526252,36.9072016630218,10700,2018-04-04 04:41:16,1643.0150427764897,-0.10000000320000002,0.0,0.334663010709216,1643.1150427796895,0.0,0.0,0.334663010709216,1024,0.0,99,Assisted_Takeoff,
0.33587088541851,36.907201662253605,10800,2018-04-04 04:41:16,1643.0150427764897,-0.10000000320000002,0.0,0.33681201077798395,1643.1150427796895,0.0,0.0,0.33681201077798395,1024,0.0,99,Assisted_Takeoff,
0.335870916008016,36.9072016637278,10900,2018-04-04 04:41:16,1643.0150427764897,-0.10000000320000002,0.0,0.340037010881184,1643.1150427796895,0.0,0.0,0.340037010881184,1024,0.0,99,Assisted_Takeoff,
0.335870933630223,36.9072016826756,11000,2018-04-04 04:41:17,1643.0150427764897,-0.10000000320000002,0.0,0.341354010923328,1643.1150427796895,0.0,0.0,0.341354010923328,1024,0.0,99,Assisted_Takeoff,
0.33587094992361893,36.907201709012206,11100,2018-04-04 04:41:17,1643.0150427764897,-0.10000000320000002,0.0,0.342334010954688,1643.1150427796895,0.0,0.0,0.342334010954688,1028,0.0,99,Assisted_Takeoff,
0.3358709792111839,36.907201727932204,11200,2018-04-04 04:41:17,1643.0150427764897,-0.10000000320000002,0.0,0.344952011038464,1643.1150427796895,0.0,0.0,0.344952011038464,1024,0.0,99,Assisted_Takeoff,
0.335871015611793,36.907201741204,11300,2018-04-04 04:41:17,1643.0150427764897,-0.10000000320000002,0.0,0.348512011152384,1643.1150427796895,0.0,0.0,0.348512011152384,1024,0.0,99,Assisted_Takeoff,
0.335871036744925,36.9072017737556,11400,2018-04-04 04:41:17,1643.0150427764897,-0.10000000320000002,0.0,0.349937011197984,1643.1150427796895,0.0,0.0,0.349937011197984,1027,0.0,99,Assisted_Takeoff,
0.33587105617959,36.9072018084221,11500,2018-04-04 04:41:17,1643.0150427764897,-0.10000000320000002,0.0,0.35117401123756803,1643.1150427796895,0.0,0.0,0.35117401123756803,1027,0.0,99,Assisted_Takeoff,
0.335871059326558,36.90720186221579,11600,2018-04-04 04:41:17,1643.0150427764897,-0.10000000320000002,0.0,0.35025201120806404,1643.1150427796895,0.0,0.0,0.35117401123756803,1027,0.0,99,Assisted_Takeoff,
0.33587106702177005,36.9072019110728,11700,2018-04-04 04:41:17,1643.0150427764897,-0.10000000320000002,0.0,0.35003001120096,1643.1150427796895,0.0,0.0,0.35117401123756803,1031,0.0,99,Assisted_Takeoff,
0.335871087628915,36.9072019469192,11800,2018-04-04 04:41:17,1643.0150427764897,-0.10000000320000002,0.0,0.35155901124988803,1643.1150427796895,0.0,0.0,0.35155901124988803,1036,0.0,99,Assisted_Takeoff,
0.335871118141884,36.9072019726049,11900,2018-04-04 04:41:17,1643.0150427764897,-0.10000000320000002,0.0,0.35441501134128,1643.1150427796895,0.0,0.0,0.35441501134128,1036,0.0,99,Assisted_Takeoff,
0.33587113552145303,36.9072020108146,12000,2018-04-04 04:41:17,1643.0150427764897,-0.10000000320000002,0.0,0.355644011380608,1643.1150427796895,0.0,0.0,0.355644011380608,1061,0.0,99,Assisted_Takeoff,
0.335871152274884,36.907202050552705,12100,2018-04-04 04:41:18,1643.0150427764897,-0.10000000320000002,0.0,0.356837011418784,1643.1150427796895,0.0,0.0,0.356837011418784,1086,0.0,99,Assisted_Takeoff,
0.335871182145433,36.9072020755805,12200,2018-04-04 04:41:18,1643.0150427764897,-0.10000000320000002,0.0,0.35974901151196803,1643.1150427796895,0.0,0.0,0.35974901151196803,1082,0.0,99,Assisted_Takeoff,
0.33587122008084996,36.9072020942841,12300,2018-04-04 04:41:18,1643.0150427764897,-0.10000000320000002,0.0,0.363666011637312,1643.1150427796895,0.0,0.0,0.363666011637312,1126,0.0,99,Assisted_Takeoff,
0.33587124227165605,36.9072021254712,12400,2018-04-04 04:41:18,1643.0150427764897,-0.10000000320000002,0.0,0.365702011702464,1643.1150427796895,0.0,0.0,0.365702011702464,1115,0.0,99,Assisted_Takeoff,
0.335871263677552,36.9072021598005,12500,2018-04-04 04:41:18,1643.0150427764897,-0.10000000320000002,0.0,0.367652011764864,1643.1150427796895,0.0,0.0,0.367652011764864,1146,0.0,99,Assisted_Takeoff,
0.335871294699411,36.9072022070741,12600,2018-04-04 04:41:18,1643.0150427764897,-0.10000000320000002,0.0,0.37058201185862405,1643.1150427796895,0.0,0.0,0.37058201185862405,1136,0.0,99,Assisted_Takeoff,
0.335871333399382,36.907202252580596,12700,2018-04-04 04:41:18,1643.0150427764897,-0.10000000320000002,0.0,0.374461011982752,1643.1150427796895,0.0,0.0,0.374461011982752,1159,0.0,99,Assisted_Takeoff,
0.33587135481993496,36.90720228413971,12800,2018-04-04 04:41:18,1643.0150427764897,-0.10000000320000002,0.0,0.37659401205100795,1643.1150427796895,0.0,0.0,0.37659401205100795,1158,0.0,99,Assisted_Takeoff,
0.33587137540590895,36.907202307778896,12900,2018-04-04 04:41:18,1643.0150427764897,-0.10000000320000002,0.0,0.37872001211904,1643.1150427796895,0.0,0.0,0.37872001211904,1171,0.0,99,Assisted_Takeoff,
0.335871406258409,36.907202317078294,13000,2018-04-04 04:41:19,1643.0150427764897,-0.10000000320000002,0.0,0.38208901222684805,1643.1150427796895,0.0,0.0,0.38208901222684805,1206,0.0,99,Assisted_Takeoff,
0.33587146235504806,36.90720234087,13100,2018-04-04 04:41:19,1642.9150427732898,-0.20000000640000004,0.0,0.388187012421984,1643.1150427796895,0.0,0.0,0.388187012421984,1244,0.0,99,Assisted_Takeoff,
0.335871546362403,36.9072024097021,13200,2018-04-04 04:41:19,1642.9150427732898,-0.20000000640000004,0.0,0.39724901271196805,1643.1150427796895,0.0,0.0,0.39724901271196805,1235,0.0,99,Assisted_Takeoff,
0.33587166632905796,36.907202491049105,13300,2018-04-04 04:41:19,1642.9150427732898,-0.20000000640000004,0.35999970196000003,0.41046001313471997,1643.1150427796895,0.0,0.35999970196000003,0.41046001313471997,1226,0.0,99,P-GPS,
0.33587182939329696,36.9072025534259,13400,2018-04-04 04:41:19,1643.0150427764897,-0.10000000320000002,0.35999970196000003,0.42863001371616,1643.1150427796895,0.0,0.35999970196000003,0.42863001371616,1233,0.0,99,P-GPS,
0.33587201069773803,36.907202612358496,13500,2018-04-04 04:41:19,1643.0150427764897,-0.10000000320000002,0.35999970196000003,0.44892201436550394,1643.1150427796895,0.0,0.35999970196000003,0.44892201436550394,1245,0.0,99,P-GPS,
0.335872168839192,36.9072026644078,13600,2018-04-04 04:41:19,1643.1150427796895,0.0,0.35999970196000003,0.466691014934112,1643.1150427796895,0.0,0.35999970196000003,0.466691014934112,1245,0.0,99,P-GPS,
0.33587231458248695,36.9072027143162,13700,2018-04-04 04:41:19,1643.1150427796895,0.0,0.35999970196000003,0.483126015460032,1643.1150427796895,0.0,0.35999970196000003,0.483126015460032,1246,0.0,99,P-GPS,
0.335872464005251,36.907202750598294,13800,2018-04-04 04:41:19,1643.1150427796895,0.0,0.35999970196000003,0.499931015997792,1643.1150427796895,0.0,0.35999970196000003,0.499931015997792,1257,0.0,99,P-GPS,
0.335872606616234,36.9072027750881,13900,2018-04-04 04:41:19,1643.2150427828894,0.10000000320000002,0.0,0.5159200165094401,1643.2150427828894,0.10000000320000002,0.35999970196000003,0.5159200165094401,1290,0.0,99,P-GPS,
0.335872726243359,36.907202758306205,14000,2018-04-04 04:41:20,1643.3150427860896,0.20000000640000004,0.0,0.529097016931104,1643.3150427860896,0.20000000640000004,0.35999970196000003,0.529097016931104,1270,0.0,99,P-GPS,
0.33587282441329097,36.9072027315716,14100,2018-04-04 04:41:20,1643.4150427892896,0.3000000096,0.0,0.539849017275168,1643.4150427892896,0.3000000096,0.35999970196000003,0.539849017275168,1255,0.0,99,P-GPS,Home Point Recorded. RTH Altitude:  30m.
0.335872866615231,36.907202706191605,14200,2018-04-04 04:41:20,1643.5150427924896,0.4000000128000001,0.0,0.544412017421184,1643.5150427924896,0.4000000128000001,0.35999970196000003,0.544412017421184,1268,0.0,99,P-GPS,
0.335872893734523,36.9072026897654,14300,2018-04-04 04:41:20,1643.6150427956895,0.500000016,0.0,0.547352017515264,1643.6150427956895,0.500000016,0.35999970196000003,0.547352017515264,1269,0.0,99,P-GPS,
0.335872920014352,36.9072026528412,14400,2018-04-04 04:41:20,1643.7150427988897,0.6000000192,0.0,0.550132017604224,1643.7150427988897,0.6000000192,0.35999970196000003,0.550132017604224,1255,0.0,99,P-GPS,
0.335872962244791,36.9072026189955,14500,2018-04-04 04:41:20,1643.8150428020897,0.7000000224000001,0.0,0.5547250177512,1643.8150428020897,0.7000000224000001,0.35999970196000003,0.5547250177512,1255,0.0,99,P-GPS,
0.335872991130944,36.9072025675074,14600,2018-04-04 04:41:20,1643.9150428052894,0.8000000256000002,0.0,0.557832017850624,1643.9150428052894,0.8000000256000002,0.35999970196000003,0.557832017850624,1258,0.0,99,P-GPS,Obstacle Avoided. Revise Flight Route
0.33587301633925803,36.9072025255537,14700,2018-04-04 04:41:20,1644.1150428116896,1.000000032,0.0,0.5605930179389761,1644.1150428116896,1.000000032,0.35999970196000003,0.5605930179389761,1259,-0.1,99,P-GPS,
0.335873029433576,36.9072025456966,14800,2018-04-04 04:41:20,1644.2150428148896,1.1000000352,0.0,0.5620650179860801,1644.2150428148896,1.1000000352,0.35999970196000003,0.5620650179860801,1271,-0.3,99,P-GPS,
0.335873040901893,36.907202592676796,14900,2018-04-04 04:41:20,1644.3150428180895,1.2000000384,0.0,0.5634090180290879,1644.3150428180895,1.2000000384,0.35999970196000003,0.5634090180290879,1276,-0.5,99,P-GPS,
0.3358730556889781,36.9072026476072,15000,2018-04-04 04:41:20,1644.4150428212897,1.3000000416000002,0.0,0.5651960180862721,1644.4150428212897,1.3000000416000002,0.35999970196000003,0.5651960180862721,1276,-0.7,99,P-GPS,
0.33587307169658304,36.907202684427794,15100,2018-04-04 04:41:21,1644.5150428244897,1.4000000448000003,0.0,0.567107018147424,1644.5150428244897,1.4000000448000003,0.35999970196000003,0.567107018147424,1268,-1.1,99,P-GPS,
0.335873080000019,36.9072026906074,15200,2018-04-04 04:41:21,1644.6150428276896,1.5000000480000002,0.0,0.56805501817776,1644.6150428276896,1.5000000480000002,0.35999970196000003,0.56805501817776,1267,-1.1,99,P-GPS,
0.33587308876430394,36.9072026835769,15300,2018-04-04 04:41:21,1644.7150428308896,1.6000000512000003,0.0,0.5690010182080322,1644.7150428308896,1.6000000512000003,0.35999970196000003,0.5690010182080322,1274,-1.4,99,P-GPS,
0.335873123387466,36.907202673259896,15400,2018-04-04 04:41:21,1644.9150428372895,1.8000000576000001,0.0,0.572809018329888,1644.9150428372895,1.8000000576000001,0.35999970196000003,0.572809018329888,1271,-1.9,99,P-GPS,
0.33587317595526694,36.907202669747,15500,2018-04-04 04:41:21,1645.0150428404895,1.9000000607999998,0.0,0.5786390185164481,1645.0150428404895,1.9000000607999998,0.35999970196000003,0.5786390185164481,1271,-2.5,99,P-GPS,
0.33587325440067106,36.9072026822604,15600,2018-04-04 04:41:21,1645.1150428436895,2.000000064,0.0,0.5874040187969279,1645.1150428436895,2.000000064,0.35999970196000003,0.5874040187969279,1276,-3.0,99,P-GPS,
0.335873336899273,36.907202703580104,15700,2018-04-04 04:41:21,1645.2150428468897,2.1000000672,0.0,0.596658019093056,1645.2150428468897,2.1000000672,0.35999970196000003,0.596658019093056,1274,-4.4,99,P-GPS,
0.33587351198550003,36.9072027903554,15900,2018-04-04 04:41:21,1645.5150428564896,2.4000000768,0.0,0.616542019729344,1645.5150428564896,2.4000000768,0.35999970196000003,0.616542019729344,1274,-5.2,99,P-GPS,
0.33587357263282597,36.9072028025601,16000,2018-04-04 04:41:22,1645.6150428596898,2.50000008,0.0,0.6233490199471681,1645.6150428596898,2.50000008,0.35999970196000003,0.6233490199471681,1271,-6.8,99,P-GPS,
0.335873623649533,36.9072028022505,16100,2018-04-04 04:41:22,1645.7150428628897,2.6000000832000003,0.0,0.629012020128384,1645.7150428628897,2.6000000832000003,0.35999970196000003,0.629012020128384,1266,-9.3,99,P-GPS,
0.335873663984463,36.9072028231989,16200,2018-04-04 04:41:22,1645.8150428660895,2.7000000863999998,0.0,0.6336180202757761,1645.8150428660895,2.7000000863999998,0.35999970196000003,0.6336180202757761,1266,-11.8,99,P-GPS,
0.33587371314393,36.9072028600613,16300,2018-04-04 04:41:22,1645.9150428692894,2.8000000896000006,0.0,0.6393190204582079,1645.9150428692894,2.8000000896000006,0.35999970196000003,0.6393190204582079,1269,-14.2,99,P-GPS,
0.335873774036336,36.9072028878194,16400,2018-04-04 04:41:22,1646.1150428756896,3.0000000960000004,0.0,0.6462750206808,1646.1150428756896,3.0000000960000004,0.35999970196000003,0.6462750206808,1270,-16.7,99,P-GPS,
0.33587384847169705,36.9072029167555,16500,2018-04-04 04:41:22,1646.2150428788896,3.1000000992,0.0,0.654754020952128,1646.2150428788896,3.1000000992,0.35999970196000003,0.654754020952128,1266,-16.7,99,P-GPS,
0.33587391341730105,36.907202938449394,16600,2018-04-04 04:41:22,1646.3150428820898,3.2000001024000007,0.0,0.662131021188192,1646.3150428820898,3.2000001024000007,0.35999970196000003,0.662131021188192,1266,-19.2,99,P-GPS,
0.335873977161927,36.907202966121396,16700,2018-04-04 04:41:22,1646.4150428852897,3.3000001056,0.0,0.6694310214217921,1646.4150428852897,3.3000001056,0.35999970196000003,0.6694310214217921,1260,-21.6,99,P-GPS,
0.33587402824702894,36.907203006145004,16800,2018-04-04 04:41:22,1646.5150428884897,3.4000001088000005,0.0,0.6754510216144319,1646.5150428884897,3.4000001088000005,0.35999970196000003,0.6754510216144319,1255,-24.1,99,P-GPS,
0.335874083803025,36.9072030627303,16900,2018-04-04 04:41:22,1646.6150428916894,3.500000112,0.0,0.682154021828928,1646.6150428916894,3.500000112,0.35999970196000003,0.682154021828928,1255,-25.9,99,P-GPS,
0.33587416336716996,36.907203127847794,17000,2018-04-04 04:41:22,1646.7150428948896,3.6000001152000003,0.0,0.691657022133024,1646.7150428948896,3.6000001152000003,0.35999970196000003,0.691657022133024,1249,-26.5,99,P-GPS,
0.335874255005413,36.9072032015105,17100,2018-04-04 04:41:23,1646.9150429012896,3.8000001215999997,0.0,0.702657022485024,1646.9150429012896,3.8000001215999997,0.35999970196000003,0.702657022485024,1250,-26.5,99,P-GPS,
0.335874308393135,36.9072032753886,17200,2018-04-04 04:41:23,1647.0150429044895,3.9000001248,0.0,0.709507022704224,1647.0150429044895,3.9000001248,0.35999970196000003,0.709507022704224,1252,-26.5,99,P-GPS,
0.335874349035026,36.907203346757,17300,2018-04-04 04:41:23,1647.1150429076897,4.000000128,0.0,0.7149930228797761,1647.1150429076897,4.000000128,0.35999970196000003,0.7149930228797761,1255,-26.5,99,P-GPS,
0.335874421351782,36.9072034275965,17400,2018-04-04 04:41:23,1647.2150429108897,4.100000131200001,0.0,0.724189023174048,1647.2150429108897,4.100000131200001,0.35999970196000003,0.724189023174048,1256,-26.5,99,P-GPS,
0.335874511811031,36.907203505390704,17500,2018-04-04 04:41:23,1647.3150429140896,4.2000001344,0.0,0.7354110235331521,1647.3150429140896,4.2000001344,0.35999970196000003,0.7354110235331521,1257,-26.5,99,P-GPS,
0.33587456672949106,36.9072035414991,17600,2018-04-04 04:41:23,1647.4150429172896,4.3000001376,0.0,0.7420630237460161,1647.4150429172896,4.3000001376,0.35999970196000003,0.7420630237460161,1259,-26.5,99,P-GPS,
0.33587460960235,36.9072035645998,17700,2018-04-04 04:41:23,1647.5150429204898,4.4000001408,0.0,0.7471750239096,1647.5150429204898,4.4000001408,0.35999970196000003,0.7471750239096,1263,-26.5,99,P-GPS,
0.335874641933477,36.9072035778765,17800,2018-04-04 04:41:23,1647.6150429236895,4.5000001439999995,0.0,0.7509600240307199,1647.6150429236895,4.5000001439999995,0.35999970196000003,0.7509600240307199,1261,-26.5,99,P-GPS,
0.335874679678367,36.9072036004245,17900,2018-04-04 04:41:24,1647.7150429268895,4.6000001472,0.0,0.75550502417616,1647.7150429268895,4.6000001472,0.35999970196000003,0.75550502417616,1257,-26.5,99,P-GPS,
0.33587470197827896,36.9072036181298,18000,2018-04-04 04:41:24,1647.8150429300895,4.700000150400001,0.0,0.758272024264704,1647.8150429300895,4.700000150400001,0.35999970196000003,0.758272024264704,1271,-26.5,99,P-GPS,
0.335874729479441,36.9072036412803,18100,2018-04-04 04:41:24,1647.9150429332897,4.8000001536,0.0,0.761714024374848,1647.9150429332897,4.8000001536,0.35999970196000003,0.761714024374848,1286,-26.5,99,P-GPS,
0.33587475074529105,36.9072036658552,18200,2018-04-04 04:41:24,1648.1150429396896,5.00000016,0.0,0.764504024464128,1648.1150429396896,5.00000016,0.35999970196000003,0.764504024464128,1275,-26.5,99,P-GPS,
0.33587477938473603,36.9072036882814,18300,2018-04-04 04:41:24,1648.2150429428896,5.1000001632,0.0,0.768067024578144,1648.2150429428896,5.1000001632,0.35999970196000003,0.768067024578144,1253,-26.5,99,P-GPS,
0.33587479756875604,36.907203688331705,18400,2018-04-04 04:41:24,1648.3150429460898,5.200000166400001,0.0,0.77006002464192,1648.3150429460898,5.200000166400001,0.35999970196000003,0.77006002464192,1257,-26.5,99,P-GPS,
0.335874823335625,36.907203687041104,18500,2018-04-04 04:41:24,1648.4150429492895,5.3000001696,0.0,0.772859024731488,1648.4150429492895,5.3000001696,0.35999970196000003,0.772859024731488,1271,-26.5,99,P-GPS,
0.335874852434291,36.9072036836836,18600,2018-04-04 04:41:24,1648.5150429524895,5.4000001727999996,0.0,0.7759850248315201,1648.5150429524895,5.4000001727999996,0.35999970196000003,0.7759850248315201,1274,-26.5,99,P-GPS,
0.335874894548295,36.9072036916466,18700,2018-04-04 04:41:24,1648.6150429556897,5.500000176000001,0.0,0.780750024984,1648.6150429556897,5.500000176000001,0.35999970196000003,0.780750024984,1274,-26.5,99,P-GPS,
0.335874914685634,36.9072036913931,18800,2018-04-04 04:41:24,1648.8150429620896,5.7000001824,0.0,0.782952025054464,1648.8150429620896,5.7000001824,0.35999970196000003,0.782952025054464,1277,-26.5,99,P-GPS,
0.335874938300514,36.9072036937308,18900,2018-04-04 04:41:24,1648.9150429652896,5.8000001856,0.0,0.78558502513872,1648.9150429652896,5.8000001856,0.35999970196000003,0.78558502513872,1270,-26.5,99,P-GPS,
0.335874941194259,36.9072037105076,19000,2018-04-04 04:41:24,1649.0150429684898,5.9000001888,0.0,0.7862190251590081,1649.0150429684898,5.9000001888,0.35999970196000003,0.7862190251590081,1275,-26.5,99,P-GPS,
0.335874954593096,36.9072037393666,19100,2018-04-04 04:41:25,1649.1150429716897,6.000000192000001,0.0,0.7882410252237122,1649.1150429716897,6.000000192000001,0.35999970196000003,0.7882410252237122,1277,-26.5,99,P-GPS,
0.33587497274291905,36.907203768680894,19200,2018-04-04 04:41:25,1649.2150429748897,6.1000001952,0.0,0.7908030253056961,1649.2150429748897,6.1000001952,0.35999970196000003,0.7908030253056961,1286,-26.5,99,P-GPS,
0.335875013439363,36.907203799093104,19300,2018-04-04 04:41:25,1649.4150429812896,6.300000201600001,0.0,0.795862025467584,1649.4150429812896,6.300000201600001,0.35999970196000003,0.795862025467584,1312,-26.5,99,P-GPS,
0.33587505850003696,36.9072038188933,19400,2018-04-04 04:41:25,1649.5150429844896,6.400000204800001,0.0,0.8011910256381122,1649.5150429844896,6.400000204800001,0.35999970196000003,0.8011910256381122,1315,-26.5,99,P-GPS,
0.335875108526651,36.9072038428104,19500,2018-04-04 04:41:25,1649.6150429876895,6.500000208,0.0,0.807148025828736,1649.6150429876895,6.500000208,0.35999970196000003,0.807148025828736,1314,-26.5,99,P-GPS,
0.33587515108603405,36.90720385258079,19600,2018-04-04 04:41:25,1649.8150429940897,6.7000002144,0.0,0.8120000259840001,1649.8150429940897,6.7000002144,0.35999970196000003,0.8120000259840001,1322,-26.5,99,P-GPS,
0.335875190104367,36.9072038748215,19700,2018-04-04 04:41:25,1649.9150429972897,6.800000217600001,0.0,0.8167230261351359,1649.9150429972897,6.800000217600001,0.35999970196000003,0.8167230261351359,1322,-26.5,99,P-GPS,
0.335875198454213,36.907203884836605,19800,2018-04-04 04:41:25,1650.1150430036894,7.000000224,0.0,0.817844026171008,1650.1150430036894,7.000000224,0.35999970196000003,0.817844026171008,1292,-26.5,99,P-GPS,
0.335875204049547,36.9072039021257,19900,2018-04-04 04:41:25,1650.2150430068898,7.100000227200002,0.0,0.818819026202208,1650.2150430068898,7.100000227200002,0.35999970196000003,0.818819026202208,1291,-26.5,99,P-GPS,
0.33587519381396197,36.907203924762,20000,2018-04-04 04:41:26,1650.4150430132895,7.3000002336000005,0.0,0.81818502618192,1650.4150430132895,7.3000002336000005,0.35999970196000003,0.818819026202208,1301,-26.5,99,P-GPS,
0.335875186925644,36.9072039716397,20100,2018-04-04 04:41:26,1650.5150430164895,7.4000002368,0.0,0.818458026190656,1650.5150430164895,7.4000002368,0.35999970196000003,0.818819026202208,1300,-26.5,99,P-GPS,
0.335875180594254,36.907204026155796,20200,2018-04-04 04:41:26,1650.7150430228896,7.600000243199999,0.0,0.819002026208064,1650.7150430228896,7.600000243199999,0.35999970196000003,0.819002026208064,1315,-26.5,99,P-GPS,
0.33587519308279107,36.9072040854101,20300,2018-04-04 04:41:26,1650.8150430260896,7.7000002464,0.0,0.8217470262959039,1650.8150430260896,7.7000002464,0.35999970196000003,0.8217470262959039,1308,-26.5,99,P-GPS,
0.335875201488005,36.9072041196235,20400,2018-04-04 04:41:26,1651.0150430324898,7.9000002528,0.0,0.8234830263514561,1651.0150430324898,7.9000002528,0.35999970196000003,0.8234830263514561,1312,-26.5,99,P-GPS,
0.335875213079269,36.9072041506087,20500,2018-04-04 04:41:26,1651.1150430356895,8.000000256,0.0,0.8255000264160001,1651.1150430356895,8.000000256,0.35999970196000003,0.8255000264160001,1320,-26.5,99,P-GPS,
0.335875219255957,36.907204148970706,20600,2018-04-04 04:41:26,1651.2150430388895,8.1000002592,0.0,0.826129026436128,1651.2150430388895,8.1000002592,0.35999970196000003,0.826129026436128,1330,-26.5,99,P-GPS,
0.335875237019838,36.9072041576759,20800,2018-04-04 04:41:26,1651.6150430516896,8.500000272000001,0.0,0.8282700265046401,1651.6150430516896,8.500000272000001,0.35999970196000003,0.8282700265046401,1323,-26.5,99,P-GPS,
0.335875253133292,36.9072041745587,20900,2018-04-04 04:41:26,1651.7150430548897,8.6000002752,0.0,0.8304360265739521,1651.7150430548897,8.6000002752,0.35999970196000003,0.8304360265739521,1312,-26.5,99,P-GPS,
0.33587528421296,36.90720416747929,21000,2018-04-04 04:41:26,1651.9150430612897,8.8000002816,0.0,0.8336290266761279,1651.9150430612897,8.8000002816,0.35999970196000003,0.8336290266761279,1319,-26.5,99,P-GPS,
0.33587532822654403,36.90720416568121,21100,2018-04-04 04:41:27,1652.0150430644894,8.9000002848,0.0,0.8383580268274562,1652.0150430644894,8.9000002848,0.35999970196000003,0.8383580268274562,1304,-26.5,99,P-GPS,
0.335875356877388,36.907204151544704,21200,2018-04-04 04:41:27,1652.2150430708896,9.1000002912,0.0,0.8411220269159039,1652.2150430708896,9.1000002912,0.35999970196000003,0.8411220269159039,1279,-26.5,99,P-GPS,
0.335875379584411,36.9072041519264,21300,2018-04-04 04:41:27,1652.4150430772895,9.3000002976,0.0,0.8435950269950401,1652.4150430772895,9.3000002976,0.35999970196000003,0.8435950269950401,1289,-26.5,99,P-GPS,
0.335875410011887,36.907204138814,21400,2018-04-04 04:41:27,1652.5150430804897,9.400000300800002,0.0,0.846584027090688,1652.5150430804897,9.400000300800002,0.35999970196000003,0.846584027090688,1296,-26.5,99,P-GPS,
0.335875451236761,36.9072041390485,21500,2018-04-04 04:41:27,1652.6150430836897,9.500000304,0.0,0.8510670272341441,1652.6150430836897,9.500000304,0.35999970196000003,0.8510670272341441,1303,-26.5,99,P-GPS,
0.33587549589683696,36.9072041311966,21600,2018-04-04 04:41:27,1652.8150430900898,9.7000003104,0.0,0.8557340273834879,1652.8150430900898,9.7000003104,0.35999970196000003,0.8557340273834879,1302,-26.5,99,P-GPS,
0.33587554331061303,36.9072041304386,21700,2018-04-04 04:41:27,1652.9150430932896,9.8000003136,0.0,0.8608700275478399,1652.9150430932896,9.8000003136,0.35999970196000003,0.8608700275478399,1299,-26.5,99,P-GPS,
0.33587557174975896,36.9072041440935,21800,2018-04-04 04:41:27,1653.1150430996895,10.00000032,0.0,0.864282027657024,1653.1150430996895,10.00000032,0.35999970196000003,0.864282027657024,1296,-26.5,99,P-GPS,
0.335875596933645,36.907204176574396,21900,2018-04-04 04:41:27,1653.2150431028897,10.100000323200002,0.0,0.8677870277691839,1653.2150431028897,10.100000323200002,0.35999970196000003,0.8677870277691839,1297,-26.5,99,P-GPS,
0.33587564743169396,36.907204183766495,22000,2018-04-04 04:41:28,1653.4150431092896,10.300000329600001,0.0,0.873444027950208,1653.4150431092896,10.300000329600001,0.35999970196000003,0.873444027950208,1300,-26.5,99,P-GPS,
0.33587571117387705,36.9072041893656,22100,2018-04-04 04:41:28,1653.5150431124896,10.400000332800001,0.0,0.880502028176064,1653.5150431124896,10.400000332800001,0.35999970196000003,0.880502028176064,1298,-26.5,99,P-GPS,
0.33587575757638893,36.907204188030796,22200,2018-04-04 04:41:28,1653.6150431156898,10.500000336,0.0,0.8855130283364161,1653.6150431156898,10.500000336,0.35999970196000003,0.8855130283364161,1299,-26.5,99,P-GPS,
0.33587579137474394,36.9072042032418,22300,2018-04-04 04:41:28,1653.8150431220895,10.700000342400001,0.0,0.88954502846544,1653.8150431220895,10.700000342400001,0.35999970196000003,0.88954502846544,1296,-26.5,99,P-GPS,
0.335875805900464,36.9072042262074,22400,2018-04-04 04:41:28,1653.9150431252895,10.800000345599999,0.0,0.891669028533408,1653.9150431252895,10.800000345599999,0.35999970196000003,0.891669028533408,1296,-26.5,99,P-GPS,
0.335875822462554,36.9072042718504,22500,2018-04-04 04:41:28,1654.1150431316896,11.000000352000002,0.0,0.894571028626272,1654.1150431316896,11.000000352000002,0.35999970196000003,0.894571028626272,1287,-26.4,99,P-GPS,
0.33587586389994,36.9072043018892,22600,2018-04-04 04:41:28,1654.2150431348896,11.1000003552,0.0,0.8998040287937281,1654.2150431348896,11.1000003552,0.35999970196000003,0.8998040287937281,1286,-25.9,99,P-GPS,
0.335875929852736,36.9072043333351,22700,2018-04-04 04:41:28,1654.4150431412897,11.3000003616,0.0,0.907734029047488,1654.4150431412897,11.3000003616,0.35999970196000003,0.907734029047488,1284,-24.9,99,P-GPS,
0.335875973791412,36.9072043458664,22800,2018-04-04 04:41:28,1654.5150431444897,11.4000003648,0.0,0.912808029209856,1654.5150431444897,11.4000003648,0.35999970196000003,0.912808029209856,1282,-24.9,99,P-GPS,
0.335876002127966,36.907204369221894,22900,2018-04-04 04:41:28,1654.7150431508894,11.6000003712,0.0,0.916464029326848,1654.7150431508894,11.6000003712,0.35999970196000003,0.916464029326848,1276,-22.3,99,P-GPS,
0.33587602915280795,36.907204372730796,23000,2018-04-04 04:41:28,1654.8150431540896,11.700000374400002,0.0,0.91948002942336,1654.8150431540896,11.700000374400002,0.35999970196000003,0.91948002942336,1253,-20.9,99,P-GPS,
0.335876065757787,36.9072043995329,23100,2018-04-04 04:41:29,1654.9150431572896,11.8000003776,0.0,0.9241220295719039,1654.9150431572896,11.8000003776,0.35999970196000003,0.9241220295719039,1245,-19.4,99,P-GPS,
0.33587611483827395,36.90720443058321,23200,2018-04-04 04:41:29,1655.1150431636897,12.000000384000002,0.0,0.9302260297672321,1655.1150431636897,12.000000384000002,0.35999970196000003,0.9302260297672321,1242,-18.9,99,P-GPS,
0.33587618107849104,36.907204485611,23300,2018-04-04 04:41:29,1655.2150431668897,12.1000003872,0.0,0.93881503004208,1655.2150431668897,12.1000003872,0.35999970196000003,0.93881503004208,1228,-18.9,99,P-GPS,
0.335876234068873,36.907204532217605,23400,2018-04-04 04:41:29,1655.3150431700897,12.2000003904,0.0,0.9457680302645761,1655.3150431700897,12.2000003904,0.35999970196000003,0.9457680302645761,1229,-18.9,99,P-GPS,
0.33587628220323495,36.9072045942188,23500,2018-04-04 04:41:29,1655.5150431764898,12.4000003968,0.0,0.952627030484064,1655.5150431764898,12.4000003968,0.35999970196000003,0.952627030484064,1245,-18.9,99,P-GPS,
0.33587631699168397,36.9072046490935,23600,2018-04-04 04:41:29,1655.6150431796896,12.500000400000001,0.0,0.957882030652224,1655.6150431796896,12.500000400000001,0.35999970196000003,0.957882030652224,1287,-18.9,99,P-GPS,
0.33587635658648496,36.9072047126439,23700,2018-04-04 04:41:29,1655.7150431828895,12.600000403200003,0.0,0.9639250308456,1655.7150431828895,12.600000403200003,0.35999970196000003,0.9639250308456,1290,-18.9,99,P-GPS,
0.335876388697772,36.9072047612347,23800,2018-04-04 04:41:29,1655.8150431860895,12.700000406400001,0.0,0.9687660310005123,1655.8150431860895,12.700000406400001,0.35999970196000003,0.9687660310005123,1291,-18.9,99,P-GPS,
0.33587644002307,36.907204815435705,23900,2018-04-04 04:41:29,1655.9150431892897,12.800000409600003,0.0,0.9758510312272322,1655.9150431892897,12.800000409600003,0.35999970196000003,0.9758510312272322,1290,-18.9,99,P-GPS,
0.33587649971857003,36.9072048491337,24000,2018-04-04 04:41:29,1656.1150431956896,13.000000416,0.0,0.98324503146384,1656.1150431956896,13.000000416,0.35999970196000003,0.98324503146384,1285,-18.9,99,P-GPS,
0.335876568313517,36.907204886135,24100,2018-04-04 04:41:30,1656.2150431988896,13.100000419199999,0.0,0.9916930317341761,1656.2150431988896,13.100000419199999,0.35999970196000003,0.9916930317341761,1276,-18.9,99,P-GPS,
0.33587664529820693,36.9072049063183,24200,2018-04-04 04:41:30,1656.3150432020898,13.2000004224,0.0,1.0005400320172801,1656.3150432020898,13.2000004224,0.35999970196000003,1.0005400320172801,1274,-18.9,99,P-GPS,
0.335876729229839,36.907204929624,24300,2018-04-04 04:41:30,1656.4150432052897,13.3000004256,0.0,1.01023003232736,1656.4150432052897,13.3000004256,0.35999970196000003,1.01023003232736,1292,-18.9,99,P-GPS,
0.335876821885045,36.9072049235967,24400,2018-04-04 04:41:30,1656.6150432116895,13.500000432000002,0.0,1.0199900326396802,1656.6150432116895,13.500000432000002,0.35999970196000003,1.0199900326396802,1288,-18.9,99,P-GPS,
0.335876904269656,36.907204919993895,24500,2018-04-04 04:41:30,1656.7150432148896,13.600000435200002,0.0,1.02872003291904,1656.7150432148896,13.600000435200002,0.35999970196000003,1.02872003291904,1283,-18.9,99,P-GPS,
0.335876973817242,36.9072049138265,24600,2018-04-04 04:41:30,1656.8150432180896,13.7000004384,0.0,1.03601003315232,1656.8150432180896,13.7000004384,0.35999970196000003,1.03601003315232,1279,-19.0,99,P-GPS,
0.33587703727770396,36.907204924131605,24700,2018-04-04 04:41:30,1657.0150432244895,13.9000004448,0.0,1.04312003337984,1657.0150432244895,13.9000004448,0.35999970196000003,1.04312003337984,1277,-19.1,99,P-GPS,
0.335877093161017,36.907204906144706,24800,2018-04-04 04:41:30,1657.1150432276897,14.000000448,0.0,1.04862003355584,1657.1150432276897,14.000000448,0.35999970196000003,1.04862003355584,1277,-19.3,99,P-GPS,
0.335877149659882,36.907204876649104,24900,2018-04-04 04:41:30,1657.3150432340894,14.200000454400003,0.0,1.05387003372384,1657.3150432340894,14.200000454400003,0.35999970196000003,1.05387003372384,1274,-19.5,99,P-GPS,
0.335877203212891,36.9072048375646,25000,2018-04-04 04:41:31,1657.4150432372896,14.300000457600001,0.0,1.05856003387392,1657.4150432372896,14.300000457600001,0.35999970196000003,1.05856003387392,1269,-20.0,99,P-GPS,
0.33587726599266404,36.9072048257705,25100,2018-04-04 04:41:31,1657.5150432404896,14.400000460800001,0.0,1.06501003408032,1657.5150432404896,14.400000460800001,0.35999970196000003,1.06501003408032,1268,-20.8,99,P-GPS,
0.335877320029321,36.9072047873743,25200,2018-04-04 04:41:31,1657.7150432468895,14.600000467200001,0.0,1.06982003423424,1657.7150432468895,14.600000467200001,0.35999970196000003,1.06982003423424,1269,-20.8,99,P-GPS,
0.3358773760494231,36.907204753245395,25300,2018-04-04 04:41:31,1657.8150432500897,14.7000004704,0.0,1.07498003439936,1657.8150432500897,14.7000004704,0.35999970196000003,1.07498003439936,1270,-21.8,99,P-GPS,
0.3358774426137,36.907204706920204,25400,2018-04-04 04:41:31,1657.9150432532897,14.8000004736,0.0,1.0810000345920001,1657.9150432532897,14.8000004736,0.35999970196000003,1.0810000345920001,1268,-23.3,99,P-GPS,
0.335877526260354,36.907204679606295,25500,2018-04-04 04:41:31,1658.1150432596896,15.00000048,0.0,1.08938003486016,1658.1150432596896,15.00000048,0.35999970196000003,1.08938003486016,1266,-24.8,99,P-GPS,
0.33587760769883807,36.907204605641205,25600,2018-04-04 04:41:31,1658.2150432628898,15.100000483200002,0.0,1.09643003508576,1658.2150432628898,15.100000483200002,0.35999970196000003,1.09643003508576,1267,-26.3,99,P-GPS,
0.33587768303228605,36.907204526655995,25700,2018-04-04 04:41:31,1658.3150432660896,15.200000486399999,0.0,1.10279003528928,1658.3150432660896,15.200000486399999,0.35999970196000003,1.10279003528928,1267,-27.8,99,P-GPS,
0.335877733214416,36.907204432992295,25800,2018-04-04 04:41:31,1658.5150432724895,15.4000004928,0.0,1.10618003539776,1658.5150432724895,15.4000004928,0.35999970196000003,1.10618003539776,1262,-29.2,99,P-GPS,
0.335877769575942,36.9072043696381,25900,2018-04-04 04:41:31,1658.6150432756897,15.500000496,0.0,1.1088100354819201,1658.6150432756897,15.500000496,0.35999970196000003,1.1088100354819201,1262,-30.2,99,P-GPS,
0.335877806836369,36.907204295337294,26000,2018-04-04 04:41:31,1658.7150432788897,15.6000004992,0.0,1.1113600355635203,1658.7150432788897,15.6000004992,0.35999970196000003,1.1113600355635203,1262,-30.3,99,P-GPS,
0.33587784300899604,36.9072042461845,26100,2018-04-04 04:41:32,1658.8150432820896,15.700000502400002,0.0,1.11436003565952,1658.8150432820896,15.700000502400002,0.35999970196000003,1.11436003565952,1261,-30.3,99,P-GPS,
0.335877844850766,36.9072041810338,26200,2018-04-04 04:41:32,1658.9150432852896,15.8000005056,0.0,1.11332003562624,1658.9150432852896,15.8000005056,0.35999970196000003,1.11436003565952,1265,-30.3,99,P-GPS,
0.335877826040609,36.9072041243016,26300,2018-04-04 04:41:32,1659.1150432916895,16.000000512,0.0,1.11022003552704,1659.1150432916895,16.000000512,0.35999970196000003,1.11436003565952,1271,-30.3,99,P-GPS,
0.33587779698591197,36.9072040292408,26400,2018-04-04 04:41:32,1659.2150432948895,16.1000005152,0.0,1.1053500353712,1659.2150432948895,16.1000005152,0.35999970196000003,1.11436003565952,1269,-30.7,99,P-GPS,
0.33587779521905,36.9072039379852,26500,2018-04-04 04:41:32,1659.3150432980894,16.2000005184,0.0,1.1036500353168002,1659.3150432980894,16.2000005184,0.35999970196000003,1.11436003565952,1269,-31.4,99,P-GPS,
0.335877824615721,36.9072038143863,26600,2018-04-04 04:41:32,1659.4150433012896,16.3000005216,0.0,1.1049800353593602,1659.4150433012896,16.3000005216,0.35999970196000003,1.11436003565952,1267,-31.4,99,P-GPS,
0.33587787672592895,36.907203705354206,26700,2018-04-04 04:41:32,1659.5150433044896,16.400000524800003,0.0,1.1092000354944,1659.5150433044896,16.400000524800003,0.35999970196000003,1.11436003565952,1268,-32.2,99,P-GPS,
0.335877912243921,36.907203567524704,26800,2018-04-04 04:41:32,1659.6150433076896,16.500000528,0.0,1.11138003556416,1659.6150433076896,16.500000528,0.35999970196000003,1.11436003565952,1268,-33.1,99,P-GPS,
0.33587792730865595,36.907203442817504,26900,2018-04-04 04:41:32,1659.8150433140897,16.7000005344,0.0,1.1116500355728,1659.8150433140897,16.7000005344,0.35999970196000003,1.11436003565952,1267,-34.1,99,P-GPS,
0.335877936206474,36.9072032921738,27000,2018-04-04 04:41:33,1659.9150433172897,16.8000005376,0.0,1.1111900355580802,1659.9150433172897,16.8000005376,0.35999970196000003,1.11436003565952,1268,-35.1,99,P-GPS,
0.33587795209683097,36.907203167747795,27100,2018-04-04 04:41:33,1660.0150433204894,16.900000540799997,0.0,1.11194003558208,1660.0150433204894,16.900000540799997,0.35999970196000003,1.11436003565952,1268,-36.0,99,P-GPS,
0.33587796872324394,36.9072030211443,27200,2018-04-04 04:41:33,1660.1150433236896,17.000000544000002,0.0,1.11282003561024,1660.1150433236896,17.000000544000002,0.35999970196000003,1.11436003565952,1261,-36.9,99,P-GPS,
0.33587798227515503,36.9072028982965,27300,2018-04-04 04:41:33,1660.2150433268896,17.1000005472,0.0,1.1137000356384001,1660.2150433268896,17.1000005472,0.35999970196000003,1.11436003565952,1260,-37.5,99,P-GPS,
0.335878010764783,36.9072027585565,27400,2018-04-04 04:41:33,1660.4150433332895,17.3000005536,0.0,1.1163600357235202,1660.4150433332895,17.3000005536,0.35999970196000003,1.1163600357235202,1260,-37.5,99,P-GPS,
0.335878047806998,36.9072026509906,27500,2018-04-04 04:41:33,1660.5150433364897,17.400000556800002,0.0,1.12024003584768,1660.5150433364897,17.400000556800002,0.35999970196000003,1.12024003584768,1260,-37.5,99,P-GPS,
0.33587807737139896,36.9072025398577,27600,2018-04-04 04:41:33,1660.6150433396897,17.50000056,0.0,1.12341003594912,1660.6150433396897,17.50000056,0.35999970196000003,1.12341003594912,1260,-37.5,99,P-GPS,
0.335878096790594,36.9072024630868,27700,2018-04-04 04:41:33,1660.7150433428897,17.6000005632,0.0,1.12557003601824,1660.7150433428897,17.6000005632,0.35999970196000003,1.12557003601824,1304,-37.5,99,P-GPS,
0.335878166886966,36.9072022320291,27900,2018-04-04 04:41:33,1661.0150433524896,17.9000005728,0.0,1.13376003628032,1661.0150433524896,17.9000005728,0.35999970196000003,1.13376003628032,1306,-37.5,99,P-GPS,
0.33587819519257894,36.9072021093108,28000,2018-04-04 04:41:33,1661.1150433556895,18.000000575999998,0.0,1.13734003639488,1661.1150433556895,18.000000575999998,0.35999970196000003,1.13734003639488,1305,-37.5,99,P-GPS,
0.33587821426165804,36.907202024682796,28100,2018-04-04 04:41:34,1661.2150433588895,18.100000579200003,0.0,1.13986003647552,1661.2150433588895,18.100000579200003,0.35999970196000003,1.13986003647552,1311,-37.5,99,P-GPS,
0.33587821166429,36.907201907623296,28200,2018-04-04 04:41:34,1661.4150433652896,18.3000005856,0.0,1.140250036488,1661.4150433652896,18.3000005856,0.35999970196000003,1.140250036488,1329,-37.5,99,P-GPS,
0.33587820138718,36.9072018095168,28300,2018-04-04 04:41:34,1661.5150433684896,18.4000005888,0.0,1.1398000364736,1661.5150433684896,18.4000005888,0.35999970196000003,1.140250036488,1335,-37.5,99,P-GPS,
0.33587818086878596,36.9072017083099,28400,2018-04-04 04:41:34,1661.7150433748898,18.6000005952,0.0,1.13834003642688,1661.7150433748898,18.6000005952,0.35999970196000003,1.140250036488,1345,-37.5,99,P-GPS,
0.33587817351473304,36.9072016457715,28500,2018-04-04 04:41:34,1661.9150433812895,18.800000601600004,0.0,1.1380800364185601,1661.9150433812895,18.800000601600004,0.35999970196000003,1.140250036488,1345,-37.5,99,P-GPS,
0.33587819211807696,36.9072015809569,28600,2018-04-04 04:41:34,1662.0150433844897,18.900000604800002,0.0,1.14077003650464,1662.0150433844897,18.900000604800002,0.35999970196000003,1.14077003650464,1381,-37.5,99,P-GPS,
0.33587822790639105,36.9072015527183,28700,2018-04-04 04:41:34,1662.2150433908896,19.1000006112,0.0,1.1450200366406402,1662.2150433908896,19.1000006112,0.35999970196000003,1.1450200366406402,1381,-37.5,99,P-GPS,
0.335878228676645,36.9072015178441,28800,2018-04-04 04:41:34,1662.3150433940896,19.2000006144,0.0,1.14547003665504,1662.3150433940896,19.2000006144,0.35999970196000003,1.14547003665504,1392,-37.5,99,P-GPS,
0.335878204031773,36.9072015015841,28900,2018-04-04 04:41:34,1662.5150434004897,19.4000006208,0.0,1.1429100365731202,1662.5150434004897,19.4000006208,0.35999970196000003,1.14547003665504,1387,-37.5,99,P-GPS,
0.335878159202338,36.907201463983,29000,2018-04-04 04:41:35,1662.7150434068894,19.6000006272,0.0,1.13837003642784,1662.7150434068894,19.6000006272,0.35999970196000003,1.14547003665504,1383,-37.5,99,P-GPS,
0.33587811959858,36.907201432533604,29100,2018-04-04 04:41:35,1662.9150434132896,19.800000633599996,0.0,1.1343500362992,1662.9150434132896,19.800000633599996,0.35999970196000003,1.14547003665504,1416,-37.5,99,P-GPS,
0.33587808293579197,36.907201389770606,29200,2018-04-04 04:41:35,1663.1150434196895,20.00000064,0.0,1.1308100361859201,1663.1150434196895,20.00000064,0.35999970196000003,1.14547003665504,1419,-37.5,99,P-GPS,
0.33587805352120803,36.907201364822505,29300,2018-04-04 04:41:35,1663.3150434260897,20.200000646400003,0.0,1.12786003609152,1663.3150434260897,20.200000646400003,0.35999970196000003,1.14547003665504,1405,-37.5,99,P-GPS,
0.33587803515236,36.9072012875588,29400,2018-04-04 04:41:35,1663.6150434356896,20.500000655999997,0.0,1.1268300360585601,1663.6150434356896,20.500000655999997,0.35999970196000003,1.14547003665504,1392,-37.5,99,P-GPS,
0.335878032001321,36.9072012184206,29500,2018-04-04 04:41:35,1663.8150434420895,20.7000006624,0.0,1.12743003607776,1663.8150434420895,20.7000006624,0.35999970196000003,1.14547003665504,1385,-37.5,99,P-GPS,
0.335878051987214,36.9072011240918,29600,2018-04-04 04:41:35,1664.1150434516896,21.000000672,0.0,1.1310100361923199,1664.1150434516896,21.000000672,0.35999970196000003,1.14547003665504,1434,-37.5,99,P-GPS,
0.3358780755394001,36.9072010704925,29700,2018-04-04 04:41:35,1664.3150434580898,21.2000006784,0.0,1.13442003630144,1664.3150434580898,21.2000006784,0.35999970196000003,1.14547003665504,1511,-37.5,99,P-GPS,
0.33587807061824204,36.9072010149206,29800,2018-04-04 04:41:35,1664.5150434644895,21.400000684800002,0.0,1.13476003631232,1664.5150434644895,21.400000684800002,0.35999970196000003,1.14547003665504,1509,-37.5,99,P-GPS,
