latitude,longitude,time_millisecond,datetime_utc,altitude_m,ascent_m,speed_kph,distance_m,max_altitude_m,max_ascent_m,max_speed_kph,max_distance_m,rc_throttle,gimbal_pitch_degrees,battery_percent,flycState,message
0.358282826570868,36.8932395425643,0,2018-04-16 08:02:47,1768.1076004794488,0.0,0.0,0.0,1768.1076004794488,0.0,0.0,0.0,364,0.0,98,Motors_Started,
0.358282809587826,36.8932395805576,100,2018-04-16 08:02:47,1768.1076004794488,0.0,0.0,0.00462791014809312,1768.1076004794488,0.0,0.0,0.00462791014809312,364,0.0,98,Motors_Started,
0.358282793606276,36.8932396126386,200,2018-04-16 08:02:47,1768.1076004794488,0.0,0.0,0.008611750275576,1768.1076004794488,0.0,0.0,0.008611750275576,364,0.0,98,Motors_Started,
0.358282790299721,36.8932396308645,300,2018-04-16 08:02:47,1768.1076004794488,0.0,0.0,0.010615500339696002,1768.1076004794488,0.0,0.0,0.010615500339696002,364,0.0,98,Motors_Started,
0.358282784176771,36.893239648146,400,2018-04-16 08:02:47,1768.1076004794488,0.0,0.0,0.012652300404873602,1768.1076004794488,0.0,0.0,0.012652300404873602,364,0.0,98,Motors_Started,Setting new Return-To-Home altitude to 30m (98 ft). Setting new Maximum Flight Altitude to 150m (492 ft)
0.358282748988539,36.8932396918007,500,2018-04-16 08:02:48,1768.1076004794488,0.0,0.0,0.0187043005985376,1768.1076004794488,0.0,0.0,0.0187043005985376,364,0.0,98,Motors_Started,
0.358282718944562,36.893239728125,600,2018-04-16 08:02:48,1768.1076004794488,0.0,0.0,0.0238549007633568,1768.1076004794488,0.0,0.0,0.0238549007633568,364,0.0,98,Motors_Started,
0.358282702896246,36.8932397478095,700,2018-04-16 08:02:48,1768.1076004794488,0.0,0.0,0.0266476008527232,1768.1076004794488,0.0,0.0,0.0266476008527232,364,0.0,98,Motors_Started,
0.358282687080798,36.8932397679994,800,2018-04-16 08:02:48,1768.1076004794488,0.0,0.0,0.0294804009433728,1768.1076004794488,0.0,0.0,0.0294804009433728,364,0.0,98,Motors_Started,
0.358282643838282,36.8932398122327,900,2018-04-16 08:02:48,1768.1076004794488,0.0,0.0,0.036224801159193604,1768.1076004794488,0.0,0.0,0.036224801159193604,364,0.0,98,Motors_Started,
0.358282608379728,36.8932398505044,1000,2018-04-16 08:02:48,1768.1076004794488,0.0,0.0,0.0419692013430144,1768.1076004794488,0.0,0.0,0.0419692013430144,364,0.0,98,Motors_Started,
0.358282550531698,36.8932398673674,1100,2018-04-16 08:02:48,1768.1076004794488,0.0,0.0,0.0474018015168576,1768.1076004794488,0.0,0.0,0.0474018015168576,364,0.0,98,Motors_Started,
0.358282498132441,36.893239883223,1200,2018-04-16 08:02:48,1768.1076004794488,0.0,0.0,0.0526224016839168,1768.1076004794488,0.0,0.0,0.0526224016839168,364,0.0,98,Motors_Started,
0.358282473768476,36.8932399254077,1300,2018-04-16 08:02:48,1768.1076004794488,0.0,0.0,0.057894801852633605,1768.1076004794488,0.0,0.0,0.057894801852633605,364,0.0,98,Motors_Started,
0.358282446189963,36.8932399598317,1400,2018-04-16 08:02:49,1768.1076004794488,0.0,0.0,0.06278910200925121,1768.1076004794488,0.0,0.0,0.06278910200925121,364,0.0,98,Motors_Started,
0.358282406407076,36.8932400189447,1500,2018-04-16 08:02:49,1768.1076004794488,0.0,0.0,0.0706371022603872,1768.1076004794488,0.0,0.0,0.0706371022603872,423,0.0,98,Motors_Started,
0.358282365919887,36.8932400651501,1600,2018-04-16 08:02:49,1768.1076004794488,0.0,0.0,0.0774688024790016,1768.1076004794488,0.0,0.0,0.0774688024790016,534,0.0,98,Assisted_Takeoff,
0.35828234941805,36.893240084113,1700,2018-04-16 08:02:49,1768.1076004794488,0.0,0.0,0.0802642025684544,1768.1076004794488,0.0,0.0,0.0802642025684544,761,0.0,98,Assisted_Takeoff,
0.358282332204583,36.8932401090349,1800,2018-04-16 08:02:49,1768.1076004794488,0.0,0.0,0.08361000267552,1768.1076004794488,0.0,0.0,0.08361000267552,935,0.0,98,Assisted_Takeoff,
0.358282294538673,36.893240150466,1900,2018-04-16 08:02:49,1768.1076004794488,0.0,0.0,0.089835502874736,1768.1076004794488,0.0,0.0,0.089835502874736,1024,0.0,98,Assisted_Takeoff,
0.358282261202796,36.8932401894994,2000,2018-04-16 08:02:49,1768.1076004794488,0.0,0.0,0.0955434030573888,1768.1076004794488,0.0,0.0,0.0955434030573888,1024,0.0,98,Assisted_Takeoff,
0.358282251133312,36.8932402422649,2100,2018-04-16 08:02:49,1768.1076004794488,0.0,0.0,0.10074400322380801,1768.1076004794488,0.0,0.0,0.10074400322380801,1024,0.0,98,Assisted_Takeoff,
0.358282236387752,36.8932402895355,2200,2018-04-16 08:02:49,1768.1076004794488,0.0,0.0,0.10586600338771202,1768.1076004794488,0.0,0.0,0.10586600338771202,1024,0.0,98,Assisted_Takeoff,
0.358282200907214,36.8932403069568,2300,2018-04-16 08:02:49,1768.1076004794488,0.0,0.0,0.109848003515136,1768.1076004794488,0.0,0.0,0.109848003515136,1024,0.0,98,Assisted_Takeoff,
0.358282167991476,36.8932403290544,2400,2018-04-16 08:02:49,1768.1076004794488,0.0,0.0,0.1140750036504,1768.1076004794488,0.0,0.0,0.1140750036504,1024,0.0,98,Assisted_Takeoff,
0.358282158318518,36.8932403660559,2500,2018-04-16 08:02:50,1768.1076004794488,0.0,0.0,0.11793500377392001,1768.1076004794488,0.0,0.0,0.11793500377392001,1024,0.0,98,Assisted_Takeoff,
0.358282143121879,36.8932404000361,2600,2018-04-16 08:02:50,1768.1076004794488,0.0,0.0,0.121938003902016,1768.1076004794488,0.0,0.0,0.121938003902016,1024,0.0,98,Assisted_Takeoff,
0.358282148676501,36.8932404483757,2700,2018-04-16 08:02:50,1768.1076004794488,0.0,0.0,0.12581500402608,1768.1076004794488,0.0,0.0,0.12581500402608,1024,0.0,98,Assisted_Takeoff,
0.358282153333037,36.8932404879894,2800,2018-04-16 08:02:50,1768.1076004794488,0.0,0.0,0.129068004130176,1768.1076004794488,0.0,0.0,0.129068004130176,1024,0.0,98,Assisted_Takeoff,
0.358282155724407,36.8932405043527,2900,2018-04-16 08:02:50,1768.1076004794488,0.0,0.0,0.13040200417286402,1768.1076004794488,0.0,0.0,0.13040200417286402,1024,0.0,98,Assisted_Takeoff,
0.358282157193264,36.8932405220175,3000,2018-04-16 08:02:50,1768.1076004794488,0.0,0.0,0.131926004221632,1768.1076004794488,0.0,0.0,0.131926004221632,1024,0.0,98,Assisted_Takeoff,
0.358282130049545,36.8932405569993,3100,2018-04-16 08:02:50,1768.1076004794488,0.0,0.0,0.136841004378912,1768.1076004794488,0.0,0.0,0.136841004378912,1024,0.0,98,Assisted_Takeoff,
0.358282107423944,36.8932405953424,3200,2018-04-16 08:02:50,1768.1076004794488,0.0,0.0,0.141781004536992,1768.1076004794488,0.0,0.0,0.141781004536992,1024,0.0,98,Assisted_Takeoff,
0.358282095478493,36.8932406383181,3300,2018-04-16 08:02:50,1768.1076004794488,0.0,0.0,0.14648500468752002,1768.1076004794488,0.0,0.0,0.14648500468752002,1024,0.0,98,Assisted_Takeoff,
0.358282082421629,36.8932406798658,3400,2018-04-16 08:02:50,1768.1076004794488,0.0,0.0,0.151141004836512,1768.1076004794488,0.0,0.0,0.151141004836512,1024,0.0,98,Assisted_Takeoff,
0.358282083831047,36.8932407354807,3500,2018-04-16 08:02:51,1768.1076004794488,0.0,0.0,0.15627000500064003,1768.1076004794488,0.0,0.0,0.15627000500064003,1024,0.0,98,Assisted_Takeoff,
0.358282080417014,36.8932407835695,3600,2018-04-16 08:02:51,1768.1076004794488,0.0,0.0,0.161029005152928,1768.1076004794488,0.0,0.0,0.161029005152928,1024,0.0,98,Assisted_Takeoff,
0.358282087023612,36.8932408409307,3700,2018-04-16 08:02:51,1768.1076004794488,0.0,0.0,0.166164005317248,1768.1076004794488,0.0,0.0,0.166164005317248,1024,0.0,98,Assisted_Takeoff,
0.358282088158637,36.8932408919597,3800,2018-04-16 08:02:51,1768.1076004794488,0.0,0.0,0.171057005473824,1768.1076004794488,0.0,0.0,0.171057005473824,1032,0.0,98,Assisted_Takeoff,
0.35828209650767,36.8932409515028,3900,2018-04-16 08:02:51,1768.1076004794488,0.0,0.0,0.17646500564688003,1768.1076004794488,0.0,0.0,0.17646500564688003,1076,0.0,98,Assisted_Takeoff,
0.358282099127022,36.8932410041623,4000,2018-04-16 08:02:51,1768.1076004794488,0.0,0.0,0.181554005809728,1768.1076004794488,0.0,0.0,0.181554005809728,1139,0.0,98,Assisted_Takeoff,
0.358282107564804,36.89324106478,4100,2018-04-16 08:02:51,1768.1076004794488,0.0,0.0,0.18721000599072002,1768.1076004794488,0.0,0.0,0.18721000599072002,1188,0.0,98,Assisted_Takeoff,
0.358282111433173,36.8932411187103,4200,2018-04-16 08:02:51,1768.1076004794488,0.0,0.0,0.192472006159104,1768.1076004794488,0.0,0.0,0.192472006159104,1215,0.0,98,Assisted_Takeoff,
0.358282118456652,36.8932411753984,4300,2018-04-16 08:02:51,1768.1076004794488,0.0,0.0,0.19791800633337603,1768.1076004794488,0.0,0.0,0.19791800633337603,1246,0.0,98,Assisted_Takeoff,
0.358282130264499,36.8932412426614,4500,2018-04-16 08:02:52,1768.1076004794488,0.0,0.0,0.2043000065376,1768.1076004794488,0.0,0.0,0.2043000065376,1250,0.0,98,Assisted_Takeoff,
0.358282134703638,36.8932412641317,4600,2018-04-16 08:02:52,1768.1076004794488,0.0,0.0,0.206327006602464,1768.1076004794488,0.0,0.0,0.206327006602464,1269,0.0,98,Assisted_Takeoff,
0.358282145446483,36.8932413079921,4700,2018-04-16 08:02:52,1768.1076004794488,0.0,0.0,0.210428006733696,1768.1076004794488,0.0,0.0,0.210428006733696,1282,0.0,98,Assisted_Takeoff,
0.358282162177116,36.8932413905256,4800,2018-04-16 08:02:52,1768.1076004794488,0.0,0.0,0.21837900698812798,1768.1076004794488,0.0,0.0,0.21837900698812798,1303,0.0,98,Assisted_Takeoff,
0.358282164213486,36.8932415397681,4900,2018-04-16 08:02:52,1768.1076004794488,0.0,0.35999970196000003,0.23399300748777602,1768.1076004794488,0.0,0.35999970196000003,0.23399300748777602,1325,0.0,98,P-GPS,Obstacle Avoided. Revise Flight Route
0.358282143171547,36.8932417428433,5000,2018-04-16 08:02:52,1768.1076004794488,0.0,0.35999970196000003,0.25621100819875203,1768.1076004794488,0.0,0.35999970196000003,0.25621100819875203,1334,0.0,98,P-GPS,
0.358282115658171,36.8932419737963,5100,2018-04-16 08:02:52,1768.2076004826488,0.1000000032,0.35999970196000003,0.281684009013888,1768.2076004826488,0.1000000032,0.35999970196000003,0.281684009013888,1351,0.0,98,P-GPS,
0.358282091426924,36.8932421880522,5200,2018-04-16 08:02:52,1768.2076004826488,0.1000000032,0.35999970196000003,0.305337009770784,1768.2076004826488,0.1000000032,0.35999970196000003,0.305337009770784,1366,0.0,98,P-GPS,
0.358282122930802,36.8932424100108,5300,2018-04-16 08:02:52,1768.407600489049,0.3000000096,0.35999970196000003,0.32833201050662403,1768.407600489049,0.3000000096,0.35999970196000003,0.32833201050662403,1366,0.0,98,P-GPS,
0.358282144955507,36.8932426175934,5400,2018-04-16 08:02:53,1768.507600492249,0.4000000128,0.35999970196000003,0.35025601120819205,1768.507600492249,0.4000000128,0.35999970196000003,0.35025601120819205,1369,0.0,98,P-GPS,
0.358282183093665,36.8932428729227,5500,2018-04-16 08:02:53,1768.6076004954489,0.500000016,0.35999970196000003,0.377199012070368,1768.6076004954489,0.500000016,0.35999970196000003,0.377199012070368,1369,0.0,98,P-GPS,Home Point Recorded. RTH Altitude:  30m.
0.358282206899074,36.8932430808297,5600,2018-04-16 08:02:53,1768.8076005018488,0.7000000224,0.35999970196000003,0.399458012782656,1768.8076005018488,0.7000000224,0.35999970196000003,0.399458012782656,1372,0.0,98,P-GPS,
0.358282215031523,36.893243316832,5700,2018-04-16 08:02:53,1768.9076005050488,0.8000000256,0.35999970196000003,0.425187013605984,1768.9076005050488,0.8000000256,0.35999970196000003,0.425187013605984,1374,0.0,98,P-GPS,
0.35828221432315,36.8932435487859,5800,2018-04-16 08:02:53,1769.1076005114487,1.000000032,0.35999970196000003,0.45068001442176,1769.1076005114487,1.000000032,0.35999970196000003,0.45068001442176,1373,0.0,98,P-GPS,
0.358282185642994,36.8932437471432,5900,2018-04-16 08:02:53,1769.3076005178489,1.2000000384,0.503999582744,0.47296701513494405,1769.3076005178489,1.2000000384,0.503999582744,0.47296701513494405,1377,0.0,98,P-GPS,
0.358282106572268,36.8932439363522,6000,2018-04-16 08:02:53,1769.5076005242486,1.4000000448,0.503999582744,0.49512301584393603,1769.5076005242486,1.4000000448,0.503999582744,0.49512301584393603,1380,0.0,98,P-GPS,
0.358281981611989,36.8932441852028,6100,2018-04-16 08:02:53,1769.7076005306487,1.6000000512,0.503999582744,0.524761016792352,1769.7076005306487,1.6000000512,0.503999582744,0.524761016792352,1382,0.0,98,P-GPS,
0.358281858365648,36.8932444161954,6200,2018-04-16 08:02:53,1769.907600537049,1.8000000576000001,0.503999582744,0.5525590176818881,1769.907600537049,1.8000000576000001,0.503999582744,0.5525590176818881,1382,0.0,98,P-GPS,
0.358281744266277,36.8932446087661,6300,2018-04-16 08:02:53,1770.1076005434488,2.000000064,0.35999970196000003,0.5760950184350401,1770.1076005434488,2.000000064,0.503999582744,0.5760950184350401,1383,0.0,98,P-GPS,
0.358281671637674,36.8932448096493,6400,2018-04-16 08:02:53,1770.407600553049,2.3000000736,0.35999970196000003,0.5996370191883841,1770.407600553049,2.3000000736,0.503999582744,0.5996370191883841,1386,0.0,98,P-GPS,
0.358281614501274,36.893245078616,6500,2018-04-16 08:02:54,1770.6076005594487,2.50000008,0.35999970196000003,0.630214020166848,1770.6076005594487,2.50000008,0.503999582744,0.630214020166848,1387,0.0,98,P-GPS,
0.358281572050996,36.8932453508941,6600,2018-04-16 08:02:54,1770.8076005658488,2.7000000864,0.7199994039200001,0.6608040211457281,1770.8076005658488,2.7000000864,0.7199994039200001,0.6608040211457281,1386,0.0,98,P-GPS,
0.358281511504634,36.8932456732699,6700,2018-04-16 08:02:54,1771.0076005722487,2.9000000928,0.7199994039200001,0.697267022312544,1771.0076005722487,2.9000000928,0.7199994039200001,0.697267022312544,1389,0.0,98,P-GPS,
0.358281461055439,36.8932459812517,6800,2018-04-16 08:02:54,1771.207600578649,3.1000000992000003,0.7199994039200001,0.7319330234218561,1771.207600578649,3.1000000992000003,0.7199994039200001,0.7319330234218561,1391,0.0,98,P-GPS,
0.358281399524682,36.8932462773216,6900,2018-04-16 08:02:54,1771.4076005850486,3.3000001056,0.7199994039200001,0.76556002449792,1771.4076005850486,3.3000001056,0.7199994039200001,0.76556002449792,1391,0.0,98,P-GPS,
0.358281348209155,36.8932465516809,7000,2018-04-16 08:02:54,1771.6076005914488,3.500000112,0.7199994039200001,0.7965910254909121,1771.6076005914488,3.500000112,0.7199994039200001,0.7965910254909121,1391,0.0,98,P-GPS,
0.358281295003819,36.8932467802979,7100,2018-04-16 08:02:54,1771.8076005978487,3.7000001184,0.35999970196000003,0.8226880263260161,1771.8076005978487,3.7000001184,0.7199994039200001,0.8226880263260161,1391,0.0,98,P-GPS,
0.358281244760622,36.8932469752651,7200,2018-04-16 08:02:54,1772.0076006042489,3.9000001248,0.35999970196000003,0.8450570270418241,1772.0076006042489,3.9000001248,0.7199994039200001,0.8450570270418241,1391,0.0,98,P-GPS,
0.358281138191176,36.8932471393861,7300,2018-04-16 08:02:54,1772.207600610649,4.100000131200001,0.35999970196000003,0.86541002769312,1772.207600610649,4.100000131200001,0.7199994039200001,0.86541002769312,1391,0.0,98,P-GPS,
0.358281045137,36.8932472691214,7400,2018-04-16 08:02:55,1772.5076006202487,4.4000001408000005,0.0,0.8817660282165121,1772.5076006202487,4.4000001408000005,0.7199994039200001,0.8817660282165121,1392,0.0,98,P-GPS,
0.358280952906003,36.8932473316986,7500,2018-04-16 08:02:55,1772.7076006266489,4.6000001472,0.0,0.890891028508512,1772.7076006266489,4.6000001472,0.7199994039200001,0.890891028508512,1394,0.0,98,P-GPS,
0.358280879513661,36.8932473826566,7600,2018-04-16 08:02:55,1772.9076006330488,4.8000001536,0.0,0.898334028746688,1772.9076006330488,4.8000001536,0.7199994039200001,0.898334028746688,1394,0.0,98,P-GPS,
0.358280825851546,36.8932473888109,7700,2018-04-16 08:02:55,1773.107600639449,5.00000016,0.0,0.9004540288145281,1773.107600639449,5.00000016,0.7199994039200001,0.9004540288145281,1394,0.0,98,P-GPS,
0.358280777910969,36.8932473906593,7800,2018-04-16 08:02:55,1773.3076006458487,5.200000166400001,0.0,0.9019850288635199,1773.3076006458487,5.200000166400001,0.7199994039200001,0.9019850288635199,1394,0.0,98,P-GPS,
0.358280737459606,36.8932474052486,7900,2018-04-16 08:02:55,1773.6076006554488,5.5000001759999995,0.0,0.9047000289504,1773.6076006554488,5.5000001759999995,0.7199994039200001,0.9047000289504,1394,0.0,98,P-GPS,
0.358280692962374,36.893247411472,8000,2018-04-16 08:02:55,1773.807600661849,5.7000001824,0.0,0.9066510290128321,1773.807600661849,5.7000001824,0.7199994039200001,0.9066510290128321,1395,0.0,98,P-GPS,
0.358280638436369,36.8932474295239,8100,2018-04-16 08:02:55,1774.0076006682486,5.9000001888,0.0,0.910191029126112,1774.0076006682486,5.9000001888,0.7199994039200001,0.910191029126112,1400,0.0,98,P-GPS,
0.35828058683505,36.8932474392366,8200,2018-04-16 08:02:55,1774.2076006746488,6.100000195200001,0.0,0.912781029208992,1774.2076006746488,6.100000195200001,0.7199994039200001,0.912781029208992,1400,0.0,98,P-GPS,
0.358280540162216,36.8932474702587,8300,2018-04-16 08:02:55,1774.507600684249,6.4000002048,0.0,0.9175250293608,1774.507600684249,6.4000002048,0.7199994039200001,0.9175250293608,1402,0.0,98,P-GPS,
0.358280494284878,36.8932474876581,8400,2018-04-16 08:02:55,1774.7076006906489,6.6000002112,0.0,0.920808029465856,1774.7076006906489,6.6000002112,0.7199994039200001,0.920808029465856,1402,0.0,98,P-GPS,
0.358280449825914,36.8932475016379,8500,2018-04-16 08:02:56,1774.907600697049,6.800000217600001,0.0,0.923702029558464,1774.907600697049,6.800000217600001,0.7199994039200001,0.923702029558464,1401,0.0,98,P-GPS,
0.358280411246447,36.8932475109524,8600,2018-04-16 08:02:56,1775.1076007034487,7.000000224,0.0,0.9259300296297601,1775.1076007034487,7.000000224,0.7199994039200001,0.9259300296297601,1402,0.0,98,P-GPS,
0.358280371920339,36.8932475117701,8700,2018-04-16 08:02:56,1775.4076007130489,7.3000002336000005,0.0,0.9272950296734401,1775.4076007130489,7.3000002336000005,0.7199994039200001,0.9272950296734401,1401,0.0,98,P-GPS,
0.358280340178709,36.8932474974284,8800,2018-04-16 08:02:56,1775.6076007194488,7.50000024,0.0,0.9268180296581761,1775.6076007194488,7.50000024,0.7199994039200001,0.9272950296734401,1400,0.0,98,P-GPS,
0.35828034363101,36.8932474676165,8900,2018-04-16 08:02:56,1775.8076007258487,7.7000002464,0.0,0.92354002955328,1775.8076007258487,7.7000002464,0.7199994039200001,0.9272950296734401,1375,0.0,98,P-GPS,
0.358280339261895,36.8932474258659,9000,2018-04-16 08:02:56,1776.0076007322486,7.9000002528,0.0,0.919256029416192,1776.0076007322486,7.9000002528,0.7199994039200001,0.9272950296734401,1361,0.0,98,P-GPS,
0.358280359220919,36.893247408777,9100,2018-04-16 08:02:56,1776.3076007418488,8.200000262400001,0.0,0.916777029336864,1776.3076007418488,8.200000262400001,0.7199994039200001,0.9272950296734401,1352,0.0,98,P-GPS,
0.35828035107707,36.8932473916584,9200,2018-04-16 08:02:56,1776.507600748249,8.400000268800001,0.0,0.915233029287456,1776.507600748249,8.400000268800001,0.7199994039200001,0.9272950296734401,1339,0.0,98,P-GPS,
0.358280290586889,36.8932473910715,9300,2018-04-16 08:02:56,1776.7076007546486,8.6000002752,0.0,0.9172170293509441,1776.7076007546486,8.6000002752,0.7199994039200001,0.9272950296734401,1342,0.0,98,P-GPS,
0.358280222211783,36.8932473846902,9400,2018-04-16 08:02:57,1776.9076007610488,8.800000281600001,0.0,0.91891002940512,1776.9076007610488,8.800000281600001,0.7199994039200001,0.9272950296734401,1341,0.0,98,P-GPS,
0.358280184437582,36.8932473653448,9500,2018-04-16 08:02:57,1777.1076007674487,9.000000288,0.0,0.918204029382528,1777.1076007674487,9.000000288,0.7199994039200001,0.9272950296734401,1341,0.0,98,P-GPS,
0.358280163401342,36.8932473505133,9600,2018-04-16 08:02:57,1777.207600770649,9.1000002912,0.0,0.9173940293566081,1777.207600770649,9.1000002912,0.7199994039200001,0.9272950296734401,1341,0.0,98,P-GPS,
0.358280170184626,36.8932473644527,9700,2018-04-16 08:02:57,1777.4076007770489,9.3000002976,0.0,0.9186180293957761,1777.4076007770489,9.3000002976,0.7199994039200001,0.9272950296734401,1341,0.0,98,P-GPS,
0.358280181217334,36.8932473742342,9800,2018-04-16 08:02:57,1777.607600783449,9.500000304,0.0,0.9192550294161601,1777.607600783449,9.500000304,0.7199994039200001,0.9272950296734401,1344,0.0,98,P-GPS,
0.358280212263619,36.893247433431,9900,2018-04-16 08:02:57,1777.8076007898487,9.7000003104,0.0,0.924403029580896,1777.8076007898487,9.7000003104,0.7199994039200001,0.9272950296734401,1345,0.0,98,P-GPS,
0.358280224735871,36.8932474730998,10000,2018-04-16 08:02:57,1777.9076007930487,9.8000003136,0.0,0.9281580297010561,1777.9076007930487,9.8000003136,0.7199994039200001,0.9281580297010561,1347,0.0,98,P-GPS,
0.358280205709946,36.8932474580807,10100,2018-04-16 08:02:57,1778.1076007994488,10.00000032,0.0,0.927234029671488,1778.1076007994488,10.00000032,0.7199994039200001,0.9281580297010561,1350,0.0,98,P-GPS,
0.35828015764805,36.8932474413277,10200,2018-04-16 08:02:57,1778.3076008058488,10.2000003264,0.0,0.927163029669216,1778.3076008058488,10.2000003264,0.7199994039200001,0.9281580297010561,1349,0.0,98,P-GPS,
0.358280086661733,36.8932474614443,10300,2018-04-16 08:02:57,1778.5076008122487,10.400000332800001,0.0,0.931834029818688,1778.5076008122487,10.400000332800001,0.7199994039200001,0.931834029818688,1350,0.0,98,P-GPS,
0.358280022660627,36.893247465596,10400,2018-04-16 08:02:57,1778.6076008154487,10.500000336,0.0,0.93462002990784,1778.6076008154487,10.500000336,0.7199994039200001,0.93462002990784,1349,0.0,98,P-GPS,
0.35827994616447,36.8932474254973,10500,2018-04-16 08:02:58,1778.8076008218488,10.700000342400001,0.0,0.933303029865696,1778.8076008218488,10.700000342400001,0.7199994039200001,0.93462002990784,1351,0.0,98,P-GPS,
0.358279892919237,36.8932473655452,10600,2018-04-16 08:02:58,1779.0076008282488,10.9000003488,0.0,0.9291060297313921,1779.0076008282488,10.9000003488,0.7199994039200001,0.93462002990784,1352,0.0,98,P-GPS,
0.358279870795197,36.8932472890184,10700,2018-04-16 08:02:58,1779.207600834649,11.1000003552,0.0,0.922017029504544,1779.207600834649,11.1000003552,0.7199994039200001,0.93462002990784,1352,0.0,98,P-GPS,
0.358279846226048,36.893247192361,10800,2018-04-16 08:02:58,1779.4076008410486,11.3000003616,0.0,0.912971029215072,1779.4076008410486,11.3000003616,0.7199994039200001,0.93462002990784,1354,0.0,98,P-GPS,
0.358279801320891,36.8932470798712,10900,2018-04-16 08:02:58,1779.6076008474488,11.500000368000002,0.0,0.9031750289016,1779.6076008474488,11.500000368000002,0.7199994039200001,0.93462002990784,1355,0.0,98,P-GPS,
0.358279747449521,36.8932469593545,11000,2018-04-16 08:02:58,1779.8076008538487,11.7000003744,0.0,0.893031028576992,1779.8076008538487,11.7000003744,0.7199994039200001,0.93462002990784,1354,0.0,98,P-GPS,
0.358279677255442,36.893246824323,11100,2018-04-16 08:02:58,1780.0076008602489,11.9000003808,0.0,0.882252028232064,1780.0076008602489,11.9000003808,0.7199994039200001,0.93462002990784,1356,0.0,98,P-GPS,
0.358279625281209,36.8932466965803,11200,2018-04-16 08:02:58,1780.1076008634489,12.000000384000002,0.0,0.871576027890432,1780.1076008634489,12.000000384000002,0.7199994039200001,0.93462002990784,1355,0.0,98,P-GPS,
0.358279621688048,36.8932465953088,11300,2018-04-16 08:02:59,1780.3076008698488,12.200000390400001,0.0,0.861474027567168,1780.3076008698488,12.200000390400001,0.7199994039200001,0.93462002990784,1355,0.0,98,P-GPS,
0.358279641242403,36.893246412187,11500,2018-04-16 08:02:59,1780.7076008826489,12.6000004032,0.0,0.8420600269459201,1780.7076008826489,12.6000004032,0.7199994039200001,0.93462002990784,1361,0.0,98,P-GPS,
0.35827965822056,36.8932463293699,11600,2018-04-16 08:02:59,1780.9076008890488,12.8000004096,0.0,0.832913026653216,1780.9076008890488,12.8000004096,0.7199994039200001,0.93462002990784,1425,0.0,98,P-GPS,
0.358279695486687,36.8932462588012,11700,2018-04-16 08:02:59,1781.107600895449,13.000000416,0.0,0.8240500263696,1781.107600895449,13.000000416,0.7199994039200001,0.93462002990784,1426,0.0,98,P-GPS,
0.358279724976179,36.8932461825335,11800,2018-04-16 08:02:59,1781.2076008986487,13.100000419200002,0.35999970196000003,0.814977026079264,1781.2076008986487,13.100000419200002,0.7199994039200001,0.93462002990784,1426,0.0,98,P-GPS,
0.358279765977142,36.8932461393168,11900,2018-04-16 08:02:59,1781.5076009082488,13.4000004288,0.0,0.808696025878272,1781.5076009082488,13.4000004288,0.7199994039200001,0.93462002990784,1426,0.0,98,P-GPS,
0.358279804181252,36.8932461184335,12000,2018-04-16 08:02:59,1781.7076009146488,13.600000435200002,0.0,0.804806025753792,1781.7076009146488,13.600000435200002,0.7199994039200001,0.93462002990784,1427,0.0,98,P-GPS,
0.358279879921811,36.8932460812853,12100,2018-04-16 08:02:59,1782.0076009242487,13.9000004448,0.0,0.7975570255218241,1782.0076009242487,13.9000004448,0.7199994039200001,0.93462002990784,1427,0.0,98,P-GPS,
0.35827995693907,36.89324603276,12200,2018-04-16 08:02:59,1782.2076009306488,14.100000451200001,0.0,0.7891390252524481,1782.2076009306488,14.100000451200001,0.7199994039200001,0.93462002990784,1426,0.0,98,P-GPS,
0.358280043410261,36.8932460286843,12300,2018-04-16 08:02:59,1782.5076009402487,14.400000460800001,0.0,0.7848830251162561,1782.5076009402487,14.400000460800001,0.7199994039200001,0.93462002990784,1425,0.0,98,P-GPS,
0.358280073868677,36.8932459982506,12400,2018-04-16 08:02:59,1782.8076009498488,14.7000004704,0.0,0.780439024974048,1782.8076009498488,14.7000004704,0.7199994039200001,0.93462002990784,1423,0.0,98,P-GPS,
0.358280064838141,36.8932459421971,12500,2018-04-16 08:03:00,1783.0076009562488,14.9000004768,0.0,0.7751060248033921,1783.0076009562488,14.9000004768,0.7199994039200001,0.93462002990784,1424,0.0,98,P-GPS,
0.358280055393166,36.8932458742861,12600,2018-04-16 08:03:00,1783.307600965849,15.200000486400002,0.0,0.768599024595168,1783.307600965849,15.200000486400002,0.7199994039200001,0.93462002990784,1424,0.0,98,P-GPS,
0.358280038861202,36.8932458542319,12700,2018-04-16 08:03:00,1783.5076009722488,15.4000004928,0.0,0.767297024553504,1783.5076009722488,15.4000004928,0.7199994039200001,0.93462002990784,1424,0.0,98,P-GPS,
0.35828003350525,36.8932458356407,12800,2018-04-16 08:03:00,1783.807600981849,15.700000502400002,0.0,0.765648024500736,1783.807600981849,15.700000502400002,0.7199994039200001,0.93462002990784,1424,0.0,98,P-GPS,
0.35828003357283,36.8932458040095,12900,2018-04-16 08:03:00,1784.1076009914489,16.000000512,0.0,0.762431024397792,1784.1076009914489,16.000000512,0.7199994039200001,0.93462002990784,1424,0.0,98,P-GPS,
0.358280024009793,36.8932457771169,13000,2018-04-16 08:03:00,1784.4076010010488,16.3000005216,0.0,0.760136024324352,1784.4076010010488,16.3000005216,0.7199994039200001,0.93462002990784,1422,0.0,98,P-GPS,
0.358280018214161,36.8932458337315,13100,2018-04-16 08:03:00,1784.7076010106487,16.600000531200003,0.0,0.7661450245166401,1784.7076010106487,16.600000531200003,0.7199994039200001,0.93462002990784,1421,0.0,98,P-GPS,
0.358280008791984,36.8932458822152,13200,2018-04-16 08:03:00,1784.9076010170488,16.800000537600003,0.0,0.7714970246879039,1784.9076010170488,16.800000537600003,0.7199994039200001,0.93462002990784,1424,0.0,98,P-GPS,
0.358280025690347,36.8932459512667,13300,2018-04-16 08:03:00,1785.2076010266487,17.1000005472,0.0,0.7777660248885121,1785.2076010266487,17.1000005472,0.7199994039200001,0.93462002990784,1424,0.0,98,P-GPS,
0.358280064982258,36.8932460033345,13400,2018-04-16 08:03:01,1785.5076010362488,17.400000556800002,0.0,0.781347025003104,1785.5076010362488,17.400000556800002,0.7199994039200001,0.93462002990784,1425,0.0,98,P-GPS,
0.358280124681829,36.8932460767547,13500,2018-04-16 08:03:01,1785.8076010458487,17.7000005664,0.0,0.7863000251616,1785.8076010458487,17.7000005664,0.7199994039200001,0.93462002990784,1438,0.0,98,P-GPS,
0.358280175806829,36.8932461255845,13600,2018-04-16 08:03:01,1786.007601052249,17.9000005728,0.0,0.7891800252537601,1786.007601052249,17.9000005728,0.7199994039200001,0.93462002990784,1448,0.0,98,P-GPS,
0.358280271181537,36.8932462264482,13700,2018-04-16 08:03:01,1786.3076010618488,18.2000005824,0.0,0.7957460254638721,1786.3076010618488,18.2000005824,0.7199994039200001,0.93462002990784,1451,0.0,98,P-GPS,
0.358280349006504,36.8932462990984,13800,2018-04-16 08:03:01,1786.6076010714487,18.500000592000003,0.0,0.800277025608864,1786.6076010714487,18.500000592000003,0.7199994039200001,0.93462002990784,1451,0.0,98,P-GPS,
0.358280431666321,36.893246377044,13900,2018-04-16 08:03:01,1786.8076010778489,18.700000598400003,0.0,0.805334025770688,1786.8076010778489,18.700000598400003,0.7199994039200001,0.93462002990784,1455,0.0,98,P-GPS,
0.358280521672049,36.8932464457644,14000,2018-04-16 08:03:01,1787.1076010874488,19.000000608,0.0,0.809324025898368,1787.1076010874488,19.000000608,0.7199994039200001,0.93462002990784,1469,0.0,98,P-GPS,
0.358280616453189,36.893246522247,14100,2018-04-16 08:03:01,1787.4076010970487,19.300000617600002,0.0,0.8141520260528641,1787.4076010970487,19.300000617600002,0.7199994039200001,0.93462002990784,1477,0.0,98,P-GPS,
0.358280696472485,36.8932465668312,14200,2018-04-16 08:03:01,1787.7076011066488,19.6000006272,0.0,0.8162540261201281,1787.7076011066488,19.6000006272,0.7199994039200001,0.93462002990784,1475,0.0,98,P-GPS,
0.358280796620976,36.8932466580692,14300,2018-04-16 08:03:01,1788.007601116249,19.900000636799998,0.0,0.8228430263309761,1788.007601116249,19.900000636799998,0.7199994039200001,0.93462002990784,1476,0.0,98,P-GPS,
0.35828088135136,36.8932467342106,14400,2018-04-16 08:03:01,1788.307601125849,20.200000646400003,0.0,0.828479026511328,1788.307601125849,20.200000646400003,0.7199994039200001,0.93462002990784,1481,0.0,98,P-GPS,
0.358280917276463,36.8932468513984,14500,2018-04-16 08:03:02,1788.6076011354487,20.500000656,0.0,0.840047026881504,1788.6076011354487,20.500000656,0.7199994039200001,0.93462002990784,1482,0.0,98,P-GPS,
0.358280917607851,36.8932469207327,14600,2018-04-16 08:03:02,1788.9076011450488,20.800000665600002,0.0,0.84750002712,1788.9076011450488,20.800000665600002,0.7199994039200001,0.93462002990784,1489,0.0,98,P-GPS,
0.358280860981968,36.8932469713882,14700,2018-04-16 08:03:02,1789.2076011546487,21.1000006752,0.0,0.854543027345376,1789.2076011546487,21.1000006752,0.7199994039200001,0.93462002990784,1502,0.0,98,P-GPS,
0.358280826511066,36.8932469849189,14800,2018-04-16 08:03:02,1789.5076011642489,21.400000684800002,0.0,0.85698502742352,1789.5076011642489,21.400000684800002,0.7199994039200001,0.93462002990784,1511,0.0,98,P-GPS,
0.358280845436028,36.8932469968579,14900,2018-04-16 08:03:02,1789.807601173849,21.7000006944,0.0,0.857724027447168,1789.807601173849,21.7000006944,0.7199994039200001,0.93462002990784,1513,0.0,98,P-GPS,
0.358280879660221,36.8932469866543,15000,2018-04-16 08:03:02,1790.1076011834487,22.000000703999998,0.0,0.8556570273810241,1790.1076011834487,22.000000703999998,0.7199994039200001,0.93462002990784,1549,0.0,98,P-GPS,
0.358280920159623,36.893247007526,15100,2018-04-16 08:03:02,1790.4076011930488,22.300000713600003,0.0,0.856777027416864,1790.4076011930488,22.300000713600003,0.7199994039200001,0.93462002990784,1590,0.0,98,P-GPS,
0.358280957668388,36.8932469950884,15200,2018-04-16 08:03:02,1790.8076012058489,22.7000007264,0.0,0.854413027341216,1790.8076012058489,22.7000007264,0.7199994039200001,0.93462002990784,1595,0.0,98,P-GPS,
0.358280968650614,36.8932469874443,15300,2018-04-16 08:03:02,1791.2076012186487,23.1000007392,0.0,0.8532920273053441,1791.2076012186487,23.1000007392,0.7199994039200001,0.93462002990784,1596,0.0,98,P-GPS,
0.358280971186916,36.8932469771156,15400,2018-04-16 08:03:02,1791.6076012314488,23.500000752000002,0.0,0.852109027267488,1791.6076012314488,23.500000752000002,0.7199994039200001,0.93462002990784,1595,0.0,97,P-GPS,
0.358280947922151,36.8932470090171,15500,2018-04-16 08:03:03,1792.0076012442487,23.9000007648,0.0,0.856179027397728,1792.0076012442487,23.9000007648,0.7199994039200001,0.93462002990784,1600,0.0,97,P-GPS,
0.358280945161938,36.8932470100782,15600,2018-04-16 08:03:03,1792.4076012570488,24.3000007776,0.0,0.856368027403776,1792.4076012570488,24.3000007776,0.7199994039200001,0.93462002990784,1602,0.0,97,P-GPS,
0.358280941867596,36.8932470184199,15700,2018-04-16 08:03:03,1792.9076012730488,24.800000793600002,0.0,0.857357027435424,1792.9076012730488,24.800000793600002,0.7199994039200001,0.93462002990784,1611,0.0,97,P-GPS,
0.358280948004387,36.8932469869453,15800,2018-04-16 08:03:03,1793.307601285849,25.2000008064,0.0,0.8537970273215041,1793.307601285849,25.2000008064,0.7199994039200001,0.93462002990784,1611,0.0,97,P-GPS,
0.358280949815217,36.8932469608389,15900,2018-04-16 08:03:03,1793.8076013018488,25.7000008224,0.0,0.8509330272298561,1793.8076013018488,25.7000008224,0.7199994039200001,0.93462002990784,1621,0.0,97,P-GPS,
0.358280978008468,36.8932469143554,16000,2018-04-16 08:03:03,1794.2076013146489,26.100000835200003,0.0,0.845154027044928,1794.2076013146489,26.100000835200003,0.7199994039200001,0.93462002990784,1622,0.0,97,P-GPS,
0.358281043107145,36.8932469358209,16100,2018-04-16 08:03:03,1794.7076013306487,26.6000008512,0.0,0.845743027063776,1794.7076013306487,26.6000008512,0.7199994039200001,0.93462002990784,1684,0.0,97,P-GPS,
0.358281101932242,36.8932469320904,16200,2018-04-16 08:03:03,1795.1076013434488,27.000000864,0.0,0.843829027002528,1795.1076013434488,27.000000864,0.7199994039200001,0.93462002990784,1684,0.0,97,P-GPS,
0.35828112928603,36.8932469661802,16300,2018-04-16 08:03:03,1795.6076013594488,27.50000088,0.0,0.8468380270988161,1795.6076013594488,27.50000088,0.7199994039200001,0.93462002990784,1684,0.0,97,P-GPS,
0.358281166330688,36.8932469712242,16400,2018-04-16 08:03:03,1796.107601375449,28.000000896,0.0,0.846477027087264,1796.107601375449,28.000000896,0.7199994039200001,0.93462002990784,1684,0.0,97,P-GPS,
0.358281199138135,36.8932470031322,16500,2018-04-16 08:03:04,1796.6076013914487,28.500000912,0.0,0.8491550271729601,1796.6076013914487,28.500000912,0.7199994039200001,0.93462002990784,1682,0.0,97,P-GPS,
0.358281248063106,36.8932469950824,16600,2018-04-16 08:03:04,1797.107601407449,29.000000928000002,0.0,0.8471360271083521,1797.107601407449,29.000000928000002,0.7199994039200001,0.93462002990784,1684,0.0,97,P-GPS,
0.358281320664839,36.8932470131243,16700,2018-04-16 08:03:04,1797.6076014234488,29.500000944,0.0,0.8474670271189441,1797.6076014234488,29.500000944,0.7199994039200001,0.93462002990784,1684,0.0,97,P-GPS,
0.358281404475966,36.8932469837138,16800,2018-04-16 08:03:04,1798.1076014394487,30.00000096,0.35999970196000003,0.8424620269587841,1798.1076014394487,30.00000096,0.7199994039200001,0.93462002990784,1684,0.0,97,P-GPS,
0.358281484294963,36.8932469654286,16900,2018-04-16 08:03:04,1798.6076014554487,30.500000976,0.35999970196000003,0.8388390268428481,1798.6076014554487,30.500000976,0.7199994039200001,0.93462002990784,1684,0.0,97,P-GPS,
0.358281573315483,36.8932469249196,17000,2018-04-16 08:03:04,1799.1076014714488,31.000000992,0.0,0.832693026646176,1799.1076014714488,31.000000992,0.7199994039200001,0.93462002990784,1684,0.0,97,P-GPS,
0.358281683699559,36.8932469021861,17100,2018-04-16 08:03:04,1799.6076014874488,31.500001007999998,0.0,0.8282280265032961,1799.6076014874488,31.500001007999998,0.7199994039200001,0.93462002990784,1684,0.0,97,P-GPS,
0.358281794177271,36.8932468519527,17200,2018-04-16 08:03:04,1800.2076015066489,32.1000010272,0.0,0.820901026268832,1800.2076015066489,32.1000010272,0.7199994039200001,0.93462002990784,1684,0.0,97,P-GPS,
0.358281905791637,36.8932468554845,17300,2018-04-16 08:03:04,1800.707601522649,32.6000010432,0.0,0.819647026228704,1800.707601522649,32.6000010432,0.7199994039200001,0.93462002990784,1684,0.0,97,P-GPS,
0.358282016388225,36.8932468335614,17400,2018-04-16 08:03:05,1801.2076015386488,33.100001059200004,0.0,0.8157780261048961,1801.2076015386488,33.100001059200004,0.7199994039200001,0.93462002990784,1684,0.0,97,P-GPS,
0.358282127902441,36.8932468222393,17500,2018-04-16 08:03:05,1801.7076015546488,33.600001075200005,0.0,0.8132480260239361,1801.7076015546488,33.600001075200005,0.7199994039200001,0.93462002990784,1684,0.0,97,P-GPS,
0.358282240294389,36.8932467845888,17600,2018-04-16 08:03:05,1802.2076015706489,34.1000010912,0.0,0.8079760258552321,1802.2076015706489,34.1000010912,0.7199994039200001,0.93462002990784,1684,0.0,97,P-GPS,
0.358282345193052,36.8932467554124,17700,2018-04-16 08:03:05,1802.7076015866487,34.6000011072,0.0,0.8038810257241921,1802.7076015866487,34.6000011072,0.7199994039200001,0.93462002990784,1684,0.0,97,P-GPS,
0.358282443773352,36.8932467127296,17800,2018-04-16 08:03:05,1803.307601605849,35.200001126400004,0.0,0.798486025551552,1803.307601605849,35.200001126400004,0.7199994039200001,0.93462002990784,1684,0.0,97,P-GPS,
0.358282526132721,36.8932467206109,17900,2018-04-16 08:03:05,1803.8076016218488,35.700001142400005,0.0,0.7989260255656321,1803.8076016218488,35.700001142400005,0.7199994039200001,0.93462002990784,1684,0.0,97,P-GPS,
0.358282604843562,36.8932467097677,18000,2018-04-16 08:03:05,1804.3076016378486,36.2000011584,0.0,0.797402025516864,1804.3076016378486,36.2000011584,0.7199994039200001,0.93462002990784,1684,0.0,97,P-GPS,
0.358282680230748,36.8932467032875,18100,2018-04-16 08:03:05,1804.807601653849,36.7000011744,0.0,0.796467025486944,1804.807601653849,36.7000011744,0.7199994039200001,0.93462002990784,1684,-0.1,97,P-GPS,
0.358282756643854,36.8932466771834,18200,2018-04-16 08:03:05,1805.3076016698487,37.2000011904,0.0,0.7934360253899521,1805.3076016698487,37.2000011904,0.7199994039200001,0.93462002990784,1684,-1.9,97,P-GPS,
0.358282876753812,36.893246683518,18300,2018-04-16 08:03:05,1805.8076016858488,37.7000012064,0.0,0.794122025411904,1805.8076016858488,37.7000012064,0.7199994039200001,0.93462002990784,1684,-6.0,97,P-GPS,
0.358282981352842,36.8932466673628,18400,2018-04-16 08:03:05,1806.3076017018489,38.2000012224,0.0,0.7924930253597761,1806.3076017018489,38.2000012224,0.7199994039200001,0.93462002990784,1684,-10.8,97,P-GPS,
0.358283080398877,36.8932466384373,18500,2018-04-16 08:03:06,1806.807601717849,38.7000012384,0.0,0.789594025267008,1806.807601717849,38.7000012384,0.7199994039200001,0.93462002990784,1684,-10.8,97,P-GPS,
0.358283154417356,36.8932465916655,18600,2018-04-16 08:03:06,1807.3076017338487,39.2000012544,0.0,0.78473502511152,1807.3076017338487,39.2000012544,0.7199994039200001,0.93462002990784,1684,-15.5,97,P-GPS,
0.358283194648879,36.8932465422482,18700,2018-04-16 08:03:06,1807.807601749849,39.7000012704,0.0,0.7794680249429761,1807.807601749849,39.7000012704,0.7199994039200001,0.93462002990784,1684,-18.8,97,P-GPS,
0.358283229333108,36.8932464907283,18800,2018-04-16 08:03:06,1808.3076017658489,40.2000012864,0.0,0.77396002476672,1808.3076017658489,40.2000012864,0.7199994039200001,0.93462002990784,1684,-18.8,97,P-GPS,
0.358283258067816,36.8932464473114,18900,2018-04-16 08:03:06,1808.8076017818487,40.700001302400004,0.0,0.769333024618656,1808.8076017818487,40.700001302400004,0.7199994039200001,0.93462002990784,1684,-18.8,97,P-GPS,
0.358283289127129,36.8932464014586,19000,2018-04-16 08:03:06,1809.3076017978487,41.2000013184,0.0,0.764468024462976,1809.3076017978487,41.2000013184,0.7199994039200001,0.93462002990784,1684,-18.8,97,P-GPS,
0.358283329171381,36.8932463601694,19100,2018-04-16 08:03:06,1809.8076018138488,41.7000013344,0.0,0.7602020243264641,1809.8076018138488,41.7000013344,0.7199994039200001,0.93462002990784,1684,-18.8,97,P-GPS,
0.358283365617586,36.8932463112335,19200,2018-04-16 08:03:06,1810.3076018298489,42.2000013504,0.0,0.7550860241627521,1810.3076018298489,42.2000013504,0.7199994039200001,0.93462002990784,1684,-18.8,97,P-GPS,
0.358283409398303,36.893246267622,19300,2018-04-16 08:03:06,1810.8076018458487,42.7000013664,0.0,0.750656024020992,1810.8076018458487,42.7000013664,0.7199994039200001,0.93462002990784,1684,-18.8,97,P-GPS,
0.358283447266139,36.8932462311379,19400,2018-04-16 08:03:06,1811.307601861849,43.2000013824,0.0,0.7469920239037441,1811.307601861849,43.2000013824,0.7199994039200001,0.93462002990784,1684,-18.8,97,P-GPS,
0.358283490571351,36.8932462001064,19500,2018-04-16 08:03:07,1811.8076018778488,43.7000013984,0.0,0.744018023808576,1811.8076018778488,43.7000013984,0.7199994039200001,0.93462002990784,1684,-18.8,97,P-GPS,
0.358283519008054,36.8932461604518,19600,2018-04-16 08:03:07,1812.3076018938486,44.2000014144,0.0,0.739953023678496,1812.3076018938486,44.2000014144,0.7199994039200001,0.93462002990784,1684,-18.8,97,P-GPS,
0.358283514778985,36.8932461451449,19700,2018-04-16 08:03:07,1812.807601909849,44.7000014304,0.0,0.738211023622752,1812.807601909849,44.7000014304,0.7199994039200001,0.93462002990784,1684,-18.8,97,P-GPS,
0.35828350696571,36.8932461072012,19800,2018-04-16 08:03:07,1813.3076019258488,45.2000014464,0.0,0.733924023485568,1813.3076019258488,45.2000014464,0.7199994039200001,0.93462002990784,1684,-18.8,97,P-GPS,
0.358283523295747,36.8932460490546,19900,2018-04-16 08:03:07,1813.8076019418488,45.7000014624,0.0,0.727684023285888,1813.8076019418488,45.7000014624,0.7199994039200001,0.93462002990784,1684,-18.8,97,P-GPS,
0.358283538700013,36.8932459790255,20000,2018-04-16 08:03:07,1814.3076019578486,46.2000014784,0.0,0.720127023044064,1814.3076019578486,46.2000014784,0.7199994039200001,0.93462002990784,1684,-18.8,97,P-GPS,
0.358283515658344,36.8932459499055,20100,2018-04-16 08:03:07,1814.807601973849,46.7000014944,0.0,0.71663002293216,1814.807601973849,46.7000014944,0.7199994039200001,0.93462002990784,1684,-18.8,97,P-GPS,
0.358283500660375,36.893245913875,20200,2018-04-16 08:03:07,1815.3076019898488,47.2000015104,0.0,0.7124690227990081,1815.3076019898488,47.2000015104,0.7199994039200001,0.93462002990784,1684,-18.8,97,P-GPS,
0.358283489113893,36.8932458908217,20300,2018-04-16 08:03:07,1815.7076020026489,47.6000015232,0.0,0.709786022713152,1815.7076020026489,47.6000015232,0.7199994039200001,0.93462002990784,1684,-18.8,97,P-GPS,
0.358283467938422,36.8932458398017,20500,2018-04-16 08:03:08,1816.707602034649,48.6000015552,0.0,0.7039000225248001,1816.707602034649,48.6000015552,0.7199994039200001,0.93462002990784,1684,-18.8,97,P-GPS,
0.358283460586811,36.8932458166146,20600,2018-04-16 08:03:08,1817.2076020506488,49.1000015712,0.0,0.7012520224400641,1817.2076020506488,49.1000015712,0.7199994039200001,0.93462002990784,1684,-18.8,97,P-GPS,
0.358283461180379,36.893245833473,20700,2018-04-16 08:03:08,1817.7076020666486,49.600001587200005,0.0,0.703124022499968,1817.7076020666486,49.600001587200005,0.7199994039200001,0.93462002990784,1684,-18.8,97,P-GPS,
0.358283456724142,36.893245836267,20800,2018-04-16 08:03:08,1818.207602082649,50.1000016032,0.0,0.703384022508288,1818.207602082649,50.1000016032,0.7199994039200001,0.93462002990784,1684,-18.8,97,P-GPS,
0.358283440338738,36.8932458607761,20900,2018-04-16 08:03:08,1818.7076020986487,50.6000016192,0.0,0.705917022589344,1818.7076020986487,50.6000016192,0.7199994039200001,0.93462002990784,1684,-18.8,97,P-GPS,
0.358283418376729,36.8932458759939,21000,2018-04-16 08:03:08,1819.2076021146488,51.1000016352,0.0,0.70737002263584,1819.2076021146488,51.1000016352,0.7199994039200001,0.93462002990784,1684,-18.8,97,P-GPS,
0.358283361982899,36.8932459080802,21100,2018-04-16 08:03:08,1819.7076021306489,51.6000016512,0.0,0.71037002273184,1819.7076021306489,51.6000016512,0.7199994039200001,0.93462002990784,1684,-18.8,97,P-GPS,
0.358283309333676,36.8932459234654,21200,2018-04-16 08:03:08,1820.207602146649,52.1000016672,0.0,0.7116090227714881,1820.207602146649,52.1000016672,0.7199994039200001,0.93462002990784,1684,-18.8,97,P-GPS,
0.358283235622973,36.8932459447628,21300,2018-04-16 08:03:08,1820.7076021626488,52.6000016832,0.0,0.713401022828832,1820.7076021626488,52.6000016832,0.7199994039200001,0.93462002990784,1684,-18.8,97,P-GPS,
0.358283173813752,36.8932459522533,21400,2018-04-16 08:03:08,1821.207602178649,53.1000016992,0.0,0.713828022842496,1821.207602178649,53.1000016992,0.7199994039200001,0.93462002990784,1684,-18.8,97,P-GPS,
0.358283139442185,36.893245960367,21500,2018-04-16 08:03:09,1821.7076021946489,53.6000017152,0.0,0.714532022865024,1821.7076021946489,53.6000017152,0.7199994039200001,0.93462002990784,1684,-18.8,97,P-GPS,
0.358283105713038,36.8932459597328,21600,2018-04-16 08:03:09,1822.2076022106487,54.1000017312,0.0,0.714289022857248,1822.2076022106487,54.1000017312,0.7199994039200001,0.93462002990784,1684,-18.8,97,P-GPS,
0.358283066171161,36.8932460013016,21700,2018-04-16 08:03:09,1822.7076022266488,54.6000017472,0.0,0.7187310229993921,1822.7076022266488,54.6000017472,0.7199994039200001,0.93462002990784,1684,-18.8,97,P-GPS,
0.358283033752912,36.8932460295831,21800,2018-04-16 08:03:09,1823.3076022458488,55.20000176640001,0.0,0.721750023096,1823.3076022458488,55.20000176640001,0.7199994039200001,0.93462002990784,1684,-18.8,97,P-GPS,
0.358282996034078,36.8932460581486,21900,2018-04-16 08:03:09,1823.8076022618486,55.7000017824,0.0,0.724804023193728,1823.8076022618486,55.7000017824,0.7199994039200001,0.93462002990784,1684,-18.8,97,P-GPS,
0.35828296679211,36.893246060766,22000,2018-04-16 08:03:09,1824.307602277849,56.2000017984,0.0,0.725017023200544,1824.307602277849,56.2000017984,0.7199994039200001,0.93462002990784,1684,-18.8,97,P-GPS,
0.358282930279138,36.8932460788615,22100,2018-04-16 08:03:09,1824.8076022938487,56.700001814400004,0.0,0.726953023262496,1824.8076022938487,56.700001814400004,0.7199994039200001,0.93462002990784,1684,-18.8,97,P-GPS,
0.358282899374528,36.8932460631451,22200,2018-04-16 08:03:09,1825.3076023098488,57.200001830400005,0.0,0.725159023205088,1825.3076023098488,57.200001830400005,0.7199994039200001,0.93462002990784,1684,-18.8,97,P-GPS,
0.358282890841482,36.8932460449051,22300,2018-04-16 08:03:09,1825.7076023226487,57.600001843200005,0.0,0.723121023139872,1825.7076023226487,57.600001843200005,0.7199994039200001,0.93462002990784,1684,-18.8,97,P-GPS,
0.358282888099182,36.8932460204504,22400,2018-04-16 08:03:09,1826.207602338649,58.100001859200006,0.0,0.720399023052768,1826.207602338649,58.100001859200006,0.7199994039200001,0.93462002990784,1684,-18.8,97,P-GPS,
0.358282895776481,36.8932460299146,22500,2018-04-16 08:03:10,1826.8076023578487,58.7000018784,0.0,0.7214600230867201,1826.8076023578487,58.7000018784,0.7199994039200001,0.93462002990784,1684,-18.8,97,P-GPS,
0.358282899302877,36.8932460343773,22600,2018-04-16 08:03:10,1827.3076023738488,59.2000018944,0.0,0.72196002310272,1827.3076023738488,59.2000018944,0.7199994039200001,0.93462002990784,1684,-18.8,97,P-GPS,
0.358282875727893,36.8932460720554,22700,2018-04-16 08:03:10,1827.8076023898489,59.700001910400005,0.0,0.726126023236032,1827.8076023898489,59.700001910400005,0.7199994039200001,0.93462002990784,1684,-18.8,97,P-GPS,
0.358282855645107,36.8932460941622,22800,2018-04-16 08:03:10,1828.3076024058487,60.2000019264,0.0,0.728571023314272,1828.3076024058487,60.2000019264,0.7199994039200001,0.93462002990784,1684,-18.8,97,P-GPS,
0.358282806586603,36.8932461224745,22900,2018-04-16 08:03:10,1828.8076024218487,60.7000019424,0.0,0.7317150234148799,1828.8076024218487,60.7000019424,0.7199994039200001,0.93462002990784,1684,-18.8,97,P-GPS,
0.358282771439897,36.8932461320487,23000,2018-04-16 08:03:10,1829.3076024378488,61.2000019584,0.0,0.732802023449664,1829.3076024378488,61.2000019584,0.7199994039200001,0.93462002990784,1684,-18.8,97,P-GPS,
0.358282718039961,36.8932461776719,23100,2018-04-16 08:03:10,1829.8076024538489,61.7000019744,0.0,0.737949023614368,1829.8076024538489,61.7000019744,0.7199994039200001,0.93462002990784,1684,-18.8,97,P-GPS,
0.358282684368624,36.8932462018139,23200,2018-04-16 08:03:10,1830.3076024698487,62.200001990400004,0.0,0.740704023702528,1830.3076024698487,62.200001990400004,0.7199994039200001,0.93462002990784,1684,-18.8,97,P-GPS,
0.358282666353963,36.8932462190629,23300,2018-04-16 08:03:10,1830.7076024826488,62.600002003200004,0.0,0.7426670237653441,1830.7076024826488,62.600002003200004,0.7199994039200001,0.93462002990784,1684,-18.8,97,P-GPS,
0.358282656338218,36.8932462209644,23400,2018-04-16 08:03:11,1831.2076024986488,63.100002019200005,0.0,0.742906023772992,1831.2076024986488,63.100002019200005,0.7199994039200001,0.93462002990784,1684,-18.8,97,P-GPS,
0.358282618901919,36.8932462601676,23500,2018-04-16 08:03:11,1831.707602514649,63.600002035200006,0.0,0.747381023916192,1831.707602514649,63.600002035200006,0.7199994039200001,0.93462002990784,1684,-18.8,97,P-GPS,
0.358282594168297,36.8932462719094,23600,2018-04-16 08:03:11,1832.2076025306487,64.1000020512,0.0,0.7487760239608321,1832.2076025306487,64.1000020512,0.7199994039200001,0.93462002990784,1684,-18.8,97,P-GPS,
0.358282577835004,36.8932462814533,23700,2018-04-16 08:03:11,1832.707602546649,64.6000020672,0.0,0.749901023996832,1832.707602546649,64.6000020672,0.7199994039200001,0.93462002990784,1684,-18.8,97,P-GPS,
0.358282571962021,36.8932462731162,23800,2018-04-16 08:03:11,1833.2076025626488,65.10000208320001,0.0,0.748999023967968,1833.2076025626488,65.10000208320001,0.7199994039200001,0.93462002990784,1684,-18.8,97,P-GPS,
0.358282535215368,36.8932462770703,23900,2018-04-16 08:03:11,1833.7076025786487,65.60000209920001,0.0,0.749604023987328,1833.7076025786487,65.60000209920001,0.7199994039200001,0.93462002990784,1684,-18.8,97,P-GPS,
0.358282511944089,36.8932462632917,24000,2018-04-16 08:03:11,1834.2076025946487,66.10000211520001,0.0,0.74819002394208,1834.2076025946487,66.10000211520001,0.7199994039200001,0.93462002990784,1684,-18.8,97,P-GPS,
0.358282498054276,36.8932463041592,24100,2018-04-16 08:03:11,1834.7076026106488,66.6000021312,0.0,0.752803024089696,1834.7076026106488,66.6000021312,0.7199994039200001,0.93462002990784,1684,-18.8,97,P-GPS,
0.358282496791417,36.8932463216911,24200,2018-04-16 08:03:11,1835.2076026266488,67.1000021472,0.0,0.7547570241522241,1835.2076026266488,67.1000021472,0.7199994039200001,0.93462002990784,1684,-18.8,97,P-GPS,
0.358282461590158,36.8932463519864,24300,2018-04-16 08:03:11,1835.7076026426487,67.6000021632,0.0,0.758321024266272,1835.7076026426487,67.6000021632,0.7199994039200001,0.93462002990784,1684,-18.8,97,P-GPS,
0.358282439829261,36.8932463607818,24400,2018-04-16 08:03:11,1836.207602658649,68.1000021792,0.0,0.7594310243017921,1836.207602658649,68.1000021792,0.7199994039200001,0.93462002990784,1684,-18.8,97,P-GPS,
0.358282418329729,36.8932464144695,24500,2018-04-16 08:03:12,1836.7076026746488,68.6000021952,0.0,0.7655300244969601,1836.7076026746488,68.6000021952,0.7199994039200001,0.93462002990784,1684,-18.8,97,P-GPS,
0.358282402857882,36.8932464473469,24600,2018-04-16 08:03:12,1837.2076026906486,69.1000022112,0.0,0.7692830246170561,1837.2076026906486,69.1000022112,0.7199994039200001,0.93462002990784,1684,-18.8,97,P-GPS,
0.358282381404761,36.8932464891824,24700,2018-04-16 08:03:12,1837.707602706649,69.60000222720001,0.0,0.774076024770432,1837.707602706649,69.60000222720001,0.7199994039200001,0.93462002990784,1684,-18.8,97,P-GPS,
0.358282371520106,36.8932465060341,24800,2018-04-16 08:03:12,1838.2076027226487,70.10000224320001,0.0,0.776017024832544,1838.2076027226487,70.10000224320001,0.7199994039200001,0.93462002990784,1684,-18.8,97,P-GPS,
0.358282340966426,36.8932465260462,24900,2018-04-16 08:03:12,1838.7076027386488,70.60000225920001,0.0,0.7784660249109121,1838.7076027386488,70.60000225920001,0.7199994039200001,0.93462002990784,1684,-18.8,97,P-GPS,
0.358282329916619,36.8932465254727,25000,2018-04-16 08:03:12,1839.2076027546489,71.1000022752,0.0,0.778489024911648,1839.2076027546489,71.1000022752,0.7199994039200001,0.93462002990784,1684,-18.8,97,P-GPS,
0.358282297794747,36.8932465542642,25100,2018-04-16 08:03:12,1839.707602770649,71.6000022912,0.0,0.781943025022176,1839.707602770649,71.6000022912,0.7199994039200001,0.93462002990784,1684,-18.8,97,P-GPS,
0.358282284886885,36.8932465596089,25200,2018-04-16 08:03:12,1840.2076027866487,72.1000023072,0.0,0.7826450250446401,1840.2076027866487,72.1000023072,0.7199994039200001,0.93462002990784,1684,-18.8,97,P-GPS,
0.358282270642072,36.8932465642678,25300,2018-04-16 08:03:12,1840.7076028026486,72.6000023232,0.0,0.7832850250651201,1840.7076028026486,72.6000023232,0.7199994039200001,0.93462002990784,1684,-18.8,97,P-GPS,
0.35828226583979,36.8932465504908,25400,2018-04-16 08:03:12,1841.1076028154487,73.00000233600001,0.0,0.7818000250176,1841.1076028154487,73.00000233600001,0.7199994039200001,0.93462002990784,1684,-18.8,97,P-GPS,
0.358282284079991,36.8932465509569,25500,2018-04-16 08:03:13,1841.607602831449,73.50000235200001,0.0,0.781692025014144,1841.607602831449,73.50000235200001,0.7199994039200001,0.93462002990784,1684,-18.8,97,P-GPS,
0.358282308130481,36.893246530556,25600,2018-04-16 08:03:13,1842.2076028506488,74.1000023712,0.0,0.7792280249352961,1842.2076028506488,74.1000023712,0.7199994039200001,0.93462002990784,1684,-18.8,97,P-GPS,
0.358282322174996,36.8932465280508,25700,2018-04-16 08:03:13,1842.6076028634486,74.50000238400001,0.0,0.7788360249227521,1842.6076028634486,74.50000238400001,0.7199994039200001,0.93462002990784,1684,-18.8,97,P-GPS,
0.358282343751065,36.8932465067206,25800,2018-04-16 08:03:13,1843.107602879449,75.0000024,0.0,0.7763010248416321,1843.107602879449,75.0000024,0.7199994039200001,0.93462002990784,1684,-18.8,97,P-GPS,
0.358282357538286,36.8932465470965,25900,2018-04-16 08:03:13,1843.6076028954487,75.500002416,0.0,0.780676024981632,1843.6076028954487,75.500002416,0.7199994039200001,0.93462002990784,1684,-18.8,97,P-GPS,
0.358282377421587,36.8932465616151,26000,2018-04-16 08:03:13,1844.1076029114488,76.000002432,0.0,0.782142025028544,1844.1076029114488,76.000002432,0.7199994039200001,0.93462002990784,1684,-18.8,97,P-GPS,
0.358282384751213,36.8932465575652,26100,2018-04-16 08:03:13,1844.6076029274489,76.500002448,0.0,0.7816410250125121,1844.6076029274489,76.500002448,0.7199994039200001,0.93462002990784,1684,-18.8,97,P-GPS,
0.358282404012449,36.893246533288,26200,2018-04-16 08:03:13,1845.107602943449,77.000002464,0.0,0.7788150249220801,1845.107602943449,77.000002464,0.7199994039200001,0.93462002990784,1684,-18.8,97,P-GPS,
0.358282435302186,36.8932465344789,26300,2018-04-16 08:03:13,1845.6076029594487,77.50000248,0.0,0.7787450249198401,1845.6076029594487,77.50000248,0.7199994039200001,0.93462002990784,1684,-18.8,97,P-GPS,
0.358282462308302,36.8932465228256,26400,2018-04-16 08:03:14,1846.107602975449,78.00000249600001,0.0,0.777289024873248,1846.107602975449,78.00000249600001,0.7199994039200001,0.93462002990784,1684,-18.8,97,P-GPS,
0.358282466310203,36.8932465335851,26500,2018-04-16 08:03:14,1846.6076029914489,78.500002512,0.0,0.7784610249107521,1846.6076029914489,78.500002512,0.7199994039200001,0.93462002990784,1684,-18.8,97,P-GPS,
0.358282477159711,36.893246524106,26600,2018-04-16 08:03:14,1847.1076030074487,79.000002528,0.0,0.777347024875104,1847.1076030074487,79.000002528,0.7199994039200001,0.93462002990784,1684,-18.8,97,P-GPS,
0.35828250776143,36.8932465350635,26700,2018-04-16 08:03:14,1847.6076030234487,79.500002544,0.0,0.778401024908832,1847.6076030234487,79.500002544,0.7199994039200001,0.93462002990784,1684,-18.8,97,P-GPS,
0.358282541322033,36.8932465282719,26800,2018-04-16 08:03:14,1848.1076030394488,80.00000256,0.0,0.77748502487952,1848.1076030394488,80.00000256,0.7199994039200001,0.93462002990784,1684,-18.8,97,P-GPS,
0.358282590422876,36.8932465446906,26900,2018-04-16 08:03:14,1848.6076030554489,80.500002576,0.0,0.779107024931424,1848.6076030554489,80.500002576,0.7199994039200001,0.93462002990784,1684,-18.8,97,P-GPS,
0.358282630348252,36.893246550194,27000,2018-04-16 08:03:14,1849.1076030714487,81.000002592,0.0,0.7795810249465921,1849.1076030714487,81.000002592,0.7199994039200001,0.93462002990784,1684,-18.8,97,P-GPS,
0.358282640289088,36.8932465727435,27100,2018-04-16 08:03:14,1849.5076030842488,81.40000260480001,0.0,0.7820580250258561,1849.5076030842488,81.40000260480001,0.7199994039200001,0.93462002990784,1684,-18.8,97,P-GPS,
0.358282646638391,36.8932465829987,27200,2018-04-16 08:03:14,1850.0076031002488,81.90000262080001,0.0,0.78318002506176,1850.0076031002488,81.90000262080001,0.7199994039200001,0.93462002990784,1684,-18.8,97,P-GPS,
0.358282673718601,36.8932466408243,27300,2018-04-16 08:03:14,1850.507603116249,82.4000026368,0.0,0.7895370252651841,1850.507603116249,82.4000026368,0.7199994039200001,0.93462002990784,1684,-18.8,97,P-GPS,
0.358282702292093,36.8932466678138,27400,2018-04-16 08:03:14,1851.107603135449,83.000002656,0.0,0.792476025359232,1851.107603135449,83.000002656,0.7199994039200001,0.93462002990784,1684,-18.8,96,P-GPS,
0.358282714191948,36.8932466526577,27500,2018-04-16 08:03:15,1851.6076031514488,83.500002672,0.0,0.790769025304608,1851.6076031514488,83.500002672,0.7199994039200001,0.93462002990784,1684,-18.8,96,P-GPS,
0.358282719657006,36.8932466197548,27600,2018-04-16 08:03:15,1852.1076031674488,84.000002688,0.0,0.7871010251872321,1852.1076031674488,84.000002688,0.7199994039200001,0.93462002990784,1684,-18.8,96,P-GPS,
0.358282708493208,36.893246628175,27700,2018-04-16 08:03:15,1852.6076031834489,84.500002704,0.0,0.7880570252178241,1852.6076031834489,84.500002704,0.7199994039200001,0.93462002990784,1684,-18.8,96,P-GPS,
0.358282703781305,36.893246621304,27800,2018-04-16 08:03:15,1853.107603199449,85.00000272,0.0,0.7873020251936641,1853.107603199449,85.00000272,0.7199994039200001,0.93462002990784,1684,-18.8,96,P-GPS,
0.358282700109164,36.8932465954236,27900,2018-04-16 08:03:15,1853.5076032122488,85.4000027328,0.0,0.784432025101824,1853.5076032122488,85.4000027328,0.7199994039200001,0.93462002990784,1684,-18.8,96,P-GPS,
0.358282707070762,36.893246554536,28000,2018-04-16 08:03:15,1854.0076032282489,85.9000027488,0.0,0.779872024955904,1854.0076032282489,85.9000027488,0.7199994039200001,0.93462002990784,1684,-18.8,96,P-GPS,
0.358282713049594,36.8932465358041,28100,2018-04-16 08:03:15,1854.5076032442487,86.4000027648,0.0,0.7777780248888961,1854.5076032442487,86.4000027648,0.7199994039200001,0.93462002990784,1684,-18.8,96,P-GPS,
0.358282723763942,36.8932465096052,28200,2018-04-16 08:03:15,1855.007603260249,86.90000278080001,0.0,0.774847024795104,1855.007603260249,86.90000278080001,0.7199994039200001,0.93462002990784,1684,-18.8,96,P-GPS,
0.358282720575448,36.8932465158398,28300,2018-04-16 08:03:15,1855.5076032762488,87.4000027968,0.0,0.77554502481744,1855.5076032762488,87.4000027968,0.7199994039200001,0.93462002990784,1684,-18.8,96,P-GPS,
0.358282713884986,36.893246506918,28400,2018-04-16 08:03:15,1856.0076032922486,87.9000028128,0.0,0.77456502478608,1856.0076032922486,87.9000028128,0.7199994039200001,0.93462002990784,1684,-18.8,96,P-GPS,
0.358282689630127,36.8932465216893,28500,2018-04-16 08:03:16,1856.507603308249,88.4000028288,0.0,0.7762550248401601,1856.507603308249,88.4000028288,0.7199994039200001,0.93462002990784,1684,-18.8,96,P-GPS,
0.358282669116618,36.8932465202277,28600,2018-04-16 08:03:16,1857.0076033242487,88.9000028448,0.0,0.776141024836512,1857.0076033242487,88.9000028448,0.7199994039200001,0.93462002990784,1684,-18.8,96,P-GPS,
0.3582826538239,36.8932465425365,28700,2018-04-16 08:03:16,1857.5076033402488,89.4000028608,0.0,0.7786610249171521,1857.5076033402488,89.4000028608,0.7199994039200001,0.93462002990784,1684,-18.8,96,P-GPS,
0.358282643212959,36.8932465541972,28800,2018-04-16 08:03:16,1858.0076033562489,89.9000028768,0.0,0.779988024959616,1858.0076033562489,89.9000028768,0.7199994039200001,0.93462002990784,1684,-18.8,96,P-GPS,
0.358282638622376,36.8932466135229,28900,2018-04-16 08:03:16,1858.507603372249,90.4000028928,0.0,0.786596025171072,1858.507603372249,90.4000028928,0.7199994039200001,0.93462002990784,1684,-18.8,96,P-GPS,
0.358282630611245,36.8932466433545,29000,2018-04-16 08:03:16,1858.9076033850488,90.8000029056,0.0,0.789936025277952,1858.9076033850488,90.8000029056,0.7199994039200001,0.93462002990784,1684,-18.8,96,P-GPS,
0.358282581660219,36.8932466756554,29100,2018-04-16 08:03:16,1859.4076034010488,91.3000029216,0.0,0.7936950253982401,1859.4076034010488,91.3000029216,0.7199994039200001,0.93462002990784,1684,-18.8,96,P-GPS,
0.358282535154301,36.8932466822821,29200,2018-04-16 08:03:16,1859.907603417049,91.8000029376,0.0,0.794626025428032,1859.907603417049,91.8000029376,0.7199994039200001,0.93462002990784,1684,-18.8,96,P-GPS,
0.358282466815834,36.8932466888336,29300,2018-04-16 08:03:16,1860.4076034330487,92.3000029536,0.0,0.7957000254623999,1860.4076034330487,92.3000029536,0.7199994039200001,0.93462002990784,1684,-18.8,96,P-GPS,
0.358282416194024,36.8932466750912,29400,2018-04-16 08:03:16,1860.9076034490488,92.8000029696,0.0,0.794477025423264,1860.9076034490488,92.8000029696,0.7199994039200001,0.93462002990784,1684,-18.8,96,P-GPS,
