latitude,longitude,time_millisecond,datetime_utc,altitude_m,ascent_m,speed_kph,distance_m,max_altitude_m,max_ascent_m,max_speed_kph,max_distance_m,rc_throttle,gimbal_pitch_degrees,battery_percent,flycState,message
0.307529460022083,36.8793965965448,0,2018-03-31 05:44:40,1770.6106523595427,0.0,0.0,0.0,1770.6106523595427,0.0,0.0,0.0,364,0.0,98,Motors_Started,
0.307529457006204,36.8793965963521,100,2018-03-31 05:44:40,1770.6106523595427,0.0,0.0,0.000336068010754176,1770.6106523595427,0.0,0.0,0.000336068010754176,364,0.0,98,Motors_Started,
0.307529452870771,36.8793966329567,200,2018-03-31 05:44:40,1770.6106523595427,0.0,0.0,0.00412652013204864,1770.6106523595427,0.0,0.0,0.00412652013204864,364,0.0,98,Motors_Started,
0.307529449903746,36.8793966631843,300,2018-03-31 05:44:40,1770.6106523595427,0.0,0.0,0.0074955502398576,1770.6106523595427,0.0,0.0,0.0074955502398576,364,0.0,98,Motors_Started,
0.307529447180173,36.8793966881154,400,2018-03-31 05:44:40,1770.6106523595427,0.0,0.0,0.010282700329046402,1770.6106523595427,0.0,0.0,0.010282700329046402,364,0.0,98,Motors_Started,
0.307529445298506,36.8793967071706,500,2018-03-31 05:44:40,1770.6106523595427,0.0,0.0,0.0124106003971392,1770.6106523595427,0.0,0.0,0.0124106003971392,364,0.0,98,Motors_Started,
0.307529444055189,36.8793967188047,600,2018-03-31 05:44:41,1770.6106523595427,0.0,0.0,0.013711300438761601,1770.6106523595427,0.0,0.0,0.013711300438761601,364,0.0,98,Motors_Started,
0.307529443595154,36.8793967285091,700,2018-03-31 05:44:41,1770.6106523595427,0.0,0.0,0.0147883004732256,1770.6106523595427,0.0,0.0,0.0147883004732256,383,0.0,98,Motors_Started,
0.307529481302589,36.8793967674516,800,2018-03-31 05:44:41,1770.6106523595427,0.0,0.0,0.0191524006128768,1770.6106523595427,0.0,0.0,0.0191524006128768,551,0.0,98,Motors_Started,
0.307529512210456,36.879396801313,900,2018-03-31 05:44:41,1770.6106523595427,0.0,0.0,0.023499100751971203,1770.6106523595427,0.0,0.0,0.023499100751971203,716,0.0,98,Motors_Started,
0.307529538307899,36.8793968237066,1000,2018-03-31 05:44:41,1770.6106523595427,0.0,0.0,0.026719500855024003,1770.6106523595427,0.0,0.0,0.026719500855024003,1024,0.0,98,Motors_Started,
0.307529558367072,36.8793968424339,1100,2018-03-31 05:44:41,1770.6106523595427,0.0,0.0,0.029450000942400002,1770.6106523595427,0.0,0.0,0.029450000942400002,1024,0.0,98,Motors_Started,
0.307529569882614,36.8793968502778,1200,2018-03-31 05:44:41,1770.6106523595427,0.0,0.0,0.0307476009839232,1770.6106523595427,0.0,0.0,0.0307476009839232,1024,0.0,98,Motors_Started,
0.307529580912065,36.8793968588364,1300,2018-03-31 05:44:41,1770.6106523595427,0.0,0.0,0.0321171010277472,1770.6106523595427,0.0,0.0,0.0321171010277472,1024,0.0,98,Motors_Started,
0.307529584401821,36.879396856961,1400,2018-03-31 05:44:41,1770.6106523595427,0.0,0.0,0.0320931010269792,1770.6106523595427,0.0,0.0,0.0321171010277472,1024,0.0,98,Motors_Started,
0.307529589813954,36.8793968598816,1500,2018-03-31 05:44:41,1770.6106523595427,0.0,0.0,0.0326481010447392,1770.6106523595427,0.0,0.0,0.0326481010447392,1024,0.0,98,Motors_Started,
0.307529588683,36.879396854379,1600,2018-03-31 05:44:42,1770.6106523595427,0.0,0.0,0.032044001025408005,1770.6106523595427,0.0,0.0,0.0326481010447392,1024,0.0,98,Assisted_Takeoff,
0.307529591225815,36.879396853514,1700,2018-03-31 05:44:42,1770.6106523595427,0.0,0.0,0.032085501026736005,1770.6106523595427,0.0,0.0,0.0326481010447392,1024,0.0,98,Assisted_Takeoff,
0.30752958730208,36.8793968461777,1800,2018-03-31 05:44:42,1770.6106523595427,0.0,0.0,0.031160500997136,1770.6106523595427,0.0,0.0,0.0326481010447392,1024,0.0,98,Assisted_Takeoff,Setting new Return-To-Home altitude to 45m (148 ft). Setting new Maximum Flight Altitude to 150m (492 ft)
0.3075295879559,36.8793968448092,1900,2018-03-31 05:44:42,1770.6106523595427,0.0,0.0,0.0310583009938656,1770.6106523595427,0.0,0.0,0.0326481010447392,1024,0.0,98,Assisted_Takeoff,
0.307529584476729,36.8793968741408,2000,2018-03-31 05:44:42,1770.6106523595427,0.0,0.0,0.033830501082576,1770.6106523595427,0.0,0.0,0.033830501082576,1024,0.0,98,Assisted_Takeoff,
0.307529585991996,36.8793969014229,2100,2018-03-31 05:44:42,1770.6106523595427,0.0,0.0,0.0366839011738848,1770.6106523595427,0.0,0.0,0.0366839011738848,1024,0.0,98,Assisted_Takeoff,
0.30752958400448,36.8793969199851,2200,2018-03-31 05:44:42,1770.6106523595427,0.0,0.0,0.0385201012326432,1770.6106523595427,0.0,0.0,0.0385201012326432,1024,0.0,98,Assisted_Takeoff,
0.307529586382009,36.8793969363384,2300,2018-03-31 05:44:42,1770.6106523595427,0.0,0.0,0.0403148012900736,1770.6106523595427,0.0,0.0,0.0403148012900736,1024,0.0,98,Assisted_Takeoff,
0.30752958472751,36.8793969435563,2400,2018-03-31 05:44:42,1770.6106523595427,0.0,0.0,0.041005501312176,1770.6106523595427,0.0,0.0,0.041005501312176,1024,0.0,98,Assisted_Takeoff,
0.30752958723857,36.8793969523488,2500,2018-03-31 05:44:42,1770.6106523595427,0.0,0.0,0.0420201013446432,1770.6106523595427,0.0,0.0,0.0420201013446432,1024,0.0,98,Assisted_Takeoff,
0.307529585623968,36.8793969516251,2600,2018-03-31 05:44:43,1770.6106523595427,0.0,0.0,0.041884101340291205,1770.6106523595427,0.0,0.0,0.0420201013446432,1024,0.0,98,Assisted_Takeoff,
0.307529588465603,36.879396954976,2700,2018-03-31 05:44:43,1770.6106523595427,0.0,0.0,0.04234120135491841,1770.6106523595427,0.0,0.0,0.04234120135491841,1024,0.0,98,Assisted_Takeoff,
0.30752958697232,36.8793969500631,2800,2018-03-31 05:44:43,1770.6106523595427,0.0,0.0,0.041770901336668796,1770.6106523595427,0.0,0.0,0.04234120135491841,1024,0.0,98,Assisted_Takeoff,
0.307529590018324,36.8793969504139,2900,2018-03-31 05:44:43,1770.6106523595427,0.0,0.0,0.041923201341542406,1770.6106523595427,0.0,0.0,0.04234120135491841,1024,0.0,98,Assisted_Takeoff,
0.307529625384871,36.8793969444417,3000,2018-03-31 05:44:43,1770.6106523595427,0.0,0.0,0.0428358013707456,1770.6106523595427,0.0,0.0,0.0428358013707456,1024,0.0,98,Assisted_Takeoff,
0.307529658487066,36.8793969437294,3100,2018-03-31 05:44:43,1770.6106523595427,0.0,0.0,0.0444716014230912,1770.6106523595427,0.0,0.0,0.0444716014230912,1024,0.0,98,Assisted_Takeoff,
0.307529682715056,36.8793969380997,3200,2018-03-31 05:44:43,1770.6106523595427,0.0,0.0,0.0453427014509664,1770.6106523595427,0.0,0.0,0.0453427014509664,1024,0.0,98,Assisted_Takeoff,
0.307529718073461,36.8793969303208,3400,2018-03-31 05:44:43,1770.6106523595427,0.0,0.0,0.0469171015013472,1770.6106523595427,0.0,0.0,0.0469171015013472,1024,0.0,98,Assisted_Takeoff,
0.307529733328724,36.879396928875,3500,2018-03-31 05:44:43,1770.6106523595427,0.0,0.0,0.047849201531174404,1770.6106523595427,0.0,0.0,0.047849201531174404,1024,0.0,98,Assisted_Takeoff,
0.307529735052432,36.8793969241143,3600,2018-03-31 05:44:44,1770.6106523595427,0.0,0.0,0.04756460152206721,1770.6106523595427,0.0,0.0,0.047849201531174404,1024,0.0,98,Assisted_Takeoff,
0.307529743391694,36.8793969230676,3700,2018-03-31 05:44:44,1770.6106523595427,0.0,0.0,0.0480781015384992,1770.6106523595427,0.0,0.0,0.0480781015384992,1024,0.0,98,Assisted_Takeoff,
0.307529739266845,36.879396919563,3800,2018-03-31 05:44:44,1770.6106523595427,0.0,0.0,0.0474832015194624,1770.6106523595427,0.0,0.0,0.0480781015384992,1024,0.0,98,Assisted_Takeoff,
0.307529742470808,36.8793969187328,3900,2018-03-31 05:44:44,1770.6106523595427,0.0,0.0,0.04764750152472,1770.6106523595427,0.0,0.0,0.0480781015384992,1026,0.0,98,Assisted_Takeoff,
0.307529734940069,36.8793969155344,4000,2018-03-31 05:44:44,1770.6106523595427,0.0,0.0,0.046829701498550404,1770.6106523595427,0.0,0.0,0.0480781015384992,1035,0.0,98,Assisted_Takeoff,
0.307529736003443,36.879396914634,4100,2018-03-31 05:44:44,1770.6106523595427,0.0,0.0,0.0468313014986016,1770.6106523595427,0.0,0.0,0.0480781015384992,1058,0.0,98,Assisted_Takeoff,
0.307529727479353,36.8793969112156,4200,2018-03-31 05:44:44,1770.6106523595427,0.0,0.0,0.045925301469609596,1770.6106523595427,0.0,0.0,0.0480781015384992,1091,0.0,98,Assisted_Takeoff,
0.3075297277912,36.8793969101699,4300,2018-03-31 05:44:44,1770.6106523595427,0.0,0.0,0.0458593014674976,1770.6106523595427,0.0,0.0,0.0480781015384992,1121,0.0,98,Assisted_Takeoff,
0.307529720579636,36.8793969076155,4400,2018-03-31 05:44:44,1770.6106523595427,0.0,0.0,0.04512450144398401,1770.6106523595427,0.0,0.0,0.0480781015384992,1134,0.0,98,Assisted_Takeoff,
0.30752972196707,36.879396907047,4500,2018-03-31 05:44:44,1770.6106523595427,0.0,0.0,0.0451754014456128,1770.6106523595427,0.0,0.0,0.0480781015384992,1133,0.0,98,Assisted_Takeoff,
0.307529716229248,36.8793969052856,4600,2018-03-31 05:44:45,1770.6106523595427,0.0,0.0,0.0446157014277024,1770.6106523595427,0.0,0.0,0.0480781015384992,1136,0.0,98,Assisted_Takeoff,
0.307529717652508,36.8793969051164,4700,2018-03-31 05:44:45,1770.6106523595427,0.0,0.0,0.04470250143048,1770.6106523595427,0.0,0.0,0.0480781015384992,1130,0.0,98,Assisted_Takeoff,
0.307529711157459,36.8793969042118,4800,2018-03-31 05:44:45,1770.6106523595427,0.0,0.0,0.044165101413283205,1770.6106523595427,0.0,0.0,0.0480781015384992,1147,0.0,98,Assisted_Takeoff,
0.307529712382863,36.8793969046446,4900,2018-03-31 05:44:45,1770.6106523595427,0.0,0.0,0.0442886014172352,1770.6106523595427,0.0,0.0,0.0480781015384992,1155,0.0,98,Assisted_Takeoff,
0.307529745056778,36.8793969045881,5000,2018-03-31 05:44:45,1770.6106523595427,0.0,0.0,0.046671201493478406,1770.6106523595427,0.0,0.0,0.0480781015384992,1149,0.0,98,Assisted_Takeoff,
0.307529777358593,36.8793969054917,5100,2018-03-31 05:44:45,1770.6106523595427,0.0,0.0,0.049251601576051206,1770.6106523595427,0.0,0.0,0.049251601576051206,1143,0.0,98,Assisted_Takeoff,
0.307529802076744,36.8793969077177,5200,2018-03-31 05:44:45,1770.6106523595427,0.0,0.0,0.05142330164554561,1770.6106523595427,0.0,0.0,0.05142330164554561,1142,0.0,98,Assisted_Takeoff,
0.307529836195089,36.8793969135029,5300,2018-03-31 05:44:45,1770.6106523595427,0.0,0.0,0.05470230175047361,1770.6106523595427,0.0,0.0,0.05470230175047361,1158,0.0,98,Assisted_Takeoff,
0.307529895696804,36.8793969284556,5400,2018-03-31 05:44:45,1770.6106523595427,0.0,0.0,0.06090750194904,1770.6106523595427,0.0,0.0,0.06090750194904,1175,0.0,98,Assisted_Takeoff,
0.307529993293524,36.8793969445032,5500,2018-03-31 05:44:45,1770.6106523595427,0.0,0.0,0.0708104022659328,1770.6106523595427,0.0,0.0,0.0708104022659328,1179,0.0,98,Assisted_Takeoff,
0.307530105632547,36.8793969300989,5600,2018-03-31 05:44:46,1770.6106523595427,0.0,0.35999970196000003,0.08081160258597121,1770.6106523595427,0.0,0.35999970196000003,0.08081160258597121,1189,0.0,98,P-GPS,
0.307530218171055,36.8793968946653,5700,2018-03-31 05:44:46,1770.6106523595427,0.0,0.35999970196000003,0.0905946028990272,1770.6106523595427,0.0,0.35999970196000003,0.0905946028990272,1206,0.0,98,P-GPS,
0.307530354515785,36.8793968522705,5800,2018-03-31 05:44:46,1770.6106523595427,0.0,0.35999970196000003,0.10345800331065601,1770.6106523595427,0.0,0.35999970196000003,0.10345800331065601,1243,0.0,98,P-GPS,Home Point Recorded. RTH Altitude:  45m.
0.307530500833921,36.8793968070458,5900,2018-03-31 05:44:46,1770.7106523627428,0.1000000032,0.35999970196000003,0.11808800377881601,1770.7106523627428,0.1000000032,0.35999970196000003,0.11808800377881601,1238,0.0,98,P-GPS,
0.307530626928411,36.8793967371303,6000,2018-03-31 05:44:46,1770.7106523627428,0.1000000032,0.35999970196000003,0.13070500418256,1770.7106523627428,0.1000000032,0.35999970196000003,0.13070500418256,1243,0.0,98,P-GPS,
0.307530916291917,36.8793966890214,6200,2018-03-31 05:44:46,1770.8106523659428,0.2000000064,0.35999970196000003,0.16227200519270402,1770.8106523659428,0.2000000064,0.35999970196000003,0.16227200519270402,1252,0.0,98,P-GPS,
0.307531082316668,36.879396694282,6300,2018-03-31 05:44:46,1770.9106523691428,0.3000000096,0.35999970196000003,0.180736005783552,1770.9106523691428,0.3000000096,0.35999970196000003,0.180736005783552,1228,0.0,98,P-GPS,
0.307531241708359,36.8793966419607,6400,2018-03-31 05:44:46,1771.0106523723427,0.4000000128,0.35999970196000003,0.198199006342368,1771.0106523723427,0.4000000128,0.35999970196000003,0.198199006342368,1214,0.0,98,P-GPS,
0.307531408322607,36.8793966089715,6500,2018-03-31 05:44:46,1771.0106523723427,0.4000000128,0.35999970196000003,0.216667006933344,1771.0106523723427,0.4000000128,0.35999970196000003,0.216667006933344,1221,0.0,98,P-GPS,
0.307531582581585,36.8793966000845,6600,2018-03-31 05:44:47,1771.110652375543,0.500000016,0.35999970196000003,0.236042007553344,1771.110652375543,0.500000016,0.35999970196000003,0.236042007553344,1221,0.0,98,P-GPS,
0.307531754738648,36.8793965812217,6700,2018-03-31 05:44:47,1771.210652378743,0.6000000192,0.35999970196000003,0.255192008166144,1771.210652378743,0.6000000192,0.35999970196000003,0.255192008166144,1208,0.0,98,P-GPS,
0.307531892509489,36.8793965676796,6800,2018-03-31 05:44:47,1771.3106523819429,0.7000000224,0.0,0.270526008656832,1771.3106523819429,0.7000000224,0.35999970196000003,0.270526008656832,1195,0.0,98,P-GPS,
0.307532004740628,36.8793965436084,6900,2018-03-31 05:44:47,1771.4106523851426,0.8000000256,0.0,0.283049009057568,1771.4106523851426,0.8000000256,0.35999970196000003,0.283049009057568,1195,0.0,98,P-GPS,
0.30753208233802,36.8793964997131,7000,2018-03-31 05:44:47,1771.5106523883428,0.9000000288000001,0.0,0.291816009338112,1771.5106523883428,0.9000000288000001,0.35999970196000003,0.291816009338112,1225,0.0,98,P-GPS,
0.307532157344964,36.8793964657909,7100,2018-03-31 05:44:47,1771.6106523915428,1.000000032,0.0,0.300311009609952,1771.6106523915428,1.000000032,0.35999970196000003,0.300311009609952,1270,0.0,98,P-GPS,
0.307532252503496,36.879396410349,7200,2018-03-31 05:44:47,1771.7106523947427,1.1000000352000001,0.0,0.31123000995936,1771.7106523947427,1.1000000352000001,0.35999970196000003,0.31123000995936,1271,0.0,98,P-GPS,
0.307532351251119,36.8793963702634,7300,2018-03-31 05:44:47,1771.7106523947427,1.1000000352000001,0.0,0.32250501032016005,1771.7106523947427,1.1000000352000001,0.35999970196000003,0.32250501032016005,1256,0.0,98,P-GPS,
0.307532451052752,36.8793963624928,7400,2018-03-31 05:44:47,1771.8106523979427,1.2000000384,0.0,0.3336380106764161,1771.8106523979427,1.2000000384,0.35999970196000003,0.3336380106764161,1277,0.0,98,P-GPS,
0.307532536905948,36.8793963705463,7500,2018-03-31 05:44:47,1771.910652401143,1.3000000416000002,0.0,0.34309001097888,1771.910652401143,1.3000000416000002,0.35999970196000003,0.34309001097888,1298,0.0,98,P-GPS,
0.307532577607684,36.8793963914641,7600,2018-03-31 05:44:47,1772.1106524075428,1.5000000480000002,0.0,0.34744401111820805,1772.1106524075428,1.5000000480000002,0.35999970196000003,0.34744401111820805,1301,0.0,98,P-GPS,
0.307532616505919,36.8793963986525,7700,2018-03-31 05:44:48,1772.210652410743,1.6000000512,0.0,0.351709011254688,1772.210652410743,1.6000000512,0.35999970196000003,0.351709011254688,1300,0.0,98,P-GPS,
0.307532682746136,36.879396392988,7800,2018-03-31 05:44:48,1772.3106524139428,1.7000000544000002,0.0,0.359101011491232,1772.3106524139428,1.7000000544000002,0.35999970196000003,0.359101011491232,1289,0.0,98,P-GPS,
0.307532772117585,36.8793963911086,7900,2018-03-31 05:44:48,1772.4106524171427,1.8000000576000001,0.0,0.369033011809056,1772.4106524171427,1.8000000576000001,0.35999970196000003,0.369033011809056,1289,0.0,98,P-GPS,
0.307532875388211,36.8793964094545,8000,2018-03-31 05:44:48,1772.610652423543,2.000000064,0.0,0.380379012172128,1772.610652423543,2.000000064,0.35999970196000003,0.380379012172128,1284,0.0,98,P-GPS,
0.307532978202465,36.8793964440084,8100,2018-03-31 05:44:48,1772.7106524267429,2.1000000672000003,0.0,0.39161101253155206,1772.7106524267429,2.1000000672000003,0.35999970196000003,0.39161101253155206,1274,0.0,98,P-GPS,
0.307533078223124,36.8793964734523,8200,2018-03-31 05:44:48,1772.9106524331428,2.3000000736,0.0,0.4025990128831681,1772.9106524331428,2.3000000736,0.35999970196000003,0.4025990128831681,1275,0.0,98,P-GPS,
0.307533165703949,36.8793964912613,8300,2018-03-31 05:44:48,1773.010652436343,2.4000000768,0.0,0.412261013192352,1773.010652436343,2.4000000768,0.35999970196000003,0.412261013192352,1279,0.0,98,P-GPS,
0.307533244976603,36.8793964794388,8400,2018-03-31 05:44:48,1773.110652439543,2.50000008,0.0,0.421111013475552,1773.110652439543,2.50000008,0.35999970196000003,0.421111013475552,1273,0.0,98,P-GPS,
0.307533314647137,36.8793964592263,8500,2018-03-31 05:44:48,1773.2106524427427,2.6000000832000003,0.0,0.42893001372576,1773.2106524427427,2.6000000832000003,0.35999970196000003,0.42893001372576,1283,0.0,98,P-GPS,
0.307533392935803,36.8793964175027,8600,2018-03-31 05:44:49,1773.4106524491428,2.8000000896,0.0,0.437817014010144,1773.4106524491428,2.8000000896,0.35999970196000003,0.437817014010144,1300,0.0,98,P-GPS,
0.307533468706081,36.8793963954574,8700,2018-03-31 05:44:49,1773.5106524523428,2.9000000928,0.0,0.44635101428323204,1773.5106524523428,2.9000000928,0.35999970196000003,0.44635101428323204,1295,0.0,98,P-GPS,
0.307533527365077,36.879396396749,8800,2018-03-31 05:44:49,1773.6106524555428,3.0000000960000004,0.0,0.452859014491488,1773.6106524555428,3.0000000960000004,0.35999970196000003,0.452859014491488,1282,0.0,98,P-GPS,
0.307533585141048,36.8793964085435,8900,2018-03-31 05:44:49,1773.7106524587427,3.1000000992000003,0.0,0.45921501469487996,1773.7106524587427,3.1000000992000003,0.35999970196000003,0.45921501469487996,1289,0.0,98,P-GPS,
0.307533627546137,36.8793963806966,9000,2018-03-31 05:44:49,1773.910652465143,3.3000001056,0.0,0.46407501485040004,1773.910652465143,3.3000001056,0.35999970196000003,0.46407501485040004,1296,0.0,98,P-GPS,
0.307533663079192,36.8793963589593,9100,2018-03-31 05:44:49,1774.0106524683426,3.4000001088000005,0.0,0.468152014980864,1774.0106524683426,3.4000001088000005,0.35999970196000003,0.468152014980864,1290,0.0,98,P-GPS,
0.307533684375983,36.8793963569669,9200,2018-03-31 05:44:49,1774.1106524715426,3.500000112,0.0,0.470529015056928,1774.1106524715426,3.500000112,0.35999970196000003,0.470529015056928,1294,0.0,98,P-GPS,
0.307533711871853,36.8793963334059,9300,2018-03-31 05:44:49,1774.2106524747428,3.6000001152000003,0.0,0.473736015159552,1774.2106524747428,3.6000001152000003,0.35999970196000003,0.473736015159552,1295,0.0,98,P-GPS,
0.307533741052755,36.8793962645169,9400,2018-03-31 05:44:49,1774.4106524811427,3.8000001216000006,0.0,0.47750601528019204,1774.4106524811427,3.8000001216000006,0.35999970196000003,0.47750601528019204,1301,0.0,98,P-GPS,
0.30753378178421,36.8793962077177,9500,2018-03-31 05:44:49,1774.510652484343,3.9000001248,0.0,0.482547015441504,1774.510652484343,3.9000001248,0.35999970196000003,0.482547015441504,1325,0.0,98,P-GPS,
0.307533848738092,36.8793961636795,9600,2018-03-31 05:44:49,1774.610652487543,4.000000128,0.0,0.49042001569344,1774.610652487543,4.000000128,0.35999970196000003,0.49042001569344,1346,0.0,98,P-GPS,
0.307533941295185,36.8793961444854,9700,2018-03-31 05:44:50,1774.8106524939428,4.200000134400001,0.0,0.500874016027968,1774.8106524939428,4.200000134400001,0.35999970196000003,0.500874016027968,1340,0.0,98,P-GPS,
0.307534045099126,36.8793961105308,9800,2018-03-31 05:44:50,1774.910652497143,4.3000001376,0.0,0.51274501640784,1774.910652497143,4.3000001376,0.35999970196000003,0.51274501640784,1343,0.0,98,P-GPS,
0.307534138243273,36.879396086617,9900,2018-03-31 05:44:50,1775.1106525035427,4.500000144,0.0,0.5233280167464961,1775.1106525035427,4.500000144,0.35999970196000003,0.5233280167464961,1355,0.0,98,P-GPS,
0.307534210687251,36.8793961003273,10000,2018-03-31 05:44:50,1775.3106525099429,4.7000001504,0.0,0.5311770169976641,1775.3106525099429,4.7000001504,0.35999970196000003,0.5311770169976641,1355,0.0,98,P-GPS,
0.307534286836345,36.8793961438832,10100,2018-03-31 05:44:50,1775.4106525131428,4.8000001536,0.0,0.539126017252032,1775.4106525131428,4.8000001536,0.35999970196000003,0.539126017252032,1359,0.0,98,P-GPS,
0.307534334529399,36.8793962003143,10200,2018-03-31 05:44:50,1775.6106525195428,5.00000016,0.0,0.543863017403616,1775.6106525195428,5.00000016,0.35999970196000003,0.543863017403616,1345,0.0,98,P-GPS,
0.307534386640217,36.8793962578441,10300,2018-03-31 05:44:50,1775.810652525943,5.200000166400001,0.0,0.5491630175732161,1775.810652525943,5.200000166400001,0.35999970196000003,0.5491630175732161,1344,0.0,98,P-GPS,
0.307534401532541,36.8793963231882,10400,2018-03-31 05:44:50,1776.0106525323426,5.4000001728,0.0,0.550366017611712,1776.0106525323426,5.4000001728,0.35999970196000003,0.550366017611712,1339,0.0,98,P-GPS,
0.307534414977789,36.8793963883703,10500,2018-03-31 05:44:50,1776.2106525387428,5.6000001792,0.0,0.5515070176482241,1776.2106525387428,5.6000001792,0.35999970196000003,0.5515070176482241,1340,0.0,98,P-GPS,
0.307534407366035,36.8793964851766,10600,2018-03-31 05:44:51,1776.3106525419428,5.7000001824,0.0,0.5503140176100481,1776.3106525419428,5.7000001824,0.35999970196000003,0.5515070176482241,1366,0.0,98,P-GPS,
0.307534413544148,36.8793965634028,10700,2018-03-31 05:44:51,1776.510652548343,5.9000001888,0.0,0.5508740176279681,1776.510652548343,5.9000001888,0.35999970196000003,0.5515070176482241,1400,0.0,98,P-GPS,
0.307534398102835,36.8793965868579,10800,2018-03-31 05:44:51,1776.7106525547426,6.100000195200001,0.0,0.549146017572672,1776.7106525547426,6.100000195200001,0.35999970196000003,0.5515070176482241,1410,0.0,98,P-GPS,
0.307534396658608,36.8793966109151,10900,2018-03-31 05:44:51,1776.9106525611428,6.3000002016,0.0,0.548986017567552,1776.9106525611428,6.3000002016,0.35999970196000003,0.5515070176482241,1413,0.0,98,P-GPS,
0.307534386020595,36.8793966018507,11000,2018-03-31 05:44:51,1777.0106525643428,6.4000002048,0.0,0.5478010175296321,1777.0106525643428,6.4000002048,0.35999970196000003,0.5515070176482241,1421,0.0,98,P-GPS,
0.307534392226595,36.8793966087937,11100,2018-03-31 05:44:51,1777.210652570743,6.6000002112,0.0,0.548493017551776,1777.210652570743,6.6000002112,0.35999970196000003,0.5515070176482241,1406,0.0,98,P-GPS,
0.307534375030633,36.879396619084,11200,2018-03-31 05:44:51,1777.5106525803428,6.900000220800001,0.0,0.54658501749072,1777.5106525803428,6.900000220800001,0.35999970196000003,0.5515070176482241,1369,0.0,98,P-GPS,
0.307534356732622,36.8793966300402,11300,2018-03-31 05:44:51,1777.7106525867428,7.1000002272,0.0,0.5445570174258241,1777.7106525867428,7.1000002272,0.35999970196000003,0.5515070176482241,1334,0.0,98,P-GPS,
0.307534356954701,36.8793966138911,11400,2018-03-31 05:44:51,1777.9106525931427,7.3000002336000005,0.0,0.544572017426304,1777.9106525931427,7.3000002336000005,0.35999970196000003,0.5515070176482241,1346,0.0,98,P-GPS,
0.30753436400566,36.8793966014872,11500,2018-03-31 05:44:51,1778.1106525995428,7.50000024,0.0,0.545353017451296,1778.1106525995428,7.50000024,0.35999970196000003,0.5515070176482241,1383,0.0,98,P-GPS,
0.307534356383932,36.8793965729506,11600,2018-03-31 05:44:52,1778.3106526059428,7.7000002464,0.0,0.544512017424384,1778.3106526059428,7.7000002464,0.35999970196000003,0.5515070176482241,1383,0.0,98,P-GPS,
0.307534344040733,36.8793965499067,11700,2018-03-31 05:44:52,1778.5106526123427,7.9000002528,0.0,0.5431570173810241,1778.5106526123427,7.9000002528,0.35999970196000003,0.5515070176482241,1421,0.0,98,P-GPS,
0.307534311138633,36.8793965200059,11800,2018-03-31 05:44:52,1778.7106526187426,8.1000002592,0.0,0.539541017265312,1778.7106526187426,8.1000002592,0.35999970196000003,0.5515070176482241,1425,0.0,98,P-GPS,
0.307534308930463,36.8793964999698,11900,2018-03-31 05:44:52,1778.9106526251428,8.300000265600001,0.0,0.53933501725872,1778.9106526251428,8.300000265600001,0.35999970196000003,0.5515070176482241,1446,0.0,98,P-GPS,
0.307534327685252,36.8793964551476,12000,2018-03-31 05:44:52,1779.210652634743,8.6000002752,0.0,0.541542017329344,1779.210652634743,8.6000002752,0.35999970196000003,0.5515070176482241,1454,0.0,98,P-GPS,
0.307534349601259,36.8793964212757,12100,2018-03-31 05:44:52,1779.4106526411426,8.800000281600001,0.0,0.5441000174112001,1779.4106526411426,8.800000281600001,0.35999970196000003,0.5515070176482241,1454,0.0,98,P-GPS,
0.307534310762055,36.8793963963952,12200,2018-03-31 05:44:52,1779.6106526475428,9.000000288,0.0,0.539891017276512,1779.6106526475428,9.000000288,0.35999970196000003,0.5515070176482241,1456,0.0,98,P-GPS,
0.307534279969401,36.8793963837215,12300,2018-03-31 05:44:52,1779.910652657143,9.3000002976,0.0,0.53653001716896,1779.910652657143,9.3000002976,0.35999970196000003,0.5515070176482241,1457,0.0,98,P-GPS,
0.307534277339056,36.8793963813074,12400,2018-03-31 05:44:52,1780.2106526667426,9.6000003072,0.0,0.536249017159968,1780.2106526667426,9.6000003072,0.35999970196000003,0.5515070176482241,1466,0.0,98,P-GPS,
0.307534294892461,36.8793963778012,12500,2018-03-31 05:44:52,1780.4106526731427,9.8000003136,0.0,0.538217017222944,1780.4106526731427,9.8000003136,0.35999970196000003,0.5515070176482241,1502,0.0,98,P-GPS,
0.307534278407926,36.879396373431,12600,2018-03-31 05:44:53,1780.7106526827429,10.100000323200002,0.0,0.536408017165056,1780.7106526827429,10.100000323200002,0.35999970196000003,0.5515070176482241,1517,0.0,98,P-GPS,
0.307534273171258,36.8793963699315,12700,2018-03-31 05:44:53,1781.0106526923428,10.400000332800001,0.0,0.535844017147008,1781.0106526923428,10.400000332800001,0.35999970196000003,0.5515070176482241,1513,0.0,98,P-GPS,
0.307534264200974,36.8793963368318,12800,2018-03-31 05:44:53,1781.3106527019427,10.700000342400001,0.0,0.535034017121088,1781.3106527019427,10.700000342400001,0.35999970196000003,0.5515070176482241,1518,0.0,98,P-GPS,
0.307534280841432,36.8793963082087,12900,2018-03-31 05:44:53,1781.6106527115428,11.000000351999999,0.0,0.537063017186016,1781.6106527115428,11.000000351999999,0.35999970196000003,0.5515070176482241,1518,0.0,98,P-GPS,
0.307534277590447,36.8793962925538,13000,2018-03-31 05:44:53,1782.010652724343,11.4000003648,0.0,0.536808017177856,1782.010652724343,11.4000003648,0.35999970196000003,0.5515070176482241,1516,0.0,98,P-GPS,
0.307534268561133,36.8793962837848,13100,2018-03-31 05:44:53,1782.3106527339428,11.7000003744,0.0,0.535869017147808,1782.3106527339428,11.7000003744,0.35999970196000003,0.5515070176482241,1516,0.0,98,P-GPS,
0.307534267644115,36.8793962755573,13200,2018-03-31 05:44:53,1782.610652743543,12.000000384000002,0.0,0.5358270171464641,1782.610652743543,12.000000384000002,0.35999970196000003,0.5515070176482241,1515,-0.1,98,P-GPS,
0.307534268865448,36.8793962657454,13300,2018-03-31 05:44:53,1783.0106527563428,12.400000396800001,0.0,0.5360360171531521,1783.0106527563428,12.400000396800001,0.35999970196000003,0.5515070176482241,1516,-0.3,98,P-GPS,
0.307534300477414,36.8793962988229,13400,2018-03-31 05:44:53,1783.310652765943,12.700000406400001,0.0,0.53930501725776,1783.310652765943,12.700000406400001,0.35999970196000003,0.5515070176482241,1513,-0.5,98,P-GPS,
0.30753433385848,36.8793963281517,13500,2018-03-31 05:44:53,1783.710652778743,13.100000419200002,0.0,0.542821017370272,1783.710652778743,13.100000419200002,0.35999970196000003,0.5515070176482241,1516,-1.1,98,P-GPS,
0.30753436562698,36.8793963561113,13600,2018-03-31 05:44:54,1784.0106527883427,13.4000004288,0.0,0.546188017478016,1784.0106527883427,13.4000004288,0.35999970196000003,0.5515070176482241,1517,-1.8,98,P-GPS,
0.307534391228562,36.8793963714767,13700,2018-03-31 05:44:54,1784.4106528011428,13.800000441600002,0.0,0.548951017566432,1784.4106528011428,13.800000441600002,0.35999970196000003,0.5515070176482241,1513,-2.7,98,P-GPS,
0.307534398966928,36.8793964198936,13800,2018-03-31 05:44:54,1784.7106528107427,14.100000451200001,0.0,0.549592017586944,1784.7106528107427,14.100000451200001,0.35999970196000003,0.5515070176482241,1496,-3.7,98,P-GPS,
0.30753439899624,36.8793964611475,13900,2018-03-31 05:44:54,1785.1106528235428,14.500000464000001,0.0,0.5494500175824001,1785.1106528235428,14.500000464000001,0.35999970196000003,0.5515070176482241,1496,-4.8,98,P-GPS,
0.307534383186898,36.8793964571994,14000,2018-03-31 05:44:54,1785.4106528331429,14.8000004736,0.0,0.54770501752656,1785.4106528331429,14.8000004736,0.35999970196000003,0.5515070176482241,1485,-6.0,98,P-GPS,
0.307534379246064,36.8793964442399,14100,2018-03-31 05:44:54,1785.8106528459427,15.200000486400002,0.0,0.54731001751392,1785.8106528459427,15.200000486400002,0.35999970196000003,0.5515070176482241,1486,-6.0,98,P-GPS,
0.307534380963055,36.8793964573019,14200,2018-03-31 05:44:54,1786.1106528555429,15.500000496,0.0,0.5474580175186561,1786.1106528555429,15.500000496,0.35999970196000003,0.5515070176482241,1482,-7.1,98,P-GPS,
0.307534381146051,36.8793964731721,14300,2018-03-31 05:44:54,1786.410652865143,15.8000005056,0.0,0.5474310175177921,1786.410652865143,15.8000005056,0.35999970196000003,0.5515070176482241,1481,-8.1,98,P-GPS,
0.307534374649984,36.8793964915804,14400,2018-03-31 05:44:54,1786.7106528747427,16.1000005152,0.0,0.5466610174931521,1786.7106528747427,16.1000005152,0.35999970196000003,0.5515070176482241,1479,-9.9,98,P-GPS,
0.307534326149223,36.8793964961331,14600,2018-03-31 05:44:55,1787.310652893943,16.7000005344,0.0,0.541258017320256,1787.310652893943,16.7000005344,0.35999970196000003,0.5515070176482241,1477,-10.8,98,P-GPS,
0.307534288666309,36.8793964885022,14700,2018-03-31 05:44:55,1787.6106529035428,17.000000544,0.0,0.537109017187488,1787.6106529035428,17.000000544,0.35999970196000003,0.5515070176482241,1464,-11.5,98,P-GPS,
0.30753425828443,36.8793964683274,14800,2018-03-31 05:44:55,1787.910652913143,17.3000005536,0.0,0.533786017081152,1787.910652913143,17.3000005536,0.35999970196000003,0.5515070176482241,1465,-11.5,98,P-GPS,
0.307534250132846,36.879396454755,14900,2018-03-31 05:44:55,1788.2106529227428,17.600000563200002,0.0,0.5329230170535361,1788.2106529227428,17.600000563200002,0.35999970196000003,0.5515070176482241,1467,-11.5,98,P-GPS,
0.30753425576828,36.8793964403191,15000,2018-03-31 05:44:55,1788.5106529323427,17.9000005728,0.0,0.533599017075168,1788.5106529323427,17.9000005728,0.35999970196000003,0.5515070176482241,1477,-11.5,98,P-GPS,
0.30753426872357,36.8793964334732,15100,2018-03-31 05:44:55,1788.8106529419429,18.2000005824,0.0,0.535064017122048,1788.8106529419429,18.2000005824,0.35999970196000003,0.5515070176482241,1478,-11.5,98,P-GPS,
0.307534248515191,36.8793964236511,15200,2018-03-31 05:44:55,1789.110652951543,18.500000592000003,0.0,0.532857017051424,1789.110652951543,18.500000592000003,0.35999970196000003,0.5515070176482241,1474,-11.6,98,P-GPS,
0.307534235678167,36.8793964227906,15300,2018-03-31 05:44:55,1789.4106529611427,18.8000006016,0.0,0.531433017005856,1789.4106529611427,18.8000006016,0.35999970196000003,0.5515070176482241,1468,-11.8,98,P-GPS,
0.307534221668866,36.8793964307893,15400,2018-03-31 05:44:55,1789.7106529707428,19.1000006112,0.0,0.52984501695504,1789.7106529707428,19.1000006112,0.35999970196000003,0.5515070176482241,1475,-12.0,98,P-GPS,
0.30753422465299,36.8793964479674,15500,2018-03-31 05:44:55,1790.010652980343,19.4000006208,0.0,0.530114016963648,1790.010652980343,19.4000006208,0.35999970196000003,0.5515070176482241,1478,-12.2,98,P-GPS,
0.307534228441361,36.8793964248627,15600,2018-03-31 05:44:56,1790.3106529899428,19.7000006304,0.0,0.5306210169798721,1790.3106529899428,19.7000006304,0.35999970196000003,0.5515070176482241,1478,-12.6,98,P-GPS,
0.307534241628297,36.8793964135736,15700,2018-03-31 05:44:56,1790.610652999543,20.00000064,0.0,0.5321330170282561,1790.610652999543,20.00000064,0.35999970196000003,0.5515070176482241,1473,-12.6,98,P-GPS,
0.30753421708215,36.8793964040218,15800,2018-03-31 05:44:56,1790.9106530091426,20.3000006496,0.0,0.529447016942304,1790.9106530091426,20.3000006496,0.35999970196000003,0.5515070176482241,1469,-13.2,98,P-GPS,
0.30753421112001,36.8793964081152,15900,2018-03-31 05:44:56,1791.2106530187427,20.6000006592,0.0,0.5287660169205121,1791.2106530187427,20.6000006592,0.35999970196000003,0.5515070176482241,1466,-13.9,98,P-GPS,
0.307534201483692,36.8793964325691,16000,2018-03-31 05:44:56,1791.5106530283429,20.900000668800004,0.0,0.52759501688304,1791.5106530283429,20.900000668800004,0.35999970196000003,0.5515070176482241,1466,-14.6,98,P-GPS,
0.307534215112954,36.8793964620586,16100,2018-03-31 05:44:56,1791.810653037943,21.200000678400002,0.0,0.529007016928224,1791.810653037943,21.200000678400002,0.35999970196000003,0.5515070176482241,1466,-15.3,98,P-GPS,
0.307534214175378,36.8793965205653,16200,2018-03-31 05:44:56,1792.1106530475427,21.500000688,0.0,0.528758016920256,1792.1106530475427,21.500000688,0.35999970196000003,0.5515070176482241,1463,-16.1,98,P-GPS,
0.30753422566344,36.8793965770818,16300,2018-03-31 05:44:56,1792.3106530539428,21.7000006944,0.0,0.529973016959136,1792.3106530539428,21.7000006944,0.35999970196000003,0.5515070176482241,1462,-17.0,98,P-GPS,
0.307534214768742,36.8793966422778,16400,2018-03-31 05:44:56,1792.610653063543,22.000000703999998,0.0,0.528781016920992,1792.610653063543,22.000000703999998,0.35999970196000003,0.5515070176482241,1460,-17.8,98,P-GPS,
0.307534215743976,36.8793966936761,16500,2018-03-31 05:44:57,1792.9106530731428,22.300000713600003,0.0,0.5289760169272321,1792.9106530731428,22.300000713600003,0.35999970196000003,0.5515070176482241,1459,-18.6,98,P-GPS,
0.307534226895968,36.8793967097392,16600,2018-03-31 05:44:57,1793.2106530827427,22.6000007232,0.0,0.53025501696816,1793.2106530827427,22.6000007232,0.35999970196000003,0.5515070176482241,1460,-19.4,98,P-GPS,
0.307534242999447,36.8793967247746,16700,2018-03-31 05:44:57,1793.5106530923429,22.900000732800002,0.0,0.532087017026784,1793.5106530923429,22.900000732800002,0.35999970196000003,0.5515070176482241,1459,-21.0,98,P-GPS,
0.307534245431325,36.879396816013,16900,2018-03-31 05:44:57,1794.0106531083427,23.4000007488,0.0,0.5327260170472321,1794.0106531083427,23.4000007488,0.35999970196000003,0.5515070176482241,1458,-21.7,98,P-GPS,
0.307534234883486,36.8793968762231,17000,2018-03-31 05:44:57,1794.3106531179428,23.7000007584,0.0,0.531904017020928,1794.3106531179428,23.7000007584,0.35999970196000003,0.5515070176482241,1455,-22.4,98,P-GPS,
0.307534234030995,36.879396936845,17100,2018-03-31 05:44:57,1794.6106531275427,24.000000768000003,0.0,0.532246017031872,1794.6106531275427,24.000000768000003,0.35999970196000003,0.5515070176482241,1456,-22.8,98,P-GPS,
0.307534231034048,36.8793970315837,17200,2018-03-31 05:44:57,1794.9106531371428,24.3000007776,0.0,0.532767017048544,1794.9106531371428,24.3000007776,0.35999970196000003,0.5515070176482241,1456,-22.8,98,P-GPS,
0.307534245265427,36.8793971079337,17300,2018-03-31 05:44:57,1795.1106531435428,24.500000784,0.0,0.535178017125696,1795.1106531435428,24.500000784,0.35999970196000003,0.5515070176482241,1455,-22.8,98,P-GPS,
0.307534254922711,36.8793971780264,17400,2018-03-31 05:44:57,1795.4106531531427,24.800000793600002,0.0,0.537129017188128,1795.4106531531427,24.800000793600002,0.35999970196000003,0.5515070176482241,1456,-22.8,98,P-GPS,
0.307534270017979,36.8793972438677,17500,2018-03-31 05:44:57,1795.7106531627428,25.100000803200004,0.0,0.539723017271136,1795.7106531627428,25.100000803200004,0.35999970196000003,0.5515070176482241,1456,-22.8,98,P-GPS,
0.307534300436906,36.8793973097358,17600,2018-03-31 05:44:58,1796.010653172343,25.400000812800002,0.0,0.54409501741104,1796.010653172343,25.400000812800002,0.35999970196000003,0.5515070176482241,1481,-22.8,98,P-GPS,
0.30753433438976,36.8793973718222,17700,2018-03-31 05:44:58,1796.3106531819426,25.7000008224,0.0,0.548873017563936,1796.3106531819426,25.7000008224,0.35999970196000003,0.5515070176482241,1479,-22.8,98,P-GPS,
0.307534350963045,36.8793974639318,17800,2018-03-31 05:44:58,1796.6106531915427,26.000000832,0.0,0.552389017676448,1796.6106531915427,26.000000832,0.35999970196000003,0.552389017676448,1484,-22.8,98,P-GPS,
0.30753436891664,36.8793975495501,17900,2018-03-31 05:44:58,1796.9106532011428,26.3000008416,0.0,0.556091017794912,1796.9106532011428,26.3000008416,0.35999970196000003,0.556091017794912,1501,-22.8,98,P-GPS,
0.307534366495551,36.8793976258564,18000,2018-03-31 05:44:58,1797.210653210743,26.6000008512,0.0,0.557507017840224,1797.210653210743,26.6000008512,0.35999970196000003,0.557507017840224,1510,-22.8,98,P-GPS,
0.307534385202709,36.8793977293865,18200,2018-03-31 05:44:58,1797.7106532267428,27.100000867200002,0.0,0.562011017984352,1797.7106532267428,27.100000867200002,0.35999970196000003,0.562011017984352,1516,-22.8,98,P-GPS,
0.307534405135881,36.87939776498,18300,2018-03-31 05:44:58,1798.1106532395427,27.50000088,0.0,0.565069018082208,1798.1106532395427,27.50000088,0.35999970196000003,0.565069018082208,1526,-22.8,98,P-GPS,
0.307534410140089,36.8793978326122,18400,2018-03-31 05:44:58,1798.4106532491428,27.8000008896,0.0,0.56738501815632,1798.4106532491428,27.8000008896,0.35999970196000003,0.56738501815632,1521,-22.8,98,P-GPS,
0.307534416731216,36.8793979035303,18500,2018-03-31 05:44:58,1798.710653258743,28.1000008992,0.0,0.570056018241792,1798.710653258743,28.1000008992,0.35999970196000003,0.570056018241792,1521,-22.8,98,P-GPS,
0.307534416165943,36.8793979873965,18600,2018-03-31 05:44:59,1799.1106532715428,28.500000912,0.0,0.572444018318208,1799.1106532715428,28.500000912,0.35999970196000003,0.572444018318208,1522,-22.8,98,P-GPS,
0.307534420588389,36.8793980590367,18700,2018-03-31 05:44:59,1799.410653281143,28.800000921600002,0.0,0.5751200184038401,1799.410653281143,28.800000921600002,0.35999970196000003,0.5751200184038401,1518,-22.8,98,P-GPS,
0.307534413991766,36.8793981150682,18800,2018-03-31 05:44:59,1799.810653293943,29.200000934400002,0.0,0.576211018438752,1799.810653293943,29.200000934400002,0.35999970196000003,0.576211018438752,1516,-22.8,98,P-GPS,
0.307534411844867,36.8793981580778,18900,2018-03-31 05:44:59,1800.1106533035427,29.500000944,0.0,0.577403018476896,1800.1106533035427,29.500000944,0.35999970196000003,0.577403018476896,1516,-22.8,98,P-GPS,
0.307534436209239,36.8793981913063,19000,2018-03-31 05:44:59,1800.5106533163428,29.900000956800003,0.0,0.58110501859536,1800.5106533163428,29.900000956800003,0.35999970196000003,0.58110501859536,1536,-22.8,98,P-GPS,
0.30753448374759,36.879398293433,19200,2018-03-31 05:44:59,1801.2106533387428,30.6000009792,0.0,0.589677018869664,1801.2106533387428,30.6000009792,0.35999970196000003,0.589677018869664,1537,-22.8,98,P-GPS,
0.307534493813206,36.8793983653549,19300,2018-03-31 05:44:59,1801.5106533483429,30.900000988800002,0.0,0.593341018986912,1801.5106533483429,30.900000988800002,0.35999970196000003,0.593341018986912,1540,-22.8,98,P-GPS,
0.307534487046003,36.8793984183994,19400,2018-03-31 05:44:59,1801.9106533611427,31.300001001600002,0.0,0.59461501902768,1801.9106533611427,31.300001001600002,0.35999970196000003,0.59461501902768,1543,-22.8,98,P-GPS,
0.307534482005765,36.8793984735645,19500,2018-03-31 05:44:59,1802.2106533707429,31.6000010112,0.0,0.5962080190786561,1802.2106533707429,31.6000010112,0.35999970196000003,0.5962080190786561,1544,-22.8,98,P-GPS,
0.307534470030595,36.8793985647641,19600,2018-03-31 05:45:00,1802.6106533835427,32.000001024,0.0,0.598594019155008,1802.6106533835427,32.000001024,0.35999970196000003,0.598594019155008,1545,-22.8,98,P-GPS,
0.307534459811499,36.8793986484044,19700,2018-03-31 05:45:00,1802.9106533931429,32.3000010336,0.0,0.601006019232192,1802.9106533931429,32.3000010336,0.35999970196000003,0.601006019232192,1545,-22.9,98,P-GPS,
0.307534447699539,36.8793987168742,19800,2018-03-31 05:45:00,1803.310653405943,32.700001046400004,0.0,0.602698019286336,1803.310653405943,32.700001046400004,0.35999970196000003,0.602698019286336,1545,-23.3,98,P-GPS,
0.307534437778448,36.8793987691575,19900,2018-03-31 05:45:00,1803.7106534187428,33.100001059200004,0.0,0.60398501932752,1803.7106534187428,33.100001059200004,0.35999970196000003,0.60398501932752,1545,-24.6,98,P-GPS,
0.307534429913674,36.8793988089659,20000,2018-03-31 05:45:00,1804.010653428343,33.4000010688,0.0,0.60497001935904,1804.010653428343,33.4000010688,0.35999970196000003,0.60497001935904,1544,-26.2,98,P-GPS,
0.307534429536893,36.879398840156,20100,2018-03-31 05:45:00,1804.4106534411428,33.8000010816,0.0,0.606351019403232,1804.4106534411428,33.8000010816,0.35999970196000003,0.606351019403232,1540,-28.1,98,P-GPS,
0.307534449182441,36.879398825363,20200,2018-03-31 05:45:00,1804.810653453943,34.2000010944,0.0,0.6076700194454401,1804.810653453943,34.2000010944,0.35999970196000003,0.6076700194454401,1540,-30.3,98,P-GPS,
0.30753448119134,36.8793988038355,20300,2018-03-31 05:45:00,1805.210653466743,34.6000011072,0.0,0.609954019518528,1805.210653466743,34.6000011072,0.35999970196000003,0.609954019518528,1530,-34.7,98,P-GPS,
0.307534521907529,36.8793987402951,20500,2018-03-31 05:45:00,1805.910653489143,35.300001129600005,0.0,0.6113120195619841,1805.910653489143,35.300001129600005,0.35999970196000003,0.6113120195619841,1522,-34.7,98,P-GPS,
0.307534576445543,36.8793987275029,20600,2018-03-31 05:45:01,1806.3106535019429,35.700001142400005,0.0,0.616353019723296,1806.3106535019429,35.700001142400005,0.35999970196000003,0.616353019723296,1522,-35.9,98,P-GPS,
0.307534636076109,36.8793987279148,20700,2018-03-31 05:45:01,1806.6106535115428,36.000001152,0.0,0.622497019919904,1806.6106535115428,36.000001152,0.35999970196000003,0.622497019919904,1522,-35.9,98,P-GPS,
0.307534698721332,36.8793987709643,20800,2018-03-31 05:45:01,1807.0106535243426,36.4000011648,0.0,0.630764020184448,1807.0106535243426,36.4000011648,0.35999970196000003,0.630764020184448,1526,-35.9,97,P-GPS,
0.307534760690547,36.8793988148987,20900,2018-03-31 05:45:01,1807.3106535339427,36.7000011744,0.0,0.63900502044816,1807.3106535339427,36.7000011744,0.35999970196000003,0.63900502044816,1528,-35.9,97,P-GPS,
0.307534808021271,36.8793988507824,21000,2018-03-31 05:45:01,1807.7106535467428,37.10000118720001,0.0,0.645403020652896,1807.7106535467428,37.10000118720001,0.35999970196000003,0.645403020652896,1534,-35.9,97,P-GPS,
0.30753484710067,36.8793988858036,21100,2018-03-31 05:45:01,1808.0106535563427,37.400001196800005,0.0,0.6509230208295361,1808.0106535563427,37.400001196800005,0.35999970196000003,0.6509230208295361,1534,-35.9,97,P-GPS,
0.307534867567158,36.8793989425346,21200,2018-03-31 05:45:01,1808.4106535691428,37.800001209600005,0.0,0.655504020976128,1808.4106535691428,37.800001209600005,0.35999970196000003,0.655504020976128,1544,-35.9,97,P-GPS,
0.3075348808575,36.8793989973408,21300,2018-03-31 05:45:01,1808.710653578743,38.1000012192,0.0,0.659304021097728,1808.710653578743,38.1000012192,0.35999970196000003,0.659304021097728,1557,-35.9,97,P-GPS,
0.307534895523674,36.8793990549125,21400,2018-03-31 05:45:01,1809.1106535915428,38.500001232,0.0,0.6634080212290561,1809.1106535915428,38.500001232,0.35999970196000003,0.6634080212290561,1558,-35.9,97,P-GPS,
0.307534909764213,36.8793990953161,21500,2018-03-31 05:45:01,1809.410653601143,38.8000012416,0.0,0.666712021334784,1809.410653601143,38.8000012416,0.35999970196000003,0.666712021334784,1556,-35.9,97,P-GPS,
0.307534910418237,36.8793991048396,21600,2018-03-31 05:45:02,1809.8106536139428,39.2000012544,0.0,0.6672200213510401,1809.8106536139428,39.2000012544,0.35999970196000003,0.6672200213510401,1554,-35.9,97,P-GPS,
0.307534914313068,36.8793991171885,21700,2018-03-31 05:45:02,1810.210653626743,39.60000126720001,0.0,0.6681880213820159,1810.210653626743,39.60000126720001,0.35999970196000003,0.6681880213820159,1553,-35.9,97,P-GPS,
0.307534904419864,36.8793991401354,21800,2018-03-31 05:45:02,1810.6106536395428,40.00000128,0.0,0.668266021384512,1810.6106536395428,40.00000128,0.35999970196000003,0.668266021384512,1555,-35.9,97,P-GPS,
0.307534896538195,36.8793991611639,21900,2018-03-31 05:45:02,1811.0106536523429,40.400001292800006,0.0,0.668466021390912,1811.0106536523429,40.400001292800006,0.35999970196000003,0.668466021390912,1558,-35.9,97,P-GPS,
0.307534878280691,36.8793991622692,22000,2018-03-31 05:45:02,1811.410653665143,40.8000013056,0.0,0.666683021333856,1811.410653665143,40.8000013056,0.35999970196000003,0.668466021390912,1573,-35.9,97,P-GPS,
0.307534863139012,36.8793991634651,22100,2018-03-31 05:45:02,1811.7106536747428,41.100001315200004,0.0,0.665218021286976,1811.7106536747428,41.100001315200004,0.35999970196000003,0.668466021390912,1601,-35.9,97,P-GPS,
0.307534850071156,36.8793991595161,22200,2018-03-31 05:45:02,1812.110653687543,41.500001328,0.0,0.663717021238944,1812.110653687543,41.500001328,0.35999970196000003,0.668466021390912,1612,-35.9,97,P-GPS,
0.307534842410752,36.8793991639481,22300,2018-03-31 05:45:02,1812.5106537003428,41.9000013408,0.0,0.6631600212211199,1812.5106537003428,41.9000013408,0.35999970196000003,0.668466021390912,1612,-35.9,97,P-GPS,
0.307534804848248,36.8793991621352,22400,2018-03-31 05:45:02,1812.910653713143,42.300001353599995,0.0,0.65930502109776,1812.910653713143,42.300001353599995,0.35999970196000003,0.668466021390912,1596,-35.9,97,P-GPS,
0.307534783540873,36.8793991634164,22500,2018-03-31 05:45:02,1813.3106537259428,42.7000013664,0.0,0.657232021031424,1813.3106537259428,42.7000013664,0.35999970196000003,0.668466021390912,1592,-35.9,97,P-GPS,
0.307534771932103,36.8793991886645,22600,2018-03-31 05:45:03,1813.7106537387428,43.1000013792,0.0,0.6572960210334721,1813.7106537387428,43.1000013792,0.35999970196000003,0.668466021390912,1606,-35.9,97,P-GPS,
0.307534760151532,36.8793992203783,22700,2018-03-31 05:45:03,1814.1106537515427,43.500001392,0.0,0.657676021045632,1814.1106537515427,43.500001392,0.35999970196000003,0.668466021390912,1616,-35.9,97,P-GPS,
0.307534706106325,36.8793992787049,22800,2018-03-31 05:45:03,1814.5106537643428,43.9000014048,0.0,0.655222020967104,1814.5106537643428,43.9000014048,0.35999970196000003,0.668466021390912,1626,-35.9,97,P-GPS,
0.307534655480444,36.8793993290002,22900,2018-03-31 05:45:03,1815.0106537803426,44.4000014208,0.0,0.652799020889568,1815.0106537803426,44.4000014208,0.35999970196000003,0.668466021390912,1637,-35.9,97,P-GPS,
0.307534618437007,36.8793993614913,23000,2018-03-31 05:45:03,1815.4106537931427,44.8000014336,0.0,0.65085502082736,1815.4106537931427,44.8000014336,0.35999970196000003,0.668466021390912,1610,-35.9,97,P-GPS,
0.307534566893294,36.8793994064965,23200,2018-03-31 05:45:03,1816.3106538219429,45.7000014624,0.0,0.648206020742592,1816.3106538219429,45.7000014624,0.35999970196000003,0.668466021390912,1610,-35.9,97,P-GPS,
0.30753453865465,36.8793994199454,23300,2018-03-31 05:45:03,1816.710653834743,46.1000014752,0.0,0.6461820206778242,1816.710653834743,46.1000014752,0.35999970196000003,0.668466021390912,1604,-35.9,97,P-GPS,
0.307534482884718,36.8793994186066,23400,2018-03-31 05:45:03,1817.2106538507428,46.600001491200004,0.0,0.64069502050224,1817.2106538507428,46.600001491200004,0.35999970196000003,0.668466021390912,1605,-35.9,97,P-GPS,
0.307534428062133,36.8793994082705,23500,2018-03-31 05:45:03,1817.610653863543,47.000001504000004,0.0,0.6348200203142401,1817.610653863543,47.000001504000004,0.35999970196000003,0.668466021390912,1605,-35.9,97,P-GPS,
0.307534391739079,36.8793993977319,23600,2018-03-31 05:45:04,1818.0106538763428,47.4000015168,0.0,0.630728020183296,1818.0106538763428,47.4000015168,0.35999970196000003,0.668466021390912,1610,-35.9,97,P-GPS,
0.307534367870365,36.8793993883895,23700,2018-03-31 05:45:04,1818.4106538891428,47.8000015296,0.0,0.627907020093024,1818.4106538891428,47.8000015296,0.35999970196000003,0.668466021390912,1617,-35.9,97,P-GPS,
0.307534327785402,36.8793993833522,23800,2018-03-31 05:45:04,1818.9106539051427,48.300001545600004,0.0,0.623758019960256,1818.9106539051427,48.300001545600004,0.35999970196000003,0.668466021390912,1615,-35.9,97,P-GPS,
0.307534289996544,36.8793993900952,23900,2018-03-31 05:45:04,1819.310653917943,48.7000015584,0.0,0.6204900198556801,1819.310653917943,48.7000015584,0.35999970196000003,0.668466021390912,1615,-35.9,97,P-GPS,
0.307534271180281,36.8793993705546,24000,2018-03-31 05:45:04,1819.7106539307429,49.1000015712,0.0,0.617591019762912,1819.7106539307429,49.1000015712,0.35999970196000003,0.668466021390912,1598,-35.9,97,P-GPS,
0.307534257623281,36.8793993515481,24100,2018-03-31 05:45:04,1820.210653946743,49.600001587200005,0.0,0.61523001968736,1820.210653946743,49.600001587200005,0.35999970196000003,0.668466021390912,1597,-35.9,97,P-GPS,
0.307534227923109,36.8793993636883,24200,2018-03-31 05:45:04,1820.6106539595428,50.000001600000004,0.0,0.6130450196174401,1820.6106539595428,50.000001600000004,0.35999970196000003,0.668466021390912,1608,-35.9,97,P-GPS,
0.30753419863249,36.8793993760196,24300,2018-03-31 05:45:04,1821.0106539723429,50.4000016128,0.0,0.6109220195495041,1821.0106539723429,50.4000016128,0.35999970196000003,0.668466021390912,1609,-35.9,97,P-GPS,
0.307534091630082,36.8793993797538,24500,2018-03-31 05:45:04,1821.9106540011428,51.300001641600005,0.0,0.600902019228864,1821.9106540011428,51.300001641600005,0.35999970196000003,0.668466021390912,1604,-35.9,97,P-GPS,
0.307534062017438,36.8793993914718,24600,2018-03-31 05:45:05,1822.3106540139427,51.700001654400005,0.0,0.5987570191602241,1822.3106540139427,51.700001654400005,0.35999970196000003,0.668466021390912,1601,-35.9,97,P-GPS,
0.307534040883085,36.8793994079635,24700,2018-03-31 05:45:05,1822.7106540267428,52.1000016672,0.0,0.597707019126624,1822.7106540267428,52.1000016672,0.35999970196000003,0.668466021390912,1610,-35.9,97,P-GPS,
0.30753393530129,36.8793994204281,24900,2018-03-31 05:45:05,1823.610654055543,53.000001696000005,0.0,0.588471018831072,1823.610654055543,53.000001696000005,0.35999970196000003,0.668466021390912,1611,-35.9,97,P-GPS,
0.307533925234249,36.879399360971,25000,2018-03-31 05:45:05,1824.0106540683428,53.400001708800005,0.0,0.584017018688544,1824.0106540683428,53.400001708800005,0.35999970196000003,0.668466021390912,1618,-35.9,97,P-GPS,
0.307533939468478,36.8793993104414,25100,2018-03-31 05:45:05,1824.5106540843428,53.900001724800006,0.0,0.582432018637824,1824.5106540843428,53.900001724800006,0.35999970196000003,0.668466021390912,1627,-35.9,97,P-GPS,
0.307533966680999,36.8793993115393,25200,2018-03-31 05:45:05,1824.9106540971427,54.3000017376,0.0,0.58508501872272,1824.9106540971427,54.3000017376,0.35999970196000003,0.668466021390912,1622,-35.9,97,P-GPS,
0.307533994205366,36.8793993345492,25300,2018-03-31 05:45:05,1825.4106541131428,54.8000017536,0.0,0.589028018848896,1825.4106541131428,54.8000017536,0.35999970196000003,0.668466021390912,1623,-35.9,97,P-GPS,
0.307534019341621,36.8793993221582,25400,2018-03-31 05:45:05,1825.8106541259428,55.20000176640001,0.0,0.590714018902848,1825.8106541259428,55.20000176640001,0.35999970196000003,0.668466021390912,1644,-35.9,97,P-GPS,
0.307534027903165,36.8793992737357,25500,2018-03-31 05:45:05,1826.210654138743,55.6000017792,0.0,0.588791018841312,1826.210654138743,55.6000017792,0.35999970196000003,0.668466021390912,1650,-35.9,97,P-GPS,
0.30753400976067,36.8793992100594,25600,2018-03-31 05:45:06,1826.7106541547428,56.10000179520001,0.0,0.583492018671744,1826.7106541547428,56.10000179520001,0.35999970196000003,0.668466021390912,1652,-35.9,97,P-GPS,
0.307534008415983,36.8793991764791,25700,2018-03-31 05:45:06,1827.1106541675429,56.500001808,0.0,0.5815110186083521,1827.1106541675429,56.500001808,0.35999970196000003,0.668466021390912,1648,-35.9,97,P-GPS,
0.307534012470808,36.8793992044268,25800,2018-03-31 05:45:06,1827.6106541835427,57.000001824,0.0,0.583441018670112,1827.6106541835427,57.000001824,0.35999970196000003,0.668466021390912,1649,-35.9,97,P-GPS,
0.307534019318415,36.8793992478835,25900,2018-03-31 05:45:06,1828.110654199543,57.50000184,0.0,0.586517018768544,1828.110654199543,57.50000184,0.35999970196000003,0.668466021390912,1661,-35.9,97,P-GPS,
0.307534014635418,36.8793993107553,26000,2018-03-31 05:45:06,1828.6106542155428,58.000001856000004,0.0,0.5896150188676801,1828.6106542155428,58.000001856000004,0.35999970196000003,0.668466021390912,1676,-35.9,97,P-GPS,
0.307534013868013,36.8793993619049,26100,2018-03-31 05:45:06,1829.010654228343,58.400001868800004,0.0,0.5924740189591681,1829.010654228343,58.400001868800004,0.35999970196000003,0.668466021390912,1677,-35.9,97,P-GPS,
0.307534004715751,36.8793994245605,26200,2018-03-31 05:45:06,1829.5106542443427,58.900001884800005,0.0,0.595256019048192,1829.5106542443427,58.900001884800005,0.35999970196000003,0.668466021390912,1679,-35.9,97,P-GPS,
0.307534005807623,36.8793994734598,26300,2018-03-31 05:45:06,1830.0106542603428,59.40000190080001,0.0,0.5982490191439681,1830.0106542603428,59.40000190080001,0.35999970196000003,0.668466021390912,1681,-35.9,97,P-GPS,
0.307533973082005,36.8793994745,26400,2018-03-31 05:45:06,1830.5106542763428,59.9000019168,0.0,0.595239019047648,1830.5106542763428,59.9000019168,0.35999970196000003,0.668466021390912,1684,-35.9,97,P-GPS,
0.307533939630101,36.8793994635835,26500,2018-03-31 05:45:06,1831.0106542923427,60.4000019328,0.0,0.591451018926432,1831.0106542923427,60.4000019328,0.35999970196000003,0.668466021390912,1684,-35.9,97,P-GPS,
0.307533919198014,36.8793994911097,26600,2018-03-31 05:45:07,1831.5106543083427,60.9000019488,0.0,0.591199018918368,1831.5106543083427,60.9000019488,0.35999970196000003,0.668466021390912,1682,-35.9,97,P-GPS,
0.307533839778394,36.879399625495,26800,2018-03-31 05:45:07,1832.5106543403429,61.900001980800006,0.0,0.592182018949824,1832.5106543403429,61.900001980800006,0.35999970196000003,0.668466021390912,1684,-35.9,97,P-GPS,
0.30753378852719,36.8793997043361,26900,2018-03-31 05:45:07,1833.0106543563427,62.4000019968,0.0,0.592574018962368,1833.0106543563427,62.4000019968,0.35999970196000003,0.668466021390912,1672,-35.9,97,P-GPS,
0.30753375331046,36.8793997524911,27000,2018-03-31 05:45:07,1833.510654372343,62.9000020128,0.0,0.5925530189616961,1833.510654372343,62.9000020128,0.35999970196000003,0.668466021390912,1664,-35.9,97,P-GPS,
0.307533718924237,36.8793997885122,27100,2018-03-31 05:45:07,1834.0106543883428,63.4000020288,0.0,0.591869018939808,1834.0106543883428,63.4000020288,0.35999970196000003,0.668466021390912,1663,-35.9,97,P-GPS,
0.307533681937795,36.8793998497456,27200,2018-03-31 05:45:07,1834.5106544043429,63.900002044800004,0.0,0.5927150189668801,1834.5106544043429,63.900002044800004,0.35999970196000003,0.668466021390912,1664,-36.0,97,P-GPS,
0.307533644652941,36.8793999075051,27300,2018-03-31 05:45:07,1835.010654420343,64.4000020608,0.0,0.5934000189888,1835.010654420343,64.4000020608,0.35999970196000003,0.668466021390912,1664,-36.0,97,P-GPS,
0.307533626699346,36.8793999638935,27400,2018-03-31 05:45:07,1835.5106544363427,64.9000020768,0.0,0.5957570190642241,1835.5106544363427,64.9000020768,0.35999970196000003,0.668466021390912,1656,-36.1,97,P-GPS,
0.307533608489678,36.8794000144136,27500,2018-03-31 05:45:07,1836.0106544523428,65.40000209280001,0.0,0.597739019127648,1836.0106544523428,65.40000209280001,0.35999970196000003,0.668466021390912,1659,-36.2,97,P-GPS,
0.307533583383957,36.879400059829,27600,2018-03-31 05:45:08,1836.5106544683426,65.90000210880001,0.0,0.598823019162336,1836.5106544683426,65.90000210880001,0.35999970196000003,0.668466021390912,1660,-36.3,97,P-GPS,
0.30753355894142,36.879400126121,27800,2018-03-31 05:45:08,1837.4106544971428,66.8000021376,0.0,0.601528019248896,1837.4106544971428,66.8000021376,0.35999970196000003,0.668466021390912,1657,-36.3,97,P-GPS,
0.307533564073868,36.8794001524723,27900,2018-03-31 05:45:08,1837.9106545131428,67.3000021536,0.0,0.603876019324032,1837.9106545131428,67.3000021536,0.35999970196000003,0.668466021390912,1645,-36.3,97,P-GPS,
0.307533553444607,36.8794001896991,28000,2018-03-31 05:45:08,1838.3106545259427,67.7000021664,0.0,0.605706019382592,1838.3106545259427,67.7000021664,0.35999970196000003,0.668466021390912,1607,-36.3,97,P-GPS,
0.307533546035187,36.8794002117414,28100,2018-03-31 05:45:08,1838.8106545419428,68.2000021824,0.0,0.606708019414656,1838.8106545419428,68.2000021824,0.35999970196000003,0.668466021390912,1572,-36.3,97,P-GPS,
0.307533546710584,36.8794002187728,28200,2018-03-31 05:45:08,1839.3106545579428,68.7000021984,0.0,0.6072830194330561,1839.3106545579428,68.7000021984,0.35999970196000003,0.668466021390912,1544,-36.3,97,P-GPS,
0.3075335505244,36.8794002244481,28300,2018-03-31 05:45:08,1839.8106545739429,69.2000022144,0.0,0.608019019456608,1839.8106545739429,69.2000022144,0.35999970196000003,0.668466021390912,1504,-36.3,97,P-GPS,
0.307533546467946,36.8794002612187,28400,2018-03-31 05:45:08,1840.2106545867427,69.60000222720001,0.0,0.610404019532928,1840.2106545867427,69.60000222720001,0.35999970196000003,0.668466021390912,1482,-36.3,97,P-GPS,
0.307533531023783,36.8794002876937,28500,2018-03-31 05:45:08,1840.6106545995428,70.00000224,0.0,0.6111000195552001,1840.6106545995428,70.00000224,0.35999970196000003,0.668466021390912,1480,-36.3,97,P-GPS,
0.307533518321513,36.8794003031471,28600,2018-03-31 05:45:08,1840.9106546091427,70.30000224960001,0.0,0.6112120195587841,1840.9106546091427,70.30000224960001,0.35999970196000003,0.668466021390912,1477,-36.3,97,P-GPS,
0.307533511231268,36.8794003133794,28700,2018-03-31 05:45:09,1841.3106546219428,70.7000022624,0.0,0.6113990195647679,1841.3106546219428,70.7000022624,0.35999970196000003,0.668466021390912,1433,-36.3,97,P-GPS,
0.307533487191363,36.8794003502618,28800,2018-03-31 05:45:09,1841.610654631543,71.000002272,0.0,0.6122200195910401,1841.610654631543,71.000002272,0.35999970196000003,0.668466021390912,1405,-36.3,97,P-GPS,
0.30753349442084,36.8794003749461,28900,2018-03-31 05:45:09,1841.9106546411429,71.3000022816,0.0,0.614682019669824,1841.9106546411429,71.3000022816,0.35999970196000003,0.668466021390912,1405,-36.3,97,P-GPS,
0.3075335335495,36.8794003467522,29000,2018-03-31 05:45:09,1842.2106546507428,71.6000022912,0.0,0.6157370197035841,1842.2106546507428,71.6000022912,0.35999970196000003,0.668466021390912,1386,-36.3,97,P-GPS,
0.307533576324653,36.8794003161083,29100,2018-03-31 05:45:09,1842.410654657143,71.8000022976,0.0,0.61695501974256,1842.410654657143,71.8000022976,0.35999970196000003,0.668466021390912,1331,-36.3,97,P-GPS,
0.307533600011999,36.8794003228589,29200,2018-03-31 05:45:09,1842.7106546667428,72.1000023072,0.0,0.619414019821248,1842.7106546667428,72.1000023072,0.35999970196000003,0.668466021390912,1292,-36.3,97,P-GPS,
0.307533642891779,36.8794003294664,29300,2018-03-31 05:45:09,1842.9106546731427,72.3000023136,0.0,0.623456019950592,1842.9106546731427,72.3000023136,0.35999970196000003,0.668466021390912,1180,-36.3,97,P-GPS,
0.30753368786981,36.8794003433533,29400,2018-03-31 05:45:09,1843.110654679543,72.50000232,0.0,0.62822002010304,1843.110654679543,72.50000232,0.35999970196000003,0.668466021390912,1119,-36.3,97,P-GPS,
0.307533741966312,36.879400349575,29500,2018-03-31 05:45:10,1843.2106546827429,72.6000023232,0.0,0.63319002026208,1843.2106546827429,72.6000023232,0.35999970196000003,0.668466021390912,1087,-36.3,97,P-GPS,
0.307533805094979,36.8794003562836,29600,2018-03-31 05:45:10,1843.3106546859428,72.7000023264,0.0,0.6389740204471681,1843.3106546859428,72.7000023264,0.35999970196000003,0.668466021390912,1032,-36.3,97,P-GPS,
0.307533871651114,36.8794003620424,29700,2018-03-31 05:45:10,1843.4106546891426,72.8000023296,0.0,0.6450050206401601,1843.4106546891426,72.8000023296,0.35999970196000003,0.668466021390912,1024,-36.3,97,P-GPS,
0.307533952082812,36.8794003747255,29800,2018-03-31 05:45:10,1843.4106546891426,72.8000023296,0.0,0.652741020887712,1843.4106546891426,72.8000023296,0.35999970196000003,0.668466021390912,1024,-36.3,97,P-GPS,
0.307534051956911,36.8794003869681,29900,2018-03-31 05:45:10,1843.4106546891426,72.8000023296,0.0,0.662146021188672,1843.4106546891426,72.8000023296,0.35999970196000003,0.668466021390912,1024,-36.3,97,P-GPS,
0.307534155808077,36.87940039448,30000,2018-03-31 05:45:10,1843.4106546891426,72.8000023296,0.0,0.6716180214917761,1843.4106546891426,72.8000023296,0.35999970196000003,0.6716180214917761,1024,-36.3,97,P-GPS,
0.307534284242845,36.8794003968678,30100,2018-03-31 05:45:10,1843.4106546891426,72.8000023296,0.0,0.682946021854272,1843.4106546891426,72.8000023296,0.35999970196000003,0.682946021854272,1024,-36.3,97,P-GPS,
0.30753446501682,36.8794003977982,30200,2018-03-31 05:45:10,1843.4106546891426,72.8000023296,0.0,0.698911022365152,1843.4106546891426,72.8000023296,0.35999970196000003,0.698911022365152,1024,-36.3,97,P-GPS,
