latitude,longitude,time_millisecond,datetime_utc,altitude_m,ascent_m,speed_kph,distance_m,max_altitude_m,max_ascent_m,max_speed_kph,max_distance_m,rc_throttle,gimbal_pitch_degrees,battery_percent,flycState,message
0.339158783600354,36.9100267976969,0,2018-04-06 07:01:54,1646.2723915807223,0.0,0.0,0.0,1646.2723915807223,0.0,0.0,0.0,364,0.0,98,P-GPS,
0.339158772386888,36.9100268080337,100,2018-04-06 07:01:54,1646.2723915807223,0.0,0.0,0.0016959800542713601,1646.2723915807223,0.0,0.0,0.0016959800542713601,364,0.0,98,Motors_Started,
0.339158760489476,36.9100268293775,200,2018-04-06 07:01:54,1646.2723915807223,0.0,0.0,0.0043608401395468805,1646.2723915807223,0.0,0.0,0.0043608401395468805,364,0.0,98,Motors_Started,
0.339158752707143,36.9100268622508,300,2018-04-06 07:01:54,1646.2723915807223,0.0,0.0,0.00795839025466848,1646.2723915807223,0.0,0.0,0.00795839025466848,364,0.0,98,Motors_Started,
0.339158745703205,36.9100269094971,400,2018-04-06 07:01:54,1646.2723915807223,0.0,0.0,0.013127500420080002,1646.2723915807223,0.0,0.0,0.013127500420080002,364,0.0,98,Motors_Started,
0.339158741257553,36.9100269571385,500,2018-04-06 07:01:55,1646.2723915807223,0.0,0.0,0.0183452005870464,1646.2723915807223,0.0,0.0,0.0183452005870464,364,0.0,98,Motors_Started,Setting new Return-To-Home altitude to 45m (148 ft). Setting new Maximum Flight Altitude to 150m (492 ft)
0.339158738293785,36.9100270069168,600,2018-04-06 07:01:55,1646.2723915807223,0.0,0.0,0.023805400761772802,1646.2723915807223,0.0,0.0,0.023805400761772802,364,0.0,98,Motors_Started,
0.33915873537887,36.9100270327668,700,2018-04-06 07:01:55,1646.2723915807223,0.0,0.0,0.026685100853923203,1646.2723915807223,0.0,0.0,0.026685100853923203,364,0.0,98,Motors_Started,
0.339158719823973,36.9100270686464,800,2018-04-06 07:01:55,1646.2723915807223,0.0,0.0,0.030954200990534402,1646.2723915807223,0.0,0.0,0.030954200990534402,364,0.0,98,Motors_Started,
0.339158688274499,36.910027108726,900,2018-04-06 07:01:55,1646.2723915807223,0.0,0.0,0.0361758011576256,1646.2723915807223,0.0,0.0,0.0361758011576256,364,0.0,98,Motors_Started,
0.339158655646995,36.9100271460199,1000,2018-04-06 07:01:55,1646.2723915807223,0.0,0.0,0.041265801320505606,1646.2723915807223,0.0,0.0,0.041265801320505606,364,0.0,98,Motors_Started,
0.339158636068213,36.9100271667534,1100,2018-04-06 07:01:55,1646.2723915807223,0.0,0.0,0.044198501414352005,1646.2723915807223,0.0,0.0,0.044198501414352005,364,0.0,98,Motors_Started,
0.339158620539371,36.9100271956194,1200,2018-04-06 07:01:55,1646.2723915807223,0.0,0.0,0.047821901530300796,1646.2723915807223,0.0,0.0,0.047821901530300796,364,0.0,98,Motors_Started,
0.339158609154919,36.9100272314733,1300,2018-04-06 07:01:55,1646.2723915807223,0.0,0.0,0.05199250166376,1646.2723915807223,0.0,0.0,0.05199250166376,364,0.0,98,Motors_Started,
0.33915860451711,36.9100272639665,1400,2018-04-06 07:01:56,1646.2723915807223,0.0,0.0,0.0555441017774112,1646.2723915807223,0.0,0.0,0.0555441017774112,364,0.0,98,Motors_Started,
0.339158600296183,36.9100272821124,1500,2018-04-06 07:01:56,1646.2723915807223,0.0,0.0,0.0575969018431008,1646.2723915807223,0.0,0.0,0.0575969018431008,425,0.0,98,Motors_Started,
0.339158585519683,36.9100272923261,1600,2018-04-06 07:01:56,1646.2723915807223,0.0,0.0,0.0592516018960512,1646.2723915807223,0.0,0.0,0.0592516018960512,824,0.0,98,Assisted_Takeoff,
0.33915855479583,36.9100272950015,1700,2018-04-06 07:01:56,1646.2723915807223,0.0,0.0,0.060875001948,1646.2723915807223,0.0,0.0,0.060875001948,1004,0.0,98,Assisted_Takeoff,
0.339158526190583,36.9100273058116,1800,2018-04-06 07:01:56,1646.2723915807223,0.0,0.0,0.0633417020269344,1646.2723915807223,0.0,0.0,0.0633417020269344,1024,0.0,98,Assisted_Takeoff,
0.339158507834762,36.9100273309218,1900,2018-04-06 07:01:56,1646.2723915807223,0.0,0.0,0.06675750213624,1646.2723915807223,0.0,0.0,0.06675750213624,1024,0.0,98,Assisted_Takeoff,
0.339158495740308,36.9100273531521,2000,2018-04-06 07:01:56,1646.2723915807223,0.0,0.0,0.0695712022262784,1646.2723915807223,0.0,0.0,0.0695712022262784,1024,0.0,98,Assisted_Takeoff,
0.339158486883201,36.9100273640124,2100,2018-04-06 07:01:56,1646.2723915807223,0.0,0.0,0.07109740227511681,1646.2723915807223,0.0,0.0,0.07109740227511681,1024,0.0,98,Assisted_Takeoff,
0.339158485634185,36.9100273703333,2200,2018-04-06 07:01:56,1646.2723915807223,0.0,0.0,0.0717848022971136,1646.2723915807223,0.0,0.0,0.0717848022971136,1024,0.0,98,Assisted_Takeoff,
0.339158483434157,36.9100273728568,2300,2018-04-06 07:01:56,1646.2723915807223,0.0,0.0,0.07214670230869441,1646.2723915807223,0.0,0.0,0.07214670230869441,1024,0.0,98,Assisted_Takeoff,
0.339158488594696,36.9100273684801,2400,2018-04-06 07:01:56,1646.2723915807223,0.0,0.0,0.0714503022864096,1646.2723915807223,0.0,0.0,0.07214670230869441,1024,0.0,98,Assisted_Takeoff,
0.339158491366308,36.9100273656655,2500,2018-04-06 07:01:57,1646.2723915807223,0.0,0.0,0.0710308022729856,1646.2723915807223,0.0,0.0,0.07214670230869441,1025,0.0,98,Assisted_Takeoff,
0.339158500462796,36.9100273721352,2600,2018-04-06 07:01:57,1646.2723915807223,0.0,0.0,0.0712183022789856,1646.2723915807223,0.0,0.0,0.07214670230869441,1026,0.0,98,Assisted_Takeoff,
0.339158504366176,36.9100273977915,2700,2018-04-06 07:01:57,1646.2723915807223,0.0,0.0,0.073604002355328,1646.2723915807223,0.0,0.0,0.073604002355328,1026,0.0,98,Assisted_Takeoff,
0.339158512288556,36.910027420753,2800,2018-04-06 07:01:57,1646.2723915807223,0.0,0.0,0.0755707024182624,1646.2723915807223,0.0,0.0,0.0755707024182624,1034,0.0,98,Assisted_Takeoff,
0.339158516480171,36.9100274346678,2900,2018-04-06 07:01:57,1646.2723915807223,0.0,0.0,0.0768104024579328,1646.2723915807223,0.0,0.0,0.0768104024579328,1034,0.0,98,Assisted_Takeoff,
0.339158524886199,36.9100274444768,3000,2018-04-06 07:01:57,1646.2723915807223,0.0,0.0,0.0774654024788928,1646.2723915807223,0.0,0.0,0.0774654024788928,1107,0.0,98,Assisted_Takeoff,
0.339158529330223,36.9100274500343,3100,2018-04-06 07:01:57,1646.2723915807223,0.0,0.0,0.0778588024914816,1646.2723915807223,0.0,0.0,0.0778588024914816,1158,0.0,98,Assisted_Takeoff,
0.339158521676536,36.9100274662424,3200,2018-04-06 07:01:57,1646.2723915807223,0.0,0.0,0.0798473025551136,1646.2723915807223,0.0,0.0,0.0798473025551136,1158,0.0,98,Assisted_Takeoff,
0.33915849537228,36.910027498014,3300,2018-04-06 07:01:57,1646.2723915807223,0.0,0.0,0.0842163026949216,1646.2723915807223,0.0,0.0,0.0842163026949216,1257,0.0,98,Assisted_Takeoff,
0.33915846726208,36.9100275272879,3400,2018-04-06 07:01:58,1646.2723915807223,0.0,0.0,0.0884319028298208,1646.2723915807223,0.0,0.0,0.0884319028298208,1257,0.0,98,Assisted_Takeoff,
0.339158451977504,36.9100275477195,3500,2018-04-06 07:01:58,1646.2723915807223,0.0,0.0,0.09119500291824001,1646.2723915807223,0.0,0.0,0.09119500291824001,1684,0.0,98,Assisted_Takeoff,
0.339158445955518,36.9100275649918,3600,2018-04-06 07:01:58,1646.2723915807223,0.0,0.0,0.09322260298312321,1646.2723915807223,0.0,0.0,0.09322260298312321,1684,0.0,98,Assisted_Takeoff,
0.339158484701086,36.910027602518,3700,2018-04-06 07:01:58,1646.2723915807223,0.0,0.0,0.0954726030551232,1646.2723915807223,0.0,0.0,0.0954726030551232,1684,0.0,98,Assisted_Takeoff,
0.339158592704378,36.9100277078795,3800,2018-04-06 07:01:58,1646.2723915807223,0.0,0.503999582744,0.103418003309376,1646.2723915807223,0.0,0.503999582744,0.103418003309376,1684,0.0,98,P-GPS,
0.339158753713521,36.9100279329477,3900,2018-04-06 07:01:58,1646.2723915807223,0.0,0.503999582744,0.126288004041216,1646.2723915807223,0.0,0.503999582744,0.126288004041216,1684,0.0,98,P-GPS,
0.339158939751848,36.9100282762849,4000,2018-04-06 07:01:58,1646.2723915807223,0.0,1.151999046272,0.16534000529088,1646.2723915807223,0.0,1.151999046272,0.16534000529088,1684,0.0,98,P-GPS,
0.339159101848792,36.9100286870591,4100,2018-04-06 07:01:58,1646.3723915839223,0.1000000032,1.151999046272,0.21306500681808002,1646.3723915839223,0.1000000032,1.151999046272,0.21306500681808002,1684,0.0,98,P-GPS,
0.339159241606741,36.9100291254562,4200,2018-04-06 07:01:58,1646.5723915903225,0.3000000096,1.151999046272,0.26382000844224,1646.5723915903225,0.3000000096,1.151999046272,0.26382000844224,1684,0.0,98,P-GPS,
0.339159346921472,36.9100295619659,4300,2018-04-06 07:01:58,1646.6723915935222,0.4000000128,1.151999046272,0.313716010038912,1646.6723915935222,0.4000000128,1.151999046272,0.313716010038912,1684,0.0,98,P-GPS,
0.339159450832483,36.9100300190518,4400,2018-04-06 07:01:58,1646.9723916031223,0.7000000224,1.151999046272,0.365832011706624,1646.9723916031223,0.7000000224,1.151999046272,0.365832011706624,1684,0.0,98,P-GPS,
0.339159554867256,36.910030412694,4500,2018-04-06 07:01:59,1647.1723916095223,0.9000000288000001,0.7199994039200001,0.411051013153632,1647.1723916095223,0.9000000288000001,1.151999046272,0.411051013153632,1684,0.0,98,P-GPS,
0.339159642308185,36.9100307092334,4600,2018-04-06 07:01:59,1647.4723916191224,1.2000000384,0.503999582744,0.445338014250816,1647.4723916191224,1.2000000384,1.151999046272,0.445338014250816,1684,0.0,98,P-GPS,Home Point Recorded. RTH Altitude:  45m.
0.339159719960537,36.910030893039,4700,2018-04-06 07:01:59,1647.8723916319223,1.6000000512,0.503999582744,0.467172014949504,1647.8723916319223,1.6000000512,1.151999046272,0.467172014949504,1684,0.0,98,P-GPS,
0.339159802946043,36.9100310409596,4800,2018-04-06 07:01:59,1648.2723916447223,2.000000064,0.35999970196000003,0.48529301552937604,1648.2723916447223,2.000000064,1.151999046272,0.48529301552937604,1684,0.0,98,P-GPS,
0.339159877520636,36.9100311693437,4900,2018-04-06 07:01:59,1648.7723916607222,2.50000008,0.35999970196000003,0.50113501603632,1648.7723916607222,2.50000008,1.151999046272,0.50113501603632,1684,0.0,98,P-GPS,
0.339159949538572,36.9100313006163,5000,2018-04-06 07:01:59,1649.2723916767225,3.0000000960000004,0.35999970196000003,0.517258016552256,1649.2723916767225,3.0000000960000004,1.151999046272,0.517258016552256,1684,0.0,98,P-GPS,
0.339160013925619,36.9100314562797,5100,2018-04-06 07:01:59,1649.7723916927223,3.500000112,0.35999970196000003,0.535816017146112,1649.7723916927223,3.500000112,1.151999046272,0.535816017146112,1684,0.0,98,P-GPS,
0.339160106220939,36.9100316034349,5200,2018-04-06 07:01:59,1650.2723917087221,4.000000128,0.35999970196000003,0.554289017737248,1650.2723917087221,4.000000128,1.151999046272,0.554289017737248,1684,0.0,98,P-GPS,
0.339160192855789,36.9100317347899,5300,2018-04-06 07:01:59,1650.7723917247222,4.500000144,0.0,0.57095501827056,1650.7723917247222,4.500000144,1.151999046272,0.57095501827056,1684,0.0,98,P-GPS,
0.339160271113922,36.9100318602811,5400,2018-04-06 07:02:00,1651.2723917407222,5.00000016,0.0,0.58678001877696,1651.2723917407222,5.00000016,1.151999046272,0.58678001877696,1684,0.0,98,P-GPS,
0.339160335354409,36.9100319814771,5500,2018-04-06 07:02:00,1651.7723917567223,5.5000001759999995,0.0,0.6017330192554561,1651.7723917567223,5.5000001759999995,1.151999046272,0.6017330192554561,1684,0.0,98,P-GPS,
0.339160422529901,36.9100321048389,5600,2018-04-06 07:02:00,1652.2723917727221,6.000000192000001,0.0,0.617678019765696,1652.2723917727221,6.000000192000001,1.151999046272,0.617678019765696,1684,0.0,98,P-GPS,
0.339160502098932,36.9100322434688,5700,2018-04-06 07:02:00,1652.7723917887224,6.500000208,0.0,0.635031020320992,1652.7723917887224,6.500000208,1.151999046272,0.635031020320992,1684,0.0,98,P-GPS,
0.339160579972752,36.910032372689,5800,2018-04-06 07:02:00,1653.2723918047222,7.000000224,0.0,0.651353020843296,1653.2723918047222,7.000000224,1.151999046272,0.651353020843296,1684,0.0,98,P-GPS,
0.339160630151626,36.910032472995,5900,2018-04-06 07:02:00,1653.672391817522,7.4000002368,0.0,0.6636840212378879,1653.672391817522,7.4000002368,1.151999046272,0.6636840212378879,1684,0.0,98,P-GPS,
0.339160634432805,36.9100325584902,6000,2018-04-06 07:02:00,1654.1723918335222,7.9000002528,0.0,0.6728760215320321,1654.1723918335222,7.9000002528,1.151999046272,0.6728760215320321,1684,0.0,98,P-GPS,
0.339160593736361,36.9100326508266,6100,2018-04-06 07:02:00,1654.6723918495222,8.400000268800001,0.0,0.681309021801888,1654.6723918495222,8.400000268800001,1.151999046272,0.681309021801888,1684,0.0,98,P-GPS,
0.339160531974366,36.9100327329044,6200,2018-04-06 07:02:00,1655.1723918655223,8.9000002848,0.0,0.6880620220179839,1655.1723918655223,8.9000002848,1.151999046272,0.6880620220179839,1684,0.0,98,P-GPS,
0.339160489230967,36.9100328044901,6300,2018-04-06 07:02:00,1655.5723918783222,9.3000002976,0.0,0.694388022220416,1655.5723918783222,9.3000002976,1.151999046272,0.694388022220416,1684,0.0,98,P-GPS,
0.339160447388099,36.9100328758124,6400,2018-04-06 07:02:00,1656.0723918943222,9.8000003136,0.0,0.7007780224248961,1656.0723918943222,9.8000003136,1.151999046272,0.7007780224248961,1684,0.0,98,P-GPS,
0.339160382315477,36.9100329527769,6500,2018-04-06 07:02:01,1656.5723919103223,10.3000003296,0.0,0.707183022629856,1656.5723919103223,10.3000003296,1.151999046272,0.707183022629856,1684,0.0,98,P-GPS,
0.339160283299568,36.9100330354071,6600,2018-04-06 07:02:01,1656.9723919231224,10.700000342400001,0.0,0.713426022829632,1656.9723919231224,10.700000342400001,1.151999046272,0.713426022829632,1684,0.0,98,P-GPS,
0.339160182581935,36.9100331258999,6700,2018-04-06 07:02:01,1657.4723919391222,11.2000003584,0.0,0.7207140230628482,1657.4723919391222,11.2000003584,1.151999046272,0.7207140230628482,1684,0.0,98,P-GPS,
0.339160076355277,36.9100332145834,6800,2018-04-06 07:02:01,1657.9723919551222,11.7000003744,0.0,0.727922023293504,1657.9723919551222,11.7000003744,1.151999046272,0.727922023293504,1684,0.0,98,P-GPS,
0.339159979510084,36.9100333024467,6900,2018-04-06 07:02:01,1658.4723919711223,12.200000390400001,0.0,0.735479023535328,1658.4723919711223,12.200000390400001,1.151999046272,0.735479023535328,1684,0.0,98,P-GPS,
0.339159869145549,36.9100333820963,7000,2018-04-06 07:02:01,1658.8723919839224,12.6000004032,0.0,0.7420970237471041,1658.8723919839224,12.6000004032,1.151999046272,0.7420970237471041,1684,0.0,98,P-GPS,
0.339159768180392,36.9100334343874,7100,2018-04-06 07:02:01,1659.3723919999222,13.100000419200002,0.0,0.74610502387536,1659.3723919999222,13.100000419200002,1.151999046272,0.74610502387536,1684,0.0,98,P-GPS,
0.339159692964193,36.9100334766896,7200,2018-04-06 07:02:01,1659.872392015922,13.600000435200002,0.0,0.74958502398672,1659.872392015922,13.600000435200002,1.151999046272,0.74958502398672,1684,0.0,98,P-GPS,
0.339159620345361,36.9100335038918,7300,2018-04-06 07:02:01,1660.3723920319223,14.100000451200001,0.0,0.751539024049248,1660.3723920319223,14.100000451200001,1.151999046272,0.751539024049248,1684,0.0,98,P-GPS,
0.339159533002139,36.910033552076,7400,2018-04-06 07:02:02,1660.8723920479222,14.600000467200001,0.0,0.7557240241831681,1660.8723920479222,14.600000467200001,1.151999046272,0.7557240241831681,1684,0.0,98,P-GPS,
0.339159425751189,36.9100336332973,7500,2018-04-06 07:02:02,1661.3723920639222,15.1000004832,0.0,0.763494024431808,1661.3723920639222,15.1000004832,1.151999046272,0.763494024431808,1684,0.0,98,P-GPS,
0.33915932240199,36.9100337154157,7600,2018-04-06 07:02:02,1661.9723920831223,15.700000502400002,0.0,0.771609024691488,1661.9723920831223,15.700000502400002,1.151999046272,0.771609024691488,1684,0.0,98,P-GPS,
0.339159242959978,36.9100337945578,7700,2018-04-06 07:02:02,1662.4723920991223,16.2000005184,0.0,0.7797550249521601,1662.4723920991223,16.2000005184,1.151999046272,0.7797550249521601,1684,0.0,98,P-GPS,
0.339159174496936,36.9100338704238,7800,2018-04-06 07:02:02,1663.0723921183223,16.800000537600003,0.0,0.7877170252069441,1663.0723921183223,16.800000537600003,1.151999046272,0.7877170252069441,1684,0.0,98,P-GPS,
0.339159101954641,36.9100339122271,7900,2018-04-06 07:02:02,1663.5723921343222,17.3000005536,0.0,0.791957025342624,1663.5723921343222,17.3000005536,1.151999046272,0.791957025342624,1684,0.0,98,P-GPS,
0.339158997789593,36.9100339404293,8000,2018-04-06 07:02:02,1664.1723921535222,17.9000005728,0.0,0.794659025429088,1664.1723921535222,17.9000005728,1.151999046272,0.794659025429088,1684,0.0,98,P-GPS,
0.339158874750878,36.9100339675116,8100,2018-04-06 07:02:02,1664.6723921695223,18.4000005888,0.0,0.797378025516096,1664.6723921695223,18.4000005888,1.151999046272,0.797378025516096,1684,0.0,98,P-GPS,
0.339158753374805,36.9100339798066,8200,2018-04-06 07:02:02,1665.272392188722,19.000000608,0.0,0.798687025557984,1665.272392188722,19.000000608,1.151999046272,0.798687025557984,1684,0.0,98,P-GPS,
0.339158673864398,36.9100339832626,8300,2018-04-06 07:02:02,1665.7723922047223,19.500000624000002,0.0,0.799158025573056,1665.7723922047223,19.500000624000002,1.151999046272,0.799158025573056,1684,0.0,98,P-GPS,
0.339158643787037,36.9100340036942,8400,2018-04-06 07:02:02,1666.3723922239221,20.1000006432,0.0,0.801488025647616,1666.3723922239221,20.1000006432,1.151999046272,0.801488025647616,1684,0.0,98,P-GPS,
0.339158651302306,36.9100340366478,8500,2018-04-06 07:02:03,1666.8723922399224,20.6000006592,0.0,0.8051360257643521,1666.8723922399224,20.6000006592,1.151999046272,0.8051360257643521,1684,0.0,98,P-GPS,
0.339158653269467,36.9100340508699,8600,2018-04-06 07:02:03,1667.4723922591222,21.200000678400002,0.0,0.806713025814816,1667.4723922591222,21.200000678400002,1.151999046272,0.806713025814816,1684,0.0,98,P-GPS,
0.339158637483331,36.9100340327893,8700,2018-04-06 07:02:03,1667.972392275122,21.7000006944,0.0,0.8047360257515521,1667.972392275122,21.7000006944,1.151999046272,0.806713025814816,1684,0.0,98,P-GPS,
0.339158633060477,36.9100340052273,8800,2018-04-06 07:02:03,1668.4723922911223,22.2000007104,0.0,0.8016820256538241,1668.4723922911223,22.2000007104,1.151999046272,0.806713025814816,1684,0.0,98,P-GPS,
0.339158645467592,36.9100339762136,8900,2018-04-06 07:02:03,1669.0723923103221,22.8000007296,0.0,0.798429025549728,1669.0723923103221,22.8000007296,1.151999046272,0.806713025814816,1684,0.0,98,P-GPS,
0.3391586584984,36.9100339415385,9000,2018-04-06 07:02:03,1669.5723923263224,23.300000745600002,0.0,0.7945470254255041,1669.5723923263224,23.300000745600002,1.151999046272,0.806713025814816,1684,0.0,98,P-GPS,
0.339158657241242,36.9100339051311,9100,2018-04-06 07:02:03,1670.0723923423222,23.8000007616,0.0,0.790501025296032,1670.0723923423222,23.8000007616,1.151999046272,0.806713025814816,1684,0.0,98,P-GPS,
0.339158652837929,36.9100338690235,9200,2018-04-06 07:02:03,1670.572392358322,24.3000007776,0.0,0.7864950251678401,1670.572392358322,24.3000007776,1.151999046272,0.806713025814816,1684,0.0,98,P-GPS,
0.339158658778493,36.9100338537608,9300,2018-04-06 07:02:03,1671.1723923775223,24.9000007968,0.0,0.784786025113152,1671.1723923775223,24.9000007968,1.151999046272,0.806713025814816,1684,0.0,98,P-GPS,
0.339158668510074,36.9100338362862,9400,2018-04-06 07:02:04,1671.6723923935222,25.400000812800002,0.0,0.7828250250504,1671.6723923935222,25.400000812800002,1.151999046272,0.806713025814816,1684,0.0,98,P-GPS,
0.339158691453222,36.9100338136041,9500,2018-04-06 07:02:04,1672.1723924095222,25.9000008288,0.0,0.78026502496848,1672.1723924095222,25.9000008288,1.151999046272,0.806713025814816,1684,0.0,98,P-GPS,
0.339158708097548,36.9100337935429,9600,2018-04-06 07:02:04,1672.6723924255223,26.4000008448,0.0,0.7780120248963841,1672.6723924255223,26.4000008448,1.151999046272,0.806713025814816,1684,0.0,98,P-GPS,
0.339158716637108,36.9100337820808,9700,2018-04-06 07:02:04,1673.272392444722,27.000000864,0.0,0.776728024855296,1673.272392444722,27.000000864,1.151999046272,0.806713025814816,1684,0.0,98,P-GPS,
0.339158737658692,36.9100337594159,9800,2018-04-06 07:02:04,1673.7723924607224,27.50000088,0.0,0.774189024774048,1673.7723924607224,27.50000088,1.151999046272,0.806713025814816,1684,0.0,98,P-GPS,
0.339158773440492,36.9100337274837,9900,2018-04-06 07:02:04,1674.2723924767222,28.000000896,0.0,0.770622024659904,1674.2723924767222,28.000000896,1.151999046272,0.806713025814816,1684,0.0,98,P-GPS,
0.339158835138978,36.9100336884383,10100,2018-04-06 07:02:04,1675.272392508722,29.000000928000002,0.0,0.7663000245216001,1675.272392508722,29.000000928000002,1.151999046272,0.806713025814816,1684,0.0,98,P-GPS,
0.339158863128673,36.9100336708438,10200,2018-04-06 07:02:04,1675.8723925279223,29.6000009472,0.0,0.764374024459968,1675.8723925279223,29.6000009472,1.151999046272,0.806713025814816,1684,0.0,98,P-GPS,
0.339158904215944,36.9100336539858,10300,2018-04-06 07:02:04,1676.3723925439222,30.1000009632,0.0,0.7625660244021121,1676.3723925439222,30.1000009632,1.151999046272,0.806713025814816,1684,0.0,98,P-GPS,
0.339158947221521,36.9100336403697,10400,2018-04-06 07:02:04,1676.8723925599224,30.6000009792,0.0,0.761151024356832,1676.8723925599224,30.6000009792,1.151999046272,0.806713025814816,1684,0.0,98,P-GPS,
0.339158999050008,36.9100336428793,10500,2018-04-06 07:02:05,1677.3723925759223,31.100000995200002,0.0,0.76159002437088,1677.3723925759223,31.100000995200002,1.151999046272,0.806713025814816,1684,0.0,98,P-GPS,
0.339159051630836,36.9100336373849,10600,2018-04-06 07:02:05,1677.872392591922,31.6000010112,0.0,0.76118502435792,1677.872392591922,31.6000010112,1.151999046272,0.806713025814816,1684,0.0,98,P-GPS,
0.339159136225245,36.9100335965494,10800,2018-04-06 07:02:05,1678.8723926239222,32.6000010432,0.0,0.7570770242264641,1678.8723926239222,32.6000010432,1.151999046272,0.806713025814816,1684,0.0,98,P-GPS,
0.339159171839315,36.9100335747795,10900,2018-04-06 07:02:05,1679.3723926399223,33.100001059200004,0.0,0.754875024156,1679.3723926399223,33.100001059200004,1.151999046272,0.806713025814816,1684,0.0,98,P-GPS,
0.339159211978831,36.9100335458129,11000,2018-04-06 07:02:05,1679.8723926559223,33.600001075200005,0.0,0.751929024061728,1679.8723926559223,33.600001075200005,1.151999046272,0.806713025814816,1684,0.0,98,P-GPS,
0.339159252960253,36.9100335320576,11100,2018-04-06 07:02:05,1680.4723926751221,34.2000010944,0.0,0.750706024022592,1680.4723926751221,34.2000010944,1.151999046272,0.806713025814816,1684,0.0,98,P-GPS,
0.339159286592507,36.9100335024765,11200,2018-04-06 07:02:05,1680.9723926911222,34.7000011104,0.0,0.7476950239262401,1680.9723926911222,34.7000011104,1.151999046272,0.806713025814816,1684,0.0,98,P-GPS,
0.339159304143876,36.9100334639128,11300,2018-04-06 07:02:05,1681.4723927071223,35.200001126400004,0.0,0.743568023794176,1681.4723927071223,35.200001126400004,1.151999046272,0.806713025814816,1684,0.0,98,P-GPS,
0.339159329821181,36.910033425103,11400,2018-04-06 07:02:06,1681.9723927231223,35.700001142400005,0.0,0.7394940236638081,1681.9723927231223,35.700001142400005,1.151999046272,0.806713025814816,1684,0.0,98,P-GPS,
0.339159373867334,36.9100334135596,11500,2018-04-06 07:02:06,1682.4723927391221,36.2000011584,0.0,0.738634023636288,1682.4723927391221,36.2000011584,1.151999046272,0.806713025814816,1684,0.0,98,P-GPS,
0.339159424967907,36.910033390612,11600,2018-04-06 07:02:06,1682.9723927551224,36.7000011744,0.0,0.736621023571872,1682.9723927551224,36.7000011744,1.151999046272,0.806713025814816,1684,0.0,98,P-GPS,
0.339159478323875,36.9100333524809,11700,2018-04-06 07:02:06,1683.4723927711223,37.2000011904,0.0,0.733002023456064,1683.4723927711223,37.2000011904,1.151999046272,0.806713025814816,1684,0.0,98,P-GPS,
0.339159529378851,36.9100333086028,11800,2018-04-06 07:02:06,1684.072392790322,37.800001209600005,0.0,0.728774023320768,1684.072392790322,37.800001209600005,1.151999046272,0.806713025814816,1684,0.0,98,P-GPS,
0.339159569147082,36.9100332896443,11900,2018-04-06 07:02:06,1684.5723928063223,38.3000012256,0.0,0.727198023270336,1684.5723928063223,38.3000012256,1.151999046272,0.806713025814816,1684,0.0,98,P-GPS,
0.339159606505215,36.9100332776148,12000,2018-04-06 07:02:06,1685.0723928223222,38.8000012416,0.0,0.7263810232441921,1685.0723928223222,38.8000012416,1.151999046272,0.806713025814816,1684,0.0,98,P-GPS,
0.339159630329351,36.9100332715209,12100,2018-04-06 07:02:06,1685.5723928383222,39.3000012576,0.0,0.726048023233536,1685.5723928383222,39.3000012576,1.151999046272,0.806713025814816,1684,0.0,98,P-GPS,
0.339159635577826,36.9100332609989,12200,2018-04-06 07:02:06,1686.0723928543223,39.800001273599996,0.0,0.7249640231988481,1686.0723928543223,39.800001273599996,1.151999046272,0.806713025814816,1684,0.0,98,P-GPS,
0.339159617094987,36.9100332537315,12300,2018-04-06 07:02:06,1686.5723928703223,40.3000012896,0.0,0.7238970231647041,1686.5723928703223,40.3000012896,1.151999046272,0.806713025814816,1684,0.0,98,P-GPS,
0.339159581469517,36.910033234606,12400,2018-04-06 07:02:06,1687.0723928863222,40.8000013056,0.0,0.7212890230812481,1687.0723928863222,40.8000013056,1.151999046272,0.806713025814816,1684,0.0,98,P-GPS,
0.339159546252788,36.9100332197095,12500,2018-04-06 07:02:07,1687.5723929023225,41.30000132160001,0.0,0.719173023013536,1687.5723929023225,41.30000132160001,1.151999046272,0.806713025814816,1684,0.0,98,P-GPS,
0.339159517844582,36.9100332092303,12600,2018-04-06 07:02:07,1688.0723929183223,41.80000133760001,0.0,0.7176490229647681,1688.0723929183223,41.80000133760001,1.151999046272,0.806713025814816,1684,0.0,98,P-GPS,
0.339159502180579,36.910033210151,12700,2018-04-06 07:02:07,1688.5723929343221,42.300001353599995,0.0,0.71755502296176,1688.5723929343221,42.300001353599995,1.151999046272,0.806713025814816,1684,0.0,98,P-GPS,
0.339159500185735,36.9100332149217,12800,2018-04-06 07:02:07,1689.1723929535224,42.900001372800006,0.0,0.718058022977856,1689.1723929535224,42.900001372800006,1.151999046272,0.806713025814816,1684,0.0,98,P-GPS,
0.339159502380878,36.9100332236279,12900,2018-04-06 07:02:07,1689.6723929695222,43.4000013888,0.0,0.7190470230095041,1689.6723929695222,43.4000013888,1.151999046272,0.806713025814816,1684,0.0,98,P-GPS,
0.339159500742663,36.9100332292251,13000,2018-04-06 07:02:07,1690.172392985522,43.9000014048,0.0,0.7196450230286401,1690.172392985522,43.9000014048,1.151999046272,0.806713025814816,1684,0.0,98,P-GPS,
0.339159480732343,36.9100332304242,13100,2018-04-06 07:02:07,1690.6723930015223,44.4000014208,0.0,0.7195350230251201,1690.6723930015223,44.4000014208,1.151999046272,0.806713025814816,1684,0.0,98,P-GPS,
0.339159441949321,36.9100332212769,13200,2018-04-06 07:02:07,1691.1723930175222,44.900001436800004,0.0,0.718071022978272,1691.1723930175222,44.900001436800004,1.151999046272,0.806713025814816,1684,0.0,98,P-GPS,
0.339159379490352,36.9100331995926,13300,2018-04-06 07:02:07,1691.6723930335222,45.4000014528,0.0,0.71499502287984,1691.6723930335222,45.4000014528,1.151999046272,0.806713025814816,1684,0.0,98,P-GPS,
0.339159325137776,36.9100331579392,13400,2018-04-06 07:02:08,1692.1723930495223,45.9000014688,0.0,0.70984502271504,1692.1723930495223,45.9000014688,1.151999046272,0.806713025814816,1684,0.0,98,P-GPS,
0.339159291733505,36.9100331081726,13500,2018-04-06 07:02:08,1692.6723930655223,46.4000014848,0.0,0.704022022528704,1692.6723930655223,46.4000014848,1.151999046272,0.806713025814816,1684,0.0,98,P-GPS,
0.339159274452457,36.9100330633909,13600,2018-04-06 07:02:08,1693.1723930815222,46.9000015008,0.0,0.6989060223649921,1693.1723930815222,46.9000015008,1.151999046272,0.806713025814816,1684,0.0,98,P-GPS,
0.339159256787096,36.9100330452397,13700,2018-04-06 07:02:08,1693.7723931007224,47.500001520000005,0.0,0.696743022295776,1693.7723931007224,47.500001520000005,1.151999046272,0.806713025814816,1684,0.0,98,P-GPS,
0.339159238260289,36.9100330272083,13800,2018-04-06 07:02:08,1694.2723931167222,48.000001536000006,0.0,0.69459002222688,1694.2723931167222,48.000001536000006,1.151999046272,0.806713025814816,1684,0.0,98,P-GPS,
0.339159217891712,36.9100330069715,13900,2018-04-06 07:02:08,1694.772393132722,48.50000155200001,0.0,0.6921840221498881,1694.772393132722,48.50000155200001,1.151999046272,0.806713025814816,1684,0.0,98,P-GPS,
0.339159211726423,36.910032988968,14000,2018-04-06 07:02:08,1695.2723931487224,49.000001568,0.0,0.6901390220844481,1695.2723931487224,49.000001568,1.151999046272,0.806713025814816,1684,0.0,98,P-GPS,
0.339159212421768,36.9100329926638,14100,2018-04-06 07:02:08,1695.7723931647222,49.500001584,0.0,0.69055502209776,1695.7723931647222,49.500001584,1.151999046272,0.806713025814816,1684,0.0,98,P-GPS,
0.339159195274253,36.9100330122604,14200,2018-04-06 07:02:08,1696.2723931807222,50.000001600000004,0.0,0.6926000221632,1696.2723931807222,50.000001600000004,1.151999046272,0.806713025814816,1684,0.0,98,P-GPS,
0.339159152151427,36.910033048762,14300,2018-04-06 07:02:08,1696.7723931967223,50.500001616000006,0.0,0.696352022283264,1696.7723931967223,50.500001616000006,1.151999046272,0.806713025814816,1684,0.0,98,P-GPS,
0.339159108145985,36.9100330893983,14400,2018-04-06 07:02:08,1697.2723932127224,51.00000163200001,0.0,0.700594022419008,1697.2723932127224,51.00000163200001,1.151999046272,0.806713025814816,1684,0.0,98,P-GPS,
0.339159084888548,36.9100331119476,14500,2018-04-06 07:02:09,1697.7723932287222,51.500001648,0.0,0.70297002249504,1697.7723932287222,51.500001648,1.151999046272,0.806713025814816,1684,0.0,98,P-GPS,
0.339159045744011,36.910033136908,14600,2018-04-06 07:02:09,1698.2723932447225,52.000001664,0.0,0.705549022577568,1698.2723932447225,52.000001664,1.151999046272,0.806713025814816,1684,0.0,98,P-GPS,
0.339158983814286,36.9100331715874,14700,2018-04-06 07:02:09,1698.7723932607223,52.500001680000004,0.0,0.709153022692896,1698.7723932607223,52.500001680000004,1.151999046272,0.806713025814816,1684,0.0,98,P-GPS,
0.339158876389093,36.9100332083074,14900,2018-04-06 07:02:09,1699.8723932959224,53.6000017152,0.0,0.712961022814752,1699.8723932959224,53.6000017152,1.151999046272,0.806713025814816,1684,0.0,98,P-GPS,
0.339158844735398,36.9100332099519,15000,2018-04-06 07:02:09,1700.3723933119222,54.1000017312,0.0,0.7131020228192639,1700.3723933119222,54.1000017312,1.151999046272,0.806713025814816,1684,0.0,98,P-GPS,
0.339158844134502,36.910033216731,15100,2018-04-06 07:02:09,1700.872393327922,54.6000017472,0.0,0.7138550228433601,1700.872393327922,54.6000017472,1.151999046272,0.806713025814816,1684,0.0,98,P-GPS,
0.339158851091215,36.9100332284286,15200,2018-04-06 07:02:09,1701.3723933439223,55.1000017632,0.0,0.715163022885216,1701.3723933439223,55.1000017632,1.151999046272,0.806713025814816,1684,0.0,98,P-GPS,
0.339158856014001,36.9100332618704,15300,2018-04-06 07:02:09,1701.8723933599222,55.6000017792,0.0,0.7188880230044161,1701.8723933599222,55.6000017792,1.151999046272,0.806713025814816,1684,0.0,98,P-GPS,
0.33915884915011,36.9100332994661,15400,2018-04-06 07:02:10,1702.3723933759222,56.10000179520001,0.0,0.7230600231379201,1702.3723933759222,56.10000179520001,1.151999046272,0.806713025814816,1684,0.0,98,P-GPS,
0.339158826075058,36.910033341126,15500,2018-04-06 07:02:10,1702.8723933919223,56.60000181120001,0.0,0.7276720232855041,1702.8723933919223,56.60000181120001,1.151999046272,0.806713025814816,1684,0.0,98,P-GPS,
0.339158805134897,36.9100333886485,15600,2018-04-06 07:02:10,1703.3723934079223,57.100001827199996,0.0,0.7329450234542401,1703.3723934079223,57.100001827199996,1.151999046272,0.806713025814816,1684,0.0,98,P-GPS,
0.339158794510928,36.9100334296831,15700,2018-04-06 07:02:10,1703.8723934239222,57.600001843200005,0.0,0.7375050236001601,1703.8723934239222,57.600001843200005,1.151999046272,0.806713025814816,1684,0.0,98,P-GPS,
0.339158786060932,36.9100334648143,15800,2018-04-06 07:02:10,1704.372393439922,58.100001859200006,0.0,0.741411023725152,1704.372393439922,58.100001859200006,1.151999046272,0.806713025814816,1684,0.0,98,P-GPS,
0.339158733675518,36.9100335095168,16000,2018-04-06 07:02:10,1705.3723934719221,59.10000189120001,0.0,0.746403023884896,1705.3723934719221,59.10000189120001,1.151999046272,0.806713025814816,1684,0.0,98,P-GPS,
0.339158678042985,36.9100335351281,16100,2018-04-06 07:02:10,1705.9723934911224,59.700001910400005,0.0,0.749322023978304,1705.9723934911224,59.700001910400005,1.151999046272,0.806713025814816,1684,0.0,98,P-GPS,
0.339158614050022,36.9100335593305,16200,2018-04-06 07:02:10,1706.4723935071222,60.2000019264,0.0,0.7521580240690561,1706.4723935071222,60.2000019264,1.151999046272,0.806713025814816,1684,0.0,98,P-GPS,
0.339158560166438,36.9100335870744,16300,2018-04-06 07:02:11,1706.9723935231223,60.7000019424,0.0,0.755416024173312,1706.9723935231223,60.7000019424,1.151999046272,0.806713025814816,1684,0.0,98,P-GPS,
0.339158531406489,36.9100336786122,16500,2018-04-06 07:02:11,1707.9723935551224,61.7000019744,0.0,0.7657000245024,1707.9723935551224,61.7000019744,1.151999046272,0.806713025814816,1684,0.0,98,P-GPS,
0.339158559436895,36.9100337299568,16600,2018-04-06 07:02:11,1708.4723935711222,62.200001990400004,0.0,0.7712990246815681,1708.4723935711222,62.200001990400004,1.151999046272,0.806713025814816,1684,0.0,98,P-GPS,
0.339158600193592,36.9100337694026,16700,2018-04-06 07:02:11,1708.9723935871225,62.7000020064,0.0,0.7755510248176319,1708.9723935871225,62.7000020064,1.151999046272,0.806713025814816,1684,0.0,98,P-GPS,
0.339158638212874,36.9100338638417,16900,2018-04-06 07:02:11,1709.9723936191222,63.7000020384,0.0,0.785951025150432,1709.9723936191222,63.7000020384,1.151999046272,0.806713025814816,1684,0.0,98,P-GPS,
0.339158649336774,36.9100339145418,17000,2018-04-06 07:02:11,1710.4723936351222,64.2000020544,0.0,0.7915640253300481,1710.4723936351222,64.2000020544,1.151999046272,0.806713025814816,1684,0.0,98,P-GPS,
0.339158649971868,36.910033951917,17100,2018-04-06 07:02:11,1710.9723936511223,64.7000020704,0.0,0.7957180254629761,1710.9723936511223,64.7000020704,1.151999046272,0.806713025814816,1684,0.0,98,P-GPS,
0.339158601361186,36.9100339956603,17200,2018-04-06 07:02:11,1711.4723936671223,65.2000020864,0.0,0.8007000256224001,1711.4723936671223,65.2000020864,1.151999046272,0.806713025814816,1684,0.0,98,P-GPS,
0.339158507074278,36.9100340377034,17300,2018-04-06 07:02:11,1711.9723936831222,65.7000021024,0.0,0.8057060257825921,1711.9723936831222,65.7000021024,1.151999046272,0.806713025814816,1684,0.0,98,P-GPS,
0.339158398885345,36.9100340889753,17400,2018-04-06 07:02:11,1712.5723937023222,66.3000021216,0.0,0.8119480259823361,1712.5723937023222,66.3000021216,1.151999046272,0.8119480259823361,1684,0.0,98,P-GPS,
0.339158325659103,36.9100341529018,17500,2018-04-06 07:02:12,1713.0723937183222,66.8000021376,0.0,0.819513026224416,1713.0723937183222,66.8000021376,1.151999046272,0.819513026224416,1684,0.0,98,P-GPS,
0.339158279434092,36.9100342418336,17600,2018-04-06 07:02:12,1713.5723937343223,67.3000021536,0.0,0.82971502655088,1713.5723937343223,67.3000021536,1.151999046272,0.82971502655088,1684,0.0,98,P-GPS,
0.339158256466518,36.9100343396344,17700,2018-04-06 07:02:12,1714.0723937503224,67.8000021696,0.0,0.840741026903712,1714.0723937503224,67.8000021696,1.151999046272,0.840741026903712,1684,0.0,98,P-GPS,
0.339158245516861,36.9100344360713,17800,2018-04-06 07:02:12,1714.5723937663222,68.3000021856,0.0,0.8515240272487681,1714.5723937663222,68.3000021856,1.151999046272,0.8515240272487681,1684,0.0,98,P-GPS,
0.339158245958169,36.9100345041304,17900,2018-04-06 07:02:12,1715.072393782322,68.8000022016,0.0,0.8590700274902401,1715.072393782322,68.8000022016,1.151999046272,0.8590700274902401,1684,0.0,98,P-GPS,
0.339158247119249,36.9100345701082,18000,2018-04-06 07:02:12,1715.5723937983223,69.30000221760001,0.0,0.866381027724192,1715.5723937983223,69.30000221760001,1.151999046272,0.866381027724192,1684,0.0,98,P-GPS,
0.339158231969835,36.9100346201082,18100,2018-04-06 07:02:12,1716.0723938143221,69.80000223360001,0.0,0.87204502790544,1716.0723938143221,69.80000223360001,1.151999046272,0.87204502790544,1684,0.0,98,P-GPS,
0.339158193478304,36.9100346361696,18200,2018-04-06 07:02:12,1716.5723938303222,70.30000224960001,0.0,0.874138027972416,1716.5723938303222,70.30000224960001,1.151999046272,0.874138027972416,1684,0.0,98,P-GPS,
0.339158138174718,36.9100346403385,18300,2018-04-06 07:02:12,1717.0723938463223,70.8000022656,0.0,0.875083028002656,1717.0723938463223,70.8000022656,1.151999046272,0.875083028002656,1684,0.0,98,P-GPS,
0.339158099850917,36.9100346462483,18400,2018-04-06 07:02:13,1717.6723938655223,71.40000228480001,0.0,0.876097028035104,1717.6723938655223,71.40000228480001,1.151999046272,0.876097028035104,1684,0.0,98,P-GPS,
0.339158091780348,36.910034661708,18500,2018-04-06 07:02:13,1718.1723938815223,71.9000023008,0.0,0.8778880280924161,1718.1723938815223,71.9000023008,1.151999046272,0.8778880280924161,1684,0.0,97,P-GPS,
0.339158085377306,36.9100346998498,18600,2018-04-06 07:02:13,1718.6723938975224,72.4000023168,0.0,0.882176028229632,1718.6723938975224,72.4000023168,1.151999046272,0.882176028229632,1684,0.0,97,P-GPS,
0.339158063562671,36.9100347542222,18700,2018-04-06 07:02:13,1719.1723939135222,72.9000023328,0.0,0.8884140284292481,1719.1723939135222,72.9000023328,1.151999046272,0.8884140284292481,1684,0.0,97,P-GPS,
0.339158039481241,36.9100347986592,18800,2018-04-06 07:02:13,1719.672393929522,73.4000023488,0.0,0.89358002859456,1719.672393929522,73.4000023488,1.151999046272,0.89358002859456,1684,0.0,97,P-GPS,
0.339158027100181,36.9100348129883,18900,2018-04-06 07:02:13,1720.1723939455223,73.9000023648,0.0,0.89529502864944,1720.1723939455223,73.9000023648,1.151999046272,0.89529502864944,1684,0.0,97,P-GPS,
0.339158007120802,36.9100348186626,19000,2018-04-06 07:02:13,1720.6723939615222,74.4000023808,0.0,0.89613502867632,1720.6723939615222,74.4000023808,1.151999046272,0.89613502867632,1684,0.0,97,P-GPS,
0.339157968914249,36.9100348218509,19100,2018-04-06 07:02:13,1721.1723939775222,74.9000023968,0.0,0.8969070287010241,1721.1723939775222,74.9000023968,1.151999046272,0.8969070287010241,1684,0.0,97,P-GPS,
0.339157927872575,36.9100347934474,19200,2018-04-06 07:02:13,1721.6723939935223,75.4000024128,0.0,0.894238028615616,1721.6723939935223,75.4000024128,1.151999046272,0.8969070287010241,1684,0.0,97,P-GPS,
0.339157885153603,36.9100347347733,19300,2018-04-06 07:02:13,1722.1723940095223,75.90000242880001,0.0,0.888273028424736,1722.1723940095223,75.90000242880001,1.151999046272,0.8969070287010241,1684,0.0,97,P-GPS,
0.339157833461905,36.9100346024815,19500,2018-04-06 07:02:14,1723.1723940415225,76.9000024608,0.0,0.8743320279786241,1723.1723940415225,76.9000024608,1.151999046272,0.8969070287010241,1684,0.0,97,P-GPS,
0.339157836456614,36.9100345564129,19600,2018-04-06 07:02:14,1723.6723940575223,77.4000024768,0.0,0.869207027814624,1723.6723940575223,77.4000024768,1.151999046272,0.8969070287010241,1684,0.0,97,P-GPS,
0.339157861280614,36.9100345372403,19700,2018-04-06 07:02:14,1724.1723940735221,77.9000024928,0.0,0.866759027736288,1724.1723940735221,77.9000024928,1.151999046272,0.8969070287010241,1671,0.0,97,P-GPS,
0.33915788826556,36.91003453393,19800,2018-04-06 07:02:14,1724.6723940895224,78.4000025088,0.0,0.866044027713408,1724.6723940895224,78.4000025088,1.151999046272,0.8969070287010241,1024,0.0,97,P-GPS,
0.339157904281306,36.9100345469294,19900,2018-04-06 07:02:14,1725.1723941055222,78.9000025248,0.0,0.8672770277528641,1725.1723941055222,78.9000025248,1.151999046272,0.8969070287010241,1024,0.0,97,P-GPS,
0.339157914211558,36.9100345693931,20000,2018-04-06 07:02:14,1725.772394124722,79.500002544,0.0,0.869636027828352,1725.772394124722,79.500002544,1.151999046272,0.8969070287010241,1024,0.0,97,P-GPS,
0.339157922418916,36.910034590739,20100,2018-04-06 07:02:14,1726.1723941375221,79.9000025568,0.0,0.8718940279006081,1726.1723941375221,79.9000025568,1.151999046272,0.8969070287010241,1024,0.0,97,P-GPS,
0.339157938361382,36.9100346126652,20200,2018-04-06 07:02:14,1726.5723941503222,80.30000256960001,0.0,0.8741250279720001,1726.5723941503222,80.30000256960001,1.151999046272,0.8969070287010241,1024,0.0,97,P-GPS,
0.339157909140583,36.9100346754055,20300,2018-04-06 07:02:14,1726.8723941599221,80.6000025792,0.0,0.88141502820528,1726.8723941599221,80.6000025792,1.151999046272,0.8969070287010241,1024,0.0,97,P-GPS,
0.339157882357565,36.9100347344436,20400,2018-04-06 07:02:15,1727.0723941663223,80.80000258560001,0.0,0.8882710284246721,1727.0723941663223,80.80000258560001,1.151999046272,0.8969070287010241,1024,0.0,97,P-GPS,
0.339157880291069,36.910034774853,20500,2018-04-06 07:02:15,1727.2723941727222,81.000002592,0.0,0.892762028568384,1727.2723941727222,81.000002592,1.151999046272,0.8969070287010241,1024,0.0,97,P-GPS,
0.339157872897934,36.9100348275808,20600,2018-04-06 07:02:15,1727.2723941727222,81.000002592,0.0,0.8986810287577921,1727.2723941727222,81.000002592,1.151999046272,0.8986810287577921,1024,0.0,97,P-GPS,
0.339157875894271,36.9100348901691,20700,2018-04-06 07:02:15,1727.3723941759224,81.1000025952,0.0,0.90556002897792,1727.3723941759224,81.1000025952,1.151999046272,0.90556002897792,1024,0.0,97,P-GPS,
0.3391578797146,36.9100349694803,20800,2018-04-06 07:02:15,1727.3723941759224,81.1000025952,0.0,0.914279029256928,1727.3723941759224,81.1000025952,1.151999046272,0.914279029256928,1024,0.0,97,P-GPS,
0.339157900361642,36.9100350536201,20900,2018-04-06 07:02:15,1727.3723941759224,81.1000025952,0.0,0.923332029546624,1727.3723941759224,81.1000025952,1.151999046272,0.923332029546624,1024,0.0,97,P-GPS,
0.339157926796173,36.9100351219447,21000,2018-04-06 07:02:15,1727.3723941759224,81.1000025952,0.0,0.930582029778624,1727.3723941759224,81.1000025952,1.151999046272,0.930582029778624,1024,0.0,97,P-GPS,
0.33915797417738,36.9100351530911,21100,2018-04-06 07:02:15,1727.3723941759224,81.1000025952,0.0,0.933504029872128,1727.3723941759224,81.1000025952,1.151999046272,0.933504029872128,1024,0.0,97,P-GPS,
0.339158038839634,36.9100351559711,21200,2018-04-06 07:02:15,1727.3723941759224,81.1000025952,0.0,0.9331570298610241,1727.3723941759224,81.1000025952,1.151999046272,0.933504029872128,1024,0.0,97,P-GPS,
0.339158129770318,36.9100351473376,21300,2018-04-06 07:02:15,1727.3723941759224,81.1000025952,0.0,0.9313570298034242,1727.3723941759224,81.1000025952,1.151999046272,0.933504029872128,1024,0.0,97,P-GPS,
0.339158385976669,36.9100350902802,21500,2018-04-06 07:02:16,1727.4723941791224,81.2000025984,0.0,0.9232290295433281,1727.4723941791224,81.2000025984,1.151999046272,0.933504029872128,1024,0.0,97,P-GPS,
0.339158554126539,36.9100350433401,21600,2018-04-06 07:02:16,1727.4723941791224,81.2000025984,0.0,0.91730502935376,1727.4723941791224,81.2000025984,1.151999046272,0.933504029872128,1024,0.0,97,P-GPS,
0.339158738174908,36.910034982998,21700,2018-04-06 07:02:16,1727.4723941791224,81.2000025984,0.0,0.910253029128096,1727.4723941791224,81.2000025984,1.151999046272,0.933504029872128,1024,0.0,97,P-GPS,
0.339158932817934,36.9100349087357,21800,2018-04-06 07:02:16,1727.5723941823221,81.3000026016,0.0,0.902134028868288,1727.5723941823221,81.3000026016,1.151999046272,0.933504029872128,1024,0.0,97,P-GPS,
0.339159112471133,36.9100348256023,21900,2018-04-06 07:02:16,1727.5723941823221,81.3000026016,0.0,0.89348502859152,1727.5723941823221,81.3000026016,1.151999046272,0.933504029872128,1024,0.0,97,P-GPS,
0.339159278953476,36.9100347287115,22000,2018-04-06 07:02:16,1727.5723941823221,81.3000026016,0.0,0.8836800282777599,1727.5723941823221,81.3000026016,1.151999046272,0.933504029872128,1024,0.0,97,P-GPS,
0.339159419778056,36.9100346199776,22100,2018-04-06 07:02:16,1727.5723941823221,81.3000026016,0.0,0.8727420279277441,1727.5723941823221,81.3000026016,1.151999046272,0.933504029872128,1024,0.0,97,P-GPS,
0.339159722593731,36.9100343818531,22300,2018-04-06 07:02:16,1727.5723941823221,81.3000026016,0.0,0.8498290271945281,1727.5723941823221,81.3000026016,1.151999046272,0.933504029872128,1024,0.0,97,P-GPS,
0.339159890172017,36.9100342615137,22400,2018-04-06 07:02:17,1727.5723941823221,81.3000026016,0.0,0.83908002685056,1727.5723941823221,81.3000026016,1.151999046272,0.933504029872128,1024,0.0,97,P-GPS,
0.339160043244125,36.910034156771,22500,2018-04-06 07:02:17,1727.5723941823221,81.3000026016,0.0,0.830262026568384,1727.5723941823221,81.3000026016,1.151999046272,0.933504029872128,1024,0.0,97,P-GPS,
0.339160201369294,36.9100340566298,22600,2018-04-06 07:02:17,1727.5723941823221,81.3000026016,0.0,0.822477026319264,1727.5723941823221,81.3000026016,1.151999046272,0.933504029872128,1024,0.0,97,P-GPS,
0.339160364544268,36.9100339643426,22700,2018-04-06 07:02:17,1727.5723941823221,81.3000026016,0.0,0.816122026115904,1727.5723941823221,81.3000026016,1.151999046272,0.933504029872128,1024,0.0,97,P-GPS,
0.339160532221889,36.9100338610709,22800,2018-04-06 07:02:17,1727.5723941823221,81.3000026016,0.0,0.809189025894048,1727.5723941823221,81.3000026016,1.151999046272,0.933504029872128,1024,0.0,97,P-GPS,
0.339160674648858,36.9100337505341,22900,2018-04-06 07:02:17,1727.5723941823221,81.3000026016,0.0,0.8012730256407361,1727.5723941823221,81.3000026016,1.151999046272,0.933504029872128,1024,0.0,97,P-GPS,
0.339160809355374,36.910033643057,23000,2018-04-06 07:02:17,1727.5723941823221,81.3000026016,0.0,0.793867025403744,1727.5723941823221,81.3000026016,1.151999046272,0.933504029872128,1024,0.0,97,P-GPS,
0.339160920947756,36.9100335559345,23100,2018-04-06 07:02:17,1727.5723941823221,81.3000026016,0.0,0.7882340252234881,1727.5723941823221,81.3000026016,1.151999046272,0.933504029872128,1024,0.0,97,P-GPS,
0.339161036616133,36.9100334617652,23200,2018-04-06 07:02:17,1727.5723941823221,81.3000026016,0.0,0.78228002503296,1727.5723941823221,81.3000026016,1.151999046272,0.933504029872128,1024,0.0,97,P-GPS,
0.339161142580612,36.9100333769659,23300,2018-04-06 07:02:17,1727.5723941823221,81.3000026016,0.0,0.777251024872032,1727.5723941823221,81.3000026016,1.151999046272,0.933504029872128,1024,0.0,97,P-GPS,
0.339161250546449,36.910033286017,23400,2018-04-06 07:02:17,1727.5723941823221,81.3000026016,0.0,0.7719230247015361,1727.5723941823221,81.3000026016,1.151999046272,0.933504029872128,1024,0.0,97,P-GPS,
0.339161346279415,36.9100332015047,23500,2018-04-06 07:02:18,1727.5723941823221,81.3000026016,0.0,0.7670370245451841,1727.5723941823221,81.3000026016,1.151999046272,0.933504029872128,1024,0.0,97,P-GPS,
0.339161439903545,36.910033122354,23600,2018-04-06 07:02:18,1727.5723941823221,81.3000026016,0.0,0.762843024410976,1727.5723941823221,81.3000026016,1.151999046272,0.933504029872128,1024,0.0,97,P-GPS,
0.339161499428059,36.910033075249,23700,2018-04-06 07:02:18,1727.5723941823221,81.3000026016,0.0,0.76062002433984,1727.5723941823221,81.3000026016,1.151999046272,0.933504029872128,1024,-0.1,97,P-GPS,
0.339161560742232,36.9100330316599,23800,2018-04-06 07:02:18,1727.4723941791224,81.2000025984,0.0,0.7589230242855359,1727.5723941823221,81.3000026016,1.151999046272,0.933504029872128,1024,-0.7,97,P-GPS,
0.339161605905498,36.9100329919037,23900,2018-04-06 07:02:18,1727.4723941791224,81.2000025984,0.0,0.756956024222592,1727.5723941823221,81.3000026016,1.151999046272,0.933504029872128,1024,-0.7,97,P-GPS,
0.339161642141634,36.9100329547597,24000,2018-04-06 07:02:18,1727.5723941823221,81.3000026016,0.0,0.7548870241563841,1727.5723941823221,81.3000026016,1.151999046272,0.933504029872128,1024,-3.2,97,P-GPS,
0.339161639409105,36.9100329304738,24100,2018-04-06 07:02:18,1727.4723941791224,81.2000025984,0.0,0.7523100240739201,1727.5723941823221,81.3000026016,1.151999046272,0.933504029872128,1024,-6.9,97,P-GPS,
0.339161642537346,36.9100328852531,24200,2018-04-06 07:02:18,1727.4723941791224,81.2000025984,0.0,0.7479020239328641,1727.5723941823221,81.3000026016,1.151999046272,0.933504029872128,1024,-10.8,97,P-GPS,
0.339161652070257,36.9100328297395,24300,2018-04-06 07:02:18,1727.4723941791224,81.2000025984,0.0,0.742773023768736,1727.5723941823221,81.3000026016,1.151999046272,0.933504029872128,1024,-14.6,97,P-GPS,
0.339161667983412,36.9100327621429,24400,2018-04-06 07:02:18,1727.4723941791224,81.2000025984,0.0,0.7367610235763521,1727.5723941823221,81.3000026016,1.151999046272,0.933504029872128,1024,-18.4,97,P-GPS,
0.339161662404362,36.9100327198064,24500,2018-04-06 07:02:19,1727.4723941791224,81.2000025984,0.0,0.7322540234321281,1727.5723941823221,81.3000026016,1.151999046272,0.933504029872128,1024,-22.1,97,P-GPS,
0.339161654301225,36.9100326767934,24600,2018-04-06 07:02:19,1727.4723941791224,81.2000025984,0.0,0.727559023281888,1727.5723941823221,81.3000026016,1.151999046272,0.933504029872128,1024,-22.9,97,P-GPS,
0.33916163251753,36.9100326667039,24700,2018-04-06 07:02:19,1727.4723941791224,81.2000025984,0.0,0.72549002321568,1727.5723941823221,81.3000026016,1.151999046272,0.933504029872128,1024,-22.9,97,P-GPS,
0.339161597880526,36.9100326572139,24800,2018-04-06 07:02:19,1727.4723941791224,81.2000025984,0.0,0.72286502313168,1727.5723941823221,81.3000026016,1.151999046272,0.933504029872128,1024,-22.9,97,P-GPS,
0.339161540831247,36.9100326659009,24900,2018-04-06 07:02:19,1727.4723941791224,81.2000025984,0.0,0.7210150230724801,1727.5723941823221,81.3000026016,1.151999046272,0.933504029872128,1024,-22.9,97,P-GPS,
0.339161479738542,36.9100326785385,25000,2018-04-06 07:02:19,1727.4723941791224,81.2000025984,0.0,0.7194290230217281,1727.5723941823221,81.3000026016,1.151999046272,0.933504029872128,1024,-22.9,97,P-GPS,
0.339161421801762,36.9100326971865,25100,2018-04-06 07:02:19,1727.4723941791224,81.2000025984,0.0,0.7186600229971201,1727.5723941823221,81.3000026016,1.151999046272,0.933504029872128,1024,-22.9,97,P-GPS,
0.339161370057954,36.9100327092202,25200,2018-04-06 07:02:19,1727.4723941791224,81.2000025984,0.0,0.7175560229617921,1727.5723941823221,81.3000026016,1.151999046272,0.933504029872128,1024,-22.9,97,P-GPS,
0.339161324360558,36.9100327202625,25300,2018-04-06 07:02:19,1727.4723941791224,81.2000025984,0.0,0.716663022933216,1727.5723941823221,81.3000026016,1.151999046272,0.933504029872128,1024,-22.9,97,P-GPS,
0.339161280454451,36.9100327324354,25400,2018-04-06 07:02:20,1727.4723941791224,81.2000025984,0.0,0.715999022911968,1727.5723941823221,81.3000026016,1.151999046272,0.933504029872128,1024,-22.9,97,P-GPS,
0.339161236069582,36.9100327554623,25500,2018-04-06 07:02:20,1727.4723941791224,81.2000025984,0.0,0.7164670229269441,1727.5723941823221,81.3000026016,1.151999046272,0.933504029872128,1024,-22.9,97,P-GPS,
0.339161176136329,36.9100327716329,25600,2018-04-06 07:02:20,1727.4723941791224,81.2000025984,0.0,0.7156260229000321,1727.5723941823221,81.3000026016,1.151999046272,0.933504029872128,1024,-22.9,97,P-GPS,
0.339161090768409,36.9100327844203,25700,2018-04-06 07:02:20,1727.4723941791224,81.2000025984,0.0,0.713477022831264,1727.5723941823221,81.3000026016,1.151999046272,0.933504029872128,1024,-22.9,97,P-GPS,
0.339160995532119,36.9100327954455,25800,2018-04-06 07:02:20,1727.4723941791224,81.2000025984,0.0,0.7108880227484161,1727.5723941823221,81.3000026016,1.151999046272,0.933504029872128,1024,-22.9,97,P-GPS,
0.339160913746776,36.910032808976,25900,2018-04-06 07:02:20,1727.4723941791224,81.2000025984,0.0,0.7092100226947201,1727.5723941823221,81.3000026016,1.151999046272,0.933504029872128,1024,-22.9,97,P-GPS,
0.33916082074634,36.910032826063,26000,2018-04-06 07:02:20,1727.4723941791224,81.2000025984,0.0,0.7076230226439361,1727.5723941823221,81.3000026016,1.151999046272,0.933504029872128,1024,-22.9,97,P-GPS,
0.339160723831123,36.910032855961,26100,2018-04-06 07:02:20,1727.4723941791224,81.2000025984,0.0,0.707412022637184,1727.5723941823221,81.3000026016,1.151999046272,0.933504029872128,1024,-22.9,97,P-GPS,
0.339160616379875,36.9100328808722,26200,2018-04-06 07:02:20,1727.4723941791224,81.2000025984,0.0,0.706512022608384,1727.5723941823221,81.3000026016,1.151999046272,0.933504029872128,1024,-22.9,97,P-GPS,
0.339160516696304,36.9100329023701,26300,2018-04-06 07:02:20,1727.3723941759224,81.1000025952,0.0,0.7056930225821761,1727.5723941823221,81.3000026016,1.151999046272,0.933504029872128,1024,-22.9,97,P-GPS,
0.339160377589732,36.9100329097531,26400,2018-04-06 07:02:21,1727.3723941759224,81.1000025952,0.35999970196000003,0.702421022477472,1727.5723941823221,81.3000026016,1.151999046272,0.933504029872128,1024,-22.9,97,P-GPS,
0.339160140131657,36.9100328525287,26500,2018-04-06 07:02:21,1727.3723941759224,81.1000025952,0.35999970196000003,0.69001502208048,1727.5723941823221,81.3000026016,1.151999046272,0.933504029872128,1024,-22.9,97,P-GPS,
0.33915964655191,36.9100325957905,26600,2018-04-06 07:02:21,1727.3723941759224,81.1000025952,2.591997854112,0.65187502086,1727.5723941823221,81.3000026016,2.591997854112,0.933504029872128,1024,-22.9,97,P-GPS,
0.339158768822224,36.9100320115925,26700,2018-04-06 07:02:21,1727.3723941759224,81.1000025952,4.895995946656,0.579809018553888,1727.5723941823221,81.3000026016,4.895995946656,0.933504029872128,1024,-22.9,97,P-GPS,
0.339157411235689,36.9100310562716,26800,2018-04-06 07:02:21,1727.3723941759224,81.1000025952,6.695994456456,0.49755501592176005,1727.5723941823221,81.3000026016,6.695994456456,0.933504029872128,1024,-22.9,97,P-GPS,
0.339155655730721,36.9100297972875,26900,2018-04-06 07:02:21,1727.3723941759224,81.1000025952,8.495992966256,0.48193201542182407,1727.5723941823221,81.3000026016,8.495992966256,0.933504029872128,1024,-22.9,97,P-GPS,
0.339153512155335,36.9100282105544,27000,2018-04-06 07:02:21,1727.3723941759224,81.1000025952,10.295991476055999,0.606906019420992,1727.5723941823221,81.3000026016,10.295991476055999,0.933504029872128,1024,-22.9,97,P-GPS,
0.339151117039904,36.9100263761245,27100,2018-04-06 07:02:21,1727.3723941759224,81.1000025952,11.591990403112,0.853856027323392,1727.5723941823221,81.3000026016,11.591990403112,0.933504029872128,1024,-22.9,97,P-GPS,
0.33914843489982,36.9100242814758,27200,2018-04-06 07:02:21,1727.4723941791224,81.2000025984,13.103989151344,1.18437003789984,1727.5723941823221,81.3000026016,13.103989151344,1.18437003789984,1024,-22.9,97,P-GPS,
0.339145592910044,36.9100220491722,27300,2018-04-06 07:02:21,1727.4723941791224,81.2000025984,14.111988316831999,1.55904004988928,1727.5723941823221,81.3000026016,14.111988316831999,1.55904004988928,1024,-22.9,97,P-GPS,
0.339142504613636,36.9100195377844,27400,2018-04-06 07:02:21,1727.4723941791224,81.2000025984,15.407987243888,1.9821800634297602,1727.5723941823221,81.3000026016,15.407987243888,1.9821800634297602,1024,-22.9,97,P-GPS,
0.339139238507835,36.9100168835317,27500,2018-04-06 07:02:22,1727.4723941791224,81.2000025984,16.415986409376,2.43716007798912,1727.5723941823221,81.3000026016,16.415986409376,2.43716007798912,1024,-22.9,97,P-GPS,
0.339135784423823,36.9100139896348,27600,2018-04-06 07:02:22,1727.4723941791224,81.2000025984,17.423985574864,2.92749009367968,1727.5723941823221,81.3000026016,17.423985574864,2.92749009367968,1024,-22.9,97,P-GPS,
0.339132182173798,36.9100109892732,27700,2018-04-06 07:02:22,1727.4723941791224,81.2000025984,18.71998450192,3.4411701101174406,1727.5723941823221,81.3000026016,18.71998450192,3.4411701101174406,1024,-22.9,97,P-GPS,
0.339128424383758,36.9100077560813,27800,2018-04-06 07:02:22,1727.4723941791224,81.2000025984,19.727983667408,3.98523012752736,1727.5723941823221,81.3000026016,19.727983667408,3.98523012752736,1024,-22.9,97,P-GPS,
0.339124482936991,36.9100043934345,27900,2018-04-06 07:02:22,1727.5723941823221,81.3000026016,20.735982832896,4.55602014579264,1727.5723941823221,81.3000026016,20.735982832896,4.55602014579264,1024,-22.9,97,P-GPS,
0.339120399367774,36.9100008036965,28000,2018-04-06 07:02:22,1727.5723941823221,81.3000026016,21.743981998384,5.15523016496736,1727.5723941823221,81.3000026016,21.743981998384,5.15523016496736,1024,-22.9,97,P-GPS,
0.339116128004766,36.9099970855573,28100,2018-04-06 07:02:22,1727.5723941823221,81.3000026016,22.787981134068,5.780880184988161,1727.5723941823221,81.3000026016,22.787981134068,5.780880184988161,1024,-22.9,97,P-GPS,
0.339111706579016,36.9099931546009,28200,2018-04-06 07:02:22,1727.5723941823221,81.3000026016,23.795980299556,6.434660205909121,1727.5723941823221,81.3000026016,23.795980299556,6.434660205909121,1024,-22.9,97,P-GPS,
0.339107067334225,36.9099891107812,28300,2018-04-06 07:02:22,1727.5723941823221,81.3000026016,24.803979465044,7.11617022771744,1727.5723941823221,81.3000026016,24.803979465044,7.11617022771744,1024,-22.9,97,P-GPS,
0.339102281682548,36.9099848600306,28400,2018-04-06 07:02:23,1727.5723941823221,81.3000026016,25.595978809355998,7.82497025039904,1727.5723941823221,81.3000026016,25.595978809355998,7.82497025039904,1024,-22.9,97,P-GPS,
0.339097295510792,36.9099805006274,28500,2018-04-06 07:02:23,1727.5723941823221,81.3000026016,26.603977974843996,8.5593502738992,1727.5723941823221,81.3000026016,26.603977974843996,8.5593502738992,1024,-22.9,97,P-GPS,
0.339092150682993,36.909975935867,28600,2018-04-06 07:02:23,1727.5723941823221,81.3000026016,26.603977974843996,9.3219502983024,1727.5723941823221,81.3000026016,26.603977974843996,9.3219502983024,1024,-22.9,97,P-GPS,
0.339086802648182,36.909971259345,28700,2018-04-06 07:02:23,1727.5723941823221,81.3000026016,28.115976723076,10.1104003235328,1727.5723941823221,81.3000026016,28.115976723076,10.1104003235328,1024,-22.9,97,P-GPS,
0.33908130298895,36.9099663915766,28800,2018-04-06 07:02:23,1727.5723941823221,81.3000026016,29.123975888564,10.9254003496128,1727.5723941823221,81.3000026016,29.123975888564,10.9254003496128,1024,-22.9,97,P-GPS,
0.339075633606771,36.9099614306089,28900,2018-04-06 07:02:23,1727.5723941823221,81.3000026016,30.131975054052003,11.761900376380801,1727.5723941823221,81.3000026016,30.131975054052003,11.761900376380801,1024,-22.9,97,P-GPS,
0.339069808643053,36.9099562769344,29000,2018-04-06 07:02:23,1727.5723941823221,81.3000026016,30.923974398364,12.625500404016002,1727.5723941823221,81.3000026016,30.923974398364,12.625500404016002,1024,-22.9,97,P-GPS,
0.339063796212862,36.9099510317908,29100,2018-04-06 07:02:23,1727.5723941823221,81.3000026016,31.679973772480004,13.5118004323776,1727.5723941823221,81.3000026016,31.679973772480004,13.5118004323776,1024,-22.9,97,P-GPS,
0.339057617160281,36.9099456109932,29200,2018-04-06 07:02:23,1727.5723941823221,81.3000026016,32.435973146596,14.425000461600002,1727.5723941823221,81.3000026016,32.435973146596,14.425000461600002,1024,-22.9,97,P-GPS,
0.339051268671359,36.909940109848,29300,2018-04-06 07:02:23,1727.5723941823221,81.3000026016,33.47997228228,15.358500491472,1727.5723941823221,81.3000026016,33.47997228228,15.358500491472,1024,-22.9,97,P-GPS,
0.339044760660063,36.9099344354085,29400,2018-04-06 07:02:24,1727.5723941823221,81.3000026016,34.235971656395996,16.318000522176,1727.5723941823221,81.3000026016,34.235971656395996,16.318000522176,1024,-22.9,97,P-GPS,
0.339038106017156,36.9099286697353,29500,2018-04-06 07:02:24,1727.5723941823221,81.3000026016,34.991971030512005,17.2967005534944,1727.5723941823221,81.3000026016,34.991971030512005,17.2967005534944,1024,-22.9,97,P-GPS,
0.339031282380845,36.9099227268965,29600,2018-04-06 07:02:24,1727.5723941823221,81.3000026016,35.783970374824,18.3024005856768,1727.5723941823221,81.3000026016,35.783970374824,18.3024005856768,1024,-22.9,97,P-GPS,
0.339024305579605,36.9099167001641,29700,2018-04-06 07:02:24,1727.672394185522,81.40000260480001,36.53996974894,19.3273006184736,1727.672394185522,81.40000260480001,36.53996974894,19.3273006184736,1024,-22.9,97,P-GPS,
0.339017171105903,36.9099105497285,29800,2018-04-06 07:02:24,1727.672394185522,81.40000260480001,37.043969331683996,20.374500651984,1727.672394185522,81.40000260480001,37.043969331683996,20.374500651984,1024,-22.9,97,P-GPS,
0.339009950702469,36.909904405194,29900,2018-04-06 07:02:24,1727.672394185522,81.40000260480001,37.583968884624,21.428600685715203,1727.672394185522,81.40000260480001,37.583968884624,21.428600685715203,1024,-22.9,97,P-GPS,
0.33900261766282,36.9098981449645,30000,2018-04-06 07:02:24,1727.672394185522,81.40000260480001,37.583968884624,22.500700720022405,1727.672394185522,81.40000260480001,37.583968884624,22.500700720022405,1024,-22.9,97,P-GPS,
0.338995225647444,36.9098918656694,30100,2018-04-06 07:02:24,1727.672394185522,81.40000260480001,37.835968675996,23.5792007545344,1727.672394185522,81.40000260480001,37.835968675996,23.5792007545344,1024,-22.9,97,P-GPS,
0.338987860768458,36.9098856099279,30200,2018-04-06 07:02:24,1727.672394185522,81.40000260480001,37.835968675996,24.653600788915202,1727.672394185522,81.40000260480001,37.835968675996,24.653600788915202,1024,-22.9,97,P-GPS,
