latitude,longitude,time_millisecond,datetime_utc,altitude_m,ascent_m,speed_kph,distance_m,max_altitude_m,max_ascent_m,max_speed_kph,max_distance_m,rc_throttle,gimbal_pitch_degrees,battery_percent,flycState,message
0.337732070708597,36.909131964676796,0,2018-03-30 04:37:05,1647.7289345273205,0.0,0.0,0.0,1647.7289345273205,0.0,0.0,0.0,364,0.0,99,Motors_Started,
0.33773209722862196,36.909131954451105,100,2018-03-30 04:37:05,1647.7289345273205,0.0,0.0,0.0031608201011462398,1647.7289345273205,0.0,0.0,0.0031608201011462398,364,0.0,99,Motors_Started,
0.33773211903267303,36.9091319519296,200,2018-03-30 04:37:05,1647.7289345273205,0.0,0.0,0.005557750177848,1647.7289345273205,0.0,0.0,0.005557750177848,364,0.0,99,Motors_Started,
0.337732125399075,36.909131976566,300,2018-03-30 04:37:05,1647.7289345273205,0.0,0.0,0.006223960199166721,1647.7289345273205,0.0,0.0,0.006223960199166721,364,0.0,99,Motors_Started,
0.33773213444019606,36.909132004412996,400,2018-03-30 04:37:05,1647.7289345273205,0.0,0.0,0.00835203026726496,1647.7289345273205,0.0,0.0,0.00835203026726496,364,0.0,99,Motors_Started,
0.33773216113934895,36.9091320246043,500,2018-03-30 04:37:05,1647.7289345273205,0.0,0.0,0.012064100386051201,1647.7289345273205,0.0,0.0,0.012064100386051201,364,0.0,99,Motors_Started,
0.337732191302203,36.9091320423521,600,2018-03-30 04:37:05,1647.7289345273205,0.0,0.0,0.015951800510457602,1647.7289345273205,0.0,0.0,0.015951800510457602,364,0.0,99,Motors_Started,
0.33773220778287105,36.909132051482295,700,2018-03-30 04:37:06,1647.7289345273205,0.0,0.0,0.0180429005773728,1647.7289345273205,0.0,0.0,0.0180429005773728,364,0.0,99,Motors_Started,Setting new Return-To-Home altitude to 30m (98 ft). Setting new Maximum Flight Altitude to 120m (394 ft)
0.337732222531688,36.909132062371604,800,2018-03-30 04:37:06,1647.7289345273205,0.0,0.0,0.020077000642464,1647.7289345273205,0.0,0.0,0.020077000642464,364,0.0,99,Motors_Started,
0.33773222303324896,36.9091320636028,900,2018-03-30 04:37:06,1647.7289345273205,0.0,0.0,0.020198200646342403,1647.7289345273205,0.0,0.0,0.020198200646342403,364,0.0,99,Motors_Started,
0.33773222787461304,36.909132070489,1000,2018-03-30 04:37:06,1647.7289345273205,0.0,0.0,0.0210697006742304,1647.7289345273205,0.0,0.0,0.0210697006742304,364,0.0,99,Motors_Started,
0.337732220510789,36.909132101605394,1100,2018-03-30 04:37:06,1647.7289345273205,0.0,0.0,0.022569500722224,1647.7289345273205,0.0,0.0,0.022569500722224,364,0.0,99,Motors_Started,
0.337732219975031,36.9091321339422,1200,2018-03-30 04:37:06,1647.7289345273205,0.0,0.0,0.0250967008030944,1647.7289345273205,0.0,0.0,0.0250967008030944,364,0.0,99,Motors_Started,
0.337732209552175,36.9091321566845,1300,2018-03-30 04:37:06,1647.7289345273205,0.0,0.0,0.026349800843193598,1647.7289345273205,0.0,0.0,0.026349800843193598,364,0.0,99,Motors_Started,
0.337732205792912,36.909132177975295,1400,2018-03-30 04:37:06,1647.7289345273205,0.0,0.0,0.028076500898448004,1647.7289345273205,0.0,0.0,0.028076500898448004,364,0.0,99,Motors_Started,
0.33773219635445095,36.9091321865828,1500,2018-03-30 04:37:06,1647.7289345273205,0.0,0.0,0.028358100907459202,1647.7289345273205,0.0,0.0,0.028358100907459202,364,0.0,99,Motors_Started,
0.33773219079168604,36.909132197718,1600,2018-03-30 04:37:07,1647.7289345273205,0.0,0.0,0.029153400932908802,1647.7289345273205,0.0,0.0,0.029153400932908802,733,0.0,99,Assisted_Takeoff,
0.33773218033300506,36.9091321934277,1700,2018-03-30 04:37:07,1647.7289345273205,0.0,0.0,0.028208400902668806,1647.7289345273205,0.0,0.0,0.029153400932908802,1024,0.0,99,Assisted_Takeoff,
0.337732176560714,36.9091321982402,1800,2018-03-30 04:37:07,1647.7289345273205,0.0,0.0,0.0285162009125184,1647.7289345273205,0.0,0.0,0.029153400932908802,1024,0.0,99,Assisted_Takeoff,
0.337732169596673,36.9091321928084,1900,2018-03-30 04:37:07,1647.7289345273205,0.0,0.0,0.0276501008848032,1647.7289345273205,0.0,0.0,0.029153400932908802,1024,0.0,99,Assisted_Takeoff,
0.337732166789236,36.9091321941606,2000,2018-03-30 04:37:07,1647.7289345273205,0.0,0.0,0.027666100885315202,1647.7289345273205,0.0,0.0,0.029153400932908802,1024,0.0,99,Assisted_Takeoff,
0.337732192872838,36.909132185219896,2100,2018-03-30 04:37:07,1647.7289345273205,0.0,0.0,0.028036700897174405,1647.7289345273205,0.0,0.0,0.029153400932908802,1024,0.0,99,Assisted_Takeoff,
0.337732220306419,36.909132185364705,2200,2018-03-30 04:37:07,1647.7289345273205,0.0,0.0,0.029648700948758402,1647.7289345273205,0.0,0.0,0.029648700948758402,1024,0.0,99,Assisted_Takeoff,
0.33773224330412,36.9091321770358,2300,2018-03-30 04:37:07,1647.7289345273205,0.0,0.0,0.030431500973807996,1647.7289345273205,0.0,0.0,0.030431500973807996,1024,0.0,99,Assisted_Takeoff,
0.337732259634156,36.9091321774464,2400,2018-03-30 04:37:07,1647.7289345273205,0.0,0.0,0.031642401012556796,1647.7289345273205,0.0,0.0,0.031642401012556796,1024,0.0,99,Assisted_Takeoff,
0.33773226870296097,36.909132170527,2500,2018-03-30 04:37:07,1647.7289345273205,0.0,0.0,0.0317619010163808,1647.7289345273205,0.0,0.0,0.0317619010163808,1024,0.0,99,Assisted_Takeoff,
0.337732276244285,36.909132171462495,2600,2018-03-30 04:37:07,1647.7289345273205,0.0,0.0,0.0324226010375232,1647.7289345273205,0.0,0.0,0.0324226010375232,1024,0.0,99,Assisted_Takeoff,
0.33773227720343796,36.9091321656356,2700,2018-03-30 04:37:08,1647.7289345273205,0.0,0.0,0.0320426010253632,1647.7289345273205,0.0,0.0,0.0324226010375232,1024,0.0,99,Assisted_Takeoff,
0.33773227973973996,36.909132167227895,2800,2018-03-30 04:37:08,1647.7289345273205,0.0,0.0,0.032368301035785606,1647.7289345273205,0.0,0.0,0.0324226010375232,1024,0.0,99,Assisted_Takeoff,
0.33773227651949195,36.909132162369204,2900,2018-03-30 04:37:08,1647.7289345273205,0.0,0.0,0.031735501015536,1647.7289345273205,0.0,0.0,0.0324226010375232,1024,0.0,99,Assisted_Takeoff,
0.337732276043172,36.9091321649504,3000,2018-03-30 04:37:08,1647.7289345273205,0.0,0.0,0.031897001020703995,1647.7289345273205,0.0,0.0,0.0324226010375232,1024,0.0,99,Assisted_Takeoff,
0.33773230159020196,36.9091321614305,3100,2018-03-30 04:37:08,1647.7289345273205,0.0,0.0,0.0337336010794752,1647.7289345273205,0.0,0.0,0.0337336010794752,1024,0.0,99,Assisted_Takeoff,
0.33773232910194895,36.9091321651009,3200,2018-03-30 04:37:08,1647.7289345273205,0.0,0.0,0.036365501163695996,1647.7289345273205,0.0,0.0,0.036365501163695996,1024,0.0,99,Assisted_Takeoff,
0.337732350661733,36.9091321310312,3300,2018-03-30 04:37:08,1647.7289345273205,0.0,0.0,0.036214001158848,1647.7289345273205,0.0,0.0,0.036365501163695996,1024,0.0,99,Assisted_Takeoff,
0.337732366711677,36.9091321046676,3400,2018-03-30 04:37:08,1647.7289345273205,0.0,0.0,0.036412901165212806,1647.7289345273205,0.0,0.0,0.036412901165212806,1024,0.0,99,Assisted_Takeoff,
0.33773237480585805,36.9091320735062,3500,2018-03-30 04:37:08,1647.7289345273205,0.0,0.0,0.035917801149369606,1647.7289345273205,0.0,0.0,0.036412901165212806,1024,0.0,99,Assisted_Takeoff,
0.3377323820719749,36.9091320577489,3600,2018-03-30 04:37:08,1647.7289345273205,0.0,0.0,0.0361393011564576,1647.7289345273205,0.0,0.0,0.036412901165212806,1024,0.0,99,Assisted_Takeoff,
0.337732408611541,36.909132043330104,3700,2018-03-30 04:37:09,1647.7289345273205,0.0,0.0,0.0385814012346048,1647.7289345273205,0.0,0.0,0.0385814012346048,1024,0.0,99,Assisted_Takeoff,
0.33773243989639296,36.909132035054604,3800,2018-03-30 04:37:09,1647.7289345273205,0.0,0.0,0.04179520133744641,1647.7289345273205,0.0,0.0,0.04179520133744641,1045,0.0,99,Assisted_Takeoff,
0.337732465781324,36.9091320238562,3900,2018-03-30 04:37:09,1647.7289345273205,0.0,0.0,0.0444246014215872,1647.7289345273205,0.0,0.0,0.0444246014215872,1070,0.0,99,Assisted_Takeoff,
0.33773248356637603,36.9091320219299,4000,2018-03-30 04:37:09,1647.7289345273205,0.0,0.0,0.0463516014832512,1647.7289345273205,0.0,0.0,0.0463516014832512,1089,0.0,99,Assisted_Takeoff,
0.33773249123471805,36.9091320184362,4100,2018-03-30 04:37:09,1647.7289345273205,0.0,0.0,0.0471456015086592,1647.7289345273205,0.0,0.0,0.0471456015086592,1129,0.0,99,Assisted_Takeoff,
0.33773249912208697,36.9091320195518,4200,2018-03-30 04:37:09,1647.7289345273205,0.0,0.0,0.0480314015370048,1647.7289345273205,0.0,0.0,0.0480314015370048,1132,0.0,99,Assisted_Takeoff,
0.337732529297968,36.9091320517754,4300,2018-03-30 04:37:09,1647.7289345273205,0.0,0.0,0.0519096016611072,1647.7289345273205,0.0,0.0,0.0519096016611072,1149,0.0,99,Assisted_Takeoff,
0.33773256050058403,36.9091320851275,4400,2018-03-30 04:37:09,1647.7289345273205,0.0,0.0,0.05609070179490241,1647.7289345273205,0.0,0.0,0.05609070179490241,1160,0.0,99,Assisted_Takeoff,
0.33773258008262297,36.909132113229795,4500,2018-03-30 04:37:09,1647.7289345273205,0.0,0.0,0.0590052018881664,1647.7289345273205,0.0,0.0,0.0590052018881664,1164,0.0,99,Assisted_Takeoff,
0.337732595654618,36.9091321372467,4600,2018-03-30 04:37:09,1647.7289345273205,0.0,0.0,0.06145060196641921,1647.7289345273205,0.0,0.0,0.06145060196641921,1169,0.0,99,Assisted_Takeoff,
0.337732630962541,36.909132152857794,4700,2018-03-30 04:37:10,1647.7289345273205,0.0,0.0,0.0657241021031712,1647.7289345273205,0.0,0.0,0.0657241021031712,1178,0.0,99,Assisted_Takeoff,
0.33773266450767303,36.909132170717,4800,2018-03-30 04:37:10,1647.7289345273205,0.0,0.0,0.0698962022366784,1647.7289345273205,0.0,0.0,0.0698962022366784,1196,0.0,99,Assisted_Takeoff,
0.33773268228051095,36.9091321860913,4900,2018-03-30 04:37:10,1647.7289345273205,0.0,0.0,0.07233040231457281,1647.7289345273205,0.0,0.0,0.07233040231457281,1220,0.0,99,Assisted_Takeoff,
0.33773268235786197,36.909132234888396,5000,2018-03-30 04:37:10,1647.7289345273205,0.0,0.0,0.07436080237954559,1647.7289345273205,0.0,0.0,0.07436080237954559,1230,0.0,99,Assisted_Takeoff,
0.33773269264881395,36.909132307574296,5100,2018-03-30 04:37:10,1647.7289345273205,0.0,0.35999970196000003,0.07897860252731521,1647.7289345273205,0.0,0.35999970196000003,0.07897860252731521,1237,0.0,99,P-GPS,
0.337732700834188,36.9091324192109,5200,2018-03-30 04:37:10,1647.7289345273205,0.0,0.35999970196000003,0.0864016027648512,1647.7289345273205,0.0,0.35999970196000003,0.0864016027648512,1246,0.0,99,P-GPS,
0.33773270390299104,36.909132522744,5300,2018-03-30 04:37:10,1647.7289345273205,0.0,0.35999970196000003,0.09385970300351042,1647.7289345273205,0.0,0.35999970196000003,0.09385970300351042,1252,0.0,99,P-GPS,
0.337732705352306,36.90913261306879,5400,2018-03-30 04:37:10,1647.8289345305204,0.10000000320000002,0.0,0.10089600322867201,1647.8289345305204,0.10000000320000002,0.35999970196000003,0.10089600322867201,1253,0.0,99,P-GPS,
0.33773270715906395,36.9091326682433,5500,2018-03-30 04:37:10,1647.8289345305204,0.10000000320000002,0.0,0.105503003376096,1647.8289345305204,0.10000000320000002,0.35999970196000003,0.105503003376096,1254,0.0,99,P-GPS,
0.33773270092945196,36.9091327046048,5600,2018-03-30 04:37:10,1647.9289345337204,0.20000000640000004,0.0,0.10808500345872,1647.9289345337204,0.20000000640000004,0.35999970196000003,0.10808500345872,1253,0.0,99,P-GPS,
0.33773269484314195,36.9091326963044,5700,2018-03-30 04:37:11,1648.0289345369206,0.3000000096,0.0,0.10694300342217601,1648.0289345369206,0.3000000096,0.35999970196000003,0.10808500345872,1253,0.0,99,P-GPS,
0.33773268912648996,36.9091326830293,5800,2018-03-30 04:37:11,1648.1289345401206,0.4000000128000001,0.0,0.105409003373088,1648.1289345401206,0.4000000128000001,0.35999970196000003,0.10808500345872,1255,0.0,99,P-GPS,Home Point Recorded. RTH Altitude:  30m.
0.33773269128010697,36.9091326639568,5900,2018-03-30 04:37:11,1648.1289345401206,0.4000000128000001,0.0,0.103969003327008,1648.1289345401206,0.4000000128000001,0.35999970196000003,0.10808500345872,1256,0.0,99,P-GPS,
0.337732695877204,36.9091326469452,6000,2018-03-30 04:37:11,1648.2289345433205,0.500000016,0.0,0.102907003293024,1648.2289345433205,0.500000016,0.35999970196000003,0.10808500345872,1257,0.0,99,P-GPS,
0.33773267845448196,36.9091326154774,6100,2018-03-30 04:37:11,1648.3289345465207,0.6000000192,0.0,0.0990223031687136,1648.3289345465207,0.6000000192,0.35999970196000003,0.10808500345872,1259,0.0,99,P-GPS,
0.33773265570186195,36.9091325781387,6200,2018-03-30 04:37:11,1648.4289345497207,0.7000000224000001,0.0,0.0942657030165024,1648.4289345497207,0.7000000224000001,0.35999970196000003,0.10808500345872,1267,0.0,99,P-GPS,
0.33773263337182396,36.9091325668378,6300,2018-03-30 04:37:11,1648.6289345561204,0.9000000288000001,0.0,0.09164730293271361,1648.6289345561204,0.9000000288000001,0.35999970196000003,0.10808500345872,1280,0.0,99,P-GPS,
0.33773261431333007,36.9091325639517,6400,2018-03-30 04:37:11,1648.7289345593206,1.000000032,0.0,0.08997560287921921,1648.7289345593206,1.000000032,0.35999970196000003,0.10808500345872,1312,0.0,99,P-GPS,
0.337732593397595,36.909132575894105,6500,2018-03-30 04:37:11,1648.8289345625205,1.1000000352,0.0,0.0894347028619104,1648.8289345625205,1.1000000352,0.35999970196000003,0.10808500345872,1333,0.0,99,P-GPS,
0.337732573108811,36.9091325769605,6600,2018-03-30 04:37:12,1648.9289345657205,1.2000000384,0.0,0.08807660281845121,1648.9289345657205,1.2000000384,0.35999970196000003,0.10808500345872,1379,0.0,99,P-GPS,
0.337732589053721,36.9091325654417,6700,2018-03-30 04:37:12,1649.0289345689205,1.3000000416000002,0.0,0.08823820282362241,1649.0289345689205,1.3000000416000002,0.35999970196000003,0.10808500345872,1397,0.0,99,P-GPS,
0.337732602726137,36.9091325504997,6800,2018-03-30 04:37:12,1649.2289345753206,1.5000000480000002,0.0,0.0880018028160576,1649.2289345753206,1.5000000480000002,0.35999970196000003,0.10808500345872,1417,0.0,99,P-GPS,
0.33773262247916197,36.9091325179629,6900,2018-03-30 04:37:12,1649.3289345785206,1.6000000512000003,0.0,0.08689500278064001,1649.3289345785206,1.6000000512000003,0.35999970196000003,0.10808500345872,1417,0.0,99,P-GPS,
0.33773263309417406,36.9091324812747,7000,2018-03-30 04:37:12,1649.5289345849205,1.8000000576000001,0.0,0.08492110271747522,1649.5289345849205,1.8000000576000001,0.35999970196000003,0.10808500345872,1423,0.0,99,P-GPS,
0.337732656915053,36.909132414584,7100,2018-03-30 04:37:12,1649.7289345913205,2.000000064,0.0,0.08217580262962561,1649.7289345913205,2.000000064,0.35999970196000003,0.10808500345872,1423,0.0,99,P-GPS,
0.337732677029593,36.9091323587273,7200,2018-03-30 04:37:12,1649.9289345977206,2.2000000704,0.0,0.0804148025732736,1649.9289345977206,2.2000000704,0.35999970196000003,0.10808500345872,1426,0.0,99,P-GPS,
0.337732737083351,36.9091323006964,7300,2018-03-30 04:37:12,1650.2289346073205,2.50000008,0.0,0.0829929026557728,1650.2289346073205,2.50000008,0.35999970196000003,0.10808500345872,1436,0.0,99,P-GPS,
0.337732801749677,36.9091322561508,7400,2018-03-30 04:37:12,1650.4289346137205,2.7000000863999998,0.0,0.0875196028006272,1650.4289346137205,2.7000000863999998,0.35999970196000003,0.10808500345872,1436,0.0,99,P-GPS,
0.33773283111947805,36.9091322093002,7500,2018-03-30 04:37:12,1650.7289346233206,3.0000000960000004,0.0,0.08883020284256642,1650.7289346233206,3.0000000960000004,0.35999970196000003,0.10808500345872,1437,0.0,99,P-GPS,
0.337732842727841,36.9091321761641,7600,2018-03-30 04:37:12,1650.9289346297205,3.2000001024000007,0.0,0.0890162028485184,1650.9289346297205,3.2000001024000007,0.35999970196000003,0.10808500345872,1441,0.0,99,P-GPS,
0.33773284253568503,36.9091321323366,7700,2018-03-30 04:37:13,1651.2289346393204,3.500000112,0.0,0.08783350281067201,1651.2289346393204,3.500000112,0.35999970196000003,0.10808500345872,1442,0.0,99,P-GPS,
0.33773285507388895,36.909132106228,7800,2018-03-30 04:37:13,1651.4289346457206,3.7000001184,0.0,0.08863520283632641,1651.4289346457206,3.7000001184,0.35999970196000003,0.10808500345872,1442,0.0,99,P-GPS,
0.33773285770057,36.9091320986207,7900,2018-03-30 04:37:13,1651.7289346553205,4.000000128,0.0,0.08877680284085761,1651.7289346553205,4.000000128,0.35999970196000003,0.10808500345872,1442,0.0,99,P-GPS,
0.33773286859974494,36.909132104491704,8000,2018-03-30 04:37:13,1651.9289346617206,4.2000001344,0.0,0.09008230288263361,1651.9289346617206,4.2000001344,0.35999970196000003,0.10808500345872,1442,0.0,99,P-GPS,
0.337732888132117,36.9091321138976,8100,2018-03-30 04:37:13,1652.2289346713205,4.5000001439999995,0.0,0.0924047029569504,1652.2289346713205,4.5000001439999995,0.35999970196000003,0.10808500345872,1443,0.0,99,P-GPS,
0.33773291238209097,36.9091321205488,8200,2018-03-30 04:37:13,1652.5289346809207,4.8000001536,0.0,0.0951907030461024,1652.5289346809207,4.8000001536,0.35999970196000003,0.10808500345872,1445,0.0,99,P-GPS,
0.33773291860844606,36.9091321146569,8300,2018-03-30 04:37:13,1652.7289346873206,5.00000016,0.0,0.0957553030641696,1652.7289346873206,5.00000016,0.35999970196000003,0.10808500345872,1454,0.0,99,P-GPS,
0.337732927712262,36.9091321047845,8400,2018-03-30 04:37:13,1653.0289346969207,5.3000001696,0.0,0.09656920309021441,1653.0289346969207,5.3000001696,0.35999970196000003,0.10808500345872,1470,0.0,99,P-GPS,
0.33773295516945695,36.9091320635005,8500,2018-03-30 04:37:13,1653.2289347033204,5.500000176000001,0.0,0.098969503167024,1653.2289347033204,5.500000176000001,0.35999970196000003,0.10808500345872,1475,0.0,99,P-GPS,
0.337732980795466,36.9091320257522,8600,2018-03-30 04:37:13,1653.5289347129205,5.8000001856,0.0,0.10143500324592,1653.5289347129205,5.8000001856,0.35999970196000003,0.10808500345872,1483,0.0,99,P-GPS,
0.337732954054787,36.9091320050294,8700,2018-03-30 04:37:14,1653.8289347225207,6.1000001952,0.0,0.0983359031467488,1653.8289347225207,6.1000001952,0.35999970196000003,0.10808500345872,1483,0.0,99,P-GPS,
0.33773292390496,36.9091320039256,8800,2018-03-30 04:37:14,1654.1289347321206,6.400000204800001,0.0,0.09498100303939201,1654.1289347321206,6.400000204800001,0.35999970196000003,0.10808500345872,1494,0.0,99,P-GPS,
0.33773288688065806,36.9091319775486,8900,2018-03-30 04:37:14,1654.4289347417205,6.7000002144,0.0,0.0907746029047872,1654.4289347417205,6.7000002144,0.35999970196000003,0.10808500345872,1496,0.0,99,P-GPS,
0.33773286448711,36.909131945004795,9000,2018-03-30 04:37:14,1654.6289347481206,6.9000002208,0.0,0.0883001028256032,1654.6289347481206,6.9000002208,0.35999970196000003,0.10808500345872,1496,0.0,99,P-GPS,
0.33773284875227005,36.9091319056883,9100,2018-03-30 04:37:14,1654.9289347577205,7.200000230400001,0.0,0.08677150277668799,1654.9289347577205,7.200000230400001,0.35999970196000003,0.10808500345872,1498,0.0,99,P-GPS,
0.33773284217335603,36.9091318784789,9200,2018-03-30 04:37:14,1655.3289347705206,7.600000243199999,0.0,0.0863254027624128,1655.3289347705206,7.600000243199999,0.35999970196000003,0.10808500345872,1503,0.0,99,P-GPS,
0.33773286445616996,36.909131835870596,9300,2018-03-30 04:37:14,1655.6289347801207,7.9000002528,0.0,0.0894242028615744,1655.6289347801207,7.9000002528,0.35999970196000003,0.10808500345872,1505,0.0,99,P-GPS,
0.337732893719308,36.9091318012934,9400,2018-03-30 04:37:14,1655.9289347897204,8.200000262400001,0.0,0.0933098029859136,1655.9289347897204,8.200000262400001,0.35999970196000003,0.10808500345872,1526,0.0,99,P-GPS,
0.33773291842524605,36.9091317389627,9500,2018-03-30 04:37:14,1656.2289347993205,8.500000272000001,0.0,0.09755560312177922,1656.2289347993205,8.500000272000001,0.35999970196000003,0.10808500345872,1539,0.0,99,P-GPS,
0.33773292824964896,36.9091316768183,9600,2018-03-30 04:37:14,1656.5289348089207,8.8000002816,0.0,0.10059300321897599,1656.5289348089207,8.8000002816,0.35999970196000003,0.10808500345872,1544,0.0,99,P-GPS,
0.33773292876260896,36.9091316204191,9700,2018-03-30 04:37:15,1656.8289348185206,9.1000002912,0.0,0.102814003290048,1656.8289348185206,9.1000002912,0.35999970196000003,0.10808500345872,1546,0.0,99,P-GPS,
0.337732921442753,36.9091315753154,9800,2018-03-30 04:37:15,1657.2289348313207,9.500000304,0.0,0.10404400332940801,1657.2289348313207,9.500000304,0.35999970196000003,0.10808500345872,1548,0.0,99,P-GPS,
0.3377329127769881,36.9091315297024,9900,2018-03-30 04:37:15,1657.5289348409208,9.8000003136,0.0,0.105398003372736,1657.5289348409208,9.8000003136,0.35999970196000003,0.10808500345872,1550,0.0,99,P-GPS,
0.337732906750931,36.9091314924455,10000,2018-03-30 04:37:15,1657.9289348537206,10.2000003264,0.0,0.10677900341692799,1657.9289348537206,10.2000003264,0.35999970196000003,0.10808500345872,1553,0.0,99,P-GPS,
0.337732902433926,36.909131425028896,10100,2018-03-30 04:37:15,1658.2289348633205,10.500000336,0.0,0.11025500352816002,1658.2289348633205,10.500000336,0.35999970196000003,0.11025500352816002,1555,0.0,99,P-GPS,
0.3377328979019669,36.909131366378396,10200,2018-03-30 04:37:15,1658.6289348761204,10.9000003488,0.0,0.11352800363289599,1658.6289348761204,10.9000003488,0.35999970196000003,0.11352800363289599,1564,0.0,99,P-GPS,
0.337732867548585,36.909131301331,10300,2018-03-30 04:37:15,1658.9289348857205,11.200000358400002,0.0,0.115299003689568,1658.9289348857205,11.200000358400002,0.35999970196000003,0.115299003689568,1565,0.0,99,P-GPS,
0.337732839249485,36.909131247781,10400,2018-03-30 04:37:15,1659.3289348985204,11.6000003712,0.0,0.11687600374003201,1659.3289348985204,11.6000003712,0.35999970196000003,0.11687600374003201,1566,0.0,99,P-GPS,
0.33773278875632207,36.9091312117569,10500,2018-03-30 04:37:15,1659.7289349113205,12.000000384000002,0.0,0.1157000037024,1659.7289349113205,12.000000384000002,0.35999970196000003,0.11687600374003201,1570,0.0,99,P-GPS,
0.33773275053185603,36.9091311789469,10600,2018-03-30 04:37:15,1660.1289349241204,12.4000003968,0.0,0.115543003697376,1660.1289349241204,12.4000003968,0.35999970196000003,0.11687600374003201,1574,0.0,99,P-GPS,
0.337732716869476,36.9091311363685,10700,2018-03-30 04:37:16,1660.4289349337205,12.700000406400001,0.0,0.116824003738368,1660.4289349337205,12.700000406400001,0.35999970196000003,0.11687600374003201,1575,0.0,99,P-GPS,
0.337732690003407,36.9091310942119,10800,2018-03-30 04:37:16,1660.8289349465206,13.100000419199999,0.0,0.118799003801568,1660.8289349465206,13.100000419199999,0.35999970196000003,0.118799003801568,1577,0.0,99,P-GPS,
0.337732640164878,36.909131037295296,10900,2018-03-30 04:37:16,1661.2289349593204,13.500000432000002,0.0,0.12102000387264,1661.2289349593204,13.500000432000002,0.35999970196000003,0.12102000387264,1577,0.0,99,P-GPS,
0.33773258831929304,36.909130981493796,11000,2018-03-30 04:37:16,1661.6289349721205,13.9000004448,0.0,0.123561003953952,1661.6289349721205,13.9000004448,0.35999970196000003,0.123561003953952,1582,0.0,99,P-GPS,
0.33773255026744203,36.909130891341,11100,2018-03-30 04:37:16,1662.0289349849204,14.300000457600001,0.0,0.13073200418342404,1662.0289349849204,14.300000457600001,0.35999970196000003,0.13073200418342404,1582,0.0,99,P-GPS,
0.33773252049541397,36.909130806327205,11200,2018-03-30 04:37:16,1662.4289349977205,14.7000004704,0.0,0.13818400442188802,1662.4289349977205,14.7000004704,0.35999970196000003,0.13818400442188802,1582,0.0,99,P-GPS,
0.33773247935929,36.90913072614239,11300,2018-03-30 04:37:16,1662.8289350105204,15.100000483200002,0.0,0.145034004641088,1662.8289350105204,15.100000483200002,0.35999970196000003,0.145034004641088,1582,0.0,99,P-GPS,
0.337732449652401,36.9091306672361,11400,2018-03-30 04:37:16,1663.2289350233204,15.500000496,0.0,0.150309004809888,1663.2289350233204,15.500000496,0.35999970196000003,0.150309004809888,1584,0.0,99,P-GPS,
0.337732464439487,36.90913058239779,11500,2018-03-30 04:37:16,1663.6289350361203,15.900000508800002,0.0,0.15983000511456003,1663.6289350361203,15.900000508800002,0.35999970196000003,0.15983000511456003,1584,0.0,99,P-GPS,
0.337732500695164,36.909130483979396,11600,2018-03-30 04:37:17,1664.0289350489206,16.3000005216,0.0,0.17146200548678403,1664.0289350489206,16.3000005216,0.35999970196000003,0.17146200548678403,1584,0.0,99,P-GPS,
0.337732512862083,36.909130369729205,11700,2018-03-30 04:37:17,1664.4289350617207,16.7000005344,0.0,0.18405400588972803,1664.4289350617207,16.7000005344,0.35999970196000003,0.18405400588972803,1585,0.0,99,P-GPS,
0.337732509587282,36.9091302641226,11800,2018-03-30 04:37:17,1664.8289350745206,17.1000005472,0.0,0.19530500624976002,1664.8289350745206,17.1000005472,0.35999970196000003,0.19530500624976002,1587,0.0,99,P-GPS,
0.33773248796236,36.9091301465722,11900,2018-03-30 04:37:17,1665.2289350873207,17.50000056,0.0,0.20743700663798403,1665.2289350873207,17.50000056,0.35999970196000003,0.20743700663798403,1590,0.0,99,P-GPS,
0.33773247429320097,36.9091300565645,12000,2018-03-30 04:37:17,1665.6289351001205,17.9000005728,0.0,0.21688500694032004,1665.6289351001205,17.9000005728,0.35999970196000003,0.21688500694032004,1591,0.0,99,P-GPS,
0.33773246320268296,36.909129987955204,12100,2018-03-30 04:37:17,1666.0289351129206,18.3000005856,0.0,0.224111007171552,1666.0289351129206,18.3000005856,0.35999970196000003,0.224111007171552,1591,0.0,99,P-GPS,
0.337732463094392,36.90912994896021,12200,2018-03-30 04:37:17,1666.4289351257205,18.7000005984,0.0,0.22836400730764803,1666.4289351257205,18.7000005984,0.35999970196000003,0.22836400730764803,1591,0.0,99,P-GPS,
0.337732505938753,36.9091299073914,12300,2018-03-30 04:37:17,1666.8289351385206,19.1000006112,0.0,0.233842007482944,1666.8289351385206,19.1000006112,0.35999970196000003,0.233842007482944,1593,0.0,99,P-GPS,
0.33773257375204696,36.9091298811024,12400,2018-03-30 04:37:17,1667.3289351545204,19.6000006272,0.0,0.23836000762752,1667.3289351545204,19.6000006272,0.35999970196000003,0.23836000762752,1593,0.0,99,P-GPS,
0.337732642191477,36.909129847902705,12500,2018-03-30 04:37:17,1667.7289351673205,20.00000064,0.0,0.24382200780230406,1667.7289351673205,20.00000064,0.35999970196000003,0.24382200780230406,1594,0.0,99,P-GPS,
0.337732706864316,36.9091298265166,12600,2018-03-30 04:37:17,1668.1289351801204,20.4000006528,0.0,0.24807300793833603,1668.1289351801204,20.4000006528,0.35999970196000003,0.24807300793833603,1593,0.0,99,P-GPS,
0.33773277411661,36.909129784477294,12700,2018-03-30 04:37:18,1668.5289351929205,20.800000665600002,0.0,0.25475400815212806,1668.5289351929205,20.800000665600002,0.35999970196000003,0.25475400815212806,1592,0.0,99,P-GPS,
0.33773284358358896,36.9091297538298,12800,2018-03-30 04:37:18,1668.9289352057206,21.2000006784,0.0,0.260446008334272,1668.9289352057206,21.2000006784,0.35999970196000003,0.260446008334272,1594,0.0,99,P-GPS,
0.337732935528794,36.9091297587493,12900,2018-03-30 04:37:18,1669.3289352185204,21.600000691199998,0.0,0.26348700843158396,1669.3289352185204,21.600000691199998,0.35999970196000003,0.26348700843158396,1595,0.0,99,P-GPS,
0.33773303147508504,36.9091297824244,13000,2018-03-30 04:37:18,1669.8289352345207,22.1000007072,0.0,0.26515400848492804,1669.8289352345207,22.1000007072,0.35999970196000003,0.26515400848492804,1595,0.0,99,P-GPS,
0.33773311923518895,36.909129786289796,13100,2018-03-30 04:37:18,1670.2289352473206,22.50000072,0.0,0.26884800860313607,1670.2289352473206,22.50000072,0.35999970196000003,0.26884800860313607,1597,0.0,99,P-GPS,
0.33773320367571,36.909129793436705,13200,2018-03-30 04:37:18,1670.6289352601207,22.900000732800002,0.0,0.272347008715104,1670.6289352601207,22.900000732800002,0.35999970196000003,0.272347008715104,1598,0.0,99,P-GPS,
0.33773330079610997,36.90912982833979,13300,2018-03-30 04:37:18,1671.0289352729205,23.300000745600002,0.0,0.27413800877241606,1671.0289352729205,23.300000745600002,0.35999970196000003,0.27413800877241606,1598,0.0,99,P-GPS,
0.33773340196482204,36.9091298740846,13400,2018-03-30 04:37:18,1671.5289352889206,23.800000761600003,0.0,0.275618008819776,1671.5289352889206,23.800000761600003,0.35999970196000003,0.275618008819776,1600,0.0,99,P-GPS,
0.337733509832952,36.909129911231204,13500,2018-03-30 04:37:18,1671.9289353017205,24.2000007744,0.0,0.27885000892320005,1671.9289353017205,24.2000007744,0.35999970196000003,0.27885000892320005,1600,0.0,99,P-GPS,
0.337733610567684,36.909129949306,13600,2018-03-30 04:37:18,1672.3289353145205,24.600000787200003,0.0,0.2820500090256,1672.3289353145205,24.600000787200003,0.35999970196000003,0.2820500090256,1600,0.0,99,P-GPS,
0.337733710905889,36.90912996491289,13700,2018-03-30 04:37:19,1672.7289353273204,25.000000800000002,0.0,0.287617009203744,1672.7289353273204,25.000000800000002,0.35999970196000003,0.287617009203744,1600,0.0,99,P-GPS,
0.33773380469774894,36.9091299885328,13800,2018-03-30 04:37:19,1673.1289353401205,25.400000812800002,0.0,0.29236300935561604,1673.1289353401205,25.400000812800002,0.35999970196000003,0.29236300935561604,1601,0.0,99,P-GPS,
0.337733897682716,36.9091300256928,13900,2018-03-30 04:37:19,1673.5289353529204,25.800000825599998,0.0,0.29626300948041606,1673.5289353529204,25.800000825599998,0.35999970196000003,0.29626300948041606,1601,0.0,99,P-GPS,
0.337733978349318,36.9091300818937,14000,2018-03-30 04:37:19,1674.0289353689207,26.300000841600003,0.0,0.29806200953798395,1674.0289353689207,26.300000841600003,0.35999970196000003,0.29806200953798395,1603,0.0,99,P-GPS,
0.337734054304017,36.909130143258096,14100,2018-03-30 04:37:19,1674.4289353817207,26.700000854400002,0.0,0.29947500958320006,1674.4289353817207,26.700000854400002,0.35999970196000003,0.29947500958320006,1603,0.0,99,P-GPS,
0.337734111681427,36.9091302047661,14200,2018-03-30 04:37:19,1674.8289353945206,27.100000867200002,0.0,0.29969500959024,1674.8289353945206,27.100000867200002,0.35999970196000003,0.29969500959024,1605,0.0,99,P-GPS,
0.33773420124991804,36.9091302959482,14300,2018-03-30 04:37:19,1675.3289354105204,27.6000008832,0.0,0.30095100963043203,1675.3289354105204,27.6000008832,0.35999970196000003,0.30095100963043203,1605,0.0,99,P-GPS,
0.33773428388367993,36.909130391359895,14400,2018-03-30 04:37:19,1675.7289354233205,28.000000896,0.0,0.301969009663008,1675.7289354233205,28.000000896,0.35999970196000003,0.301969009663008,1606,0.0,99,P-GPS,
0.33773439125432103,36.909130503895994,14500,2018-03-30 04:37:19,1676.2289354393204,28.500000912,0.0,0.30493100975779197,1676.2289354393204,28.500000912,0.35999970196000003,0.30493100975779197,1606,0.0,99,P-GPS,
0.33773447839398696,36.9091305997771,14600,2018-03-30 04:37:19,1676.6289354521205,28.9000009248,0.0,0.30777900984892803,1676.6289354521205,28.9000009248,0.35999970196000003,0.30777900984892803,1611,0.0,99,P-GPS,
0.33773457370111504,36.9091307059131,14700,2018-03-30 04:37:20,1677.0289354649203,29.300000937600004,0.0,0.3115640099700481,1677.0289354649203,29.300000937600004,0.35999970196000003,0.3115640099700481,1611,0.0,99,P-GPS,
0.337734646885831,36.9091307905709,14800,2018-03-30 04:37:20,1677.5289354809206,29.8000009536,0.0,0.31483601007475204,1677.5289354809206,29.8000009536,0.35999970196000003,0.31483601007475204,1614,0.0,99,P-GPS,
0.337734746232314,36.9091308818982,14900,2018-03-30 04:37:20,1677.9289354937207,30.200000966400005,0.0,0.32097501027120007,1677.9289354937207,30.200000966400005,0.35999970196000003,0.32097501027120007,1614,0.0,99,P-GPS,
0.33773483275480004,36.9091309623276,15000,2018-03-30 04:37:20,1678.3289355065206,30.6000009792,0.0,0.32675601045619196,1678.3289355065206,30.6000009792,0.35999970196000003,0.32675601045619196,1613,0.0,99,P-GPS,
0.33773493612598204,36.909131064399,15100,2018-03-30 04:37:20,1678.8289355225204,31.100000995200002,0.0,0.33400901068828803,1678.8289355225204,31.100000995200002,0.35999970196000003,0.33400901068828803,1615,0.0,99,P-GPS,
0.33773502308814896,36.90913115590929,15200,2018-03-30 04:37:20,1679.2289355353205,31.500001007999998,0.0,0.34041801089337603,1679.2289355353205,31.500001007999998,0.35999970196000003,0.34041801089337603,1615,0.0,99,P-GPS,
0.337735101676856,36.909131236637,15300,2018-03-30 04:37:20,1679.6289355481206,31.9000010208,0.0,0.3466490110927681,1679.6289355481206,31.9000010208,0.35999970196000003,0.3466490110927681,1614,0.0,99,P-GPS,
0.337735166997002,36.9091313030232,15400,2018-03-30 04:37:20,1680.1289355641206,32.4000010368,0.0,0.35210001126720003,1680.1289355641206,32.4000010368,0.35999970196000003,0.35210001126720003,1615,0.0,99,P-GPS,
0.337735255739057,36.9091313493171,15500,2018-03-30 04:37:20,1680.5289355769207,32.800001049600006,0.0,0.36074501154384003,1680.5289355769207,32.800001049600006,0.35999970196000003,0.36074501154384003,1615,0.0,99,P-GPS,
0.337735329815346,36.9091313763956,15600,2018-03-30 04:37:20,1681.0289355929206,33.3000010656,0.0,0.36828901178524803,1681.0289355929206,33.3000010656,0.35999970196000003,0.36828901178524803,1615,0.0,99,P-GPS,
0.337735421753223,36.9091314090912,15700,2018-03-30 04:37:21,1681.4289356057207,33.70000107840001,0.0,0.37774301208777605,1681.4289356057207,33.70000107840001,0.35999970196000003,0.37774301208777605,1615,0.0,99,P-GPS,
0.3377354948842,36.9091314252435,15800,2018-03-30 04:37:21,1681.9289356217205,34.2000010944,0.0,0.38548501233552,1681.9289356217205,34.2000010944,0.35999970196000003,0.38548501233552,1615,0.0,99,P-GPS,
0.337735560473039,36.9091314097432,15900,2018-03-30 04:37:21,1682.3289356345206,34.6000011072,0.0,0.392959012574688,1682.3289356345206,34.6000011072,0.35999970196000003,0.392959012574688,1614,0.0,99,P-GPS,
0.33773560623557203,36.90913138410829,16000,2018-03-30 04:37:21,1682.7289356473204,35.00000112,0.0,0.39843801275001606,1682.7289356473204,35.00000112,0.35999970196000003,0.39843801275001606,1615,0.0,99,P-GPS,
0.3377356697465169,36.9091313558901,16100,2018-03-30 04:37:21,1683.2289356633207,35.500001136,0.0,0.40592001298944,1683.2289356633207,35.500001136,0.35999970196000003,0.40592001298944,1615,0.0,99,P-GPS,
0.33773572327998497,36.9091313188624,16200,2018-03-30 04:37:21,1683.6289356761206,35.9000011488,0.0,0.41248801319961603,1683.6289356761206,35.9000011488,0.35999970196000003,0.41248801319961603,1614,0.0,99,P-GPS,
0.337735783314201,36.9091312795173,16300,2018-03-30 04:37:21,1684.1289356921206,36.4000011648,0.0,0.419836013434752,1684.1289356921206,36.4000011648,0.35999970196000003,0.419836013434752,1615,0.0,99,P-GPS,
0.33773582414254905,36.9091312295329,16400,2018-03-30 04:37:21,1684.5289357049205,36.8000011776,0.0,0.42533501361071996,1684.5289357049205,36.8000011776,0.35999970196000003,0.42533501361071996,1617,0.0,99,P-GPS,
0.337735875161699,36.9091312023537,16500,2018-03-30 04:37:21,1685.0289357209203,37.3000011936,0.0,0.43148801380761603,1685.0289357209203,37.3000011936,0.35999970196000003,0.43148801380761603,1616,0.0,99,P-GPS,
0.337735915387523,36.9091311766076,16600,2018-03-30 04:37:21,1685.4289357337204,37.700001206399996,0.0,0.436441013966112,1685.4289357337204,37.700001206399996,0.35999970196000003,0.436441013966112,1618,0.0,99,P-GPS,
0.33773595195911793,36.9091311552349,16700,2018-03-30 04:37:22,1685.8289357465205,38.1000012192,0.0,0.44090501410896005,1685.8289357465205,38.1000012192,0.35999970196000003,0.44090501410896005,1619,0.0,98,P-GPS,
0.33773598480483397,36.9091311297526,16800,2018-03-30 04:37:22,1686.3289357625206,38.600001235200004,0.0,0.44506401424204806,1686.3289357625206,38.600001235200004,0.35999970196000003,0.44506401424204806,1620,0.0,98,P-GPS,
0.337736033067028,36.9091311081412,16900,2018-03-30 04:37:22,1686.7289357753207,39.000001248000004,0.0,0.450816014426112,1686.7289357753207,39.000001248000004,0.35999970196000003,0.450816014426112,1620,0.0,98,P-GPS,
0.33773608009649103,36.9091310843307,17000,2018-03-30 04:37:22,1687.2289357913205,39.500001264000005,0.0,0.45649001460768,1687.2289357913205,39.500001264000005,0.35999970196000003,0.45649001460768,1620,0.0,98,P-GPS,
0.337736134620053,36.909131052087005,17100,2018-03-30 04:37:22,1687.6289358041206,39.900001276800005,0.0,0.463186014821952,1687.6289358041206,39.900001276800005,0.35999970196000003,0.463186014821952,1621,0.0,98,P-GPS,
0.33773617909122994,36.9091310204005,17200,2018-03-30 04:37:22,1688.1289358201204,40.400001292800006,0.0,0.468789015001248,1688.1289358201204,40.400001292800006,0.35999970196000003,0.468789015001248,1621,0.0,98,P-GPS,
0.337736200941692,36.9091309751226,17300,2018-03-30 04:37:22,1688.5289358329208,40.8000013056,0.0,0.47230501511376005,1688.5289358329208,40.8000013056,0.35999970196000003,0.47230501511376005,1623,0.0,98,P-GPS,
0.33773621496422307,36.9091309284271,17400,2018-03-30 04:37:22,1689.0289358489206,41.30000132160001,0.0,0.47505501520176,1689.0289358489206,41.30000132160001,0.35999970196000003,0.47505501520176,1624,0.0,98,P-GPS,
0.337736236015118,36.9091308697949,17500,2018-03-30 04:37:22,1689.4289358617207,41.7000013344,0.0,0.478942015326144,1689.4289358617207,41.7000013344,0.35999970196000003,0.478942015326144,1624,0.0,98,P-GPS,
0.337736256386953,36.9091308136052,17600,2018-03-30 04:37:22,1689.9289358777205,42.2000013504,0.0,0.482753015448096,1689.9289358777205,42.2000013504,0.35999970196000003,0.482753015448096,1624,0.0,98,P-GPS,
0.337736262190727,36.909130771605,17700,2018-03-30 04:37:23,1690.3289358905206,42.60000136320001,0.0,0.4846330155082561,1690.3289358905206,42.60000136320001,0.35999970196000003,0.4846330155082561,1624,0.0,98,P-GPS,
0.337736259617786,36.90913073412921,17800,2018-03-30 04:37:23,1690.7289359033205,43.000001376,0.0,0.4855160155365119,1690.7289359033205,43.000001376,0.35999970196000003,0.4855160155365119,1624,0.0,98,P-GPS,
0.337736251767057,36.9091306912757,17900,2018-03-30 04:37:23,1691.2289359193207,43.500001391999994,0.0,0.48604501555344004,1691.2289359193207,43.500001391999994,0.35999970196000003,0.48604501555344004,1624,0.0,98,P-GPS,
0.33773625311378,36.9091306471738,18000,2018-03-30 04:37:23,1691.6289359321206,43.9000014048,0.0,0.48763901560444806,1691.6289359321206,43.9000014048,0.35999970196000003,0.48763901560444806,1624,0.0,98,P-GPS,
0.337736249938315,36.9091306065894,18100,2018-03-30 04:37:23,1692.1289359481207,44.4000014208,0.0,0.4886780156376961,1692.1289359481207,44.4000014208,0.35999970196000003,0.4886780156376961,1626,0.0,98,P-GPS,
0.337736248254504,36.9091305684969,18200,2018-03-30 04:37:23,1692.5289359609205,44.80000143360001,0.0,0.48982601567443207,1692.5289359609205,44.80000143360001,0.35999970196000003,0.48982601567443207,1626,0.0,98,P-GPS,
0.33773624041843103,36.909130548207706,18300,2018-03-30 04:37:23,1692.9289359737206,45.2000014464,0.0,0.489721015671072,1692.9289359737206,45.2000014464,0.35999970196000003,0.48982601567443207,1626,0.0,98,P-GPS,
0.33773623318651097,36.9091305238443,18400,2018-03-30 04:37:23,1693.4289359897205,45.700001462399996,0.0,0.48983901567484806,1693.4289359897205,45.700001462399996,0.35999970196000003,0.48983901567484806,1625,0.0,98,P-GPS,
0.33773622355426497,36.909130489514396,18500,2018-03-30 04:37:23,1693.9289360057207,46.20000147840001,0.0,0.49009201568294397,1693.9289360057207,46.20000147840001,0.35999970196000003,0.49009201568294397,1626,0.0,98,P-GPS,
0.33773621691346994,36.909130449638795,18600,2018-03-30 04:37:23,1694.3289360185206,46.600001491200004,0.0,0.49090001570880004,1694.3289360185206,46.600001491200004,0.35999970196000003,0.49090001570880004,1627,0.0,98,P-GPS,
0.33773620914742103,36.9091304424202,18700,2018-03-30 04:37:24,1694.8289360345207,47.1000015072,0.0,0.49036501569168,1694.8289360345207,47.1000015072,0.35999970196000003,0.49090001570880004,1630,0.0,98,P-GPS,
0.33773620626019,36.9091304469826,18800,2018-03-30 04:37:24,1695.2289360473205,47.500001520000005,0.0,0.48988901567644805,1695.2289360473205,47.500001520000005,0.35999970196000003,0.49090001570880004,1627,0.0,98,P-GPS,
0.33773620670964005,36.9091304477583,18900,2018-03-30 04:37:24,1695.7289360633204,48.000001536000006,0.0,0.48990601567699205,1695.7289360633204,48.000001536000006,0.35999970196000003,0.49090001570880004,1628,0.0,98,P-GPS,
0.33773620825503403,36.9091304353231,19000,2018-03-30 04:37:24,1696.1289360761205,48.4000015488,0.0,0.49054501569744,1696.1289360761205,48.4000015488,0.35999970196000003,0.49090001570880004,1628,0.0,98,P-GPS,
0.33773621144352695,36.9091304269964,19100,2018-03-30 04:37:24,1696.6289360921207,48.9000015648,0.0,0.49120001571840005,1696.6289360921207,48.9000015648,0.35999970196000003,0.49120001571840005,1627,0.0,98,P-GPS,
0.33773622127607206,36.9091304144969,19200,2018-03-30 04:37:24,1697.0289361049206,49.30000157760001,0.0,0.492709015766688,1697.0289361049206,49.30000157760001,0.35999970196000003,0.492709015766688,1631,0.0,98,P-GPS,
0.337736231043479,36.9091303844555,19300,2018-03-30 04:37:24,1697.5289361209204,49.8000015936,0.0,0.494903015836896,1697.5289361209204,49.8000015936,0.35999970196000003,0.494903015836896,1634,0.0,98,P-GPS,
0.33773624113494605,36.909130358091,19400,2018-03-30 04:37:24,1697.9289361337205,50.200001606399994,0.0,0.49699901590396806,1697.9289361337205,50.200001606399994,0.35999970196000003,0.49699901590396806,1632,0.0,98,P-GPS,
0.33773626749619795,36.9091303522401,19500,2018-03-30 04:37:24,1698.4289361497204,50.7000016224,0.0,0.49996901599900806,1698.4289361497204,50.7000016224,0.35999970196000003,0.49996901599900806,1632,0.0,98,P-GPS,
0.33773629940555794,36.909130353879796,19600,2018-03-30 04:37:24,1698.8289361625204,51.1000016352,0.0,0.503218016102976,1698.8289361625204,51.1000016352,0.35999970196000003,0.503218016102976,1635,0.0,98,P-GPS,
0.33773632940149606,36.9091303648332,19700,2018-03-30 04:37:25,1699.3289361785207,51.600001651199996,0.0,0.505907016189024,1699.3289361785207,51.600001651199996,0.35999970196000003,0.505907016189024,1634,0.0,98,P-GPS,
0.33773634826702,36.9091303779552,19800,2018-03-30 04:37:25,1699.8289361945206,52.1000016672,0.0,0.5073620162355841,1699.8289361945206,52.1000016672,0.35999970196000003,0.5073620162355841,1634,0.0,98,P-GPS,
0.33773638986399396,36.9091303945327,19900,2018-03-30 04:37:25,1700.2289362073204,52.500001680000004,0.0,0.5110690163542081,1700.2289362073204,52.500001680000004,0.35999970196000003,0.5110690163542081,1635,0.0,98,P-GPS,
0.337736432773493,36.9091304062093,20000,2018-03-30 04:37:25,1700.7289362233205,53.000001696000005,0.0,0.5151180164837761,1700.7289362233205,53.000001696000005,0.35999970196000003,0.5151180164837761,1635,0.0,98,P-GPS,
0.337736494615282,36.9091304486699,20100,2018-03-30 04:37:25,1701.2289362393205,53.500001712,0.0,0.520049016641568,1701.2289362393205,53.500001712,0.35999970196000003,0.520049016641568,1635,0.0,98,P-GPS,
0.33773655094315996,36.9091304947176,20200,2018-03-30 04:37:25,1701.6289362521206,53.900001724800006,0.0,0.52436001677952,1701.6289362521206,53.900001724800006,0.35999970196000003,0.52436001677952,1635,0.0,98,P-GPS,
0.337736591939238,36.9091305370926,20300,2018-03-30 04:37:25,1702.1289362681205,54.40000174080001,0.0,0.527256016872192,1702.1289362681205,54.40000174080001,0.35999970196000003,0.527256016872192,1634,0.0,98,P-GPS,
0.337736626056768,36.9091305704455,20400,2018-03-30 04:37:25,1702.6289362841205,54.9000017568,0.0,0.5297780169528961,1702.6289362841205,54.9000017568,0.35999970196000003,0.5297780169528961,1635,0.0,98,P-GPS,
0.337736673389121,36.909130617438,20500,2018-03-30 04:37:25,1703.0289362969204,55.3000017696,0.0,0.533322017066304,1703.0289362969204,55.3000017696,0.35999970196000003,0.533322017066304,1632,0.0,98,P-GPS,
0.337736726238642,36.9091306599987,20600,2018-03-30 04:37:25,1703.5289363129207,55.8000017856,0.0,0.537668017205376,1703.5289363129207,55.8000017856,0.35999970196000003,0.537668017205376,1635,0.0,98,P-GPS,
0.33773678580386696,36.909130706563,20700,2018-03-30 04:37:26,1704.0289363289205,56.3000018016,0.0,0.542692017366144,1704.0289363289205,56.3000018016,0.35999970196000003,0.542692017366144,1635,0.0,98,P-GPS,
0.337736840557039,36.9091307401685,20800,2018-03-30 04:37:26,1704.4289363417206,56.700001814400004,0.0,0.5476360175243521,1704.4289363417206,56.700001814400004,0.35999970196000003,0.5476360175243521,1635,0.0,98,P-GPS,
0.33773691731374705,36.9091307810816,20900,2018-03-30 04:37:26,1704.9289363577204,57.200001830400005,0.0,0.554811017753952,1704.9289363577204,57.200001830400005,0.35999970196000003,0.554811017753952,1635,0.0,98,P-GPS,
0.33773698276905395,36.909130810049206,21000,2018-03-30 04:37:26,1705.3289363705205,57.600001843200005,0.0,0.561139017956448,1705.3289363705205,57.600001843200005,0.35999970196000003,0.561139017956448,1636,0.0,98,P-GPS,
0.33773704354258394,36.9091308261561,21100,2018-03-30 04:37:26,1705.8289363865206,58.100001859200006,0.0,0.567317018154144,1705.8289363865206,58.100001859200006,0.35999970196000003,0.567317018154144,1636,0.0,98,P-GPS,
0.337737084900176,36.9091308311285,21200,2018-03-30 04:37:26,1706.3289364025206,58.60000187520001,0.0,0.571679018293728,1706.3289364025206,58.60000187520001,0.35999970196000003,0.571679018293728,1636,0.0,98,P-GPS,
0.337737128099538,36.9091308566515,21300,2018-03-30 04:37:26,1706.7289364153205,59.000001888,0.0,0.575752018424064,1706.7289364153205,59.000001888,0.35999970196000003,0.575752018424064,1636,0.0,98,P-GPS,
0.337737164537601,36.909130882186204,21400,2018-03-30 04:37:26,1707.2289364313206,59.500001904,0.0,0.579114018531648,1707.2289364313206,59.500001904,0.35999970196000003,0.579114018531648,1636,0.0,98,P-GPS,
0.337737211650114,36.9091309025755,21500,2018-03-30 04:37:26,1707.7289364473206,60.00000192,0.0,0.5837770186808641,1707.7289364473206,60.00000192,0.35999970196000003,0.5837770186808641,1635,0.0,98,P-GPS,
0.337737251867796,36.9091309168361,21600,2018-03-30 04:37:26,1708.1289364601207,60.40000193280001,0.0,0.5878410188109121,1708.1289364601207,60.40000193280001,0.35999970196000003,0.5878410188109121,1636,0.0,98,P-GPS,
0.33773729979941597,36.9091309252688,21700,2018-03-30 04:37:27,1708.6289364761205,60.9000019488,0.0,0.592883018972256,1708.6289364761205,60.9000019488,0.35999970196000003,0.592883018972256,1636,0.0,98,P-GPS,
0.337737338189984,36.9091309303719,21800,2018-03-30 04:37:27,1709.0289364889206,61.3000019616,0.0,0.596961019102752,1709.0289364889206,61.3000019616,0.35999970196000003,0.596961019102752,1636,0.0,98,P-GPS,
0.33773735856670295,36.9091309551336,21900,2018-03-30 04:37:27,1709.5289365049205,61.80000197760001,0.0,0.5986630191572161,1709.5289365049205,61.80000197760001,0.35999970196000003,0.5986630191572161,1636,0.0,98,P-GPS,
0.337737368148468,36.9091309799323,22000,2018-03-30 04:37:27,1710.0289365209208,62.300001993600006,0.0,0.599199019174368,1710.0289365209208,62.300001993600006,0.35999970196000003,0.599199019174368,1636,0.0,98,P-GPS,
0.337737390373471,36.9091310253109,22100,2018-03-30 04:37:27,1710.4289365337206,62.7000020064,0.0,0.600731019223392,1710.4289365337206,62.7000020064,0.35999970196000003,0.600731019223392,1636,0.0,98,P-GPS,
0.33773741200897806,36.9091310605106,22200,2018-03-30 04:37:27,1710.9289365497204,63.2000020224,0.0,0.60243501927792,1710.9289365497204,63.2000020224,0.35999970196000003,0.60243501927792,1636,0.0,98,P-GPS,
0.337737445937609,36.9091310879852,22300,2018-03-30 04:37:27,1711.4289365657205,63.7000020384,0.0,0.605656019380992,1711.4289365657205,63.7000020384,0.35999970196000003,0.605656019380992,1636,0.0,98,P-GPS,
0.337737469688465,36.9091311022137,22400,2018-03-30 04:37:27,1711.8289365785204,64.1000020512,0.0,0.6080120194563841,1711.8289365785204,64.1000020512,0.35999970196000003,0.6080120194563841,1637,0.0,98,P-GPS,
0.337737513151635,36.9091311374578,22500,2018-03-30 04:37:27,1712.3289365945207,64.60000206720001,0.0,0.612184019589888,1712.3289365945207,64.60000206720001,0.35999970196000003,0.612184019589888,1636,0.0,98,P-GPS,
0.337737542541792,36.9091311654523,22600,2018-03-30 04:37:27,1712.8289366105205,65.1000020832,0.0,0.6149580196786559,1712.8289366105205,65.1000020832,0.35999970196000003,0.6149580196786559,1635,0.0,98,P-GPS,
0.337737563299568,36.9091312128725,22700,2018-03-30 04:37:28,1713.2289366233206,65.500002096,0.0,0.61650501972816,1713.2289366233206,65.500002096,0.35999970196000003,0.61650501972816,1636,0.0,98,P-GPS,
0.337737572959498,36.909131246781605,22800,2018-03-30 04:37:28,1713.7289366393204,66.000002112,0.0,0.61707001974624,1713.7289366393204,66.000002112,0.35999970196000003,0.61707001974624,1636,0.0,98,P-GPS,
0.337737521989201,36.9091313286772,22900,2018-03-30 04:37:28,1714.1289366521205,66.4000021248,0.0,0.610327019530464,1714.1289366521205,66.4000021248,0.35999970196000003,0.61707001974624,1636,0.0,98,P-GPS,
0.33773745905961106,36.909131397634,23000,2018-03-30 04:37:28,1714.6289366681206,66.9000021408,0.0,0.602526019280832,1714.6289366681206,66.9000021408,0.35999970196000003,0.61707001974624,1636,0.0,98,P-GPS,
0.337737426834333,36.9091314579326,23100,2018-03-30 04:37:28,1715.1289366841206,67.40000215680001,0.0,0.5982940191454079,1715.1289366841206,67.40000215680001,0.35999970196000003,0.61707001974624,1636,0.0,98,P-GPS,
0.337737413264509,36.909131489185,23200,2018-03-30 04:37:28,1715.5289366969205,67.8000021696,0.0,0.596473019087136,1715.5289366969205,67.8000021696,0.35999970196000003,0.61707001974624,1636,0.0,98,P-GPS,
0.33773743958993396,36.90913150416021,23300,2018-03-30 04:37:28,1716.0289367129205,68.30000218560001,0.0,0.59924501917584,1716.0289367129205,68.30000218560001,0.35999970196000003,0.61707001974624,1637,0.0,98,P-GPS,
0.337737462767578,36.909131508498895,23400,2018-03-30 04:37:28,1716.5289367289206,68.8000022016,0.0,0.601772019256704,1716.5289367289206,68.8000022016,0.35999970196000003,0.61707001974624,1637,0.0,98,P-GPS,
0.337737489959336,36.9091315410392,23500,2018-03-30 04:37:28,1716.9289367417207,69.2000022144,0.0,0.604492019343744,1716.9289367417207,69.2000022144,0.35999970196000003,0.61707001974624,1638,0.0,98,P-GPS,
0.33773750387276097,36.909131576734,23600,2018-03-30 04:37:28,1717.4289367577205,69.7000022304,0.0,0.6057390193836479,1717.4289367577205,69.7000022304,0.35999970196000003,0.61707001974624,1637,0.0,98,P-GPS,
0.337737551376101,36.9091316057212,23700,2018-03-30 04:37:29,1717.9289367737206,70.2000022464,0.0,0.610789019545248,1717.9289367737206,70.2000022464,0.35999970196000003,0.61707001974624,1637,0.0,98,P-GPS,
0.337737586916891,36.9091316164686,23800,2018-03-30 04:37:29,1718.3289367865204,70.60000225920001,0.0,0.614657019669024,1718.3289367865204,70.60000225920001,0.35999970196000003,0.61707001974624,1639,0.0,98,P-GPS,
0.337737629328087,36.9091316193309,23900,2018-03-30 04:37:29,1718.8289368025207,71.10000227520001,0.0,0.619344019819008,1718.8289368025207,71.10000227520001,0.35999970196000003,0.619344019819008,1639,0.0,98,P-GPS,
0.337737661068089,36.9091316206774,24000,2018-03-30 04:37:29,1719.3289368185206,71.6000022912,0.0,0.6228580199314561,1719.3289368185206,71.6000022912,0.35999970196000003,0.6228580199314561,1637,0.0,98,P-GPS,
0.337737722652584,36.9091316410207,24100,2018-03-30 04:37:29,1719.7289368313207,72.00000230399999,0.0,0.62956002014592,1719.7289368313207,72.00000230399999,0.35999970196000003,0.62956002014592,1638,0.0,98,P-GPS,
0.3377377774774081,36.909131656994795,24200,2018-03-30 04:37:29,1720.2289368473205,72.50000232,0.0,0.6355490203375681,1720.2289368473205,72.50000232,0.35999970196000003,0.6355490203375681,1638,0.0,98,P-GPS,
0.337737820684912,36.9091316706602,24300,2018-03-30 04:37:29,1720.6289368601203,72.9000023328,0.0,0.6402680204885761,1720.6289368601203,72.9000023328,0.35999970196000003,0.6402680204885761,1638,0.0,98,P-GPS,
0.33773784409216606,36.9091316776285,24400,2018-03-30 04:37:29,1721.1289368761206,73.4000023488,0.0,0.6428280205704962,1721.1289368761206,73.4000023488,0.35999970196000003,0.6428280205704962,1637,0.0,98,P-GPS,
0.337737874153243,36.909131710555,24500,2018-03-30 04:37:29,1721.6289368921205,73.9000023648,0.0,0.645997020671904,1721.6289368921205,73.9000023648,0.35999970196000003,0.645997020671904,1637,0.0,98,P-GPS,
0.33773789657365905,36.909131751856705,24600,2018-03-30 04:37:29,1722.0289369049206,74.30000237760001,0.0,0.648304020745728,1722.0289369049206,74.30000237760001,0.35999970196000003,0.648304020745728,1637,0.0,98,P-GPS,
0.33773790538516996,36.9091317946289,24700,2018-03-30 04:37:30,1722.5289369209204,74.8000023936,0.0,0.649127020772064,1722.5289369209204,74.8000023936,0.35999970196000003,0.649127020772064,1639,0.0,98,P-GPS,
0.3377378996595611,36.909131821901205,24800,2018-03-30 04:37:30,1722.9289369337205,75.20000240640002,0.0,0.6484090207490879,1722.9289369337205,75.20000240640002,0.35999970196000003,0.649127020772064,1638,0.0,98,P-GPS,
0.33773790708038004,36.9091318617589,24900,2018-03-30 04:37:30,1723.4289369497205,75.7000024224,0.0,0.649141020772512,1723.4289369497205,75.7000024224,0.35999970196000003,0.649141020772512,1639,0.0,98,P-GPS,
0.337737911387614,36.9091318860605,25000,2018-03-30 04:37:30,1723.9289369657206,76.2000024384,0.0,0.6495780207864961,1723.9289369657206,76.2000024384,0.35999970196000003,0.6495780207864961,1637,0.0,98,P-GPS,
0.337737919015246,36.9091319159315,25100,2018-03-30 04:37:30,1724.3289369785205,76.6000024512,0.0,0.65039002081248,1724.3289369785205,76.6000024512,0.35999970196000003,0.65039002081248,1638,0.0,98,P-GPS,
0.33773791617361104,36.9091319336309,25200,2018-03-30 04:37:30,1724.8289369945205,77.1000024672,0.0,0.650061020801952,1724.8289369945205,77.1000024672,0.35999970196000003,0.65039002081248,1637,0.0,98,P-GPS,
0.33773789392906606,36.9091319796374,25300,2018-03-30 04:37:30,1725.2289370073204,77.50000248,0.0,0.64758002072256,1725.2289370073204,77.50000248,0.35999970196000003,0.65039002081248,1636,0.0,98,P-GPS,
0.337737859959725,36.9091320217985,25400,2018-03-30 04:37:30,1725.7289370233207,78.00000249600001,0.0,0.6438310206025921,1725.7289370233207,78.00000249600001,0.35999970196000003,0.65039002081248,1634,0.0,98,P-GPS,
0.337737835379991,36.9091320793245,25500,2018-03-30 04:37:30,1726.2289370393205,78.500002512,0.0,0.6411930205181761,1726.2289370393205,78.500002512,0.35999970196000003,0.65039002081248,1627,0.0,98,P-GPS,
0.337737818423004,36.9091321329744,25600,2018-03-30 04:37:30,1726.7289370553206,79.00000252800001,0.0,0.63945502046256,1726.7289370553206,79.00000252800001,0.35999970196000003,0.65039002081248,1617,0.0,98,P-GPS,
0.337737810767688,36.9091322105445,25700,2018-03-30 04:37:31,1727.1289370681204,79.4000025408,0.0,0.6389150204452801,1727.1289370681204,79.4000025408,0.35999970196000003,0.65039002081248,1610,0.0,98,P-GPS,
0.33773780439884404,36.9091322649162,25800,2018-03-30 04:37:31,1727.6289370841207,79.9000025568,0.0,0.6384950204318401,1727.6289370841207,79.9000025568,0.35999970196000003,0.65039002081248,1602,0.0,98,P-GPS,
0.33773781087516597,36.9091323378878,25900,2018-03-30 04:37:31,1728.0289370969206,80.30000256960001,0.0,0.6396890204700479,1728.0289370969206,80.30000256960001,0.35999970196000003,0.65039002081248,1598,0.0,98,P-GPS,
0.33773781234402195,36.909132392961,26000,2018-03-30 04:37:31,1728.5289371129206,80.80000258560001,0.0,0.640279020488928,1728.5289371129206,80.80000258560001,0.35999970196000003,0.65039002081248,1592,0.0,98,P-GPS,
0.33773782082495896,36.909132453887295,26100,2018-03-30 04:37:31,1728.9289371257205,81.2000025984,0.0,0.6417580205362562,1728.9289371257205,81.2000025984,0.35999970196000003,0.65039002081248,1580,0.0,98,P-GPS,
0.33773782291588106,36.90913249668171,26200,2018-03-30 04:37:31,1729.3289371385206,81.6000026112,0.0,0.64241002055712,1729.3289371385206,81.6000026112,0.35999970196000003,0.65039002081248,1490,0.0,98,P-GPS,
0.337737828512843,36.9091325514046,26300,2018-03-30 04:37:31,1729.8289371545204,82.10000262720001,0.0,0.6436190205958079,1729.8289371545204,82.10000262720001,0.35999970196000003,0.65039002081248,1166,0.0,98,P-GPS,
0.337737824272374,36.9091325910332,26400,2018-03-30 04:37:31,1730.2289371673205,82.50000264,0.0,0.6436110205955521,1730.2289371673205,82.50000264,0.35999970196000003,0.65039002081248,1115,0.0,98,P-GPS,
0.33773785313328697,36.9091326415777,26500,2018-03-30 04:37:31,1730.6289371801204,82.9000026528,0.0,0.647432020717824,1730.6289371801204,82.9000026528,0.35999970196000003,0.65039002081248,1074,0.0,98,P-GPS,
0.337737885474185,36.9091326748562,26600,2018-03-30 04:37:31,1730.9289371897205,83.20000266240001,0.0,0.651442020846144,1730.9289371897205,83.20000266240001,0.35999970196000003,0.651442020846144,1024,0.0,98,P-GPS,
0.33773792131949393,36.909132715789795,26700,2018-03-30 04:37:32,1731.2289371993206,83.500002672,0.0,0.655963020990816,1731.2289371993206,83.500002672,0.35999970196000003,0.655963020990816,1024,0.0,98,P-GPS,
0.337737942043073,36.9091327423518,26800,2018-03-30 04:37:32,1731.4289372057208,83.70000267840001,0.0,0.65863002107616,1731.4289372057208,83.70000267840001,0.35999970196000003,0.65863002107616,1024,0.0,98,P-GPS,
0.337737967503795,36.9091327906034,26900,2018-03-30 04:37:32,1731.5289372089205,83.8000026816,0.0,0.66216002118912,1731.5289372089205,83.8000026816,0.35999970196000003,0.66216002118912,1024,0.0,98,P-GPS,
0.337737983830574,36.9091328289314,27000,2018-03-30 04:37:32,1731.5289372089205,83.8000026816,0.0,0.664562021265984,1731.5289372089205,83.8000026816,0.35999970196000003,0.664562021265984,1024,0.0,98,P-GPS,
0.33773800014758304,36.9091328720025,27100,2018-03-30 04:37:32,1731.6289372121205,83.9000026848,0.0,0.66706502134608,1731.6289372121205,83.9000026848,0.35999970196000003,0.66706502134608,1024,0.0,98,P-GPS,
0.33773800785338,36.90913290714229,27200,2018-03-30 04:37:32,1731.6289372121205,83.9000026848,0.0,0.6685130213924161,1731.6289372121205,83.9000026848,0.35999970196000003,0.6685130213924161,1024,0.0,98,P-GPS,
0.33773803237286104,36.9091329962482,27300,2018-03-30 04:37:32,1731.7289372153205,84.000002688,0.0,0.6728250215304001,1731.7289372153205,84.000002688,0.35999970196000003,0.6728250215304001,1024,0.0,98,P-GPS,
0.33773804999913903,36.9091330908029,27400,2018-03-30 04:37:32,1731.7289372153205,84.000002688,0.0,0.6766230216519361,1731.7289372153205,84.000002688,0.35999970196000003,0.6766230216519361,1024,0.0,98,P-GPS,
0.337738074746603,36.90913319462071,27500,2018-03-30 04:37:32,1731.7289372153205,84.000002688,0.0,0.681551021809632,1731.7289372153205,84.000002688,0.35999970196000003,0.681551021809632,1024,0.0,98,P-GPS,
0.337738083502746,36.90913328070221,27600,2018-03-30 04:37:32,1731.7289372153205,84.000002688,0.0,0.6844870219035839,1731.7289372153205,84.000002688,0.35999970196000003,0.6844870219035839,1024,0.0,98,P-GPS,
0.337738088969432,36.9091333958375,27700,2018-03-30 04:37:33,1731.7289372153205,84.000002688,0.0,0.6879300220137601,1731.7289372153205,84.000002688,0.35999970196000003,0.6879300220137601,1010,0.0,98,P-GPS,
0.337738066786768,36.909133489306,27800,2018-03-30 04:37:33,1731.7289372153205,84.000002688,0.0,0.688018022016576,1731.7289372153205,84.000002688,0.35999970196000003,0.688018022016576,1004,0.0,98,P-GPS,
0.33773802335942404,36.909133596719705,27900,2018-03-30 04:37:33,1731.7289372153205,84.000002688,0.0,0.6864000219648,1731.7289372153205,84.000002688,0.35999970196000003,0.688018022016576,996,0.0,98,P-GPS,
0.337737960861372,36.9091336858565,28000,2018-03-30 04:37:33,1731.7289372153205,84.000002688,0.0,0.682413021837216,1731.7289372153205,84.000002688,0.35999970196000003,0.688018022016576,989,0.0,98,P-GPS,
0.33773791065644304,36.9091337938698,28100,2018-03-30 04:37:33,1731.7289372153205,84.000002688,0.0,0.6805490217775679,1731.7289372153205,84.000002688,0.35999970196000003,0.688018022016576,980,0.0,98,P-GPS,
0.33773785797302297,36.9091338799888,28200,2018-03-30 04:37:33,1731.8289372185207,84.10000269119999,0.0,0.6779080216930561,1731.8289372185207,84.10000269119999,0.35999970196000003,0.688018022016576,974,0.0,98,P-GPS,
0.33773780536451103,36.9091340140381,28300,2018-03-30 04:37:33,1731.8289372185207,84.10000269119999,0.0,0.6772260216712321,1731.8289372185207,84.10000269119999,0.35999970196000003,0.688018022016576,974,0.0,98,P-GPS,
0.337737740317944,36.90913413601871,28400,2018-03-30 04:37:33,1731.8289372185207,84.10000269119999,0.0,0.6751500216048,1731.8289372185207,84.10000269119999,0.35999970196000003,0.688018022016576,957,0.0,98,P-GPS,
0.33773768177212604,36.9091342843521,28500,2018-03-30 04:37:33,1731.8289372185207,84.10000269119999,0.0,0.675203021606496,1731.8289372185207,84.10000269119999,0.35999970196000003,0.688018022016576,952,0.0,98,P-GPS,
0.3377376168932881,36.9091344070027,28600,2018-03-30 04:37:33,1731.8289372185207,84.10000269119999,0.0,0.6739210215654721,1731.8289372185207,84.10000269119999,0.35999970196000003,0.688018022016576,952,0.0,98,P-GPS,
0.33773756326862703,36.909134567414895,28700,2018-03-30 04:37:34,1731.8289372185207,84.10000269119999,0.0,0.675912021629184,1731.8289372185207,84.10000269119999,0.35999970196000003,0.688018022016576,951,0.0,97,P-GPS,
0.33773750375714195,36.9091347032417,28800,2018-03-30 04:37:34,1731.8289372185207,84.10000269119999,0.0,0.6766000216512001,1731.8289372185207,84.10000269119999,0.35999970196000003,0.688018022016576,944,0.0,97,P-GPS,
