latitude,longitude,time_millisecond,datetime_utc,altitude_m,ascent_m,speed_kph,distance_m,max_altitude_m,max_ascent_m,max_speed_kph,max_distance_m,rc_throttle,gimbal_pitch_degrees,battery_percent,flycState,message
0.313731088879726,36.8862339340429,0,2018-03-30 07:45:19,1779.279842136963,0.0,0.0,0.0,1779.279842136963,0.0,0.0,0.0,364,0.0,99,Motors_Started,
0.313731060877817,36.8862338898318,100,2018-03-30 07:45:19,1779.279842136963,0.0,0.0,0.005819670186229441,1779.279842136963,0.0,0.0,0.005819670186229441,364,0.0,99,Motors_Started,
0.313731041467579,36.8862338343967,200,2018-03-30 07:45:19,1779.279842136963,0.0,0.0,0.012271500392688,1779.279842136963,0.0,0.0,0.012271500392688,364,0.0,99,Motors_Started,
0.313731028566231,36.8862338004076,300,2018-03-30 07:45:19,1779.279842136963,0.0,0.0,0.016304300521737602,1779.279842136963,0.0,0.0,0.016304300521737602,364,0.0,99,Motors_Started,
0.313731020758656,36.8862337528594,400,2018-03-30 07:45:19,1779.279842136963,0.0,0.0,0.021525500688816004,1779.279842136963,0.0,0.0,0.021525500688816004,364,0.0,99,Motors_Started,
0.313730981413007,36.8862337222705,500,2018-03-30 07:45:19,1779.279842136963,0.0,0.0,0.0264089008450848,1779.279842136963,0.0,0.0,0.0264089008450848,364,0.0,99,Motors_Started,
0.313730951193972,36.8862336785305,600,2018-03-30 07:45:19,1779.279842136963,0.0,0.0,0.032277001032864,1779.279842136963,0.0,0.0,0.032277001032864,364,0.0,99,Motors_Started,
0.313730929418418,36.8862336474149,700,2018-03-30 07:45:20,1779.279842136963,0.0,0.0,0.036475101167203205,1779.279842136963,0.0,0.0,0.036475101167203205,364,0.0,99,Motors_Started,
0.31373091466553,36.8862336044756,800,2018-03-30 07:45:20,1779.279842136963,0.0,0.0,0.04145500132656,1779.279842136963,0.0,0.0,0.04145500132656,364,0.0,99,Motors_Started,
0.313730837701196,36.8862335712327,900,2018-03-30 07:45:20,1779.279842136963,0.0,0.0,0.0490718015702976,1779.279842136963,0.0,0.0,0.0490718015702976,364,0.0,99,Motors_Started,
0.313730774844072,36.8862335290997,1000,2018-03-30 07:45:20,1779.279842136963,0.0,0.0,0.0569862018235584,1779.279842136963,0.0,0.0,0.0569862018235584,364,0.0,99,Motors_Started,
0.313730693364876,36.8862335287614,1100,2018-03-30 07:45:20,1779.279842136963,0.0,0.0,0.06297450201518401,1779.279842136963,0.0,0.0,0.06297450201518401,364,0.0,99,Motors_Started,
0.313730552966949,36.8862335011894,1300,2018-03-30 07:45:20,1779.279842136963,0.0,0.0,0.07660790245145281,1779.279842136963,0.0,0.0,0.07660790245145281,364,0.0,99,Motors_Started,
0.313730491689415,36.8862334739771,1400,2018-03-30 07:45:20,1779.279842136963,0.0,0.0,0.0838328026826496,1779.279842136963,0.0,0.0,0.0838328026826496,364,0.0,99,Motors_Started,
0.313730420918053,36.8862334798889,1500,2018-03-30 07:45:20,1779.279842136963,0.0,0.0,0.0898241028743712,1779.279842136963,0.0,0.0,0.0898241028743712,364,0.0,99,Assisted_Takeoff,
0.313730362412946,36.8862334721871,1600,2018-03-30 07:45:20,1779.279842136963,0.0,0.0,0.095731503063408,1779.279842136963,0.0,0.0,0.095731503063408,364,0.0,99,Assisted_Takeoff,
0.313730297855726,36.8862334552675,1700,2018-03-30 07:45:21,1779.279842136963,0.0,0.0,0.10282400329036799,1779.279842136963,0.0,0.0,0.10282400329036799,364,0.0,99,Assisted_Takeoff,
0.313730240003625,36.8862334311385,1800,2018-03-30 07:45:21,1779.279842136963,0.0,0.0,0.109722003511104,1779.279842136963,0.0,0.0,0.109722003511104,369,0.0,99,Assisted_Takeoff,
0.313730178883236,36.886233393745,1900,2018-03-30 07:45:21,1779.279842136963,0.0,0.0,0.11769000376608,1779.279842136963,0.0,0.0,0.11769000376608,472,0.0,99,Assisted_Takeoff,
0.313730123001552,36.8862333552637,2000,2018-03-30 07:45:21,1779.279842136963,0.0,0.0,0.125219004007008,1779.279842136963,0.0,0.0,0.125219004007008,598,0.0,99,Assisted_Takeoff,
0.313730062597679,36.8862333426671,2100,2018-03-30 07:45:21,1779.279842136963,0.0,0.0,0.13172000421504,1779.279842136963,0.0,0.0,0.13172000421504,655,0.0,99,Assisted_Takeoff,
0.313730008841928,36.8862333239949,2200,2018-03-30 07:45:21,1779.279842136963,0.0,0.0,0.137942004414144,1779.279842136963,0.0,0.0,0.137942004414144,915,0.0,99,Assisted_Takeoff,
0.313729986902717,36.8862333285182,2300,2018-03-30 07:45:21,1779.279842136963,0.0,0.0,0.139828004474496,1779.279842136963,0.0,0.0,0.139828004474496,1024,0.0,99,Assisted_Takeoff,
0.313729963729959,36.8862333225164,2400,2018-03-30 07:45:21,1779.279842136963,0.0,0.0,0.14241000455712,1779.279842136963,0.0,0.0,0.14241000455712,1024,0.0,99,Assisted_Takeoff,
0.313729934812864,36.8862333364063,2500,2018-03-30 07:45:21,1779.279842136963,0.0,0.0,0.144526004624832,1779.279842136963,0.0,0.0,0.144526004624832,1024,0.0,99,Assisted_Takeoff,
0.313729902709719,36.8862333375004,2600,2018-03-30 07:45:21,1779.279842136963,0.0,0.0,0.147651004724832,1779.279842136963,0.0,0.0,0.147651004724832,1024,0.0,99,Assisted_Takeoff,
0.313729896911644,36.8862333195927,2700,2018-03-30 07:45:22,1779.279842136963,0.0,0.0,0.149129004772128,1779.279842136963,0.0,0.0,0.149129004772128,1024,0.0,99,Assisted_Takeoff,
0.313729886912184,36.8862332950783,2800,2018-03-30 07:45:22,1779.279842136963,0.0,0.0,0.151379004844128,1779.279842136963,0.0,0.0,0.151379004844128,1024,0.0,99,Assisted_Takeoff,
0.313729898658965,36.886233251699,2900,2018-03-30 07:45:22,1779.279842136963,0.0,0.0,0.152567004882144,1779.279842136963,0.0,0.0,0.152567004882144,1024,0.0,99,Assisted_Takeoff,
0.313729901240863,36.8862332095585,3000,2018-03-30 07:45:22,1779.279842136963,0.0,0.0,0.154706004950592,1779.279842136963,0.0,0.0,0.154706004950592,1024,0.0,99,Assisted_Takeoff,
0.313729885507651,36.8862331867956,3100,2018-03-30 07:45:22,1779.279842136963,0.0,0.0,0.15752300504073602,1779.279842136963,0.0,0.0,0.15752300504073602,1024,0.0,99,Assisted_Takeoff,
0.313729865965509,36.8862331632608,3200,2018-03-30 07:45:22,1779.279842136963,0.0,0.0,0.16075400514412802,1779.279842136963,0.0,0.0,0.16075400514412802,1024,0.0,99,Assisted_Takeoff,
0.313729862022232,36.8862331589292,3300,2018-03-30 07:45:22,1779.279842136963,0.0,0.0,0.161382005164224,1779.279842136963,0.0,0.0,0.161382005164224,1024,0.0,99,Assisted_Takeoff,
0.313729855704683,36.8862331472458,3400,2018-03-30 07:45:22,1779.279842136963,0.0,0.0,0.162671005205472,1779.279842136963,0.0,0.0,0.162671005205472,1024,0.0,99,Assisted_Takeoff,
0.313729862119938,36.8862331183538,3500,2018-03-30 07:45:22,1779.279842136963,0.0,0.0,0.16382700524246402,1779.279842136963,0.0,0.0,0.16382700524246402,1024,0.0,99,Assisted_Takeoff,
0.313729863966594,36.8862330848176,3600,2018-03-30 07:45:22,1779.279842136963,0.0,0.0,0.165752005304064,1779.279842136963,0.0,0.0,0.165752005304064,1024,0.0,99,Assisted_Takeoff,
0.313729839528535,36.8862330710605,3700,2018-03-30 07:45:23,1779.279842136963,0.0,0.0,0.16885700540342402,1779.279842136963,0.0,0.0,0.16885700540342402,1024,0.0,99,Assisted_Takeoff,
0.313729815549697,36.8862330529504,3800,2018-03-30 07:45:23,1779.279842136963,0.0,0.0,0.172196005510272,1779.279842136963,0.0,0.0,0.172196005510272,1115,0.0,99,Assisted_Takeoff,
0.313729801254401,36.8862330531656,3900,2018-03-30 07:45:23,1779.279842136963,0.0,0.0,0.173492005551744,1779.279842136963,0.0,0.0,0.173492005551744,1684,0.0,99,Assisted_Takeoff,
0.313729790880399,36.8862330444863,4000,2018-03-30 07:45:23,1779.279842136963,0.0,0.0,0.174989005599648,1779.279842136963,0.0,0.0,0.174989005599648,1684,0.0,99,Assisted_Takeoff,
0.31372975826348,36.8862330164604,4100,2018-03-30 07:45:23,1779.279842136963,0.0,0.0,0.17974400575180802,1779.279842136963,0.0,0.0,0.17974400575180802,1684,0.0,99,Assisted_Takeoff,
0.31372973267004,36.8862329791246,4200,2018-03-30 07:45:23,1779.279842136963,0.0,0.0,0.184453005902496,1779.279842136963,0.0,0.0,0.184453005902496,1684,0.0,99,Assisted_Takeoff,
0.313729721941037,36.8862329617725,4300,2018-03-30 07:45:23,1779.279842136963,0.0,0.0,0.186541005969312,1779.279842136963,0.0,0.0,0.186541005969312,1684,0.0,99,Assisted_Takeoff,
0.313729718945514,36.8862329608497,4400,2018-03-30 07:45:23,1779.279842136963,0.0,0.0,0.186872005979904,1779.279842136963,0.0,0.0,0.186872005979904,1684,0.0,99,Assisted_Takeoff,
0.313729773258192,36.8862329519991,4500,2018-03-30 07:45:23,1779.279842136963,0.0,0.35999970196000003,0.182569005842208,1779.279842136963,0.0,0.35999970196000003,0.186872005979904,1684,0.0,99,P-GPS,Obstacle Avoided. Revise Flight Route
0.313729894279265,36.88623291249,4600,2018-03-30 07:45:23,1779.379842140163,0.1000000032,0.35999970196000003,0.17479600559347203,1779.379842140163,0.1000000032,0.35999970196000003,0.186872005979904,1684,0.0,99,P-GPS,
0.313730056781691,36.8862328272068,4700,2018-03-30 07:45:24,1779.479842143363,0.2000000064,0.35999970196000003,0.16829500538544,1779.479842143363,0.2000000064,0.35999970196000003,0.186872005979904,1684,0.0,99,P-GPS,
0.31373018806766,36.8862327196767,4800,2018-03-30 07:45:24,1779.579842146563,0.3000000096,0.35999970196000003,0.16814200538054402,1779.579842146563,0.3000000096,0.35999970196000003,0.186872005979904,1684,0.0,99,P-GPS,
0.313730284092932,36.886232535289,4900,2018-03-30 07:45:24,1779.679842149763,0.4000000128,0.35999970196000003,0.17945700574262402,1779.679842149763,0.4000000128,0.35999970196000003,0.186872005979904,1684,0.0,99,P-GPS,Setting new Return-To-Home altitude to 45m (148 ft). Setting new Maximum Flight Altitude to 150m (492 ft)
0.313730287413329,36.8862322835033,5000,2018-03-30 07:45:24,1779.879842156163,0.6000000192,0.35999970196000003,0.20404300652937601,1779.879842156163,0.6000000192,0.35999970196000003,0.20404300652937601,1684,0.0,99,P-GPS,Home Point Recorded. RTH Altitude:  45m.
0.313730098742622,36.8862321404136,5100,2018-03-30 07:45:24,1780.179842165763,0.9000000288000001,0.7199994039200001,0.227834007290688,1780.179842165763,0.9000000288000001,0.7199994039200001,0.227834007290688,1684,0.0,99,P-GPS,
0.31372986083591,36.8862320060502,5200,2018-03-30 07:45:24,1780.479842175363,1.2000000384,0.503999582744,0.254201008134432,1780.479842175363,1.2000000384,0.7199994039200001,0.254201008134432,1684,0.0,99,P-GPS,
0.313729575236145,36.8862317736904,5300,2018-03-30 07:45:24,1780.8798421881631,1.6000000512,1.151999046272,0.293342009386944,1780.8798421881631,1.6000000512,1.151999046272,0.293342009386944,1672,0.0,99,P-GPS,
0.313729340599349,36.8862314068602,5400,2018-03-30 07:45:24,1781.279842200963,2.000000064,1.475998778036,0.341729010935328,1781.279842200963,2.000000064,1.475998778036,0.341729010935328,1653,0.0,99,P-GPS,
0.313729141097861,36.8862309841548,5500,2018-03-30 07:45:24,1781.679842213763,2.4000000768,1.295998927056,0.39310101257923197,1781.679842213763,2.4000000768,1.475998778036,0.39310101257923197,1610,0.0,99,P-GPS,
0.313728912391044,36.8862306480055,5600,2018-03-30 07:45:24,1782.179842229763,2.9000000928,0.7919993443119999,0.43831001402592,1782.179842229763,2.9000000928,1.475998778036,0.43831001402592,1577,0.0,99,P-GPS,
0.313728713882906,36.8862304300216,5700,2018-03-30 07:45:25,1782.6798422457628,3.4000001088000005,0.7919993443119999,0.470737015063584,1782.6798422457628,3.4000001088000005,1.475998778036,0.470737015063584,1522,0.0,99,P-GPS,
0.313728508274753,36.8862301700544,5800,2018-03-30 07:45:25,1783.079842258563,3.8000001216000006,0.7919993443119999,0.507503016240096,1783.079842258563,3.8000001216000006,1.475998778036,0.507503016240096,1487,0.0,99,P-GPS,
0.313728411603804,36.8862298405642,5900,2018-03-30 07:45:25,1783.579842274563,4.3000001376,0.7919993443119999,0.543932017405824,1783.579842274563,4.3000001376,1.475998778036,0.543932017405824,1522,0.0,99,P-GPS,
0.313728354040751,36.8862294846026,6000,2018-03-30 07:45:25,1783.979842287363,4.7000001504,0.7199994039200001,0.580793018585376,1783.979842287363,4.7000001504,1.475998778036,0.580793018585376,1559,0.0,99,P-GPS,
0.313728417852958,36.8862290299958,6100,2018-03-30 07:45:25,1784.379842300163,5.1000001632,0.7199994039200001,0.620998019871936,1784.379842300163,5.1000001632,1.475998778036,0.620998019871936,1558,0.0,99,P-GPS,
0.313728480844428,36.8862285969271,6200,2018-03-30 07:45:25,1784.779842312963,5.5000001759999995,1.07999910588,0.6605850211387201,1784.779842312963,5.5000001759999995,1.475998778036,0.6605850211387201,1526,0.0,99,P-GPS,
0.313728620978548,36.8862281213987,6300,2018-03-30 07:45:25,1785.179842325763,5.9000001888,1.475998778036,0.702241022471712,1785.179842325763,5.9000001888,1.475998778036,0.702241022471712,1505,0.0,99,P-GPS,
0.313728699463849,36.8862276492181,6400,2018-03-30 07:45:25,1785.479842335363,6.200000198400001,1.475998778036,0.747708023926656,1785.479842335363,6.200000198400001,1.475998778036,0.747708023926656,1484,0.0,99,P-GPS,
0.313728805088798,36.8862271916468,6500,2018-03-30 07:45:25,1785.879842348163,6.6000002112,1.07999910588,0.7916300253321601,1785.879842348163,6.6000002112,1.475998778036,0.7916300253321601,1490,0.0,99,P-GPS,
0.313728875591466,36.8862268031318,6600,2018-03-30 07:45:25,1786.1798423577632,6.900000220800001,0.7199994039200001,0.8303080265698561,1786.1798423577632,6.900000220800001,1.475998778036,0.8303080265698561,1507,0.0,99,P-GPS,
0.313728956332162,36.8862264608277,6700,2018-03-30 07:45:26,1786.579842370563,7.3000002336000005,0.7199994039200001,0.86423002765536,1786.579842370563,7.3000002336000005,1.475998778036,0.86423002765536,1488,0.0,99,P-GPS,
0.313729039675112,36.8862261850244,6800,2018-03-30 07:45:26,1786.879842380163,7.600000243200001,0.35999970196000003,0.8913480285231361,1786.879842380163,7.600000243200001,1.475998778036,0.8913480285231361,1485,0.0,99,P-GPS,
0.313729101235995,36.8862260143659,6900,2018-03-30 07:45:26,1787.1798423897628,7.9000002528,0.7199994039200001,0.908018029056576,1787.1798423897628,7.9000002528,1.475998778036,0.908018029056576,1485,0.0,99,P-GPS,
0.313729183088918,36.8862258471782,7000,2018-03-30 07:45:26,1787.479842399363,8.200000262400001,0.7199994039200001,0.923931029565792,1787.479842399363,8.200000262400001,1.475998778036,0.923931029565792,1486,0.0,99,P-GPS,
0.313729259294397,36.8862257452859,7100,2018-03-30 07:45:26,1787.779842408963,8.500000272,0.35999970196000003,0.933079029858528,1787.779842408963,8.500000272,1.475998778036,0.933079029858528,1487,0.0,99,P-GPS,
0.313729303697994,36.8862256601847,7200,2018-03-30 07:45:26,1788.179842421763,8.9000002848,0.0,0.941263030120416,1788.179842421763,8.9000002848,1.475998778036,0.941263030120416,1488,0.0,99,P-GPS,
0.313729313596491,36.8862255849971,7300,2018-03-30 07:45:26,1788.479842431363,9.2000002944,0.0,0.9492080303746561,1788.479842431363,9.2000002944,1.475998778036,0.9492080303746561,1485,0.0,99,P-GPS,
0.313729350625679,36.8862255120514,7400,2018-03-30 07:45:26,1788.7798424409627,9.500000304,0.0,0.9563040306017281,1788.7798424409627,9.500000304,1.475998778036,0.9563040306017281,1482,0.0,99,P-GPS,
0.313729352123848,36.8862254619178,7500,2018-03-30 07:45:26,1789.0798424505629,9.8000003136,0.0,0.961731030775392,1789.0798424505629,9.8000003136,1.475998778036,0.961731030775392,1481,0.0,99,P-GPS,
0.313729361144613,36.8862254364956,7600,2018-03-30 07:45:26,1789.479842463363,10.2000003264,0.0,0.9643000308576,1789.479842463363,10.2000003264,1.475998778036,0.9643000308576,1481,0.0,99,P-GPS,
0.313729325577768,36.8862254488288,7700,2018-03-30 07:45:26,1789.7798424729629,10.500000336,0.0,0.9637530308400961,1789.7798424729629,10.500000336,1.475998778036,0.9643000308576,1482,0.0,99,P-GPS,
0.313729309632044,36.8862254657676,7800,2018-03-30 07:45:27,1790.079842482563,10.8000003456,0.0,0.9622720307927041,1790.079842482563,10.8000003456,1.475998778036,0.9643000308576,1481,0.0,99,P-GPS,
0.313729295541118,36.88622550284,7900,2018-03-30 07:45:27,1790.379842492163,11.1000003552,0.0,0.958562030673984,1790.379842492163,11.1000003552,1.475998778036,0.9643000308576,1478,0.0,99,P-GPS,
0.313729312301878,36.8862255024461,8000,2018-03-30 07:45:27,1790.6798425017628,11.4000003648,0.0,0.9582190306630081,1790.6798425017628,11.4000003648,1.475998778036,0.9643000308576,1475,0.0,99,P-GPS,
0.31372934237761,36.8862254713304,8100,2018-03-30 07:45:27,1790.979842511363,11.7000003744,0.0,0.960924030749568,1790.979842511363,11.7000003744,1.475998778036,0.9643000308576,1479,0.0,99,P-GPS,
0.313729373425523,36.886225427312,8200,2018-03-30 07:45:27,1791.379842524163,12.1000003872,0.0,0.9650300308809601,1791.379842524163,12.1000003872,1.475998778036,0.9650300308809601,1479,0.0,99,P-GPS,
0.313729368858552,36.8862253842079,8300,2018-03-30 07:45:27,1791.679842533763,12.400000396800001,0.0,0.9698290310345281,1791.679842533763,12.400000396800001,1.475998778036,0.9698290310345281,1479,0.0,99,P-GPS,
0.313729378941877,36.8862253641494,8400,2018-03-30 07:45:27,1791.979842543363,12.700000406400001,0.0,0.971796031097472,1791.979842543363,12.700000406400001,1.475998778036,0.971796031097472,1479,0.0,99,P-GPS,
0.313729411969979,36.8862253835399,8500,2018-03-30 07:45:27,1792.2798425529631,13.000000416,0.0,0.968968031006976,1792.2798425529631,13.000000416,1.475998778036,0.971796031097472,1478,0.0,99,P-GPS,
0.313729448035942,36.8862253971664,8600,2018-03-30 07:45:27,1792.5798425625628,13.3000004256,0.0,0.9667160309349121,1792.5798425625628,13.3000004256,1.475998778036,0.971796031097472,1472,0.0,99,P-GPS,
0.313729490552172,36.8862253844113,8700,2018-03-30 07:45:28,1792.979842575363,13.7000004384,0.0,0.9672290309513281,1792.979842575363,13.7000004384,1.475998778036,0.971796031097472,1470,0.0,99,P-GPS,
0.31372952995156,36.8862253804138,8800,2018-03-30 07:45:28,1793.2798425849628,14.000000448,0.0,0.966871030939872,1793.2798425849628,14.000000448,1.475998778036,0.971796031097472,1462,0.0,99,P-GPS,
0.313729573386233,36.8862253963399,8900,2018-03-30 07:45:28,1793.579842594563,14.300000457600001,0.0,0.9642720308567041,1793.579842594563,14.300000457600001,1.475998778036,0.971796031097472,1451,0.0,99,P-GPS,
0.31372960615134,36.8862254283098,9000,2018-03-30 07:45:28,1793.879842604163,14.600000467200001,0.0,0.9601400307244801,1793.879842604163,14.600000467200001,1.475998778036,0.971796031097472,1436,0.0,99,P-GPS,
0.313729633845473,36.8862254512761,9100,2018-03-30 07:45:28,1794.1798426137632,14.9000004768,0.0,0.957098030627136,1794.1798426137632,14.9000004768,1.475998778036,0.971796031097472,1438,0.0,99,P-GPS,
0.313729660268605,36.8862254935944,9200,2018-03-30 07:45:28,1794.4798426233629,15.200000486400002,0.0,0.9519660304629121,1794.4798426233629,15.200000486400002,1.475998778036,0.971796031097472,1452,0.0,99,P-GPS,
0.31372965721283,36.8862255944719,9300,2018-03-30 07:45:28,1794.779842632963,15.500000496,0.0,0.9409640301108481,1794.779842632963,15.500000496,1.475998778036,0.971796031097472,1460,0.0,99,P-GPS,
0.313729651287737,36.8862257089522,9400,2018-03-30 07:45:28,1795.079842642563,15.8000005056,0.0,0.9285330297130561,1795.079842642563,15.8000005056,1.475998778036,0.971796031097472,1470,0.0,99,P-GPS,
0.313729645551543,36.8862258336781,9500,2018-03-30 07:45:28,1795.379842652163,16.1000005152,0.0,0.9149850292795201,1795.379842652163,16.1000005152,1.475998778036,0.971796031097472,1475,0.0,99,P-GPS,
0.31372965839101,36.8862259601769,9600,2018-03-30 07:45:28,1795.579842658563,16.3000005216,0.0,0.900886028828352,1795.579842658563,16.3000005216,1.475998778036,0.971796031097472,1477,0.0,99,P-GPS,
0.313729666440408,36.8862260960027,9700,2018-03-30 07:45:29,1795.879842668163,16.600000531200003,0.0,0.8858620283475841,1795.879842668163,16.600000531200003,1.475998778036,0.971796031097472,1474,0.0,99,P-GPS,
0.31372967470069,36.8862262068816,9800,2018-03-30 07:45:29,1796.179842677763,16.9000005408,0.0,0.8735670279541441,1796.179842677763,16.9000005408,1.475998778036,0.971796031097472,1470,0.0,99,P-GPS,
0.313729720832066,36.8862263080074,9900,2018-03-30 07:45:29,1796.579842690563,17.3000005536,0.0,0.8615870275707841,1796.579842690563,17.3000005536,1.475998778036,0.971796031097472,1470,0.0,99,P-GPS,
0.313729783685119,36.8862264043562,10000,2018-03-30 07:45:29,1796.8798427001632,17.600000563200002,0.0,0.8498210271942721,1796.8798427001632,17.600000563200002,1.475998778036,0.971796031097472,1471,0.0,99,P-GPS,
0.313729894556914,36.8862264781734,10100,2018-03-30 07:45:29,1797.1798427097629,17.9000005728,0.35999970196000003,0.839696026870272,1797.1798427097629,17.9000005728,1.475998778036,0.971796031097472,1471,0.0,99,P-GPS,
0.313730029045219,36.886226543125,10200,2018-03-30 07:45:29,1797.479842719363,18.2000005824,0.35999970196000003,0.83031002656992,1797.479842719363,18.2000005824,1.475998778036,0.971796031097472,1470,0.0,99,P-GPS,
0.313730245358763,36.8862266205191,10300,2018-03-30 07:45:29,1797.7798427289629,18.500000592000003,0.503999582744,0.8186880261980161,1797.7798427289629,18.500000592000003,1.475998778036,0.971796031097472,1471,0.0,99,P-GPS,
0.313730429657912,36.8862267045679,10400,2018-03-30 07:45:29,1798.079842738563,18.8000006016,0.503999582744,0.80728502583312,1798.079842738563,18.8000006016,1.475998778036,0.971796031097472,1466,0.0,99,P-GPS,
0.313730606535428,36.8862268019638,10500,2018-03-30 07:45:29,1798.3798427481631,19.1000006112,0.35999970196000003,0.794931025437792,1798.3798427481631,19.1000006112,1.475998778036,0.971796031097472,1464,0.0,99,P-GPS,
0.313730740185898,36.8862268772616,10600,2018-03-30 07:45:29,1798.6798427577628,19.4000006208,0.0,0.7857030251424961,1798.6798427577628,19.4000006208,1.475998778036,0.971796031097472,1465,0.0,99,P-GPS,
0.313730860987945,36.8862269956453,10700,2018-03-30 07:45:30,1798.979842767363,19.7000006304,0.35999970196000003,0.7719970247039041,1798.979842767363,19.7000006304,1.475998778036,0.971796031097472,1464,0.0,99,P-GPS,
0.313730946628629,36.8862271033381,10800,2018-03-30 07:45:30,1799.279842776963,20.00000064,0.35999970196000003,0.7597690243126081,1799.279842776963,20.00000064,1.475998778036,0.971796031097472,1463,0.0,99,P-GPS,
0.313731028915532,36.8862272595329,10900,2018-03-30 07:45:30,1799.5798427865632,20.3000006496,0.35999970196000003,0.74226502375248,1799.5798427865632,20.3000006496,1.475998778036,0.971796031097472,1458,0.0,99,P-GPS,
0.313731107434217,36.8862273799883,11000,2018-03-30 07:45:30,1799.8798427961628,20.6000006592,0.35999970196000003,0.7288430233229761,1799.8798427961628,20.6000006592,1.475998778036,0.971796031097472,1458,0.0,99,P-GPS,
0.313731293476615,36.8862275835396,11200,2018-03-30 07:45:30,1800.4798428153629,21.200000678400002,0.0,0.7065710226102719,1800.4798428153629,21.200000678400002,1.475998778036,0.971796031097472,1452,0.0,99,P-GPS,
0.313731415092884,36.8862276668625,11300,2018-03-30 07:45:30,1800.779842824963,21.500000688,0.0,0.6978820223322241,1800.779842824963,21.500000688,1.475998778036,0.971796031097472,1454,0.0,99,P-GPS,
0.313731502511829,36.8862277336941,11400,2018-03-30 07:45:30,1801.0798428345631,21.8000006976,0.0,0.6910390221132481,1801.0798428345631,21.8000006976,1.475998778036,0.971796031097472,1458,0.0,99,P-GPS,
0.313731608229599,36.8862277973011,11500,2018-03-30 07:45:30,1801.3798428441628,22.1000007072,0.0,0.684872021915904,1801.3798428441628,22.1000007072,1.475998778036,0.971796031097472,1454,0.0,99,P-GPS,
0.313731678707841,36.8862278549856,11700,2018-03-30 07:45:31,1801.979842863363,22.7000007264,0.0,0.6791930217341761,1801.979842863363,22.7000007264,1.475998778036,0.971796031097472,1453,0.0,99,P-GPS,
0.313731689843955,36.8862278645834,11800,2018-03-30 07:45:31,1802.279842872963,23.000000736000004,0.0,0.678251021704032,1802.279842872963,23.000000736000004,1.475998778036,0.971796031097472,1457,0.0,99,P-GPS,
0.313731746054585,36.8862278547351,11900,2018-03-30 07:45:31,1802.4798428793629,23.2000007424,0.0,0.67998502175952,1802.4798428793629,23.2000007424,1.475998778036,0.971796031097472,1458,0.0,99,P-GPS,
0.313731794902205,36.8862278550134,12000,2018-03-30 07:45:31,1802.779842888963,23.500000752000002,0.0,0.6805590217778881,1802.779842888963,23.500000752000002,1.475998778036,0.971796031097472,1458,0.0,99,P-GPS,
0.313731884425914,36.8862278387222,12100,2018-03-30 07:45:31,1803.0798428985631,23.8000007616,0.0,0.6835760218744321,1803.0798428985631,23.8000007616,1.475998778036,0.971796031097472,1459,0.0,99,P-GPS,
0.313731951746603,36.8862278213433,12200,2018-03-30 07:45:31,1803.379842908163,24.100000771200005,0.0,0.6864990219679681,1803.379842908163,24.100000771200005,1.475998778036,0.971796031097472,1458,0.0,99,P-GPS,
0.313732004205298,36.8862278267188,12300,2018-03-30 07:45:31,1803.679842917763,24.400000780800003,0.0,0.6867470219759041,1803.679842917763,24.400000780800003,1.475998778036,0.971796031097472,1459,0.0,99,P-GPS,
0.313732043700765,36.8862278316831,12400,2018-03-30 07:45:31,1803.879842924163,24.600000787200003,0.0,0.686866021979712,1803.879842924163,24.600000787200003,1.475998778036,0.971796031097472,1459,0.0,99,P-GPS,
0.31373213913084,36.8862278689664,12500,2018-03-30 07:45:31,1804.179842933763,24.9000007968,0.0,0.6845010219040321,1804.179842933763,24.9000007968,1.475998778036,0.971796031097472,1459,0.0,99,P-GPS,
0.313732219013346,36.8862278890807,12600,2018-03-30 07:45:32,1804.4798429433629,25.2000008064,0.0,0.683874021883968,1804.4798429433629,25.2000008064,1.475998778036,0.971796031097472,1458,0.0,99,P-GPS,
0.313732307467167,36.8862279034094,12700,2018-03-30 07:45:32,1804.779842952963,25.500000816000004,0.0,0.6841880218940161,1804.779842952963,25.500000816000004,1.475998778036,0.971796031097472,1459,0.0,99,P-GPS,
0.313732391274223,36.886227902735,12800,2018-03-30 07:45:32,1805.079842962563,25.8000008256,0.0,0.6861680219573761,1805.079842962563,25.8000008256,1.475998778036,0.971796031097472,1459,0.0,99,P-GPS,
0.313732485434112,36.8862279222807,12900,2018-03-30 07:45:32,1805.379842972163,26.100000835200003,0.0,0.686337021962784,1805.379842972163,26.100000835200003,1.475998778036,0.971796031097472,1459,0.0,99,P-GPS,
0.313732561736484,36.8862279161441,13000,2018-03-30 07:45:32,1805.6798429817632,26.4000008448,0.0,0.6889690220470079,1805.6798429817632,26.4000008448,1.475998778036,0.971796031097472,1459,0.0,99,P-GPS,
0.313732707994367,36.8862277865203,13200,2018-03-30 07:45:32,1806.379843004163,27.100000867200002,0.0,0.7069460226222721,1806.379843004163,27.100000867200002,1.475998778036,0.971796031097472,1459,0.0,99,P-GPS,
0.313732733107416,36.8862277380996,13300,2018-03-30 07:45:32,1806.6798430137628,27.4000008768,0.0,0.7128650228116801,1806.6798430137628,27.4000008768,1.475998778036,0.971796031097472,1465,0.0,99,P-GPS,
0.313732801784599,36.8862276376033,13500,2018-03-30 07:45:32,1807.1798430297629,27.9000008928,0.0,0.72564002322048,1807.1798430297629,27.9000008928,1.475998778036,0.971796031097472,1466,0.0,99,P-GPS,
0.313732911039349,36.8862274884647,13700,2018-03-30 07:45:33,1807.779843048963,28.500000912,0.0,0.744869023835808,1807.779843048963,28.500000912,1.475998778036,0.971796031097472,1475,0.0,99,P-GPS,
0.313732961779222,36.886227404736,13800,2018-03-30 07:45:33,1808.079843058563,28.800000921600002,0.0,0.7553700241718401,1808.079843058563,28.800000921600002,1.475998778036,0.971796031097472,1482,0.0,99,P-GPS,
0.313733298594365,36.8862272651835,14100,2018-03-30 07:45:33,1808.979843087363,29.700000950400003,0.0,0.7812590250002881,1808.979843087363,29.700000950400003,1.475998778036,0.971796031097472,1482,0.0,99,P-GPS,
0.313733407416763,36.8862273035974,14200,2018-03-30 07:45:33,1809.279843096963,30.00000096,0.35999970196000003,0.7811160249957121,1809.279843096963,30.00000096,1.475998778036,0.971796031097472,1481,0.0,99,P-GPS,
0.313733483847782,36.8862273876976,14300,2018-03-30 07:45:33,1809.4798431033628,30.2000009664,0.35999970196000003,0.7751730248055361,1809.4798431033628,30.2000009664,1.475998778036,0.971796031097472,1481,0.0,99,P-GPS,
0.313733499728368,36.8862275043973,14400,2018-03-30 07:45:34,1809.779843112963,30.500000976,0.35999970196000003,0.763617024435744,1809.779843112963,30.500000976,1.475998778036,0.971796031097472,1482,0.0,99,P-GPS,
0.313733155438667,36.8862278375703,14700,2018-03-30 07:45:34,1810.779843144963,31.500001007999998,0.503999582744,0.715847022907104,1810.779843144963,31.500001007999998,1.475998778036,0.971796031097472,1480,0.0,99,P-GPS,
0.313733053056765,36.8862278845349,14800,2018-03-30 07:45:34,1811.0798431545632,31.800001017600003,0.503999582744,0.7073040226337279,1811.0798431545632,31.800001017600003,1.475998778036,0.971796031097472,1480,0.0,99,P-GPS,
0.313732853233659,36.8862280411066,15100,2018-03-30 07:45:34,1811.979843183363,32.700001046400004,0.0,0.6840630218900161,1811.979843183363,32.700001046400004,1.475998778036,0.971796031097472,1478,0.0,99,P-GPS,
0.313732780763015,36.8862281150662,15400,2018-03-30 07:45:35,1812.8798432121628,33.600001075200005,0.0,0.673894021564608,1812.8798432121628,33.600001075200005,1.475998778036,0.971796031097472,1476,0.0,99,P-GPS,
0.313732591559807,36.8862283021251,15900,2018-03-30 07:45:35,1814.379843260163,35.1000011232,0.0,0.6482050207425601,1814.379843260163,35.1000011232,1.475998778036,0.971796031097472,1475,0.0,99,P-GPS,
0.313732632914957,36.8862282436526,16000,2018-03-30 07:45:35,1814.6798432697628,35.4000011328,0.0,0.655679020981728,1814.6798432697628,35.4000011328,1.475998778036,0.971796031097472,1477,0.0,99,P-GPS,
0.313732702030191,36.8862281265782,16100,2018-03-30 07:45:35,1814.979843279363,35.700001142400005,0.0,0.670268021448576,1814.979843279363,35.700001142400005,1.475998778036,0.971796031097472,1479,0.0,99,P-GPS,
0.313732820491349,36.8862278264361,16400,2018-03-30 07:45:35,1815.879843308163,36.6000011712,0.0,0.7059640225908481,1815.879843308163,36.6000011712,1.475998778036,0.971796031097472,1480,0.0,99,P-GPS,
0.313732807173934,36.8862277572214,16500,2018-03-30 07:45:36,1816.179843317763,36.900001180800004,0.0,0.7129730228151361,1816.179843317763,36.900001180800004,1.475998778036,0.971796031097472,1471,0.0,99,P-GPS,
0.313732821186695,36.8862275209582,16800,2018-03-30 07:45:36,1817.079843346563,37.800001209600005,0.0,0.7387240236391681,1817.079843346563,37.800001209600005,1.475998778036,0.971796031097472,1471,0.0,99,P-GPS,
0.313732917553125,36.886227440483,16900,2018-03-30 07:45:36,1817.3798433561628,38.1000012192,0.0,0.7502010240064321,1817.3798433561628,38.1000012192,1.475998778036,0.971796031097472,1471,0.0,99,P-GPS,
0.313732995161509,36.8862273690736,17000,2018-03-30 07:45:36,1817.679843365763,38.4000012288,0.0,0.7602090243266881,1817.679843365763,38.4000012288,1.475998778036,0.971796031097472,1472,0.0,99,P-GPS,
0.313733377534816,36.8862269787535,17400,2018-03-30 07:45:36,1818.879843404163,39.60000126720001,0.0,0.814258026056256,1818.879843404163,39.60000126720001,1.475998778036,0.971796031097472,1479,0.0,99,P-GPS,
0.313733518098845,36.8862268343074,17600,2018-03-30 07:45:36,1819.479843423363,40.2000012864,0.0,0.83446002670272,1819.479843423363,40.2000012864,1.475998778036,0.971796031097472,1476,0.0,99,P-GPS,
0.313733574568397,36.8862268413711,17700,2018-03-30 07:45:37,1819.779843432963,40.500001296,0.0,0.835772026744704,1819.779843432963,40.500001296,1.475998778036,0.971796031097472,1472,0.0,99,P-GPS,
0.313733639458634,36.8862269346838,17900,2018-03-30 07:45:37,1820.279843448963,41.000001312,0.0,0.82843002650976,1820.279843448963,41.000001312,1.475998778036,0.971796031097472,1465,0.0,98,P-GPS,
0.313733684164307,36.8862271738643,18200,2018-03-30 07:45:37,1821.079843474563,41.80000133760001,0.0,0.805259025768288,1821.079843474563,41.80000133760001,1.475998778036,0.971796031097472,1465,0.0,98,P-GPS,
0.313733735790867,36.8862272444344,18300,2018-03-30 07:45:37,1821.379843484163,42.100001347200006,0.0,0.800032025601024,1821.379843484163,42.100001347200006,1.475998778036,0.971796031097472,1466,0.0,98,P-GPS,
0.313733787158504,36.8862272829382,18400,2018-03-30 07:45:37,1821.679843493763,42.400001356800004,0.0,0.798182025541824,1821.679843493763,42.400001356800004,1.475998778036,0.971796031097472,1470,0.0,98,P-GPS,
0.313734025394976,36.8862273178255,18600,2018-03-30 07:45:37,1822.279843512963,43.000001376,0.0,0.8049670257589441,1822.279843512963,43.000001376,1.475998778036,0.971796031097472,1470,0.0,98,P-GPS,
0.313734166371001,36.8862273087972,18700,2018-03-30 07:45:38,1822.5798435225631,43.300001385600005,0.0,0.812364025995648,1822.5798435225631,43.300001385600005,1.475998778036,0.971796031097472,1470,0.0,98,P-GPS,
0.313734511343834,36.8862273596106,19100,2018-03-30 07:45:38,1823.779843560963,44.500001424,0.0,0.82424002637568,1823.779843560963,44.500001424,1.475998778036,0.971796031097472,1469,0.0,98,P-GPS,
0.313734558347242,36.8862273574866,19200,2018-03-30 07:45:38,1824.079843570563,44.8000014336,0.0,0.8268760264600321,1824.079843570563,44.8000014336,1.475998778036,0.971796031097472,1470,0.0,98,P-GPS,
0.313734822773978,36.8862275292071,19600,2018-03-30 07:45:38,1825.1798436057632,45.9000014688,0.0,0.824446026382272,1825.1798436057632,45.9000014688,1.475998778036,0.971796031097472,1471,0.0,98,P-GPS,
0.313734868588621,36.8862275536283,19700,2018-03-30 07:45:39,1825.4798436153628,46.2000014784,0.0,0.824687026389984,1825.4798436153628,46.2000014784,1.475998778036,0.971796031097472,1465,0.0,98,P-GPS,
0.313734977225377,36.8862272118756,20400,2018-03-30 07:45:39,1827.579843682563,48.300001545600004,0.0,0.863588027634816,1827.579843682563,48.300001545600004,1.475998778036,0.971796031097472,1464,0.0,98,P-GPS,
0.313735044644587,36.8862271566781,20500,2018-03-30 07:45:39,1827.8798436921631,48.6000015552,0.0,0.872662027925184,1827.8798436921631,48.6000015552,1.475998778036,0.971796031097472,1463,0.0,98,P-GPS,
0.313735082487997,36.8862271134723,20600,2018-03-30 07:45:39,1828.1798437017628,48.9000015648,0.0,0.8789340281258881,1828.1798437017628,48.9000015648,1.475998778036,0.971796031097472,1464,0.0,98,P-GPS,
0.313735200581127,36.886227133199,20700,2018-03-30 07:45:40,1828.379843708163,49.1000015712,0.0,0.8837640282804481,1828.379843708163,49.1000015712,1.475998778036,0.971796031097472,1464,0.0,98,P-GPS,
0.313735277262927,36.8862271520639,20800,2018-03-30 07:45:40,1828.679843717763,49.4000015808,0.0,0.886421028365472,1828.679843717763,49.4000015808,1.475998778036,0.971796031097472,1463,0.0,98,P-GPS,
0.313735369748775,36.8862272110663,20900,2018-03-30 07:45:40,1828.9798437273628,49.70000159040001,0.0,0.8863270283624641,1828.9798437273628,49.70000159040001,1.475998778036,0.971796031097472,1464,0.0,98,P-GPS,
0.313735422702517,36.8862272609268,21000,2018-03-30 07:45:40,1829.279843736963,50.000001600000004,0.0,0.884848028315136,1829.279843736963,50.000001600000004,1.475998778036,0.971796031097472,1465,0.0,98,P-GPS,
0.313735514792653,36.8862273536271,21100,2018-03-30 07:45:40,1829.479843743363,50.20000160640001,0.0,0.88189502822064,1829.479843743363,50.20000160640001,1.475998778036,0.971796031097472,1465,0.0,98,P-GPS,
0.313735624702853,36.8862275392931,21300,2018-03-30 07:45:40,1830.0798437625629,50.800001625600004,0.0,0.871854027899328,1830.0798437625629,50.800001625600004,1.475998778036,0.971796031097472,1466,0.0,98,P-GPS,
0.313735655498357,36.8862276160866,21400,2018-03-30 07:45:40,1830.379843772163,51.1000016352,0.0,0.866904027740928,1830.379843772163,51.1000016352,1.475998778036,0.971796031097472,1466,0.0,98,P-GPS,
0.313735748760973,36.8862277406037,21600,2018-03-30 07:45:40,1830.979843791363,51.700001654400005,0.0,0.8619160275813121,1830.979843791363,51.700001654400005,1.475998778036,0.971796031097472,1466,0.0,98,P-GPS,
0.31373580889941,36.8862277877054,21700,2018-03-30 07:45:41,1831.279843800963,52.000001664,0.0,0.8617930275773761,1831.279843800963,52.000001664,1.475998778036,0.971796031097472,1466,0.0,98,P-GPS,
0.313735835840387,36.8862278162955,21800,2018-03-30 07:45:41,1831.5798438105628,52.3000016736,0.0,0.861107027555424,1831.5798438105628,52.3000016736,1.475998778036,0.971796031097472,1466,0.0,98,P-GPS,
0.313735904121044,36.8862278156467,21900,2018-03-30 07:45:41,1831.879843820163,52.6000016832,0.0,0.8658390277068481,1831.879843820163,52.6000016832,1.475998778036,0.971796031097472,1465,0.0,98,P-GPS,
0.313735941687619,36.8862278074717,22000,2018-03-30 07:45:41,1832.079843826563,52.8000016896,0.0,0.8691420278125441,1832.079843826563,52.8000016896,1.475998778036,0.971796031097472,1464,0.0,98,P-GPS,
0.313736071673275,36.8862278246932,22200,2018-03-30 07:45:41,1832.679843845763,53.400001708800005,0.0,0.8767050280545601,1832.679843845763,53.400001708800005,1.475998778036,0.971796031097472,1465,0.0,98,P-GPS,
0.313736165496076,36.8862279207327,22400,2018-03-30 07:45:42,1833.2798438649631,54.000001728,0.0,0.875149028004768,1833.2798438649631,54.000001728,1.475998778036,0.971796031097472,1467,0.0,98,P-GPS,
0.313736204917449,36.8862282392322,22800,2018-03-30 07:45:42,1834.379843900163,55.1000017632,0.0,0.8513170272421441,1834.379843900163,55.1000017632,1.475998778036,0.971796031097472,1466,0.0,98,P-GPS,
0.313736190684848,36.8862283672555,23000,2018-03-30 07:45:42,1834.879843916163,55.6000017792,0.0,0.83971002687072,1834.879843916163,55.6000017792,1.475998778036,0.971796031097472,1466,0.0,98,P-GPS,
0.313736189439088,36.8862284638934,23100,2018-03-30 07:45:42,1835.1798439257632,55.900001788800004,0.0,0.8317250266152001,1835.1798439257632,55.900001788800004,1.475998778036,0.971796031097472,1462,0.0,98,P-GPS,
0.313736201494459,36.886228599974,23300,2018-03-30 07:45:42,1835.779843944963,56.500001808,0.0,0.821649026292768,1835.779843944963,56.500001808,1.475998778036,0.971796031097472,1462,0.0,98,P-GPS,
0.313736200462026,36.8862286339159,23400,2018-03-30 07:45:42,1836.0798439545629,56.8000018176,0.0,0.818848026203136,1836.0798439545629,56.8000018176,1.475998778036,0.971796031097472,1465,0.0,98,P-GPS,
0.313736218409107,36.8862286999874,23500,2018-03-30 07:45:42,1836.379843964163,57.100001827199996,0.0,0.8149710260790721,1836.379843964163,57.100001827199996,1.475998778036,0.971796031097472,1458,0.0,98,P-GPS,
0.313736259739016,36.8862288266072,23700,2018-03-30 07:45:43,1836.9798439833628,57.700001846400006,0.0,0.808239025863648,1836.9798439833628,57.700001846400006,1.475998778036,0.971796031097472,1460,0.0,98,P-GPS,
0.313736293200283,36.8862288658657,23800,2018-03-30 07:45:43,1837.279843992963,58.000001856000004,0.0,0.807839025850848,1837.279843992963,58.000001856000004,1.475998778036,0.971796031097472,1458,0.0,98,P-GPS,
0.313736374482437,36.886228904559,24000,2018-03-30 07:45:43,1837.8798440121632,58.60000187520001,0.0,0.8113670259637441,1837.8798440121632,58.60000187520001,1.475998778036,0.971796031097472,1459,0.0,98,P-GPS,
0.313736378760359,36.8862288383783,24200,2018-03-30 07:45:43,1838.479844031363,59.2000018944,0.0,0.8168000261376,1838.479844031363,59.2000018944,1.475998778036,0.971796031097472,1461,0.0,98,P-GPS,
0.313736412799724,36.8862288309527,24400,2018-03-30 07:45:43,1838.979844047363,59.700001910400005,0.0,0.820102026243264,1838.979844047363,59.700001910400005,1.475998778036,0.971796031097472,1457,0.0,98,P-GPS,
0.313736430507424,36.886228842863,24500,2018-03-30 07:45:43,1839.279844056963,60.00000192,0.0,0.82061002625952,1839.279844056963,60.00000192,1.475998778036,0.971796031097472,1455,0.0,98,P-GPS,
0.313736405753447,36.8862288369395,24600,2018-03-30 07:45:44,1839.579844066563,60.30000192960001,0.35999970196000003,0.8190750262104001,1839.579844066563,60.30000192960001,1.475998778036,0.971796031097472,1455,0.0,98,P-GPS,
0.313736419033408,36.8862288477524,24700,2018-03-30 07:45:44,1839.879844076163,60.600001939200006,0.0,0.819311026217952,1839.879844076163,60.600001939200006,1.475998778036,0.971796031097472,1458,0.0,98,P-GPS,
0.313736365170994,36.8862289180099,25000,2018-03-30 07:45:44,1840.679844101763,61.400001964800005,0.0,0.8095860259067521,1840.679844101763,61.400001964800005,1.475998778036,0.971796031097472,1458,0.0,98,P-GPS,
0.31373635500299,36.8862290049258,25100,2018-03-30 07:45:44,1840.979844111363,61.7000019744,0.35999970196000003,0.802131025668192,1840.979844111363,61.7000019744,1.475998778036,0.971796031097472,1462,0.0,98,P-GPS,
0.31373632158569,36.8862291233127,25300,2018-03-30 07:45:44,1841.4798441273629,62.200001990400004,0.0,0.790453025294496,1841.4798441273629,62.200001990400004,1.475998778036,0.971796031097472,1451,0.0,98,P-GPS,
0.313736318014513,36.886229147766,25400,2018-03-30 07:45:44,1841.779844136963,62.50000200000001,0.0,0.788322025226304,1841.779844136963,62.50000200000001,1.475998778036,0.971796031097472,1453,0.0,98,P-GPS,
0.313736370175202,36.886229158685,25500,2018-03-30 07:45:44,1842.0798441465631,62.80000200960001,0.0,0.7917960253374721,1842.0798441465631,62.80000200960001,1.475998778036,0.971796031097472,1461,0.0,98,P-GPS,
0.313736389597654,36.8862291528396,25600,2018-03-30 07:45:44,1842.3798441561628,63.100002019200005,0.0,0.793834025402688,1842.3798441561628,63.100002019200005,1.475998778036,0.971796031097472,1461,0.0,98,P-GPS,
0.313736470125838,36.8862291909708,25700,2018-03-30 07:45:45,1842.579844162563,63.30000202560001,0.0,0.7976960255262721,1842.579844162563,63.30000202560001,1.475998778036,0.971796031097472,1464,0.0,98,P-GPS,
0.313736503253274,36.8862292234407,25800,2018-03-30 07:45:45,1842.879844172163,63.600002035200006,0.0,0.798089025538848,1842.879844172163,63.600002035200006,1.475998778036,0.971796031097472,1462,0.0,98,P-GPS,
0.313736596022472,36.8862292714321,25900,2018-03-30 07:45:45,1843.1798441817632,63.900002044800004,0.0,0.802442025678144,1843.1798441817632,63.900002044800004,1.475998778036,0.971796031097472,1460,0.0,98,P-GPS,
0.31373661612887,36.8862293133221,26000,2018-03-30 07:45:45,1843.4798441913629,64.2000020544,0.0,0.8011540256369281,1843.4798441913629,64.2000020544,1.475998778036,0.971796031097472,1460,0.0,98,P-GPS,
0.313736629622157,36.8862293934665,26100,2018-03-30 07:45:45,1843.679844197763,64.4000020608,0.35999970196000003,0.796627025492064,1843.679844197763,64.4000020608,1.475998778036,0.971796031097472,1459,0.0,98,P-GPS,
0.313736596634767,36.8862294951715,26300,2018-03-30 07:45:45,1844.2798442169628,65.00000208,0.35999970196000003,0.7866470251727041,1844.2798442169628,65.00000208,1.475998778036,0.971796031097472,1446,0.0,98,P-GPS,
0.31373658209439,36.8862295486989,26500,2018-03-30 07:45:45,1844.879844236163,65.60000209920001,0.35999970196000003,0.781662025013184,1844.879844236163,65.60000209920001,1.475998778036,0.971796031097472,1449,0.0,98,P-GPS,
0.313736621118422,36.8862295828892,26700,2018-03-30 07:45:46,1845.479844255363,66.20000211840001,0.35999970196000003,0.7827020250464641,1845.479844255363,66.20000211840001,1.475998778036,0.971796031097472,1451,0.0,98,P-GPS,
0.313736623930745,36.8862295796229,26800,2018-03-30 07:45:46,1845.679844261763,66.40000212480001,0.0,0.7831720250615041,1845.679844261763,66.40000212480001,1.475998778036,0.971796031097472,1454,0.0,98,P-GPS,
0.313736673202575,36.8862295857563,26900,2018-03-30 07:45:46,1845.979844271363,66.70000213440001,0.0,0.787067025186144,1845.979844271363,66.70000213440001,1.475998778036,0.971796031097472,1452,0.0,98,P-GPS,
0.313736735304915,36.8862296181448,27100,2018-03-30 07:45:46,1846.579844290563,67.3000021536,0.0,0.7903350252907201,1846.579844290563,67.3000021536,1.475998778036,0.971796031097472,1452,0.0,98,P-GPS,
0.313736752007865,36.8862296227666,27200,2018-03-30 07:45:46,1846.779844296963,67.50000216000001,0.0,0.791500025328,1846.779844296963,67.50000216000001,1.475998778036,0.971796031097472,1453,0.0,98,P-GPS,
0.313736825957136,36.8862296222666,27300,2018-03-30 07:45:46,1847.079844306563,67.8000021696,0.0,0.798092025538944,1847.079844306563,67.8000021696,1.475998778036,0.971796031097472,1448,0.0,98,P-GPS,
0.313736862001115,36.8862295981591,27400,2018-03-30 07:45:46,1847.379844316163,68.1000021792,0.0,0.8029070256930241,1847.379844316163,68.1000021792,1.475998778036,0.971796031097472,1435,0.0,98,P-GPS,
0.313736946279606,36.8862296174939,27500,2018-03-30 07:45:46,1847.6798443257628,68.4000021888,0.0,0.809143025892576,1847.6798443257628,68.4000021888,1.475998778036,0.971796031097472,1432,0.0,98,P-GPS,
0.313736978670985,36.8862296188172,27600,2018-03-30 07:45:46,1847.879844332163,68.6000021952,0.0,0.8119590259826881,1847.879844332163,68.6000021952,1.475998778036,0.971796031097472,1428,0.0,98,P-GPS,
0.313737037187492,36.8862296693105,27700,2018-03-30 07:45:47,1848.179844341763,68.9000022048,0.0,0.813933026045856,1848.179844341763,68.9000022048,1.475998778036,0.971796031097472,1433,0.0,98,P-GPS,
0.313737058487539,36.8862296812872,27900,2018-03-30 07:45:47,1848.779844360963,69.500002224,0.35999970196000003,0.81508502608272,1848.779844360963,69.500002224,1.475998778036,0.971796031097472,1435,0.0,98,P-GPS,
0.313737027537333,36.8862296638184,28000,2018-03-30 07:45:47,1848.979844367363,69.7000022304,0.35999970196000003,0.8134170260293441,1848.979844367363,69.7000022304,1.475998778036,0.971796031097472,1444,0.0,98,P-GPS,
0.313737047901025,36.8862296784062,28100,2018-03-30 07:45:47,1849.279844376963,70.00000224,0.35999970196000003,0.8143130260580161,1849.279844376963,70.00000224,1.475998778036,0.971796031097472,1447,0.0,98,P-GPS,
0.313737010409359,36.8862296715384,28200,2018-03-30 07:45:47,1849.5798443865629,70.30000224960001,0.35999970196000003,0.81137002596384,1849.5798443865629,70.30000224960001,1.475998778036,0.971796031097472,1445,0.0,98,P-GPS,
0.313736971356015,36.886229669076,28400,2018-03-30 07:45:47,1850.0798444025631,70.8000022656,0.35999970196000003,0.80801002585632,1850.0798444025631,70.8000022656,1.475998778036,0.971796031097472,1444,0.0,98,P-GPS,
0.31373698587685,36.8862297749424,28500,2018-03-30 07:45:47,1850.2798444089628,71.000002272,0.35999970196000003,0.8024750256792,1850.2798444089628,71.000002272,1.475998778036,0.971796031097472,1437,0.0,98,P-GPS,
0.313736956393871,36.8862298578596,28600,2018-03-30 07:45:48,1850.579844418563,71.3000022816,0.35999970196000003,0.794501025424032,1850.579844418563,71.3000022816,1.475998778036,0.971796031097472,1426,0.0,98,P-GPS,
0.313736995250174,36.8862299413164,28700,2018-03-30 07:45:48,1850.779844424963,71.500002288,0.35999970196000003,0.792819025370208,1850.779844424963,71.500002288,1.475998778036,0.971796031097472,1405,0.0,98,P-GPS,
0.313736995818501,36.8862299886044,28800,2018-03-30 07:45:48,1851.079844434563,71.8000022976,0.35999970196000003,0.789939025278048,1851.079844434563,71.8000022976,1.475998778036,0.971796031097472,1397,0.0,98,P-GPS,
0.313737060666397,36.8862300487951,28900,2018-03-30 07:45:48,1851.279844440963,72.000002304,0.35999970196000003,0.792276025352832,1851.279844440963,72.000002304,1.475998778036,0.971796031097472,1374,0.0,98,P-GPS,
0.313737079623114,36.8862300933863,29000,2018-03-30 07:45:48,1851.5798444505629,72.3000023136,0.35999970196000003,0.7913560253233921,1851.5798444505629,72.3000023136,1.475998778036,0.971796031097472,1359,0.0,98,P-GPS,
0.313737237225552,36.8862302134615,29200,2018-03-30 07:45:48,1851.9798444633627,72.7000023264,0.0,0.7991720255735041,1851.9798444633627,72.7000023264,1.475998778036,0.971796031097472,1276,0.0,98,P-GPS,
0.313737562992517,36.8862305879133,29700,2018-03-30 07:45:49,1852.879844492163,73.6000023552,0.35999970196000003,0.81043502593392,1852.879844492163,73.6000023552,1.475998778036,0.971796031097472,1236,0.0,98,P-GPS,
0.313737593581209,36.8862306319595,29800,2018-03-30 07:45:49,1853.0798444985628,73.80000236160001,0.35999970196000003,0.8112300259593601,1853.0798444985628,73.80000236160001,1.475998778036,0.971796031097472,1247,0.0,98,P-GPS,
0.313737677025937,36.8862308122651,30000,2018-03-30 07:45:49,1853.279844504963,74.00000236800001,0.35999970196000003,0.810729025943328,1853.279844504963,74.00000236800001,1.475998778036,0.971796031097472,1256,0.0,98,P-GPS,
0.31373770731988,36.886230919671,30100,2018-03-30 07:45:49,1853.379844508163,74.1000023712,0.35999970196000003,0.808751025880032,1853.379844508163,74.1000023712,1.475998778036,0.971796031097472,1233,0.0,98,P-GPS,
0.313737690984958,36.8862310058342,30200,2018-03-30 07:45:49,1853.479844511363,74.20000237440001,0.35999970196000003,0.803166025701312,1853.479844511363,74.20000237440001,1.475998778036,0.971796031097472,1274,0.0,98,P-GPS,
0.313737732420716,36.886231125387,30300,2018-03-30 07:45:49,1853.579844514563,74.30000237760001,0.35999970196000003,0.8021110256675521,1853.579844514563,74.30000237760001,1.475998778036,0.971796031097472,1225,0.0,98,P-GPS,
0.313737813360896,36.8862313650857,30500,2018-03-30 07:45:50,1853.779844520963,74.50000238400001,0.35999970196000003,0.800514025616448,1853.779844520963,74.50000238400001,1.475998778036,0.971796031097472,1024,0.0,98,P-GPS,
0.313737960288884,36.886231634913,30700,2018-03-30 07:45:50,1853.979844527363,74.7000023904,0.35999970196000003,0.8057810257849921,1853.979844527363,74.7000023904,1.475998778036,0.971796031097472,1024,0.0,98,P-GPS,
0.313738004605359,36.8862317191021,30800,2018-03-30 07:45:50,1854.079844530563,74.80000239360001,0.35999970196000003,0.8075510258416321,1854.079844530563,74.80000239360001,1.475998778036,0.971796031097472,1024,0.0,98,P-GPS,
0.313738140943576,36.8862318752659,30900,2018-03-30 07:45:50,1854.079844530563,74.80000239360001,0.0,0.816968026142976,1854.079844530563,74.80000239360001,1.475998778036,0.971796031097472,1024,0.0,98,P-GPS,
0.313738240768822,36.8862320121901,31000,2018-03-30 07:45:50,1854.179844533763,74.9000023968,0.0,0.823548026353536,1854.179844533763,74.9000023968,1.475998778036,0.971796031097472,1024,0.0,98,P-GPS,
0.313738410431516,36.8862322049231,31100,2018-03-30 07:45:50,1854.179844533763,74.9000023968,0.0,0.836599026771168,1854.179844533763,74.9000023968,1.475998778036,0.971796031097472,1024,0.0,98,P-GPS,
0.313738650653061,36.8862325174166,31300,2018-03-30 07:45:50,1854.179844533763,74.9000023968,0.35999970196000003,0.8555440273774081,1854.179844533763,74.9000023968,1.475998778036,0.971796031097472,1024,0.0,98,P-GPS,
0.313738737996283,36.8862326438158,31400,2018-03-30 07:45:50,1854.179844533763,74.9000023968,0.35999970196000003,0.8626440276046081,1854.179844533763,74.9000023968,1.475998778036,0.971796031097472,1024,0.0,98,P-GPS,
0.313738965914933,36.8862328509739,31600,2018-03-30 07:45:50,1854.279844536963,75.0000024,0.35999970196000003,0.884216028294912,1854.279844536963,75.0000024,1.475998778036,0.971796031097472,1024,0.0,98,P-GPS,
0.313739147348021,36.886232985758,31700,2018-03-30 07:45:51,1854.279844536963,75.0000024,0.0,0.902334028874688,1854.279844536963,75.0000024,1.475998778036,0.971796031097472,1024,0.0,98,P-GPS,
0.313739267056568,36.8862330940225,31800,2018-03-30 07:45:51,1854.279844536963,75.0000024,0.0,0.9142480292559361,1854.279844536963,75.0000024,1.475998778036,0.971796031097472,1024,0.0,98,P-GPS,
0.313739459519107,36.8862332308611,31900,2018-03-30 07:45:51,1854.279844536963,75.0000024,0.0,0.93414502989264,1854.279844536963,75.0000024,1.475998778036,0.971796031097472,1024,0.0,97,P-GPS,High Wind Velocity:Fly with caution and ensure the aircraft remains within your line of sight.
0.313739938460771,36.8862336794084,32200,2018-03-30 07:45:51,1854.279844536963,75.0000024,0.0,0.98453503150512,1854.279844536963,75.0000024,1.475998778036,0.98453503150512,1024,0.0,97,P-GPS,
0.313740130183997,36.8862338386019,32300,2018-03-30 07:45:51,1854.279844536963,75.0000024,0.0,1.005500032176,1854.279844536963,75.0000024,1.475998778036,1.005500032176,1024,0.0,97,P-GPS,
0.313740257069096,36.8862339532964,32400,2018-03-30 07:45:51,1854.279844536963,75.0000024,0.0,1.0195600326259202,1854.279844536963,75.0000024,1.475998778036,1.0195600326259202,1024,0.0,97,P-GPS,
0.313740454415339,36.8862340902784,32500,2018-03-30 07:45:51,1854.279844536963,75.0000024,0.0,1.0416500333328,1854.279844536963,75.0000024,1.475998778036,1.0416500333328,1024,0.0,97,P-GPS,
0.313740595808245,36.8862341728092,32600,2018-03-30 07:45:51,1854.279844536963,75.0000024,0.0,1.05756003384192,1854.279844536963,75.0000024,1.475998778036,1.05756003384192,1024,0.0,97,P-GPS,
0.313740825247862,36.8862342960266,32700,2018-03-30 07:45:52,1854.179844533763,74.9000023968,0.0,1.08349003467168,1854.279844536963,75.0000024,1.475998778036,1.08349003467168,1024,0.0,97,P-GPS,
0.313740978455131,36.886234378234,32800,2018-03-30 07:45:52,1854.179844533763,74.9000023968,0.0,1.10089003522848,1854.279844536963,75.0000024,1.475998778036,1.10089003522848,1024,0.0,97,P-GPS,
0.313741215009419,36.8862345309708,32900,2018-03-30 07:45:52,1854.179844533763,74.9000023968,0.0,1.12804003609728,1854.279844536963,75.0000024,1.475998778036,1.12804003609728,1024,0.0,97,P-GPS,
0.313741368631941,36.8862346316395,33000,2018-03-30 07:45:52,1854.179844533763,74.9000023968,0.0,1.1458000366656,1854.279844536963,75.0000024,1.475998778036,1.1458000366656,1024,0.0,97,P-GPS,
0.313741599219611,36.8862347655564,33100,2018-03-30 07:45:52,1854.179844533763,74.9000023968,0.0,1.17247003751904,1854.279844536963,75.0000024,1.475998778036,1.17247003751904,1024,0.0,97,P-GPS,
0.313741759030219,36.8862348608732,33200,2018-03-30 07:45:52,1854.079844530563,74.80000239360001,0.0,1.1910500381136,1854.279844536963,75.0000024,1.475998778036,1.1910500381136,1024,0.0,97,P-GPS,
0.313741992848722,36.8862350333228,33300,2018-03-30 07:45:52,1854.079844530563,74.80000239360001,0.0,1.21873003899936,1854.279844536963,75.0000024,1.475998778036,1.21873003899936,1024,0.0,97,P-GPS,
0.31374213933703,36.886235159752,33400,2018-03-30 07:45:52,1854.079844530563,74.80000239360001,0.0,1.23641003956512,1854.279844536963,75.0000024,1.475998778036,1.23641003956512,1024,0.0,97,P-GPS,
0.313742451449492,36.8862354047951,33600,2018-03-30 07:45:52,1854.079844530563,74.80000239360001,0.0,1.27413004077216,1854.279844536963,75.0000024,1.475998778036,1.27413004077216,1024,0.0,97,P-GPS,
0.313742669486744,36.8862355128155,33700,2018-03-30 07:45:53,1854.079844530563,74.80000239360001,0.0,1.299750041592,1854.279844536963,75.0000024,1.475998778036,1.299750041592,1024,0.0,97,P-GPS,
0.313742807376868,36.8862355610424,33800,2018-03-30 07:45:53,1854.179844533763,74.9000023968,0.0,1.31567004210144,1854.279844536963,75.0000024,1.475998778036,1.31567004210144,1024,0.0,97,P-GPS,
0.313742993488475,36.8862356330974,33900,2018-03-30 07:45:53,1854.179844533763,74.9000023968,0.0,1.33728004279296,1854.279844536963,75.0000024,1.475998778036,1.33728004279296,1024,0.0,97,P-GPS,
0.313743265593325,36.8862357106188,34100,2018-03-30 07:45:53,1854.179844533763,74.9000023968,0.0,1.3684600437907202,1854.279844536963,75.0000024,1.475998778036,1.3684600437907202,1024,0.0,97,P-GPS,
0.313743334981324,36.8862357154847,34200,2018-03-30 07:45:53,1854.179844533763,74.9000023968,0.0,1.37617004403744,1854.279844536963,75.0000024,1.475998778036,1.37617004403744,1024,0.0,97,P-GPS,
0.313743531091577,36.8862357819464,34400,2018-03-30 07:45:53,1854.179844533763,74.9000023968,0.0,1.3988300447625601,1854.279844536963,75.0000024,1.475998778036,1.3988300447625601,1024,0.0,97,P-GPS,
0.313743677570115,36.8862357916646,34500,2018-03-30 07:45:53,1854.179844533763,74.9000023968,0.503999582744,1.4151000452832,1854.279844536963,75.0000024,1.475998778036,1.4151000452832,1024,0.0,97,P-GPS,
0.313743724500243,36.8862357683103,34600,2018-03-30 07:45:53,1854.179844533763,74.9000023968,0.503999582744,1.41989004543648,1854.279844536963,75.0000024,1.475998778036,1.41989004543648,1024,0.0,97,P-GPS,
0.313743818876714,36.8862357533322,34700,2018-03-30 07:45:54,1854.179844533763,74.9000023968,0.503999582744,1.43004004576128,1854.279844536963,75.0000024,1.475998778036,1.43004004576128,1024,0.0,97,P-GPS,
0.313743825986501,36.8862357102837,34800,2018-03-30 07:45:54,1854.179844533763,74.9000023968,0.503999582744,1.4301500457648002,1854.279844536963,75.0000024,1.475998778036,1.4301500457648002,1024,0.0,97,P-GPS,
0.313743886957073,36.8862357074226,34900,2018-03-30 07:45:54,1854.179844533763,74.9000023968,0.503999582744,1.43682004597824,1854.279844536963,75.0000024,1.475998778036,1.43682004597824,1024,0.0,97,P-GPS,
0.313743870138503,36.8862356808377,35000,2018-03-30 07:45:54,1854.179844533763,74.9000023968,0.503999582744,1.4345700459062403,1854.279844536963,75.0000024,1.475998778036,1.43682004597824,1024,0.0,97,P-GPS,
0.313743903536261,36.8862356994071,35100,2018-03-30 07:45:54,1854.179844533763,74.9000023968,0.503999582744,1.43853004603296,1854.279844536963,75.0000024,1.475998778036,1.43853004603296,1024,0.0,97,P-GPS,
0.313743825869253,36.8862356381158,35200,2018-03-30 07:45:54,1854.179844533763,74.9000023968,1.295998927056,1.4290500457296003,1854.279844536963,75.0000024,1.475998778036,1.43853004603296,1024,0.0,97,P-GPS,
0.313743644188641,36.8862354451098,35300,2018-03-30 07:45:54,1854.079844530563,74.80000239360001,1.295998927056,1.4063000450015999,1854.279844536963,75.0000024,1.475998778036,1.43853004603296,1024,0.0,97,P-GPS,
0.313743112964155,36.8862349961251,35400,2018-03-30 07:45:54,1854.079844530563,74.80000239360001,4.103996602344,1.34236004295552,1854.279844536963,75.0000024,4.103996602344,1.43853004603296,1024,0.0,97,P-GPS,
0.313742085067506,36.8862341763849,35500,2018-03-30 07:45:54,1853.979844527363,74.7000023904,6.407994694888,1.2231400391404799,1854.279844536963,75.0000024,6.407994694888,1.43853004603296,1024,0.0,97,P-GPS,
0.31373846826082,36.8862312179941,35700,2018-03-30 07:45:54,1853.8798445241628,74.6000023872,6.407994694888,0.8744500279824,1854.279844536963,75.0000024,6.407994694888,1.43853004603296,1024,0.0,97,P-GPS,
0.313735956752354,36.88622908572,35800,2018-03-30 07:45:55,1853.8798445241628,74.6000023872,13.787988585068,0.7640250244488,1854.279844536963,75.0000024,13.787988585068,1.43853004603296,1024,0.0,97,P-GPS,
0.313732997249175,36.8862264100325,35900,2018-03-30 07:45:55,1853.8798445241628,74.6000023872,15.587987094868001,0.8631980276223361,1854.279844536963,75.0000024,15.587987094868001,1.43853004603296,1024,0.0,97,P-GPS,
0.313726086978828,36.8862201230772,36100,2018-03-30 07:45:55,1853.979844527363,74.7000023904,19.655983727016,1.63347005227104,1854.279844536963,75.0000024,19.655983727016,1.63347005227104,1024,0.0,97,P-GPS,
0.313722172273147,36.8862165354246,36200,2018-03-30 07:45:55,1854.079844530563,74.80000239360001,21.167982475248,2.1741000695712,1854.279844536963,75.0000024,21.167982475248,2.1741000695712,1024,0.0,97,P-GPS,
0.313718053939195,36.8862125500134,36300,2018-03-30 07:45:55,1854.079844530563,74.80000239360001,21.167982475248,2.7849800891193603,1854.279844536963,75.0000024,21.167982475248,2.7849800891193603,1024,0.0,97,P-GPS,
0.313713631892091,36.8862083591431,36400,2018-03-30 07:45:55,1854.179844533763,74.9000023968,24.443979763084,3.4434401101900804,1854.279844536963,75.0000024,24.443979763084,3.4434401101900804,1024,0.0,97,P-GPS,
0.313709095315402,36.886203840199,36500,2018-03-30 07:45:55,1854.179844533763,74.9000023968,24.443979763084,4.1450601326419205,1854.279844536963,75.0000024,24.443979763084,4.1450601326419205,1024,0.0,97,P-GPS,
0.313704229191723,36.8861991275766,36600,2018-03-30 07:45:56,1854.179844533763,74.9000023968,27.251977438372002,4.889140156452481,1854.279844536963,75.0000024,27.251977438372002,4.889140156452481,1024,0.0,97,P-GPS,
0.313699236962154,36.8861941135702,36700,2018-03-30 07:45:56,1854.179844533763,74.9000023968,28.799976156800003,5.6706001814592,1854.279844536963,75.0000024,28.799976156800003,5.6706001814592,1024,0.0,97,P-GPS,
0.313688441655155,36.8861834584957,36900,2018-03-30 07:45:56,1854.179844533763,74.9000023968,31.859973623459997,7.348430235149761,1854.279844536963,75.0000024,31.859973623459997,7.348430235149761,1024,0.0,97,P-GPS,
0.313682647999901,36.8861778270499,37000,2018-03-30 07:45:56,1854.179844533763,74.9000023968,32.867972788948,8.24308026377856,1854.279844536963,75.0000024,32.867972788948,8.24308026377856,1024,0.0,97,P-GPS,
0.313676803468799,36.8861719841669,37100,2018-03-30 07:45:56,1854.179844533763,74.9000023968,33.875971954436004,9.15988029311616,1854.279844536963,75.0000024,33.875971954436004,9.15988029311616,1024,0.0,97,P-GPS,
0.313670625673377,36.8861659809138,37200,2018-03-30 07:45:56,1854.179844533763,74.9000023968,33.875971954436004,10.11500032368,1854.279844536963,75.0000024,33.875971954436004,10.11500032368,1024,0.0,97,P-GPS,
0.313664302262493,36.8861597224833,37300,2018-03-30 07:45:56,1854.179844533763,74.9000023968,36.17997004698,11.1026003552832,1854.279844536963,75.0000024,36.17997004698,11.1026003552832,1024,0.0,97,P-GPS,
0.313657671551199,36.8861533234116,37400,2018-03-30 07:45:56,1854.279844536963,75.0000024,37.187969212468,12.125000388000002,1854.279844536963,75.0000024,37.187969212468,12.125000388000002,1024,0.0,97,P-GPS,
0.313651052258554,36.8861467931283,37500,2018-03-30 07:45:56,1854.279844536963,75.0000024,37.691968795212,13.1577004210464,1854.279844536963,75.0000024,37.691968795212,13.1577004210464,1024,0.0,97,P-GPS,
