latitude,longitude,time_millisecond,datetime_utc,altitude_m,ascent_m,speed_kph,distance_m,max_altitude_m,max_ascent_m,max_speed_kph,max_distance_m,rc_throttle,gimbal_pitch_degrees,battery_percent,flycState,message
0.30806094472756607,36.879388316523794,100,2017-11-15 13:40:12,1768.0571854778357,0.0,0.0,0.0,1768.0571854778357,0.0,0.0,0.0,1024,0.0,100,Motors_Started,
0.308060939538555,36.8793883573936,200,2017-11-15 13:40:12,1768.0571854778357,0.0,0.0,0.0045814001466048,1768.0571854778357,0.0,0.0,0.0045814001466048,1024,0.0,100,Motors_Started,
0.308060936008241,36.8793883843764,300,2017-11-15 13:40:12,1768.0571854778357,0.0,0.0,0.0076075702434422405,1768.0571854778357,0.0,0.0,0.0076075702434422405,1024,0.0,100,Motors_Started,
0.30806090435803196,36.8793884220684,400,2017-11-15 13:40:12,1768.0571854778357,0.0,0.0,0.012566300402121602,1768.0571854778357,0.0,0.0,0.012566300402121602,1024,0.0,100,Motors_Started,
0.308060869533859,36.8793884624219,500,2017-11-15 13:40:12,1768.0571854778357,0.0,0.0,0.018252600584083203,1768.0571854778357,0.0,0.0,0.018252600584083203,1024,0.0,100,Motors_Started,
0.308060854261828,36.879388511278,600,2017-11-15 13:40:12,1768.0571854778357,0.0,0.0,0.023880100764163203,1768.0571854778357,0.0,0.0,0.023880100764163203,1024,0.0,100,Motors_Started,
0.308060859612437,36.879388558847104,700,2017-11-15 13:40:12,1768.0571854778357,0.0,0.0,0.028561500913968006,1768.0571854778357,0.0,0.0,0.028561500913968006,1024,0.0,100,Motors_Started,Setting new Return-To-Home altitude to 30m (98 ft). Setting new Maximum Flight Altitude to 150m (492 ft)
0.30806086620855105,36.8793885926135,800,2017-11-15 13:40:12,1768.0571854778357,0.0,0.0,0.031919901021436804,1768.0571854778357,0.0,0.0,0.031919901021436804,1024,0.0,100,Motors_Started,
0.308060869258245,36.8793886152724,900,2017-11-15 13:40:12,1768.0571854778357,0.0,0.0,0.0342659010965088,1768.0571854778357,0.0,0.0,0.0342659010965088,1024,0.0,100,Motors_Started,
0.30806085147678197,36.8793886219795,1000,2017-11-15 13:40:13,1768.0571854778357,0.0,0.0,0.0355157011365024,1768.0571854778357,0.0,0.0,0.0355157011365024,1024,0.0,100,Motors_Started,
0.308060822734643,36.879388626906,1100,2017-11-15 13:40:13,1768.0571854778357,0.0,0.0,0.0370863011867616,1768.0571854778357,0.0,0.0,0.0370863011867616,1024,0.0,100,Motors_Started,
0.308060799304388,36.8793886470172,1200,2017-11-15 13:40:13,1768.0571854778357,0.0,0.0,0.040153001284896,1768.0571854778357,0.0,0.0,0.040153001284896,1024,0.0,100,Motors_Started,
0.308060780732798,36.879388673421005,1300,2017-11-15 13:40:13,1768.0571854778357,0.0,0.0,0.0436781013976992,1768.0571854778357,0.0,0.0,0.0436781013976992,1024,0.0,100,Motors_Started,
0.308060786645525,36.879388686322706,1400,2017-11-15 13:40:13,1768.0571854778357,0.0,0.0,0.044723301431145605,1768.0571854778357,0.0,0.0,0.044723301431145605,1024,0.0,100,Motors_Started,
0.30806080638822103,36.8793886958138,1500,2017-11-15 13:40:13,1768.0571854778357,0.0,0.0,0.0448968014366976,1768.0571854778357,0.0,0.0,0.0448968014366976,1024,0.0,100,Assisted_Takeoff,
0.308060810955752,36.879388696452,1600,2017-11-15 13:40:13,1768.0571854778357,0.0,0.0,0.04479220143335041,1768.0571854778357,0.0,0.0,0.0448968014366976,1024,0.0,100,Assisted_Takeoff,
0.308060797193873,36.8793887022602,1700,2017-11-15 13:40:13,1768.0571854778357,0.0,0.0,0.045926201469638404,1768.0571854778357,0.0,0.0,0.045926201469638404,1024,0.0,100,Assisted_Takeoff,
0.308060783133175,36.879388685903294,1800,2017-11-15 13:40:13,1768.0571854778357,0.0,0.0,0.044835501434736,1768.0571854778357,0.0,0.0,0.045926201469638404,1024,0.0,100,Assisted_Takeoff,
0.30806077761794104,36.8793886864161,1900,2017-11-15 13:40:13,1768.0571854778357,0.0,0.0,0.0451368014443776,1768.0571854778357,0.0,0.0,0.045926201469638404,1024,0.0,100,Assisted_Takeoff,
0.30806077147087,36.879388673709,2000,2017-11-15 13:40:14,1768.0571854778357,0.0,0.0,0.0441469014127008,1768.0571854778357,0.0,0.0,0.045926201469638404,1024,0.0,100,Assisted_Takeoff,
0.308060763448341,36.8793886631263,2100,2017-11-15 13:40:14,1768.0571854778357,0.0,0.0,0.043497401391916796,1768.0571854778357,0.0,0.0,0.045926201469638404,1024,0.0,100,Assisted_Takeoff,
0.308060765656002,36.879388655135706,2200,2017-11-15 13:40:14,1768.0571854778357,0.0,0.0,0.0425966013630912,1768.0571854778357,0.0,0.0,0.045926201469638404,1024,0.0,100,Assisted_Takeoff,
0.30806076138785,36.8793886430684,2300,2017-11-15 13:40:14,1768.0571854778357,0.0,0.0,0.0416454013326528,1768.0571854778357,0.0,0.0,0.045926201469638404,1024,0.0,100,Assisted_Takeoff,
0.308060761109742,36.879388629187105,2400,2017-11-15 13:40:14,1768.0571854778357,0.0,0.0,0.0403222012903104,1768.0571854778357,0.0,0.0,0.045926201469638404,1024,0.0,100,Assisted_Takeoff,
0.30806076490763,36.87938862714171,2500,2017-11-15 13:40:14,1768.0571854778357,0.0,0.0,0.0399129012772128,1768.0571854778357,0.0,0.0,0.045926201469638404,1024,0.0,100,Assisted_Takeoff,
0.308060766453787,36.8793886155619,2600,2017-11-15 13:40:14,1768.0571854778357,0.0,0.0,0.038715501238896,1768.0571854778357,0.0,0.0,0.045926201469638404,1033,0.0,100,Assisted_Takeoff,
0.308060768904239,36.8793886121526,2700,2017-11-15 13:40:14,1768.0571854778357,0.0,0.0,0.0382503012240096,1768.0571854778357,0.0,0.0,0.045926201469638404,1024,0.0,100,Assisted_Takeoff,
0.308060775560707,36.879388590195,2800,2017-11-15 13:40:14,1768.0571854778357,0.0,0.0,0.035778501144912,1768.0571854778357,0.0,0.0,0.045926201469638404,1024,0.0,100,Assisted_Takeoff,
0.30806077852427194,36.8793885590055,2900,2017-11-15 13:40:14,1768.0571854778357,0.0,0.0,0.0326914010461248,1768.0571854778357,0.0,0.0,0.045926201469638404,1102,0.0,100,Assisted_Takeoff,
0.308060780163199,36.8793885210359,3000,2017-11-15 13:40:15,1768.0571854778357,0.0,0.0,0.0291914009341248,1768.0571854778357,0.0,0.0,0.045926201469638404,1251,0.0,100,Assisted_Takeoff,
0.30806078344644705,36.87938850248229,3100,2017-11-15 13:40:15,1768.0571854778357,0.0,0.0,0.027373700875958404,1768.0571854778357,0.0,0.0,0.045926201469638404,1321,0.0,100,Assisted_Takeoff,
0.308060784588648,36.879388481424606,3200,2017-11-15 13:40:15,1768.0571854778357,0.0,0.0,0.0255619008179808,1768.0571854778357,0.0,0.0,0.045926201469638404,1352,0.0,100,Assisted_Takeoff,
0.308060785858325,36.8793884690767,3300,2017-11-15 13:40:15,1768.0571854778357,0.0,0.0,0.0244934007837888,1768.0571854778357,0.0,0.0,0.045926201469638404,1400,0.0,100,Assisted_Takeoff,
0.30806080938832303,36.8793884591144,3400,2017-11-15 13:40:15,1768.0571854778357,0.0,0.0,0.0218622006995904,1768.0571854778357,0.0,0.0,0.045926201469638404,1430,0.0,100,Assisted_Takeoff,
0.30806084895091196,36.879388449978,3500,2017-11-15 13:40:15,1768.0571854778357,0.0,0.0,0.018267200584550402,1768.0571854778357,0.0,0.0,0.045926201469638404,1461,0.0,100,Assisted_Takeoff,
0.30806090164211897,36.8793884390225,3600,2017-11-15 13:40:15,1768.0571854778357,0.0,0.0,0.014440500462096002,1768.0571854778357,0.0,0.0,0.045926201469638404,1480,0.0,100,Assisted_Takeoff,
0.308060887424912,36.8793883928592,3700,2017-11-15 13:40:15,1768.0571854778357,0.0,0.35999970196000003,0.010614500339664,1768.0571854778357,0.0,0.35999970196000003,0.045926201469638404,1558,0.0,100,GPS_Atti,
0.308060644506944,36.8793881115336,3900,2017-11-15 13:40:15,1768.1571854810356,0.10000000320000002,0.5075995797636,0.040426501293648005,1768.1571854810356,0.10000000320000002,0.5075995797636,0.045926201469638404,1589,0.0,100,GPS_Atti,
0.30806044747952005,36.8793879189318,4000,2017-11-15 13:40:16,1768.2571854842358,0.20000000640000004,0.8063993323904,0.0708000022656,1768.2571854842358,0.20000000640000004,0.8063993323904,0.0708000022656,1600,0.0,100,GPS_Atti,
0.30806018229006105,36.8793876846536,4100,2017-11-15 13:40:16,1768.4571854906355,0.4000000128000001,1.0187991565468,0.11012000352384001,1768.4571854906355,0.4000000128000001,1.0187991565468,0.11012000352384001,1600,-0.2,100,GPS_Atti,
0.308059855691165,36.879387396762,4200,2017-11-15 13:40:16,1768.6571854970357,0.6000000192,1.2995989240756,0.15852000507264002,1768.6571854970357,0.6000000192,1.2995989240756,0.15852000507264002,1603,-0.9,100,GPS_Atti,
0.30805950808391697,36.879387103145,4300,2017-11-15 13:40:16,1768.8571855034356,0.8000000256000002,1.2995989240756,0.20912000669184,1768.8571855034356,0.8000000256000002,1.2995989240756,0.20912000669184,1604,-0.9,100,GPS_Atti,
0.30805915727860805,36.879386859327504,4400,2017-11-15 13:40:16,1769.1571855130358,1.1000000352,1.1375990581936,0.256458008206656,1769.1571855130358,1.1000000352,1.2995989240756,0.256458008206656,1602,-1.7,100,GPS_Atti,
0.30805885510392894,36.879386605700496,4500,2017-11-15 13:40:16,1769.4571855226357,1.4000000448000003,1.0187991565468,0.30032600961043204,1769.4571855226357,1.4000000448000003,1.2995989240756,0.30032600961043204,1602,-2.6,100,GPS_Atti,
0.30805860823426195,36.8793863335376,4600,2017-11-15 13:40:16,1769.8571855354357,1.8000000576000001,1.1375990581936,0.34079401090540806,1769.8571855354357,1.8000000576000001,1.2995989240756,0.34079401090540806,1597,-3.5,100,GPS_Atti,
0.3080583630616369,36.879386118360706,4700,2017-11-15 13:40:16,1770.2571855482356,2.2000000704,1.1375990581936,0.37706501206608,1770.2571855482356,2.2000000704,1.2995989240756,0.37706501206608,1597,-4.4,100,GPS_Atti,Home Point Recorded. RTH Altitude:  30m.
0.30805815390082897,36.8793858808665,4800,2017-11-15 13:40:16,1770.7571855642357,2.7000000863999998,1.0187991565468,0.41192801318169614,1770.7571855642357,2.7000000863999998,1.2995989240756,0.41192801318169614,1599,-5.2,100,GPS_Atti,
0.30805797974200105,36.879385607838394,4900,2017-11-15 13:40:16,1771.1571855770355,3.1000000992,0.8063993323904,0.4465990142911681,1771.1571855770355,3.1000000992,1.2995989240756,0.4465990142911681,1597,-6.1,100,GPS_Atti,
0.30805788501867,36.879385297644205,5000,2017-11-15 13:40:17,1771.6571855930356,3.6000001152000003,0.8063993323904,0.4779950152958401,1771.6571855930356,3.6000001152000003,1.2995989240756,0.4779950152958401,1592,-7.0,100,GPS_Atti,
0.308057825853229,36.8793849695395,5100,2017-11-15 13:40:17,1772.0571856058355,4.000000128,0.8063993323904,0.508752016280064,1772.0571856058355,4.000000128,1.2995989240756,0.508752016280064,1593,-7.9,100,GPS_Atti,
0.30805775866281504,36.8793846737489,5200,2017-11-15 13:40:17,1772.4571856186358,4.4000001408,1.0187991565468,0.5381780172216961,1772.4571856186358,4.4000001408,1.2995989240756,0.5381780172216961,1591,-8.8,100,GPS_Atti,
0.30805767261502004,36.87938441124221,5300,2017-11-15 13:40:17,1772.9571856346356,4.9000001568,1.0187991565468,0.566578018130496,1772.9571856346356,4.9000001568,1.2995989240756,0.566578018130496,1577,-9.7,100,GPS_Atti,
0.308057595629923,36.879384164403795,5400,2017-11-15 13:40:17,1773.3571856474357,5.3000001696,0.8063993323904,0.59322001898304,1773.3571856474357,5.3000001696,1.2995989240756,0.59322001898304,1569,-10.6,100,GPS_Atti,
0.308057515416843,36.8793839045154,5500,2017-11-15 13:40:17,1773.7571856602356,5.7000001824,0.8063993323904,0.621417019885344,1773.7571856602356,5.7000001824,1.2995989240756,0.621417019885344,1521,-11.4,100,GPS_Atti,
0.308057420335255,36.8793836305462,5600,2017-11-15 13:40:17,1774.1571856730357,6.1000001952,1.0187991565468,0.652042020865344,1774.1571856730357,6.1000001952,1.2995989240756,0.652042020865344,1525,-11.8,100,GPS_Atti,
0.30805731176608,36.8793833517255,5700,2017-11-15 13:40:17,1774.4571856826358,6.400000204800001,1.0187991565468,0.6841380218924161,1774.4571856826358,6.400000204800001,1.2995989240756,0.6841380218924161,1525,-11.8,100,GPS_Atti,
0.308057205418509,36.8793830627519,5800,2017-11-15 13:40:17,1774.8571856954356,6.800000217600001,1.0187991565468,0.7171180229477759,1774.8571856954356,6.800000217600001,1.2995989240756,0.7171180229477759,1523,-11.8,100,GPS_Atti,
0.30805710879356296,36.8793827724595,5900,2017-11-15 13:40:17,1775.2571857082357,7.200000230400001,1.0187991565468,0.74971502399088,1775.2571857082357,7.200000230400001,1.2995989240756,0.74971502399088,1520,-11.8,100,GPS_Atti,
0.308057026481825,36.8793824524952,6000,2017-11-15 13:40:18,1775.5571857178356,7.50000024,0.8063993323904,0.784287025097184,1775.5571857178356,7.50000024,1.2995989240756,0.784287025097184,1521,-11.8,100,GPS_Atti,
0.30805697449945,36.8793821279692,6100,2017-11-15 13:40:18,1775.8571857274355,7.8000002496,0.8063993323904,0.817647026164704,1775.8571857274355,7.8000002496,1.2995989240756,0.817647026164704,1514,-11.8,100,GPS_Atti,
0.308056942256666,36.879381801951794,6200,2017-11-15 13:40:18,1776.1571857370357,8.1000002592,0.8063993323904,0.850259027208288,1776.1571857370357,8.1000002592,1.2995989240756,0.850259027208288,1497,-11.9,100,GPS_Atti,
0.308056922479214,36.879381491065004,6300,2017-11-15 13:40:18,1776.5571857498355,8.500000272000001,0.8063993323904,0.8810160281925122,1776.5571857498355,8.500000272000001,1.2995989240756,0.8810160281925122,1497,-11.9,100,GPS_Atti,
0.308056930896234,36.879381166662604,6400,2017-11-15 13:40:18,1776.8571857594357,8.8000002816,0.8063993323904,0.911821029178272,1776.8571857594357,8.8000002816,1.2995989240756,0.911821029178272,1500,-12.0,100,GPS_Atti,
0.30805695435519104,36.8793808463846,6500,2017-11-15 13:40:18,1777.1571857690358,9.1000002912,0.7199994039200001,0.941808030137856,1777.1571857690358,9.1000002912,1.2995989240756,0.941808030137856,1510,-12.0,100,GPS_Atti,
0.308056986085015,36.8793805424,6600,2017-11-15 13:40:18,1777.4571857786357,9.400000300800002,0.7199994039200001,0.9701490310447679,1777.4571857786357,9.400000300800002,1.2995989240756,0.9701490310447679,1527,-12.0,100,GPS_Atti,
0.30805700650163204,36.8793802439878,6700,2017-11-15 13:40:18,1777.7571857882356,9.7000003104,0.7199994039200001,0.9988360319627522,1777.7571857882356,9.7000003104,1.2995989240756,0.9988360319627522,1537,-12.0,100,GPS_Atti,
0.308056995582915,36.8793799364108,6800,2017-11-15 13:40:18,1778.0571857978355,10.00000032,0.7199994039200001,1.0302000329664,1778.0571857978355,10.00000032,1.2995989240756,1.0302000329664,1535,-12.0,100,GPS_Atti,
0.308056956071571,36.879379633597395,6900,2017-11-15 13:40:18,1778.4571858106356,10.400000332800001,0.8063993323904,1.06259003400288,1778.4571858106356,10.400000332800001,1.2995989240756,1.06259003400288,1534,-12.4,100,GPS_Atti,
0.30805692506844,36.879379365592605,7000,2017-11-15 13:40:19,1778.7571858202357,10.700000342400001,0.5075995797636,1.0911500349168002,1778.7571858202357,10.700000342400001,1.2995989240756,1.0911500349168002,1531,-12.7,100,GPS_Atti,
0.30805691524688694,36.8793791310888,7100,2017-11-15 13:40:19,1779.0571858298356,11.000000352000002,0.35999970196000003,1.11543003569376,1779.0571858298356,11.000000352000002,1.2995989240756,1.11543003569376,1521,-13.4,100,GPS_Atti,
0.30805687859468395,36.8793787483456,7300,2017-11-15 13:40:19,1779.7571858522358,11.700000374400002,0.35999970196000003,1.15612003699584,1779.7571858522358,11.700000374400002,1.2995989240756,1.15612003699584,1520,-13.4,100,GPS_Atti,
0.30805687287273903,36.8793785708625,7400,2017-11-15 13:40:19,1780.0571858618355,12.000000384000002,0.35999970196000003,1.1745600375859202,1780.0571858618355,12.000000384000002,1.2995989240756,1.1745600375859202,1514,-13.9,100,GPS_Atti,
0.308056876081588,36.8793783936069,7500,2017-11-15 13:40:19,1780.4571858746356,12.4000003968,0.35999970196000003,1.1926300381641601,1780.4571858746356,12.4000003968,1.2995989240756,1.1926300381641601,1509,-13.9,100,GPS_Atti,
0.308056866229502,36.8793782188677,7600,2017-11-15 13:40:19,1780.7571858842355,12.700000406400001,0.35999970196000003,1.2110400387532803,1780.7571858842355,12.700000406400001,1.2995989240756,1.2110400387532803,1500,-13.9,100,GPS_Atti,
0.30805685473024397,36.8793780436291,7700,2017-11-15 13:40:19,1781.1571858970356,13.100000419199999,0.35999970196000003,1.2296100393475202,1781.1571858970356,13.100000419199999,1.2995989240756,1.2296100393475202,1501,-13.9,100,GPS_Atti,
0.30805687024890804,36.879377772938795,7900,2017-11-15 13:40:19,1781.7571859162356,13.7000004384,0.35999970196000003,1.257000040224,1781.7571859162356,13.7000004384,1.2995989240756,1.257000040224,1508,-13.9,100,GPS_Atti,
0.308056888344992,36.8793776848474,8000,2017-11-15 13:40:20,1782.1571859290357,14.100000451200001,0.0,1.2654200404934401,1782.1571859290357,14.100000451200001,1.2995989240756,1.2654200404934401,1514,-13.9,100,GPS_Atti,
0.308056912432122,36.8793776195145,8100,2017-11-15 13:40:20,1782.4571859386358,14.400000460800001,0.0,1.27127004068064,1782.4571859386358,14.400000460800001,1.2995989240756,1.27127004068064,1521,-13.9,100,GPS_Atti,
0.308056950700963,36.879377605816295,8200,2017-11-15 13:40:20,1782.7571859482355,14.7000004704,0.0,1.2712000406784,1782.7571859482355,14.7000004704,1.2995989240756,1.27127004068064,1518,-14.0,100,GPS_Atti,
0.308056992331726,36.879377616170004,8300,2017-11-15 13:40:20,1783.1571859610356,15.100000483200002,0.0,1.26851004059232,1783.1571859610356,15.100000483200002,1.2995989240756,1.27127004068064,1517,-14.5,100,GPS_Atti,
0.308057010511268,36.8793776523121,8400,2017-11-15 13:40:20,1783.4571859706355,15.4000004928,0.0,1.2640400404492802,1783.4571859706355,15.4000004928,1.2995989240756,1.27127004068064,1515,-15.0,100,GPS_Atti,
0.30805700979231,36.879377685847295,8500,2017-11-15 13:40:20,1783.7571859802356,15.700000502400002,0.0,1.26057004033824,1783.7571859802356,15.700000502400002,1.2995989240756,1.27127004068064,1509,-15.6,100,GPS_Atti,
0.308057014581564,36.8793777338986,8600,2017-11-15 13:40:20,1784.1571859930357,16.1000005152,0.0,1.25537004017184,1784.1571859930357,16.1000005152,1.2995989240756,1.27127004068064,1509,-16.2,100,GPS_Atti,
0.30805703519400107,36.879377771310395,8700,2017-11-15 13:40:20,1784.4571860026356,16.400000524800003,0.0,1.25067004002144,1784.4571860026356,16.400000524800003,1.2995989240756,1.27127004068064,1508,-16.9,100,GPS_Atti,
0.30805703502423604,36.879377802602704,8800,2017-11-15 13:40:20,1784.8571860154357,16.8000005376,0.0,1.24742003991744,1784.8571860154357,16.8000005376,1.2995989240756,1.27127004068064,1502,-16.9,100,GPS_Atti,
0.30805701568402005,36.8793778214879,8900,2017-11-15 13:40:20,1785.2571860282355,17.2000005504,0.0,1.2462000398784001,1785.2571860282355,17.2000005504,1.2995989240756,1.27127004068064,1502,-17.5,100,GPS_Atti,
0.30805698703073403,36.8793778488158,9000,2017-11-15 13:40:21,1785.5571860378357,17.50000056,0.0,1.24448003982336,1785.5571860378357,17.50000056,1.2995989240756,1.27127004068064,1500,-18.2,100,GPS_Atti,
0.308056962810072,36.8793779489643,9200,2017-11-15 13:40:21,1786.2571860602357,18.2000005824,0.0,1.2350300395209601,1786.2571860602357,18.2000005824,1.2995989240756,1.27127004068064,1481,-21.6,100,GPS_Atti,
0.30805693934093703,36.879378104176396,9400,2017-11-15 13:40:21,1786.9571860826354,18.900000604800002,0.0,1.21989003903648,1786.9571860826354,18.900000604800002,1.2995989240756,1.27127004068064,1480,-22.8,100,GPS_Atti,
0.308056930554261,36.8793781837641,9500,2017-11-15 13:40:21,1787.3571860954355,19.300000617600002,0.0,1.21201003878432,1787.3571860954355,19.300000617600002,1.2995989240756,1.27127004068064,1480,-23.0,100,GPS_Atti,
0.30805692255453004,36.8793783050182,9600,2017-11-15 13:40:21,1787.6571861050356,19.6000006272,0.0,1.1998200383942401,1787.6571861050356,19.6000006272,1.2995989240756,1.27127004068064,1477,-23.0,100,GPS_Atti,
0.308056919235354,36.8793784401481,9700,2017-11-15 13:40:21,1787.9571861146355,19.900000636800005,0.0,1.18603003795296,1787.9571861146355,19.900000636800005,1.2995989240756,1.27127004068064,1460,-23.0,100,GPS_Atti,
0.30805690574165995,36.879378593148395,9800,2017-11-15 13:40:21,1788.3571861274356,20.3000006496,0.0,1.1708600374675202,1788.3571861274356,20.3000006496,1.2995989240756,1.27127004068064,1459,-23.0,100,GPS_Atti,
0.30805688713465096,36.8793787116061,9900,2017-11-15 13:40:21,1788.6571861370358,20.600000659200003,0.0,1.15951003710432,1788.6571861370358,20.600000659200003,1.2995989240756,1.27127004068064,1464,-23.0,100,GPS_Atti,
0.308056871103027,36.879378842476704,10000,2017-11-15 13:40:22,1788.9571861466356,20.900000668800004,0.0,1.14682003669824,1788.9571861466356,20.900000668800004,1.2995989240756,1.27127004068064,1465,-23.0,100,GPS_Atti,
0.308056862705142,36.8793789622924,10100,2017-11-15 13:40:22,1789.3571861594357,21.300000681600004,0.0,1.13497003631904,1789.3571861594357,21.300000681600004,1.2995989240756,1.27127004068064,1465,-23.0,100,GPS_Atti,
0.308056851016578,36.8793791169612,10200,2017-11-15 13:40:22,1789.6571861690354,21.600000691199998,0.0,1.119750035832,1789.6571861690354,21.600000691199998,1.2995989240756,1.27127004068064,1465,-23.0,100,GPS_Atti,
0.308056827825093,36.8793792548105,10300,2017-11-15 13:40:22,1789.9571861786355,21.900000700799996,0.0,1.10683003541856,1789.9571861786355,21.900000700799996,1.2995989240756,1.27127004068064,1466,-23.0,100,GPS_Atti,
0.308056802948168,36.8793794340601,10400,2017-11-15 13:40:22,1790.2571861882357,22.2000007104,0.0,1.0898800348761601,1790.2571861882357,22.2000007104,1.2995989240756,1.27127004068064,1472,-23.0,100,GPS_Atti,
0.308056768911246,36.8793795972824,10500,2017-11-15 13:40:22,1790.6571862010355,22.6000007232,0.0,1.0750800344025602,1790.6571862010355,22.6000007232,1.2995989240756,1.27127004068064,1478,-23.0,100,GPS_Atti,
0.308056720130391,36.8793797519576,10600,2017-11-15 13:40:22,1790.9571862106357,22.900000732800002,0.0,1.06199003398368,1790.9571862106357,22.900000732800002,1.2995989240756,1.27127004068064,1482,-23.0,100,GPS_Atti,
0.308056658609406,36.8793798453335,10700,2017-11-15 13:40:22,1791.2571862202358,23.2000007424,0.0,1.055750033784,1791.2571862202358,23.2000007424,1.2995989240756,1.27127004068064,1500,-23.0,100,GPS_Atti,
0.308056510716565,36.8793800662494,10900,2017-11-15 13:40:22,1791.9571862426355,23.9000007648,0.0,1.04158003333056,1791.9571862426355,23.9000007648,1.2995989240756,1.27127004068064,1500,-23.0,100,GPS_Atti,
0.30805641816395,36.8793801872309,11000,2017-11-15 13:40:23,1792.3571862554359,24.3000007776,0.0,1.0347100331107202,1792.3571862554359,24.3000007776,1.2995989240756,1.27127004068064,1500,-23.0,100,GPS_Atti,
0.308056330235302,36.8793802736988,11100,2017-11-15 13:40:23,1792.7571862682357,24.7000007904,0.0,1.03116003299712,1792.7571862682357,24.7000007904,1.2995989240756,1.27127004068064,1499,-23.0,100,GPS_Atti,
0.30805624289533695,36.8793803494447,11200,2017-11-15 13:40:23,1793.1571862810358,25.100000803199997,0.0,1.02876003292032,1793.1571862810358,25.100000803199997,1.2995989240756,1.27127004068064,1500,-23.0,100,GPS_Atti,
0.30805615794552005,36.879380365487,11300,2017-11-15 13:40:23,1793.4571862906355,25.400000812800002,0.0,1.0320600330259202,1793.4571862906355,25.400000812800002,1.2995989240756,1.27127004068064,1500,-23.0,100,GPS_Atti,
0.30805610293790303,36.879380382898,11400,2017-11-15 13:40:23,1793.8571863034356,25.800000825599998,0.0,1.0335800330745601,1793.8571863034356,25.800000825599998,1.2995989240756,1.27127004068064,1521,-23.0,100,GPS_Atti,
0.308056081074007,36.879380374571,11500,2017-11-15 13:40:23,1794.1571863130355,26.100000835200003,0.35999970196000003,1.03564003314048,1794.1571863130355,26.100000835200003,1.2995989240756,1.27127004068064,1556,-23.0,100,GPS_Atti,
0.30805608201484097,36.879380403638,11600,2017-11-15 13:40:23,1794.5571863258356,26.500000848000003,0.0,1.0328300330505602,1794.5571863258356,26.500000848000003,1.2995989240756,1.27127004068064,1571,-23.0,100,GPS_Atti,
0.308056084293034,36.8793804393738,11700,2017-11-15 13:40:23,1794.9571863386354,26.9000008608,0.0,1.0293100329379201,1794.9571863386354,26.9000008608,1.2995989240756,1.27127004068064,1577,-23.0,99,GPS_Atti,
0.30805608432438103,36.87938052076979,11800,2017-11-15 13:40:23,1795.3571863514355,27.3000008736,0.0,1.0216200326918399,1795.3571863514355,27.3000008736,1.2995989240756,1.27127004068064,1578,-23.0,99,GPS_Atti,
0.308056083692138,36.879380577481705,11900,2017-11-15 13:40:23,1795.7571863642356,27.700000886400005,0.0,1.01631003252192,1795.7571863642356,27.700000886400005,1.2995989240756,1.27127004068064,1578,-23.0,99,GPS_Atti,
0.30805609905487896,36.8793806597507,12000,2017-11-15 13:40:24,1796.1571863770355,28.1000008992,0.0,1.00766003224512,1796.1571863770355,28.1000008992,1.2995989240756,1.27127004068064,1579,-23.0,99,GPS_Atti,
0.308056134088409,36.87938069986679,12100,2017-11-15 13:40:24,1796.5571863898356,28.500000912,0.0,1.0018100320579202,1796.5571863898356,28.500000912,1.2995989240756,1.27127004068064,1582,-23.0,99,GPS_Atti,
0.30805618972012705,36.8793807313946,12200,2017-11-15 13:40:24,1797.0571864058356,29.000000928,0.0,0.995544031857408,1797.0571864058356,29.000000928,1.2995989240756,1.27127004068064,1582,-23.0,99,GPS_Atti,
0.308056258753532,36.8793807250203,12300,2017-11-15 13:40:24,1797.4571864186357,29.4000009408,0.0,0.992091031746912,1797.4571864186357,29.4000009408,1.2995989240756,1.27127004068064,1584,-23.0,99,GPS_Atti,
0.30805630910216997,36.879380761044104,12400,2017-11-15 13:40:24,1797.7571864282356,29.7000009504,0.0,0.985744031543808,1797.7571864282356,29.7000009504,1.2995989240756,1.27127004068064,1586,-23.0,99,GPS_Atti,
0.30805633493824797,36.8793808082111,12500,2017-11-15 13:40:24,1798.1571864410357,30.1000009632,0.0,0.979771031352672,1798.1571864410357,30.1000009632,1.2995989240756,1.27127004068064,1595,-23.0,99,GPS_Atti,
0.308056341270453,36.8793809154046,12700,2017-11-15 13:40:24,1798.9571864666357,30.900000988800006,0.0,0.9692610310163521,1798.9571864666357,30.900000988800006,1.2995989240756,1.27127004068064,1599,-23.0,99,GPS_Atti,
0.308056338774862,36.8793809215396,12800,2017-11-15 13:40:24,1799.4571864826355,31.400001004800004,0.0,0.968828031002496,1799.4571864826355,31.400001004800004,1.2995989240756,1.27127004068064,1602,-23.0,99,GPS_Atti,
0.308056315037441,36.8793809589926,12900,2017-11-15 13:40:24,1799.8571864954356,31.800001017600003,0.0,0.9666980309343361,1799.8571864954356,31.800001017600003,1.2995989240756,1.27127004068064,1605,-23.0,99,GPS_Atti,
0.30805630840641807,36.8793809599224,13000,2017-11-15 13:40:25,1800.2571865082357,32.2000010304,0.0,0.967004030944128,1800.2571865082357,32.2000010304,1.2995989240756,1.27127004068064,1606,-23.1,99,GPS_Atti,
0.308056327571168,36.8793809087027,13100,2017-11-15 13:40:25,1800.6571865210356,32.6000010432,0.0,0.9706980310623362,1800.6571865210356,32.6000010432,1.2995989240756,1.27127004068064,1605,-23.1,99,GPS_Atti,
0.308056349176549,36.8793808502955,13200,2017-11-15 13:40:25,1801.0571865338356,33.000001056,0.0,0.9749550311985601,1801.0571865338356,33.000001056,1.2995989240756,1.27127004068064,1605,-23.2,99,GPS_Atti,
0.308056390094461,36.8793807819774,13300,2017-11-15 13:40:25,1801.4571865466355,33.4000010688,0.0,0.979071031330272,1801.4571865466355,33.4000010688,1.2995989240756,1.27127004068064,1604,-23.2,99,GPS_Atti,
0.308056442965966,36.879380720276,13400,2017-11-15 13:40:25,1801.8571865594356,33.800001081599994,0.0,0.981939031422048,1801.8571865594356,33.800001081599994,1.2995989240756,1.27127004068064,1600,-23.3,99,GPS_Atti,
0.30805651392582106,36.879380658669895,13500,2017-11-15 13:40:25,1802.2571865722355,34.2000010944,0.0,0.983863031483616,1802.2571865722355,34.2000010944,1.2995989240756,1.27127004068064,1601,-23.4,99,GPS_Atti,
0.308056557706537,36.879380600407295,13600,2017-11-15 13:40:25,1802.7571865882358,34.7000011104,0.0,0.9870610315859522,1802.7571865882358,34.7000011104,1.2995989240756,1.27127004068064,1602,-23.4,99,GPS_Atti,
0.30805658642414696,36.879380543809994,13700,2017-11-15 13:40:25,1803.1571866010356,35.1000011232,0.0,0.990971031711072,1803.1571866010356,35.1000011232,1.2995989240756,1.27127004068064,1601,-23.6,99,GPS_Atti,
0.308056690680389,36.879380449402106,13900,2017-11-15 13:40:25,1803.9571866266356,35.9000011488,0.0,0.9945750318264001,1803.9571866266356,35.9000011488,1.2995989240756,1.27127004068064,1601,-23.7,99,GPS_Atti,
0.308056760558956,36.87938041277071,14000,2017-11-15 13:40:26,1804.3571866394357,36.3000011616,0.0,0.9945010318240319,1804.3571866394357,36.3000011616,1.2995989240756,1.27127004068064,1615,-24.1,99,GPS_Atti,
0.308056917683447,36.879380364163794,14200,2017-11-15 13:40:26,1805.1571866650356,37.1000011872,0.0,0.9912660317205121,1805.1571866650356,37.1000011872,1.2995989240756,1.27127004068064,1596,-24.6,99,GPS_Atti,
0.308057064101324,36.8793802887326,14400,2017-11-15 13:40:26,1805.9571866906356,37.90000121280001,0.0,0.991562031729984,1805.9571866906356,37.90000121280001,1.2995989240756,1.27127004068064,1595,-24.9,99,GPS_Atti,
0.30805713302684495,36.8793802334971,14500,2017-11-15 13:40:26,1806.3571867034357,38.3000012256,0.0,0.9938020318016639,1806.3571867034357,38.3000012256,1.2995989240756,1.27127004068064,1596,-25.2,99,GPS_Atti,
0.30805718311819,36.8793801789756,14600,2017-11-15 13:40:26,1806.7571867162355,38.700001238400006,0.0,0.996939031902048,1806.7571867162355,38.700001238400006,1.2995989240756,1.27127004068064,1596,-25.5,99,GPS_Atti,
0.30805721023585303,36.8793801342608,14700,2017-11-15 13:40:26,1807.1571867290356,39.100001251200005,0.0,1.0002000320064002,1807.1571867290356,39.100001251200005,1.2995989240756,1.27127004068064,1596,-25.8,99,GPS_Atti,
0.30805723578736105,36.8793801003359,14800,2017-11-15 13:40:26,1807.6571867450355,39.60000126719999,0.0,1.00246003207872,1807.6571867450355,39.60000126719999,1.2995989240756,1.27127004068064,1598,-26.1,99,GPS_Atti,
0.308057274363164,36.879380066669,14900,2017-11-15 13:40:26,1808.0571867578358,40.00000128,0.0,1.00412003213184,1808.0571867578358,40.00000128,1.2995989240756,1.27127004068064,1598,-26.4,99,GPS_Atti,
0.30805730355627897,36.8793800303123,15000,2017-11-15 13:40:27,1808.4571867706356,40.400001292800006,0.0,1.00651003220832,1808.4571867706356,40.400001292800006,1.2995989240756,1.27127004068064,1600,-26.6,99,GPS_Atti,
0.308057319456406,36.879379995651895,15100,2017-11-15 13:40:27,1808.8571867834357,40.8000013056,0.0,1.00933003229856,1808.8571867834357,40.8000013056,1.2995989240756,1.27127004068064,1601,-26.6,99,GPS_Atti,
0.308057349983217,36.8793799563821,15200,2017-11-15 13:40:27,1809.2571867962358,41.200001318400005,0.0,1.0119900323836801,1809.2571867962358,41.200001318400005,1.2995989240756,1.27127004068064,1602,-26.9,99,GPS_Atti,
0.30805740104470697,36.8793799206859,15300,2017-11-15 13:40:27,1809.6571868090357,41.600001331200005,0.0,1.01341003242912,1809.6571868090357,41.600001331200005,1.2995989240756,1.27127004068064,1605,-27.2,99,GPS_Atti,
0.30805746081878005,36.8793799005529,15400,2017-11-15 13:40:27,1810.0571868218358,42.000001344,0.0,1.01292003241344,1810.0571868218358,42.000001344,1.2995989240756,1.27127004068064,1610,-27.5,99,GPS_Atti,
0.30805752559299,36.879379888979294,15500,2017-11-15 13:40:27,1810.5571868378356,42.50000136,0.0,1.01138003236416,1810.5571868378356,42.50000136,1.2995989240756,1.27127004068064,1612,-27.7,99,GPS_Atti,
0.308057582111395,36.8793798598882,15600,2017-11-15 13:40:27,1810.9571868506357,42.900001372800006,0.0,1.01204003238528,1810.9571868506357,42.900001372800006,1.2995989240756,1.27127004068064,1611,-28.0,99,GPS_Atti,
0.30805761808698,36.8793798137971,15700,2017-11-15 13:40:27,1811.3571868634356,43.300001385600005,0.0,1.0153400324908801,1811.3571868634356,43.300001385600005,1.2995989240756,1.27127004068064,1612,-28.2,99,GPS_Atti,
0.30805764766644395,36.8793797782079,15800,2017-11-15 13:40:27,1811.8571868794354,43.80000140159999,0.0,1.01783003257056,1811.8571868794354,43.80000140159999,1.2995989240756,1.27127004068064,1610,-28.5,99,GPS_Atti,
0.30805767570255,36.879379748023204,15900,2017-11-15 13:40:27,1812.2571868922355,44.2000014144,0.0,1.0198500326352,1812.2571868922355,44.2000014144,1.2995989240756,1.27127004068064,1610,-28.7,99,GPS_Atti,
0.308057700902721,36.87937970231,16000,2017-11-15 13:40:28,1812.6571869050358,44.6000014272,0.0,1.0236100327555202,1812.6571869050358,44.6000014272,1.2995989240756,1.27127004068064,1612,-28.9,99,GPS_Atti,
0.308057717190418,36.8793796463438,16100,2017-11-15 13:40:28,1813.1571869210356,45.10000144320001,0.0,1.0288000329216,1813.1571869210356,45.10000144320001,1.2995989240756,1.27127004068064,1616,-29.1,99,GPS_Atti,
0.308057713282967,36.8793795831367,16200,2017-11-15 13:40:28,1813.5571869338357,45.50000145600001,0.0,1.0355400331372802,1813.5571869338357,45.50000145600001,1.2995989240756,1.27127004068064,1615,-29.1,99,GPS_Atti,
0.308057700631178,36.879379532841895,16300,2017-11-15 13:40:28,1814.0571869498356,46.000001471999994,0.0,1.04128003332096,1814.0571869498356,46.000001471999994,1.2995989240756,1.27127004068064,1637,-29.1,99,GPS_Atti,
0.30805769478017897,36.8793794791983,16400,2017-11-15 13:40:28,1814.4571869626357,46.4000014848,0.0,1.0471000335072,1814.4571869626357,46.4000014848,1.2995989240756,1.27127004068064,1637,-29.1,99,GPS_Atti,
0.30805771104059904,36.8793794175414,16500,2017-11-15 13:40:28,1814.9571869786357,46.9000015008,0.0,1.0529200336934401,1814.9571869786357,46.9000015008,1.2995989240756,1.27127004068064,1629,-29.1,99,GPS_Atti,
0.308057715325442,36.879379345131504,16600,2017-11-15 13:40:28,1815.4571869946358,47.400001516799996,0.0,1.0603300339305601,1815.4571869946358,47.400001516799996,1.2995989240756,1.27127004068064,1630,-29.1,99,GPS_Atti,
0.308057697411337,36.8793792601924,16700,2017-11-15 13:40:28,1815.9571870106356,47.900001532800005,0.0,1.06989003423648,1815.9571870106356,47.900001532800005,1.2995989240756,1.27127004068064,1628,-29.1,99,GPS_Atti,
0.308057670460182,36.8793791674937,16800,2017-11-15 13:40:28,1816.3571870234355,48.300001545600004,0.0,1.08061003457952,1816.3571870234355,48.300001545600004,1.2995989240756,1.27127004068064,1628,-29.1,99,GPS_Atti,
0.30805765781287203,36.879379086273296,16900,2017-11-15 13:40:28,1816.8571870394355,48.8000015616,0.0,1.08959003486688,1816.8571870394355,48.8000015616,1.2995989240756,1.27127004068064,1622,-29.1,99,GPS_Atti,
0.30805762917912705,36.8793790162786,17000,2017-11-15 13:40:29,1817.3571870554356,49.30000157760001,0.0,1.0979900351356802,1817.3571870554356,49.30000157760001,1.2995989240756,1.27127004068064,1624,-29.1,99,GPS_Atti,
0.30805759136095695,36.879378966261704,17100,2017-11-15 13:40:29,1817.7571870682357,49.70000159040001,0.0,1.10464003534848,1817.7571870682357,49.70000159040001,1.2995989240756,1.27127004068064,1624,-29.1,99,GPS_Atti,
0.308057544537086,36.8793789175316,17200,2017-11-15 13:40:29,1818.2571870842355,50.200001606399994,0.0,1.111500035568,1818.2571870842355,50.200001606399994,1.2995989240756,1.27127004068064,1621,-29.1,99,GPS_Atti,
0.308057480866147,36.8793788109666,17400,2017-11-15 13:40:29,1819.1571871130354,51.1000016352,0.0,1.12506003600192,1819.1571871130354,51.1000016352,1.2995989240756,1.27127004068064,1623,-29.1,99,GPS_Atti,
0.30805742029576505,36.8793787639232,17500,2017-11-15 13:40:29,1819.5571871258358,51.50000164800001,0.0,1.1322900362332802,1819.5571871258358,51.50000164800001,1.2995989240756,1.27127004068064,1626,-29.1,99,GPS_Atti,
0.308057365230339,36.8793787217644,17600,2017-11-15 13:40:29,1820.0571871418356,52.000001664,0.0,1.13882003644224,1820.0571871418356,52.000001664,1.2995989240756,1.27127004068064,1629,-29.1,99,GPS_Atti,
0.30805731690341304,36.879378690205,17700,2017-11-15 13:40:29,1820.4571871546357,52.400001676799995,0.0,1.14399003660768,1820.4571871546357,52.400001676799995,1.2995989240756,1.27127004068064,1633,-29.1,99,GPS_Atti,
0.308057227530743,36.879378683087204,17800,2017-11-15 13:40:29,1820.9571871706355,52.90000169280001,0.0,1.1482700367446401,1820.9571871706355,52.90000169280001,1.2995989240756,1.27127004068064,1635,-29.1,99,GPS_Atti,
0.308057128262832,36.8793787064416,17900,2017-11-15 13:40:29,1821.3571871834356,53.3000017056,0.0,1.1498800367961601,1821.3571871834356,53.3000017056,1.2995989240756,1.27127004068064,1640,-29.1,99,GPS_Atti,
0.30805701816617603,36.87937874084229,18000,2017-11-15 13:40:30,1821.8571871994357,53.8000017216,0.0,1.15091003682912,1821.8571871994357,53.8000017216,1.2995989240756,1.27127004068064,1669,-29.1,99,GPS_Atti,
0.308056941226268,36.879378770066204,18100,2017-11-15 13:40:30,1822.2571872122357,54.200001734400004,0.0,1.15119003683808,1822.2571872122357,54.200001734400004,1.2995989240756,1.27127004068064,1674,-29.1,99,GPS_Atti,
0.30805686101440993,36.879378815997796,18200,2017-11-15 13:40:30,1822.7571872282356,54.700001750400006,0.0,1.1499700367990402,1822.7571872282356,54.700001750400006,1.2995989240756,1.27127004068064,1675,-29.1,99,GPS_Atti,
0.308056795602664,36.8793788721251,18300,2017-11-15 13:40:30,1823.2571872442356,55.2000017664,0.0,1.1471500367088001,1823.2571872442356,55.2000017664,1.2995989240756,1.27127004068064,1671,-29.1,99,GPS_Atti,
0.30805673582818394,36.879378907645204,18400,2017-11-15 13:40:30,1823.6571872570355,55.6000017792,0.0,1.14623003667936,1823.6571872570355,55.6000017792,1.2995989240756,1.27127004068064,1665,-29.1,99,GPS_Atti,
0.308056711224838,36.8793789265213,18500,2017-11-15 13:40:30,1824.1571872730358,56.10000179520001,0.0,1.14543003665376,1824.1571872730358,56.10000179520001,1.2995989240756,1.27127004068064,1653,-29.1,99,GPS_Atti,
0.308056669870096,36.8793789491167,18600,2017-11-15 13:40:30,1824.6571872890356,56.600001811199995,0.0,1.1450500366416,1824.6571872890356,56.600001811199995,1.2995989240756,1.27127004068064,1650,-29.1,99,GPS_Atti,
0.30805663041778303,36.8793789907621,18700,2017-11-15 13:40:30,1825.1571873050357,57.100001827199996,0.0,1.14267003656544,1825.1571873050357,57.100001827199996,1.2995989240756,1.27127004068064,1652,-29.1,99,GPS_Atti,
0.308056596621871,36.879379043379004,18800,2017-11-15 13:40:30,1825.5571873178355,57.50000184,0.0,1.1389500364464,1825.5571873178355,57.50000184,1.2995989240756,1.27127004068064,1653,-29.1,99,GPS_Atti,
0.308056557037654,36.879379113875295,18900,2017-11-15 13:40:30,1826.0571873338358,58.000001856,0.0,1.1337500362800002,1826.0571873338358,58.000001856,1.2995989240756,1.27127004068064,1662,-29.1,99,GPS_Atti,
0.30805650801579,36.8793791861808,19000,2017-11-15 13:40:31,1826.5571873498357,58.500001872,0.0,1.12887003612384,1826.5571873498357,58.500001872,1.2995989240756,1.27127004068064,1665,-29.1,99,GPS_Atti,
0.308056465773953,36.8793792540574,19100,2017-11-15 13:40:31,1826.9571873626358,58.900001884800005,0.0,1.12416003597312,1826.9571873626358,58.900001884800005,1.2995989240756,1.27127004068064,1644,-29.1,99,GPS_Atti,
0.308056410595349,36.8793793262302,19200,2017-11-15 13:40:31,1827.4571873786356,59.4000019008,0.0,1.1197200358310402,1827.4571873786356,59.4000019008,1.2995989240756,1.27127004068064,1665,-29.4,99,GPS_Atti,
0.308056359493148,36.8793793883651,19300,2017-11-15 13:40:31,1827.9571873946354,59.9000019168,0.0,1.1161400357164801,1827.9571873946354,59.9000019168,1.2995989240756,1.27127004068064,1668,-29.6,99,GPS_Atti,
0.308056279794249,36.8793794474703,19400,2017-11-15 13:40:31,1828.4571874106357,60.40000193280001,0.0,1.11439003566048,1828.4571874106357,60.40000193280001,1.2995989240756,1.27127004068064,1659,-29.6,99,GPS_Atti,
0.308056206505313,36.8793794939554,19500,2017-11-15 13:40:31,1828.8571874234356,60.800001945599995,0.0,1.1136500356368002,1828.8571874234356,60.800001945599995,1.2995989240756,1.27127004068064,1662,-29.9,99,GPS_Atti,
0.308056122901813,36.879379535331005,19600,2017-11-15 13:40:31,1829.3571874394356,61.3000019616,0.0,1.1140400356492801,1829.3571874394356,61.3000019616,1.2995989240756,1.27127004068064,1664,-30.2,99,GPS_Atti,
0.308056077339578,36.879379560562704,19700,2017-11-15 13:40:31,1829.8571874554355,61.80000197760001,0.0,1.1140400356492801,1829.8571874554355,61.80000197760001,1.2995989240756,1.27127004068064,1665,-30.5,99,GPS_Atti,
0.30805603012325106,36.8793796020647,19800,2017-11-15 13:40:31,1830.3571874714357,62.300001993600006,0.0,1.1125800356025601,1830.3571874714357,62.300001993600006,1.2995989240756,1.27127004068064,1665,-30.8,99,GPS_Atti,
0.308056006257183,36.8793796405883,19900,2017-11-15 13:40:31,1830.8571874874356,62.80000200960001,0.0,1.11016003552512,1830.8571874874356,62.80000200960001,1.2995989240756,1.27127004068064,1665,-31.1,99,GPS_Atti,
0.308055964903662,36.8793796938775,20000,2017-11-15 13:40:32,1831.2571875002357,63.2000020224,0.0,1.10731003543392,1831.2571875002357,63.2000020224,1.2995989240756,1.27127004068064,1660,-31.4,99,GPS_Atti,
0.30805592878681,36.8793797405515,20100,2017-11-15 13:40:32,1831.7571875162355,63.7000020384,0.0,1.1048400353548802,1831.7571875162355,63.7000020384,1.2995989240756,1.27127004068064,1663,-31.7,99,GPS_Atti,
0.30805588598845196,36.8793797809738,20200,2017-11-15 13:40:32,1832.2571875322358,64.2000020544,0.0,1.10338003530816,1832.2571875322358,64.2000020544,1.2995989240756,1.27127004068064,1667,-31.7,99,GPS_Atti,
0.308055869310336,36.879379783593,20300,2017-11-15 13:40:32,1832.6571875450356,64.60000206720001,0.0,1.10407003533024,1832.6571875450356,64.60000206720001,1.2995989240756,1.27127004068064,1665,-32.6,99,GPS_Atti,
0.30805581904149104,36.8793797708503,20500,2017-11-15 13:40:32,1833.6571875770355,65.60000209920001,0.0,1.10816003546112,1833.6571875770355,65.60000209920001,1.2995989240756,1.27127004068064,1661,-32.8,99,GPS_Atti,
0.308055783791378,36.8793797780003,20600,2017-11-15 13:40:32,1834.1571875930358,66.10000211520001,0.0,1.109500035504,1834.1571875930358,66.10000211520001,1.2995989240756,1.27127004068064,1660,-33.1,99,GPS_Atti,
0.30805575224393894,36.879379829026206,20700,2017-11-15 13:40:32,1834.6571876090356,66.6000021312,0.0,1.1064700354070403,1834.6571876090356,66.6000021312,1.2995989240756,1.27127004068064,1660,-33.1,99,GPS_Atti,
0.30805569657151005,36.8793799235144,20800,2017-11-15 13:40:32,1835.1571876250355,67.10000214720002,0.0,1.1007900352252802,1835.1571876250355,67.10000214720002,1.2995989240756,1.27127004068064,1662,-33.6,99,GPS_Atti,
0.30805565766391196,36.87938001808671,20900,2017-11-15 13:40:32,1835.5571876378356,67.50000216000001,0.0,1.0942100350147201,1835.5571876378356,67.50000216000001,1.2995989240756,1.27127004068064,1664,-33.6,99,GPS_Atti,
0.30805559585632,36.8793801240928,21000,2017-11-15 13:40:33,1836.0571876538356,68.00000217600001,0.0,1.08803003481696,1836.0571876538356,68.00000217600001,1.2995989240756,1.27127004068064,1664,-33.9,99,GPS_Atti,
0.308055551194208,36.879380214751,21100,2017-11-15 13:40:33,1836.5571876698357,68.500002192,0.0,1.0823400346348802,1836.5571876698357,68.500002192,1.2995989240756,1.27127004068064,1664,-34.2,99,GPS_Atti,
0.30805550183159197,36.879380313886706,21200,2017-11-15 13:40:33,1836.9571876826355,68.9000022048,0.0,1.07626003444032,1836.9571876826355,68.9000022048,1.2995989240756,1.27127004068064,1664,-34.5,99,GPS_Atti,
0.30805548636625896,36.879380390181204,21300,2017-11-15 13:40:33,1837.4571876986356,69.4000022208,0.0,1.07023003424736,1837.4571876986356,69.4000022208,1.2995989240756,1.27127004068064,1664,-34.5,99,GPS_Atti,
0.308055464311835,36.8793804308974,21400,2017-11-15 13:40:33,1837.9571877146357,69.9000022368,0.0,1.0679000341728002,1837.9571877146357,69.9000022368,1.2995989240756,1.27127004068064,1665,-34.7,99,GPS_Atti,
0.308055455103799,36.879380428583296,21500,2017-11-15 13:40:33,1838.4571877306357,70.4000022528,0.0,1.0687000341984,1838.4571877306357,70.4000022528,1.2995989240756,1.27127004068064,1667,-34.7,99,GPS_Atti,
0.308055431714865,36.8793804182115,21600,2017-11-15 13:40:33,1838.9571877466356,70.90000226880001,0.0,1.07113003427616,1838.9571877466356,70.90000226880001,1.2995989240756,1.27127004068064,1669,-34.7,99,GPS_Atti,
0.30805542328196694,36.87938041101761,21700,2017-11-15 13:40:33,1839.4571877626358,71.4000022848,0.0,1.07233003431456,1839.4571877626358,71.4000022848,1.2995989240756,1.27127004068064,1669,-34.7,99,GPS_Atti,
0.308055408601545,36.8793804150821,21800,2017-11-15 13:40:33,1839.9571877786357,71.9000023008,0.0,1.0728900343324799,1839.9571877786357,71.9000023008,1.2995989240756,1.27127004068064,1670,-34.7,99,GPS_Atti,
0.308055416766563,36.8793804203553,21900,2017-11-15 13:40:33,1840.4571877946355,72.40000231680001,0.0,1.07189003430048,1840.4571877946355,72.40000231680001,1.2995989240756,1.27127004068064,1671,-34.7,99,GPS_Atti,
0.308055390443987,36.879380436244,22000,2017-11-15 13:40:34,1840.9571878106356,72.9000023328,0.0,1.0721300343081601,1840.9571878106356,72.9000023328,1.2995989240756,1.27127004068064,1671,-34.7,99,GPS_Atti,
0.308055363437872,36.8793804564819,22100,2017-11-15 13:40:34,1841.4571878266356,73.4000023488,0.0,1.0720200343046402,1841.4571878266356,73.4000023488,1.2995989240756,1.27127004068064,1674,-34.7,99,GPS_Atti,
0.308055341100098,36.8793804888999,22200,2017-11-15 13:40:34,1841.9571878426357,73.9000023648,0.0,1.0705300342569601,1841.9571878426357,73.9000023648,1.2995989240756,1.27127004068064,1674,-34.7,99,GPS_Atti,
0.30805536580155796,36.8793805351366,22400,2017-11-15 13:40:34,1842.8571878714356,74.8000023936,0.0,1.064750034072,1842.8571878714356,74.8000023936,1.2995989240756,1.27127004068064,1674,-34.7,99,GPS_Atti,
0.308055379916097,36.8793805341382,22500,2017-11-15 13:40:34,1843.3571878874357,75.30000240960001,0.0,1.06393003404576,1843.3571878874357,75.30000240960001,1.2995989240756,1.27127004068064,1675,-34.7,99,GPS_Atti,
0.30805537096169,36.879380543851205,22600,2017-11-15 13:40:34,1843.8571879034357,75.80000242560001,0.0,1.0636300340361602,1843.8571879034357,75.80000242560001,1.2995989240756,1.27127004068064,1675,-34.7,99,GPS_Atti,
0.308055354659745,36.8793805611252,22700,2017-11-15 13:40:34,1844.3571879194355,76.3000024416,0.0,1.0631300340201602,1844.3571879194355,76.3000024416,1.2995989240756,1.27127004068064,1674,-34.7,99,GPS_Atti,
0.30805534707119503,36.8793805754438,22800,2017-11-15 13:40:34,1844.8571879354358,76.8000024576,0.0,1.0623300339945603,1844.8571879354358,76.8000024576,1.2995989240756,1.27127004068064,1674,-34.8,99,GPS_Atti,
0.30805531057817304,36.879380622977,22900,2017-11-15 13:40:34,1845.3571879514357,77.3000024736,0.0,1.0604500339344,1845.3571879514357,77.3000024736,1.2995989240756,1.27127004068064,1671,-34.9,99,GPS_Atti,
0.308055275040232,36.8793806481305,23000,2017-11-15 13:40:35,1845.8571879674355,77.8000024896,0.0,1.06053003393696,1845.8571879674355,77.8000024896,1.2995989240756,1.27127004068064,1672,-35.0,99,GPS_Atti,
0.30805526423713503,36.879380641302795,23100,2017-11-15 13:40:35,1846.3571879834358,78.3000025056,0.0,1.0618600339795201,1846.3571879834358,78.3000025056,1.2995989240756,1.27127004068064,1670,-35.2,99,GPS_Atti,
0.30805523923482003,36.879380630658396,23200,2017-11-15 13:40:35,1846.8571879994356,78.8000025216,0.0,1.0644700340630402,1846.8571879994356,78.8000025216,1.2995989240756,1.27127004068064,1671,-35.3,99,GPS_Atti,
0.308055221034515,36.8793806005947,23300,2017-11-15 13:40:35,1847.3571880154357,79.30000253760001,0.0,1.0683600341875201,1847.3571880154357,79.30000253760001,1.2995989240756,1.27127004068064,1671,-35.3,99,GPS_Atti,
0.308055195434562,36.8793805754706,23400,2017-11-15 13:40:35,1847.8571880314355,79.80000255360001,0.0,1.0723000343136,1847.8571880314355,79.80000255360001,1.2995989240756,1.27127004068064,1671,-35.8,99,GPS_Atti,
0.308055204447592,36.879380569183,23500,2017-11-15 13:40:35,1848.3571880474358,80.30000256960001,0.0,1.0722600343123199,1848.3571880474358,80.30000256960001,1.2995989240756,1.27127004068064,1671,-36.1,99,GPS_Atti,
0.30805520194345193,36.8793805686616,23600,2017-11-15 13:40:35,1848.8571880634356,80.80000258560001,0.0,1.07247003431904,1848.8571880634356,80.80000258560001,1.2995989240756,1.27127004068064,1671,-36.4,99,GPS_Atti,
0.308055220990955,36.879380554389,23700,2017-11-15 13:40:35,1849.3571880794354,81.3000026016,0.0,1.0724900343196802,1849.3571880794354,81.3000026016,1.2995989240756,1.27127004068064,1671,-36.4,99,GPS_Atti,
0.308055237797718,36.87938055938871,23800,2017-11-15 13:40:35,1849.7571880922355,81.7000026144,0.0,1.0709400342700799,1849.7571880922355,81.7000026144,1.2995989240756,1.27127004068064,1671,-37.0,99,GPS_Atti,
0.308055274480862,36.8793805599866,23900,2017-11-15 13:40:35,1850.2571881082356,82.20000263040001,0.0,1.0684700341910403,1850.2571881082356,82.20000263040001,1.2995989240756,1.27127004068064,1671,-37.2,99,GPS_Atti,
0.308055296516152,36.8793805243236,24000,2017-11-15 13:40:36,1850.7571881242357,82.70000264640001,0.0,1.07023003424736,1850.7571881242357,82.70000264640001,1.2995989240756,1.27127004068064,1671,-37.2,99,GPS_Atti,
0.308055328508562,36.8793804605929,24100,2017-11-15 13:40:36,1851.2571881402355,83.20000266240001,0.0,1.07391003436512,1851.2571881402355,83.20000266240001,1.2995989240756,1.27127004068064,1672,-37.5,99,GPS_Atti,
0.308055348699639,36.8793803984719,24200,2017-11-15 13:40:36,1851.7571881562358,83.70000267840001,0.0,1.0782400345036802,1851.7571881562358,83.70000267840001,1.2995989240756,1.27127004068064,1670,-37.5,99,GPS_Atti,
0.30805537974226,36.8793803446699,24300,2017-11-15 13:40:36,1852.2571881722356,84.2000026944,0.0,1.0811500345968001,1852.2571881722356,84.2000026944,1.2995989240756,1.27127004068064,1670,-37.8,99,GPS_Atti,
0.308055382663689,36.8793803208134,24400,2017-11-15 13:40:36,1852.6571881850357,84.60000270720002,0.0,1.08314003466048,1852.6571881850357,84.60000270720002,1.2995989240756,1.27127004068064,1669,-37.8,99,GPS_Atti,
0.30805539542214,36.8793803478271,24500,2017-11-15 13:40:36,1853.1571882010355,85.1000027232,0.0,1.07986003455552,1853.1571882010355,85.1000027232,1.2995989240756,1.27127004068064,1669,-37.8,99,GPS_Atti,
0.308055397079896,36.8793803837647,24600,2017-11-15 13:40:36,1853.6571882170358,85.60000273920001,0.0,1.07648003444736,1853.6571882170358,85.60000273920001,1.2995989240756,1.27127004068064,1669,-37.8,99,GPS_Atti,
0.30805543125075796,36.879380391446205,24700,2017-11-15 13:40:36,1854.0571882298357,86.000002752,0.0,1.0736100343555202,1854.0571882298357,86.000002752,1.2995989240756,1.27127004068064,1670,-37.8,99,GPS_Atti,
0.308055533802019,36.8793803489994,24900,2017-11-15 13:40:36,1855.0571882618356,87.00000278399999,0.35999970196000003,1.07103003427296,1855.0571882618356,87.00000278399999,1.2995989240756,1.27127004068064,1667,-37.8,99,GPS_Atti,
0.30805556686390995,36.8793803232318,25000,2017-11-15 13:40:37,1855.5571882778358,87.50000280000002,0.35999970196000003,1.0713500342831999,1855.5571882778358,87.50000280000002,1.2995989240756,1.27127004068064,1663,-37.8,99,GPS_Atti,
0.308055670864079,36.879380213253796,25300,2017-11-15 13:40:37,1856.9571883226356,88.9000028448,0.0,1.07517003440544,1856.9571883226356,88.9000028448,1.2995989240756,1.27127004068064,1654,-37.8,99,GPS_Atti,
0.308055644173882,36.879380172759795,25400,2017-11-15 13:40:37,1857.4571883386357,89.4000028608,0.0,1.0805600345779203,1857.4571883386357,89.4000028608,1.2995989240756,1.27127004068064,1654,-37.8,99,GPS_Atti,
0.308055617232497,36.879380123553794,25500,2017-11-15 13:40:37,1857.9571883546357,89.9000028768,0.0,1.08678003477696,1857.9571883546357,89.9000028768,1.2995989240756,1.27127004068064,1655,-37.8,99,GPS_Atti,
0.308055589833927,36.879380068087,25600,2017-11-15 13:40:37,1858.4571883706355,90.4000028928,0.0,1.09361003499552,1858.4571883706355,90.4000028928,1.2995989240756,1.27127004068064,1655,-37.8,99,GPS_Atti,
0.30805559143061606,36.8793800278451,25700,2017-11-15 13:40:37,1858.9571883866356,90.9000029088,0.0,1.09727003511264,1858.9571883866356,90.9000029088,1.2995989240756,1.27127004068064,1656,-37.8,99,GPS_Atti,
0.308055577475258,36.8793800192044,25800,2017-11-15 13:40:37,1859.3571883994355,91.3000029216,0.0,1.09892003516544,1859.3571883994355,91.3000029216,1.2995989240756,1.27127004068064,1656,-37.8,99,GPS_Atti,
0.30805557485387103,36.879380042262795,25900,2017-11-15 13:40:37,1859.8571884154358,91.8000029376,0.0,1.0969300351017601,1859.8571884154358,91.8000029376,1.2995989240756,1.27127004068064,1657,-37.8,99,GPS_Atti,
0.30805555213707697,36.8793800492366,26000,2017-11-15 13:40:38,1860.3571884314356,92.3000029536,0.0,1.09766003512512,1860.3571884314356,92.3000029536,1.2995989240756,1.27127004068064,1654,-37.8,99,GPS_Atti,
0.30805554356250503,36.8793799938453,26200,2017-11-15 13:40:38,1861.2571884602355,93.20000298240001,0.0,1.10334003530688,1861.2571884602355,93.20000298240001,1.2995989240756,1.27127004068064,1655,-37.8,99,GPS_Atti,
0.308055530508084,36.8793799956696,26300,2017-11-15 13:40:38,1861.7571884762358,93.70000299840001,0.0,1.10396003532672,1861.7571884762358,93.70000299840001,1.2995989240756,1.27127004068064,1654,-37.8,99,GPS_Atti,
0.308055473642819,36.8793800337559,26400,2017-11-15 13:40:38,1862.2571884922356,94.2000030144,0.0,1.10389003532448,1862.2571884922356,94.2000030144,1.2995989240756,1.27127004068064,1654,-37.8,99,GPS_Atti,
0.308055396917459,36.879380123115396,26500,2017-11-15 13:40:38,1862.6571885050355,94.60000302720002,0.35999970196000003,1.10037003521184,1862.6571885050355,94.60000302720002,1.2995989240756,1.27127004068064,1654,-37.8,99,GPS_Atti,
0.308055321343816,36.8793802441141,26600,2017-11-15 13:40:38,1863.1571885210356,95.1000030432,0.35999970196000003,1.09403003500896,1863.1571885210356,95.1000030432,1.2995989240756,1.27127004068064,1652,-37.8,99,GPS_Atti,
0.30805529346281896,36.8793803907369,26700,2017-11-15 13:40:38,1863.6571885370356,95.6000030592,0.35999970196000003,1.0824900346396802,1863.6571885370356,95.6000030592,1.2995989240756,1.27127004068064,1652,-37.8,99,GPS_Atti,
0.30805526725993393,36.8793805574348,26800,2017-11-15 13:40:38,1864.0571885498357,96.00000307200001,0.35999970196000003,1.06917003421344,1864.0571885498357,96.00000307200001,1.2995989240756,1.27127004068064,1652,-37.8,99,GPS_Atti,
0.308055274905071,36.879380728535104,26900,2017-11-15 13:40:38,1864.5571885658355,96.50000308800001,0.35999970196000003,1.05337003370784,1864.5571885658355,96.50000308800001,1.2995989240756,1.27127004068064,1649,-37.8,99,GPS_Atti,
0.30805529809370696,36.8793808981456,27000,2017-11-15 13:40:39,1864.9571885786356,96.90000310079999,0.5075995797636,1.03676003317632,1864.9571885786356,96.90000310079999,1.2995989240756,1.27127004068064,1650,-37.8,99,GPS_Atti,
0.308055408785559,36.8793811848809,27200,2017-11-15 13:40:39,1865.8571886074355,97.8000031296,0.5075995797636,1.0039700321270402,1865.8571886074355,97.8000031296,1.2995989240756,1.27127004068064,1649,-37.8,99,GPS_Atti,
0.30805544833395,36.8793812761573,27300,2017-11-15 13:40:39,1866.3571886234356,98.3000031456,0.35999970196000003,0.9932620317843841,1866.3571886234356,98.3000031456,1.2995989240756,1.27127004068064,1650,-37.8,99,GPS_Atti,
0.308055456218062,36.8793813391621,27400,2017-11-15 13:40:39,1866.7571886362357,98.70000315840001,0.0,0.9872060315905922,1866.7571886362357,98.70000315840001,1.2995989240756,1.27127004068064,1650,-37.8,99,GPS_Atti,
0.308055472330294,36.879381400454996,27500,2017-11-15 13:40:39,1867.2571886522355,99.2000031744,0.0,0.98074503138384,1867.2571886522355,99.2000031744,1.2995989240756,1.27127004068064,1651,-37.8,99,GPS_Atti,
0.308055467882199,36.8793814631221,27600,2017-11-15 13:40:39,1867.7571886682356,99.7000031904,0.35999970196000003,0.975599031219168,1867.7571886682356,99.7000031904,1.2995989240756,1.27127004068064,1650,-37.8,99,GPS_Atti,
0.308055512956307,36.8793815069151,27700,2017-11-15 13:40:39,1868.1571886810354,100.1000032032,0.35999970196000003,0.9686660309973121,1868.1571886810354,100.1000032032,1.2995989240756,1.27127004068064,1649,-37.8,98,GPS_Atti,
0.30805554106243604,36.8793815567918,27800,2017-11-15 13:40:39,1868.5571886938358,100.50000321600001,0.35999970196000003,0.9623810307961921,1868.5571886938358,100.50000321600001,1.2995989240756,1.27127004068064,1649,-37.8,98,GPS_Atti,
0.308055569693739,36.8793816098401,27900,2017-11-15 13:40:39,1869.0571887098356,101.00000323200001,0.0,0.9557860305851521,1869.0571887098356,101.00000323200001,1.2995989240756,1.27127004068064,1645,-37.8,98,GPS_Atti,
0.308055553780584,36.8793816850995,28000,2017-11-15 13:40:40,1869.5571887258357,101.50000324800001,0.0,0.9503850304123199,1869.5571887258357,101.50000324800001,1.2995989240756,1.27127004068064,1642,-37.8,98,GPS_Atti,
0.308055535089711,36.879381734204294,28100,2017-11-15 13:40:40,1870.0571887418355,102.000003264,0.0,0.947472030319104,1870.0571887418355,102.000003264,1.2995989240756,1.27127004068064,1639,-37.8,98,GPS_Atti,
0.308055471995648,36.87938176681929,28200,2017-11-15 13:40:40,1870.5571887578358,102.50000328,0.0,0.9491570303730239,1870.5571887578358,102.50000328,1.2995989240756,1.27127004068064,1632,-37.8,98,GPS_Atti,
0.308055442360003,36.879381784519296,28300,2017-11-15 13:40:40,1870.9571887706356,102.90000329280001,0.0,0.9497670303925441,1870.9571887706356,102.90000329280001,1.2995989240756,1.27127004068064,1563,-37.8,98,GPS_Atti,
0.30805542356490995,36.879381839466895,28400,2017-11-15 13:40:40,1871.4571887866357,103.40000330880001,0.35999970196000003,0.9464570302866241,1871.4571887866357,103.40000330880001,1.2995989240756,1.27127004068064,1447,-37.8,98,GPS_Atti,
0.30805545469098805,36.879381894465794,28500,2017-11-15 13:40:40,1871.8571887994356,103.80000332160002,0.0,0.9395570300658239,1871.8571887994356,103.80000332160002,1.2995989240756,1.27127004068064,1315,-37.8,98,GPS_Atti,
0.30805544601789503,36.8793819509331,28600,2017-11-15 13:40:40,1872.2571888122357,104.2000033344,0.0,0.9354240299335681,1872.2571888122357,104.2000033344,1.2995989240756,1.27127004068064,1085,-37.8,98,GPS_Atti,
0.30805544985613803,36.8793819858498,28700,2017-11-15 13:40:40,1872.6571888250355,104.6000033472,0.0,0.932209029830688,1872.6571888250355,104.6000033472,1.2995989240756,1.27127004068064,1024,-37.8,98,GPS_Atti,
0.308055413989252,36.8793820409414,28800,2017-11-15 13:40:40,1872.9571888346356,104.90000335680001,0.0,0.930223029767136,1872.9571888346356,104.90000335680001,1.2995989240756,1.27127004068064,1024,-37.8,98,GPS_Atti,
0.30805538128073306,36.879382069402,28900,2017-11-15 13:40:40,1873.1571888410358,105.1000033632,0.0,0.9302660297685122,1873.1571888410358,105.1000033632,1.2995989240756,1.27127004068064,1024,-37.8,98,GPS_Atti,
0.30805530678837606,36.879382082677296,29000,2017-11-15 13:40:41,1873.2571888442358,105.20000336640001,0.0,0.934701029910432,1873.2571888442358,105.20000336640001,1.2995989240756,1.27127004068064,1024,-37.8,98,GPS_Atti,
0.308055248108618,36.8793820616477,29100,2017-11-15 13:40:41,1873.2571888442358,105.20000336640001,0.0,0.9408180301061762,1873.2571888442358,105.20000336640001,1.2995989240756,1.27127004068064,1024,-37.8,98,GPS_Atti,
0.30805517682063205,36.8793820527238,29200,2017-11-15 13:40:41,1873.2571888442358,105.20000336640001,0.0,0.9469040303009281,1873.2571888442358,105.20000336640001,1.2995989240756,1.27127004068064,1024,-37.8,98,GPS_Atti,
0.308055135051044,36.8793820364674,29300,2017-11-15 13:40:41,1873.2571888442358,105.20000336640001,0.0,0.9513830304442561,1873.2571888442358,105.20000336640001,1.2995989240756,1.27127004068064,1024,-37.8,98,GPS_Atti,
0.308055061961999,36.8793820138645,29400,2017-11-15 13:40:41,1873.2571888442358,105.20000336640001,0.35999970196000003,0.9587570306802241,1873.2571888442358,105.20000336640001,1.2995989240756,1.27127004068064,1024,-37.8,98,GPS_Atti,
0.30805498171309303,36.8793819632802,29500,2017-11-15 13:40:41,1873.2571888442358,105.20000336640001,0.35999970196000003,0.9689620310067839,1873.2571888442358,105.20000336640001,1.2995989240756,1.27127004068064,1024,-37.8,98,GPS_Atti,
0.30805487305761,36.8793819228424,29600,2017-11-15 13:40:41,1873.3571888474355,105.30000336959999,0.35999970196000003,0.980527031376864,1873.3571888474355,105.30000336959999,1.2995989240756,1.27127004068064,1024,-37.8,98,GPS_Atti,
0.308054646749491,36.8793818835196,29800,2017-11-15 13:40:41,1873.3571888474355,105.30000336959999,0.5075995797636,1.00114003203648,1873.3571888474355,105.30000336959999,1.2995989240756,1.27127004068064,1024,-37.8,98,GPS_Atti,
0.30805456019525,36.879381880469396,29900,2017-11-15 13:40:41,1873.3571888474355,105.30000336959999,0.5075995797636,1.00814003226048,1873.3571888474355,105.30000336959999,1.2995989240756,1.27127004068064,1024,-37.8,98,GPS_Atti,
0.308054558576577,36.879381861287705,30000,2017-11-15 13:40:42,1873.4571888506355,105.4000033728,1.4831987720752,1.00978003231296,1873.4571888506355,105.4000033728,1.4831987720752,1.27127004068064,1024,-37.8,98,GPS_Atti,
0.30805490046839396,36.879381815714204,30100,2017-11-15 13:40:42,1873.4571888506355,105.4000033728,2.9015975977976,0.9871220315879039,1873.4571888506355,105.4000033728,2.9015975977976,1.27127004068064,1024,-37.8,98,GPS_Atti,
