latitude,longitude,time_millisecond,datetime_utc,altitude_m,ascent_m,speed_kph,distance_m,max_altitude_m,max_ascent_m,max_speed_kph,max_distance_m,rc_throttle,gimbal_pitch_degrees,battery_percent,flycState,message
0.349714655687199,36.8934929030363,0,2018-04-04 08:26:40,1764.9834548794825,0.0,0.0,0.0,1764.9834548794825,0.0,0.0,0.0,364,0.0,99,P-GPS,
0.34971462194101094,36.8934928687507,100,2018-04-04 08:26:40,1764.9834548794825,0.0,0.0,0.00534977017119264,1764.9834548794825,0.0,0.0,0.00534977017119264,364,0.0,99,Motors_Started,
0.349714593068905,36.8934928181149,200,2018-04-04 08:26:40,1764.9834548794825,0.0,0.0,0.0117334003754688,1764.9834548794825,0.0,0.0,0.0117334003754688,364,0.0,99,Motors_Started,Setting new Return-To-Home altitude to 30m (98 ft). Setting new Maximum Flight Altitude to 150m (492 ft)
0.349714587297332,36.893492787639296,300,2018-04-04 08:26:40,1764.9834548794825,0.0,0.0,0.014917000477344,1764.9834548794825,0.0,0.0,0.014917000477344,364,0.0,99,Motors_Started,
0.349714579323262,36.8934927435594,400,2018-04-04 08:26:40,1764.9834548794825,0.0,0.0,0.0196629006292128,1764.9834548794825,0.0,0.0,0.0196629006292128,364,0.0,99,Motors_Started,
0.349714583005389,36.89349269850779,500,2018-04-04 08:26:40,1764.9834548794825,0.0,0.0,0.0241379007724128,1764.9834548794825,0.0,0.0,0.0241379007724128,364,0.0,99,Motors_Started,
0.349714583289451,36.893492651541294,600,2018-04-04 08:26:40,1764.9834548794825,0.0,0.0,0.029103000931296003,1764.9834548794825,0.0,0.0,0.029103000931296003,364,0.0,99,Motors_Started,
0.349714573228712,36.8934926238224,700,2018-04-04 08:26:40,1764.9834548794825,0.0,0.0,0.03237550103601601,1764.9834548794825,0.0,0.0,0.03237550103601601,364,0.0,99,Motors_Started,
0.34971454772320004,36.8934926045078,800,2018-04-04 08:26:40,1764.9834548794825,0.0,0.0,0.035302001129664,1764.9834548794825,0.0,0.0,0.035302001129664,364,0.0,99,Motors_Started,
0.34971452858062496,36.8934925854844,900,2018-04-04 08:26:41,1764.9834548794825,0.0,0.0,0.038037001217184,1764.9834548794825,0.0,0.0,0.038037001217184,364,0.0,99,Motors_Started,
0.34971451500568,36.8934925547395,1000,2018-04-04 08:26:41,1764.9834548794825,0.0,0.0,0.041772301336713606,1764.9834548794825,0.0,0.0,0.041772301336713606,364,0.0,99,Motors_Started,
0.34971450949495597,36.8934925385665,1100,2018-04-04 08:26:41,1764.9834548794825,0.0,0.0,0.043669501397424,1764.9834548794825,0.0,0.0,0.043669501397424,364,0.0,99,Motors_Started,
0.349714504993987,36.8934925286951,1200,2018-04-04 08:26:41,1764.9834548794825,0.0,0.0,0.044874701435990406,1764.9834548794825,0.0,0.0,0.044874701435990406,364,0.0,99,Motors_Started,
0.34971451097924394,36.8934925143362,1300,2018-04-04 08:26:41,1764.9834548794825,0.0,0.0,0.0461234014759488,1764.9834548794825,0.0,0.0,0.0461234014759488,364,0.0,99,Motors_Started,
0.34971451163151196,36.8934924859633,1400,2018-04-04 08:26:41,1764.9834548794825,0.0,0.0,0.049068901570204805,1764.9834548794825,0.0,0.0,0.049068901570204805,364,0.0,99,Motors_Started,
0.34971450104204604,36.893492473293,1500,2018-04-04 08:26:41,1764.9834548794825,0.0,0.0,0.050789401625260806,1764.9834548794825,0.0,0.0,0.050789401625260806,364,0.0,99,Motors_Started,
0.34971447476049294,36.893492464619605,1600,2018-04-04 08:26:41,1764.9834548794825,0.0,0.0,0.05274220168775041,1764.9834548794825,0.0,0.0,0.05274220168775041,364,0.0,99,Assisted_Takeoff,
0.349714453230594,36.8934924469384,1700,2018-04-04 08:26:41,1764.9834548794825,0.0,0.0,0.0554924017757568,1764.9834548794825,0.0,0.0,0.0554924017757568,417,0.0,99,Assisted_Takeoff,
0.34971443897217996,36.8934924212285,1800,2018-04-04 08:26:41,1764.9834548794825,0.0,0.0,0.05874960187998719,1764.9834548794825,0.0,0.0,0.05874960187998719,727,0.0,99,Assisted_Takeoff,
0.349714431433794,36.8934924049689,1900,2018-04-04 08:26:41,1764.9834548794825,0.0,0.0,0.06074250194376001,1764.9834548794825,0.0,0.0,0.06074250194376001,1024,0.0,99,Assisted_Takeoff,
0.349714426591184,36.8934923951295,2000,2018-04-04 08:26:42,1764.9834548794825,0.0,0.0,0.0619613019827616,1764.9834548794825,0.0,0.0,0.0619613019827616,1024,0.0,99,Assisted_Takeoff,
0.349714428856502,36.893492396942,2100,2018-04-04 08:26:42,1764.9834548794825,0.0,0.0,0.0616742019735744,1764.9834548794825,0.0,0.0,0.0619613019827616,1024,0.0,99,Assisted_Takeoff,
0.349714429057322,36.893492397323705,2200,2018-04-04 08:26:42,1764.9834548794825,0.0,0.0,0.061626301972041594,1764.9834548794825,0.0,0.0,0.0619613019827616,1024,0.0,99,Assisted_Takeoff,
0.3497144356552169,36.8934923856087,2300,2018-04-04 08:26:42,1764.9834548794825,0.0,0.0,0.0625267020008544,1764.9834548794825,0.0,0.0,0.0625267020008544,1024,0.0,99,Assisted_Takeoff,
0.34971443838908195,36.8934923608372,2400,2018-04-04 08:26:42,1764.9834548794825,0.0,0.0,0.0649569020786208,1764.9834548794825,0.0,0.0,0.0649569020786208,1024,0.0,99,Assisted_Takeoff,
0.349714445638253,36.893492341645704,2500,2018-04-04 08:26:42,1764.9834548794825,0.0,0.0,0.0666558021329856,1764.9834548794825,0.0,0.0,0.0666558021329856,1024,0.0,99,Assisted_Takeoff,
0.34971444874762697,36.893492329878995,2600,2018-04-04 08:26:42,1764.9834548794825,0.0,0.0,0.06776470216847041,1764.9834548794825,0.0,0.0,0.06776470216847041,1024,0.0,99,Assisted_Takeoff,
0.349714455238211,36.8934923265144,2700,2018-04-04 08:26:42,1764.9834548794825,0.0,0.0,0.0678763021720416,1764.9834548794825,0.0,0.0,0.0678763021720416,1024,0.0,99,Assisted_Takeoff,
0.349714456983572,36.8934923237844,2800,2018-04-04 08:26:42,1764.9834548794825,0.0,0.0,0.06809990217919681,1764.9834548794825,0.0,0.0,0.06809990217919681,1024,0.0,99,Assisted_Takeoff,
0.349714461244484,36.89349230680529,2900,2018-04-04 08:26:43,1764.9834548794825,0.0,0.0,0.06974020223168641,1764.9834548794825,0.0,0.0,0.06974020223168641,1025,0.0,99,Assisted_Takeoff,
0.34971446236479,36.893492279429005,3000,2018-04-04 08:26:43,1764.9834548794825,0.0,0.0,0.0726036023233152,1764.9834548794825,0.0,0.0,0.0726036023233152,1126,0.0,99,Assisted_Takeoff,
0.349714466134651,36.8934922565919,3100,2018-04-04 08:26:43,1764.9834548794825,0.0,0.0,0.074914002397248,1764.9834548794825,0.0,0.0,0.074914002397248,1276,0.0,99,Assisted_Takeoff,
0.34971446695570496,36.89349224246529,3200,2018-04-04 08:26:43,1764.9834548794825,0.0,0.0,0.07639760244472318,1764.9834548794825,0.0,0.0,0.07639760244472318,1276,0.0,99,Assisted_Takeoff,
0.34971447047432697,36.8934922349843,3300,2018-04-04 08:26:43,1764.9834548794825,0.0,0.0,0.0770924024669568,1764.9834548794825,0.0,0.0,0.0770924024669568,1337,0.0,99,Assisted_Takeoff,
0.34971447300506897,36.893492229425995,3400,2018-04-04 08:26:43,1764.9834548794825,0.0,0.0,0.0776141024836512,1764.9834548794825,0.0,0.0,0.0776141024836512,1391,0.0,99,Assisted_Takeoff,
0.34971447725945504,36.8934922120347,3500,2018-04-04 08:26:43,1764.9834548794825,0.0,0.0,0.0793627025396064,1764.9834548794825,0.0,0.0,0.0793627025396064,1424,0.0,99,Assisted_Takeoff,
0.34971449607101796,36.893492213349106,3600,2018-04-04 08:26:43,1764.9834548794825,0.0,0.0,0.0787232025191424,1764.9834548794825,0.0,0.0,0.0793627025396064,1434,0.0,99,Assisted_Takeoff,
0.34971453570717304,36.893492221509995,3700,2018-04-04 08:26:43,1764.9834548794825,0.0,0.0,0.076954002462528,1764.9834548794825,0.0,0.0,0.0793627025396064,1445,0.0,99,P-GPS,Obstacle Avoided. Revise Flight Route
0.349714588191487,36.893492213802,3800,2018-04-04 08:26:43,1764.9834548794825,0.0,0.0,0.0770123024643936,1764.9834548794825,0.0,0.0,0.0793627025396064,1446,0.0,99,P-GPS,
0.34971462629128797,36.893492194360206,3900,2018-04-04 08:26:44,1765.0834548826824,0.10000000320000002,0.0,0.0788754025240128,1765.0834548826824,0.10000000320000002,0.0,0.0793627025396064,1447,0.0,99,P-GPS,
0.34971461056275605,36.893492172255,4000,2018-04-04 08:26:44,1765.1834548858824,0.20000000640000004,0.0,0.08142060260545919,1765.1834548858824,0.20000000640000004,0.0,0.08142060260545919,1447,0.0,99,P-GPS,
0.349714504322216,36.8934921378447,4200,2018-04-04 08:26:44,1765.4834548954823,0.500000016,0.0,0.0867413027757216,1765.4834548954823,0.500000016,0.0,0.0867413027757216,1447,0.0,99,P-GPS,
0.349714377690015,36.8934920464599,4300,2018-04-04 08:26:44,1765.6834549018824,0.7000000224000001,0.503999582744,0.10014600320467201,1765.6834549018824,0.7000000224000001,0.503999582744,0.10014600320467201,1455,0.0,99,P-GPS,Home Point Recorded. RTH Altitude:  30m.
0.349714244388541,36.89349191463,4400,2018-04-04 08:26:44,1765.8834549082824,0.9000000288000001,0.35999970196000003,0.119052003809664,1765.8834549082824,0.9000000288000001,0.503999582744,0.119052003809664,1468,0.0,99,P-GPS,
0.349714195152054,36.8934918491023,4500,2018-04-04 08:26:44,1766.1834549178825,1.2000000384,0.0,0.127903004092896,1766.1834549178825,1.2000000384,0.503999582744,0.127903004092896,1467,0.0,99,P-GPS,
0.349714191993254,36.8934918314286,4600,2018-04-04 08:26:44,1766.4834549274824,1.5000000480000002,0.35999970196000003,0.12984500415504,1766.4834549274824,1.5000000480000002,0.503999582744,0.12984500415504,1434,0.0,99,P-GPS,
0.34971419527818204,36.8934917734188,4700,2018-04-04 08:26:44,1766.6834549338823,1.7000000544000002,0.7919993443119999,0.135652004340864,1766.6834549338823,1.7000000544000002,0.7919993443119999,0.135652004340864,1439,0.0,99,P-GPS,
0.34971407160724893,36.8934916069923,4800,2018-04-04 08:26:44,1766.9834549434825,2.000000064,1.007999165488,0.158086005058752,1766.9834549434825,2.000000064,1.007999165488,0.158086005058752,1466,0.0,99,P-GPS,
0.349713886472555,36.8934913873497,4900,2018-04-04 08:26:45,1767.2834549530824,2.3000000736,1.007999165488,0.18901500604848,1767.2834549530824,2.3000000736,1.007999165488,0.18901500604848,1500,0.0,99,P-GPS,
0.34971368416790394,36.8934911724809,5000,2018-04-04 08:26:45,1767.4834549594823,2.50000008,0.7919993443119999,0.22069700706230402,1767.4834549594823,2.50000008,1.007999165488,0.22069700706230402,1569,0.0,99,P-GPS,
0.34971347845420697,36.8934909914541,5100,2018-04-04 08:26:45,1767.7834549690824,2.8000000896000006,0.7919993443119999,0.24965400798892803,1767.7834549690824,2.8000000896000006,1.007999165488,0.24965400798892803,1584,0.0,99,P-GPS,
0.349713276530307,36.893490876722495,5200,2018-04-04 08:26:45,1768.0834549786825,3.1000000992,0.7199994039200001,0.272577008722464,1768.0834549786825,3.1000000992,1.007999165488,0.272577008722464,1596,0.0,99,P-GPS,
0.349713083208051,36.893490810353,5300,2018-04-04 08:26:45,1768.3834549882824,3.4000001088000005,0.7199994039200001,0.291094009315008,1768.3834549882824,3.4000001088000005,1.007999165488,0.291094009315008,1585,0.0,99,P-GPS,
0.3497128981198189,36.8934907466246,5400,2018-04-04 08:26:45,1768.7834550010825,3.8000001215999997,0.7919993443119999,0.309364009899648,1768.7834550010825,3.8000001215999997,1.007999165488,0.309364009899648,1561,0.0,99,P-GPS,
0.349712757234071,36.8934906884575,5500,2018-04-04 08:26:45,1769.0834550106822,4.100000131200001,0.7919993443119999,0.324377010380064,1769.0834550106822,4.100000131200001,1.007999165488,0.324377010380064,1546,0.0,99,P-GPS,
0.349712654872524,36.893490643927606,5600,2018-04-04 08:26:45,1769.4834550234823,4.5000001439999995,0.35999970196000003,0.33558901073884806,1769.4834550234823,4.5000001439999995,1.007999165488,0.33558901073884806,1540,0.0,99,P-GPS,
0.34971258498499996,36.8934905649625,5700,2018-04-04 08:26:45,1769.8834550362826,4.9000001568,0.35999970196000003,0.34731601111411203,1769.8834550362826,4.9000001568,1.007999165488,0.34731601111411203,1549,0.0,99,P-GPS,
0.34971251272198306,36.8934904668728,5800,2018-04-04 08:26:45,1770.2834550490825,5.3000001696,0.35999970196000003,0.360811011545952,1770.2834550490825,5.3000001696,1.007999165488,0.360811011545952,1548,0.0,99,P-GPS,
0.349712463826527,36.8934903699575,5900,2018-04-04 08:26:45,1770.6834550618826,5.7000001824,0.503999582744,0.372507011920224,1770.6834550618826,5.7000001824,1.007999165488,0.372507011920224,1546,0.0,99,P-GPS,
0.349712422374078,36.8934902829956,6000,2018-04-04 08:26:46,1771.0834550746824,6.1000001952,0.503999582744,0.38284701225110396,1771.0834550746824,6.1000001952,1.007999165488,0.38284701225110396,1532,-0.1,99,P-GPS,
0.349712392380175,36.893490167250704,6100,2018-04-04 08:26:46,1771.4834550874825,6.500000208,0.503999582744,0.394849012635168,1771.4834550874825,6.500000208,1.007999165488,0.394849012635168,1525,-2.1,99,P-GPS,
0.34971235685241303,36.89349005811079,6200,2018-04-04 08:26:46,1771.7834550970822,6.800000217600001,0.503999582744,0.406746013015872,1771.7834550970822,6.800000217600001,1.007999165488,0.406746013015872,1526,-5.9,99,P-GPS,
0.34971233531400203,36.893489955912706,6300,2018-04-04 08:26:46,1772.1834551098825,7.200000230400001,0.0,0.41712401334796806,1772.1834551098825,7.200000230400001,1.007999165488,0.41712401334796806,1522,-10.3,99,P-GPS,
0.34971231291841803,36.8934898947735,6400,2018-04-04 08:26:46,1772.5834551226826,7.600000243199999,0.0,0.42401301356841603,1772.5834551226826,7.600000243199999,1.007999165488,0.42401301356841603,1523,-14.8,99,P-GPS,
0.34971229505031703,36.8934898703901,6500,2018-04-04 08:26:46,1772.8834551322823,7.9000002528,0.0,0.42737301367593605,1772.8834551322823,7.9000002528,1.007999165488,0.42737301367593605,1516,-14.8,99,P-GPS,
0.34971227541006106,36.8934898859363,6600,2018-04-04 08:26:46,1773.2834551450824,8.3000002656,0.0,0.42736001367552007,1773.2834551450824,8.3000002656,1.007999165488,0.42737301367593605,1499,-19.3,99,P-GPS,
0.34971230070753095,36.8934899743226,6700,2018-04-04 08:26:46,1773.5834551546823,8.6000002752,0.0,0.41791901337340803,1773.5834551546823,8.6000002752,1.007999165488,0.42737301367593605,1491,-20.2,99,P-GPS,
0.34971234504008697,36.893490093839794,6800,2018-04-04 08:26:46,1773.9834551674824,9.000000287999999,0.0,0.404496012943872,1773.9834551674824,9.000000287999999,1.007999165488,0.42737301367593605,1490,-20.2,99,P-GPS,
0.349712406136252,36.8934902084585,6900,2018-04-04 08:26:47,1774.2834551770825,9.3000002976,0.0,0.390347012491104,1774.2834551770825,9.3000002976,1.007999165488,0.42737301367593605,1498,-20.2,99,P-GPS,
0.349712459673384,36.8934903001797,7000,2018-04-04 08:26:47,1774.6834551898824,9.7000003104,0.0,0.378707012118624,1774.6834551898824,9.7000003104,1.007999165488,0.42737301367593605,1498,-20.2,99,P-GPS,
0.349712539953027,36.893490396028206,7100,2018-04-04 08:26:47,1774.9834551994825,10.00000032,0.0,0.36480301167369605,1774.9834551994825,10.00000032,1.007999165488,0.42737301367593605,1492,-20.2,99,P-GPS,
0.349712623257708,36.893490499653396,7200,2018-04-04 08:26:47,1775.2834552090826,10.300000329600001,0.0,0.350022011200704,1775.2834552090826,10.300000329600001,1.007999165488,0.42737301367593605,1489,-20.2,99,P-GPS,
0.34971270245138203,36.89349056498121,7300,2018-04-04 08:26:47,1775.6834552218825,10.700000342400001,0.0,0.33879401084140803,1775.6834552218825,10.700000342400001,1.007999165488,0.42737301367593605,1496,-20.2,99,P-GPS,
0.34971276704524207,36.8934906120816,7400,2018-04-04 08:26:47,1775.9834552314824,11.000000352000002,0.0,0.330176010565632,1775.9834552314824,11.000000352000002,1.007999165488,0.42737301367593605,1495,-20.2,99,P-GPS,
0.34971283895631106,36.8934906447964,7500,2018-04-04 08:26:47,1776.3834552442822,11.4000003648,0.0,0.32230501031376,1776.3834552442822,11.4000003648,1.007999165488,0.42737301367593605,1492,-20.2,99,P-GPS,
0.34971292097604806,36.8934907082785,7600,2018-04-04 08:26:47,1776.6834552538824,11.700000374400002,0.0,0.31109900995516804,1776.6834552538824,11.700000374400002,1.007999165488,0.42737301367593605,1495,-20.2,99,P-GPS,
0.34971299547939694,36.8934907652391,7700,2018-04-04 08:26:47,1776.9834552634825,12.000000384000002,0.0,0.30100300963209603,1776.9834552634825,12.000000384000002,1.007999165488,0.42737301367593605,1497,-20.2,99,P-GPS,
0.349713065274913,36.893490835255605,7800,2018-04-04 08:26:47,1777.3834552762823,12.4000003968,0.0,0.290096009283072,1777.3834552762823,12.4000003968,1.007999165488,0.42737301367593605,1499,-20.2,99,P-GPS,
0.349713120750606,36.8934908860977,7900,2018-04-04 08:26:47,1777.6834552858825,12.700000406400001,0.0,0.281857009019424,1777.6834552858825,12.700000406400001,1.007999165488,0.42737301367593605,1500,-20.2,99,P-GPS,
0.349713178182264,36.893490951718896,8000,2018-04-04 08:26:48,1778.0834552986823,13.100000419199999,0.0,0.27218300870985607,1778.0834552986823,13.100000419199999,1.007999165488,0.42737301367593605,1500,-20.2,99,P-GPS,
0.349713246864027,36.89349100852,8100,2018-04-04 08:26:48,1778.3834553082825,13.4000004288,0.0,0.26254600840147196,1778.3834553082825,13.4000004288,1.007999165488,0.42737301367593605,1499,-20.2,99,P-GPS,
0.34971334019534306,36.893491077316604,8200,2018-04-04 08:26:48,1778.7834553210826,13.8000004416,0.0,0.25024200800774404,1778.7834553210826,13.8000004416,1.007999165488,0.42737301367593605,1500,-20.2,99,P-GPS,
0.349713428954802,36.8934911424073,8300,2018-04-04 08:26:48,1779.0834553306825,14.100000451200001,0.0,0.23862900763612804,1779.0834553306825,14.100000451200001,1.007999165488,0.42737301367593605,1492,-20.5,99,P-GPS,
0.349713520318856,36.8934912222984,8400,2018-04-04 08:26:48,1779.4834553434825,14.500000464,0.0,0.22555500721776003,1779.4834553434825,14.500000464,1.007999165488,0.42737301367593605,1492,-21.3,99,P-GPS,
0.349713597955636,36.893491269041796,8500,2018-04-04 08:26:48,1779.7834553530822,14.8000004736,0.0,0.21645600692659198,1779.7834553530822,14.8000004736,1.007999165488,0.42737301367593605,1491,-22.5,99,P-GPS,
0.34971367390087,36.893491306665204,8600,2018-04-04 08:26:48,1780.1834553658823,15.200000486399999,0.0,0.20841000666912002,1780.1834553658823,15.200000486399999,1.007999165488,0.42737301367593605,1479,-23.9,99,P-GPS,
0.34971376317125397,36.8934913536098,8700,2018-04-04 08:26:48,1780.4834553754824,15.500000496,0.0,0.19884500636304,1780.4834553754824,15.500000496,1.007999165488,0.42737301367593605,1475,-24.9,99,P-GPS,
0.34971386090883394,36.8934914276593,8800,2018-04-04 08:26:48,1780.8834553882823,15.900000508800002,0.0,0.18636000596352,1780.8834553882823,15.900000508800002,1.007999165488,0.42737301367593605,1477,-24.9,99,P-GPS,
0.349713937996422,36.8934914934448,8900,2018-04-04 08:26:49,1781.1834553978824,16.2000005184,0.0,0.175901005628832,1781.1834553978824,16.2000005184,1.007999165488,0.42737301367593605,1479,-24.9,99,P-GPS,
0.349714004064023,36.8934915452799,9000,2018-04-04 08:26:49,1781.4834554074826,16.500000528,0.0,0.16747700535926402,1781.4834554074826,16.500000528,1.007999165488,0.42737301367593605,1477,-24.9,99,P-GPS,
0.349714046100167,36.89349157495471,9100,2018-04-04 08:26:49,1781.7834554170825,16.8000005376,0.0,0.16250300520009597,1781.7834554170825,16.8000005376,1.007999165488,0.42737301367593605,1475,-24.9,99,P-GPS,
0.349714065812482,36.8934916054603,9200,2018-04-04 08:26:49,1782.0834554266823,17.1000005472,0.0,0.15850600507219198,1782.0834554266823,17.1000005472,1.007999165488,0.42737301367593605,1475,-24.9,99,P-GPS,
0.349714102757856,36.893491631611205,9300,2018-04-04 08:26:49,1782.4834554394822,17.50000056,0.0,0.15418000493376,1782.4834554394822,17.50000056,1.007999165488,0.42737301367593605,1472,-24.9,99,P-GPS,
0.34971416197097993,36.8934916664795,9400,2018-04-04 08:26:49,1782.7834554490823,17.8000005696,0.0,0.14806600473811202,1782.7834554490823,17.8000005696,1.007999165488,0.42737301367593605,1472,-24.9,99,P-GPS,
0.349714227400181,36.8934916970804,9500,2018-04-04 08:26:49,1783.0834554586825,18.100000579200003,0.0,0.14231400455404802,1783.0834554586825,18.100000579200003,1.007999165488,0.42737301367593605,1475,-24.9,99,P-GPS,
0.349714297597135,36.8934917167724,9600,2018-04-04 08:26:49,1783.3834554682824,18.4000005888,0.0,0.13779700440950401,1783.3834554682824,18.4000005888,1.007999165488,0.42737301367593605,1469,-24.9,99,P-GPS,
0.34971439899539297,36.89349171953621,9700,2018-04-04 08:26:49,1783.6834554778825,18.7000005984,0.0,0.13467000430944,1783.6834554778825,18.7000005984,1.007999165488,0.42737301367593605,1462,-24.9,99,P-GPS,
0.34971449796486603,36.893491724099604,9800,2018-04-04 08:26:49,1783.9834554874824,19.000000608,0.0,0.132271004232672,1783.9834554874824,19.000000608,1.007999165488,0.42737301367593605,1457,-24.9,99,P-GPS,
0.34971457743504303,36.893491728200004,9900,2018-04-04 08:26:49,1784.3834555002823,19.4000006208,0.0,0.13093600418995202,1784.3834555002823,19.4000006208,1.007999165488,0.42737301367593605,1451,-24.9,99,P-GPS,
0.349714628582156,36.8934917279157,10000,2018-04-04 08:26:50,1784.6834555098824,19.7000006304,0.0,0.130713004182816,1784.6834555098824,19.7000006304,1.007999165488,0.42737301367593605,1424,-24.9,99,P-GPS,
0.34971466136119395,36.893491703373606,10100,2018-04-04 08:26:50,1784.9834555194825,20.00000064,0.0,0.13340900426908803,1784.9834555194825,20.00000064,1.007999165488,0.42737301367593605,1384,-24.9,99,P-GPS,
0.349714669185886,36.8934916799626,10200,2018-04-04 08:26:50,1785.2834555290824,20.3000006496,0.0,0.136019004352608,1785.2834555290824,20.3000006496,1.007999165488,0.42737301367593605,1347,-24.9,99,P-GPS,
0.34971467780171606,36.893491638518704,10400,2018-04-04 08:26:50,1785.7834555450825,20.800000665600002,0.0,0.140641004500512,1785.7834555450825,20.800000665600002,1.007999165488,0.42737301367593605,1322,-24.9,99,P-GPS,
0.34971471310758395,36.8934916051247,10500,2018-04-04 08:26:50,1785.9834555514824,21.000000672,0.0,0.14447400462316803,1785.9834555514824,21.000000672,1.007999165488,0.42737301367593605,1302,-24.9,99,P-GPS,
0.34971476970206894,36.8934915563526,10600,2018-04-04 08:26:50,1786.1834555578823,21.2000006784,0.0,0.15029200480934402,1786.1834555578823,21.2000006784,1.007999165488,0.42737301367593605,1321,-24.9,99,P-GPS,
0.34971482258101694,36.8934914533611,10700,2018-04-04 08:26:50,1786.3834555642825,21.400000684800002,0.0,0.16227500519280003,1786.3834555642825,21.400000684800002,1.007999165488,0.42737301367593605,1381,-24.9,99,P-GPS,
0.349714847357716,36.8934913435639,10800,2018-04-04 08:26:50,1786.5834555706824,21.600000691199998,0.0,0.1747250055912,1786.5834555706824,21.600000691199998,1.007999165488,0.42737301367593605,1396,-24.9,99,P-GPS,
0.349714861625888,36.893491213358395,10900,2018-04-04 08:26:50,1786.7834555770826,21.8000006976,0.0,0.18928900605724802,1786.7834555770826,21.8000006976,1.007999165488,0.42737301367593605,1437,-24.9,99,P-GPS,
0.349714860124666,36.893491103134,11000,2018-04-04 08:26:51,1787.0834555866822,22.1000007072,0.0,0.201443006446176,1787.0834555866822,22.1000007072,1.007999165488,0.42737301367593605,1439,-24.9,99,P-GPS,
0.349714862578808,36.8934910036927,11100,2018-04-04 08:26:51,1787.3834555962824,22.400000716800005,0.0,0.21246400679884803,1787.3834555962824,22.400000716800005,1.007999165488,0.42737301367593605,1436,-24.9,99,P-GPS,
0.3497148720795061,36.893490952751,11200,2018-04-04 08:26:51,1787.5834556026825,22.6000007232,0.0,0.21821100698275198,1787.5834556026825,22.6000007232,1.007999165488,0.42737301367593605,1432,-24.9,99,P-GPS,
0.349714903685034,36.893490897976,11300,2018-04-04 08:26:51,1787.8834556122824,22.900000732800002,0.0,0.22467000718944,1787.8834556122824,22.900000732800002,1.007999165488,0.42737301367593605,1439,-24.9,99,P-GPS,
0.349714942214503,36.8934908625382,11400,2018-04-04 08:26:51,1788.0834556186824,23.100000739200006,0.0,0.229138007332416,1788.0834556186824,23.100000739200006,1.007999165488,0.42737301367593605,1437,-24.9,99,P-GPS,
0.34971499467368106,36.8934908042811,11500,2018-04-04 08:26:51,1788.3834556282825,23.400000748800004,0.0,0.23641500756528003,1788.3834556282825,23.400000748800004,1.007999165488,0.42737301367593605,1440,-24.9,99,P-GPS,
0.349715036627589,36.893490753895605,11600,2018-04-04 08:26:51,1788.5834556346822,23.6000007552,0.0,0.242719007767008,1788.5834556346822,23.6000007552,1.007999165488,0.42737301367593605,1442,-24.9,99,P-GPS,
0.349715074492729,36.89349071068521,11700,2018-04-04 08:26:51,1788.8834556442823,23.9000007648,0.0,0.248207007942624,1788.8834556442823,23.9000007648,1.007999165488,0.42737301367593605,1440,-24.9,99,P-GPS,
0.349715113116723,36.89349069508879,11800,2018-04-04 08:26:51,1789.0834556506825,24.100000771199998,0.0,0.250747008023904,1789.0834556506825,24.100000771199998,1.007999165488,0.42737301367593605,1440,-24.9,99,P-GPS,
0.34971517443109995,36.8934906590005,11900,2018-04-04 08:26:52,1789.3834556602822,24.4000007808,0.0,0.256127008196064,1789.3834556602822,24.4000007808,1.007999165488,0.42737301367593605,1440,-24.9,99,P-GPS,
0.34971523162912704,36.893490617617104,12000,2018-04-04 08:26:52,1789.6834556698823,24.7000007904,0.0,0.262094008387008,1789.6834556698823,24.7000007904,1.007999165488,0.42737301367593605,1429,-24.9,99,P-GPS,
0.34971528349257497,36.893490512678795,12100,2018-04-04 08:26:52,1789.9834556794824,25.000000800000002,0.0,0.27483300879465605,1789.9834556794824,25.000000800000002,1.007999165488,0.42737301367593605,1435,-24.9,99,P-GPS,
0.3497153141748,36.8934904042964,12200,2018-04-04 08:26:52,1790.2834556890825,25.3000008096,0.0,0.28735700919542395,1790.2834556890825,25.3000008096,1.007999165488,0.42737301367593605,1435,-24.9,99,P-GPS,
0.349715367818646,36.8934903144567,12300,2018-04-04 08:26:52,1790.4834556954822,25.500000816,0.0,0.29855500955376,1790.4834556954822,25.500000816,1.007999165488,0.42737301367593605,1436,-24.9,99,P-GPS,
0.349715424112479,36.8934902849666,12400,2018-04-04 08:26:52,1790.7834557050824,25.800000825599998,0.0,0.303422009709504,1790.7834557050824,25.800000825599998,1.007999165488,0.42737301367593605,1433,-24.9,99,P-GPS,
0.349715488723031,36.8934902317852,12500,2018-04-04 08:26:52,1791.0834557146825,26.100000835200003,0.0,0.311164009957248,1791.0834557146825,26.100000835200003,1.007999165488,0.42737301367593605,1432,-24.9,99,P-GPS,
0.349715537565969,36.893490193877,12600,2018-04-04 08:26:52,1791.3834557242824,26.4000008448,0.0,0.31683001013856005,1791.3834557242824,26.4000008448,1.007999165488,0.42737301367593605,1429,-24.9,99,P-GPS,
0.349715583844719,36.8934901142925,12700,2018-04-04 08:26:52,1791.5834557306823,26.6000008512,0.0,0.32684501045904,1791.5834557306823,26.6000008512,1.007999165488,0.42737301367593605,1428,-24.9,99,P-GPS,
0.34971561087190195,36.8934900247494,12800,2018-04-04 08:26:52,1791.8834557402824,26.9000008608,0.0,0.33724301079177604,1791.8834557402824,26.9000008608,1.007999165488,0.42737301367593605,1429,-24.9,99,P-GPS,
0.349715638762568,36.8934898882124,12900,2018-04-04 08:26:52,1792.1834557498823,27.200000870400004,0.0,0.35263501128432,1792.1834557498823,27.200000870400004,1.007999165488,0.42737301367593605,1426,-24.9,99,P-GPS,
0.34971567972465195,36.8934897684329,13000,2018-04-04 08:26:53,1792.3834557562823,27.4000008768,0.0,0.366711011734752,1792.3834557562823,27.4000008768,1.007999165488,0.42737301367593605,1425,-24.9,99,P-GPS,
0.349715736852605,36.89348961898129,13100,2018-04-04 08:26:53,1792.6834557658824,27.700000886400005,0.0,0.3844830123034561,1792.6834557658824,27.700000886400005,1.007999165488,0.42737301367593605,1424,-24.9,99,P-GPS,
0.34971577850005997,36.893489512749206,13200,2018-04-04 08:26:53,1792.9834557754825,28.000000896,0.0,0.3971530127088961,1792.9834557754825,28.000000896,1.007999165488,0.42737301367593605,1422,-24.9,99,P-GPS,
0.349715826457837,36.8934893771752,13300,2018-04-04 08:26:53,1793.1834557818822,28.200000902400003,0.0,0.41314101322051194,1793.1834557818822,28.200000902400003,1.007999165488,0.42737301367593605,1421,-24.9,99,P-GPS,
0.349715878396651,36.8934892696781,13400,2018-04-04 08:26:53,1793.3834557882824,28.400000908800006,0.0,0.42631001364192,1793.3834557882824,28.400000908800006,1.007999165488,0.42737301367593605,1421,-24.9,99,P-GPS,
0.349715952416047,36.893489144837396,13500,2018-04-04 08:26:53,1793.6834557978825,28.7000009184,0.0,0.442106014147392,1793.6834557978825,28.7000009184,1.007999165488,0.442106014147392,1424,-24.9,99,P-GPS,
0.34971601079169296,36.8934890652556,13600,2018-04-04 08:26:53,1793.8834558042822,28.9000009248,0.0,0.452601014483232,1793.8834558042822,28.9000009248,1.007999165488,0.452601014483232,1424,-24.9,99,P-GPS,
0.349716038643174,36.8934889436529,13700,2018-04-04 08:26:53,1794.1834558138823,29.200000934400002,0.0,0.466386014924352,1794.1834558138823,29.200000934400002,1.007999165488,0.466386014924352,1424,-24.9,99,P-GPS,
0.349716041012865,36.893488846331394,13800,2018-04-04 08:26:53,1794.3834558202823,29.4000009408,0.0,0.476702015254464,1794.3834558202823,29.4000009408,1.007999165488,0.476702015254464,1424,-24.9,99,P-GPS,
0.34971605575425296,36.893488764983104,13900,2018-04-04 08:26:54,1794.6834558298824,29.7000009504,0.0,0.485794015545408,1794.6834558298824,29.7000009504,1.007999165488,0.485794015545408,1424,-24.9,99,P-GPS,
0.349716089605024,36.8934887481126,14000,2018-04-04 08:26:54,1794.8834558362823,29.900000956800003,0.0,0.48878701564118393,1794.8834558362823,29.900000956800003,1.007999165488,0.48878701564118393,1423,-24.9,99,P-GPS,
0.349716126363483,36.893488732051,14100,2018-04-04 08:26:54,1795.1834558458825,30.200000966400005,0.0,0.49182001573824,1795.1834558458825,30.200000966400005,1.007999165488,0.49182001573824,1424,-24.9,99,P-GPS,
0.349716120661486,36.893488747595,14200,2018-04-04 08:26:54,1795.3834558522824,30.400000972799997,0.0,0.489979015679328,1795.3834558522824,30.400000972799997,1.007999165488,0.49182001573824,1424,-24.9,99,P-GPS,
0.34971610665412,36.893488760273,14300,2018-04-04 08:26:54,1795.6834558618825,30.700000982400002,0.0,0.488132015620224,1795.6834558618825,30.700000982400002,1.007999165488,0.49182001573824,1424,-24.9,99,P-GPS,
0.3497160789196829,36.89348879274,14400,2018-04-04 08:26:54,1795.8834558682822,30.900000988800006,0.35999970196000003,0.48370801547865605,1795.8834558682822,30.900000988800006,1.007999165488,0.49182001573824,1420,-24.9,99,P-GPS,
0.349716030782573,36.8934888135154,14500,2018-04-04 08:26:54,1796.1834558778824,31.2000009984,0.35999970196000003,0.4797930153533761,1796.1834558778824,31.2000009984,1.007999165488,0.49182001573824,1421,-24.9,99,P-GPS,
0.34971599060428,36.8934888611795,14600,2018-04-04 08:26:54,1796.3834558842825,31.400001004800004,0.35999970196000003,0.473351015147232,1796.3834558842825,31.400001004800004,1.007999165488,0.49182001573824,1424,-24.9,99,P-GPS,
0.349715989283713,36.8934888830619,14700,2018-04-04 08:26:54,1796.5834558906822,31.6000010112,0.0,0.47099501507184005,1796.5834558906822,31.6000010112,1.007999165488,0.49182001573824,1420,-24.9,99,P-GPS,
0.349716016297258,36.893488915824896,14800,2018-04-04 08:26:54,1796.8834559002823,31.9000010208,0.0,0.468500014992,1796.8834559002823,31.9000010208,1.007999165488,0.49182001573824,1419,-24.9,99,P-GPS,
0.34971607546982403,36.893488940717894,14900,2018-04-04 08:26:54,1797.0834559066825,32.1000010272,0.35999970196000003,0.46806001497792,1797.0834559066825,32.1000010272,1.007999165488,0.49182001573824,1419,-24.9,99,P-GPS,
0.34971614325146505,36.8934889937729,15000,2018-04-04 08:26:55,1797.2834559130824,32.300001033600005,0.35999970196000003,0.46513701488438397,1797.2834559130824,32.300001033600005,1.007999165488,0.49182001573824,1418,-24.9,99,P-GPS,
0.34971621853463397,36.8934890553601,15100,2018-04-04 08:26:55,1797.5834559226823,32.6000010432,0.35999970196000003,0.46182701477846405,1797.5834559226823,32.6000010432,1.007999165488,0.49182001573824,1417,-24.9,99,P-GPS,
0.34971627410416606,36.893489156830796,15200,2018-04-04 08:26:55,1797.7834559290823,32.800001049600006,0.35999970196000003,0.4538080145218561,1797.7834559290823,32.800001049600006,1.007999165488,0.49182001573824,1418,-24.9,99,P-GPS,
0.34971633004081004,36.8934892418404,15300,2018-04-04 08:26:55,1797.9834559354824,33.000001056,0.35999970196000003,0.447697014326304,1797.9834559354824,33.000001056,1.007999165488,0.49182001573824,1419,-24.9,99,P-GPS,
0.349716371732844,36.893489338062,15400,2018-04-04 08:26:55,1798.1834559418824,33.2000010624,0.35999970196000003,0.43998001407936,1798.1834559418824,33.2000010624,1.007999165488,0.49182001573824,1420,-24.9,99,P-GPS,
0.349716423711148,36.893489446962,15500,2018-04-04 08:26:55,1798.4834559514823,33.500001071999996,0.35999970196000003,0.431702013814464,1798.4834559514823,33.500001071999996,1.007999165488,0.49182001573824,1419,-24.9,99,P-GPS,
0.34971646716719396,36.8934895739456,15600,2018-04-04 08:26:55,1798.6834559578824,33.70000107840001,0.35999970196000003,0.421468013486976,1798.6834559578824,33.70000107840001,1.007999165488,0.49182001573824,1419,-24.9,99,P-GPS,
0.349716512502464,36.8934896543699,15700,2018-04-04 08:26:55,1798.8834559642823,33.9000010848,0.35999970196000003,0.41611301331561606,1798.8834559642823,33.9000010848,1.007999165488,0.49182001573824,1417,-24.9,99,P-GPS,
0.349716544055399,36.893489713356,15800,2018-04-04 08:26:55,1799.0834559706825,34.1000010912,0.35999970196000003,0.41220801319065603,1799.0834559706825,34.1000010912,1.007999165488,0.49182001573824,1415,-24.9,99,P-GPS,
0.34971658640288106,36.893489760272296,15900,2018-04-04 08:26:56,1799.2834559770822,34.3000010976,0.35999970196000003,0.41017201312550394,1799.2834559770822,34.3000010976,1.007999165488,0.49182001573824,1415,-24.9,99,P-GPS,
0.34971664547367,36.893489832221206,16000,2018-04-04 08:26:56,1799.4834559834824,34.500001104,0.35999970196000003,0.40691101302115196,1799.4834559834824,34.500001104,1.007999165488,0.49182001573824,1415,-24.9,99,P-GPS,
0.349716693803038,36.8934898738589,16100,2018-04-04 08:26:56,1799.6834559898823,34.7000011104,0.35999970196000003,0.40600901299228803,1799.6834559898823,34.7000011104,1.007999165488,0.49182001573824,1411,-24.9,99,P-GPS,
0.34971672008246,36.8934899180788,16200,2018-04-04 08:26:56,1799.8834559962825,34.9000011168,0.35999970196000003,0.403593012914976,1799.8834559962825,34.9000011168,1.007999165488,0.49182001573824,1410,-24.9,99,P-GPS,
0.34971673377462,36.8934899779514,16300,2018-04-04 08:26:56,1800.0834560026822,35.1000011232,0.35999970196000003,0.39901501276848,1800.0834560026822,35.1000011232,1.007999165488,0.49182001573824,1408,-24.9,99,P-GPS,
0.349716749631594,36.89349007435071,16400,2018-04-04 08:26:56,1800.3834560122823,35.40000113280001,0.35999970196000003,0.391372012523904,1800.3834560122823,35.40000113280001,1.007999165488,0.49182001573824,1404,-24.9,99,P-GPS,
0.349716762032398,36.8934901614641,16500,2018-04-04 08:26:56,1800.5834560186825,35.6000011392,0.35999970196000003,0.384468012302976,1800.5834560186825,35.6000011392,1.007999165488,0.49182001573824,1402,-24.9,99,P-GPS,
0.349716767109073,36.8934902420528,16600,2018-04-04 08:26:56,1800.7834560250824,35.8000011456,0.35999970196000003,0.377752012088064,1800.7834560250824,35.8000011456,1.007999165488,0.49182001573824,1402,-24.9,99,P-GPS,
0.34971678263364003,36.8934902964332,16700,2018-04-04 08:26:56,1800.9834560314825,36.000001151999996,0.35999970196000003,0.37412301197193604,1800.9834560314825,36.000001151999996,1.007999165488,0.49182001573824,1404,-24.9,99,P-GPS,
0.34971680987303005,36.893490331924,16800,2018-04-04 08:26:56,1801.1834560378823,36.200001158400006,0.0,0.373011011936352,1801.1834560378823,36.200001158400006,1.007999165488,0.49182001573824,1407,-24.9,99,P-GPS,
0.3497168369628061,36.8934903632716,16900,2018-04-04 08:26:56,1801.3834560442824,36.4000011648,0.0,0.37230201191366397,1801.3834560442824,36.4000011648,1.007999165488,0.49182001573824,1404,-24.9,99,P-GPS,
0.34971684359668004,36.8934904109999,17000,2018-04-04 08:26:57,1801.5834560506823,36.6000011712,0.0,0.36877801180089603,1801.5834560506823,36.6000011712,1.007999165488,0.49182001573824,1401,-24.9,99,P-GPS,
0.34971686285303005,36.8934904606419,17100,2018-04-04 08:26:57,1801.7834560570825,36.8000011776,0.0,0.36608001171456,1801.7834560570825,36.8000011776,1.007999165488,0.49182001573824,1402,-24.9,99,P-GPS,
0.34971688514541105,36.8934904945402,17200,2018-04-04 08:26:57,1801.9834560634822,37.000001184000006,0.0,0.364972011679104,1801.9834560634822,37.000001184000006,1.007999165488,0.49182001573824,1409,-24.9,99,P-GPS,
0.349716915557824,36.8934905043656,17300,2018-04-04 08:26:57,1802.1834560698824,37.2000011904,0.0,0.366481011727392,1802.1834560698824,37.2000011904,1.007999165488,0.49182001573824,1418,-24.9,99,P-GPS,
0.349716938558577,36.8934905009044,17400,2018-04-04 08:26:57,1802.3834560762823,37.4000011968,0.0,0.368519011792608,1802.3834560762823,37.4000011968,1.007999165488,0.49182001573824,1416,-24.9,99,P-GPS,
0.349716990093741,36.893490524139,17500,2018-04-04 08:26:57,1802.5834560826825,37.60000120320001,0.0,0.37064201186054396,1802.5834560826825,37.60000120320001,1.007999165488,0.49182001573824,1419,-24.9,99,P-GPS,
0.34971705168047496,36.8934905627501,17600,2018-04-04 08:26:57,1802.8834560922824,37.90000121280001,0.0,0.372458011918656,1802.8834560922824,37.90000121280001,1.007999165488,0.49182001573824,1419,-24.9,99,P-GPS,
0.349717140246659,36.8934905730364,17700,2018-04-04 08:26:57,1803.0834560986823,38.1000012192,0.0,0.3787830121210561,1803.0834560986823,38.1000012192,1.007999165488,0.49182001573824,1420,-24.9,99,P-GPS,
0.349717223138937,36.8934905627057,17800,2018-04-04 08:26:57,1803.2834561050825,38.3000012256,0.0,0.386331012362592,1803.2834561050825,38.3000012256,1.007999165488,0.49182001573824,1420,-24.9,99,P-GPS,
0.34971730058651196,36.8934905499019,17900,2018-04-04 08:26:58,1803.4834561114824,38.500001232,0.0,0.39368401259788804,1803.4834561114824,38.500001232,1.007999165488,0.49182001573824,1420,-24.9,99,P-GPS,
0.349717357045276,36.8934905536024,18000,2018-04-04 08:26:58,1803.7834561210823,38.8000012416,0.0,0.398127012740064,1803.7834561210823,38.8000012416,1.007999165488,0.49182001573824,1417,-24.9,99,P-GPS,
0.34971740538645,36.8934905589366,18100,2018-04-04 08:26:58,1803.9834561274824,39.000001248000004,0.0,0.40181301285801607,1803.9834561274824,39.000001248000004,1.007999165488,0.49182001573824,1415,-24.9,99,P-GPS,
0.34971744107379993,36.8934905780671,18200,2018-04-04 08:26:58,1804.1834561338824,39.2000012544,0.0,0.4034750129112001,1804.1834561338824,39.2000012544,1.007999165488,0.49182001573824,1414,-24.9,99,P-GPS,
0.349717479359333,36.893490592088796,18300,2018-04-04 08:26:58,1804.4834561434825,39.500001264000005,0.0,0.405764012984448,1804.4834561434825,39.500001264000005,1.007999165488,0.49182001573824,1419,-24.9,99,P-GPS,
0.349717510448568,36.8934906119296,18400,2018-04-04 08:26:58,1804.6834561498822,39.7000012704,0.0,0.40706001302592004,1804.6834561498822,39.7000012704,1.007999165488,0.49182001573824,1419,-24.9,99,P-GPS,
0.349717559648339,36.89349064852421,18500,2018-04-04 08:26:58,1804.9834561594823,40.00000128,0.0,0.4088340130826881,1804.9834561594823,40.00000128,1.007999165488,0.49182001573824,1420,-24.9,99,P-GPS,
0.34971761099765697,36.893490708446606,18600,2018-04-04 08:26:58,1805.1834561658825,40.2000012864,0.0,0.40935201309926394,1805.1834561658825,40.2000012864,1.007999165488,0.49182001573824,1424,-24.9,99,P-GPS,
0.349717656683449,36.8934907749574,18700,2018-04-04 08:26:58,1805.4834561754822,40.500001296,0.0,0.409119013091808,1805.4834561754822,40.500001296,1.007999165488,0.49182001573824,1422,-24.9,99,P-GPS,
0.34971767282356897,36.8934908419704,18800,2018-04-04 08:26:58,1805.7834561850823,40.8000013056,0.0,0.40633501300272,1805.7834561850823,40.8000013056,1.007999165488,0.49182001573824,1421,-25.1,99,P-GPS,
0.34971767827966993,36.89349088544579,18900,2018-04-04 08:26:58,1806.0834561946824,41.100001315200004,0.0,0.40413301293225606,1806.0834561946824,41.100001315200004,1.007999165488,0.49182001573824,1419,-25.2,99,P-GPS,
0.349717655126453,36.893490915582,19000,2018-04-04 08:26:59,1806.2834562010826,41.30000132160001,0.0,0.40013301280425606,1806.2834562010826,41.30000132160001,1.007999165488,0.49182001573824,1419,-25.2,99,P-GPS,
0.3497176095746,36.893490917364,19100,2018-04-04 08:26:59,1806.5834562106822,41.600001331200005,0.0,0.395809012665888,1806.5834562106822,41.600001331200005,1.007999165488,0.49182001573824,1411,-25.2,99,P-GPS,
0.34971755703733304,36.8934909177408,19200,2018-04-04 08:26:59,1806.8834562202824,41.9000013408,0.0,0.3909500125104,1806.8834562202824,41.9000013408,1.007999165488,0.49182001573824,1404,-25.2,98,P-GPS,
0.349717505344617,36.8934908801388,19300,2018-04-04 08:26:59,1807.0834562266825,42.1000013472,0.0,0.38862501243600006,1807.0834562266825,42.1000013472,1.007999165488,0.49182001573824,1404,-25.2,98,P-GPS,
0.349717465672261,36.8934908466414,19400,2018-04-04 08:26:59,1807.2834562330822,42.30000135360001,0.0,0.38722401239116805,1807.2834562330822,42.30000135360001,1.007999165488,0.49182001573824,1404,-25.2,98,P-GPS,
0.34971742671072104,36.893490782829,19500,2018-04-04 08:26:59,1807.5834562426824,42.60000136320001,0.0,0.38800701241622404,1807.5834562426824,42.60000136320001,1.007999165488,0.49182001573824,1406,-25.2,98,P-GPS,
0.349717403347435,36.893490731715005,19600,2018-04-04 08:26:59,1807.7834562490823,42.800001369600004,0.0,0.38944501246224,1807.7834562490823,42.800001369600004,1.007999165488,0.49182001573824,1407,-25.2,98,P-GPS,
0.34971739552235404,36.8934906286497,19700,2018-04-04 08:26:59,1807.9834562554825,43.000001376,0.0,0.3959830126714561,1807.9834562554825,43.000001376,1.007999165488,0.49182001573824,1406,-25.2,98,P-GPS,
0.34971740655546896,36.8934905262952,19800,2018-04-04 08:26:59,1808.2834562650824,43.300001385600005,0.0,0.404276012936832,1808.2834562650824,43.300001385600005,1.007999165488,0.49182001573824,1404,-25.2,98,P-GPS,
0.349717433075087,36.8934903992935,19900,2018-04-04 08:27:00,1808.4834562714823,43.500001391999994,0.0,0.41583301330665606,1808.4834562714823,43.500001391999994,1.007999165488,0.49182001573824,1404,-25.4,98,P-GPS,
0.349717459848335,36.89349031274529,20000,2018-04-04 08:27:00,1808.6834562778824,43.700001398400005,0.0,0.42452001358464003,1808.6834562778824,43.700001398400005,1.007999165488,0.49182001573824,1401,-25.6,98,P-GPS,
0.349717500964917,36.8934902227884,20100,2018-04-04 08:27:00,1808.8834562842824,43.9000014048,0.0,0.434687013909984,1808.8834562842824,43.9000014048,1.007999165488,0.49182001573824,1394,-25.8,98,P-GPS,
0.349717550224534,36.8934901667742,20200,2018-04-04 08:27:00,1809.0834562906823,44.100001411200004,0.0,0.44294701417430393,1809.0834562906823,44.100001411200004,1.007999165488,0.49182001573824,1394,-25.8,98,P-GPS,
0.34971759486486503,36.893490087041,20300,2018-04-04 08:27:00,1809.2834562970822,44.30000141760001,0.0,0.4526550144849601,1809.2834562970822,44.30000141760001,1.007999165488,0.49182001573824,1389,-25.8,98,P-GPS,
0.349717615329725,36.8934900246728,20400,2018-04-04 08:27:00,1809.4834563034824,44.500001424,0.0,0.45911001469152,1809.4834563034824,44.500001424,1.007999165488,0.49182001573824,1390,-25.8,98,P-GPS,
0.34971761974321497,36.8934899432191,20500,2018-04-04 08:27:00,1809.6834563098823,44.7000014304,0.0,0.465817014906144,1809.6834563098823,44.7000014304,1.007999165488,0.49182001573824,1393,-25.8,98,P-GPS,
0.34971761520636996,36.893489880440896,20600,2018-04-04 08:27:00,1809.8834563162825,44.9000014368,0.0,0.470423015053536,1809.8834563162825,44.9000014368,1.007999165488,0.49182001573824,1396,-25.8,98,P-GPS,
0.34971761910466204,36.8934898065654,20700,2018-04-04 08:27:00,1810.0834563226824,45.10000144320001,0.0,0.47662701525206397,1810.0834563226824,45.10000144320001,1.007999165488,0.49182001573824,1410,-25.8,98,P-GPS,
0.349717631542717,36.8934897732597,20800,2018-04-04 08:27:00,1810.2834563290824,45.3000014496,0.0,0.480262015368384,1810.2834563290824,45.3000014496,1.007999165488,0.49182001573824,1410,-25.8,98,P-GPS,
0.34971764004177003,36.8934897347134,20900,2018-04-04 08:27:00,1810.4834563354825,45.50000145600001,0.0,0.4840250154888,1810.4834563354825,45.50000145600001,1.007999165488,0.49182001573824,1414,-25.8,98,P-GPS,
0.349717637498547,36.8934897321054,21000,2018-04-04 08:27:01,1810.6834563418824,45.700001462399996,0.0,0.484042015489344,1810.6834563418824,45.700001462399996,1.007999165488,0.49182001573824,1419,-25.8,98,P-GPS,
0.34971761344032304,36.8934897350688,21100,2018-04-04 08:27:01,1810.8834563482826,45.9000014688,0.0,0.481972015423104,1810.8834563482826,45.9000014688,1.007999165488,0.49182001573824,1418,-25.8,98,P-GPS,
0.34971757529422604,36.8934897608472,21200,2018-04-04 08:27:01,1811.1834563578823,46.20000147840001,0.0,0.476983015263456,1811.1834563578823,46.20000147840001,1.007999165488,0.49182001573824,1419,-25.8,98,P-GPS,
0.349717542766667,36.8934897700484,21300,2018-04-04 08:27:01,1811.3834563642824,46.4000014848,0.0,0.47377601516083195,1811.3834563642824,46.4000014848,1.007999165488,0.49182001573824,1420,-25.8,98,P-GPS,
0.3497175271773689,36.8934897890339,21400,2018-04-04 08:27:01,1811.5834563706824,46.600001491200004,0.0,0.47104801507353605,1811.5834563706824,46.600001491200004,1.007999165488,0.49182001573824,1420,-25.8,98,P-GPS,
0.34971752103609993,36.8934897769313,21500,2018-04-04 08:27:01,1811.8834563802823,46.9000015008,0.0,0.471577015090464,1811.8834563802823,46.9000015008,1.007999165488,0.49182001573824,1420,-25.8,98,P-GPS,
0.349717524866811,36.893489766430896,21600,2018-04-04 08:27:01,1812.0834563866824,47.1000015072,0.0,0.472726015127232,1812.0834563866824,47.1000015072,1.007999165488,0.49182001573824,1420,-25.8,98,P-GPS,
0.34971752839625997,36.893489755703,21700,2018-04-04 08:27:01,1812.3834563962826,47.400001516799996,0.0,0.47387101516387203,1812.3834563962826,47.400001516799996,1.007999165488,0.49182001573824,1420,-25.8,98,P-GPS,
0.34971753475370504,36.8934897829443,21800,2018-04-04 08:27:01,1812.5834564026825,47.60000152320001,0.0,0.47211701510774395,1812.5834564026825,47.60000152320001,1.007999165488,0.49182001573824,1421,-25.8,98,P-GPS,
0.349717545107352,36.89348979541779,21900,2018-04-04 08:27:02,1812.7834564090824,47.8000015296,0.0,0.471882015100224,1812.7834564090824,47.8000015296,1.007999165488,0.49182001573824,1420,-25.8,98,P-GPS,
0.34971754995848703,36.893489820037296,22000,2018-04-04 08:27:02,1812.9834564154824,48.000001536000006,0.0,0.470250015048,1812.9834564154824,48.000001536000006,1.007999165488,0.49182001573824,1414,-25.8,98,P-GPS,
0.349717569688918,36.89348982821561,22100,2018-04-04 08:27:02,1813.1834564218825,48.200001542399995,0.0,0.47109401507500803,1813.1834564218825,48.200001542399995,1.007999165488,0.49182001573824,1414,-25.8,98,P-GPS,
0.349717593470714,36.8934898545512,22200,2018-04-04 08:27:02,1813.3834564282824,48.4000015488,0.0,0.4708040150657281,1813.3834564282824,48.4000015488,1.007999165488,0.49182001573824,1419,-25.8,98,P-GPS,
0.349717617033891,36.8934898780203,22300,2018-04-04 08:27:02,1813.5834564346824,48.6000015552,0.0,0.470757015064224,1813.5834564346824,48.6000015552,1.007999165488,0.49182001573824,1421,-25.8,98,P-GPS,
0.349717630787322,36.893489915117,22400,2018-04-04 08:27:02,1813.8834564442823,48.9000015648,0.0,0.468896015004672,1813.8834564442823,48.9000015648,1.007999165488,0.49182001573824,1420,-25.8,98,P-GPS,
0.349717642434972,36.893489924236896,22500,2018-04-04 08:27:02,1814.1834564538824,49.200001574400005,0.0,0.46909401501100806,1814.1834564538824,49.200001574400005,1.007999165488,0.49182001573824,1420,-25.8,98,P-GPS,
0.34971764623006,36.8934899343401,22600,2018-04-04 08:27:02,1814.3834564602826,49.4000015808,0.0,0.46860101499523205,1814.3834564602826,49.4000015808,1.007999165488,0.49182001573824,1417,-25.8,98,P-GPS,
0.349717628700471,36.8934899348331,22700,2018-04-04 08:27:02,1814.6834564698825,49.70000159040001,0.0,0.467181014949792,1814.6834564698825,49.70000159040001,1.007999165488,0.49182001573824,1417,-25.8,98,P-GPS,
0.349717596520789,36.8934899506282,22800,2018-04-04 08:27:02,1814.9834564794824,50.000001600000004,0.0,0.46340901482908803,1814.9834564794824,50.000001600000004,1.007999165488,0.49182001573824,1415,-25.8,98,P-GPS,
0.349717568460664,36.8934899480309,22900,2018-04-04 08:27:02,1815.1834564858825,50.200001606399994,0.0,0.4614180147653761,1815.1834564858825,50.200001606399994,1.007999165488,0.49182001573824,1412,-25.8,98,P-GPS,
0.349717558467514,36.8934899514338,23000,2018-04-04 08:27:03,1815.4834564954824,50.500001616000006,0.0,0.460369014731808,1815.4834564954824,50.500001616000006,1.007999165488,0.49182001573824,1396,-25.8,98,P-GPS,
0.349717552807246,36.893489930792704,23100,2018-04-04 08:27:03,1815.6834565018823,50.7000016224,0.0,0.46156801477017606,1815.6834565018823,50.7000016224,1.007999165488,0.49182001573824,1394,-25.8,98,P-GPS,
0.34971756192755,36.8934899129084,23200,2018-04-04 08:27:03,1815.8834565082825,50.9000016288,0.0,0.463701014838432,1815.8834565082825,50.9000016288,1.007999165488,0.49182001573824,1396,-25.8,98,P-GPS,
0.34971757599628805,36.8934898638311,23300,2018-04-04 08:27:03,1816.0834565146824,51.1000016352,0.0,0.4687130149988161,1816.0834565146824,51.1000016352,1.007999165488,0.49182001573824,1397,-25.8,98,P-GPS,
0.34971759055926005,36.8934898389751,23400,2018-04-04 08:27:03,1816.3834565242823,51.4000016448,0.0,0.47182801509849603,1816.3834565242823,51.4000016448,1.007999165488,0.49182001573824,1397,-25.8,98,P-GPS,
0.34971760080319003,36.893489798281706,23500,2018-04-04 08:27:03,1816.5834565306823,51.600001651199996,0.0,0.47589001522848,1816.5834565306823,51.600001651199996,1.007999165488,0.49182001573824,1397,-25.8,98,P-GPS,
0.349717611141163,36.893489792561496,23600,2018-04-04 08:27:03,1816.7834565370824,51.800001657600006,0.0,0.477143015268576,1816.7834565370824,51.800001657600006,1.007999165488,0.49182001573824,1404,-25.8,98,P-GPS,
0.34971762912956605,36.8934897446351,23700,2018-04-04 08:27:03,1817.0834565466826,52.1000016672,0.0,0.48239001543648,1817.0834565466826,52.1000016672,1.007999165488,0.49182001573824,1407,-25.8,98,P-GPS,
0.349717646665873,36.893489694858296,23800,2018-04-04 08:27:03,1817.2834565530823,52.3000016736,0.0,0.487762015608384,1817.2834565530823,52.3000016736,1.007999165488,0.49182001573824,1407,-25.8,98,P-GPS,
0.349717662165606,36.893489642207896,23900,2018-04-04 08:27:04,1817.4834565594824,52.500001680000004,0.0,0.49322801578329606,1817.4834565594824,52.500001680000004,1.007999165488,0.49322801578329606,1400,-25.8,98,P-GPS,
0.349717657206587,36.8934896343042,24000,2018-04-04 08:27:04,1817.7834565690825,52.8000016896,0.0,0.49350101579203204,1817.7834565690825,52.8000016896,1.007999165488,0.49350101579203204,1401,-25.8,98,P-GPS,
0.34971764911321995,36.893489632038296,24100,2018-04-04 08:27:04,1817.9834565754823,53.000001696000005,0.0,0.49307901577852803,1817.9834565754823,53.000001696000005,1.007999165488,0.49350101579203204,1406,-25.8,98,P-GPS,
0.349717644544214,36.893489657256204,24200,2018-04-04 08:27:04,1818.2834565850824,53.3000017056,0.0,0.4906690157014081,1818.2834565850824,53.3000017056,1.007999165488,0.49350101579203204,1412,-25.8,98,P-GPS,
0.34971763026866304,36.8934896728912,24300,2018-04-04 08:27:04,1818.4834565914823,53.500001712,0.0,0.48831501562608004,1818.4834565914823,53.500001712,1.007999165488,0.49350101579203204,1416,-25.8,98,P-GPS,
0.349717593928917,36.893489694316,24400,2018-04-04 08:27:04,1818.6834565978825,53.7000017184,0.0,0.483827015482464,1818.6834565978825,53.7000017184,1.007999165488,0.49350101579203204,1419,-25.8,98,P-GPS,
0.349717559932096,36.8934896923911,24500,2018-04-04 08:27:04,1818.8834566042822,53.900001724800006,0.0,0.48144001540608006,1818.8834566042822,53.900001724800006,1.007999165488,0.49350101579203204,1415,-25.8,98,P-GPS,
0.34971754921184495,36.8934897001518,24600,2018-04-04 08:27:04,1819.1834566138823,54.200001734400004,0.0,0.48000001536,1819.1834566138823,54.200001734400004,1.007999165488,0.49350101579203204,1416,-25.8,98,P-GPS,
0.349717546035972,36.893489685824,24700,2018-04-04 08:27:04,1819.3834566202825,54.40000174080001,0.0,0.48094801539033605,1819.3834566202825,54.40000174080001,1.007999165488,0.49350101579203204,1417,-25.8,98,P-GPS,
0.34971754298264,36.8934896859819,24800,2018-04-04 08:27:04,1819.5834566266824,54.6000017472,0.0,0.480708015382656,1819.5834566266824,54.6000017472,1.007999165488,0.49350101579203204,1418,-25.8,98,P-GPS,
0.34971755064976096,36.893489695163396,24900,2018-04-04 08:27:05,1819.8834566362823,54.9000017568,0.0,0.48051901537660807,1819.8834566362823,54.9000017568,1.007999165488,0.49350101579203204,1425,-25.8,98,P-GPS,
0.34971756390672,36.8934897296425,25000,2018-04-04 08:27:05,1819.9834566394823,55.00000176,0.0,0.4786750153176,1819.9834566394823,55.00000176,1.007999165488,0.49350101579203204,1436,-25.8,98,P-GPS,
0.349717581362826,36.893489755235706,25100,2018-04-04 08:27:05,1820.2834566490824,55.3000017696,0.0,0.4779000152928,1820.2834566490824,55.3000017696,1.007999165488,0.49350101579203204,1421,-25.8,98,P-GPS,
0.3497176040258811,36.893489788075705,25200,2018-04-04 08:27:05,1820.4834566554825,55.500001776,0.0,0.47696001526271997,1820.4834566554825,55.500001776,1.007999165488,0.49350101579203204,1420,-25.8,98,P-GPS,
0.349717636503364,36.893489784896005,25300,2018-04-04 08:27:05,1820.6834566618822,55.7000017824,0.0,0.479706015350592,1820.6834566618822,55.7000017824,1.007999165488,0.49350101579203204,1419,-25.8,98,P-GPS,
0.349717678922702,36.8934897754212,25400,2018-04-04 08:27:05,1820.8834566682824,55.900001788800004,0.0,0.4837350154795201,1820.8834566682824,55.900001788800004,1.007999165488,0.49350101579203204,1420,-25.8,98,P-GPS,
0.349717729346453,36.8934897695988,25500,2018-04-04 08:27:05,1821.0834566746823,56.10000179520001,0.0,0.48811001561952005,1821.0834566746823,56.10000179520001,1.007999165488,0.49350101579203204,1420,-25.8,98,P-GPS,
0.34971778411570603,36.893489805478794,25600,2018-04-04 08:27:05,1821.3834566842825,56.400001804800006,0.0,0.48957901566652806,1821.3834566842825,56.400001804800006,1.007999165488,0.49350101579203204,1420,-25.8,98,P-GPS,
0.349717847812904,36.8934898154219,25700,2018-04-04 08:27:05,1821.5834566906826,56.600001811199995,0.0,0.493869015803808,1821.5834566906826,56.600001811199995,1.007999165488,0.493869015803808,1421,-25.8,98,P-GPS,
0.34971792362226395,36.893489804739,25800,2018-04-04 08:27:05,1821.7834566970823,56.80000181760001,0.0,0.500779016024928,1821.7834566970823,56.80000181760001,1.007999165488,0.500779016024928,1422,-25.8,98,P-GPS,
0.349718005432441,36.8934897685994,25900,2018-04-04 08:27:06,1822.0834567066825,57.100001827199996,0.0,0.5101580163250561,1822.0834567066825,57.100001827199996,1.007999165488,0.5101580163250561,1419,-25.8,98,P-GPS,
0.34971809949788,36.893489740148794,26000,2018-04-04 08:27:06,1822.2834567130824,57.3000018336,0.0,0.51998001663936,1822.2834567130824,57.3000018336,1.007999165488,0.51998001663936,1419,-25.8,98,P-GPS,
0.34971821127468294,36.893489654277296,26100,2018-04-04 08:27:06,1822.4834567194823,57.50000184,0.0,0.5355960171390721,1822.4834567194823,57.50000184,1.007999165488,0.5355960171390721,1417,-25.8,98,P-GPS,
0.34971831630402805,36.8934895507655,26200,2018-04-04 08:27:06,1822.7834567290824,57.8000018496,0.0,0.5519840176634879,1822.7834567290824,57.8000018496,1.007999165488,0.5519840176634879,1417,-25.8,98,P-GPS,
0.34971840732183396,36.893489436779,26300,2018-04-04 08:27:06,1822.9834567354824,58.000001856,0.0,0.5680150181764799,1822.9834567354824,58.000001856,1.007999165488,0.5680150181764799,1414,-25.8,98,P-GPS,
0.34971848529539695,36.8934893590098,26400,2018-04-04 08:27:06,1823.1834567418825,58.2000018624,0.0,0.580252018568064,1823.1834567418825,58.2000018624,1.007999165488,0.580252018568064,1414,-25.8,98,P-GPS,
0.349718571693307,36.8934892447321,26500,2018-04-04 08:27:06,1823.4834567514824,58.500001872,0.0,0.595942019070144,1823.4834567514824,58.500001872,1.007999165488,0.595942019070144,1411,-25.8,98,P-GPS,
0.34971866120276696,36.8934891535365,26600,2018-04-04 08:27:06,1823.6834567578824,58.7000018784,0.0,0.610139019524448,1823.6834567578824,58.7000018784,1.007999165488,0.610139019524448,1409,-25.8,98,P-GPS,
0.349718744549788,36.8934890476786,26700,2018-04-04 08:27:06,1823.8834567642825,58.900001884800005,0.0,0.62495501999856,1823.8834567642825,58.900001884800005,1.007999165488,0.62495501999856,1406,-25.8,98,P-GPS,
0.34971882732156107,36.8934889748833,26800,2018-04-04 08:27:06,1824.0834567706825,59.1000018912,0.0,0.6372060203905922,1824.0834567706825,59.1000018912,1.007999165488,0.6372060203905922,1401,-25.8,98,P-GPS,
0.34971890403959305,36.8934888817858,26900,2018-04-04 08:27:07,1824.2834567770824,59.30000189760001,0.0,0.650516020816512,1824.2834567770824,59.30000189760001,1.007999165488,0.650516020816512,1401,-25.8,98,P-GPS,
0.349718960747305,36.8934888115284,27000,2018-04-04 08:27:07,1824.5834567866823,59.6000019072,0.0,0.660468021134976,1824.5834567866823,59.6000019072,1.007999165488,0.660468021134976,1400,-25.8,98,P-GPS,
0.34971901588194104,36.8934887239926,27100,2018-04-04 08:27:07,1824.7834567930825,59.800001913600006,0.0,0.671625021492,1824.7834567930825,59.800001913600006,1.007999165488,0.671625021492,1400,-25.8,98,P-GPS,
0.34971908159983395,36.8934886774859,27200,2018-04-04 08:27:07,1824.9834567994824,60.00000192,0.0,0.680481021775392,1824.9834567994824,60.00000192,1.007999165488,0.680481021775392,1398,-25.8,98,P-GPS,
0.34971915309096796,36.893488624921204,27300,2018-04-04 08:27:07,1825.1834568058823,60.2000019264,0.0,0.6902690220886081,1825.1834568058823,60.2000019264,1.007999165488,0.6902690220886081,1397,-25.8,98,P-GPS,
0.34971920755997704,36.893488599949,27400,2018-04-04 08:27:07,1825.4834568154824,60.500001936,0.0,0.6965750222904001,1825.4834568154824,60.500001936,1.007999165488,0.6965750222904001,1400,-25.8,98,P-GPS,
0.34971926795245095,36.893488548389,27500,2018-04-04 08:27:07,1825.6834568218824,60.7000019424,0.0,0.7053940225726081,1825.6834568218824,60.7000019424,1.007999165488,0.7053940225726081,1392,-25.8,98,P-GPS,
0.349719312622705,36.8934885051818,27600,2018-04-04 08:27:07,1825.8834568282825,60.9000019488,0.0,0.7123050227937601,1825.8834568282825,60.9000019488,1.007999165488,0.7123050227937601,1392,-25.8,98,P-GPS,
0.349719347980296,36.893488419252,27700,2018-04-04 08:27:07,1826.0834568346822,61.10000195520001,0.0,0.721737023095584,1826.0834568346822,61.10000195520001,1.007999165488,0.721737023095584,1413,-25.8,98,P-GPS,
0.349719380870386,36.8934883421321,27800,2018-04-04 08:27:07,1826.3834568442824,61.400001964800005,0.0,0.73031502337008,1826.3834568442824,61.400001964800005,1.007999165488,0.73031502337008,1408,-25.8,98,P-GPS,
0.3497194372092561,36.89348823781629,27900,2018-04-04 08:27:07,1826.5834568506825,61.6000019712,0.0,0.7428900237724799,1826.5834568506825,61.6000019712,1.007999165488,0.7428900237724799,1413,-25.8,98,P-GPS,
0.349719506364794,36.8934881672532,28000,2018-04-04 08:27:08,1826.7834568570825,61.80000197760001,0.0,0.7538750241240001,1826.7834568570825,61.80000197760001,1.007999165488,0.7538750241240001,1418,-25.8,98,P-GPS,
0.349719575168589,36.8934880955243,28100,2018-04-04 08:27:08,1826.9834568634824,62.000001984,0.0,0.764922024477504,1826.9834568634824,62.000001984,1.007999165488,0.764922024477504,1419,-25.8,98,P-GPS,
0.349719631146351,36.8934880758788,28200,2018-04-04 08:27:08,1827.1834568698823,62.200001990400004,0.0,0.7709060246689919,1827.1834568698823,62.200001990400004,1.007999165488,0.7709060246689919,1419,-25.8,98,P-GPS,
0.349719669910239,36.89348804497929,28300,2018-04-04 08:27:08,1827.4834568794824,62.50000200000001,0.0,0.7763930248445761,1827.4834568794824,62.50000200000001,1.007999165488,0.7763930248445761,1420,-25.8,98,P-GPS,
0.349719663498648,36.893488034837496,28400,2018-04-04 08:27:08,1827.6834568858822,62.7000020064,0.0,0.776667024853344,1827.6834568858822,62.7000020064,1.007999165488,0.776667024853344,1417,-25.8,98,P-GPS,
0.349719676078785,36.893488034707396,28500,2018-04-04 08:27:08,1827.8834568922823,62.9000020128,0.0,0.77768002488576,1827.8834568922823,62.9000020128,1.007999165488,0.77768002488576,1405,-25.8,98,P-GPS,
0.34971969876871006,36.8934880835395,28600,2018-04-04 08:27:08,1828.1834569018824,63.2000020224,0.0,0.7757320248234241,1828.1834569018824,63.2000020224,1.007999165488,0.77768002488576,1417,-25.8,98,P-GPS,
0.34971975432389096,36.8934881627808,28700,2018-04-04 08:27:08,1828.3834569082824,63.4000020288,0.0,0.7741840247738879,1828.3834569082824,63.4000020288,1.007999165488,0.77768002488576,1418,-25.8,98,P-GPS,
0.349719811039745,36.893488270568,28800,2018-04-04 08:27:08,1828.6834569178823,63.7000020384,0.35999970196000003,0.7707520246640639,1828.6834569178823,63.7000020384,1.007999165488,0.77768002488576,1417,-25.8,98,P-GPS,
0.34971989327168895,36.8934883793075,28900,2018-04-04 08:27:09,1828.8834569242824,63.900002044800004,0.35999970196000003,0.7696210246278721,1828.8834569242824,63.900002044800004,1.007999165488,0.77768002488576,1417,-25.8,98,P-GPS,
