latitude,longitude,time_millisecond,datetime_utc,altitude_m,ascent_m,speed_kph,distance_m,max_altitude_m,max_ascent_m,max_speed_kph,max_distance_m,rc_throttle,gimbal_pitch_degrees,battery_percent,flycState,message
0.274939067292446,36.8768544091374,100,2017-11-07 11:46:10,1799.1882899740187,0.0,0.0,0.0,1799.1882899740187,0.0,0.0,0.0,1024,0.0,100,Motors_Started,
0.274938880374351,36.8768545949268,200,2017-11-07 11:46:10,1799.1882899740187,0.0,0.0,0.0293077009378464,1799.1882899740187,0.0,0.0,0.0293077009378464,1024,0.0,100,Motors_Started,
0.274938667388736,36.8768547686354,300,2017-11-07 11:46:10,1799.1882899740187,0.0,0.0,0.0597994019135808,1799.1882899740187,0.0,0.0,0.0597994019135808,1024,0.0,100,Motors_Started,
0.274938483621681,36.8768549207465,400,2017-11-07 11:46:10,1799.1882899740187,0.0,0.0,0.08631270276200641,1799.1882899740187,0.0,0.0,0.08631270276200641,1024,0.0,100,Motors_Started,
0.274938320585328,36.8768550833691,500,2017-11-07 11:46:10,1799.1882899740187,0.0,0.0,0.11188000358016001,1799.1882899740187,0.0,0.0,0.11188000358016001,1024,0.0,100,Motors_Started,
0.27493817391097,36.8768552386786,600,2017-11-07 11:46:10,1799.1882899740187,0.0,0.0,0.135574004338368,1799.1882899740187,0.0,0.0,0.135574004338368,1024,0.0,100,Motors_Started,
0.274938020019959,36.8768553678959,700,2017-11-07 11:46:10,1799.1882899740187,0.0,0.0,0.157896005052672,1799.1882899740187,0.0,0.0,0.157896005052672,772,0.0,100,Motors_Started,
0.274937870682281,36.8768554940296,800,2017-11-07 11:46:10,1799.1882899740187,0.0,0.0,0.179619005747808,1799.1882899740187,0.0,0.0,0.179619005747808,772,0.0,100,Motors_Started,
0.274937747538125,36.8768555948167,900,2017-11-07 11:46:10,1799.1882899740187,0.0,0.0,0.19729500631344002,1799.1882899740187,0.0,0.0,0.19729500631344002,1024,0.0,100,Motors_Started,Setting new Return-To-Home altitude to 30m (98 ft). Setting new Maximum Flight Altitude to 100m (328 ft)
0.274937625693874,36.8768557030267,1000,2017-11-07 11:46:10,1799.1882899740187,0.0,0.0,0.215416006893312,1799.1882899740187,0.0,0.0,0.215416006893312,1024,0.0,100,Motors_Started,
0.274937530647908,36.8768557892991,1100,2017-11-07 11:46:11,1799.1882899740187,0.0,0.0,0.22969000735008002,1799.1882899740187,0.0,0.0,0.22969000735008002,1024,0.0,100,Motors_Started,
0.274937447629426,36.876855863013,1200,2017-11-07 11:46:11,1799.1882899740187,0.0,0.0,0.24203700774518402,1799.1882899740187,0.0,0.0,0.24203700774518402,1024,0.0,100,Motors_Started,
0.274937373640666,36.8768559363742,1300,2017-11-07 11:46:11,1799.1882899740187,0.0,0.0,0.25361000811552,1799.1882899740187,0.0,0.0,0.25361000811552,1024,0.0,100,Motors_Started,
0.274937276321188,36.8768560268807,1400,2017-11-07 11:46:11,1799.1882899740187,0.0,0.0,0.26838700858838405,1799.1882899740187,0.0,0.0,0.26838700858838405,1024,0.0,100,Motors_Started,
0.274937190538016,36.876856119624,1500,2017-11-07 11:46:11,1799.1882899740187,0.0,0.0,0.282383009036256,1799.1882899740187,0.0,0.0,0.282383009036256,1024,0.0,100,Assisted_Takeoff,
0.2749371016551,36.8768562036878,1600,2017-11-07 11:46:11,1799.1882899740187,0.0,0.0,0.29598500947152,1799.1882899740187,0.0,0.0,0.29598500947152,1024,0.0,100,Assisted_Takeoff,
0.274937053323696,36.8768562580282,1700,2017-11-07 11:46:11,1799.1882899740187,0.0,0.0,0.30403000972896,1799.1882899740187,0.0,0.0,0.30403000972896,1024,0.0,100,Assisted_Takeoff,
0.274936995051049,36.8768563241222,1800,2017-11-07 11:46:11,1799.1882899740187,0.0,0.0,0.313776010040832,1799.1882899740187,0.0,0.0,0.313776010040832,1033,0.0,100,Assisted_Takeoff,
0.274936972837037,36.8768563497616,1900,2017-11-07 11:46:11,1799.1882899740187,0.0,0.0,0.317526010160832,1799.1882899740187,0.0,0.0,0.317526010160832,1148,0.0,100,Assisted_Takeoff,
0.274936930539019,36.8768564053953,2000,2017-11-07 11:46:11,1799.1882899740187,0.0,0.0,0.325184010405888,1799.1882899740187,0.0,0.0,0.325184010405888,1325,0.0,100,Assisted_Takeoff,
0.274936917888451,36.8768564255975,2100,2017-11-07 11:46:12,1799.1882899740187,0.0,0.0,0.327746010487872,1799.1882899740187,0.0,0.0,0.327746010487872,1481,0.0,100,Assisted_Takeoff,
0.274936886753823,36.8768564706107,2200,2017-11-07 11:46:12,1799.1882899740187,0.0,0.0,0.333698010678336,1799.1882899740187,0.0,0.0,0.333698010678336,1684,0.0,100,Assisted_Takeoff,
0.274936873879345,36.8768564876163,2300,2017-11-07 11:46:12,1799.1882899740187,0.0,0.0,0.33603801075321604,1799.1882899740187,0.0,0.0,0.33603801075321604,1684,0.0,100,Assisted_Takeoff,
0.274936840252384,36.8768565308141,2400,2017-11-07 11:46:12,1799.1882899740187,0.0,0.0,0.342058010945856,1799.1882899740187,0.0,0.0,0.342058010945856,1684,0.0,100,Assisted_Takeoff,
0.274936788126299,36.8768566085031,2500,2017-11-07 11:46:12,1799.1882899740187,0.0,0.0,0.352221011271072,1799.1882899740187,0.0,0.0,0.352221011271072,1684,0.0,100,Assisted_Takeoff,
0.274936681106995,36.8768566731867,2600,2017-11-07 11:46:12,1799.1882899740187,0.0,0.0,0.365793011705376,1799.1882899740187,0.0,0.0,0.365793011705376,1684,0.0,100,GPS_Atti,
0.27493653784097,36.8768566597099,2700,2017-11-07 11:46:12,1799.1882899740187,0.0,0.35999970196000003,0.376512012048384,1799.1882899740187,0.0,0.35999970196000003,0.376512012048384,1684,0.0,100,GPS_Atti,
0.274936348988284,36.8768566009924,2800,2017-11-07 11:46:12,1799.2882899772185,0.1000000032,0.5075995797636,0.38831901242620803,1799.2882899772185,0.1000000032,0.5075995797636,0.38831901242620803,1684,0.0,100,GPS_Atti,
0.274936145944116,36.8768564833916,2900,2017-11-07 11:46:12,1799.3882899804184,0.2000000064,0.8063993323904,0.39843301274985604,1799.3882899804184,0.2000000064,0.8063993323904,0.39843301274985604,1684,0.0,100,GPS_Atti,
0.274935881198205,36.876856353426,3000,2017-11-07 11:46:12,1799.4882899836186,0.3000000096,0.8063993323904,0.41507401328236804,1799.4882899836186,0.3000000096,0.8063993323904,0.41507401328236804,1684,0.0,100,GPS_Atti,Home Point Recorded. RTH Altitude:  30m.
0.274935558577394,36.8768561693357,3100,2017-11-07 11:46:13,1799.6882899900186,0.500000016,1.1375990581936,0.43653601396915204,1799.6882899900186,0.500000016,1.1375990581936,0.43653601396915204,1684,0.0,100,GPS_Atti,
0.274935193334097,36.8768559862647,3200,2017-11-07 11:46:13,1799.8882899964187,0.7000000224,1.1375990581936,0.46514001488448004,1799.8882899964187,0.7000000224,1.1375990581936,0.46514001488448004,1684,0.0,100,GPS_Atti,
0.274934811936635,36.8768558207164,3300,2017-11-07 11:46:13,1800.1882900060189,1.000000032,1.2995989240756,0.498578015954496,1800.1882900060189,1.000000032,1.2995989240756,0.498578015954496,1684,0.0,100,GPS_Atti,
0.274934482713298,36.8768556097087,3400,2017-11-07 11:46:13,1800.4882900156185,1.3000000416000002,1.2995989240756,0.5270240168647681,1800.4882900156185,1.3000000416000002,1.2995989240756,0.5270240168647681,1684,0.0,100,GPS_Atti,
0.274934177422389,36.8768554108327,3500,2017-11-07 11:46:13,1800.8882900284186,1.7000000544000002,1.2995989240756,0.555076017762432,1800.8882900284186,1.7000000544000002,1.2995989240756,0.555076017762432,1684,0.0,100,GPS_Atti,
0.274933797260916,36.8768552454616,3600,2017-11-07 11:46:13,1801.3882900444187,2.2000000704000002,1.6091986677612,0.593393018988576,1801.3882900444187,2.2000000704000002,1.6091986677612,0.593393018988576,1684,0.0,100,GPS_Atti,
0.274933307010523,36.8768551012674,3700,2017-11-07 11:46:13,1801.7882900572188,2.6000000832000003,1.6091986677612,0.645186020645952,1801.7882900572188,2.6000000832000003,1.6091986677612,0.645186020645952,1684,0.0,100,GPS_Atti,
0.274932830277029,36.8768549524716,3800,2017-11-07 11:46:13,1802.2882900732186,3.1000000992000003,1.6091986677612,0.696221022279072,1802.2882900732186,3.1000000992000003,1.6091986677612,0.696221022279072,1684,0.0,100,GPS_Atti,
0.274932331908842,36.8768548605166,3900,2017-11-07 11:46:13,1802.7882900892187,3.6000001152000003,1.2995989240756,0.7506960240222721,1802.7882900892187,3.6000001152000003,1.6091986677612,0.7506960240222721,1684,0.0,100,GPS_Atti,
0.274931453769603,36.8768544940246,4100,2017-11-07 11:46:14,1803.7882901212186,4.6000001472,1.2995989240756,0.846723027095136,1803.7882901212186,4.6000001472,1.6091986677612,0.846723027095136,1684,0.0,100,GPS_Atti,
0.27493098105918,36.8768541899377,4200,2017-11-07 11:46:14,1804.2882901372186,5.1000001632,1.5263987363104,0.899569028786208,1804.2882901372186,5.1000001632,1.6091986677612,0.899569028786208,1684,0.0,100,GPS_Atti,
0.274930389366496,36.876853850922,4300,2017-11-07 11:46:14,1804.8882901564186,5.7000001824,1.7999985098000002,0.9670330309450561,1804.8882901564186,5.7000001824,1.7999985098000002,0.9670330309450561,1684,0.0,100,GPS_Atti,
0.274929805238749,36.8768535593791,4400,2017-11-07 11:46:14,1805.3882901724187,6.200000198400001,1.6091986677612,1.03432003309824,1805.3882901724187,6.200000198400001,1.7999985098000002,1.03432003309824,1684,0.0,100,GPS_Atti,
0.274929212982624,36.8768533149975,4500,2017-11-07 11:46:14,1805.8882901884185,6.7000002144,1.6091986677612,1.1025900352828801,1805.8882901884185,6.7000002144,1.7999985098000002,1.1025900352828801,1684,0.0,100,GPS_Atti,
0.274928658661102,36.8768531164466,4600,2017-11-07 11:46:14,1806.3882902044188,7.200000230400001,1.6091986677612,1.1664000373248,1806.3882902044188,7.200000230400001,1.7999985098000002,1.1664000373248,1684,0.0,100,GPS_Atti,
0.274928080160443,36.8768528530785,4700,2017-11-07 11:46:14,1806.8882902204186,7.7000002464,1.7999985098000002,1.23403003948896,1806.8882902204186,7.7000002464,1.7999985098000002,1.23403003948896,1684,0.0,100,GPS_Atti,
0.274927537616642,36.8768525879007,4800,2017-11-07 11:46:14,1807.4882902396187,8.300000265600001,1.7999985098000002,1.29807004153824,1807.4882902396187,8.300000265600001,1.7999985098000002,1.29807004153824,1684,0.0,100,GPS_Atti,
0.274927001920448,36.8768523197245,4900,2017-11-07 11:46:14,1807.9882902556187,8.800000281600001,1.7999985098000002,1.36171004357472,1807.9882902556187,8.800000281600001,1.7999985098000002,1.36171004357472,1684,0.0,100,GPS_Atti,
0.274926471070503,36.8768520744675,5000,2017-11-07 11:46:14,1808.4882902716186,9.3000002976,1.7999985098000002,1.42463004558816,1808.4882902716186,9.3000002976,1.7999985098000002,1.42463004558816,1684,0.0,100,GPS_Atti,
0.274925971950789,36.8768518643417,5100,2017-11-07 11:46:15,1808.9882902876188,9.8000003136,1.6091986677612,1.48352004747264,1808.9882902876188,9.8000003136,1.7999985098000002,1.48352004747264,1684,0.0,100,GPS_Atti,
0.274925476583011,36.8768516879818,5200,2017-11-07 11:46:15,1809.4882903036187,10.3000003296,1.6091986677612,1.54137004932384,1809.4882903036187,10.3000003296,1.7999985098000002,1.54137004932384,1684,0.0,100,GPS_Atti,
0.274925041492087,36.8768515763683,5300,2017-11-07 11:46:15,1809.9882903196185,10.8000003456,1.6091986677612,1.5912500509200003,1809.9882903196185,10.8000003456,1.7999985098000002,1.5912500509200003,1684,0.0,100,GPS_Atti,
0.274924624304276,36.8768514651605,5400,2017-11-07 11:46:15,1810.5882903388188,11.4000003648,1.5263987363104,1.63917005245344,1810.5882903388188,11.4000003648,1.7999985098000002,1.63917005245344,1684,0.0,100,GPS_Atti,
0.274924264906686,36.8768513871333,5500,2017-11-07 11:46:15,1811.0882903548186,11.9000003808,1.5263987363104,1.68007005376224,1811.0882903548186,11.9000003808,1.7999985098000002,1.68007005376224,1684,0.0,100,GPS_Atti,
0.274923886791761,36.8768512981063,5600,2017-11-07 11:46:15,1811.5882903708186,12.400000396800001,1.2995989240756,1.7232500551440002,1811.5882903708186,12.400000396800001,1.7999985098000002,1.7232500551440002,1684,0.0,100,GPS_Atti,
0.27492355394595,36.8768512875549,5700,2017-11-07 11:46:15,1812.1882903900187,13.000000416,1.6091986677612,1.7597600563123201,1812.1882903900187,13.000000416,1.7999985098000002,1.7597600563123201,1684,0.0,100,GPS_Atti,
0.274923189809588,36.8768512901781,5800,2017-11-07 11:46:15,1812.6882904060185,13.500000432,1.6091986677612,1.79942005758144,1812.6882904060185,13.500000432,1.7999985098000002,1.79942005758144,1684,0.0,100,GPS_Atti,
0.274922871502525,36.8768513605217,5900,2017-11-07 11:46:15,1813.2882904252187,14.100000451200001,1.4831987720752,1.8327000586464002,1813.2882904252187,14.100000451200001,1.7999985098000002,1.8327000586464002,1684,0.0,100,GPS_Atti,
0.274922537752928,36.8768514447845,6000,2017-11-07 11:46:15,1813.7882904412186,14.600000467200001,1.1375990581936,1.8675100597603203,1813.7882904412186,14.600000467200001,1.7999985098000002,1.8675100597603203,1684,0.0,100,GPS_Atti,
0.27492223891717,36.8768515671496,6100,2017-11-07 11:46:16,1814.2882904572186,15.1000004832,1.07999910588,1.89792006073344,1814.2882904572186,15.1000004832,1.7999985098000002,1.89792006073344,1684,0.0,100,GPS_Atti,
0.27492192864485,36.8768516918523,6200,2017-11-07 11:46:16,1814.8882904764187,15.700000502400002,1.07999910588,1.9297300617513602,1814.8882904764187,15.700000502400002,1.7999985098000002,1.9297300617513602,1684,0.0,100,GPS_Atti,
0.274921600436848,36.8768518378883,6300,2017-11-07 11:46:16,1815.3882904924185,16.2000005184,1.07999910588,1.9633500628272,1815.3882904924185,16.2000005184,1.7999985098000002,1.9633500628272,1684,0.0,100,GPS_Atti,
0.274920930859759,36.8768520791385,6500,2017-11-07 11:46:16,1816.4882905276186,17.3000005536,1.07999910588,2.03346006507072,1816.4882905276186,17.3000005536,1.7999985098000002,2.03346006507072,1684,0.0,100,GPS_Atti,
0.274920630761957,36.8768521846856,6600,2017-11-07 11:46:16,1816.9882905436186,17.8000005696,1.07999910588,2.06512006608384,1816.9882905436186,17.8000005696,1.7999985098000002,2.06512006608384,1684,0.0,100,GPS_Atti,
0.274920348998806,36.876852288225,6700,2017-11-07 11:46:16,1817.5882905628187,18.4000005888,1.07999910588,2.0949100670371203,1817.5882905628187,18.4000005888,1.7999985098000002,2.0949100670371203,1684,0.0,100,GPS_Atti,
0.274920061259265,36.8768523931833,6800,2017-11-07 11:46:16,1818.0882905788185,18.900000604800002,1.07999910588,2.12544006801408,1818.0882905788185,18.900000604800002,1.7999985098000002,2.12544006801408,1684,0.0,100,GPS_Atti,
0.274919778939186,36.8768525306356,6900,2017-11-07 11:46:16,1818.6882905980187,19.500000624000002,1.07999910588,2.1551300689641604,1818.6882905980187,19.500000624000002,1.7999985098000002,2.1551300689641604,1684,0.0,100,GPS_Atti,
0.274919492308616,36.8768526592076,7000,2017-11-07 11:46:16,1819.2882906172185,20.1000006432,1.07999910588,2.18554006993728,1819.2882906172185,20.1000006432,1.7999985098000002,2.18554006993728,1684,0.0,100,GPS_Atti,
0.274919203569211,36.8768527730379,7100,2017-11-07 11:46:17,1819.7882906332188,20.6000006592,1.07999910588,2.2164500709264,1819.7882906332188,20.6000006592,1.7999985098000002,2.2164500709264,1684,0.0,100,GPS_Atti,
0.274918915886666,36.8768528643425,7200,2017-11-07 11:46:17,1820.3882906524186,21.200000678400002,1.07999910588,2.24753007192096,1820.3882906524186,21.200000678400002,1.7999985098000002,2.24753007192096,1684,0.0,100,GPS_Atti,
0.274918636458704,36.8768529522186,7300,2017-11-07 11:46:17,1820.9882906716186,21.8000006976,0.7199994039200001,2.2778000728896,1820.9882906716186,21.8000006976,1.7999985098000002,2.2778000728896,1684,0.0,100,GPS_Atti,
0.27491835523294,36.8768530284847,7400,2017-11-07 11:46:17,1821.4882906876187,22.300000713600003,1.07999910588,2.30842007386944,1821.4882906876187,22.300000713600003,1.7999985098000002,2.30842007386944,1684,0.0,100,GPS_Atti,
0.274918086059289,36.8768531007875,7500,2017-11-07 11:46:17,1822.0882907068187,22.900000732800002,1.07999910588,2.33777007480864,1822.0882907068187,22.900000732800002,1.7999985098000002,2.33777007480864,1684,0.0,100,GPS_Atti,
0.274917808679909,36.8768531610513,7600,2017-11-07 11:46:17,1822.6882907260185,23.500000752000002,1.07999910588,2.36816007578112,1822.6882907260185,23.500000752000002,1.7999985098000002,2.36816007578112,1684,0.0,100,GPS_Atti,
0.27491753579015,36.8768532245515,7700,2017-11-07 11:46:17,1823.1882907420188,24.000000768000003,0.7199994039200001,2.39806007673792,1823.1882907420188,24.000000768000003,1.7999985098000002,2.39806007673792,1684,0.0,100,GPS_Atti,
0.274917275160945,36.876853263297,7800,2017-11-07 11:46:17,1823.7882907612186,24.600000787200003,0.7199994039200001,2.42677007765664,1823.7882907612186,24.600000787200003,1.7999985098000002,2.42677007765664,1684,0.0,100,GPS_Atti,
0.274917054014993,36.8768532870758,7900,2017-11-07 11:46:17,1824.288290777219,25.100000803200004,0.7199994039200001,2.4511900784380805,1824.288290777219,25.100000803200004,1.7999985098000002,2.4511900784380805,1684,0.0,100,GPS_Atti,
0.274916853566565,36.8768533045989,8000,2017-11-07 11:46:17,1824.8882907964187,25.7000008224,0.7199994039200001,2.4733500791472,1824.8882907964187,25.7000008224,1.7999985098000002,2.4733500791472,1684,0.0,100,GPS_Atti,
0.274916684193733,36.8768533444511,8100,2017-11-07 11:46:18,1825.3882908124185,26.200000838400005,0.35999970196000003,2.4919500797424003,1825.3882908124185,26.200000838400005,1.7999985098000002,2.4919500797424003,1684,0.0,100,GPS_Atti,
0.274916529455727,36.8768533733785,8200,2017-11-07 11:46:18,1825.9882908316188,26.8000008576,0.35999970196000003,2.50899008028768,1825.9882908316188,26.8000008576,1.7999985098000002,2.50899008028768,1684,0.0,100,GPS_Atti,
0.27491642943344,36.8768534143964,8300,2017-11-07 11:46:18,1826.4882908476186,27.3000008736,0.35999970196000003,2.5199000806367997,1826.4882908476186,27.3000008736,1.7999985098000002,2.5199000806367997,1684,0.0,100,GPS_Atti,
0.27491632066478,36.876853455983,8400,2017-11-07 11:46:18,1827.0882908668186,27.9000008928,0.35999970196000003,2.53178008101696,1827.0882908668186,27.9000008928,1.7999985098000002,2.53178008101696,1684,0.0,100,GPS_Atti,
0.274916219237146,36.8768535426394,8500,2017-11-07 11:46:18,1827.5882908828187,28.4000009088,0.35999970196000003,2.54267008136544,1827.5882908828187,28.4000009088,1.7999985098000002,2.54267008136544,1684,0.0,100,GPS_Atti,
0.27491611118663,36.8768536120749,8600,2017-11-07 11:46:18,1828.1882909020187,29.000000928000002,0.35999970196000003,2.5544000817408,1828.1882909020187,29.000000928000002,1.7999985098000002,2.5544000817408,1684,0.0,100,GPS_Atti,
0.274916046000017,36.8768537136809,8700,2017-11-07 11:46:18,1828.6882909180188,29.500000944,0.0,2.5612800819609602,1828.6882909180188,29.500000944,1.7999985098000002,2.5612800819609602,1684,0.0,100,GPS_Atti,
0.274916000172346,36.8768537900484,8800,2017-11-07 11:46:18,1829.1882909340186,30.00000096,0.0,2.56613008211616,1829.1882909340186,30.00000096,1.7999985098000002,2.56613008211616,1684,0.0,100,GPS_Atti,
0.274916005456647,36.876853898101,8900,2017-11-07 11:46:18,1829.7882909532186,30.6000009792,0.0,2.5652500820879998,1829.7882909532186,30.6000009792,1.7999985098000002,2.56613008211616,1684,0.0,100,GPS_Atti,
0.274915989774731,36.8768539577251,9000,2017-11-07 11:46:18,1830.3882909724184,31.2000009984,0.0,2.5668500821392004,1830.3882909724184,31.2000009984,1.7999985098000002,2.5668500821392004,1684,0.0,100,GPS_Atti,
0.274915972907308,36.8768539825309,9100,2017-11-07 11:46:19,1830.8882909884187,31.7000010144,0.0,2.56867008219744,1830.8882909884187,31.7000010144,1.7999985098000002,2.56867008219744,1684,0.0,100,GPS_Atti,
0.27491591375408,36.8768539753835,9200,2017-11-07 11:46:19,1831.4882910076185,32.3000010336,0.35999970196000003,2.57527008240864,1831.4882910076185,32.3000010336,1.7999985098000002,2.57527008240864,1684,0.0,100,GPS_Atti,
0.274915875832504,36.8768540070684,9300,2017-11-07 11:46:19,1831.9882910236188,32.800001049600006,0.35999970196000003,2.57942008254144,1831.9882910236188,32.800001049600006,1.7999985098000002,2.57942008254144,1684,0.0,100,GPS_Atti,
0.274915825875099,36.8768540391098,9400,2017-11-07 11:46:19,1832.5882910428186,33.4000010688,0.35999970196000003,2.58491008271712,1832.5882910428186,33.4000010688,1.7999985098000002,2.58491008271712,1684,0.0,100,GPS_Atti,
0.274915800529997,36.8768540910074,9500,2017-11-07 11:46:19,1833.0882910588184,33.9000010848,0.0,2.5876500828048004,1833.0882910588184,33.9000010848,1.7999985098000002,2.5876500828048004,1684,0.0,100,GPS_Atti,
0.274915773895167,36.87685413272,9600,2017-11-07 11:46:19,1833.5882910748187,34.4000011008,0.0,2.5905500828976002,1833.5882910748187,34.4000011008,1.7999985098000002,2.5905500828976002,1684,0.0,100,GPS_Atti,
0.274915770674105,36.8768541600125,9700,2017-11-07 11:46:19,1834.0882910908185,34.900001116800006,0.0,2.59087008290784,1834.0882910908185,34.900001116800006,1.7999985098000002,2.59087008290784,1684,0.0,100,GPS_Atti,
0.274915747556714,36.8768541578332,9800,2017-11-07 11:46:19,1834.6882911100188,35.500001136,0.0,2.5934500829904,1834.6882911100188,35.500001136,1.7999985098000002,2.5934500829904,1684,0.0,100,GPS_Atti,
0.274915763411245,36.8768541443581,9900,2017-11-07 11:46:19,1835.1882911260186,36.000001152,0.0,2.5917000829344,1835.1882911260186,36.000001152,1.7999985098000002,2.5934500829904,1684,0.0,100,GPS_Atti,
0.274915765871824,36.876854122748,10000,2017-11-07 11:46:19,1835.7882911452189,36.6000011712,0.0,2.5914600829267203,1835.7882911452189,36.6000011712,1.7999985098000002,2.5934500829904,1684,0.0,100,GPS_Atti,
0.274915800901282,36.8768541058932,10100,2017-11-07 11:46:20,1836.2882911612187,37.10000118720001,0.0,2.5875800828025604,1836.2882911612187,37.10000118720001,1.7999985098000002,2.5934500829904,1684,0.0,100,GPS_Atti,
0.274915820027357,36.8768540873216,10200,2017-11-07 11:46:20,1836.7882911772185,37.6000012032,0.0,2.58549008273568,1836.7882911772185,37.6000012032,1.7999985098000002,2.5934500829904,1684,0.0,100,GPS_Atti,
0.274915895284268,36.8768540415678,10300,2017-11-07 11:46:20,1837.2882911932186,38.1000012192,0.0,2.5771900824700804,1837.2882911932186,38.1000012192,1.7999985098000002,2.5934500829904,1684,0.0,100,GPS_Atti,
0.27491596219866,36.8768539844342,10400,2017-11-07 11:46:20,1837.8882912124186,38.7000012384,0.0,2.56986008223552,1837.8882912124186,38.7000012384,1.7999985098000002,2.5934500829904,1684,0.0,100,GPS_Atti,
0.274916061102206,36.8768539409138,10500,2017-11-07 11:46:20,1838.3882912284187,39.2000012544,0.0,2.5589600818867204,1838.3882912284187,39.2000012544,1.7999985098000002,2.5934500829904,1684,0.0,100,GPS_Atti,
0.274916127630657,36.8768539103747,10600,2017-11-07 11:46:20,1838.8882912444187,39.7000012704,0.0,2.55163008165216,1838.8882912444187,39.7000012704,1.7999985098000002,2.5934500829904,1684,0.0,100,GPS_Atti,
0.274916204426448,36.8768539278045,10700,2017-11-07 11:46:20,1839.3882912604186,40.2000012864,0.0,2.5430500813776002,1839.3882912604186,40.2000012864,1.7999985098000002,2.5934500829904,1684,0.0,100,GPS_Atti,
0.274916247221956,36.8768539661724,10800,2017-11-07 11:46:20,1839.8882912764186,40.700001302400004,0.0,2.53821008122272,1839.8882912764186,40.700001302400004,1.7999985098000002,2.5934500829904,1684,0.0,100,GPS_Atti,
0.274916326129838,36.8768539930398,10900,2017-11-07 11:46:20,1840.3882912924187,41.2000013184,0.0,2.52938008094016,1840.3882912924187,41.2000013184,1.7999985098000002,2.5934500829904,1684,0.0,99,GPS_Atti,
0.274916371840261,36.8768539940366,11000,2017-11-07 11:46:20,1840.8882913084187,41.7000013344,0.0,2.52429008077728,1840.8882913084187,41.7000013344,1.7999985098000002,2.5934500829904,1684,0.0,99,GPS_Atti,
0.274916456773387,36.8768540009274,11100,2017-11-07 11:46:21,1841.3882913244186,42.2000013504,0.0,2.5148400804748805,1841.3882913244186,42.2000013504,1.7999985098000002,2.5934500829904,1684,0.0,99,GPS_Atti,
0.274916515574871,36.8768539981154,11200,2017-11-07 11:46:21,1841.9882913436188,42.800001369600004,0.0,2.50831008026592,1841.9882913436188,42.800001369600004,1.7999985098000002,2.5934500829904,1684,0.0,99,GPS_Atti,
0.274916580914558,36.8768539704726,11300,2017-11-07 11:46:21,1842.4882913596186,43.300001385600005,0.0,2.5011000800352,1842.4882913596186,43.300001385600005,1.7999985098000002,2.5934500829904,1684,0.0,99,GPS_Atti,
0.274916616882,36.8768539416339,11400,2017-11-07 11:46:21,1842.9882913756185,43.80000140160001,0.0,2.4971600799091203,1842.9882913756185,43.80000140160001,1.7999985098000002,2.5934500829904,1684,0.0,99,GPS_Atti,
0.274916710571269,36.8768539303792,11500,2017-11-07 11:46:21,1843.4882913916188,44.30000141760001,0.0,2.4867700795766403,1843.4882913916188,44.30000141760001,1.7999985098000002,2.5934500829904,1684,0.0,99,GPS_Atti,
0.274916780397319,36.8768539246242,11600,2017-11-07 11:46:21,1844.0882914108186,44.900001436800004,0.0,2.47902007932864,1844.0882914108186,44.900001436800004,1.7999985098000002,2.5934500829904,1684,0.0,99,GPS_Atti,
0.274916855660744,36.8768538988803,11700,2017-11-07 11:46:21,1844.5882914268188,45.4000014528,0.0,2.4707200790630397,1844.5882914268188,45.4000014528,1.7999985098000002,2.5934500829904,1684,0.0,99,GPS_Atti,
0.274916894790624,36.8768538682218,11800,2017-11-07 11:46:21,1845.0882914428187,45.9000014688,0.0,2.4664500789264,1845.0882914428187,45.9000014688,1.7999985098000002,2.5934500829904,1684,0.0,99,GPS_Atti,
0.274916982439994,36.8768538404357,11900,2017-11-07 11:46:21,1845.5882914588185,46.4000014848,0.0,2.4567800786169602,1845.5882914588185,46.4000014848,1.7999985098000002,2.5934500829904,1684,0.0,99,GPS_Atti,
0.274917048364292,36.8768538158999,12000,2017-11-07 11:46:21,1846.1882914780188,47.000001504000004,0.0,2.44953007838496,1846.1882914780188,47.000001504000004,1.7999985098000002,2.5934500829904,1684,0.0,99,GPS_Atti,
0.27491715000851,36.8768537762886,12100,2017-11-07 11:46:22,1846.6882914940186,47.500001520000005,0.0,2.4383500780272,1846.6882914940186,47.500001520000005,1.7999985098000002,2.5934500829904,1684,0.0,99,GPS_Atti,
0.27491722817545,36.8768537373303,12200,2017-11-07 11:46:22,1847.2882915132188,48.1000015392,0.0,2.4297900777532804,1847.2882915132188,48.1000015392,1.7999985098000002,2.5934500829904,1684,0.0,99,GPS_Atti,
0.274917356050643,36.8768536747588,12300,2017-11-07 11:46:22,1847.7882915292187,48.6000015552,0.0,2.4158000773056,1847.7882915292187,48.6000015552,1.7999985098000002,2.5934500829904,1684,0.0,99,GPS_Atti,
0.274917456553322,36.8768536186854,12400,2017-11-07 11:46:22,1848.2882915452185,49.1000015712,0.0,2.4048500769552,1848.2882915452185,49.1000015712,1.7999985098000002,2.5934500829904,1684,0.0,99,GPS_Atti,
0.274917560421994,36.8768535464914,12500,2017-11-07 11:46:22,1848.7882915612186,49.600001587200005,0.0,2.39362007659584,1848.7882915612186,49.600001587200005,1.7999985098000002,2.5934500829904,1684,0.0,99,GPS_Atti,
0.274917620897518,36.8768534711458,12600,2017-11-07 11:46:22,1849.2882915772186,50.1000016032,0.0,2.387250076392,1849.2882915772186,50.1000016032,1.7999985098000002,2.5934500829904,1684,0.0,99,GPS_Atti,
0.274917698007598,36.8768534083668,12700,2017-11-07 11:46:22,1849.7882915932187,50.6000016192,0.35999970196000003,2.379000076128,1849.7882915932187,50.6000016192,1.7999985098000002,2.5934500829904,1684,0.0,99,GPS_Atti,
0.274917745453943,36.8768533522083,12800,2017-11-07 11:46:22,1850.2882916092185,51.1000016352,0.0,2.37403007596896,1850.2882916092185,51.1000016352,1.7999985098000002,2.5934500829904,1684,0.0,99,GPS_Atti,
0.274917828729312,36.8768532620768,12900,2017-11-07 11:46:22,1850.7882916252188,51.6000016512,0.0,2.3653000756896,1850.7882916252188,51.6000016512,1.7999985098000002,2.5934500829904,1684,0.0,99,GPS_Atti,
0.274917887498227,36.8768531822632,13000,2017-11-07 11:46:22,1851.2882916412186,52.1000016672,0.0,2.35927007549664,1851.2882916412186,52.1000016672,1.7999985098000002,2.5934500829904,1684,0.0,99,GPS_Atti,
0.274917969527837,36.876853131363,13100,2017-11-07 11:46:23,1851.7882916572185,52.6000016832,0.0,2.3505000752160004,1851.7882916572185,52.6000016832,1.7999985098000002,2.5934500829904,1684,0.0,99,GPS_Atti,
0.274918032398802,36.8768531120431,13200,2017-11-07 11:46:23,1852.3882916764187,53.2000017024,0.0,2.3436500749968,1852.3882916764187,53.2000017024,1.7999985098000002,2.5934500829904,1684,0.0,99,GPS_Atti,
0.274918140605649,36.8768530883558,13300,2017-11-07 11:46:23,1852.8882916924185,53.7000017184,0.0,2.3318100746179202,1852.8882916924185,53.7000017184,1.7999985098000002,2.5934500829904,1684,0.0,99,GPS_Atti,
0.274918225317306,36.8768530709603,13400,2017-11-07 11:46:23,1853.3882917084188,54.200001734400004,0.0,2.32253007432096,1853.3882917084188,54.200001734400004,1.7999985098000002,2.5934500829904,1684,0.0,99,GPS_Atti,
0.274918309271736,36.8768530476507,13500,2017-11-07 11:46:23,1853.7882917212187,54.6000017472,0.0,2.31338007402816,1853.7882917212187,54.6000017472,1.7999985098000002,2.5934500829904,1684,0.0,99,GPS_Atti,
0.274918352811443,36.8768530395641,13600,2017-11-07 11:46:23,1854.2882917372187,55.1000017632,0.0,2.30861007387552,1854.2882917372187,55.1000017632,1.7999985098000002,2.5934500829904,1684,0.0,99,GPS_Atti,
0.274918412731669,36.8768530331114,13700,2017-11-07 11:46:23,1854.7882917532186,55.6000017792,0.0,2.3020000736640003,1854.7882917532186,55.6000017792,1.7999985098000002,2.5934500829904,1684,0.0,99,GPS_Atti,
0.274918463547264,36.87685303822,13800,2017-11-07 11:46:23,1855.2882917692186,56.10000179520001,0.0,2.2963300734825602,1855.2882917692186,56.10000179520001,1.7999985098000002,2.5934500829904,1684,0.0,99,GPS_Atti,
0.274918529552984,36.876853010487,13900,2017-11-07 11:46:23,1855.7882917852187,56.60000181120001,0.0,2.2892100732547203,1855.7882917852187,56.60000181120001,1.7999985098000002,2.5934500829904,1684,0.0,99,GPS_Atti,
0.274918556446737,36.876852974752,14000,2017-11-07 11:46:23,1856.2882918012185,57.100001827199996,0.0,2.286500073168,1856.2882918012185,57.100001827199996,1.7999985098000002,2.5934500829904,1684,0.0,99,GPS_Atti,
0.274918593756017,36.8768529318718,14100,2017-11-07 11:46:24,1856.7882918172186,57.600001843200005,0.0,2.2827000730464,1856.7882918172186,57.600001843200005,1.7999985098000002,2.5934500829904,1684,0.0,99,GPS_Atti,
0.274918609788048,36.8768529035531,14200,2017-11-07 11:46:24,1857.2882918332186,58.100001859200006,0.0,2.2811500729968004,1857.2882918332186,58.100001859200006,1.7999985098000002,2.5934500829904,1684,0.0,99,GPS_Atti,
0.274918639912634,36.8768528366609,14300,2017-11-07 11:46:24,1857.8882918524187,58.7000018784,0.0,2.27837007290784,1857.8882918524187,58.7000018784,1.7999985098000002,2.5934500829904,1684,0.0,99,GPS_Atti,
0.274918652775713,36.8768527610863,14400,2017-11-07 11:46:24,1858.3882918684187,59.2000018944,0.0,2.2776000728832,1858.3882918684187,59.2000018944,1.7999985098000002,2.5934500829904,1684,0.0,99,GPS_Atti,
0.274918666544207,36.8768526663124,14500,2017-11-07 11:46:24,1858.8882918844188,59.700001910400005,0.0,2.2769500728624,1858.8882918844188,59.700001910400005,1.7999985098000002,2.5934500829904,1684,0.0,99,GPS_Atti,
0.274918647025677,36.87685258749,14600,2017-11-07 11:46:24,1859.3882919004186,60.2000019264,0.0,2.27988007295616,1859.3882919004186,60.2000019264,1.7999985098000002,2.5934500829904,1684,0.0,99,GPS_Atti,
0.274918637885221,36.8768525114234,14700,2017-11-07 11:46:24,1859.8882919164184,60.7000019424,0.0,2.28166007301312,1859.8882919164184,60.7000019424,1.7999985098000002,2.5934500829904,1684,0.0,99,GPS_Atti,
0.274918638502401,36.8768524498949,14800,2017-11-07 11:46:24,1860.3882919324187,61.2000019584,0.0,2.2822300730313603,1860.3882919324187,61.2000019584,1.7999985098000002,2.5934500829904,1684,0.0,99,GPS_Atti,
0.274918671849677,36.8768523702893,14900,2017-11-07 11:46:24,1860.8882919484186,61.7000019744,0.0,2.2794000729408,1860.8882919484186,61.7000019744,1.7999985098000002,2.5934500829904,1684,0.0,99,GPS_Atti,
0.274918699811689,36.8768523009138,15000,2017-11-07 11:46:24,1861.3882919644186,62.200001990400004,0.0,2.2770900728668804,1861.3882919644186,62.200001990400004,1.7999985098000002,2.5934500829904,1684,0.0,99,GPS_Atti,
0.274918756129796,36.8768522664142,15100,2017-11-07 11:46:25,1861.7882919772185,62.600002003200004,0.0,2.27126007268032,1861.7882919772185,62.600002003200004,1.7999985098000002,2.5934500829904,1684,0.0,99,GPS_Atti,
0.274918796673167,36.876852271841,15200,2017-11-07 11:46:25,1862.2882919932188,63.100002019200005,0.0,2.2667100725347202,1862.2882919932188,63.100002019200005,1.7999985098000002,2.5934500829904,1684,0.0,99,GPS_Atti,
0.27491886380577,36.8768523167223,15300,2017-11-07 11:46:25,1862.7882920092186,63.600002035200006,0.0,2.2587700722806403,1862.7882920092186,63.600002035200006,1.7999985098000002,2.5934500829904,1684,0.0,99,GPS_Atti,
0.274918922310878,36.8768523722743,15400,2017-11-07 11:46:25,1863.1882920220187,64.000002048,0.0,2.25167007205344,1863.1882920220187,64.000002048,1.7999985098000002,2.5934500829904,1669,0.0,99,GPS_Atti,
0.274918992377938,36.876852435142,15500,2017-11-07 11:46:25,1863.6882920380185,64.500002064,0.0,2.24322007178304,1863.6882920380185,64.500002064,1.7999985098000002,2.5934500829904,1647,0.0,99,GPS_Atti,
0.274919043812341,36.8768524977759,15600,2017-11-07 11:46:25,1864.1882920540188,65.00000208,0.0,2.2368500715792003,1864.1882920540188,65.00000208,1.7999985098000002,2.5934500829904,1672,0.0,99,GPS_Atti,
0.274919111031253,36.8768525634321,15700,2017-11-07 11:46:25,1864.6882920700186,65.500002096,0.0,2.22873007131936,1864.6882920700186,65.500002096,1.7999985098000002,2.5934500829904,1684,0.0,99,GPS_Atti,
0.274919169702461,36.8768526336163,15800,2017-11-07 11:46:25,1865.1882920860185,66.000002112,0.0,2.22153007108896,1865.1882920860185,66.000002112,1.7999985098000002,2.5934500829904,1647,0.0,99,GPS_Atti,
0.274919253998865,36.8768527301975,15900,2017-11-07 11:46:25,1865.6882921020187,66.500002128,0.0,2.21126007076032,1865.6882921020187,66.500002128,1.7999985098000002,2.5934500829904,1520,0.0,99,GPS_Atti,
0.274919299432452,36.8768528198106,16000,2017-11-07 11:46:25,1866.1882921180186,67.000002144,0.0,2.2054000705728,1866.1882921180186,67.000002144,1.7999985098000002,2.5934500829904,1362,0.0,99,GPS_Atti,
0.274919328067012,36.8768528718501,16100,2017-11-07 11:46:26,1866.6882921340186,67.50000216000001,0.0,2.2017700704566403,1866.6882921340186,67.50000216000001,1.7999985098000002,2.5934500829904,1271,0.0,99,GPS_Atti,
0.274919323517139,36.8768528939657,16200,2017-11-07 11:46:26,1867.0882921468185,67.9000021728,0.0,2.20208007046656,1867.0882921468185,67.9000021728,1.7999985098000002,2.5934500829904,1156,0.0,99,GPS_Atti,
0.274919326476022,36.8768528977481,16300,2017-11-07 11:46:26,1867.3882921564186,68.2000021824,0.0,2.2017200704550404,1867.3882921564186,68.2000021824,1.7999985098000002,2.5934500829904,1080,0.0,99,GPS_Atti,
0.274919293899,36.8768529039619,16400,2017-11-07 11:46:26,1867.6882921660188,68.500002192,0.35999970196000003,2.20528007056896,1867.6882921660188,68.500002192,1.7999985098000002,2.5934500829904,1024,0.0,99,GPS_Atti,
0.274919239139313,36.8768528796564,16500,2017-11-07 11:46:26,1867.8882921724185,68.7000021984,0.35999970196000003,2.21156007076992,1867.8882921724185,68.7000021984,1.7999985098000002,2.5934500829904,1024,0.0,99,GPS_Atti,
0.274919135755918,36.8768528381359,16600,2017-11-07 11:46:26,1867.8882921724185,68.7000021984,0.35999970196000003,2.2233800711481604,1867.8882921724185,68.7000021984,1.7999985098000002,2.5934500829904,1024,0.0,99,GPS_Atti,
0.27491890370102,36.876852666634,16800,2017-11-07 11:46:26,1868.0882921788186,68.9000022048,0.35999970196000003,2.2506700720214403,1868.0882921788186,68.9000022048,1.7999985098000002,2.5934500829904,1024,0.0,99,GPS_Atti,
0.274918847363371,36.8768525924999,16900,2017-11-07 11:46:26,1868.0882921788186,68.9000022048,0.35999970196000003,2.25764007224448,1868.0882921788186,68.9000022048,1.7999985098000002,2.5934500829904,1024,0.0,99,GPS_Atti,
0.274918791626619,36.87685255043,17000,2017-11-07 11:46:26,1868.1882921820186,69.000002208,0.35999970196000003,2.2642300724553603,1868.1882921820186,69.000002208,1.7999985098000002,2.5934500829904,1024,0.0,99,GPS_Atti,
0.274918781141068,36.8768525354849,17100,2017-11-07 11:46:27,1868.1882921820186,69.000002208,0.35999970196000003,2.2655500724976,1868.1882921820186,69.000002208,1.7999985098000002,2.5934500829904,1024,0.0,99,GPS_Atti,
0.274918767804111,36.8768525206727,17200,2017-11-07 11:46:27,1868.1882921820186,69.000002208,0.0,2.26717007254944,1868.1882921820186,69.000002208,1.7999985098000002,2.5934500829904,1024,0.0,99,GPS_Atti,
0.274918799169571,36.8768525167561,17300,2017-11-07 11:46:27,1868.1882921820186,69.000002208,0.35999970196000003,2.26374007243968,1868.1882921820186,69.000002208,1.7999985098000002,2.5934500829904,1024,0.0,99,GPS_Atti,
0.27491882924856,36.8768524963604,17400,2017-11-07 11:46:27,1868.1882921820186,69.000002208,0.0,2.26062007233984,1868.1882921820186,69.000002208,1.7999985098000002,2.5934500829904,1024,0.0,99,GPS_Atti,
0.27491887959842,36.8768524200636,17500,2017-11-07 11:46:27,1868.2882921852186,69.1000022112,0.0,2.25587007218784,1868.2882921852186,69.1000022112,1.7999985098000002,2.5934500829904,1024,0.0,99,GPS_Atti,
0.274918914408039,36.8768523030457,17600,2017-11-07 11:46:27,1868.2882921852186,69.1000022112,0.0,2.2533300721065603,1868.2882921852186,69.1000022112,1.7999985098000002,2.5934500829904,1024,0.0,99,GPS_Atti,
0.274918939266237,36.8768521175563,17700,2017-11-07 11:46:27,1868.2882921852186,69.1000022112,0.0,2.2528200720902403,1868.2882921852186,69.1000022112,1.7999985098000002,2.5934500829904,1100,0.0,99,GPS_Atti,
0.274918950276147,36.8768519186304,17800,2017-11-07 11:46:27,1868.3882921884187,69.2000022144,0.0,2.25421007213472,1868.3882921884187,69.2000022144,1.7999985098000002,2.5934500829904,1120,0.0,99,GPS_Atti,
0.274918952901198,36.8768516847064,17900,2017-11-07 11:46:27,1868.2882921852186,69.1000022112,0.0,2.25727007223264,1868.3882921884187,69.2000022144,1.7999985098000002,2.5934500829904,1165,0.0,99,GPS_Atti,
0.274918965580263,36.8768514709792,18000,2017-11-07 11:46:27,1868.3882921884187,69.2000022144,0.0,2.25919007229408,1868.3882921884187,69.2000022144,1.7999985098000002,2.5934500829904,1165,0.0,99,GPS_Atti,
0.274919000378483,36.8768512078901,18100,2017-11-07 11:46:28,1868.3882921884187,69.2000022144,0.0,2.25978007231296,1868.3882921884187,69.2000022144,1.7999985098000002,2.5934500829904,1342,0.0,99,GPS_Atti,
0.274919034862413,36.8768509381703,18200,2017-11-07 11:46:28,1868.3882921884187,69.2000022144,0.35999970196000003,2.2609200723494403,1868.3882921884187,69.2000022144,1.7999985098000002,2.5934500829904,1342,0.0,99,GPS_Atti,
0.274919118655627,36.8768506695279,18300,2017-11-07 11:46:28,1868.4882921916187,69.30000221760001,0.0,2.2570500722256,1868.4882921916187,69.30000221760001,1.7999985098000002,2.5934500829904,1385,0.0,99,GPS_Atti,
0.274919205109719,36.8768504343642,18400,2017-11-07 11:46:28,1868.5882921948187,69.4000022208,0.35999970196000003,2.25259007208288,1868.5882921948187,69.4000022208,1.7999985098000002,2.5934500829904,1456,0.0,99,GPS_Atti,
0.274919301407755,36.8768501887436,18500,2017-11-07 11:46:28,1868.7882922012188,69.60000222720001,0.35999970196000003,2.24763007192416,1868.7882922012188,69.60000222720001,1.7999985098000002,2.5934500829904,1436,0.0,99,GPS_Atti,
0.274919376386202,36.876849971299,18600,2017-11-07 11:46:28,1868.9882922076185,69.80000223360001,0.35999970196000003,2.24467007182944,1868.9882922076185,69.80000223360001,1.7999985098000002,2.5934500829904,1400,0.0,99,GPS_Atti,
0.274919471378226,36.8768497451618,18700,2017-11-07 11:46:28,1869.1882922140187,70.00000224,0.35999970196000003,2.24006007168192,1869.1882922140187,70.00000224,1.7999985098000002,2.5934500829904,1400,0.0,99,GPS_Atti,
0.274919537970186,36.8768495408078,18800,2017-11-07 11:46:28,1869.3882922204186,70.2000022464,0.35999970196000003,2.23824007162368,1869.3882922204186,70.2000022464,1.7999985098000002,2.5934500829904,1460,0.0,99,GPS_Atti,
0.274919657970224,36.8768493576251,18900,2017-11-07 11:46:28,1869.5882922268188,70.40000225280001,0.0,2.2303400713708803,1869.5882922268188,70.40000225280001,1.7999985098000002,2.5934500829904,1561,0.0,99,GPS_Atti,
0.274919773006765,36.8768492402863,19000,2017-11-07 11:46:28,1869.8882922364187,70.7000022624,0.0,2.2213000710816,1869.8882922364187,70.7000022624,1.7999985098000002,2.5934500829904,1561,0.0,99,GPS_Atti,
0.27491994049223,36.8768491285003,19100,2017-11-07 11:46:29,1870.0882922428186,70.90000226880001,0.0,2.20659007061088,1870.0882922428186,70.90000226880001,1.7999985098000002,2.5934500829904,1606,0.0,99,GPS_Atti,
0.274920078169028,36.8768490547451,19200,2017-11-07 11:46:29,1870.3882922524188,71.2000022784,0.0,2.1940500702096,1870.3882922524188,71.2000022784,1.7999985098000002,2.5934500829904,1604,0.0,99,GPS_Atti,
0.274920242835656,36.8768489659769,19300,2017-11-07 11:46:29,1870.7882922652186,71.6000022912,0.0,2.1791500697328,1870.7882922652186,71.6000022912,1.7999985098000002,2.5934500829904,1602,0.0,99,GPS_Atti,
0.274920320670394,36.8768488836994,19400,2017-11-07 11:46:29,1871.1882922780187,72.000002304,0.0,2.1734100695491203,1871.1882922780187,72.000002304,1.7999985098000002,2.5934500829904,1597,0.0,99,GPS_Atti,
0.27492041434175,36.8768487931749,19500,2017-11-07 11:46:29,1871.5882922908186,72.4000023168,0.0,2.1663000693216,1871.5882922908186,72.4000023168,1.7999985098000002,2.5934500829904,1597,0.0,99,GPS_Atti,
0.274920515261309,36.8768487756971,19600,2017-11-07 11:46:29,1871.9882923036187,72.8000023296,0.0,2.15612006899584,1871.9882923036187,72.8000023296,1.7999985098000002,2.5934500829904,1580,0.0,99,GPS_Atti,
0.274920735897558,36.8768487806547,19700,2017-11-07 11:46:29,1872.2882923132188,73.1000023392,0.0,2.13249006823968,1872.2882923132188,73.1000023392,1.7999985098000002,2.5934500829904,1584,0.0,99,GPS_Atti,
0.274920937383305,36.8768488468641,19800,2017-11-07 11:46:29,1872.6882923260187,73.50000235200001,0.0,2.10891006748512,1872.6882923260187,73.50000235200001,1.7999985098000002,2.5934500829904,1570,0.0,99,GPS_Atti,
0.274921191444996,36.8768488969302,19900,2017-11-07 11:46:29,1873.0882923388187,73.9000023648,0.0,2.08027006656864,1873.0882923388187,73.9000023648,1.7999985098000002,2.5934500829904,1555,0.0,99,GPS_Atti,
0.274921373107694,36.8768489835198,20000,2017-11-07 11:46:29,1873.3882923484186,74.20000237440001,0.0,2.0581300658601602,1873.3882923484186,74.20000237440001,1.7999985098000002,2.5934500829904,1556,0.0,99,GPS_Atti,
0.274921575715439,36.8768490396063,20100,2017-11-07 11:46:30,1873.7882923612187,74.6000023872,0.0,2.0347600651123203,1873.7882923612187,74.6000023872,1.7999985098000002,2.5934500829904,1571,0.0,99,GPS_Atti,
0.274921719865302,36.8768491403123,20200,2017-11-07 11:46:30,1874.0882923708189,74.9000023968,0.0,2.01616006451712,1874.0882923708189,74.9000023968,1.7999985098000002,2.5934500829904,1572,0.0,99,GPS_Atti,
0.274921878467605,36.8768492441886,20300,2017-11-07 11:46:30,1874.4882923836187,75.3000024096,0.0,1.9959300638697601,1874.4882923836187,75.3000024096,1.7999985098000002,2.5934500829904,1572,0.0,99,GPS_Atti,
0.274921976055368,36.8768493987674,20400,2017-11-07 11:46:30,1874.8882923964188,75.7000024224,0.35999970196000003,1.9806400633804802,1874.8882923964188,75.7000024224,1.7999985098000002,2.5934500829904,1571,0.0,99,GPS_Atti,
0.274922107259101,36.8768495317172,20500,2017-11-07 11:46:30,1875.1882924060185,76.000002432,0.35999970196000003,1.9625000628000002,1875.1882924060185,76.000002432,1.7999985098000002,2.5934500829904,1559,0.0,99,GPS_Atti,
0.274922203768835,36.8768497072519,20600,2017-11-07 11:46:30,1875.5882924188186,76.4000024448,0.35999970196000003,1.94686006229952,1875.5882924188186,76.4000024448,1.7999985098000002,2.5934500829904,1556,0.0,99,GPS_Atti,
0.274922348171106,36.8768498010144,20700,2017-11-07 11:46:30,1875.9882924316187,76.8000024576,0.0,1.9286000617152,1875.9882924316187,76.8000024576,1.7999985098000002,2.5934500829904,1556,0.0,99,GPS_Atti,
0.274922483976822,36.8768498883777,20800,2017-11-07 11:46:30,1876.2882924412186,77.1000024672,0.0,1.91146006116672,1876.2882924412186,77.1000024672,1.7999985098000002,2.5934500829904,1557,0.0,99,GPS_Atti,
0.27492267252621,36.8768499641595,20900,2017-11-07 11:46:30,1876.6882924540187,77.50000248,0.0,1.8890200604486402,1876.6882924540187,77.50000248,1.7999985098000002,2.5934500829904,1551,0.0,99,GPS_Atti,
0.274922822585696,36.8768500609557,21000,2017-11-07 11:46:30,1877.0882924668185,77.9000024928,0.0,1.8701000598432003,1877.0882924668185,77.9000024928,1.7999985098000002,2.5934500829904,1541,0.0,99,GPS_Atti,
0.274922973221651,36.8768501604867,21100,2017-11-07 11:46:31,1877.4882924796186,78.3000025056,0.35999970196000003,1.8510700592342402,1877.4882924796186,78.3000025056,1.7999985098000002,2.5934500829904,1460,0.0,99,GPS_Atti,
0.274923028121383,36.8768503103453,21200,2017-11-07 11:46:31,1877.7882924892185,78.6000025152,0.35999970196000003,1.84097005891104,1877.7882924892185,78.6000025152,1.7999985098000002,2.5934500829904,1305,0.0,99,GPS_Atti,
0.274923081161433,36.8768504460962,21300,2017-11-07 11:46:31,1878.1882925020186,79.000002528,0.5075995797636,1.8315700586102401,1878.1882925020186,79.000002528,1.7999985098000002,2.5934500829904,1206,0.0,99,GPS_Atti,
0.274923053940363,36.8768505746118,21400,2017-11-07 11:46:31,1878.4882925116187,79.30000253760001,0.35999970196000003,1.83112005859584,1878.4882925116187,79.30000253760001,1.7999985098000002,2.5934500829904,1152,0.0,99,GPS_Atti,
0.274923052833021,36.8768507140086,21500,2017-11-07 11:46:31,1878.6882925180187,79.500002544,0.8063993323904,1.8277000584864,1878.6882925180187,79.500002544,1.7999985098000002,2.5934500829904,1101,0.0,99,GPS_Atti,
0.274922996589822,36.8768508618542,21600,2017-11-07 11:46:31,1878.7882925212186,79.60000254719999,0.7199994039200001,1.8301800585657602,1878.7882925212186,79.60000254719999,1.7999985098000002,2.5934500829904,1029,0.0,99,GPS_Atti,
0.274922967893382,36.87685098845,21700,2017-11-07 11:46:31,1878.8882925244186,79.70000255040001,0.7199994039200001,1.8303200585702402,1878.8882925244186,79.70000255040001,1.7999985098000002,2.5934500829904,1024,0.0,99,GPS_Atti,
0.274922891092706,36.876851100261,21800,2017-11-07 11:46:31,1878.9882925276186,79.80000255360001,0.7199994039200001,1.83614005875648,1878.9882925276186,79.80000255360001,1.7999985098000002,2.5934500829904,1024,0.0,99,GPS_Atti,
0.274922831595876,36.8768512105497,21900,2017-11-07 11:46:31,1878.9882925276186,79.80000255360001,0.7199994039200001,1.84021005888672,1878.9882925276186,79.80000255360001,1.7999985098000002,2.5934500829904,1024,0.0,99,GPS_Atti,
0.274922731713635,36.8768513232854,22000,2017-11-07 11:46:31,1878.9882925276186,79.80000255360001,0.8063993323904,1.84874005915968,1878.9882925276186,79.80000255360001,1.7999985098000002,2.5934500829904,1024,0.0,99,GPS_Atti,
0.274922687195233,36.8768514182304,22100,2017-11-07 11:46:32,1878.9882925276186,79.80000255360001,0.5075995797636,1.8516800592537601,1878.9882925276186,79.80000255360001,1.7999985098000002,2.5934500829904,1024,0.0,99,GPS_Atti,
0.274922630641002,36.8768514988757,22200,2017-11-07 11:46:32,1878.9882925276186,79.80000255360001,0.5075995797636,1.8562900594012801,1878.9882925276186,79.80000255360001,1.7999985098000002,2.5934500829904,1024,0.0,99,GPS_Atti,
0.2749225561804,36.8768516082019,22400,2017-11-07 11:46:32,1878.9882925276186,79.80000255360001,0.5075995797636,1.8623700595958401,1878.9882925276186,79.80000255360001,1.7999985098000002,2.5934500829904,1024,0.0,99,GPS_Atti,
0.274922556825264,36.8768516268823,22500,2017-11-07 11:46:32,1878.9882925276186,79.80000255360001,0.35999970196000003,1.8619500595824001,1878.9882925276186,79.80000255360001,1.7999985098000002,2.5934500829904,1024,0.0,99,GPS_Atti,
0.274922552382869,36.8768516157381,22600,2017-11-07 11:46:32,1878.9882925276186,79.80000255360001,0.0,1.8626400596044799,1878.9882925276186,79.80000255360001,1.7999985098000002,2.5934500829904,1024,0.0,99,GPS_Atti,
0.274922610687678,36.8768515769613,22700,2017-11-07 11:46:32,1878.9882925276186,79.80000255360001,0.0,1.8569800594233599,1878.9882925276186,79.80000255360001,1.7999985098000002,2.5934500829904,1024,0.0,99,GPS_Atti,
0.274922660514807,36.8768515210413,22800,2017-11-07 11:46:32,1878.9882925276186,79.80000255360001,0.0,1.8525900592828801,1878.9882925276186,79.80000255360001,1.7999985098000002,2.5934500829904,1024,0.0,99,GPS_Atti,
0.274922766927108,36.8768514560592,22900,2017-11-07 11:46:32,1878.9882925276186,79.80000255360001,0.0,1.84221005895072,1878.9882925276186,79.80000255360001,1.7999985098000002,2.5934500829904,1024,0.0,98,GPS_Atti,
0.274922849376856,36.8768513886928,23000,2017-11-07 11:46:32,1878.9882925276186,79.80000255360001,0.0,1.83454005870528,1878.9882925276186,79.80000255360001,1.7999985098000002,2.5934500829904,1024,0.0,98,GPS_Atti,
0.274922957271042,36.8768513288776,23100,2017-11-07 11:46:33,1878.9882925276186,79.80000255360001,0.0,1.8239900583676802,1878.9882925276186,79.80000255360001,1.7999985098000002,2.5934500829904,1024,0.0,98,GPS_Atti,
0.274923015149198,36.8768512674575,23200,2017-11-07 11:46:33,1878.9882925276186,79.80000255360001,0.0,1.81896005820672,1878.9882925276186,79.80000255360001,1.7999985098000002,2.5934500829904,1024,0.0,98,GPS_Atti,
0.274923092418866,36.8768511837026,23300,2017-11-07 11:46:33,1878.9882925276186,79.80000255360001,0.0,1.8123500579952,1878.9882925276186,79.80000255360001,1.7999985098000002,2.5934500829904,1024,0.0,98,GPS_Atti,
0.274923146958712,36.8768510806432,23400,2017-11-07 11:46:33,1878.8882925244186,79.70000255040001,0.0,1.80872005787904,1878.9882925276186,79.80000255360001,1.7999985098000002,2.5934500829904,1024,0.0,98,GPS_Atti,
0.274923222441977,36.8768509711062,23500,2017-11-07 11:46:33,1878.8882925244186,79.70000255040001,0.0,1.8030500576976,1878.9882925276186,79.80000255360001,1.7999985098000002,2.5934500829904,1024,0.0,98,GPS_Atti,
0.274923262553809,36.87685087386,23600,2017-11-07 11:46:33,1878.8882925244186,79.70000255040001,0.0,1.80102005763264,1878.9882925276186,79.80000255360001,1.7999985098000002,2.5934500829904,1024,0.0,98,GPS_Atti,
0.27492334381805,36.8768507571148,23700,2017-11-07 11:46:33,1878.8882925244186,79.70000255040001,0.0,1.79509005744288,1878.9882925276186,79.80000255360001,1.7999985098000002,2.5934500829904,1024,0.0,98,GPS_Atti,
0.274923496935754,36.8768505195904,23900,2017-11-07 11:46:33,1878.8882925244186,79.70000255040001,0.0,1.78473005711136,1878.9882925276186,79.80000255360001,1.7999985098000002,2.5934500829904,1024,0.0,98,GPS_Atti,
0.274923564677396,36.8768503912113,24000,2017-11-07 11:46:33,1878.8882925244186,79.70000255040001,0.0,1.7809500569904,1878.9882925276186,79.80000255360001,1.7999985098000002,2.5934500829904,1024,0.0,98,GPS_Atti,
0.27492370342571,36.876850237188,24100,2017-11-07 11:46:34,1878.8882925244186,79.70000255040001,0.0,1.77042005665344,1878.9882925276186,79.80000255360001,1.7999985098000002,2.5934500829904,1024,0.0,98,GPS_Atti,
0.27492380854177,36.8768501029581,24200,2017-11-07 11:46:34,1878.8882925244186,79.70000255040001,0.0,1.7631400564204802,1878.9882925276186,79.80000255360001,1.7999985098000002,2.5934500829904,1024,0.0,98,GPS_Atti,
0.274923959426877,36.8768499920194,24300,2017-11-07 11:46:34,1878.8882925244186,79.70000255040001,0.0,1.7504200560134402,1878.9882925276186,79.80000255360001,1.7999985098000002,2.5934500829904,1024,0.0,98,GPS_Atti,
0.274924057239365,36.8768499283104,24400,2017-11-07 11:46:34,1878.7882925212186,79.60000254719999,0.0,1.742000055744,1878.9882925276186,79.80000255360001,1.7999985098000002,2.5934500829904,1024,0.0,98,GPS_Atti,
0.274924222116063,36.8768498220706,24500,2017-11-07 11:46:34,1878.7882925212186,79.60000254719999,0.0,1.72789005529248,1878.9882925276186,79.80000255360001,1.7999985098000002,2.5934500829904,1024,0.0,98,GPS_Atti,
0.274924353435415,36.8768497364218,24600,2017-11-07 11:46:34,1878.7882925212186,79.60000254719999,0.0,1.7168000549376001,1878.9882925276186,79.80000255360001,1.7999985098000002,2.5934500829904,1024,0.0,98,GPS_Atti,
0.274924523967699,36.8768496277598,24700,2017-11-07 11:46:34,1878.7882925212186,79.60000254719999,0.0,1.70247005447904,1878.9882925276186,79.80000255360001,1.7999985098000002,2.5934500829904,1024,0.0,98,GPS_Atti,
0.274924634374574,36.8768495407682,24800,2017-11-07 11:46:34,1878.7882925212186,79.60000254719999,0.0,1.6938800542041599,1878.9882925276186,79.80000255360001,1.7999985098000002,2.5934500829904,1024,0.0,98,GPS_Atti,
0.274924786344225,36.8768494329677,24900,2017-11-07 11:46:34,1878.7882925212186,79.60000254719999,0.0,1.68178005381696,1878.9882925276186,79.80000255360001,1.7999985098000002,2.5934500829904,1024,0.0,98,GPS_Atti,
0.274924899856542,36.8768493827402,25000,2017-11-07 11:46:34,1878.6882925180187,79.500002544,0.0,1.67172005349504,1878.9882925276186,79.80000255360001,1.7999985098000002,2.5934500829904,1024,0.0,98,GPS_Atti,
0.274925057903545,36.8768493143856,25100,2017-11-07 11:46:35,1878.6882925180187,79.500002544,0.0,1.657750053048,1878.9882925276186,79.80000255360001,1.7999985098000002,2.5934500829904,1024,0.0,98,GPS_Atti,
0.274925153219629,36.8768493119236,25200,2017-11-07 11:46:35,1878.6882925180187,79.500002544,0.35999970196000003,1.6478900527324802,1878.9882925276186,79.80000255360001,1.7999985098000002,2.5934500829904,1024,0.0,98,GPS_Atti,
0.274925302784068,36.8768492997566,25300,2017-11-07 11:46:35,1878.6882925180187,79.500002544,0.35999970196000003,1.632750052248,1878.9882925276186,79.80000255360001,1.7999985098000002,2.5934500829904,1024,0.0,98,GPS_Atti,
0.274925396515676,36.8768493349092,25400,2017-11-07 11:46:35,1878.6882925180187,79.500002544,0.35999970196000003,1.6216200518918402,1878.9882925276186,79.80000255360001,1.7999985098000002,2.5934500829904,1024,0.0,98,GPS_Atti,
0.274925514307544,36.8768493421218,25500,2017-11-07 11:46:35,1878.5882925148185,79.4000025408,0.35999970196000003,1.60906005148992,1878.9882925276186,79.80000255360001,1.7999985098000002,2.5934500829904,1024,0.0,98,GPS_Atti,
0.274925553386943,36.8768493876261,25600,2017-11-07 11:46:35,1878.5882925148185,79.4000025408,0.35999970196000003,1.60322005130304,1878.9882925276186,79.80000255360001,1.7999985098000002,2.5934500829904,1024,0.0,98,GPS_Atti,
0.274925631439893,36.8768494117771,25700,2017-11-07 11:46:35,1878.5882925148185,79.4000025408,0.5075995797636,1.5941500510128002,1878.9882925276186,79.80000255360001,1.7999985098000002,2.5934500829904,1024,0.0,98,GPS_Atti,
0.274925647924631,36.876849460835,25800,2017-11-07 11:46:35,1878.5882925148185,79.4000025408,0.5075995797636,1.59054005089728,1878.9882925276186,79.80000255360001,1.7999985098000002,2.5934500829904,1024,0.0,98,GPS_Atti,
0.274925686834672,36.8768494712499,25900,2017-11-07 11:46:35,1878.6882925180187,79.500002544,0.35999970196000003,1.5860800507545603,1878.9882925276186,79.80000255360001,1.7999985098000002,2.5934500829904,1024,0.0,98,GPS_Atti,
0.274925686953549,36.8768494869074,26000,2017-11-07 11:46:35,1878.6882925180187,79.500002544,0.35999970196000003,1.58546005073472,1878.9882925276186,79.80000255360001,1.7999985098000002,2.5934500829904,1024,0.0,98,GPS_Atti,
0.274925719859516,36.8768494708409,26100,2017-11-07 11:46:36,1878.6882925180187,79.500002544,0.35999970196000003,1.5826500506448,1878.9882925276186,79.80000255360001,1.7999985098000002,2.5934500829904,1024,0.0,98,GPS_Atti,
0.274925692257391,36.87684949439,26200,2017-11-07 11:46:36,1878.6882925180187,79.500002544,0.35999970196000003,1.58462005070784,1878.9882925276186,79.80000255360001,1.7999985098000002,2.5934500829904,1024,0.0,98,GPS_Atti,
0.274925681871175,36.876849496081,26300,2017-11-07 11:46:36,1878.6882925180187,79.500002544,0.35999970196000003,1.5856400507404802,1878.9882925276186,79.80000255360001,1.7999985098000002,2.5934500829904,1024,0.0,98,GPS_Atti,
0.274925633130218,36.8768495010865,26400,2017-11-07 11:46:36,1878.6882925180187,79.500002544,0.35999970196000003,1.59054005089728,1878.9882925276186,79.80000255360001,1.7999985098000002,2.5934500829904,1024,0.0,98,GPS_Atti,
0.274925601724047,36.876849483307,26500,2017-11-07 11:46:36,1878.6882925180187,79.500002544,0.35999970196000003,1.5945000510240002,1878.9882925276186,79.80000255360001,1.7999985098000002,2.5934500829904,1024,0.0,98,GPS_Atti,
0.274925522099649,36.8768494919408,26600,2017-11-07 11:46:36,1878.6882925180187,79.500002544,0.35999970196000003,1.60249005127968,1878.9882925276186,79.80000255360001,1.7999985098000002,2.5934500829904,1024,0.0,98,GPS_Atti,
0.274925466496429,36.876849487341,26700,2017-11-07 11:46:36,1878.6882925180187,79.500002544,0.35999970196000003,1.60848005147136,1878.9882925276186,79.80000255360001,1.7999985098000002,2.5934500829904,1024,0.0,98,GPS_Atti,
0.274925373315235,36.8768495135912,26800,2017-11-07 11:46:36,1878.6882925180187,79.500002544,0.35999970196000003,1.61724005175168,1878.9882925276186,79.80000255360001,1.7999985098000002,2.5934500829904,1024,0.0,98,GPS_Atti,
0.274925310151149,36.8768495317592,26900,2017-11-07 11:46:36,1878.6882925180187,79.500002544,0.35999970196000003,1.62318005194176,1878.9882925276186,79.80000255360001,1.7999985098000002,2.5934500829904,1024,0.0,98,GPS_Atti,
0.274925251025604,36.8768495462453,27000,2017-11-07 11:46:36,1878.6882925180187,79.500002544,0.35999970196000003,1.62884005212288,1878.9882925276186,79.80000255360001,1.7999985098000002,2.5934500829904,1024,0.0,98,GPS_Atti,
0.274925245995341,36.8768495181834,27100,2017-11-07 11:46:37,1878.7882925212186,79.60000254719999,0.35999970196000003,1.6304100521731202,1878.9882925276186,79.80000255360001,1.7999985098000002,2.5934500829904,1024,0.0,98,GPS_Atti,
0.274925212302835,36.8768494983921,27200,2017-11-07 11:46:37,1878.7882925212186,79.60000254719999,0.35999970196000003,1.6346800523097602,1878.9882925276186,79.80000255360001,1.7999985098000002,2.5934500829904,1024,0.0,98,GPS_Atti,
0.274925235815937,36.8768494813575,27300,2017-11-07 11:46:37,1878.8882925244186,79.70000255040001,0.0,1.6328500522512002,1878.9882925276186,79.80000255360001,1.7999985098000002,2.5934500829904,1024,0.0,98,GPS_Atti,
0.27492525122916,36.8768494587503,27400,2017-11-07 11:46:37,1878.9882925276186,79.80000255360001,0.0,1.63208005222656,1878.9882925276186,79.80000255360001,1.7999985098000002,2.5934500829904,1024,0.0,98,GPS_Atti,
0.274925330698855,36.8768493822467,27500,2017-11-07 11:46:37,1878.9882925276186,79.80000255360001,0.0,1.62666005205312,1878.9882925276186,79.80000255360001,1.7999985098000002,2.5934500829904,1024,0.0,98,GPS_Atti,
0.274925405499802,36.8768492783832,27600,2017-11-07 11:46:37,1879.0882925308188,79.9000025568,0.0,1.62288005193216,1879.0882925308188,79.9000025568,1.7999985098000002,2.5934500829904,1024,0.0,98,GPS_Atti,
0.274925528979825,36.8768491373133,27700,2017-11-07 11:46:37,1879.0882925308188,79.9000025568,0.0,1.6156600517011201,1879.0882925308188,79.9000025568,1.7999985098000002,2.5934500829904,1024,0.0,98,GPS_Atti,
0.274925621863014,36.876849006685,27800,2017-11-07 11:46:37,1879.0882925308188,79.9000025568,0.0,1.6114000515648002,1879.0882925308188,79.9000025568,1.7999985098000002,2.5934500829904,1024,0.0,98,GPS_Atti,
0.274925832424079,36.8768487297413,28000,2017-11-07 11:46:37,1879.1882925340187,80.00000256,0.0,1.60159005125088,1879.1882925340187,80.00000256,1.7999985098000002,2.5934500829904,1024,0.0,98,GPS_Atti,
0.274925931858498,36.8768485918129,28100,2017-11-07 11:46:38,1879.1882925340187,80.00000256,0.0,1.5975800511225602,1879.1882925340187,80.00000256,1.7999985098000002,2.5934500829904,1024,0.0,98,GPS_Atti,
0.274925986041715,36.876848469384,28200,2017-11-07 11:46:38,1879.2882925372187,80.1000025632,0.0,1.5976500511248,1879.2882925372187,80.1000025632,1.7999985098000002,2.5934500829904,1024,0.0,98,GPS_Atti,
0.274926064995194,36.8768483021624,28300,2017-11-07 11:46:38,1879.2882925372187,80.1000025632,0.0,1.59748005111936,1879.2882925372187,80.1000025632,1.7999985098000002,2.5934500829904,1024,0.0,98,GPS_Atti,
0.274926083098606,36.876848154727,28400,2017-11-07 11:46:38,1879.2882925372187,80.1000025632,0.35999970196000003,1.6027000512864,1879.2882925372187,80.1000025632,1.7999985098000002,2.5934500829904,1024,0.0,98,GPS_Atti,
0.274926058979722,36.8768480145219,28500,2017-11-07 11:46:38,1879.2882925372187,80.1000025632,0.35999970196000003,1.61194005158208,1879.2882925372187,80.1000025632,1.7999985098000002,2.5934500829904,1024,0.0,98,GPS_Atti,
0.274925978296836,36.8768479019902,28600,2017-11-07 11:46:38,1879.2882925372187,80.1000025632,0.35999970196000003,1.6255300520169602,1879.2882925372187,80.1000025632,1.7999985098000002,2.5934500829904,1024,0.0,98,GPS_Atti,
0.274925910336982,36.8768477912983,28700,2017-11-07 11:46:38,1879.2882925372187,80.1000025632,0.35999970196000003,1.63779005240928,1879.2882925372187,80.1000025632,1.7999985098000002,2.5934500829904,1024,0.0,98,GPS_Atti,
