latitude,longitude,time_millisecond,datetime_utc,altitude_m,ascent_m,speed_kph,distance_m,max_altitude_m,max_ascent_m,max_speed_kph,max_distance_m,rc_throttle,gimbal_pitch_degrees,battery_percent,flycState,message
0.308060944727566,36.8793883165238,100,2017-11-15 13:40:12,1768.0571854778357,0.0,0.0,0.0,1768.0571854778357,0.0,0.0,0.0,1024,0.0,100,Motors_Started,
0.308060939538555,36.8793883573936,200,2017-11-15 13:40:12,1768.0571854778357,0.0,0.0,0.004581400146604801,1768.0571854778357,0.0,0.0,0.004581400146604801,1024,0.0,100,Motors_Started,
0.308060936008241,36.8793883843764,300,2017-11-15 13:40:12,1768.0571854778357,0.0,0.0,0.0076075702434422405,1768.0571854778357,0.0,0.0,0.0076075702434422405,1024,0.0,100,Motors_Started,
0.308060904358032,36.8793884220684,400,2017-11-15 13:40:12,1768.0571854778357,0.0,0.0,0.012566300402121599,1768.0571854778357,0.0,0.0,0.012566300402121599,1024,0.0,100,Motors_Started,
0.308060869533859,36.8793884624219,500,2017-11-15 13:40:12,1768.0571854778357,0.0,0.0,0.0182526005840832,1768.0571854778357,0.0,0.0,0.0182526005840832,1024,0.0,100,Motors_Started,
0.308060854261828,36.879388511278,600,2017-11-15 13:40:12,1768.0571854778357,0.0,0.0,0.023880100764163203,1768.0571854778357,0.0,0.0,0.023880100764163203,1024,0.0,100,Motors_Started,
0.308060859612437,36.8793885588471,700,2017-11-15 13:40:12,1768.0571854778357,0.0,0.0,0.028561500913968,1768.0571854778357,0.0,0.0,0.028561500913968,1024,0.0,100,Motors_Started,Setting new Return-To-Home altitude to 30m (98 ft). Setting new Maximum Flight Altitude to 150m (492 ft)
0.308060866208551,36.8793885926135,800,2017-11-15 13:40:12,1768.0571854778357,0.0,0.0,0.031919901021436804,1768.0571854778357,0.0,0.0,0.031919901021436804,1024,0.0,100,Motors_Started,
0.308060869258245,36.8793886152724,900,2017-11-15 13:40:12,1768.0571854778357,0.0,0.0,0.0342659010965088,1768.0571854778357,0.0,0.0,0.0342659010965088,1024,0.0,100,Motors_Started,
0.308060851476782,36.8793886219795,1000,2017-11-15 13:40:13,1768.0571854778357,0.0,0.0,0.0355157011365024,1768.0571854778357,0.0,0.0,0.0355157011365024,1024,0.0,100,Motors_Started,
0.308060822734643,36.879388626906,1100,2017-11-15 13:40:13,1768.0571854778357,0.0,0.0,0.0370863011867616,1768.0571854778357,0.0,0.0,0.0370863011867616,1024,0.0,100,Motors_Started,
0.308060799304388,36.8793886470172,1200,2017-11-15 13:40:13,1768.0571854778357,0.0,0.0,0.040153001284896,1768.0571854778357,0.0,0.0,0.040153001284896,1024,0.0,100,Motors_Started,
0.308060780732798,36.879388673421,1300,2017-11-15 13:40:13,1768.0571854778357,0.0,0.0,0.0436781013976992,1768.0571854778357,0.0,0.0,0.0436781013976992,1024,0.0,100,Motors_Started,
0.308060786645525,36.8793886863227,1400,2017-11-15 13:40:13,1768.0571854778357,0.0,0.0,0.044723301431145605,1768.0571854778357,0.0,0.0,0.044723301431145605,1024,0.0,100,Motors_Started,
0.308060806388221,36.8793886958138,1500,2017-11-15 13:40:13,1768.0571854778357,0.0,0.0,0.0448968014366976,1768.0571854778357,0.0,0.0,0.0448968014366976,1024,0.0,100,Assisted_Takeoff,
0.308060810955752,36.879388696452,1600,2017-11-15 13:40:13,1768.0571854778357,0.0,0.0,0.04479220143335041,1768.0571854778357,0.0,0.0,0.0448968014366976,1024,0.0,100,Assisted_Takeoff,
0.308060797193873,36.8793887022602,1700,2017-11-15 13:40:13,1768.0571854778357,0.0,0.0,0.045926201469638404,1768.0571854778357,0.0,0.0,0.045926201469638404,1024,0.0,100,Assisted_Takeoff,
0.308060783133175,36.8793886859033,1800,2017-11-15 13:40:13,1768.0571854778357,0.0,0.0,0.044835501434736,1768.0571854778357,0.0,0.0,0.045926201469638404,1024,0.0,100,Assisted_Takeoff,
0.308060777617941,36.8793886864161,1900,2017-11-15 13:40:13,1768.0571854778357,0.0,0.0,0.0451368014443776,1768.0571854778357,0.0,0.0,0.045926201469638404,1024,0.0,100,Assisted_Takeoff,
0.30806077147087,36.879388673709,2000,2017-11-15 13:40:14,1768.0571854778357,0.0,0.0,0.0441469014127008,1768.0571854778357,0.0,0.0,0.045926201469638404,1024,0.0,100,Assisted_Takeoff,
0.308060763448341,36.8793886631263,2100,2017-11-15 13:40:14,1768.0571854778357,0.0,0.0,0.043497401391916796,1768.0571854778357,0.0,0.0,0.045926201469638404,1024,0.0,100,Assisted_Takeoff,
0.308060765656002,36.8793886551357,2200,2017-11-15 13:40:14,1768.0571854778357,0.0,0.0,0.0425966013630912,1768.0571854778357,0.0,0.0,0.045926201469638404,1024,0.0,100,Assisted_Takeoff,
0.30806076138785,36.8793886430684,2300,2017-11-15 13:40:14,1768.0571854778357,0.0,0.0,0.0416454013326528,1768.0571854778357,0.0,0.0,0.045926201469638404,1024,0.0,100,Assisted_Takeoff,
0.308060761109742,36.8793886291871,2400,2017-11-15 13:40:14,1768.0571854778357,0.0,0.0,0.0403222012903104,1768.0571854778357,0.0,0.0,0.045926201469638404,1024,0.0,100,Assisted_Takeoff,
0.30806076490763,36.8793886271417,2500,2017-11-15 13:40:14,1768.0571854778357,0.0,0.0,0.0399129012772128,1768.0571854778357,0.0,0.0,0.045926201469638404,1024,0.0,100,Assisted_Takeoff,
0.308060766453787,36.8793886155619,2600,2017-11-15 13:40:14,1768.0571854778357,0.0,0.0,0.038715501238896,1768.0571854778357,0.0,0.0,0.045926201469638404,1033,0.0,100,Assisted_Takeoff,
0.308060768904239,36.8793886121526,2700,2017-11-15 13:40:14,1768.0571854778357,0.0,0.0,0.0382503012240096,1768.0571854778357,0.0,0.0,0.045926201469638404,1024,0.0,100,Assisted_Takeoff,
0.308060775560707,36.879388590195,2800,2017-11-15 13:40:14,1768.0571854778357,0.0,0.0,0.035778501144912,1768.0571854778357,0.0,0.0,0.045926201469638404,1024,0.0,100,Assisted_Takeoff,
0.308060778524272,36.8793885590055,2900,2017-11-15 13:40:14,1768.0571854778357,0.0,0.0,0.0326914010461248,1768.0571854778357,0.0,0.0,0.045926201469638404,1102,0.0,100,Assisted_Takeoff,
0.308060780163199,36.8793885210359,3000,2017-11-15 13:40:15,1768.0571854778357,0.0,0.0,0.0291914009341248,1768.0571854778357,0.0,0.0,0.045926201469638404,1251,0.0,100,Assisted_Takeoff,
0.308060783446447,36.8793885024823,3100,2017-11-15 13:40:15,1768.0571854778357,0.0,0.0,0.0273737008759584,1768.0571854778357,0.0,0.0,0.045926201469638404,1321,0.0,100,Assisted_Takeoff,
0.308060784588648,36.8793884814246,3200,2017-11-15 13:40:15,1768.0571854778357,0.0,0.0,0.0255619008179808,1768.0571854778357,0.0,0.0,0.045926201469638404,1352,0.0,100,Assisted_Takeoff,
0.308060785858325,36.8793884690767,3300,2017-11-15 13:40:15,1768.0571854778357,0.0,0.0,0.0244934007837888,1768.0571854778357,0.0,0.0,0.045926201469638404,1400,0.0,100,Assisted_Takeoff,
0.308060809388323,36.8793884591144,3400,2017-11-15 13:40:15,1768.0571854778357,0.0,0.0,0.0218622006995904,1768.0571854778357,0.0,0.0,0.045926201469638404,1430,0.0,100,Assisted_Takeoff,
0.308060848950912,36.879388449978,3500,2017-11-15 13:40:15,1768.0571854778357,0.0,0.0,0.018267200584550402,1768.0571854778357,0.0,0.0,0.045926201469638404,1461,0.0,100,Assisted_Takeoff,
0.308060901642119,36.8793884390225,3600,2017-11-15 13:40:15,1768.0571854778357,0.0,0.0,0.014440500462096,1768.0571854778357,0.0,0.0,0.045926201469638404,1480,0.0,100,Assisted_Takeoff,
0.308060887424912,36.8793883928592,3700,2017-11-15 13:40:15,1768.0571854778357,0.0,0.35999970196000003,0.010614500339664,1768.0571854778357,0.0,0.35999970196000003,0.045926201469638404,1558,0.0,100,GPS_Atti,
0.308060644506944,36.8793881115336,3900,2017-11-15 13:40:15,1768.1571854810356,0.1000000032,0.5075995797636,0.040426501293648005,1768.1571854810356,0.1000000032,0.5075995797636,0.045926201469638404,1589,0.0,100,GPS_Atti,
0.30806044747952,36.8793879189318,4000,2017-11-15 13:40:16,1768.2571854842354,0.2000000064,0.8063993323904,0.0708000022656,1768.2571854842354,0.2000000064,0.8063993323904,0.0708000022656,1600,0.0,100,GPS_Atti,
0.308060182290061,36.8793876846536,4100,2017-11-15 13:40:16,1768.4571854906355,0.4000000128,1.0187991565468,0.11012000352384001,1768.4571854906355,0.4000000128,1.0187991565468,0.11012000352384001,1600,-0.2,100,GPS_Atti,
0.308059855691165,36.879387396762,4200,2017-11-15 13:40:16,1768.6571854970355,0.6000000192,1.2995989240756,0.15852000507264002,1768.6571854970355,0.6000000192,1.2995989240756,0.15852000507264002,1603,-0.9,100,GPS_Atti,
0.308059508083917,36.879387103145,4300,2017-11-15 13:40:16,1768.8571855034356,0.8000000256,1.2995989240756,0.20912000669184,1768.8571855034356,0.8000000256,1.2995989240756,0.20912000669184,1604,-0.9,100,GPS_Atti,
0.308059157278608,36.8793868593275,4400,2017-11-15 13:40:16,1769.1571855130358,1.1000000352000001,1.1375990581936,0.256458008206656,1769.1571855130358,1.1000000352000001,1.2995989240756,0.256458008206656,1602,-1.7,100,GPS_Atti,
0.308058855103929,36.8793866057005,4500,2017-11-15 13:40:16,1769.4571855226354,1.4000000448,1.0187991565468,0.300326009610432,1769.4571855226354,1.4000000448,1.2995989240756,0.300326009610432,1602,-2.6,100,GPS_Atti,
0.308058608234262,36.8793863335376,4600,2017-11-15 13:40:16,1769.8571855354355,1.8000000576000001,1.1375990581936,0.340794010905408,1769.8571855354355,1.8000000576000001,1.2995989240756,0.340794010905408,1597,-3.5,100,GPS_Atti,
0.308058363061637,36.8793861183607,4700,2017-11-15 13:40:16,1770.2571855482354,2.2000000704000002,1.1375990581936,0.37706501206608,1770.2571855482354,2.2000000704000002,1.2995989240756,0.37706501206608,1597,-4.4,100,GPS_Atti,Home Point Recorded. RTH Altitude:  30m.
0.308058153900829,36.8793858808665,4800,2017-11-15 13:40:16,1770.7571855642357,2.7000000864,1.0187991565468,0.41192801318169603,1770.7571855642357,2.7000000864,1.2995989240756,0.41192801318169603,1599,-5.2,100,GPS_Atti,
0.308057979742001,36.8793856078384,4900,2017-11-15 13:40:16,1771.1571855770355,3.1000000992000003,0.8063993323904,0.446599014291168,1771.1571855770355,3.1000000992000003,1.2995989240756,0.446599014291168,1597,-6.1,100,GPS_Atti,
0.30805788501867,36.8793852976442,5000,2017-11-15 13:40:17,1771.6571855930356,3.6000001152000003,0.8063993323904,0.47799501529584004,1771.6571855930356,3.6000001152000003,1.2995989240756,0.47799501529584004,1592,-7.0,100,GPS_Atti,
0.308057825853229,36.8793849695395,5100,2017-11-15 13:40:17,1772.0571856058355,4.000000128,0.8063993323904,0.508752016280064,1772.0571856058355,4.000000128,1.2995989240756,0.508752016280064,1593,-7.9,100,GPS_Atti,
0.308057758662815,36.8793846737489,5200,2017-11-15 13:40:17,1772.4571856186355,4.4000001408000005,1.0187991565468,0.538178017221696,1772.4571856186355,4.4000001408000005,1.2995989240756,0.538178017221696,1591,-8.8,100,GPS_Atti,
0.30805767261502,36.8793844112422,5300,2017-11-15 13:40:17,1772.9571856346356,4.9000001568,1.0187991565468,0.566578018130496,1772.9571856346356,4.9000001568,1.2995989240756,0.566578018130496,1577,-9.7,100,GPS_Atti,
0.308057595629923,36.8793841644038,5400,2017-11-15 13:40:17,1773.3571856474357,5.3000001696000005,0.8063993323904,0.59322001898304,1773.3571856474357,5.3000001696000005,1.2995989240756,0.59322001898304,1569,-10.6,100,GPS_Atti,
0.308057515416843,36.8793839045154,5500,2017-11-15 13:40:17,1773.7571856602356,5.7000001824,0.8063993323904,0.621417019885344,1773.7571856602356,5.7000001824,1.2995989240756,0.621417019885344,1521,-11.4,100,GPS_Atti,
0.308057420335255,36.8793836305462,5600,2017-11-15 13:40:17,1774.1571856730357,6.100000195200001,1.0187991565468,0.652042020865344,1774.1571856730357,6.100000195200001,1.2995989240756,0.652042020865344,1525,-11.8,100,GPS_Atti,
0.30805731176608,36.8793833517255,5700,2017-11-15 13:40:17,1774.4571856826353,6.4000002048,1.0187991565468,0.684138021892416,1774.4571856826353,6.4000002048,1.2995989240756,0.684138021892416,1525,-11.8,100,GPS_Atti,
0.308057205418509,36.8793830627519,5800,2017-11-15 13:40:17,1774.8571856954354,6.800000217600001,1.0187991565468,0.7171180229477759,1774.8571856954354,6.800000217600001,1.2995989240756,0.7171180229477759,1523,-11.8,100,GPS_Atti,
0.308057108793563,36.8793827724595,5900,2017-11-15 13:40:17,1775.2571857082357,7.200000230400001,1.0187991565468,0.74971502399088,1775.2571857082357,7.200000230400001,1.2995989240756,0.74971502399088,1520,-11.8,100,GPS_Atti,
0.308057026481825,36.8793824524952,6000,2017-11-15 13:40:18,1775.5571857178354,7.50000024,0.8063993323904,0.784287025097184,1775.5571857178354,7.50000024,1.2995989240756,0.784287025097184,1521,-11.8,100,GPS_Atti,
0.30805697449945,36.8793821279692,6100,2017-11-15 13:40:18,1775.8571857274355,7.8000002496,0.8063993323904,0.817647026164704,1775.8571857274355,7.8000002496,1.2995989240756,0.817647026164704,1514,-11.8,100,GPS_Atti,
0.308056942256666,36.8793818019518,6200,2017-11-15 13:40:18,1776.1571857370357,8.1000002592,0.8063993323904,0.850259027208288,1776.1571857370357,8.1000002592,1.2995989240756,0.850259027208288,1497,-11.9,100,GPS_Atti,
0.308056922479214,36.879381491065,6300,2017-11-15 13:40:18,1776.5571857498355,8.500000272,0.8063993323904,0.8810160281925121,1776.5571857498355,8.500000272,1.2995989240756,0.8810160281925121,1497,-11.9,100,GPS_Atti,
0.308056930896234,36.8793811666626,6400,2017-11-15 13:40:18,1776.8571857594357,8.800000281600001,0.8063993323904,0.9118210291782721,1776.8571857594357,8.800000281600001,1.2995989240756,0.9118210291782721,1500,-12.0,100,GPS_Atti,
0.308056954355191,36.8793808463846,6500,2017-11-15 13:40:18,1777.1571857690353,9.1000002912,0.7199994039200001,0.941808030137856,1777.1571857690353,9.1000002912,1.2995989240756,0.941808030137856,1510,-12.0,100,GPS_Atti,
0.308056986085015,36.8793805424,6600,2017-11-15 13:40:18,1777.4571857786354,9.4000003008,0.7199994039200001,0.9701490310447681,1777.4571857786354,9.4000003008,1.2995989240756,0.9701490310447681,1527,-12.0,100,GPS_Atti,
0.308057006501632,36.8793802439878,6700,2017-11-15 13:40:18,1777.7571857882356,9.7000003104,0.7199994039200001,0.9988360319627521,1777.7571857882356,9.7000003104,1.2995989240756,0.9988360319627521,1537,-12.0,100,GPS_Atti,
0.308056995582915,36.8793799364108,6800,2017-11-15 13:40:18,1778.0571857978355,10.00000032,0.7199994039200001,1.0302000329664,1778.0571857978355,10.00000032,1.2995989240756,1.0302000329664,1535,-12.0,100,GPS_Atti,
0.308056956071571,36.8793796335974,6900,2017-11-15 13:40:18,1778.4571858106356,10.400000332800001,0.8063993323904,1.06259003400288,1778.4571858106356,10.400000332800001,1.2995989240756,1.06259003400288,1534,-12.4,100,GPS_Atti,
0.30805692506844,36.8793793655926,7000,2017-11-15 13:40:19,1778.7571858202357,10.700000342400001,0.5075995797636,1.0911500349168002,1778.7571858202357,10.700000342400001,1.2995989240756,1.0911500349168002,1531,-12.7,100,GPS_Atti,
0.308056915246887,36.8793791310888,7100,2017-11-15 13:40:19,1779.0571858298354,11.000000351999999,0.35999970196000003,1.11543003569376,1779.0571858298354,11.000000351999999,1.2995989240756,1.11543003569376,1521,-13.4,100,GPS_Atti,
0.308056878594684,36.8793787483456,7300,2017-11-15 13:40:19,1779.7571858522354,11.7000003744,0.35999970196000003,1.15612003699584,1779.7571858522354,11.7000003744,1.2995989240756,1.15612003699584,1520,-13.4,100,GPS_Atti,
0.308056872872739,36.8793785708625,7400,2017-11-15 13:40:19,1780.0571858618355,12.000000384000002,0.35999970196000003,1.17456003758592,1780.0571858618355,12.000000384000002,1.2995989240756,1.17456003758592,1514,-13.9,100,GPS_Atti,
0.308056876081588,36.8793783936069,7500,2017-11-15 13:40:19,1780.4571858746356,12.400000396800001,0.35999970196000003,1.1926300381641601,1780.4571858746356,12.400000396800001,1.2995989240756,1.1926300381641601,1509,-13.9,100,GPS_Atti,
0.308056866229502,36.8793782188677,7600,2017-11-15 13:40:19,1780.7571858842355,12.700000406400001,0.35999970196000003,1.21104003875328,1780.7571858842355,12.700000406400001,1.2995989240756,1.21104003875328,1500,-13.9,100,GPS_Atti,
0.308056854730244,36.8793780436291,7700,2017-11-15 13:40:19,1781.1571858970356,13.100000419200002,0.35999970196000003,1.22961003934752,1781.1571858970356,13.100000419200002,1.2995989240756,1.22961003934752,1501,-13.9,100,GPS_Atti,
0.308056870248908,36.8793777729388,7900,2017-11-15 13:40:19,1781.7571859162354,13.7000004384,0.35999970196000003,1.257000040224,1781.7571859162354,13.7000004384,1.2995989240756,1.257000040224,1508,-13.9,100,GPS_Atti,
0.308056888344992,36.8793776848474,8000,2017-11-15 13:40:20,1782.1571859290357,14.100000451200001,0.0,1.2654200404934401,1782.1571859290357,14.100000451200001,1.2995989240756,1.2654200404934401,1514,-13.9,100,GPS_Atti,
0.308056912432122,36.8793776195145,8100,2017-11-15 13:40:20,1782.4571859386353,14.400000460800001,0.0,1.2712700406806399,1782.4571859386353,14.400000460800001,1.2995989240756,1.2712700406806399,1521,-13.9,100,GPS_Atti,
0.308056950700963,36.8793776058163,8200,2017-11-15 13:40:20,1782.7571859482355,14.7000004704,0.0,1.2712000406784,1782.7571859482355,14.7000004704,1.2995989240756,1.2712700406806399,1518,-14.0,100,GPS_Atti,
0.308056992331726,36.87937761617,8300,2017-11-15 13:40:20,1783.1571859610356,15.1000004832,0.0,1.2685100405923202,1783.1571859610356,15.1000004832,1.2995989240756,1.2712700406806399,1517,-14.5,100,GPS_Atti,
0.308057010511268,36.8793776523121,8400,2017-11-15 13:40:20,1783.4571859706355,15.4000004928,0.0,1.2640400404492802,1783.4571859706355,15.4000004928,1.2995989240756,1.2712700406806399,1515,-15.0,100,GPS_Atti,
0.30805700979231,36.8793776858473,8500,2017-11-15 13:40:20,1783.7571859802356,15.700000502400002,0.0,1.26057004033824,1783.7571859802356,15.700000502400002,1.2995989240756,1.2712700406806399,1509,-15.6,100,GPS_Atti,
0.308057014581564,36.8793777338986,8600,2017-11-15 13:40:20,1784.1571859930357,16.1000005152,0.0,1.25537004017184,1784.1571859930357,16.1000005152,1.2995989240756,1.2712700406806399,1509,-16.2,100,GPS_Atti,
0.308057035194001,36.8793777713104,8700,2017-11-15 13:40:20,1784.4571860026356,16.400000524800003,0.0,1.25067004002144,1784.4571860026356,16.400000524800003,1.2995989240756,1.2712700406806399,1508,-16.9,100,GPS_Atti,
0.308057035024236,36.8793778026027,8800,2017-11-15 13:40:20,1784.8571860154357,16.800000537600003,0.0,1.24742003991744,1784.8571860154357,16.800000537600003,1.2995989240756,1.2712700406806399,1502,-16.9,100,GPS_Atti,
0.30805701568402,36.8793778214879,8900,2017-11-15 13:40:20,1785.2571860282355,17.2000005504,0.0,1.2462000398784001,1785.2571860282355,17.2000005504,1.2995989240756,1.2712700406806399,1502,-17.5,100,GPS_Atti,
0.308056987030734,36.8793778488158,9000,2017-11-15 13:40:21,1785.5571860378354,17.50000056,0.0,1.24448003982336,1785.5571860378354,17.50000056,1.2995989240756,1.2712700406806399,1500,-18.2,100,GPS_Atti,
0.308056962810072,36.8793779489643,9200,2017-11-15 13:40:21,1786.2571860602354,18.2000005824,0.0,1.2350300395209601,1786.2571860602354,18.2000005824,1.2995989240756,1.2712700406806399,1481,-21.6,100,GPS_Atti,
0.308056939340937,36.8793781041764,9400,2017-11-15 13:40:21,1786.9571860826354,18.900000604800002,0.0,1.21989003903648,1786.9571860826354,18.900000604800002,1.2995989240756,1.2712700406806399,1480,-22.8,100,GPS_Atti,
0.308056930554261,36.8793781837641,9500,2017-11-15 13:40:21,1787.3571860954355,19.300000617600002,0.0,1.21201003878432,1787.3571860954355,19.300000617600002,1.2995989240756,1.2712700406806399,1480,-23.0,100,GPS_Atti,
0.30805692255453,36.8793783050182,9600,2017-11-15 13:40:21,1787.6571861050356,19.6000006272,0.0,1.1998200383942401,1787.6571861050356,19.6000006272,1.2995989240756,1.2712700406806399,1477,-23.0,100,GPS_Atti,
0.308056919235354,36.8793784401481,9700,2017-11-15 13:40:21,1787.9571861146355,19.900000636799998,0.0,1.18603003795296,1787.9571861146355,19.900000636799998,1.2995989240756,1.2712700406806399,1460,-23.0,100,GPS_Atti,
0.30805690574166,36.8793785931484,9800,2017-11-15 13:40:21,1788.3571861274356,20.3000006496,0.0,1.17086003746752,1788.3571861274356,20.3000006496,1.2995989240756,1.2712700406806399,1459,-23.0,100,GPS_Atti,
0.308056887134651,36.8793787116061,9900,2017-11-15 13:40:21,1788.6571861370358,20.6000006592,0.0,1.15951003710432,1788.6571861370358,20.6000006592,1.2995989240756,1.2712700406806399,1464,-23.0,100,GPS_Atti,
0.308056871103027,36.8793788424767,10000,2017-11-15 13:40:22,1788.9571861466354,20.900000668800004,0.0,1.14682003669824,1788.9571861466354,20.900000668800004,1.2995989240756,1.2712700406806399,1465,-23.0,100,GPS_Atti,
0.308056862705142,36.8793789622924,10100,2017-11-15 13:40:22,1789.3571861594355,21.3000006816,0.0,1.13497003631904,1789.3571861594355,21.3000006816,1.2995989240756,1.2712700406806399,1465,-23.0,100,GPS_Atti,
0.308056851016578,36.8793791169612,10200,2017-11-15 13:40:22,1789.6571861690354,21.6000006912,0.0,1.119750035832,1789.6571861690354,21.6000006912,1.2995989240756,1.2712700406806399,1465,-23.0,100,GPS_Atti,
0.308056827825093,36.8793792548105,10300,2017-11-15 13:40:22,1789.9571861786355,21.900000700800003,0.0,1.10683003541856,1789.9571861786355,21.900000700800003,1.2995989240756,1.2712700406806399,1466,-23.0,100,GPS_Atti,
0.308056802948168,36.8793794340601,10400,2017-11-15 13:40:22,1790.2571861882357,22.2000007104,0.0,1.0898800348761601,1790.2571861882357,22.2000007104,1.2995989240756,1.2712700406806399,1472,-23.0,100,GPS_Atti,
0.308056768911246,36.8793795972824,10500,2017-11-15 13:40:22,1790.6571862010355,22.6000007232,0.0,1.0750800344025602,1790.6571862010355,22.6000007232,1.2995989240756,1.2712700406806399,1478,-23.0,100,GPS_Atti,
0.308056720130391,36.8793797519576,10600,2017-11-15 13:40:22,1790.9571862106357,22.900000732800002,0.0,1.06199003398368,1790.9571862106357,22.900000732800002,1.2995989240756,1.2712700406806399,1482,-23.0,100,GPS_Atti,
0.308056658609406,36.8793798453335,10700,2017-11-15 13:40:22,1791.2571862202356,23.2000007424,0.0,1.055750033784,1791.2571862202356,23.2000007424,1.2995989240756,1.2712700406806399,1500,-23.0,100,GPS_Atti,
0.308056510716565,36.8793800662494,10900,2017-11-15 13:40:22,1791.9571862426355,23.9000007648,0.0,1.04158003333056,1791.9571862426355,23.9000007648,1.2995989240756,1.2712700406806399,1500,-23.0,100,GPS_Atti,
0.30805641816395,36.8793801872309,11000,2017-11-15 13:40:23,1792.3571862554354,24.3000007776,0.0,1.0347100331107202,1792.3571862554354,24.3000007776,1.2995989240756,1.2712700406806399,1500,-23.0,100,GPS_Atti,
0.308056330235302,36.8793802736988,11100,2017-11-15 13:40:23,1792.7571862682355,24.7000007904,0.0,1.03116003299712,1792.7571862682355,24.7000007904,1.2995989240756,1.2712700406806399,1499,-23.0,100,GPS_Atti,
0.308056242895337,36.8793803494447,11200,2017-11-15 13:40:23,1793.1571862810354,25.100000803200004,0.0,1.0287600329203201,1793.1571862810354,25.100000803200004,1.2995989240756,1.2712700406806399,1500,-23.0,100,GPS_Atti,
0.30805615794552,36.879380365487,11300,2017-11-15 13:40:23,1793.4571862906355,25.400000812800002,0.0,1.03206003302592,1793.4571862906355,25.400000812800002,1.2995989240756,1.2712700406806399,1500,-23.0,100,GPS_Atti,
0.308056102937903,36.879380382898,11400,2017-11-15 13:40:23,1793.8571863034356,25.8000008256,0.0,1.0335800330745601,1793.8571863034356,25.8000008256,1.2995989240756,1.2712700406806399,1521,-23.0,100,GPS_Atti,
0.308056081074007,36.879380374571,11500,2017-11-15 13:40:23,1794.1571863130355,26.100000835200003,0.35999970196000003,1.03564003314048,1794.1571863130355,26.100000835200003,1.2995989240756,1.2712700406806399,1556,-23.0,100,GPS_Atti,
0.308056082014841,36.879380403638,11600,2017-11-15 13:40:23,1794.5571863258356,26.500000848000003,0.0,1.03283003305056,1794.5571863258356,26.500000848000003,1.2995989240756,1.2712700406806399,1571,-23.0,100,GPS_Atti,
0.308056084293034,36.8793804393738,11700,2017-11-15 13:40:23,1794.9571863386354,26.900000860800002,0.0,1.0293100329379201,1794.9571863386354,26.900000860800002,1.2995989240756,1.2712700406806399,1577,-23.0,99,GPS_Atti,
0.308056084324381,36.8793805207698,11800,2017-11-15 13:40:23,1795.3571863514355,27.3000008736,0.0,1.02162003269184,1795.3571863514355,27.3000008736,1.2995989240756,1.2712700406806399,1578,-23.0,99,GPS_Atti,
0.308056083692138,36.8793805774817,11900,2017-11-15 13:40:23,1795.7571863642356,27.7000008864,0.0,1.01631003252192,1795.7571863642356,27.7000008864,1.2995989240756,1.2712700406806399,1578,-23.0,99,GPS_Atti,
0.308056099054879,36.8793806597507,12000,2017-11-15 13:40:24,1796.1571863770355,28.1000008992,0.0,1.00766003224512,1796.1571863770355,28.1000008992,1.2995989240756,1.2712700406806399,1579,-23.0,99,GPS_Atti,
0.308056134088409,36.8793806998668,12100,2017-11-15 13:40:24,1796.5571863898356,28.500000912,0.0,1.00181003205792,1796.5571863898356,28.500000912,1.2995989240756,1.2712700406806399,1582,-23.0,99,GPS_Atti,
0.308056189720127,36.8793807313946,12200,2017-11-15 13:40:24,1797.0571864058354,29.000000928000002,0.0,0.995544031857408,1797.0571864058354,29.000000928000002,1.2995989240756,1.2712700406806399,1582,-23.0,99,GPS_Atti,
0.308056258753532,36.8793807250203,12300,2017-11-15 13:40:24,1797.4571864186357,29.4000009408,0.0,0.992091031746912,1797.4571864186357,29.4000009408,1.2995989240756,1.2712700406806399,1584,-23.0,99,GPS_Atti,
0.30805630910217,36.8793807610441,12400,2017-11-15 13:40:24,1797.7571864282354,29.700000950400003,0.0,0.985744031543808,1797.7571864282354,29.700000950400003,1.2995989240756,1.2712700406806399,1586,-23.0,99,GPS_Atti,
0.308056334938248,36.8793808082111,12500,2017-11-15 13:40:24,1798.1571864410355,30.1000009632,0.0,0.979771031352672,1798.1571864410355,30.1000009632,1.2995989240756,1.2712700406806399,1595,-23.0,99,GPS_Atti,
0.308056341270453,36.8793809154046,12700,2017-11-15 13:40:24,1798.9571864666354,30.900000988800002,0.0,0.969261031016352,1798.9571864666354,30.900000988800002,1.2995989240756,1.2712700406806399,1599,-23.0,99,GPS_Atti,
0.308056338774862,36.8793809215396,12800,2017-11-15 13:40:24,1799.4571864826355,31.400001004800004,0.0,0.968828031002496,1799.4571864826355,31.400001004800004,1.2995989240756,1.2712700406806399,1602,-23.0,99,GPS_Atti,
0.308056315037441,36.8793809589926,12900,2017-11-15 13:40:24,1799.8571864954356,31.800001017600003,0.0,0.9666980309343361,1799.8571864954356,31.800001017600003,1.2995989240756,1.2712700406806399,1605,-23.0,99,GPS_Atti,
0.308056308406418,36.8793809599224,13000,2017-11-15 13:40:25,1800.2571865082357,32.2000010304,0.0,0.967004030944128,1800.2571865082357,32.2000010304,1.2995989240756,1.2712700406806399,1606,-23.1,99,GPS_Atti,
0.308056327571168,36.8793809087027,13100,2017-11-15 13:40:25,1800.6571865210356,32.6000010432,0.0,0.970698031062336,1800.6571865210356,32.6000010432,1.2995989240756,1.2712700406806399,1605,-23.1,99,GPS_Atti,
0.308056349176549,36.8793808502955,13200,2017-11-15 13:40:25,1801.0571865338356,33.000001056,0.0,0.97495503119856,1801.0571865338356,33.000001056,1.2995989240756,1.2712700406806399,1605,-23.2,99,GPS_Atti,
0.308056390094461,36.8793807819774,13300,2017-11-15 13:40:25,1801.4571865466355,33.4000010688,0.0,0.9790710313302721,1801.4571865466355,33.4000010688,1.2995989240756,1.2712700406806399,1604,-23.2,99,GPS_Atti,
0.308056442965966,36.879380720276,13400,2017-11-15 13:40:25,1801.8571865594356,33.8000010816,0.0,0.981939031422048,1801.8571865594356,33.8000010816,1.2995989240756,1.2712700406806399,1600,-23.3,99,GPS_Atti,
0.308056513925821,36.8793806586699,13500,2017-11-15 13:40:25,1802.2571865722355,34.2000010944,0.0,0.983863031483616,1802.2571865722355,34.2000010944,1.2995989240756,1.2712700406806399,1601,-23.4,99,GPS_Atti,
0.308056557706537,36.8793806004073,13600,2017-11-15 13:40:25,1802.7571865882355,34.7000011104,0.0,0.987061031585952,1802.7571865882355,34.7000011104,1.2995989240756,1.2712700406806399,1602,-23.4,99,GPS_Atti,
0.308056586424147,36.87938054381,13700,2017-11-15 13:40:25,1803.1571866010354,35.1000011232,0.0,0.990971031711072,1803.1571866010354,35.1000011232,1.2995989240756,1.2712700406806399,1601,-23.6,99,GPS_Atti,
0.308056690680389,36.8793804494021,13900,2017-11-15 13:40:25,1803.9571866266353,35.9000011488,0.0,0.9945750318264001,1803.9571866266353,35.9000011488,1.2995989240756,1.2712700406806399,1601,-23.7,99,GPS_Atti,
0.308056760558956,36.8793804127707,14000,2017-11-15 13:40:26,1804.3571866394357,36.3000011616,0.0,0.994501031824032,1804.3571866394357,36.3000011616,1.2995989240756,1.2712700406806399,1615,-24.1,99,GPS_Atti,
0.308056917683447,36.8793803641638,14200,2017-11-15 13:40:26,1805.1571866650356,37.10000118720001,0.0,0.9912660317205121,1805.1571866650356,37.10000118720001,1.2995989240756,1.2712700406806399,1596,-24.6,99,GPS_Atti,
0.308057064101324,36.8793802887326,14400,2017-11-15 13:40:26,1805.9571866906356,37.9000012128,0.0,0.991562031729984,1805.9571866906356,37.9000012128,1.2995989240756,1.2712700406806399,1595,-24.9,99,GPS_Atti,
0.308057133026845,36.8793802334971,14500,2017-11-15 13:40:26,1806.3571867034357,38.3000012256,0.0,0.9938020318016642,1806.3571867034357,38.3000012256,1.2995989240756,1.2712700406806399,1596,-25.2,99,GPS_Atti,
0.30805718311819,36.8793801789756,14600,2017-11-15 13:40:26,1806.7571867162355,38.7000012384,0.0,0.996939031902048,1806.7571867162355,38.7000012384,1.2995989240756,1.2712700406806399,1596,-25.5,99,GPS_Atti,
0.308057210235853,36.8793801342608,14700,2017-11-15 13:40:26,1807.1571867290356,39.100001251200005,0.0,1.0002000320064,1807.1571867290356,39.100001251200005,1.2995989240756,1.2712700406806399,1596,-25.8,99,GPS_Atti,
0.308057235787361,36.8793801003359,14800,2017-11-15 13:40:26,1807.6571867450355,39.60000126720001,0.0,1.00246003207872,1807.6571867450355,39.60000126720001,1.2995989240756,1.2712700406806399,1598,-26.1,99,GPS_Atti,
0.308057274363164,36.879380066669,14900,2017-11-15 13:40:26,1808.0571867578356,40.00000128,0.0,1.00412003213184,1808.0571867578356,40.00000128,1.2995989240756,1.2712700406806399,1598,-26.4,99,GPS_Atti,
0.308057303556279,36.8793800303123,15000,2017-11-15 13:40:27,1808.4571867706354,40.400001292800006,0.0,1.00651003220832,1808.4571867706354,40.400001292800006,1.2995989240756,1.2712700406806399,1600,-26.6,99,GPS_Atti,
0.308057319456406,36.8793799956519,15100,2017-11-15 13:40:27,1808.8571867834355,40.8000013056,0.0,1.00933003229856,1808.8571867834355,40.8000013056,1.2995989240756,1.2712700406806399,1601,-26.6,99,GPS_Atti,
0.308057349983217,36.8793799563821,15200,2017-11-15 13:40:27,1809.2571867962354,41.2000013184,0.0,1.0119900323836801,1809.2571867962354,41.2000013184,1.2995989240756,1.2712700406806399,1602,-26.9,99,GPS_Atti,
0.308057401044707,36.8793799206859,15300,2017-11-15 13:40:27,1809.6571868090355,41.600001331200005,0.0,1.01341003242912,1809.6571868090355,41.600001331200005,1.2995989240756,1.2712700406806399,1605,-27.2,99,GPS_Atti,
0.30805746081878,36.8793799005529,15400,2017-11-15 13:40:27,1810.0571868218353,42.000001344,0.0,1.01292003241344,1810.0571868218353,42.000001344,1.2995989240756,1.2712700406806399,1610,-27.5,99,GPS_Atti,
0.30805752559299,36.8793798889793,15500,2017-11-15 13:40:27,1810.5571868378356,42.50000136,0.0,1.01138003236416,1810.5571868378356,42.50000136,1.2995989240756,1.2712700406806399,1612,-27.7,99,GPS_Atti,
0.308057582111395,36.8793798598882,15600,2017-11-15 13:40:27,1810.9571868506357,42.900001372800006,0.0,1.01204003238528,1810.9571868506357,42.900001372800006,1.2995989240756,1.2712700406806399,1611,-28.0,99,GPS_Atti,
0.30805761808698,36.8793798137971,15700,2017-11-15 13:40:27,1811.3571868634356,43.300001385600005,0.0,1.0153400324908801,1811.3571868634356,43.300001385600005,1.2995989240756,1.2712700406806399,1612,-28.2,99,GPS_Atti,
0.308057647666444,36.8793797782079,15800,2017-11-15 13:40:27,1811.8571868794354,43.80000140160001,0.0,1.01783003257056,1811.8571868794354,43.80000140160001,1.2995989240756,1.2712700406806399,1610,-28.5,99,GPS_Atti,
0.30805767570255,36.8793797480232,15900,2017-11-15 13:40:27,1812.2571868922355,44.2000014144,0.0,1.0198500326352,1812.2571868922355,44.2000014144,1.2995989240756,1.2712700406806399,1610,-28.7,99,GPS_Atti,
0.308057700902721,36.87937970231,16000,2017-11-15 13:40:28,1812.6571869050356,44.600001427200006,0.0,1.0236100327555202,1812.6571869050356,44.600001427200006,1.2995989240756,1.2712700406806399,1612,-28.9,99,GPS_Atti,
0.308057717190418,36.8793796463438,16100,2017-11-15 13:40:28,1813.1571869210356,45.1000014432,0.0,1.0288000329216,1813.1571869210356,45.1000014432,1.2995989240756,1.2712700406806399,1616,-29.1,99,GPS_Atti,
0.308057713282967,36.8793795831367,16200,2017-11-15 13:40:28,1813.5571869338357,45.50000145600001,0.0,1.0355400331372802,1813.5571869338357,45.50000145600001,1.2995989240756,1.2712700406806399,1615,-29.1,99,GPS_Atti,
0.308057700631178,36.8793795328419,16300,2017-11-15 13:40:28,1814.0571869498356,46.00000147200001,0.0,1.04128003332096,1814.0571869498356,46.00000147200001,1.2995989240756,1.2712700406806399,1637,-29.1,99,GPS_Atti,
0.308057694780179,36.8793794791983,16400,2017-11-15 13:40:28,1814.4571869626357,46.4000014848,0.0,1.0471000335072,1814.4571869626357,46.4000014848,1.2995989240756,1.2712700406806399,1637,-29.1,99,GPS_Atti,
0.308057711040599,36.8793794175414,16500,2017-11-15 13:40:28,1814.9571869786355,46.9000015008,0.0,1.0529200336934401,1814.9571869786355,46.9000015008,1.2995989240756,1.2712700406806399,1629,-29.1,99,GPS_Atti,
0.308057715325442,36.8793793451315,16600,2017-11-15 13:40:28,1815.4571869946358,47.4000015168,0.0,1.0603300339305601,1815.4571869946358,47.4000015168,1.2995989240756,1.2712700406806399,1630,-29.1,99,GPS_Atti,
0.308057697411337,36.8793792601924,16700,2017-11-15 13:40:28,1815.9571870106356,47.9000015328,0.0,1.06989003423648,1815.9571870106356,47.9000015328,1.2995989240756,1.2712700406806399,1628,-29.1,99,GPS_Atti,
0.308057670460182,36.8793791674937,16800,2017-11-15 13:40:28,1816.3571870234355,48.300001545600004,0.0,1.08061003457952,1816.3571870234355,48.300001545600004,1.2995989240756,1.2712700406806399,1628,-29.1,99,GPS_Atti,
0.308057657812872,36.8793790862733,16900,2017-11-15 13:40:28,1816.8571870394355,48.800001561600006,0.0,1.08959003486688,1816.8571870394355,48.800001561600006,1.2995989240756,1.2712700406806399,1622,-29.1,99,GPS_Atti,
0.308057629179127,36.8793790162786,17000,2017-11-15 13:40:29,1817.3571870554354,49.3000015776,0.0,1.09799003513568,1817.3571870554354,49.3000015776,1.2995989240756,1.2712700406806399,1624,-29.1,99,GPS_Atti,
0.308057591360957,36.8793789662617,17100,2017-11-15 13:40:29,1817.7571870682357,49.70000159040001,0.0,1.10464003534848,1817.7571870682357,49.70000159040001,1.2995989240756,1.2712700406806399,1624,-29.1,99,GPS_Atti,
0.308057544537086,36.8793789175316,17200,2017-11-15 13:40:29,1818.2571870842355,50.20000160640001,0.0,1.111500035568,1818.2571870842355,50.20000160640001,1.2995989240756,1.2712700406806399,1621,-29.1,99,GPS_Atti,
0.308057480866147,36.8793788109666,17400,2017-11-15 13:40:29,1819.1571871130354,51.1000016352,0.0,1.12506003600192,1819.1571871130354,51.1000016352,1.2995989240756,1.2712700406806399,1623,-29.1,99,GPS_Atti,
0.308057420295765,36.8793787639232,17500,2017-11-15 13:40:29,1819.5571871258355,51.500001648,0.0,1.13229003623328,1819.5571871258355,51.500001648,1.2995989240756,1.2712700406806399,1626,-29.1,99,GPS_Atti,
0.308057365230339,36.8793787217644,17600,2017-11-15 13:40:29,1820.0571871418356,52.000001664,0.0,1.13882003644224,1820.0571871418356,52.000001664,1.2995989240756,1.2712700406806399,1629,-29.1,99,GPS_Atti,
0.308057316903413,36.879378690205,17700,2017-11-15 13:40:29,1820.4571871546357,52.40000167680001,0.0,1.14399003660768,1820.4571871546357,52.40000167680001,1.2995989240756,1.2712700406806399,1633,-29.1,99,GPS_Atti,
0.308057227530743,36.8793786830872,17800,2017-11-15 13:40:29,1820.9571871706355,52.9000016928,0.0,1.1482700367446401,1820.9571871706355,52.9000016928,1.2995989240756,1.2712700406806399,1635,-29.1,99,GPS_Atti,
0.308057128262832,36.8793787064416,17900,2017-11-15 13:40:29,1821.3571871834356,53.3000017056,0.0,1.1498800367961601,1821.3571871834356,53.3000017056,1.2995989240756,1.2712700406806399,1640,-29.1,99,GPS_Atti,
0.308057018166176,36.8793787408423,18000,2017-11-15 13:40:30,1821.8571871994354,53.800001721600005,0.0,1.15091003682912,1821.8571871994354,53.800001721600005,1.2995989240756,1.2712700406806399,1669,-29.1,99,GPS_Atti,
0.308056941226268,36.8793787700662,18100,2017-11-15 13:40:30,1822.2571872122355,54.200001734400004,0.0,1.15119003683808,1822.2571872122355,54.200001734400004,1.2995989240756,1.2712700406806399,1674,-29.1,99,GPS_Atti,
0.30805686101441,36.8793788159978,18200,2017-11-15 13:40:30,1822.7571872282356,54.700001750400006,0.0,1.14997003679904,1822.7571872282356,54.700001750400006,1.2995989240756,1.2712700406806399,1675,-29.1,99,GPS_Atti,
0.308056795602664,36.8793788721251,18300,2017-11-15 13:40:30,1823.2571872442356,55.20000176640001,0.0,1.1471500367088001,1823.2571872442356,55.20000176640001,1.2995989240756,1.2712700406806399,1671,-29.1,99,GPS_Atti,
0.308056735828184,36.8793789076452,18400,2017-11-15 13:40:30,1823.6571872570355,55.6000017792,0.0,1.14623003667936,1823.6571872570355,55.6000017792,1.2995989240756,1.2712700406806399,1665,-29.1,99,GPS_Atti,
0.308056711224838,36.8793789265213,18500,2017-11-15 13:40:30,1824.1571872730356,56.10000179520001,0.0,1.14543003665376,1824.1571872730356,56.10000179520001,1.2995989240756,1.2712700406806399,1653,-29.1,99,GPS_Atti,
0.308056669870096,36.8793789491167,18600,2017-11-15 13:40:30,1824.6571872890356,56.60000181120001,0.0,1.1450500366416,1824.6571872890356,56.60000181120001,1.2995989240756,1.2712700406806399,1650,-29.1,99,GPS_Atti,
0.308056630417783,36.8793789907621,18700,2017-11-15 13:40:30,1825.1571873050357,57.100001827199996,0.0,1.14267003656544,1825.1571873050357,57.100001827199996,1.2995989240756,1.2712700406806399,1652,-29.1,99,GPS_Atti,
0.308056596621871,36.879379043379,18800,2017-11-15 13:40:30,1825.5571873178355,57.50000184,0.0,1.1389500364464,1825.5571873178355,57.50000184,1.2995989240756,1.2712700406806399,1653,-29.1,99,GPS_Atti,
0.308056557037654,36.8793791138753,18900,2017-11-15 13:40:30,1826.0571873338354,58.000001856000004,0.0,1.1337500362800002,1826.0571873338354,58.000001856000004,1.2995989240756,1.2712700406806399,1662,-29.1,99,GPS_Atti,
0.30805650801579,36.8793791861808,19000,2017-11-15 13:40:31,1826.5571873498357,58.500001872,0.0,1.12887003612384,1826.5571873498357,58.500001872,1.2995989240756,1.2712700406806399,1665,-29.1,99,GPS_Atti,
0.308056465773953,36.8793792540574,19100,2017-11-15 13:40:31,1826.9571873626358,58.900001884800005,0.0,1.12416003597312,1826.9571873626358,58.900001884800005,1.2995989240756,1.2712700406806399,1644,-29.1,99,GPS_Atti,
0.308056410595349,36.8793793262302,19200,2017-11-15 13:40:31,1827.4571873786356,59.40000190080001,0.0,1.11972003583104,1827.4571873786356,59.40000190080001,1.2995989240756,1.2712700406806399,1665,-29.4,99,GPS_Atti,
0.308056359493148,36.8793793883651,19300,2017-11-15 13:40:31,1827.9571873946354,59.9000019168,0.0,1.1161400357164801,1827.9571873946354,59.9000019168,1.2995989240756,1.2712700406806399,1668,-29.6,99,GPS_Atti,
0.308056279794249,36.8793794474703,19400,2017-11-15 13:40:31,1828.4571874106355,60.4000019328,0.0,1.1143900356604801,1828.4571874106355,60.4000019328,1.2995989240756,1.2712700406806399,1659,-29.6,99,GPS_Atti,
0.308056206505313,36.8793794939554,19500,2017-11-15 13:40:31,1828.8571874234356,60.80000194560001,0.0,1.1136500356368002,1828.8571874234356,60.80000194560001,1.2995989240756,1.2712700406806399,1662,-29.9,99,GPS_Atti,
0.308056122901813,36.879379535331,19600,2017-11-15 13:40:31,1829.3571874394356,61.3000019616,0.0,1.1140400356492801,1829.3571874394356,61.3000019616,1.2995989240756,1.2712700406806399,1664,-30.2,99,GPS_Atti,
0.308056077339578,36.8793795605627,19700,2017-11-15 13:40:31,1829.8571874554355,61.800001977600004,0.0,1.1140400356492801,1829.8571874554355,61.800001977600004,1.2995989240756,1.2712700406806399,1665,-30.5,99,GPS_Atti,
0.308056030123251,36.8793796020647,19800,2017-11-15 13:40:31,1830.3571874714355,62.300001993600006,0.0,1.11258003560256,1830.3571874714355,62.300001993600006,1.2995989240756,1.2712700406806399,1665,-30.8,99,GPS_Atti,
0.308056006257183,36.8793796405883,19900,2017-11-15 13:40:31,1830.8571874874356,62.80000200960001,0.0,1.11016003552512,1830.8571874874356,62.80000200960001,1.2995989240756,1.2712700406806399,1665,-31.1,99,GPS_Atti,
0.308055964903662,36.8793796938775,20000,2017-11-15 13:40:32,1831.2571875002357,63.2000020224,0.0,1.10731003543392,1831.2571875002357,63.2000020224,1.2995989240756,1.2712700406806399,1660,-31.4,99,GPS_Atti,
0.30805592878681,36.8793797405515,20100,2017-11-15 13:40:32,1831.7571875162355,63.7000020384,0.0,1.1048400353548802,1831.7571875162355,63.7000020384,1.2995989240756,1.2712700406806399,1663,-31.7,99,GPS_Atti,
0.308055885988452,36.8793797809738,20200,2017-11-15 13:40:32,1832.2571875322353,64.2000020544,0.0,1.10338003530816,1832.2571875322353,64.2000020544,1.2995989240756,1.2712700406806399,1667,-31.7,99,GPS_Atti,
0.308055869310336,36.879379783593,20300,2017-11-15 13:40:32,1832.6571875450354,64.6000020672,0.0,1.1040700353302402,1832.6571875450354,64.6000020672,1.2995989240756,1.2712700406806399,1665,-32.6,99,GPS_Atti,
0.308055819041491,36.8793797708503,20500,2017-11-15 13:40:32,1833.6571875770355,65.60000209920001,0.0,1.10816003546112,1833.6571875770355,65.60000209920001,1.2995989240756,1.2712700406806399,1661,-32.8,99,GPS_Atti,
0.308055783791378,36.8793797780003,20600,2017-11-15 13:40:32,1834.1571875930354,66.10000211520001,0.0,1.109500035504,1834.1571875930354,66.10000211520001,1.2995989240756,1.2712700406806399,1660,-33.1,99,GPS_Atti,
0.308055752243939,36.8793798290262,20700,2017-11-15 13:40:32,1834.6571876090356,66.6000021312,0.0,1.10647003540704,1834.6571876090356,66.6000021312,1.2995989240756,1.2712700406806399,1660,-33.1,99,GPS_Atti,
0.30805569657151,36.8793799235144,20800,2017-11-15 13:40:32,1835.1571876250355,67.1000021472,0.0,1.1007900352252802,1835.1571876250355,67.1000021472,1.2995989240756,1.2712700406806399,1662,-33.6,99,GPS_Atti,
0.308055657663912,36.8793800180867,20900,2017-11-15 13:40:32,1835.5571876378356,67.50000216000001,0.0,1.0942100350147201,1835.5571876378356,67.50000216000001,1.2995989240756,1.2712700406806399,1664,-33.6,99,GPS_Atti,
0.30805559585632,36.8793801240928,21000,2017-11-15 13:40:33,1836.0571876538354,68.000002176,0.0,1.08803003481696,1836.0571876538354,68.000002176,1.2995989240756,1.2712700406806399,1664,-33.9,99,GPS_Atti,
0.308055551194208,36.879380214751,21100,2017-11-15 13:40:33,1836.5571876698357,68.500002192,0.0,1.0823400346348802,1836.5571876698357,68.500002192,1.2995989240756,1.2712700406806399,1664,-34.2,99,GPS_Atti,
0.308055501831592,36.8793803138867,21200,2017-11-15 13:40:33,1836.9571876826355,68.9000022048,0.0,1.07626003444032,1836.9571876826355,68.9000022048,1.2995989240756,1.2712700406806399,1664,-34.5,99,GPS_Atti,
0.308055486366259,36.8793803901812,21300,2017-11-15 13:40:33,1837.4571876986356,69.4000022208,0.0,1.07023003424736,1837.4571876986356,69.4000022208,1.2995989240756,1.2712700406806399,1664,-34.5,99,GPS_Atti,
0.308055464311835,36.8793804308974,21400,2017-11-15 13:40:33,1837.9571877146354,69.9000022368,0.0,1.0679000341728,1837.9571877146354,69.9000022368,1.2995989240756,1.2712700406806399,1665,-34.7,99,GPS_Atti,
0.308055455103799,36.8793804285833,21500,2017-11-15 13:40:33,1838.4571877306357,70.40000225280001,0.0,1.0687000341984,1838.4571877306357,70.40000225280001,1.2995989240756,1.2712700406806399,1667,-34.7,99,GPS_Atti,
0.308055431714865,36.8793804182115,21600,2017-11-15 13:40:33,1838.9571877466356,70.90000226880001,0.0,1.07113003427616,1838.9571877466356,70.90000226880001,1.2995989240756,1.2712700406806399,1669,-34.7,99,GPS_Atti,
0.308055423281967,36.8793804110176,21700,2017-11-15 13:40:33,1839.4571877626354,71.40000228480001,0.0,1.07233003431456,1839.4571877626354,71.40000228480001,1.2995989240756,1.2712700406806399,1669,-34.7,99,GPS_Atti,
0.308055408601545,36.8793804150821,21800,2017-11-15 13:40:33,1839.9571877786357,71.9000023008,0.0,1.07289003433248,1839.9571877786357,71.9000023008,1.2995989240756,1.2712700406806399,1670,-34.7,99,GPS_Atti,
0.308055416766563,36.8793804203553,21900,2017-11-15 13:40:33,1840.4571877946355,72.4000023168,0.0,1.07189003430048,1840.4571877946355,72.4000023168,1.2995989240756,1.2712700406806399,1671,-34.7,99,GPS_Atti,
0.308055390443987,36.879380436244,22000,2017-11-15 13:40:34,1840.9571878106356,72.9000023328,0.0,1.0721300343081601,1840.9571878106356,72.9000023328,1.2995989240756,1.2712700406806399,1671,-34.7,99,GPS_Atti,
0.308055363437872,36.8793804564819,22100,2017-11-15 13:40:34,1841.4571878266354,73.4000023488,0.0,1.0720200343046402,1841.4571878266354,73.4000023488,1.2995989240756,1.2712700406806399,1674,-34.7,99,GPS_Atti,
0.308055341100098,36.8793804888999,22200,2017-11-15 13:40:34,1841.9571878426357,73.9000023648,0.0,1.0705300342569601,1841.9571878426357,73.9000023648,1.2995989240756,1.2712700406806399,1674,-34.7,99,GPS_Atti,
0.308055365801558,36.8793805351366,22400,2017-11-15 13:40:34,1842.8571878714356,74.80000239360001,0.0,1.064750034072,1842.8571878714356,74.80000239360001,1.2995989240756,1.2712700406806399,1674,-34.7,99,GPS_Atti,
0.308055379916097,36.8793805341382,22500,2017-11-15 13:40:34,1843.3571878874354,75.3000024096,0.0,1.06393003404576,1843.3571878874354,75.3000024096,1.2995989240756,1.2712700406806399,1675,-34.7,99,GPS_Atti,
0.30805537096169,36.8793805438512,22600,2017-11-15 13:40:34,1843.8571879034357,75.8000024256,0.0,1.0636300340361602,1843.8571879034357,75.8000024256,1.2995989240756,1.2712700406806399,1675,-34.7,99,GPS_Atti,
0.308055354659745,36.8793805611252,22700,2017-11-15 13:40:34,1844.3571879194355,76.3000024416,0.0,1.0631300340201602,1844.3571879194355,76.3000024416,1.2995989240756,1.2712700406806399,1674,-34.7,99,GPS_Atti,
0.308055347071195,36.8793805754438,22800,2017-11-15 13:40:34,1844.8571879354354,76.8000024576,0.0,1.06233003399456,1844.8571879354354,76.8000024576,1.2995989240756,1.2712700406806399,1674,-34.8,99,GPS_Atti,
0.308055310578173,36.879380622977,22900,2017-11-15 13:40:34,1845.3571879514357,77.3000024736,0.0,1.0604500339344,1845.3571879514357,77.3000024736,1.2995989240756,1.2712700406806399,1671,-34.9,99,GPS_Atti,
0.308055275040232,36.8793806481305,23000,2017-11-15 13:40:35,1845.8571879674355,77.8000024896,0.0,1.06053003393696,1845.8571879674355,77.8000024896,1.2995989240756,1.2712700406806399,1672,-35.0,99,GPS_Atti,
0.308055264237135,36.8793806413028,23100,2017-11-15 13:40:35,1846.3571879834356,78.3000025056,0.0,1.06186003397952,1846.3571879834356,78.3000025056,1.2995989240756,1.2712700406806399,1670,-35.2,99,GPS_Atti,
0.30805523923482,36.8793806306584,23200,2017-11-15 13:40:35,1846.8571879994356,78.8000025216,0.0,1.0644700340630402,1846.8571879994356,78.8000025216,1.2995989240756,1.2712700406806399,1671,-35.3,99,GPS_Atti,
0.308055221034515,36.8793806005947,23300,2017-11-15 13:40:35,1847.3571880154357,79.30000253760001,0.0,1.0683600341875201,1847.3571880154357,79.30000253760001,1.2995989240756,1.2712700406806399,1671,-35.3,99,GPS_Atti,
0.308055195434562,36.8793805754706,23400,2017-11-15 13:40:35,1847.8571880314355,79.80000255360001,0.0,1.0723000343136,1847.8571880314355,79.80000255360001,1.2995989240756,1.2712700406806399,1671,-35.8,99,GPS_Atti,
0.308055204447592,36.879380569183,23500,2017-11-15 13:40:35,1848.3571880474353,80.30000256960001,0.0,1.07226003431232,1848.3571880474353,80.30000256960001,1.2995989240756,1.2712700406806399,1671,-36.1,99,GPS_Atti,
0.308055201943452,36.8793805686616,23600,2017-11-15 13:40:35,1848.8571880634356,80.80000258560001,0.0,1.07247003431904,1848.8571880634356,80.80000258560001,1.2995989240756,1.2712700406806399,1671,-36.4,99,GPS_Atti,
0.308055220990955,36.879380554389,23700,2017-11-15 13:40:35,1849.3571880794354,81.3000026016,0.0,1.07249003431968,1849.3571880794354,81.3000026016,1.2995989240756,1.2712700406806399,1671,-36.4,99,GPS_Atti,
0.308055237797718,36.8793805593887,23800,2017-11-15 13:40:35,1849.7571880922355,81.7000026144,0.0,1.07094003427008,1849.7571880922355,81.7000026144,1.2995989240756,1.2712700406806399,1671,-37.0,99,GPS_Atti,
0.308055274480862,36.8793805599866,23900,2017-11-15 13:40:35,1850.2571881082354,82.20000263040001,0.0,1.06847003419104,1850.2571881082354,82.20000263040001,1.2995989240756,1.2712700406806399,1671,-37.2,99,GPS_Atti,
0.308055296516152,36.8793805243236,24000,2017-11-15 13:40:36,1850.7571881242357,82.70000264640001,0.0,1.07023003424736,1850.7571881242357,82.70000264640001,1.2995989240756,1.2712700406806399,1671,-37.2,99,GPS_Atti,
0.308055328508562,36.8793804605929,24100,2017-11-15 13:40:36,1851.2571881402355,83.20000266240001,0.0,1.07391003436512,1851.2571881402355,83.20000266240001,1.2995989240756,1.2712700406806399,1672,-37.5,99,GPS_Atti,
0.308055348699639,36.8793803984719,24200,2017-11-15 13:40:36,1851.7571881562355,83.70000267840001,0.0,1.07824003450368,1851.7571881562355,83.70000267840001,1.2995989240756,1.2712700406806399,1670,-37.5,99,GPS_Atti,
0.30805537974226,36.8793803446699,24300,2017-11-15 13:40:36,1852.2571881722356,84.20000269440001,0.0,1.0811500345968001,1852.2571881722356,84.20000269440001,1.2995989240756,1.2712700406806399,1670,-37.8,99,GPS_Atti,
0.308055382663689,36.8793803208134,24400,2017-11-15 13:40:36,1852.6571881850357,84.60000270719999,0.0,1.08314003466048,1852.6571881850357,84.60000270719999,1.2995989240756,1.2712700406806399,1669,-37.8,99,GPS_Atti,
0.30805539542214,36.8793803478271,24500,2017-11-15 13:40:36,1853.1571882010355,85.1000027232,0.0,1.07986003455552,1853.1571882010355,85.1000027232,1.2995989240756,1.2712700406806399,1669,-37.8,99,GPS_Atti,
0.308055397079896,36.8793803837647,24600,2017-11-15 13:40:36,1853.6571882170354,85.60000273920001,0.0,1.07648003444736,1853.6571882170354,85.60000273920001,1.2995989240756,1.2712700406806399,1669,-37.8,99,GPS_Atti,
0.308055431250758,36.8793803914462,24700,2017-11-15 13:40:36,1854.0571882298354,86.000002752,0.0,1.0736100343555202,1854.0571882298354,86.000002752,1.2995989240756,1.2712700406806399,1670,-37.8,99,GPS_Atti,
0.308055533802019,36.8793803489994,24900,2017-11-15 13:40:36,1855.0571882618356,87.000002784,0.35999970196000003,1.0710300342729602,1855.0571882618356,87.000002784,1.2995989240756,1.2712700406806399,1667,-37.8,99,GPS_Atti,
0.30805556686391,36.8793803232318,25000,2017-11-15 13:40:37,1855.5571882778354,87.50000280000002,0.35999970196000003,1.0713500342832,1855.5571882778354,87.50000280000002,1.2995989240756,1.2712700406806399,1663,-37.8,99,GPS_Atti,
0.308055670864079,36.8793802132538,25300,2017-11-15 13:40:37,1856.9571883226356,88.9000028448,0.0,1.07517003440544,1856.9571883226356,88.9000028448,1.2995989240756,1.2712700406806399,1654,-37.8,99,GPS_Atti,
0.308055644173882,36.8793801727598,25400,2017-11-15 13:40:37,1857.4571883386354,89.4000028608,0.0,1.08056003457792,1857.4571883386354,89.4000028608,1.2995989240756,1.2712700406806399,1654,-37.8,99,GPS_Atti,
0.308055617232497,36.8793801235538,25500,2017-11-15 13:40:37,1857.9571883546357,89.9000028768,0.0,1.08678003477696,1857.9571883546357,89.9000028768,1.2995989240756,1.2712700406806399,1655,-37.8,99,GPS_Atti,
0.308055589833927,36.879380068087,25600,2017-11-15 13:40:37,1858.4571883706355,90.4000028928,0.0,1.09361003499552,1858.4571883706355,90.4000028928,1.2995989240756,1.2712700406806399,1655,-37.8,99,GPS_Atti,
0.308055591430616,36.8793800278451,25700,2017-11-15 13:40:37,1858.9571883866356,90.9000029088,0.0,1.09727003511264,1858.9571883866356,90.9000029088,1.2995989240756,1.2712700406806399,1656,-37.8,99,GPS_Atti,
0.308055577475258,36.8793800192044,25800,2017-11-15 13:40:37,1859.3571883994355,91.3000029216,0.0,1.09892003516544,1859.3571883994355,91.3000029216,1.2995989240756,1.2712700406806399,1656,-37.8,99,GPS_Atti,
0.308055574853871,36.8793800422628,25900,2017-11-15 13:40:37,1859.8571884154353,91.8000029376,0.0,1.09693003510176,1859.8571884154353,91.8000029376,1.2995989240756,1.2712700406806399,1657,-37.8,99,GPS_Atti,
0.308055552137077,36.8793800492366,26000,2017-11-15 13:40:38,1860.3571884314356,92.3000029536,0.0,1.09766003512512,1860.3571884314356,92.3000029536,1.2995989240756,1.2712700406806399,1654,-37.8,99,GPS_Atti,
0.308055543562505,36.8793799938453,26200,2017-11-15 13:40:38,1861.2571884602355,93.20000298240001,0.0,1.10334003530688,1861.2571884602355,93.20000298240001,1.2995989240756,1.2712700406806399,1655,-37.8,99,GPS_Atti,
0.308055530508084,36.8793799956696,26300,2017-11-15 13:40:38,1861.7571884762353,93.70000299840001,0.0,1.10396003532672,1861.7571884762353,93.70000299840001,1.2995989240756,1.2712700406806399,1654,-37.8,99,GPS_Atti,
0.308055473642819,36.8793800337559,26400,2017-11-15 13:40:38,1862.2571884922356,94.20000301440001,0.0,1.10389003532448,1862.2571884922356,94.20000301440001,1.2995989240756,1.2712700406806399,1654,-37.8,99,GPS_Atti,
0.308055396917459,36.8793801231154,26500,2017-11-15 13:40:38,1862.6571885050355,94.6000030272,0.35999970196000003,1.10037003521184,1862.6571885050355,94.6000030272,1.2995989240756,1.2712700406806399,1654,-37.8,99,GPS_Atti,
0.308055321343816,36.8793802441141,26600,2017-11-15 13:40:38,1863.1571885210356,95.1000030432,0.35999970196000003,1.09403003500896,1863.1571885210356,95.1000030432,1.2995989240756,1.2712700406806399,1652,-37.8,99,GPS_Atti,
0.308055293462819,36.8793803907369,26700,2017-11-15 13:40:38,1863.6571885370354,95.6000030592,0.35999970196000003,1.08249003463968,1863.6571885370354,95.6000030592,1.2995989240756,1.2712700406806399,1652,-37.8,99,GPS_Atti,
0.308055267259934,36.8793805574348,26800,2017-11-15 13:40:38,1864.0571885498355,96.00000307200001,0.35999970196000003,1.06917003421344,1864.0571885498355,96.00000307200001,1.2995989240756,1.2712700406806399,1652,-37.8,99,GPS_Atti,
0.308055274905071,36.8793807285351,26900,2017-11-15 13:40:38,1864.5571885658355,96.50000308800001,0.35999970196000003,1.05337003370784,1864.5571885658355,96.50000308800001,1.2995989240756,1.2712700406806399,1649,-37.8,99,GPS_Atti,
0.308055298093707,36.8793808981456,27000,2017-11-15 13:40:39,1864.9571885786356,96.90000310079999,0.5075995797636,1.03676003317632,1864.9571885786356,96.90000310079999,1.2995989240756,1.2712700406806399,1650,-37.8,99,GPS_Atti,
0.308055408785559,36.8793811848809,27200,2017-11-15 13:40:39,1865.8571886074355,97.8000031296,0.5075995797636,1.0039700321270402,1865.8571886074355,97.8000031296,1.2995989240756,1.2712700406806399,1649,-37.8,99,GPS_Atti,
0.30805544833395,36.8793812761573,27300,2017-11-15 13:40:39,1866.3571886234354,98.3000031456,0.35999970196000003,0.9932620317843841,1866.3571886234354,98.3000031456,1.2995989240756,1.2712700406806399,1650,-37.8,99,GPS_Atti,
0.308055456218062,36.8793813391621,27400,2017-11-15 13:40:39,1866.7571886362357,98.70000315840001,0.0,0.9872060315905921,1866.7571886362357,98.70000315840001,1.2995989240756,1.2712700406806399,1650,-37.8,99,GPS_Atti,
0.308055472330294,36.879381400455,27500,2017-11-15 13:40:39,1867.2571886522355,99.20000317440001,0.0,0.9807450313838401,1867.2571886522355,99.20000317440001,1.2995989240756,1.2712700406806399,1651,-37.8,99,GPS_Atti,
0.308055467882199,36.8793814631221,27600,2017-11-15 13:40:39,1867.7571886682356,99.7000031904,0.35999970196000003,0.975599031219168,1867.7571886682356,99.7000031904,1.2995989240756,1.2712700406806399,1650,-37.8,99,GPS_Atti,
0.308055512956307,36.8793815069151,27700,2017-11-15 13:40:39,1868.1571886810354,100.1000032032,0.35999970196000003,0.968666030997312,1868.1571886810354,100.1000032032,1.2995989240756,1.2712700406806399,1649,-37.8,98,GPS_Atti,
0.308055541062436,36.8793815567918,27800,2017-11-15 13:40:39,1868.5571886938355,100.50000321600001,0.35999970196000003,0.962381030796192,1868.5571886938355,100.50000321600001,1.2995989240756,1.2712700406806399,1649,-37.8,98,GPS_Atti,
0.308055569693739,36.8793816098401,27900,2017-11-15 13:40:39,1869.0571887098356,101.00000323200001,0.0,0.9557860305851521,1869.0571887098356,101.00000323200001,1.2995989240756,1.2712700406806399,1645,-37.8,98,GPS_Atti,
0.308055553780584,36.8793816850995,28000,2017-11-15 13:40:40,1869.5571887258357,101.50000324800001,0.0,0.95038503041232,1869.5571887258357,101.50000324800001,1.2995989240756,1.2712700406806399,1642,-37.8,98,GPS_Atti,
0.308055535089711,36.8793817342043,28100,2017-11-15 13:40:40,1870.0571887418355,102.00000326400001,0.0,0.947472030319104,1870.0571887418355,102.00000326400001,1.2995989240756,1.2712700406806399,1639,-37.8,98,GPS_Atti,
0.308055471995648,36.8793817668193,28200,2017-11-15 13:40:40,1870.5571887578353,102.50000328,0.0,0.949157030373024,1870.5571887578353,102.50000328,1.2995989240756,1.2712700406806399,1632,-37.8,98,GPS_Atti,
0.308055442360003,36.8793817845193,28300,2017-11-15 13:40:40,1870.9571887706354,102.90000329280001,0.0,0.9497670303925441,1870.9571887706354,102.90000329280001,1.2995989240756,1.2712700406806399,1563,-37.8,98,GPS_Atti,
0.30805542356491,36.8793818394669,28400,2017-11-15 13:40:40,1871.4571887866357,103.40000330880001,0.35999970196000003,0.946457030286624,1871.4571887866357,103.40000330880001,1.2995989240756,1.2712700406806399,1447,-37.8,98,GPS_Atti,
0.308055454690988,36.8793818944658,28500,2017-11-15 13:40:40,1871.8571887994356,103.80000332160002,0.0,0.9395570300658241,1871.8571887994356,103.80000332160002,1.2995989240756,1.2712700406806399,1315,-37.8,98,GPS_Atti,
0.308055446017895,36.8793819509331,28600,2017-11-15 13:40:40,1872.2571888122357,104.2000033344,0.0,0.9354240299335681,1872.2571888122357,104.2000033344,1.2995989240756,1.2712700406806399,1085,-37.8,98,GPS_Atti,
0.308055449856138,36.8793819858498,28700,2017-11-15 13:40:40,1872.6571888250355,104.6000033472,0.0,0.932209029830688,1872.6571888250355,104.6000033472,1.2995989240756,1.2712700406806399,1024,-37.8,98,GPS_Atti,
0.308055413989252,36.8793820409414,28800,2017-11-15 13:40:40,1872.9571888346356,104.90000335680001,0.0,0.930223029767136,1872.9571888346356,104.90000335680001,1.2995989240756,1.2712700406806399,1024,-37.8,98,GPS_Atti,
0.308055381280733,36.879382069402,28900,2017-11-15 13:40:40,1873.1571888410356,105.1000033632,0.0,0.930266029768512,1873.1571888410356,105.1000033632,1.2995989240756,1.2712700406806399,1024,-37.8,98,GPS_Atti,
0.308055306788376,36.8793820826773,29000,2017-11-15 13:40:41,1873.2571888442353,105.2000033664,0.0,0.934701029910432,1873.2571888442353,105.2000033664,1.2995989240756,1.2712700406806399,1024,-37.8,98,GPS_Atti,
0.308055248108618,36.8793820616477,29100,2017-11-15 13:40:41,1873.2571888442353,105.2000033664,0.0,0.9408180301061762,1873.2571888442353,105.2000033664,1.2995989240756,1.2712700406806399,1024,-37.8,98,GPS_Atti,
0.308055176820632,36.8793820527238,29200,2017-11-15 13:40:41,1873.2571888442353,105.2000033664,0.0,0.9469040303009281,1873.2571888442353,105.2000033664,1.2995989240756,1.2712700406806399,1024,-37.8,98,GPS_Atti,
0.308055135051044,36.8793820364674,29300,2017-11-15 13:40:41,1873.2571888442353,105.2000033664,0.0,0.9513830304442561,1873.2571888442353,105.2000033664,1.2995989240756,1.2712700406806399,1024,-37.8,98,GPS_Atti,
0.308055061961999,36.8793820138645,29400,2017-11-15 13:40:41,1873.2571888442353,105.2000033664,0.35999970196000003,0.9587570306802241,1873.2571888442353,105.2000033664,1.2995989240756,1.2712700406806399,1024,-37.8,98,GPS_Atti,
0.308054981713093,36.8793819632802,29500,2017-11-15 13:40:41,1873.2571888442353,105.2000033664,0.35999970196000003,0.968962031006784,1873.2571888442353,105.2000033664,1.2995989240756,1.2712700406806399,1024,-37.8,98,GPS_Atti,
0.30805487305761,36.8793819228424,29600,2017-11-15 13:40:41,1873.3571888474355,105.30000336959999,0.35999970196000003,0.980527031376864,1873.3571888474355,105.30000336959999,1.2995989240756,1.2712700406806399,1024,-37.8,98,GPS_Atti,
0.308054646749491,36.8793818835196,29800,2017-11-15 13:40:41,1873.3571888474355,105.30000336959999,0.5075995797636,1.00114003203648,1873.3571888474355,105.30000336959999,1.2995989240756,1.2712700406806399,1024,-37.8,98,GPS_Atti,
0.30805456019525,36.8793818804694,29900,2017-11-15 13:40:41,1873.3571888474355,105.30000336959999,0.5075995797636,1.00814003226048,1873.3571888474355,105.30000336959999,1.2995989240756,1.2712700406806399,1024,-37.8,98,GPS_Atti,
0.308054558576577,36.8793818612877,30000,2017-11-15 13:40:42,1873.4571888506355,105.40000337280001,1.4831987720752,1.00978003231296,1873.4571888506355,105.40000337280001,1.4831987720752,1.2712700406806399,1024,-37.8,98,GPS_Atti,
0.308054900468394,36.8793818157142,30100,2017-11-15 13:40:42,1873.4571888506355,105.40000337280001,2.9015975977976,0.9871220315879041,1873.4571888506355,105.40000337280001,2.9015975977976,1.2712700406806399,1024,-37.8,98,GPS_Atti,
0.308055747803987,36.8793817461269,30200,2017-11-15 13:40:42,1873.4571888506355,105.40000337280001,5.0903957857144,0.931592029810944,1873.4571888506355,105.40000337280001,5.0903957857144,1.2712700406806399,1024,-37.8,98,GPS_Atti,
