latitude,longitude,time_millisecond,datetime_utc,altitude_m,ascent_m,speed_kph,distance_m,max_altitude_m,max_ascent_m,max_speed_kph,max_distance_m,rc_throttle,gimbal_pitch_degrees,battery_percent,flycState,message
0.341419678436308,36.9110526457055,0,2018-04-04 06:01:02,1645.087577042802,0.0,0.0,0.0,1645.087577042802,0.0,0.0,0.0,364,0.0,99,Motors_Started,
0.341419758515042,36.9110526598387,100,2018-04-04 06:01:02,1645.087577042802,0.0,0.0,0.00904287028937184,1645.087577042802,0.0,0.0,0.00904287028937184,364,0.0,99,Motors_Started,
0.341419813359407,36.9110526830239,200,2018-04-04 06:01:02,1645.087577042802,0.0,0.0,0.0155676004981632,1645.087577042802,0.0,0.0,0.0155676004981632,364,0.0,99,Motors_Started,
0.341419872661638,36.9110527143795,300,2018-04-04 06:01:02,1645.087577042802,0.0,0.0,0.022909400733100802,1645.087577042802,0.0,0.0,0.022909400733100802,364,0.0,99,Motors_Started,Setting new Return-To-Home altitude to 30m (98 ft). Setting new Maximum Flight Altitude to 150m (492 ft)
0.341419909972547,36.9110527253523,400,2018-04-04 06:01:02,1645.087577042802,0.0,0.0,0.027229000871328003,1645.087577042802,0.0,0.0,0.027229000871328003,364,0.0,99,Motors_Started,
0.34141995704842,36.9110527390545,500,2018-04-04 06:01:02,1645.087577042802,0.0,0.0,0.0326761010456352,1645.087577042802,0.0,0.0,0.0326761010456352,364,0.0,99,Motors_Started,
0.341419986968636,36.911052732542,600,2018-04-04 06:01:02,1645.087577042802,0.0,0.0,0.0356437011405984,1645.087577042802,0.0,0.0,0.0356437011405984,364,0.0,99,Motors_Started,
0.341420028640518,36.9110527334172,700,2018-04-04 06:01:02,1645.087577042802,0.0,0.0,0.0401477012847264,1645.087577042802,0.0,0.0,0.0401477012847264,364,0.0,99,Motors_Started,
0.341420057242508,36.9110527180357,800,2018-04-04 06:01:03,1645.087577042802,0.0,0.0,0.04288660137237121,1645.087577042802,0.0,0.0,0.04288660137237121,364,0.0,99,Motors_Started,
0.341420096049143,36.911052713333,900,2018-04-04 06:01:03,1645.087577042802,0.0,0.0,0.0470461015054752,1645.087577042802,0.0,0.0,0.0470461015054752,364,0.0,99,Motors_Started,
0.341420126871517,36.9110526973268,1000,2018-04-04 06:01:03,1645.087577042802,0.0,0.0,0.050198001606336,1645.087577042802,0.0,0.0,0.050198001606336,364,0.0,99,Motors_Started,
0.341420165940331,36.9110526909545,1100,2018-04-04 06:01:03,1645.087577042802,0.0,0.0,0.0544464017422848,1645.087577042802,0.0,0.0,0.0544464017422848,364,0.0,99,Motors_Started,
0.341420199266437,36.911052670518,1200,2018-04-04 06:01:03,1645.087577042802,0.0,0.0,0.0579852018555264,1645.087577042802,0.0,0.0,0.0579852018555264,364,0.0,99,Motors_Started,
0.341420240689982,36.9110526657222,1300,2018-04-04 06:01:03,1645.087577042802,0.0,0.0,0.0625656020020992,1645.087577042802,0.0,0.0,0.0625656020020992,373,0.0,99,Motors_Started,
0.341420278139308,36.9110526505446,1400,2018-04-04 06:01:03,1645.087577042802,0.0,0.0,0.0666928021341696,1645.087577042802,0.0,0.0,0.0666928021341696,503,0.0,99,Motors_Started,
0.341420322990727,36.9110526461664,1500,2018-04-04 06:01:03,1645.087577042802,0.0,0.0,0.07167840229370881,1645.087577042802,0.0,0.0,0.07167840229370881,743,0.0,99,Motors_Started,
0.341420366045972,36.9110526353114,1600,2018-04-04 06:01:03,1645.087577042802,0.0,0.0,0.07647510244720321,1645.087577042802,0.0,0.0,0.07647510244720321,1024,0.0,99,Assisted_Takeoff,
0.341420412178162,36.9110526271314,1700,2018-04-04 06:01:03,1645.087577042802,0.0,0.0,0.0816227026119264,1645.087577042802,0.0,0.0,0.0816227026119264,1024,0.0,99,Assisted_Takeoff,
0.341420428144241,36.9110526179214,1800,2018-04-04 06:01:04,1645.087577042802,0.0,0.0,0.0834293026697376,1645.087577042802,0.0,0.0,0.0834293026697376,1024,0.0,99,Assisted_Takeoff,
0.341420445492869,36.9110526116433,1900,2018-04-04 06:01:04,1645.087577042802,0.0,0.0,0.0853854027323328,1645.087577042802,0.0,0.0,0.0853854027323328,1024,0.0,99,Assisted_Takeoff,
0.341420464836341,36.9110526060028,2000,2018-04-04 06:01:04,1645.087577042802,0.0,0.0,0.0875639028020448,1645.087577042802,0.0,0.0,0.0875639028020448,1024,0.0,99,Assisted_Takeoff,
0.341420493708653,36.9110526027733,2100,2018-04-04 06:01:04,1645.087577042802,0.0,0.0,0.09078890290524481,1645.087577042802,0.0,0.0,0.09078890290524481,1024,0.0,99,Assisted_Takeoff,
0.34142049671069,36.9110525990475,2200,2018-04-04 06:01:04,1645.087577042802,0.0,0.0,0.09114490291663681,1645.087577042802,0.0,0.0,0.09114490291663681,1024,0.0,99,Assisted_Takeoff,
0.341420504471854,36.9110525977863,2300,2018-04-04 06:01:04,1645.087577042802,0.0,0.0,0.09201460294446721,1645.087577042802,0.0,0.0,0.09201460294446721,1024,0.0,99,Assisted_Takeoff,
0.341420545109674,36.9110525353175,2500,2018-04-04 06:01:04,1645.087577042802,0.0,0.0,0.09715800310905601,1645.087577042802,0.0,0.0,0.09715800310905601,1039,0.0,99,Assisted_Takeoff,
0.34142058141339,36.9110525054715,2600,2018-04-04 06:01:04,1645.087577042802,0.0,0.0,0.10162000325184,1645.087577042802,0.0,0.0,0.10162000325184,1284,0.0,99,Assisted_Takeoff,
0.341420638326694,36.9110525041112,2800,2018-04-04 06:01:05,1645.087577042802,0.0,0.0,0.107901003452832,1645.087577042802,0.0,0.0,0.107901003452832,1434,0.0,99,Assisted_Takeoff,
0.34142065635194,36.9110525249866,2900,2018-04-04 06:01:05,1645.087577042802,0.0,0.0,0.109576003506432,1645.087577042802,0.0,0.0,0.109576003506432,1549,0.0,99,Assisted_Takeoff,
0.341420655383016,36.9110525526379,3000,2018-04-04 06:01:05,1645.087577042802,0.0,0.0,0.10913400349228801,1645.087577042802,0.0,0.0,0.109576003506432,1643,0.0,99,Assisted_Takeoff,
0.341420658962336,36.9110525777615,3100,2018-04-04 06:01:05,1645.087577042802,0.0,0.0,0.109302003497664,1645.087577042802,0.0,0.0,0.109576003506432,1684,0.0,99,Assisted_Takeoff,
0.341420661100483,36.9110526235459,3200,2018-04-04 06:01:05,1645.087577042802,0.0,0.0,0.10930600349779201,1645.087577042802,0.0,0.0,0.109576003506432,1684,0.0,99,Assisted_Takeoff,
0.341420680303909,36.9110526924089,3300,2018-04-04 06:01:05,1645.087577042802,0.0,0.0,0.11153500356912001,1645.087577042802,0.0,0.0,0.11153500356912001,1684,0.0,99,P-GPS,
0.341420797450099,36.9110528046308,3400,2018-04-04 06:01:05,1645.087577042802,0.0,0.35999970196000003,0.12569000402208,1645.087577042802,0.0,0.35999970196000003,0.12569000402208,1684,0.0,99,P-GPS,Home Point Recorded. RTH Altitude:  30m.
0.341420974648418,36.9110529174276,3500,2018-04-04 06:01:05,1645.1875770460022,0.1000000032,0.35999970196000003,0.14728000471296002,1645.1875770460022,0.1000000032,0.35999970196000003,0.14728000471296002,1684,0.0,99,P-GPS,
0.341421174579816,36.9110530080948,3600,2018-04-04 06:01:05,1645.2875770492021,0.2000000064,0.35999970196000003,0.171191005478112,1645.2875770492021,0.2000000064,0.35999970196000003,0.171191005478112,1684,0.0,99,P-GPS,
0.341421383215246,36.9110530926589,3700,2018-04-04 06:01:06,1645.387577052402,0.3000000096,0.503999582744,0.195989006271648,1645.387577052402,0.3000000096,0.503999582744,0.195989006271648,1684,0.0,99,P-GPS,
0.341421625174341,36.9110532956792,3800,2018-04-04 06:01:06,1645.5875770588023,0.500000016,0.7919993443119999,0.22823700730358404,1645.5875770588023,0.500000016,0.7919993443119999,0.22823700730358404,1684,0.0,99,P-GPS,
0.341421825253112,36.9110535270552,3900,2018-04-04 06:01:06,1645.787577065202,0.7000000224,0.7919993443119999,0.258074008258368,1645.787577065202,0.7000000224,0.7919993443119999,0.258074008258368,1684,0.0,99,P-GPS,
0.341421917025702,36.911053686192,4000,2018-04-04 06:01:06,1646.087577074802,1.000000032,0.0,0.27452000878464,1646.087577074802,1.000000032,0.7919993443119999,0.27452000878464,1684,0.0,99,P-GPS,
0.341421969901279,36.9110537605601,4100,2018-04-04 06:01:06,1646.3875770844022,1.3000000416000002,0.0,0.28338300906825603,1646.3875770844022,1.3000000416000002,0.7919993443119999,0.28338300906825603,1684,0.0,99,P-GPS,
0.34142199794227,36.91105380702,4300,2018-04-04 06:01:06,1647.1875771100022,2.1000000672000003,0.0,0.288466009230912,1647.1875771100022,2.1000000672000003,0.7919993443119999,0.288466009230912,1684,0.0,99,P-GPS,
0.341422081314532,36.9110538576612,4400,2018-04-04 06:01:06,1647.687577126002,2.6000000832000003,0.35999970196000003,0.299279009576928,1647.687577126002,2.6000000832000003,0.7919993443119999,0.299279009576928,1684,0.0,99,P-GPS,
0.341422266729979,36.9110539174256,4500,2018-04-04 06:01:06,1648.1875771420023,3.1000000992000003,0.7199994039200001,0.32070001026239997,1648.1875771420023,3.1000000992000003,0.7919993443119999,0.32070001026239997,1684,0.0,99,P-GPS,
0.341422513044347,36.9110538932141,4600,2018-04-04 06:01:06,1648.6875771580021,3.6000001152000003,0.7199994039200001,0.34440201102086404,1648.6875771580021,3.6000001152000003,0.7919993443119999,0.34440201102086404,1684,0.0,99,P-GPS,
0.341422714607446,36.9110538510378,4700,2018-04-04 06:01:06,1649.187577174002,4.100000131200001,0.35999970196000003,0.363273011624736,1649.187577174002,4.100000131200001,0.7919993443119999,0.363273011624736,1684,0.0,99,P-GPS,
0.341422811538946,36.9110538044489,4800,2018-04-04 06:01:07,1649.7875771932022,4.7000001504,0.0,0.37148401188748803,1649.7875771932022,4.7000001504,0.7919993443119999,0.37148401188748803,1684,0.0,99,P-GPS,
0.341422856674528,36.9110538055859,4900,2018-04-04 06:01:07,1650.287577209202,5.200000166400001,0.0,0.37624001203968005,1650.287577209202,5.200000166400001,0.7919993443119999,0.37624001203968005,1684,0.0,99,P-GPS,
0.341422860040522,36.9110538230166,5000,2018-04-04 06:01:07,1650.787577225202,5.7000001824,0.35999970196000003,0.377259012072288,1650.787577225202,5.7000001824,0.7919993443119999,0.377259012072288,1684,0.0,99,P-GPS,
0.341422871679011,36.9110538510769,5100,2018-04-04 06:01:07,1651.2875772412021,6.200000198400001,0.35999970196000003,0.379564012146048,1651.2875772412021,6.200000198400001,0.7919993443119999,0.379564012146048,1684,0.0,99,P-GPS,
0.341422902572222,36.9110539179775,5200,2018-04-04 06:01:07,1651.7875772572022,6.7000002144,0.35999970196000003,0.38544901233436807,1651.7875772572022,6.7000002144,0.7919993443119999,0.38544901233436807,1684,0.0,99,P-GPS,
0.341422926586886,36.911053989835,5300,2018-04-04 06:01:07,1652.287577273202,7.200000230400001,0.0,0.390919012509408,1652.287577273202,7.200000230400001,0.7919993443119999,0.390919012509408,1684,0.0,99,P-GPS,
0.341422902186281,36.9110540366075,5400,2018-04-04 06:01:07,1652.7875772892023,7.7000002464,0.0,0.390444012494208,1652.7875772892023,7.7000002464,0.7919993443119999,0.390919012509408,1684,0.0,99,P-GPS,
0.341422856917167,36.9110540663669,5500,2018-04-04 06:01:07,1653.2875773052021,8.200000262400001,0.0,0.38716601238931203,1653.2875773052021,8.200000262400001,0.7919993443119999,0.390919012509408,1684,0.0,99,P-GPS,
0.341422791010781,36.9110541225929,5600,2018-04-04 06:01:07,1653.787577321202,8.700000278400001,0.0,0.38312501226,1653.787577321202,8.700000278400001,0.7919993443119999,0.390919012509408,1684,0.0,99,P-GPS,
0.341422716848185,36.9110541795786,5700,2018-04-04 06:01:07,1654.287577337202,9.2000002944,0.0,0.378503012112096,1654.287577337202,9.2000002944,0.7919993443119999,0.390919012509408,1684,0.0,99,P-GPS,
0.341422613000682,36.9110542450702,5800,2018-04-04 06:01:08,1654.787577353202,9.7000003104,0.0,0.37166001189312003,1654.787577353202,9.7000003104,0.7919993443119999,0.390919012509408,1684,0.0,99,P-GPS,
0.341422495145305,36.9110543001598,5900,2018-04-04 06:01:08,1655.1875773660022,10.100000323200002,0.0,0.363271011624672,1655.1875773660022,10.100000323200002,0.7919993443119999,0.390919012509408,1684,0.0,99,P-GPS,
0.341422342254769,36.9110543267154,6000,2018-04-04 06:01:08,1655.687577382002,10.600000339200001,0.0,0.35028401120908803,1655.687577382002,10.600000339200001,0.7919993443119999,0.390919012509408,1684,0.0,99,P-GPS,
0.341422180871898,36.9110543393315,6100,2018-04-04 06:01:08,1656.187577398002,11.1000003552,0.0,0.336027010752864,1656.187577398002,11.1000003552,0.7919993443119999,0.390919012509408,1684,0.0,99,P-GPS,
0.341422017373678,36.9110543542741,6200,2018-04-04 06:01:08,1656.6875774140021,11.6000003712,0.0,0.32210901030748806,1656.6875774140021,11.6000003712,0.7919993443119999,0.390919012509408,1684,0.0,99,P-GPS,
0.341421857370913,36.9110543748192,6300,2018-04-04 06:01:08,1657.187577430002,12.1000003872,0.0,0.30933500989872,1657.187577430002,12.1000003872,0.7919993443119999,0.390919012509408,1684,0.0,99,P-GPS,
0.341421690430163,36.9110543879909,6400,2018-04-04 06:01:08,1657.687577446002,12.6000004032,0.0,0.29597500947120003,1657.687577446002,12.6000004032,0.7919993443119999,0.390919012509408,1684,0.0,99,P-GPS,
0.34142153201106,36.9110543984198,6500,2018-04-04 06:01:08,1658.187577462002,13.100000419200002,0.0,0.283688009078016,1658.187577462002,13.100000419200002,0.7919993443119999,0.390919012509408,1684,0.0,99,P-GPS,
0.341421388699031,36.9110543945356,6600,2018-04-04 06:01:08,1658.6875774780021,13.600000435200002,0.0,0.272019008704608,1658.6875774780021,13.600000435200002,0.7919993443119999,0.390919012509408,1684,0.0,99,P-GPS,
0.341421252226468,36.9110543964381,6700,2018-04-04 06:01:08,1659.187577494002,14.100000451200001,0.0,0.26179000837728,1659.187577494002,14.100000451200001,0.7919993443119999,0.390919012509408,1684,0.0,99,P-GPS,
0.341421114031825,36.9110543895594,6800,2018-04-04 06:01:09,1659.6875775100023,14.600000467200001,0.0,0.25118400803788804,1659.6875775100023,14.600000467200001,0.7919993443119999,0.390919012509408,1684,0.0,99,P-GPS,
0.341420974307259,36.9110543874803,6900,2018-04-04 06:01:09,1660.187577526002,15.1000004832,0.0,0.241421007725472,1660.187577526002,15.1000004832,0.7919993443119999,0.390919012509408,1684,0.0,99,P-GPS,
0.34142083345581,36.9110543805812,7000,2018-04-04 06:01:09,1660.6875775420021,15.6000004992,0.0,0.231772007416704,1660.6875775420021,15.6000004992,0.7919993443119999,0.390919012509408,1684,0.0,99,P-GPS,
0.341420699123836,36.9110543829323,7100,2018-04-04 06:01:09,1661.187577558002,16.1000005152,0.0,0.224064007170048,1661.187577558002,16.1000005152,0.7919993443119999,0.390919012509408,1684,0.0,99,P-GPS,
0.341420563047799,36.9110543802996,7200,2018-04-04 06:01:09,1661.687577574002,16.600000531200003,0.0,0.21653100692899202,1661.687577574002,16.600000531200003,0.7919993443119999,0.390919012509408,1684,0.0,99,P-GPS,
0.341420435964029,36.9110543845489,7300,2018-04-04 06:01:09,1662.187577590002,17.1000005472,0.0,0.21092000674944,1662.187577590002,17.1000005472,0.7919993443119999,0.390919012509408,1684,0.0,99,P-GPS,
0.341420297958286,36.911054386779,7400,2018-04-04 06:01:09,1662.687577606002,17.600000563200002,0.0,0.205507006576224,1662.687577606002,17.600000563200002,0.7919993443119999,0.390919012509408,1684,0.0,99,P-GPS,
0.341420168482332,36.9110544001778,7500,2018-04-04 06:01:09,1663.1875776220022,18.1000005792,0.0,0.202572006482304,1663.1875776220022,18.1000005792,0.7919993443119999,0.390919012509408,1684,0.0,99,P-GPS,
0.341420062509711,36.9110544073594,7600,2018-04-04 06:01:09,1663.687577638002,18.6000005952,0.0,0.20050500641616,1663.687577638002,18.6000005952,0.7919993443119999,0.390919012509408,1684,0.0,99,P-GPS,
0.341419972417675,36.911054419163,7700,2018-04-04 06:01:09,1664.187577654002,19.1000006112,0.0,0.199907006397024,1664.187577654002,19.1000006112,0.7919993443119999,0.390919012509408,1684,0.0,99,P-GPS,
0.341419869286688,36.911054416495,7800,2018-04-04 06:01:10,1664.6875776700022,19.6000006272,0.0,0.19806000633792,1664.6875776700022,19.6000006272,0.7919993443119999,0.390919012509408,1684,0.0,99,P-GPS,
0.341419771488855,36.9110544241081,7900,2018-04-04 06:01:10,1665.1875776860022,20.1000006432,0.0,0.19803600633715202,1665.1875776860022,20.1000006432,0.7919993443119999,0.390919012509408,1684,0.0,99,P-GPS,
0.341419683902995,36.9110544517803,8000,2018-04-04 06:01:10,1665.687577702002,20.6000006592,0.0,0.200844006427008,1665.687577702002,20.6000006592,0.7919993443119999,0.390919012509408,1684,0.0,99,P-GPS,
0.34141961443276,36.9110544911843,8100,2018-04-04 06:01:10,1666.187577718002,21.1000006752,0.0,0.205348006571136,1666.187577718002,21.1000006752,0.7919993443119999,0.390919012509408,1684,0.0,99,P-GPS,
0.341419573259182,36.9110545196498,8200,2018-04-04 06:01:10,1666.7875777372021,21.7000006944,0.0,0.208718006678976,1666.7875777372021,21.7000006944,0.7919993443119999,0.390919012509408,1684,0.0,99,P-GPS,
0.341419551824788,36.9110545463563,8300,2018-04-04 06:01:10,1667.287577753202,22.2000007104,0.0,0.211829006778528,1667.287577753202,22.2000007104,0.7919993443119999,0.390919012509408,1684,0.0,99,P-GPS,
0.341419521965639,36.9110545847593,8400,2018-04-04 06:01:10,1667.7875777692022,22.7000007264,0.0,0.216332006922624,1667.7875777692022,22.7000007264,0.7919993443119999,0.390919012509408,1684,0.0,99,P-GPS,
0.34141949931724,36.9110546289725,8500,2018-04-04 06:01:10,1668.387577788402,23.300000745600002,0.0,0.22144500708624001,1668.387577788402,23.300000745600002,0.7919993443119999,0.390919012509408,1684,0.0,99,P-GPS,
0.341419503702639,36.9110546499512,8600,2018-04-04 06:01:10,1668.887577804402,23.8000007616,0.0,0.223726007159232,1668.887577804402,23.8000007616,0.7919993443119999,0.390919012509408,1684,0.0,99,P-GPS,
0.341419524040276,36.9110546625962,8700,2018-04-04 06:01:10,1669.3875778204022,24.3000007776,0.0,0.224943007198176,1669.3875778204022,24.3000007776,0.7919993443119999,0.390919012509408,1684,0.0,99,P-GPS,
0.341419558917476,36.9110547077312,8800,2018-04-04 06:01:11,1669.987577839602,24.9000007968,0.0,0.22969100735011203,1669.987577839602,24.9000007968,0.7919993443119999,0.390919012509408,1684,0.0,99,P-GPS,
0.341419596861035,36.9110547631549,8900,2018-04-04 06:01:11,1670.4875778556022,25.400000812800002,0.0,0.23564400754060802,1670.4875778556022,25.400000812800002,0.7919993443119999,0.390919012509408,1684,0.0,99,P-GPS,
0.341419634434123,36.911054806716,9000,2018-04-04 06:01:11,1670.987577871602,25.9000008288,0.0,0.240363007691616,1670.987577871602,25.9000008288,0.7919993443119999,0.390919012509408,1684,0.0,99,P-GPS,
0.341419683430746,36.911054844922,9100,2018-04-04 06:01:11,1671.587577890802,26.500000848000003,0.0,0.244563007826016,1671.587577890802,26.500000848000003,0.7919993443119999,0.390919012509408,1684,0.0,99,P-GPS,
0.341419746830142,36.9110548585595,9200,2018-04-04 06:01:11,1672.0875779068022,27.000000864,0.0,0.246196007878272,1672.0875779068022,27.000000864,0.7919993443119999,0.390919012509408,1684,0.0,99,P-GPS,
0.341419809153137,36.9110548691832,9300,2018-04-04 06:01:11,1672.587577922802,27.50000088,0.0,0.24768700792598403,1672.587577922802,27.50000088,0.7919993443119999,0.390919012509408,1684,0.0,99,P-GPS,
0.341419865006323,36.9110548812983,9400,2018-04-04 06:01:11,1673.1875779420022,28.1000008992,0.0,0.249471007983072,1673.1875779420022,28.1000008992,0.7919993443119999,0.390919012509408,1684,0.0,99,P-GPS,
0.341419916633697,36.9110548933138,9500,2018-04-04 06:01:11,1673.687577958002,28.600000915200003,0.0,0.25134300804297605,1673.687577958002,28.600000915200003,0.7919993443119999,0.390919012509408,1684,0.0,99,P-GPS,
0.341419961327971,36.9110549128922,9600,2018-04-04 06:01:11,1674.187577974002,29.1000009312,0.0,0.254076008130432,1674.187577974002,29.1000009312,0.7919993443119999,0.390919012509408,1684,0.0,99,P-GPS,
0.341420003919924,36.9110549263295,9700,2018-04-04 06:01:11,1674.7875779932021,29.700000950400003,0.0,0.25618500819792,1674.7875779932021,29.700000950400003,0.7919993443119999,0.390919012509408,1684,0.0,99,P-GPS,
0.341420079123096,36.9110549243981,9800,2018-04-04 06:01:12,1675.287578009202,30.2000009664,0.0,0.257288008233216,1675.287578009202,30.2000009664,0.7919993443119999,0.390919012509408,1684,0.0,99,P-GPS,
0.341420158263846,36.9110549186499,9900,2018-04-04 06:01:12,1675.7875780252023,30.700000982400002,0.0,0.258332008266624,1675.7875780252023,30.700000982400002,0.7919993443119999,0.390919012509408,1684,0.0,99,P-GPS,
0.341420267186394,36.9110549156501,10000,2018-04-04 06:01:12,1676.387578044402,31.300001001600002,0.0,0.26078000834496,1676.387578044402,31.300001001600002,0.7919993443119999,0.390919012509408,1684,0.0,99,P-GPS,
0.341420360789355,36.9110549158128,10100,2018-04-04 06:01:12,1676.887578060402,31.800001017600003,0.0,0.263603008435296,1676.887578060402,31.800001017600003,0.7919993443119999,0.390919012509408,1684,0.0,99,P-GPS,
0.341420467153617,36.9110549211959,10200,2018-04-04 06:01:12,1677.4875780796021,32.4000010368,0.0,0.267814008570048,1677.4875780796021,32.4000010368,0.7919993443119999,0.390919012509408,1684,0.0,99,P-GPS,
0.341420556551121,36.9110549274011,10300,2018-04-04 06:01:12,1677.987578095602,32.9000010528,0.0,0.27187600870003203,1677.987578095602,32.9000010528,0.7919993443119999,0.390919012509408,1684,0.0,99,P-GPS,
0.341420668408125,36.9110549550551,10400,2018-04-04 06:01:12,1678.4875781116023,33.4000010688,0.0,0.279412008941184,1678.4875781116023,33.4000010688,0.7919993443119999,0.390919012509408,1684,0.0,99,P-GPS,
0.341420764573443,36.9110549766387,10500,2018-04-04 06:01:12,1679.087578130802,34.000001088,0.0,0.28596900915100804,1679.087578130802,34.000001088,0.7919993443119999,0.390919012509408,1684,0.0,99,P-GPS,
0.34142084827465,36.9110549915331,10600,2018-04-04 06:01:12,1679.5875781468021,34.500001104,0.0,0.29150500932816004,1679.5875781468021,34.500001104,0.7919993443119999,0.390919012509408,1684,0.0,99,P-GPS,
0.341420915163802,36.9110550000745,10700,2018-04-04 06:01:12,1680.0875781628022,35.00000112,0.0,0.29574000946368,1680.0875781628022,35.00000112,0.7919993443119999,0.390919012509408,1684,0.0,99,P-GPS,
0.341421015873292,36.9110550077626,10800,2018-04-04 06:01:13,1680.687578182002,35.6000011392,0.0,0.301856009659392,1680.687578182002,35.6000011392,0.7919993443119999,0.390919012509408,1684,0.0,99,P-GPS,
0.341421102158026,36.9110550088493,10900,2018-04-04 06:01:13,1681.1875781980023,36.1000011552,0.0,0.30680100981763203,1681.1875781980023,36.1000011552,0.7919993443119999,0.390919012509408,1684,0.0,99,P-GPS,
0.34142120493564,36.9110549985596,11000,2018-04-04 06:01:13,1681.687578214002,36.6000011712,0.0,0.31189100998051206,1681.687578214002,36.6000011712,0.7919993443119999,0.390919012509408,1684,0.0,99,P-GPS,
0.341421278767662,36.9110549827081,11100,2018-04-04 06:01:13,1682.187578230002,37.10000118720001,0.0,0.314979010079328,1682.187578230002,37.10000118720001,0.7919993443119999,0.390919012509408,1684,0.0,99,P-GPS,
0.341421372443903,36.9110549714548,11200,2018-04-04 06:01:13,1682.6875782460022,37.6000012032,0.0,0.31996801023897603,1682.6875782460022,37.6000012032,0.7919993443119999,0.390919012509408,1684,0.0,99,P-GPS,
0.341421445886728,36.9110549651639,11300,2018-04-04 06:01:13,1683.287578265202,38.2000012224,0.0,0.324287010377184,1683.287578265202,38.2000012224,0.7919993443119999,0.390919012509408,1684,0.0,99,P-GPS,
0.341421548259674,36.9110549467739,11400,2018-04-04 06:01:13,1683.787578281202,38.7000012384,0.0,0.329721010551072,1683.787578281202,38.7000012384,0.7919993443119999,0.390919012509408,1684,0.0,99,P-GPS,
0.341421631457692,36.9110549281195,11500,2018-04-04 06:01:13,1684.2875782972021,39.2000012544,0.0,0.334054010689728,1684.2875782972021,39.2000012544,0.7919993443119999,0.390919012509408,1684,0.0,99,P-GPS,
0.341421747938662,36.9110549107317,11600,2018-04-04 06:01:13,1684.787578313202,39.7000012704,0.0,0.34118701091798403,1684.787578313202,39.7000012704,0.7919993443119999,0.390919012509408,1684,0.0,99,P-GPS,
0.34142189947189,36.9110548902401,11800,2018-04-04 06:01:14,1685.787578345202,40.700001302400004,0.0,0.3511500112368,1685.787578345202,40.700001302400004,0.7919993443119999,0.390919012509408,1684,0.0,99,P-GPS,
0.341422007392945,36.91105489747,12000,2018-04-04 06:01:14,1686.787578377202,41.7000013344,0.0,0.3602510115280321,1686.787578377202,41.7000013344,0.7919993443119999,0.390919012509408,1684,0.0,99,P-GPS,
0.34142205559163,36.9110549028905,12100,2018-04-04 06:01:14,1687.2875783932022,42.2000013504,0.0,0.364538011665216,1687.2875783932022,42.2000013504,0.7919993443119999,0.390919012509408,1684,0.0,99,P-GPS,
0.341422142684886,36.9110548745459,12200,2018-04-04 06:01:14,1687.787578409202,42.7000013664,0.0,0.36950001182400005,1687.787578409202,42.7000013664,0.7919993443119999,0.390919012509408,1684,0.0,99,P-GPS,
0.341422214327466,36.9110548461318,12300,2018-04-04 06:01:14,1688.2875784252021,43.2000013824,0.0,0.373369011947808,1688.2875784252021,43.2000013824,0.7919993443119999,0.390919012509408,1684,0.0,99,P-GPS,
0.341422287525209,36.9110548230461,12400,2018-04-04 06:01:14,1688.7875784412022,43.7000013984,0.0,0.377904012092928,1688.7875784412022,43.7000013984,0.7919993443119999,0.390919012509408,1684,0.0,99,P-GPS,
0.341422332066409,36.9110548152221,12500,2018-04-04 06:01:14,1689.387578460402,44.30000141760001,0.0,0.381169012197408,1689.387578460402,44.30000141760001,0.7919993443119999,0.390919012509408,1684,0.0,99,P-GPS,
0.341422412743596,36.9110548478801,12600,2018-04-04 06:01:14,1689.887578476402,44.8000014336,0.0,0.390424012493568,1689.887578476402,44.8000014336,0.7919993443119999,0.390919012509408,1684,0.0,99,P-GPS,
0.341422479758952,36.9110548858527,12700,2018-04-04 06:01:14,1690.387578492402,45.3000014496,0.0,0.3988800127641601,1690.387578492402,45.3000014496,0.7919993443119999,0.3988800127641601,1684,0.0,99,P-GPS,
0.341422561644444,36.9110548969004,12800,2018-04-04 06:01:15,1690.8875785084022,45.800001465600005,0.0,0.406786013017152,1690.8875785084022,45.800001465600005,0.7919993443119999,0.406786013017152,1684,0.0,99,P-GPS,
0.341422623535087,36.9110549027898,12900,2018-04-04 06:01:15,1691.387578524402,46.300001481600006,0.0,0.41263101320419204,1691.387578524402,46.300001481600006,0.7919993443119999,0.41263101320419204,1684,0.0,99,P-GPS,
0.341422696823209,36.9110549275211,13000,2018-04-04 06:01:15,1691.987578543602,46.9000015008,0.0,0.42078201346502403,1691.987578543602,46.9000015008,0.7919993443119999,0.42078201346502403,1684,0.0,99,P-GPS,
0.341422752625099,36.9110549585593,13100,2018-04-04 06:01:15,1692.487578559602,47.4000015168,0.0,0.42781501369008,1692.487578559602,47.4000015168,0.7919993443119999,0.42781501369008,1684,0.0,99,P-GPS,
0.341422781391562,36.9110549469474,13200,2018-04-04 06:01:15,1692.9875785756021,47.9000015328,0.0,0.42960501374736,1692.9875785756021,47.9000015328,0.7919993443119999,0.42960501374736,1684,0.0,99,P-GPS,
0.341422788165889,36.9110549273401,13300,2018-04-04 06:01:15,1693.4875785916022,48.4000015488,0.0,0.428917013725344,1693.4875785916022,48.4000015488,0.7919993443119999,0.42960501374736,1684,0.0,99,P-GPS,
0.341422801646149,36.9110549288251,13400,2018-04-04 06:01:15,1693.987578607602,48.9000015648,0.0,0.430224013767168,1693.987578607602,48.9000015648,0.7919993443119999,0.430224013767168,1684,0.0,99,P-GPS,
0.34142280980791,36.9110549465748,13500,2018-04-04 06:01:15,1694.487578623602,49.4000015808,0.0,0.432123013827936,1694.487578623602,49.4000015808,0.7919993443119999,0.432123013827936,1684,0.0,99,P-GPS,
0.341422835740881,36.911054957843,13600,2018-04-04 06:01:15,1694.9875786396021,49.9000015968,0.0,0.43518901392604803,1694.9875786396021,49.9000015968,0.7919993443119999,0.43518901392604803,1684,0.0,99,P-GPS,
0.341422857669508,36.9110549667184,13700,2018-04-04 06:01:15,1695.487578655602,50.4000016128,0.0,0.43774001400768,1695.487578655602,50.4000016128,0.7919993443119999,0.43774001400768,1684,0.0,99,P-GPS,
0.341422877008909,36.9110549676766,13800,2018-04-04 06:01:16,1695.987578671602,50.9000016288,0.0,0.439542014065344,1695.987578671602,50.9000016288,0.7919993443119999,0.439542014065344,1684,0.0,99,P-GPS,
0.341422878464738,36.9110549693553,13900,2018-04-04 06:01:16,1696.487578687602,51.4000016448,0.0,0.43978201407302403,1696.487578687602,51.4000016448,0.7919993443119999,0.43978201407302403,1684,0.0,99,P-GPS,
0.341422905488766,36.9110549609532,14000,2018-04-04 06:01:16,1697.087578706802,52.000001664,0.0,0.44167201413350404,1697.087578706802,52.000001664,0.7919993443119999,0.44167201413350404,1684,0.0,99,P-GPS,
0.341422931552012,36.9110549266721,14200,2018-04-04 06:01:16,1698.0875787388022,53.000001696000005,0.0,0.441831014138592,1698.0875787388022,53.000001696000005,0.7919993443119999,0.441831014138592,1684,0.0,99,P-GPS,
0.341422923263232,36.9110549043069,14300,2018-04-04 06:01:16,1698.587578754802,53.500001712,0.0,0.43965101406883206,1698.587578754802,53.500001712,0.7919993443119999,0.441831014138592,1684,0.0,98,P-GPS,
0.341422921369351,36.9110548945804,14400,2018-04-04 06:01:16,1699.0875787708019,54.000001728,0.0,0.438861014043552,1699.0875787708019,54.000001728,0.7919993443119999,0.441831014138592,1684,0.0,98,P-GPS,
0.34142291523826,36.9110549032481,14500,2018-04-04 06:01:16,1699.5875787868022,54.500001744,0.0,0.438852014043264,1699.5875787868022,54.500001744,0.7919993443119999,0.441831014138592,1684,0.0,98,P-GPS,
0.341422950430563,36.9110549211744,14600,2018-04-04 06:01:16,1700.087578802802,55.00000176,0.0,0.443202014182464,1700.087578802802,55.00000176,0.7919993443119999,0.443202014182464,1684,0.0,98,P-GPS,
0.341422970797512,36.9110549337595,14700,2018-04-04 06:01:16,1700.587578818802,55.500001776000005,0.0,0.44586101426755204,1700.587578818802,55.500001776000005,0.7919993443119999,0.44586101426755204,1684,0.0,98,P-GPS,
0.341422992439533,36.9110549369489,14800,2018-04-04 06:01:17,1701.0875788348021,56.000001792,0.0,0.448041014337312,1701.0875788348021,56.000001792,0.7919993443119999,0.448041014337312,1684,0.0,98,P-GPS,
0.341422997083855,36.9110549389199,14900,2018-04-04 06:01:17,1701.5875788508022,56.500001808,0.0,0.44859001435488,1701.5875788508022,56.500001808,0.7919993443119999,0.44859001435488,1684,0.0,98,P-GPS,
0.341423008103536,36.9110549392475,15000,2018-04-04 06:01:17,1702.087578866802,57.000001824,0.0,0.44962001438784005,1702.087578866802,57.000001824,0.7919993443119999,0.44962001438784005,1684,0.0,98,P-GPS,
0.341423005761833,36.9110549408256,15100,2018-04-04 06:01:17,1702.687578886002,57.600001843200005,0.0,0.44950501438416,1702.687578886002,57.600001843200005,0.7919993443119999,0.44962001438784005,1684,0.0,98,P-GPS,
0.341423012728317,36.9110549285028,15200,2018-04-04 06:01:17,1703.187578902002,58.100001859200006,0.0,0.4493670143797441,1703.187578902002,58.100001859200006,0.7919993443119999,0.44962001438784005,1684,0.0,98,P-GPS,
0.341423031434253,36.9110548880989,15500,2018-04-04 06:01:17,1704.687578950002,59.6000019072,0.0,0.448572014354304,1704.687578950002,59.6000019072,0.7919993443119999,0.44962001438784005,1684,0.0,98,P-GPS,
0.341423040369525,36.9110548626771,15600,2018-04-04 06:01:17,1705.187578966002,60.100001923200004,0.0,0.44783601433075204,1705.187578966002,60.100001923200004,0.7919993443119999,0.44962001438784005,1684,0.0,98,P-GPS,
0.341423033375358,36.9110548365123,15700,2018-04-04 06:01:17,1705.6875789820022,60.600001939200006,0.0,0.445589014258848,1705.6875789820022,60.600001939200006,0.7919993443119999,0.44962001438784005,1684,0.0,98,P-GPS,
0.341423025211968,36.9110548090682,15800,2018-04-04 06:01:18,1706.187578998002,61.10000195520001,0.0,0.44316501418128,1706.187578998002,61.10000195520001,0.7919993443119999,0.44962001438784005,1684,0.0,98,P-GPS,
0.341423010811638,36.911054785748,15900,2018-04-04 06:01:18,1706.687579014002,61.6000019712,0.0,0.44041501409328004,1706.687579014002,61.6000019712,0.7919993443119999,0.44962001438784005,1684,0.0,98,P-GPS,
0.341423011676342,36.9110547642769,16000,2018-04-04 06:01:18,1707.187579030002,62.1000019872,0.0,0.43921001405472004,1707.187579030002,62.1000019872,0.7919993443119999,0.44962001438784005,1684,0.0,98,P-GPS,
0.341423011754507,36.9110547461096,16100,2018-04-04 06:01:18,1707.6875790460022,62.600002003200004,0.0,0.438137014020384,1707.6875790460022,62.600002003200004,0.7919993443119999,0.44962001438784005,1684,0.0,98,P-GPS,
0.341423025825892,36.911054734654,16200,2018-04-04 06:01:18,1708.287579065202,63.2000020224,0.0,0.43878601404115203,1708.287579065202,63.2000020224,0.7919993443119999,0.44962001438784005,1684,0.0,98,P-GPS,
0.341423033727102,36.9110547235828,16300,2018-04-04 06:01:18,1708.6875790780023,63.600002035200006,0.0,0.438882014044224,1708.6875790780023,63.600002035200006,0.7919993443119999,0.44962001438784005,1684,0.0,98,P-GPS,
0.341423079354474,36.9110547286232,16400,2018-04-04 06:01:18,1709.187579094002,64.1000020512,0.0,0.443497014191904,1709.187579094002,64.1000020512,0.7919993443119999,0.44962001438784005,1684,0.0,98,P-GPS,
0.341423120847227,36.9110547386956,16500,2018-04-04 06:01:18,1709.6875791100022,64.6000020672,0.0,0.448019014336608,1709.6875791100022,64.6000020672,0.7919993443119999,0.44962001438784005,1684,0.0,98,P-GPS,
0.341423159724699,36.9110547363809,16600,2018-04-04 06:01:18,1710.187579126002,65.10000208320001,0.0,0.451586014450752,1710.187579126002,65.10000208320001,0.7919993443119999,0.451586014450752,1684,0.0,98,P-GPS,
0.341423177585473,36.9110547284808,16700,2018-04-04 06:01:18,1710.687579142002,65.60000209920001,0.0,0.45284001449088,1710.687579142002,65.60000209920001,0.7919993443119999,0.45284001449088,1684,0.0,98,P-GPS,
0.341423185884024,36.9110547454041,16800,2018-04-04 06:01:19,1711.187579158002,66.10000211520001,0.0,0.45459701454710405,1711.187579158002,66.10000211520001,0.7919993443119999,0.45459701454710405,1684,0.0,98,P-GPS,
0.341423179557519,36.9110547679202,16900,2018-04-04 06:01:19,1711.687579174002,66.6000021312,0.0,0.455287014569184,1711.687579174002,66.6000021312,0.7919993443119999,0.455287014569184,1684,0.0,98,P-GPS,
0.341423203803421,36.9110547871249,17000,2018-04-04 06:01:19,1712.1875791900022,67.1000021472,0.0,0.4587000146784,1712.1875791900022,67.1000021472,0.7919993443119999,0.4587000146784,1684,0.0,98,P-GPS,
0.341423228370128,36.911054792798,17100,2018-04-04 06:01:19,1712.687579206002,67.6000021632,0.0,0.461363014763616,1712.687579206002,67.6000021632,0.7919993443119999,0.461363014763616,1684,0.0,98,P-GPS,
0.341423230055567,36.9110547942048,17200,2018-04-04 06:01:19,1713.1875792220021,68.1000021792,0.0,0.46160401477132806,1713.1875792220021,68.1000021792,0.7919993443119999,0.46160401477132806,1684,0.0,98,P-GPS,
0.341423216352211,36.9110547895905,17300,2018-04-04 06:01:19,1713.7875792412021,68.7000021984,0.0,0.4600350147211201,1713.7875792412021,68.7000021984,0.7919993443119999,0.46160401477132806,1684,0.0,98,P-GPS,
0.341423225891636,36.9110547833263,17400,2018-04-04 06:01:19,1714.1875792540022,69.1000022112,0.0,0.46058301473865604,1714.1875792540022,69.1000022112,0.7919993443119999,0.46160401477132806,1684,0.0,98,P-GPS,
0.341423232293049,36.9110547802365,17500,2018-04-04 06:01:19,1714.687579270002,69.60000222720001,0.0,0.46101501475247997,1714.687579270002,69.60000222720001,0.7919993443119999,0.46160401477132806,1684,0.0,98,P-GPS,
0.341423209957311,36.9110547572547,17600,2018-04-04 06:01:19,1715.287579289202,70.2000022464,0.0,0.45757101464227207,1715.287579289202,70.2000022464,0.7919993443119999,0.46160401477132806,1684,0.0,98,P-GPS,
0.341423176308773,36.911054732804,17700,2018-04-04 06:01:19,1715.7875793052021,70.7000022624,0.0,0.452964014494848,1715.7875793052021,70.7000022624,0.7919993443119999,0.46160401477132806,1684,0.0,98,P-GPS,
0.341423181273899,36.9110547085749,17800,2018-04-04 06:01:20,1716.187579318002,71.1000022752,0.0,0.45206501446608005,1716.187579318002,71.1000022752,0.7919993443119999,0.46160401477132806,1684,0.0,98,P-GPS,
0.341423192373373,36.9110546909001,17900,2018-04-04 06:01:20,1716.687579334002,71.6000022912,0.0,0.452138014468416,1716.687579334002,71.6000022912,0.7919993443119999,0.46160401477132806,1684,0.0,98,P-GPS,
0.341423205819435,36.911054673296,18000,2018-04-04 06:01:20,1717.1875793500021,72.1000023072,0.0,0.45245201447846406,1717.1875793500021,72.1000023072,0.7919993443119999,0.46160401477132806,1684,0.0,98,P-GPS,
0.341423188846163,36.9110546434719,18300,2018-04-04 06:01:20,1718.687579398002,73.6000023552,0.0,0.449167014373344,1718.687579398002,73.6000023552,0.7919993443119999,0.46160401477132806,1684,0.0,98,P-GPS,
0.34142317508744,36.9110546201399,18400,2018-04-04 06:01:20,1719.1875794140021,74.1000023712,0.0,0.446556014289792,1719.1875794140021,74.1000023712,0.7919993443119999,0.46160401477132806,1684,0.0,98,P-GPS,
0.34142314945736,36.9110545963487,18500,2018-04-04 06:01:20,1719.7875794332022,74.7000023904,0.0,0.442774014168768,1719.7875794332022,74.7000023904,0.7919993443119999,0.46160401477132806,1684,0.0,98,P-GPS,
0.341423155902741,36.9110545829832,18700,2018-04-04 06:01:20,1720.687579462002,75.60000241920001,0.0,0.442674014165568,1720.687579462002,75.60000241920001,0.7919993443119999,0.46160401477132806,1684,0.0,98,P-GPS,
0.341423142972896,36.9110545851522,18800,2018-04-04 06:01:21,1721.1875794780021,76.1000024352,0.0,0.44153601412915205,1721.1875794780021,76.1000024352,0.7919993443119999,0.46160401477132806,1684,0.0,98,P-GPS,
0.341423119878303,36.9110545877999,18900,2018-04-04 06:01:21,1721.687579494002,76.6000024512,0.0,0.439442014062144,1721.687579494002,76.6000024512,0.7919993443119999,0.46160401477132806,1684,0.0,98,P-GPS,
0.341423112514479,36.9110545939805,19000,2018-04-04 06:01:21,1722.287579513202,77.20000247040001,0.0,0.43906701405014403,1722.287579513202,77.20000247040001,0.7919993443119999,0.46160401477132806,1684,0.0,98,P-GPS,
0.341423105225564,36.9110545985799,19100,2018-04-04 06:01:21,1722.787579529202,77.70000248640001,0.0,0.438616014035712,1722.787579529202,77.70000248640001,0.7919993443119999,0.46160401477132806,1684,0.0,98,P-GPS,
0.341423112932989,36.9110546339252,19200,2018-04-04 06:01:21,1723.287579545202,78.20000250240001,0.0,0.441317014122144,1723.287579545202,78.20000250240001,0.7919993443119999,0.46160401477132806,1684,0.0,98,P-GPS,
0.341423109454633,36.911054667869,19300,2018-04-04 06:01:21,1723.7875795612022,78.70000251840001,0.0,0.442886014172352,1723.7875795612022,78.70000251840001,0.7919993443119999,0.46160401477132806,1684,0.0,98,P-GPS,
0.341423113711386,36.9110547003408,19400,2018-04-04 06:01:21,1724.287579577202,79.20000253440001,0.0,0.445137014244384,1724.287579577202,79.20000253440001,0.7919993443119999,0.46160401477132806,1684,0.0,98,P-GPS,
0.341423113398724,36.9110547175798,19600,2018-04-04 06:01:21,1725.287579609202,80.20000256640002,0.0,0.44609401427500806,1725.287579609202,80.20000256640002,0.7919993443119999,0.46160401477132806,1684,0.0,98,P-GPS,
0.341423093850883,36.911054712246,19800,2018-04-04 06:01:22,1726.287579641202,81.2000025984,0.0,0.443927014205664,1726.287579641202,81.2000025984,0.7919993443119999,0.46160401477132806,1684,0.0,98,P-GPS,
0.341423079074382,36.9110547207467,19900,2018-04-04 06:01:22,1726.787579657202,81.7000026144,0.0,0.44301301417641603,1726.787579657202,81.7000026144,0.7919993443119999,0.46160401477132806,1684,0.0,98,P-GPS,
0.341423079040185,36.9110547157341,20000,2018-04-04 06:01:22,1727.2875796732021,82.20000263040001,0.0,0.44272001416704,1727.2875796732021,82.20000263040001,0.7919993443119999,0.46160401477132806,1684,0.0,98,P-GPS,
0.341423058039771,36.9110547085942,20100,2018-04-04 06:01:22,1727.787579689202,82.70000264640001,0.0,0.44031301409001605,1727.787579689202,82.70000264640001,0.7919993443119999,0.46160401477132806,1684,0.0,98,P-GPS,
0.341423039206816,36.9110546758515,20200,2018-04-04 06:01:22,1728.2875797052022,83.20000266240001,0.0,0.43663301397225607,1728.2875797052022,83.20000266240001,0.7919993443119999,0.46160401477132806,1684,0.0,98,P-GPS,
0.341423013641874,36.9110546463764,20300,2018-04-04 06:01:22,1728.787579721202,83.70000267840001,0.0,0.43250701384022405,1728.787579721202,83.70000267840001,0.7919993443119999,0.46160401477132806,1684,0.0,98,P-GPS,
0.341423029454065,36.9110546266279,20400,2018-04-04 06:01:22,1729.287579737202,84.20000269440001,0.0,0.432894013852608,1729.287579737202,84.20000269440001,0.7919993443119999,0.46160401477132806,1684,0.0,98,P-GPS,
0.341423046875159,36.9110546220124,20500,2018-04-04 06:01:22,1729.7875797532022,84.70000271040001,0.0,0.43430301389769604,1729.7875797532022,84.70000271040001,0.7919993443119999,0.46160401477132806,1684,0.0,98,P-GPS,
0.341423084847216,36.9110546196367,20600,2018-04-04 06:01:22,1730.287579769202,85.2000027264,0.0,0.437817014010144,1730.287579769202,85.2000027264,0.7919993443119999,0.46160401477132806,1684,0.0,98,P-GPS,
0.341423104649095,36.9110546209996,20700,2018-04-04 06:01:22,1730.787579785202,85.7000027424,0.0,0.43980001407360003,1730.787579785202,85.7000027424,0.7919993443119999,0.46160401477132806,1684,0.0,98,P-GPS,
0.341423122736222,36.9110546212084,20800,2018-04-04 06:01:23,1731.2875798012021,86.2000027584,0.0,0.44155501412976006,1731.2875798012021,86.2000027584,0.7919993443119999,0.46160401477132806,1684,0.0,98,P-GPS,
0.34142312277042,36.9110546189548,20900,2018-04-04 06:01:23,1731.7875798172022,86.7000027744,0.0,0.44143401412588806,1731.7875798172022,86.7000027744,0.7919993443119999,0.46160401477132806,1684,0.0,98,P-GPS,
0.34142314867245,36.9110546401926,21000,2018-04-04 06:01:23,1732.387579836402,87.3000027936,0.0,0.44510801424345603,1732.387579836402,87.3000027936,0.7919993443119999,0.46160401477132806,1684,0.0,98,P-GPS,
0.341423157407424,36.9110546624068,21100,2018-04-04 06:01:23,1732.8875798524023,87.8000028096,0.0,0.4471840143098881,1732.8875798524023,87.8000028096,0.7919993443119999,0.46160401477132806,1684,0.0,98,P-GPS,
0.341423170381237,36.9110546545741,21200,2018-04-04 06:01:23,1733.387579868402,88.3000028256,0.0,0.44799801433593606,1733.387579868402,88.3000028256,0.7919993443119999,0.46160401477132806,1684,0.0,98,P-GPS,
0.341423163872346,36.9110546331201,21300,2018-04-04 06:01:23,1733.887579884402,88.8000028416,0.0,0.446184014277888,1733.887579884402,88.8000028416,0.7919993443119999,0.46160401477132806,1684,0.0,98,P-GPS,
0.341423167433753,36.9110546167493,21400,2018-04-04 06:01:23,1734.3875799004022,89.3000028576,0.0,0.44563001426016,1734.3875799004022,89.3000028576,0.7919993443119999,0.46160401477132806,1684,0.0,98,P-GPS,
0.341423162190164,36.9110546112956,21500,2018-04-04 06:01:23,1734.787579913202,89.70000287040001,0.0,0.444824014234368,1734.787579913202,89.70000287040001,0.7919993443119999,0.46160401477132806,1684,0.0,98,P-GPS,
0.341423167505405,36.9110546051663,21600,2018-04-04 06:01:23,1735.2875799292021,90.2000028864,0.0,0.44500401424012803,1735.2875799292021,90.2000028864,0.7919993443119999,0.46160401477132806,1684,0.0,98,P-GPS,
0.341423151442433,36.9110545979033,21700,2018-04-04 06:01:23,1735.8875799484022,90.8000029056,0.0,0.443051014177632,1735.8875799484022,90.8000029056,0.7919993443119999,0.46160401477132806,1684,0.0,98,P-GPS,
0.341423140123119,36.9110545858256,21800,2018-04-04 06:01:24,1736.2875799612023,91.2000029184,0.0,0.441296014121472,1736.2875799612023,91.2000029184,0.7919993443119999,0.46160401477132806,1684,0.0,98,P-GPS,
0.341423125437811,36.9110545721346,21900,2018-04-04 06:01:24,1736.787579977202,91.7000029344,0.0,0.439128014052096,1736.787579977202,91.7000029344,0.7919993443119999,0.46160401477132806,1684,0.0,98,P-GPS,
0.3414231644651,36.9110545606084,22000,2018-04-04 06:01:24,1737.287579993202,92.2000029504,0.0,0.442303014153696,1737.287579993202,92.2000029504,0.7919993443119999,0.46160401477132806,1684,0.0,98,P-GPS,
0.341423203813192,36.9110545477717,22100,2018-04-04 06:01:24,1737.7875800092022,92.7000029664,0.0,0.44546401425484805,1737.7875800092022,92.7000029664,0.7919993443119999,0.46160401477132806,1684,0.0,98,P-GPS,
0.341423267337164,36.9110545454046,22200,2018-04-04 06:01:24,1738.387580028402,93.3000029856,0.0,0.45157001445024003,1738.387580028402,93.3000029856,0.7919993443119999,0.46160401477132806,1465,0.0,98,P-GPS,
0.341423312954766,36.9110545437323,22300,2018-04-04 06:01:24,1738.887580044402,93.8000030016,0.0,0.455974014591168,1738.887580044402,93.8000030016,0.7919993443119999,0.46160401477132806,1060,0.0,98,P-GPS,
0.341423396664929,36.9110545543164,22400,2018-04-04 06:01:24,1739.3875800604021,94.3000030176,0.0,0.464781014872992,1739.3875800604021,94.3000030176,0.7919993443119999,0.464781014872992,1024,0.0,98,P-GPS,
0.34142345923789,36.9110545633063,22500,2018-04-04 06:01:24,1739.7875800732022,94.7000030304,0.0,0.471434015085888,1739.7875800732022,94.7000030304,0.7919993443119999,0.471434015085888,1012,0.0,98,P-GPS,
0.341423484451088,36.9110545668083,22600,2018-04-04 06:01:25,1740.187580086002,95.1000030432,0.0,0.474112015171584,1740.187580086002,95.1000030432,0.7919993443119999,0.474112015171584,400,0.0,98,P-GPS,
0.341423497955774,36.9110545306954,22800,2018-04-04 06:01:25,1740.6875801020021,95.6000030592,0.0,0.47366201515718404,1740.6875801020021,95.6000030592,0.7919993443119999,0.474112015171584,364,0.0,98,P-GPS,
0.341423522211448,36.9110544990073,22900,2018-04-04 06:01:25,1740.8875801084023,95.8000030656,0.0,0.474541015185312,1740.8875801084023,95.8000030656,0.7919993443119999,0.474541015185312,364,0.0,98,P-GPS,
0.34142358456294,36.9110544674242,23100,2018-04-04 06:01:25,1740.987580111602,95.90000306880002,0.0,0.47930201533766403,1740.987580111602,95.90000306880002,0.7919993443119999,0.47930201533766403,364,0.0,98,P-GPS,
0.341423765514008,36.9110544726252,23300,2018-04-04 06:01:25,1740.787580105202,95.7000030624,0.0,0.49784701593110403,1740.987580111602,95.90000306880002,0.7919993443119999,0.49784701593110403,364,0.0,98,P-GPS,
0.341423863720581,36.9110544764998,23400,2018-04-04 06:01:25,1740.4875800956022,95.40000305280002,0.0,0.50801001625632,1740.987580111602,95.90000306880002,0.7919993443119999,0.50801001625632,364,0.0,98,P-GPS,
0.341423946434136,36.9110544722837,23500,2018-04-04 06:01:25,1740.287580089202,95.2000030464,0.35999970196000003,0.516266016520512,1740.987580111602,95.90000306880002,0.7919993443119999,0.516266016520512,364,0.0,98,P-GPS,
0.341424087916608,36.9110544689916,23600,2018-04-04 06:01:25,1739.987580079602,94.9000030368,0.35999970196000003,0.530626016980032,1740.987580111602,95.90000306880002,0.7919993443119999,0.530626016980032,414,0.0,98,P-GPS,
0.341424246062947,36.9110544554611,23700,2018-04-04 06:01:25,1739.687580070002,94.6000030272,0.35999970196000003,0.546364017483648,1740.987580111602,95.90000306880002,0.7919993443119999,0.546364017483648,543,0.0,98,P-GPS,
0.341424455291945,36.911054440601,23800,2018-04-04 06:01:26,1739.487580063602,94.4000030208,0.35999970196000003,0.567477018159264,1740.987580111602,95.90000306880002,0.7919993443119999,0.567477018159264,660,0.0,98,P-GPS,
0.341424660267448,36.9110544157006,23900,2018-04-04 06:01:26,1739.187580054002,94.1000030112,0.35999970196000003,0.587937018813984,1740.987580111602,95.90000306880002,0.7919993443119999,0.587937018813984,775,0.0,98,P-GPS,
0.341424926215151,36.9110543171194,24000,2018-04-04 06:01:26,1738.9875800476023,93.9000030048,0.35999970196000003,0.6124690195990081,1740.987580111602,95.90000306880002,0.7919993443119999,0.6124690195990081,841,0.0,98,P-GPS,
0.341425209766333,36.9110541510756,24100,2018-04-04 06:01:26,1738.787580041202,93.70000299840001,0.35999970196000003,0.6374900203996801,1740.987580111602,95.90000306880002,0.7919993443119999,0.6374900203996801,841,0.0,98,P-GPS,
0.341425481381021,36.9110539360521,24200,2018-04-04 06:01:26,1738.6875800380021,93.6000029952,0.0,0.661084021154688,1740.987580111602,95.90000306880002,0.7919993443119999,0.661084021154688,897,0.0,98,P-GPS,
0.341425616952241,36.9110536884253,24300,2018-04-04 06:01:26,1738.5875800348022,93.500002992,0.35999970196000003,0.670502021456064,1740.987580111602,95.90000306880002,0.7919993443119999,0.670502021456064,923,0.0,98,P-GPS,
0.341425683272251,36.9110533841414,24400,2018-04-04 06:01:26,1738.487580031602,93.4000029888,0.503999582744,0.6728040215297281,1740.987580111602,95.90000306880002,0.7919993443119999,0.6728040215297281,923,0.0,98,P-GPS,
0.341425706133976,36.9110530334148,24500,2018-04-04 06:01:26,1738.387580028402,93.3000029856,0.503999582744,0.671702021494464,1740.987580111602,95.90000306880002,0.7919993443119999,0.6728040215297281,897,0.0,98,P-GPS,
0.341425735504592,36.9110526336204,24600,2018-04-04 06:01:26,1738.387580028402,93.3000029856,0.503999582744,0.673584021554688,1740.987580111602,95.90000306880002,0.7919993443119999,0.673584021554688,769,0.0,98,P-GPS,
0.341425748051753,36.9110522334121,24700,2018-04-04 06:01:26,1738.287580025202,93.20000298240001,0.7919993443119999,0.676534021649088,1740.987580111602,95.90000306880002,0.7919993443119999,0.676534021649088,769,0.0,98,P-GPS,
0.341425804342177,36.9110518431921,24800,2018-04-04 06:01:27,1738.287580025202,93.20000298240001,0.7919993443119999,0.687059021985888,1740.987580111602,95.90000306880002,0.7919993443119999,0.687059021985888,743,0.0,98,P-GPS,
0.341425852822583,36.9110514673098,24900,2018-04-04 06:01:27,1738.1875800220023,93.10000297920001,0.7919993443119999,0.699022022368704,1740.987580111602,95.90000306880002,0.7919993443119999,0.699022022368704,614,0.0,98,P-GPS,
0.34142598731903,36.9110507743188,25100,2018-04-04 06:01:27,1737.9875800156021,92.9000029728,0.7199994039200001,0.7318000234176001,1740.987580111602,95.90000306880002,0.7919993443119999,0.7318000234176001,569,0.0,98,P-GPS,
0.341426099883593,36.9110504757488,25200,2018-04-04 06:01:27,1737.8875800124022,92.8000029696,0.7199994039200001,0.753773024120736,1740.987580111602,95.90000306880002,0.7919993443119999,0.753773024120736,560,0.0,98,P-GPS,
0.341426194102105,36.9110501997977,25300,2018-04-04 06:01:27,1737.687580006002,92.60000296320001,0.7199994039200001,0.7739510247664321,1740.987580111602,95.90000306880002,0.7919993443119999,0.7739510247664321,563,0.0,98,P-GPS,
0.341426352925877,36.9110499672135,25400,2018-04-04 06:01:27,1737.487579999602,92.4000029568,0.35999970196000003,0.7997790255929281,1740.987580111602,95.90000306880002,0.7919993443119999,0.7997790255929281,541,0.0,98,P-GPS,
0.341426495277937,36.9110497791367,25500,2018-04-04 06:01:27,1737.3875799964019,92.3000029536,0.35999970196000003,0.8223710263158721,1740.987580111602,95.90000306880002,0.7919993443119999,0.8223710263158721,535,0.0,98,P-GPS,
0.341426677427541,36.9110496515994,25600,2018-04-04 06:01:27,1737.1875799900022,92.10000294720001,0.0,0.8465570270898239,1740.987580111602,95.90000306880002,0.7919993443119999,0.8465570270898239,580,0.0,98,P-GPS,
0.341426821276141,36.9110495526451,25700,2018-04-04 06:01:28,1736.987579983602,91.9000029408,0.0,0.8656010276992321,1740.987580111602,95.90000306880002,0.7919993443119999,0.8656010276992321,826,0.0,98,P-GPS,
0.34142716528005,36.9110494138615,25900,2018-04-04 06:01:28,1736.6875799740021,91.60000293120001,0.0,0.9068400290188801,1740.987580111602,95.90000306880002,0.7919993443119999,0.9068400290188801,1024,0.0,98,P-GPS,
0.341427359273327,36.9110494030582,26000,2018-04-04 06:01:28,1736.487579967602,91.4000029248,0.0,0.927152029668864,1740.987580111602,95.90000306880002,0.7919993443119999,0.927152029668864,1024,0.0,98,P-GPS,
0.341427496951753,36.911049418042,26100,2018-04-04 06:01:28,1736.487579967602,91.4000029248,0.0,0.9406390301004481,1740.987580111602,95.90000306880002,0.7919993443119999,0.9406390301004481,1024,0.0,98,P-GPS,
0.341427606663282,36.9110493992918,26200,2018-04-04 06:01:28,1736.3875799644022,91.3000029216,0.0,0.952716030486912,1740.987580111602,95.90000306880002,0.7919993443119999,0.952716030486912,1024,0.0,98,P-GPS,
0.341427647851516,36.9110493572439,26300,2018-04-04 06:01:28,1736.2875799612023,91.2000029184,0.0,0.958731030679392,1740.987580111602,95.90000306880002,0.7919993443119999,0.958731030679392,1024,0.0,97,P-GPS,
0.341427690953171,36.9110492892596,26400,2018-04-04 06:01:28,1736.2875799612023,91.2000029184,0.0,0.966059030913888,1740.987580111602,95.90000306880002,0.7919993443119999,0.966059030913888,1024,0.0,97,P-GPS,
0.341427697489746,36.9110492260914,26500,2018-04-04 06:01:28,1736.187579958002,91.10000291520001,0.35999970196000003,0.9694630310228161,1740.987580111602,95.90000306880002,0.7919993443119999,0.9694630310228161,1024,0.0,97,P-GPS,
0.341427737502243,36.9110491604212,26600,2018-04-04 06:01:28,1736.187579958002,91.10000291520001,0.35999970196000003,0.976433031245856,1740.987580111602,95.90000306880002,0.7919993443119999,0.976433031245856,1024,0.0,97,P-GPS,
0.341427743348357,36.9110491113656,26700,2018-04-04 06:01:28,1736.187579958002,91.10000291520001,0.35999970196000003,0.9792070313346241,1740.987580111602,95.90000306880002,0.7919993443119999,0.9792070313346241,1024,0.0,97,P-GPS,
0.341427761422457,36.9110490436248,26800,2018-04-04 06:01:29,1736.187579958002,91.10000291520001,0.35999970196000003,0.98409003149088,1740.987580111602,95.90000306880002,0.7919993443119999,0.98409003149088,1024,0.0,97,P-GPS,
0.341427735945451,36.9110489854714,26900,2018-04-04 06:01:29,1736.187579958002,91.10000291520001,0.35999970196000003,0.98416003149312,1740.987580111602,95.90000306880002,0.7919993443119999,0.98416003149312,1024,0.0,97,P-GPS,
0.341427759531833,36.9110489286041,27000,2018-04-04 06:01:29,1736.187579958002,91.10000291520001,0.35999970196000003,0.9891750316536001,1740.987580111602,95.90000306880002,0.7919993443119999,0.9891750316536001,680,0.0,97,P-GPS,
0.341427811195848,36.9110488993059,27200,2018-04-04 06:01:29,1736.087579954802,91.00000291200001,0.35999970196000003,0.995756031864192,1740.987580111602,95.90000306880002,0.7919993443119999,0.995756031864192,644,0.0,97,P-GPS,
0.341427842095572,36.9110489236482,27300,2018-04-04 06:01:29,1736.087579954802,91.00000291200001,0.0,0.9977520319280642,1740.987580111602,95.90000306880002,0.7919993443119999,0.9977520319280642,779,0.0,97,P-GPS,
0.341427891976441,36.9110489510661,27400,2018-04-04 06:01:29,1735.8875799484022,90.8000029056,0.35999970196000003,1.0015500320496,1740.987580111602,95.90000306880002,0.7919993443119999,1.0015500320496,836,0.0,97,P-GPS,
0.341427870883205,36.9110489831988,27500,2018-04-04 06:01:29,1735.787579945202,90.7000029024,0.35999970196000003,0.9979450319342401,1740.987580111602,95.90000306880002,0.7919993443119999,1.0015500320496,1024,0.0,97,P-GPS,
0.341427904207683,36.9110490356228,27600,2018-04-04 06:01:29,1735.687579942002,90.6000028992,0.0,0.9989720319671039,1740.987580111602,95.90000306880002,0.7919993443119999,1.0015500320496,1024,0.0,97,P-GPS,
0.341427926615073,36.9110491218611,27700,2018-04-04 06:01:30,1735.687579942002,90.6000028992,0.0,0.997448031918336,1740.987580111602,95.90000306880002,0.7919993443119999,1.0015500320496,1024,0.0,97,P-GPS,
0.341428086463136,36.9110493490585,27900,2018-04-04 06:01:30,1735.587579938802,90.50000289600001,0.35999970196000003,1.00432003213824,1740.987580111602,95.90000306880002,0.7919993443119999,1.00432003213824,1024,0.0,97,P-GPS,
0.341428160961192,36.9110494610023,28000,2018-04-04 06:01:30,1735.587579938802,90.50000289600001,0.35999970196000003,1.0076000322432,1740.987580111602,95.90000306880002,0.7919993443119999,1.0076000322432,1024,0.0,97,P-GPS,
0.341428170399653,36.9110495677785,28100,2018-04-04 06:01:30,1735.587579938802,90.50000289600001,0.503999582744,1.00447003214304,1740.987580111602,95.90000306880002,0.7919993443119999,1.0076000322432,1024,0.0,97,P-GPS,
0.341428153857919,36.9110496987388,28300,2018-04-04 06:01:30,1735.4875799356023,90.4000028928,0.7199994039200001,0.9978670319317441,1740.987580111602,95.90000306880002,0.7919993443119999,1.0076000322432,1024,0.0,97,P-GPS,
0.341427925922984,36.9110495168469,28400,2018-04-04 06:01:30,1735.4875799356023,90.4000028928,0.7199994039200001,0.980952031390464,1740.987580111602,95.90000306880002,0.7919993443119999,1.0076000322432,1024,0.0,97,P-GPS,
0.3414273526765,36.9110489748568,28500,2018-04-04 06:01:30,1735.4875799356023,90.4000028928,4.31999642352,0.9460270302728641,1740.987580111602,95.90000306880002,4.31999642352,1.0076000322432,1024,0.0,97,P-GPS,
0.341426389613092,36.9110480174715,28600,2018-04-04 06:01:30,1735.4875799356023,90.4000028928,6.11999493332,0.906583029010656,1740.987580111602,95.90000306880002,6.11999493332,1.0076000322432,1024,0.0,97,P-GPS,
0.341425105194174,36.9110467009793,28700,2018-04-04 06:01:30,1735.4875799356023,90.4000028928,7.883993472924,0.8951100286435201,1740.987580111602,95.90000306880002,7.883993472924,1.0076000322432,1024,0.0,97,P-GPS,
0.341423512250256,36.911044988712,28800,2018-04-04 06:01:31,1735.4875799356023,90.4000028928,9.431992191352,0.952262030472384,1740.987580111602,95.90000306880002,9.431992191352,1.0076000322432,1024,0.0,97,P-GPS,
0.341421692857358,36.9110429957422,28900,2018-04-04 06:01:31,1735.4875799356023,90.4000028928,10.691991148212,1.09625003508,1740.987580111602,95.90000306880002,10.691991148212,1.09625003508,1024,0.0,97,P-GPS,
0.341419649691015,36.9110407176136,29000,2018-04-04 06:01:31,1735.587579938802,90.50000289600001,11.987990075268,1.32646004244672,1740.987580111602,95.90000306880002,11.987990075268,1.32646004244672,1024,0.0,97,P-GPS,
0.341417454047761,36.9110382560679,29100,2018-04-04 06:01:31,1735.687579942002,90.6000028992,12.995989240755998,1.61919005181408,1740.987580111602,95.90000306880002,12.995989240755998,1.61919005181408,1024,0.0,97,P-GPS,
0.341415130655517,36.9110355961651,29200,2018-04-04 06:01:31,1735.687579942002,90.6000028992,14.291988167812,1.9622700627926402,1740.987580111602,95.90000306880002,14.291988167812,1.9622700627926402,1024,0.0,97,P-GPS,
0.34141010238889,36.9110297154224,29400,2018-04-04 06:01:31,1735.687579942002,90.6000028992,16.091986677612,2.76338008842816,1740.987580111602,95.90000306880002,16.091986677612,2.76338008842816,1024,0.0,97,P-GPS,
0.341407374642909,36.9110264783519,29500,2018-04-04 06:01:31,1735.787579945202,90.7000029024,17.0999858431,3.2155501028976,1740.987580111602,95.90000306880002,17.0999858431,3.2155501028976,1024,0.0,97,P-GPS,
0.341404490524982,36.9110230171557,29600,2018-04-04 06:01:31,1735.787579945202,90.7000029024,18.107985008588,3.70250011848,1740.987580111602,95.90000306880002,18.107985008588,3.70250011848,1024,0.0,97,P-GPS,
0.341398199753408,36.9110155400476,29800,2018-04-04 06:01:32,1735.787579945202,90.7000029024,19.907983518388,4.76777015256864,1740.987580111602,95.90000306880002,19.907983518388,4.76777015256864,1024,0.0,97,P-GPS,
0.341391268692717,36.9110073339596,30000,2018-04-04 06:01:32,1735.8875799484022,90.8000029056,21.707982028188,5.94739019031648,1740.987580111602,95.90000306880002,21.707982028188,5.94739019031648,1024,-1.2,97,P-GPS,
0.341387567246026,36.9110029620896,30100,2018-04-04 06:01:32,1735.8875799484022,90.8000029056,22.715981193676,6.578570210514241,1740.987580111602,95.90000306880002,22.715981193676,6.578570210514241,1024,-6.4,97,P-GPS,
0.341383630451723,36.9109983120736,30200,2018-04-04 06:01:32,1735.9875799516021,90.9000029088,22.715981193676,7.251030232032961,1740.987580111602,95.90000306880002,22.715981193676,7.251030232032961,1024,-12.0,97,P-GPS,
0.341379549051593,36.9109935183726,30300,2018-04-04 06:01:32,1735.9875799516021,90.9000029088,24.515979703476,7.946600254291201,1740.987580111602,95.90000306880002,24.515979703476,7.946600254291201,1024,-17.6,97,P-GPS,
0.341375313836785,36.910988547686,30400,2018-04-04 06:01:32,1736.087579954802,91.00000291200001,25.523978868964,8.66882027740224,1740.987580111602,95.90000306880002,25.523978868964,8.66882027740224,1024,-21.7,97,P-GPS,
0.341370980436575,36.9109834746272,30500,2018-04-04 06:01:32,1736.087579954802,91.00000291200001,26.567978004648,9.407250301032,1740.987580111602,95.90000306880002,26.567978004648,9.407250301032,1024,-21.7,97,P-GPS,
0.341366454876717,36.9109781736772,30600,2018-04-04 06:01:32,1736.087579954802,91.00000291200001,27.071977587392,10.179200325734401,1740.987580111602,95.90000306880002,27.071977587392,10.179200325734401,1024,-21.7,97,P-GPS,
0.341361820461891,36.9109727542273,30700,2018-04-04 06:01:32,1736.187579958002,91.10000291520001,28.07997675288,10.9694003510208,1740.987580111602,95.90000306880002,28.07997675288,10.9694003510208,1024,-21.7,97,P-GPS,
0.341357032100483,36.9109670997687,30800,2018-04-04 06:01:33,1736.187579958002,91.10000291520001,28.871976097191997,11.7912003773184,1740.987580111602,95.90000306880002,28.871976097191997,11.7912003773184,1024,-21.6,97,P-GPS,
0.341352179008427,36.91096134964,30900,2018-04-04 06:01:33,1736.187579958002,91.10000291520001,29.375975679935998,12.626100404035201,1740.987580111602,95.90000306880002,29.375975679935998,12.626100404035201,1024,-21.7,97,P-GPS,
0.34134717149754,36.9109553796411,31000,2018-04-04 06:01:33,1736.2875799612023,91.2000029184,30.131975054052003,13.491100431715202,1740.987580111602,95.90000306880002,30.131975054052003,13.491100431715202,1024,-21.6,97,P-GPS,
