latitude,longitude,time_millisecond,datetime_utc,altitude_m,ascent_m,speed_kph,distance_m,max_altitude_m,max_ascent_m,max_speed_kph,max_distance_m,rc_throttle,gimbal_pitch_degrees,battery_percent,flycState,message
0.347646928603454,36.8999838537258,0,2018-04-04 13:07:43,1741.3897041244823,0.0,0.0,0.0,1741.3897041244823,0.0,0.0,0.0,364,0.0,99,Motors_Started,
0.347646944189088,36.899983951053,100,2018-04-04 13:07:43,1741.3897041244823,0.0,0.0,0.0109611003507552,1741.3897041244823,0.0,0.0,0.0109611003507552,364,0.0,99,Motors_Started,
0.347646954222033,36.8999840401007,200,2018-04-04 13:07:43,1741.3897041244823,0.0,0.0,0.020920500669456,1741.3897041244823,0.0,0.0,0.020920500669456,364,0.0,99,Motors_Started,
0.347646962990797,36.899984135723,300,2018-04-04 13:07:43,1741.3897041244823,0.0,0.0,0.031591501010928,1741.3897041244823,0.0,0.0,0.031591501010928,364,0.0,99,Motors_Started,
0.34764696531764,36.8999842584122,400,2018-04-04 13:07:43,1741.3897041244823,0.0,0.0,0.0451876014460032,1741.3897041244823,0.0,0.0,0.0451876014460032,364,0.0,99,Motors_Started,
0.347646968742563,36.8999843826094,500,2018-04-04 13:07:43,1741.3897041244823,0.0,0.0,0.0589831018874592,1741.3897041244823,0.0,0.0,0.0589831018874592,364,0.0,99,Motors_Started,
0.347646966473937,36.8999844984355,600,2018-04-04 13:07:43,1741.3897041244823,0.0,0.0,0.0718179022981728,1741.3897041244823,0.0,0.0,0.0718179022981728,364,0.0,99,Motors_Started,
0.347646967001654,36.8999846113758,700,2018-04-04 13:07:43,1741.3897041244823,0.0,0.0,0.0843619026995808,1741.3897041244823,0.0,0.0,0.0843619026995808,364,0.0,99,Motors_Started,Setting new Return-To-Home altitude to 45m (148 ft). Setting new Maximum Flight Altitude to 150m (492 ft)
0.347646928471346,36.8999847153183,800,2018-04-04 13:07:43,1741.3897041244823,0.0,0.0,0.09581260306600321,1741.3897041244823,0.0,0.0,0.09581260306600321,364,0.0,99,Motors_Started,
0.347646896638828,36.8999848200177,900,2018-04-04 13:07:43,1741.3897041244823,0.0,0.0,0.10751400344044801,1741.3897041244823,0.0,0.0,0.10751400344044801,364,0.0,99,Motors_Started,
0.34764686466199,36.8999849159354,1000,2018-04-04 13:07:44,1741.3897041244823,0.0,0.0,0.118336003786752,1741.3897041244823,0.0,0.0,0.118336003786752,379,0.0,99,Motors_Started,
0.347646842548534,36.8999850152973,1100,2018-04-04 13:07:44,1741.3897041244823,0.0,0.0,0.1295250041448,1741.3897041244823,0.0,0.0,0.1295250041448,399,0.0,99,Motors_Started,
0.347646827640028,36.8999850752403,1200,2018-04-04 13:07:44,1741.3897041244823,0.0,0.0,0.136301004361632,1741.3897041244823,0.0,0.0,0.136301004361632,875,0.0,99,Motors_Started,
0.347646806076274,36.899985241846,1400,2018-04-04 13:07:44,1741.3897041244823,0.0,0.0,0.15496500495888,1741.3897041244823,0.0,0.0,0.15496500495888,1034,0.0,99,Motors_Started,
0.347646795819622,36.8999854514252,1600,2018-04-04 13:07:44,1741.3897041244823,0.0,0.0,0.178283005705056,1741.3897041244823,0.0,0.0,0.178283005705056,1024,0.0,99,Assisted_Takeoff,
0.347646798625939,36.8999856591227,1800,2018-04-04 13:07:44,1741.3897041244823,0.0,0.0,0.20128700644118402,1741.3897041244823,0.0,0.0,0.20128700644118402,1024,0.0,99,Assisted_Takeoff,
0.347646800222222,36.8999857611649,1900,2018-04-04 13:07:44,1741.3897041244823,0.0,0.0,0.21259500680304003,1741.3897041244823,0.0,0.0,0.21259500680304003,1024,0.0,99,Assisted_Takeoff,
0.347646804726396,36.8999858289478,2000,2018-04-04 13:07:45,1741.3897041244823,0.0,0.0,0.22008400704268802,1741.3897041244823,0.0,0.0,0.22008400704268802,1024,0.0,99,Assisted_Takeoff,
0.347646806429952,36.8999858980497,2100,2018-04-04 13:07:45,1741.3897041244823,0.0,0.0,0.22774300728777602,1741.3897041244823,0.0,0.0,0.22774300728777602,1024,0.0,99,Assisted_Takeoff,
0.347646811002317,36.899985971881,2200,2018-04-04 13:07:45,1741.3897041244823,0.0,0.0,0.23591000754912003,1741.3897041244823,0.0,0.0,0.23591000754912003,1024,0.0,99,Assisted_Takeoff,
0.347646812742615,36.899986050174,2300,2018-04-04 13:07:45,1741.3897041244823,0.0,0.0,0.24459400782700802,1741.3897041244823,0.0,0.0,0.24459400782700802,1024,0.0,99,Assisted_Takeoff,
0.347646817120381,36.8999861016592,2400,2018-04-04 13:07:45,1741.3897041244823,0.0,0.0,0.250287008009184,1741.3897041244823,0.0,0.0,0.250287008009184,1064,0.0,99,Assisted_Takeoff,
0.347646819314812,36.8999861580461,2500,2018-04-04 13:07:45,1741.3897041244823,0.0,0.0,0.256538008209216,1741.3897041244823,0.0,0.0,0.256538008209216,1151,0.0,99,Assisted_Takeoff,
0.347646821716766,36.89998622673,2600,2018-04-04 13:07:45,1741.3897041244823,0.0,0.0,0.26415500845295997,1741.3897041244823,0.0,0.0,0.26415500845295997,1178,0.0,99,Assisted_Takeoff,
0.347646824040658,36.8999863015178,2700,2018-04-04 13:07:45,1741.3897041244823,0.0,0.0,0.272453008718496,1741.3897041244823,0.0,0.0,0.272453008718496,1198,0.0,99,Assisted_Takeoff,
0.34764682636577,36.8999863557395,2800,2018-04-04 13:07:45,1741.3897041244823,0.0,0.0,0.278466008910912,1741.3897041244823,0.0,0.0,0.278466008910912,1198,0.0,99,Assisted_Takeoff,
0.347646828942172,36.8999864146808,2900,2018-04-04 13:07:45,1741.3897041244823,0.0,0.0,0.285004009120128,1741.3897041244823,0.0,0.0,0.285004009120128,1199,0.0,99,Assisted_Takeoff,
0.347646829495334,36.8999864561527,3000,2018-04-04 13:07:46,1741.3897041244823,0.0,0.0,0.28961000926752,1741.3897041244823,0.0,0.0,0.28961000926752,1185,0.0,99,Assisted_Takeoff,
0.347646828288149,36.89998650397,3100,2018-04-04 13:07:46,1741.3897041244823,0.0,0.0,0.29492900943772804,1741.3897041244823,0.0,0.0,0.29492900943772804,1202,0.0,99,Assisted_Takeoff,
0.347646829733393,36.8999865735692,3200,2018-04-04 13:07:46,1741.3897041244823,0.0,0.0,0.302657009685024,1741.3897041244823,0.0,0.0,0.302657009685024,1222,0.0,99,Assisted_Takeoff,
0.347646817337066,36.8999866312553,3300,2018-04-04 13:07:46,1741.3897041244823,0.0,0.0,0.30912000989184,1741.3897041244823,0.0,0.0,0.30912000989184,1239,0.0,99,Assisted_Takeoff,
0.347646782594722,36.8999866378266,3400,2018-04-04 13:07:46,1741.3897041244823,0.0,0.0,0.310029009920928,1741.3897041244823,0.0,0.0,0.310029009920928,1257,0.0,99,Assisted_Takeoff,
0.347646785202065,36.8999866285804,3500,2018-04-04 13:07:46,1741.3897041244823,0.0,0.0,0.308987009887584,1741.3897041244823,0.0,0.0,0.310029009920928,1258,0.0,99,P-GPS,Obstacle Avoided. Revise Flight Route
0.347646898616777,36.8999865766322,3600,2018-04-04 13:07:46,1741.3897041244823,0.0,0.35999970196000003,0.302817009690144,1741.3897041244823,0.0,0.35999970196000003,0.310029009920928,1258,0.0,99,P-GPS,
0.347647041605559,36.8999865378374,3700,2018-04-04 13:07:46,1741.3897041244823,0.0,0.35999970196000003,0.298748009559936,1741.3897041244823,0.0,0.35999970196000003,0.310029009920928,1255,0.0,99,P-GPS,
0.347647222664003,36.8999864740007,3800,2018-04-04 13:07:46,1741.4897041276822,0.1000000032,0.35999970196000003,0.29321400938284803,1741.4897041276822,0.1000000032,0.35999970196000003,0.310029009920928,1251,0.0,99,P-GPS,Home Point Recorded. RTH Altitude:  45m.
0.347647388192079,36.8999864404695,3900,2018-04-04 13:07:47,1741.5897041308824,0.2000000064,0.35999970196000003,0.292161009349152,1741.5897041308824,0.2000000064,0.35999970196000003,0.310029009920928,1249,0.0,99,P-GPS,
0.347647507913551,36.8999864288652,4000,2018-04-04 13:07:47,1741.5897041308824,0.2000000064,0.0,0.293523009392736,1741.5897041308824,0.2000000064,0.35999970196000003,0.310029009920928,1253,0.0,99,P-GPS,
0.347647581883991,36.899986432478,4100,2018-04-04 13:07:47,1741.6897041340824,0.3000000096,0.0,0.295827009466464,1741.6897041340824,0.3000000096,0.35999970196000003,0.310029009920928,1259,0.0,99,P-GPS,
0.347647641310951,36.8999863991036,4200,2018-04-04 13:07:47,1741.7897041372821,0.4000000128,0.0,0.293943009406176,1741.7897041372821,0.4000000128,0.35999970196000003,0.310029009920928,1258,0.0,99,P-GPS,
0.347647697579339,36.8999863988381,4300,2018-04-04 13:07:47,1741.889704140482,0.500000016,0.0,0.29566400946124805,1741.889704140482,0.500000016,0.35999970196000003,0.310029009920928,1251,0.0,99,P-GPS,
0.347647712200629,36.8999864682109,4400,2018-04-04 13:07:47,1741.9897041436823,0.6000000192,0.0,0.30351900971260803,1741.9897041436823,0.6000000192,0.35999970196000003,0.310029009920928,1250,0.0,99,P-GPS,
0.347647725023811,36.8999865289963,4500,2018-04-04 13:07:47,1742.0897041468822,0.7000000224,0.0,0.310404009932928,1742.0897041468822,0.7000000224,0.35999970196000003,0.310404009932928,1251,0.0,99,P-GPS,
0.34764770053008,36.8999865255902,4600,2018-04-04 13:07:47,1742.1897041500822,0.8000000256,0.0,0.309274009896768,1742.1897041500822,0.8000000256,0.35999970196000003,0.310404009932928,1251,0.0,99,P-GPS,
0.347647668746873,36.8999865130626,4700,2018-04-04 13:07:47,1742.2897041532822,0.9000000288000001,0.0,0.30697000982304,1742.2897041532822,0.9000000288000001,0.35999970196000003,0.310404009932928,1249,0.0,99,P-GPS,
0.347647616225229,36.899986512227,4800,2018-04-04 13:07:47,1742.4897041596823,1.1000000352000001,0.0,0.30536500977168,1742.4897041596823,1.1000000352000001,0.35999970196000003,0.310404009932928,1246,0.0,99,P-GPS,
0.347647570467836,36.8999865200724,4900,2018-04-04 13:07:47,1742.5897041628823,1.2000000384,0.0,0.304979009759328,1742.5897041628823,1.2000000384,0.35999970196000003,0.310404009932928,1256,0.0,99,P-GPS,
0.347647544357008,36.8999865367839,5000,2018-04-04 13:07:48,1742.689704166082,1.3000000416000002,0.0,0.306124009795968,1742.689704166082,1.3000000416000002,0.35999970196000003,0.310404009932928,1264,0.0,99,P-GPS,
0.347647542984586,36.8999865698189,5100,2018-04-04 13:07:48,1742.7897041692822,1.4000000448,0.0,0.309672009909504,1742.7897041692822,1.4000000448,0.35999970196000003,0.310404009932928,1256,0.0,99,P-GPS,
0.347647542901841,36.899986579988,5200,2018-04-04 13:07:48,1742.8897041724822,1.5000000480000002,0.0,0.310773009944736,1742.8897041724822,1.5000000480000002,0.35999970196000003,0.310773009944736,1254,0.0,99,P-GPS,
0.347647571703468,36.8999865458679,5300,2018-04-04 13:07:48,1742.9897041756822,1.6000000512,0.0,0.307801009849632,1742.9897041756822,1.6000000512,0.35999970196000003,0.310773009944736,1259,0.0,99,P-GPS,
0.347647617614699,36.8999865421979,5400,2018-04-04 13:07:48,1743.0897041788821,1.7000000544000002,0.0,0.308632009876224,1743.0897041788821,1.7000000544000002,0.35999970196000003,0.310773009944736,1259,0.0,99,P-GPS,
0.347647648511167,36.899986551025,5500,2018-04-04 13:07:48,1743.1897041820823,1.8000000576000001,0.0,0.31045100993443203,1743.1897041820823,1.8000000576000001,0.35999970196000003,0.310773009944736,1265,0.0,99,P-GPS,
0.347647710745971,36.8999865218421,5600,2018-04-04 13:07:48,1743.2897041852823,1.9000000608000003,0.0,0.309192009894144,1743.2897041852823,1.9000000608000003,0.35999970196000003,0.310773009944736,1270,0.0,99,P-GPS,
0.347647771348361,36.8999864969688,5700,2018-04-04 13:07:48,1743.3897041884823,2.000000064,0.0,0.30851800987257605,1743.3897041884823,2.000000064,0.35999970196000003,0.310773009944736,1275,0.0,99,P-GPS,
0.347647837501711,36.8999864658689,5800,2018-04-04 13:07:48,1743.4897041916824,2.1000000672000003,0.0,0.307564009842048,1743.4897041916824,2.1000000672000003,0.35999970196000003,0.310773009944736,1275,0.0,99,P-GPS,
0.347647877240757,36.8999864625308,5900,2018-04-04 13:07:49,1743.5897041948824,2.2000000704000002,0.0,0.30869500987824,1743.5897041948824,2.2000000704000002,0.35999970196000003,0.310773009944736,1274,0.0,99,P-GPS,
0.347647901321957,36.8999865056605,6000,2018-04-04 13:07:49,1743.7897042012821,2.4000000768,0.0,0.314119010051808,1743.7897042012821,2.4000000768,0.35999970196000003,0.314119010051808,1273,0.0,99,P-GPS,
0.347647896660893,36.8999865243376,6100,2018-04-04 13:07:49,1743.8897042044823,2.50000008,0.0,0.315893010108576,1743.8897042044823,2.50000008,0.35999970196000003,0.315893010108576,1274,0.0,99,P-GPS,
0.347647871912081,36.8999864882889,6200,2018-04-04 13:07:49,1743.9897042076823,2.6000000832000003,0.35999970196000003,0.31118800995801604,1743.9897042076823,2.6000000832000003,0.35999970196000003,0.315893010108576,1277,0.0,99,P-GPS,
0.34764783026371,36.8999864493924,6300,2018-04-04 13:07:49,1744.0897042108822,2.7000000864,0.0,0.30556900977820806,1744.0897042108822,2.7000000864,0.35999970196000003,0.315893010108576,1277,0.0,99,P-GPS,
0.347647734326858,36.8999864084435,6400,2018-04-04 13:07:49,1744.1897042140822,2.8000000896,0.0,0.29789000953248,1744.1897042140822,2.8000000896,0.35999970196000003,0.315893010108576,1276,0.0,99,P-GPS,
0.347647617092681,36.8999863604624,6500,2018-04-04 13:07:49,1744.2897042172824,2.9000000928,0.0,0.289083009250656,1744.2897042172824,2.9000000928,0.35999970196000003,0.315893010108576,1282,0.0,99,P-GPS,
0.34764748601846,36.8999862910698,6600,2018-04-04 13:07:49,1744.489704223682,3.1000000992000003,0.503999582744,0.278041008897312,1744.489704223682,3.1000000992000003,0.503999582744,0.315893010108576,1277,0.0,99,P-GPS,
0.347647359807587,36.8999862153404,6700,2018-04-04 13:07:49,1744.589704226882,3.2000001024,0.35999970196000003,0.266963008542816,1744.589704226882,3.2000001024,0.503999582744,0.315893010108576,1276,0.0,99,P-GPS,
0.347647197490498,36.8999861112636,6800,2018-04-04 13:07:49,1744.6897042300823,3.3000001056,0.35999970196000003,0.25282200809030403,1744.6897042300823,3.3000001056,0.503999582744,0.315893010108576,1280,0.0,99,P-GPS,
0.347647029341646,36.8999860470382,6900,2018-04-04 13:07:49,1744.7897042332822,3.4000001088000005,0.35999970196000003,0.244162007813184,1744.7897042332822,3.4000001088000005,0.503999582744,0.315893010108576,1280,0.0,99,P-GPS,
0.347646880544102,36.8999860260561,7000,2018-04-04 13:07:50,1744.8897042364822,3.500000112,0.35999970196000003,0.241631007732192,1744.8897042364822,3.500000112,0.503999582744,0.315893010108576,1275,0.0,99,P-GPS,
0.347646771864498,36.8999860055867,7100,2018-04-04 13:07:50,1745.0897042428824,3.7000001184,0.0,0.23993000767776002,1745.0897042428824,3.7000001184,0.503999582744,0.315893010108576,1269,0.0,99,P-GPS,
0.347646732723422,36.8999859629731,7200,2018-04-04 13:07:50,1745.1897042460823,3.8000001216000006,0.0,0.23556600753811202,1745.1897042460823,3.8000001216000006,0.503999582744,0.315893010108576,1271,0.0,99,P-GPS,
0.347646718166252,36.8999859398808,7300,2018-04-04 13:07:50,1745.2897042492823,3.9000001248,0.0,0.233166007461312,1745.2897042492823,3.9000001248,0.503999582744,0.315893010108576,1273,0.0,99,P-GPS,
0.347646696330752,36.8999859140027,7400,2018-04-04 13:07:50,1745.389704252482,4.000000128,0.0,0.23056300737801602,1745.389704252482,4.000000128,0.503999582744,0.315893010108576,1275,0.0,99,P-GPS,
0.347646639459279,36.8999858803495,7500,2018-04-04 13:07:50,1745.5897042588822,4.200000134400001,0.35999970196000003,0.227651007284832,1745.5897042588822,4.200000134400001,0.503999582744,0.315893010108576,1276,0.0,99,P-GPS,
0.347646567964888,36.8999857821658,7600,2018-04-04 13:07:50,1745.6897042620822,4.3000001376,0.0,0.218168006981376,1745.6897042620822,4.3000001376,0.503999582744,0.315893010108576,1272,0.0,99,P-GPS,
0.347646519096098,36.8999856809127,7700,2018-04-04 13:07:50,1745.7897042652824,4.4000001408000005,0.0,0.208231006663392,1745.7897042652824,4.4000001408000005,0.503999582744,0.315893010108576,1268,0.0,99,P-GPS,
0.347646482125432,36.8999856157848,7800,2018-04-04 13:07:50,1745.8897042684823,4.500000144,0.0,0.202141006468512,1745.8897042684823,4.500000144,0.503999582744,0.315893010108576,1271,0.0,99,P-GPS,
0.347646455590955,36.8999856167859,7900,2018-04-04 13:07:51,1745.9897042716823,4.6000001472,0.0,0.202993006495776,1745.9897042716823,4.6000001472,0.503999582744,0.315893010108576,1273,0.0,99,P-GPS,
0.347646423785611,36.8999856785536,8000,2018-04-04 13:07:51,1746.1897042780824,4.8000001536,0.0,0.21055000673760002,1746.1897042780824,4.8000001536,0.503999582744,0.315893010108576,1270,0.0,99,P-GPS,
0.347646376479517,36.8999857303621,8100,2018-04-04 13:07:51,1746.2897042812822,4.9000001568,0.0,0.217534006961088,1746.2897042812822,4.9000001568,0.503999582744,0.315893010108576,1269,0.0,99,P-GPS,
0.34764627519315,36.8999857920442,8200,2018-04-04 13:07:51,1746.3897042844821,5.00000016,0.35999970196000003,0.22746700727894403,1746.3897042844821,5.00000016,0.503999582744,0.315893010108576,1272,0.0,99,P-GPS,
0.347646117490969,36.8999858514888,8300,2018-04-04 13:07:51,1746.4897042876821,5.1000001632,0.7199994039200001,0.23977300767273602,1746.4897042876821,5.1000001632,0.7199994039200001,0.315893010108576,1277,0.0,99,P-GPS,
0.347645866270914,36.899985962093,8400,2018-04-04 13:07:51,1746.5897042908823,5.200000166400001,0.7919993443119999,0.262541008401312,1746.5897042908823,5.200000166400001,0.7919993443119999,0.315893010108576,1279,0.0,99,P-GPS,
0.347645549015419,36.8999861267659,8500,2018-04-04 13:07:51,1746.6897042940823,5.3000001696000005,0.7919993443119999,0.295687009461984,1746.6897042940823,5.3000001696000005,0.7919993443119999,0.315893010108576,1274,0.0,99,P-GPS,
0.347645107101722,36.8999864129722,8600,2018-04-04 13:07:51,1746.8897043004822,5.5000001759999995,2.087998271368,0.3493250111784,1746.8897043004822,5.5000001759999995,2.087998271368,0.3493250111784,1275,0.0,99,P-GPS,
0.347644551993457,36.8999868112762,8700,2018-04-04 13:07:51,1746.9897043036824,5.6000001792,2.591997854112,0.4219250135016,1746.9897043036824,5.6000001792,2.591997854112,0.4219250135016,1278,0.0,99,P-GPS,
0.347643770880575,36.8999873911804,8800,2018-04-04 13:07:51,1747.0897043068824,5.7000001824,3.095997436856,0.5273130168740161,1747.0897043068824,5.7000001824,3.095997436856,0.5273130168740161,1280,0.0,99,P-GPS,
0.347642894360009,36.8999880865134,8900,2018-04-04 13:07:51,1747.189704310082,5.8000001856,3.8159968407759997,0.650256020808192,1747.189704310082,5.8000001856,3.8159968407759997,0.650256020808192,1278,0.0,99,P-GPS,
0.347641825946859,36.8999889815269,9000,2018-04-04 13:07:52,1747.3897043164823,6.000000192000001,4.85999597646,0.804463025742816,1747.3897043164823,6.000000192000001,4.85999597646,0.804463025742816,1280,0.0,99,P-GPS,
0.34764063425887,36.8999900156274,9100,2018-04-04 13:07:52,1747.4897043196822,6.100000195200001,5.615995350576,0.979538031345216,1747.4897043196822,6.100000195200001,5.615995350576,0.979538031345216,1284,0.0,99,P-GPS,
0.347637793145197,36.8999924823894,9300,2018-04-04 13:07:52,1747.6897043260822,6.3000002016,6.875994307436,1.3974300447177601,1747.6897043260822,6.3000002016,6.875994307436,1.3974300447177601,1275,0.0,99,P-GPS,
0.347636169479055,36.8999939787912,9400,2018-04-04 13:07:52,1747.8897043324823,6.500000208,7.379993890180001,1.6429600525747199,1747.8897043324823,6.500000208,7.379993890180001,1.6429600525747199,1277,0.0,99,P-GPS,
0.347634460613537,36.8999956337789,9500,2018-04-04 13:07:52,1747.989704335682,6.6000002112,8.387993055668,1.90749006103968,1747.989704335682,6.6000002112,8.387993055668,1.90749006103968,1275,0.0,99,P-GPS,
0.347630630257591,36.8999995625744,9700,2018-04-04 13:07:52,1748.1897043420822,6.800000217600001,10.43999135684,2.5172800805529603,1748.1897043420822,6.800000217600001,10.43999135684,2.5172800805529603,1268,0.0,99,P-GPS,
0.347628466474029,36.9000018276096,9800,2018-04-04 13:07:52,1748.3897043484822,7.000000224,10.97999090978,2.8653600916915205,1748.3897043484822,7.000000224,10.97999090978,2.8653600916915205,1266,0.0,99,P-GPS,
0.347626267556788,36.9000042304417,9900,2018-04-04 13:07:52,1748.4897043516823,7.1000002272,11.483990492523999,3.2270401032652805,1748.4897043516823,7.1000002272,11.483990492523999,3.2270401032652805,1264,0.0,99,P-GPS,
0.347624031701552,36.9000066861851,10000,2018-04-04 13:07:53,1748.6897043580823,7.3000002336000005,11.483990492523999,3.59588011506816,1748.6897043580823,7.3000002336000005,11.483990492523999,3.59588011506816,1275,0.0,99,P-GPS,
0.347621827674254,36.9000091574158,10100,2018-04-04 13:07:53,1748.7897043612822,7.4000002368,10.97999090978,3.9635401268332804,1748.7897043612822,7.4000002368,11.483990492523999,3.9635401268332804,1273,0.0,99,P-GPS,
0.347619726484822,36.9000114217508,10200,2018-04-04 13:07:53,1748.9897043676822,7.600000243200001,9.971991744292,4.30688013782016,1748.9897043676822,7.600000243200001,11.483990492523999,4.30688013782016,1273,0.0,99,P-GPS,
0.347617882806125,36.9000134103184,10300,2018-04-04 13:07:53,1749.189704374082,7.8000002496,7.883993472924,4.60831014746592,1749.189704374082,7.8000002496,11.483990492523999,4.60831014746592,1255,0.0,99,P-GPS,
0.347616466613519,36.9000147790811,10400,2018-04-04 13:07:53,1749.2897043772823,7.9000002528,5.867995141948,4.82726015447232,1749.2897043772823,7.9000002528,11.483990492523999,4.82726015447232,1233,0.0,99,P-GPS,
0.347615317987289,36.9000158077911,10500,2018-04-04 13:07:53,1749.4897043836822,8.1000002592,5.867995141948,4.99841015994912,1749.4897043836822,8.1000002592,11.483990492523999,4.99841015994912,1208,0.0,99,P-GPS,
0.347614580536654,36.9000162420138,10600,2018-04-04 13:07:53,1749.5897043868822,8.200000262400001,3.3119972580319996,5.09047016289504,1749.5897043868822,8.200000262400001,11.483990492523999,5.09047016289504,1193,0.0,99,P-GPS,
0.347613957243201,36.9000165391397,10700,2018-04-04 13:07:53,1749.7897043932824,8.400000268800001,2.591997854112,5.1629001652127995,1749.7897043932824,8.400000268800001,11.483990492523999,5.1629001652127995,1178,0.0,99,P-GPS,
0.347613629694718,36.9000165961599,10800,2018-04-04 13:07:53,1749.889704396482,8.500000272,2.303998092544,5.19327016618464,1749.889704396482,8.500000272,11.483990492523999,5.19327016618464,1180,0.0,99,P-GPS,
0.347613307836019,36.9000166608841,10900,2018-04-04 13:07:53,1749.889704396482,8.500000272,1.7999985098000002,5.22388016716416,1749.889704396482,8.500000272,11.483990492523999,5.22388016716416,1182,0.0,99,P-GPS,
0.347613103121067,36.9000166888482,11000,2018-04-04 13:07:54,1749.9897043996823,8.6000002752,1.295998927056,5.24236016775552,1749.9897043996823,8.6000002752,11.483990492523999,5.24236016775552,1178,0.0,99,P-GPS,
0.347612905431223,36.9000167008261,11100,2018-04-04 13:07:54,1750.0897044028823,8.700000278400001,0.7919993443119999,5.25908016829056,1750.0897044028823,8.700000278400001,11.483990492523999,5.25908016829056,1180,0.1,99,P-GPS,
0.347612799116628,36.9000167987047,11200,2018-04-04 13:07:54,1750.0897044028823,8.700000278400001,0.7919993443119999,5.2751501688048,1750.0897044028823,8.700000278400001,11.483990492523999,5.2751501688048,1184,0.1,99,P-GPS,
0.347612696987134,36.9000168410019,11300,2018-04-04 13:07:54,1750.1897044060822,8.800000281600001,0.35999970196000003,5.28659016917088,1750.1897044060822,8.800000281600001,11.483990492523999,5.28659016917088,1190,0.1,99,P-GPS,
0.347612583171927,36.9000169687374,11400,2018-04-04 13:07:54,1750.1897044060822,8.800000281600001,0.35999970196000003,5.30556016977792,1750.1897044060822,8.800000281600001,11.483990492523999,5.30556016977792,1203,0.1,99,P-GPS,
0.347612491611034,36.9000170145163,11500,2018-04-04 13:07:54,1750.2897044092822,8.9000002848,0.35999970196000003,5.31642017012544,1750.2897044092822,8.9000002848,11.483990492523999,5.31642017012544,1250,0.1,99,P-GPS,
0.347612436230911,36.9000171881977,11600,2018-04-04 13:07:54,1750.3897044124824,9.000000288,0.35999970196000003,5.334270170696641,1750.3897044124824,9.000000288,11.483990492523999,5.334270170696641,1254,0.1,99,P-GPS,
0.347612377346376,36.9000172577739,11700,2018-04-04 13:07:54,1750.4897044156824,9.1000002912,0.35999970196000003,5.3443501710192,1750.4897044156824,9.1000002912,11.483990492523999,5.3443501710192,1256,0.1,99,P-GPS,
0.347612271249993,36.9000173886012,11800,2018-04-04 13:07:54,1750.5897044188823,9.2000002944,0.35999970196000003,5.362950171614401,1750.5897044188823,9.2000002944,11.483990492523999,5.362950171614401,1267,0.1,99,P-GPS,
0.347612206789666,36.9000174126084,11900,2018-04-04 13:07:55,1750.689704422082,9.3000002976,0.0,5.36996017183872,1750.689704422082,9.3000002976,11.483990492523999,5.36996017183872,1265,0.1,99,P-GPS,
0.347612141479291,36.9000174897302,12000,2018-04-04 13:07:55,1750.7897044252823,9.4000003008,0.0,5.38114017219648,1750.7897044252823,9.4000003008,11.483990492523999,5.38114017219648,1264,0.1,99,P-GPS,
0.347612119280342,36.9000175060804,12100,2018-04-04 13:07:55,1750.9897044316822,9.6000003072,0.0,5.38418017229376,1750.9897044316822,9.6000003072,11.483990492523999,5.38418017229376,1265,0.1,99,P-GPS,
0.347612053898316,36.9000176432414,12200,2018-04-04 13:07:55,1751.0897044348822,9.7000003104,0.0,5.400010172800321,1751.0897044348822,9.7000003104,11.483990492523999,5.400010172800321,1267,0.1,99,P-GPS,
0.347612001638291,36.9000177055247,12300,2018-04-04 13:07:55,1751.1897044380823,9.8000003136,0.0,5.409000173088,1751.1897044380823,9.8000003136,11.483990492523999,5.409000173088,1263,0.1,99,P-GPS,
0.347611881478665,36.9000177881065,12400,2018-04-04 13:07:55,1751.2897044412823,9.900000316800002,0.0,5.42499017359968,1751.2897044412823,9.900000316800002,11.483990492523999,5.42499017359968,1260,0.1,99,P-GPS,
0.347611811344839,36.9000178050306,12500,2018-04-04 13:07:55,1751.3897044444823,10.00000032,0.0,5.4319001738208,1751.3897044444823,10.00000032,11.483990492523999,5.4319001738208,1264,0.1,99,P-GPS,
0.347611737592611,36.9000178609844,12600,2018-04-04 13:07:55,1751.4897044476822,10.100000323200002,0.0,5.44212017414784,1751.4897044476822,10.100000323200002,11.483990492523999,5.44212017414784,1265,0.1,99,P-GPS,
0.347611674672791,36.9000178799041,12700,2018-04-04 13:07:55,1751.5897044508824,10.2000003264,0.0,5.44862017435584,1751.5897044508824,10.2000003264,11.483990492523999,5.44862017435584,1269,0.1,99,P-GPS,
0.347611547833289,36.9000179418447,12800,2018-04-04 13:07:55,1751.6897044540822,10.3000003296,0.0,5.4635501748336,1751.6897044540822,10.3000003296,11.483990492523999,5.4635501748336,1274,0.1,99,P-GPS,
0.347611463795808,36.900017969903,12900,2018-04-04 13:07:55,1751.7897044572821,10.400000332800001,0.0,5.472450175118401,1751.7897044572821,10.400000332800001,11.483990492523999,5.472450175118401,1277,0.1,99,P-GPS,
0.347611374472397,36.9000180175234,13000,2018-04-04 13:07:56,1751.889704460482,10.500000336,0.0,5.48328017546496,1751.889704460482,10.500000336,11.483990492523999,5.48328017546496,1278,0.1,99,P-GPS,
0.347611315848414,36.900018035655,13100,2018-04-04 13:07:56,1752.0897044668823,10.700000342400001,0.0,5.489380175660161,1752.0897044668823,10.700000342400001,11.483990492523999,5.489380175660161,1293,0.1,99,P-GPS,
0.347611230912032,36.9000180773699,13200,2018-04-04 13:07:56,1752.1897044700822,10.8000003456,0.35999970196000003,5.4994101759811205,1752.1897044700822,10.8000003456,11.483990492523999,5.4994101759811205,1325,0.1,99,P-GPS,
0.347611174291034,36.900018086076,13300,2018-04-04 13:07:56,1752.2897044732824,10.9000003488,0.35999970196000003,5.50462017614784,1752.2897044732824,10.9000003488,11.483990492523999,5.50462017614784,1353,0.1,99,P-GPS,
0.347611111944427,36.9000181043491,13400,2018-04-04 13:07:56,1752.3897044764824,11.000000351999999,0.0,5.51104017635328,1752.3897044764824,11.000000351999999,11.483990492523999,5.51104017635328,1362,0.1,99,P-GPS,
0.347611077519121,36.900018079858,13500,2018-04-04 13:07:56,1752.589704482882,11.2000003584,0.35999970196000003,5.51193017638176,1752.589704482882,11.2000003584,11.483990492523999,5.51193017638176,1361,0.1,99,P-GPS,
0.34761101250838,36.9000180305376,13600,2018-04-04 13:07:56,1752.7897044892823,11.4000003648,0.503999582744,5.5133701764278396,1752.7897044892823,11.4000003648,11.483990492523999,5.5133701764278396,1368,0.1,99,P-GPS,
0.347610937385001,36.9000179547262,13700,2018-04-04 13:07:56,1752.9897044956822,11.6000003712,0.503999582744,5.51363017643616,1752.9897044956822,11.6000003712,11.483990492523999,5.51363017643616,1381,0.1,99,P-GPS,
0.347610834411973,36.9000178568348,13800,2018-04-04 13:07:56,1753.2897045052823,11.9000003808,0.503999582744,5.51448017646336,1753.2897045052823,11.9000003808,11.483990492523999,5.51448017646336,1390,0.1,99,P-GPS,
0.347610758640474,36.9000177648488,13900,2018-04-04 13:07:56,1753.4897045116822,12.1000003872,0.35999970196000003,5.51361017643552,1753.4897045116822,12.1000003872,11.483990492523999,5.51448017646336,1390,0.1,99,P-GPS,
0.347610692799227,36.900017668332,14000,2018-04-04 13:07:57,1753.7897045212821,12.400000396800001,0.35999970196000003,5.51163017637216,1753.7897045212821,12.400000396800001,11.483990492523999,5.51448017646336,1392,0.1,99,P-GPS,
0.347610656087585,36.9000175572765,14100,2018-04-04 13:07:57,1753.9897045276823,12.6000004032,0.35999970196000003,5.5062001761984005,1753.9897045276823,12.6000004032,11.483990492523999,5.51448017646336,1395,0.1,99,P-GPS,
0.34761062933225,36.9000174743392,14200,2018-04-04 13:07:57,1754.189704534082,12.8000004096,0.35999970196000003,5.50211017606752,1754.189704534082,12.8000004096,11.483990492523999,5.51448017646336,1396,0.1,99,P-GPS,
0.347610646434169,36.9000174128696,14300,2018-04-04 13:07:57,1754.3897045404822,13.000000416,0.35999970196000003,5.49607017587424,1754.3897045404822,13.000000416,11.483990492523999,5.51448017646336,1397,0.1,99,P-GPS,
0.347610667177289,36.9000173767476,14400,2018-04-04 13:07:57,1754.5897045468823,13.2000004224,0.35999970196000003,5.4916501757328,1754.5897045468823,13.2000004224,11.483990492523999,5.51448017646336,1397,0.1,99,P-GPS,
0.347610673912533,36.9000173717586,14500,2018-04-04 13:07:57,1754.7897045532823,13.4000004288,0.35999970196000003,5.49072017570304,1754.7897045532823,13.4000004288,11.483990492523999,5.51448017646336,1398,0.1,99,P-GPS,
0.347610640861634,36.9000174444395,14600,2018-04-04 13:07:57,1755.0897045628824,13.7000004384,0.35999970196000003,5.49891017596512,1755.0897045628824,13.7000004384,11.483990492523999,5.51448017646336,1398,0.1,99,P-GPS,
0.34761062064613,36.9000175426135,14700,2018-04-04 13:07:57,1755.289704569282,13.9000004448,0.0,5.50798017625536,1755.289704569282,13.9000004448,11.483990492523999,5.51448017646336,1398,0.1,99,P-GPS,
0.347610651661474,36.9000176713468,14800,2018-04-04 13:07:57,1755.4897045756823,14.100000451200001,0.35999970196000003,5.515200176486401,1755.4897045756823,14.100000451200001,11.483990492523999,5.515200176486401,1401,0.1,99,P-GPS,
0.347610745528243,36.9000177936522,14900,2018-04-04 13:07:57,1755.6897045820822,14.300000457600001,0.7199994039200001,5.5168701765398405,1755.6897045820822,14.300000457600001,11.483990492523999,5.5168701765398405,1403,0.1,99,P-GPS,
0.347610863583919,36.900017951099,15000,2018-04-04 13:07:58,1755.8897045884823,14.500000464000001,0.35999970196000003,5.51931017661792,1755.8897045884823,14.500000464000001,11.483990492523999,5.51931017661792,1400,0.1,99,P-GPS,
0.347610945227587,36.9000181234571,15100,2018-04-04 13:07:58,1756.089704594882,14.7000004704,0.35999970196000003,5.52592017682944,1756.089704594882,14.7000004704,11.483990492523999,5.52592017682944,1399,0.1,99,P-GPS,
0.347610973897972,36.9000183034636,15200,2018-04-04 13:07:58,1756.2897046012822,14.9000004768,0.35999970196000003,5.53744017719808,1756.2897046012822,14.9000004768,11.483990492523999,5.53744017719808,1401,0.1,99,P-GPS,
0.34761104813222,36.9000184467828,15300,2018-04-04 13:07:58,1756.4897046076821,15.1000004832,0.7199994039200001,5.54253017736096,1756.4897046076821,15.1000004832,11.483990492523999,5.54253017736096,1404,0.1,99,P-GPS,
0.347611132970896,36.9000185392484,15400,2018-04-04 13:07:58,1756.7897046172823,15.4000004928,0.7199994039200001,5.54289017737248,1756.7897046172823,15.4000004928,11.483990492523999,5.54289017737248,1395,0.1,99,P-GPS,
0.347611215975943,36.9000186140063,15500,2018-04-04 13:07:58,1756.9897046236822,15.6000004992,0.35999970196000003,5.54206017734592,1756.9897046236822,15.6000004992,11.483990492523999,5.54289017737248,1377,0.1,99,P-GPS,
0.347611258901727,36.9000186696989,15600,2018-04-04 13:07:58,1757.2897046332823,15.900000508800002,0.0,5.5429701773750395,1757.2897046332823,15.900000508800002,11.483990492523999,5.5429701773750395,1366,0.1,99,P-GPS,
0.347611232719604,36.9000187160345,15700,2018-04-04 13:07:58,1757.4897046396823,16.1000005152,0.0,5.548650177556801,1757.4897046396823,16.1000005152,11.483990492523999,5.548650177556801,1369,0.1,99,P-GPS,
0.34761111797944,36.900018755257,15800,2018-04-04 13:07:58,1757.7897046492824,16.400000524800003,0.0,5.560830177946561,1757.7897046492824,16.400000524800003,11.483990492523999,5.560830177946561,1368,0.1,99,P-GPS,
0.347610968849796,36.9000187969976,15900,2018-04-04 13:07:58,1757.989704655682,16.600000531200003,0.35999970196000003,5.5759501784304,1757.989704655682,16.600000531200003,11.483990492523999,5.5759501784304,1370,0.1,99,P-GPS,
0.347610758262675,36.9000188165339,16000,2018-04-04 13:07:59,1758.2897046652822,16.9000005408,0.35999970196000003,5.594280179016961,1758.2897046652822,16.9000005408,11.483990492523999,5.594280179016961,1376,0.1,99,P-GPS,
0.347610568939776,36.9000188157117,16100,2018-04-04 13:07:59,1758.4897046716824,17.1000005472,0.35999970196000003,5.60938017950016,1758.4897046716824,17.1000005472,11.483990492523999,5.60938017950016,1376,0.1,99,P-GPS,
0.347610369647543,36.9000187680186,16200,2018-04-04 13:07:59,1758.689704678082,17.3000005536,0.35999970196000003,5.62171017989472,1758.689704678082,17.3000005536,11.483990492523999,5.62171017989472,1382,0.1,99,P-GPS,
0.347610204897864,36.9000187232589,16300,2018-04-04 13:07:59,1758.9897046876822,17.600000563200002,0.35999970196000003,5.631540180209281,1758.9897046876822,17.600000563200002,11.483990492523999,5.631540180209281,1374,-0.1,99,P-GPS,
0.347610107083747,36.9000186588687,16400,2018-04-04 13:07:59,1759.1897046940824,17.8000005696,0.0,5.63452018030464,1759.1897046940824,17.8000005696,11.483990492523999,5.63452018030464,1378,-0.3,99,P-GPS,
0.347610050687474,36.90001859074,16500,2018-04-04 13:07:59,1759.3897047004823,18.000000576,0.0,5.6338801802841605,1759.3897047004823,18.000000576,11.483990492523999,5.63452018030464,1386,-0.6,99,P-GPS,
0.347610008921143,36.9000185286323,16600,2018-04-04 13:07:59,1759.5897047068825,18.2000005824,0.0,5.63253018024096,1759.5897047068825,18.2000005824,11.483990492523999,5.63452018030464,1383,-1.1,99,P-GPS,
0.347609936618229,36.9000184567608,16700,2018-04-04 13:07:59,1759.8897047164821,18.500000592000003,0.35999970196000003,5.63293018025376,1759.8897047164821,18.500000592000003,11.483990492523999,5.63452018030464,1380,-1.8,99,P-GPS,
0.347609812973733,36.9000183965159,16800,2018-04-04 13:07:59,1760.0897047228823,18.700000598400003,0.35999970196000003,5.638410180429121,1760.0897047228823,18.700000598400003,11.483990492523999,5.638410180429121,1380,-2.6,99,P-GPS,
0.34760967602485,36.9000183290852,16900,2018-04-04 13:08:00,1760.2897047292822,18.900000604800002,0.35999970196000003,5.64447018062304,1760.2897047292822,18.900000604800002,11.483990492523999,5.64447018062304,1383,-3.5,99,P-GPS,
0.347609578669954,36.9000182619029,17000,2018-04-04 13:08:00,1760.5897047388821,19.2000006144,0.0,5.64736018071552,1760.5897047388821,19.2000006144,11.483990492523999,5.64736018071552,1383,-4.3,99,P-GPS,
0.347609537441009,36.9000181911148,17100,2018-04-04 13:08:00,1760.7897047452823,19.4000006208,0.0,5.64541018065312,1760.7897047452823,19.4000006208,11.483990492523999,5.64736018071552,1383,-5.2,99,P-GPS,
0.347609598084263,36.9000181733685,17200,2018-04-04 13:08:00,1760.9897047516822,19.6000006272,0.0,5.639110180451521,1760.9897047516822,19.6000006272,11.483990492523999,5.64736018071552,1384,-5.2,99,P-GPS,
0.347609741221234,36.9000181715399,17300,2018-04-04 13:08:00,1761.1897047580824,19.800000633600003,0.35999970196000003,5.62726018007232,1761.1897047580824,19.800000633600003,11.483990492523999,5.64736018071552,1386,-6.1,99,P-GPS,
0.347609932087898,36.9000181813295,17400,2018-04-04 13:08:00,1761.389704764482,20.00000064,0.35999970196000003,5.61242017959744,1761.389704764482,20.00000064,11.483990492523999,5.64736018071552,1390,-7.0,99,P-GPS,
0.347610116821842,36.9000181795566,17500,2018-04-04 13:08:00,1761.5897047708822,20.200000646400003,0.35999970196000003,5.59724017911168,1761.5897047708822,20.200000646400003,11.483990492523999,5.64736018071552,1390,-7.9,99,P-GPS,
0.347610294657697,36.9000182331337,17600,2018-04-04 13:08:00,1761.8897047804824,20.500000656,0.35999970196000003,5.58687017877984,1761.8897047804824,20.500000656,11.483990492523999,5.64736018071552,1389,-9.7,99,P-GPS,
0.347610633862581,36.900018266181,17800,2018-04-04 13:08:00,1762.2897047932825,20.900000668800004,0.35999970196000003,5.5619501779824,1762.2897047932825,20.900000668800004,11.483990492523999,5.64736018071552,1390,-10.6,99,P-GPS,
0.347610778259968,36.9000182587853,17900,2018-04-04 13:08:00,1762.4897047996822,21.1000006752,0.35999970196000003,5.54974017759168,1762.4897047996822,21.1000006752,11.483990492523999,5.64736018071552,1391,-11.5,99,P-GPS,
0.347610854037981,36.9000182637529,18000,2018-04-04 13:08:01,1762.6897048060823,21.3000006816,0.0,5.5440201774086395,1762.6897048060823,21.3000006816,11.483990492523999,5.64736018071552,1391,-12.4,99,P-GPS,
0.34761090382277,36.9000182649391,18100,2018-04-04 13:08:01,1762.8897048124823,21.500000688,0.0,5.540110177283521,1762.8897048124823,21.500000688,11.483990492523999,5.64736018071552,1395,-13.3,99,P-GPS,
0.347610891866735,36.9000182459681,18200,2018-04-04 13:08:01,1763.0897048188824,21.7000006944,0.0,5.5396101772675195,1763.0897048188824,21.7000006944,11.483990492523999,5.64736018071552,1395,-14.2,99,P-GPS,
0.347610847061726,36.9000182257723,18300,2018-04-04 13:08:01,1763.2897048252821,21.900000700800003,0.0,5.54167017733344,1763.2897048252821,21.900000700800003,11.483990492523999,5.64736018071552,1397,-15.1,99,P-GPS,
0.347610722922184,36.9000182199525,18400,2018-04-04 13:08:01,1763.4897048316823,22.1000007072,0.0,5.5512301776393596,1763.4897048316823,22.1000007072,11.483990492523999,5.64736018071552,1403,-16.0,99,P-GPS,
0.347610614474327,36.9000182174944,18500,2018-04-04 13:08:01,1763.6897048380822,22.300000713600003,0.0,5.559790177913281,1763.6897048380822,22.300000713600003,11.483990492523999,5.64736018071552,1404,-16.9,99,P-GPS,
0.347610486364638,36.9000182055165,18600,2018-04-04 13:08:01,1763.9897048476823,22.6000007232,0.0,5.56924017821568,1763.9897048476823,22.6000007232,11.483990492523999,5.64736018071552,1405,-17.8,99,P-GPS,
0.347610376910403,36.9000181983264,18700,2018-04-04 13:08:01,1764.1897048540823,22.8000007296,0.0,5.577550178481601,1764.1897048540823,22.8000007296,11.483990492523999,5.64736018071552,1405,-17.8,99,P-GPS,
0.347610285828274,36.9000181964978,18800,2018-04-04 13:08:01,1764.3897048604822,23.000000736000004,0.0,5.5848001787136,1764.3897048604822,23.000000736000004,11.483990492523999,5.64736018071552,1406,-18.3,99,P-GPS,
0.347610219579915,36.9000182064329,18900,2018-04-04 13:08:01,1764.5897048668824,23.2000007424,0.0,5.59093017890976,1764.5897048668824,23.2000007424,11.483990492523999,5.64736018071552,1420,-18.3,99,P-GPS,
0.347610182962723,36.9000182540233,19000,2018-04-04 13:08:02,1764.889704876482,23.500000752000002,0.0,5.59752017912064,1764.889704876482,23.500000752000002,11.483990492523999,5.64736018071552,1433,-18.3,99,P-GPS,
0.347610162822128,36.9000183145122,19100,2018-04-04 13:08:02,1765.0897048828822,23.7000007584,0.0,5.603760179320321,1765.0897048828822,23.7000007584,11.483990492523999,5.64736018071552,1427,-18.3,99,P-GPS,
0.347610145993788,36.9000184038645,19200,2018-04-04 13:08:02,1765.2897048892821,23.9000007648,0.0,5.611920179581441,1765.2897048892821,23.9000007648,11.483990492523999,5.64736018071552,1422,-18.3,99,P-GPS,
0.347610135643397,36.9000184713295,19300,2018-04-04 13:08:02,1765.4897048956823,24.100000771200005,0.0,5.6179001797728,1765.4897048956823,24.100000771200005,11.483990492523999,5.64736018071552,1422,-18.3,99,P-GPS,
0.34761016186786,36.9000184959747,19400,2018-04-04 13:08:02,1765.7897049052824,24.400000780800003,0.0,5.6176501797648,1765.7897049052824,24.400000780800003,11.483990492523999,5.64736018071552,1422,-18.3,99,P-GPS,
0.347610208184064,36.9000185129544,19500,2018-04-04 13:08:02,1765.989704911682,24.600000787200003,0.0,5.6152001796864,1765.989704911682,24.600000787200003,11.483990492523999,5.64736018071552,1423,-18.3,99,P-GPS,
0.347610344667212,36.900018500938,19600,2018-04-04 13:08:02,1766.2897049212822,24.9000007968,0.35999970196000003,5.603250179304,1766.2897049212822,24.9000007968,11.483990492523999,5.64736018071552,1423,-18.3,99,P-GPS,
0.347610499307511,36.9000184539344,19700,2018-04-04 13:08:02,1766.4897049276824,25.100000803200004,0.35999970196000003,5.587180178789761,1766.4897049276824,25.100000803200004,11.483990492523999,5.64736018071552,1425,-18.3,99,P-GPS,
0.347610653342029,36.9000183657212,19800,2018-04-04 13:08:02,1766.789704937282,25.400000812800002,0.35999970196000003,5.568000178176001,1766.789704937282,25.400000812800002,11.483990492523999,5.64736018071552,1422,-18.3,99,P-GPS,
0.347610777471801,36.9000182506916,19900,2018-04-04 13:08:02,1767.0897049468822,25.7000008224,0.35999970196000003,5.54919017757408,1767.0897049468822,25.7000008224,11.483990492523999,5.64736018071552,1412,-18.3,99,P-GPS,
0.34761089875831,36.900018082663,20000,2018-04-04 13:08:03,1767.2897049532824,25.9000008288,0.35999970196000003,5.526540176849281,1767.2897049532824,25.9000008288,11.483990492523999,5.64736018071552,1406,-18.3,99,P-GPS,
0.347610983671893,36.9000179123304,20100,2018-04-04 13:08:03,1767.589704962882,26.200000838400005,0.35999970196000003,5.5066501762128,1767.589704962882,26.200000838400005,11.483990492523999,5.64736018071552,1400,-18.3,99,P-GPS,
0.347611049623875,36.9000177461989,20200,2018-04-04 13:08:03,1767.8897049724821,26.500000848000003,0.35999970196000003,5.4886301756361595,1767.8897049724821,26.500000848000003,11.483990492523999,5.64736018071552,1382,-18.3,99,P-GPS,
0.347611097483844,36.90001759709,20300,2018-04-04 13:08:03,1768.0897049788823,26.700000854400002,0.35999970196000003,5.4733801751481606,1768.0897049788823,26.700000854400002,11.483990492523999,5.64736018071552,1360,-18.3,99,P-GPS,
0.347611143142157,36.9000174811696,20400,2018-04-04 13:08:03,1768.3897049884824,27.000000864,0.35999970196000003,5.46084017474688,1768.3897049884824,27.000000864,11.483990492523999,5.64736018071552,1354,-18.3,99,P-GPS,
0.347611192223459,36.9000173643329,20500,2018-04-04 13:08:03,1768.5897049948821,27.200000870400004,0.35999970196000003,5.44797017433504,1768.5897049948821,27.200000870400004,11.483990492523999,5.64736018071552,1344,-18.3,99,P-GPS,
0.347611241877973,36.900017241869,20600,2018-04-04 13:08:03,1768.7897050012823,27.4000008768,0.35999970196000003,5.43463017390816,1768.7897050012823,27.4000008768,11.483990492523999,5.64736018071552,1339,-18.3,99,P-GPS,
0.347611284380362,36.9000171232508,20700,2018-04-04 13:08:03,1768.9897050076822,27.600000883200003,0.35999970196000003,5.422170173509441,1768.9897050076822,27.600000883200003,11.483990492523999,5.64736018071552,1342,-18.3,99,P-GPS,
0.347611296378737,36.9000170271237,20800,2018-04-04 13:08:03,1769.1897050140824,27.8000008896,0.0,5.41391017324512,1769.1897050140824,27.8000008896,11.483990492523999,5.64736018071552,1346,-18.3,99,P-GPS,
0.347611311660056,36.9000169312793,20900,2018-04-04 13:08:03,1769.389705020482,28.000000896,0.0,5.40541017297312,1769.389705020482,28.000000896,11.483990492523999,5.64736018071552,1352,-18.3,99,P-GPS,
0.347611328172478,36.900016854226,21000,2018-04-04 13:08:04,1769.5897050268823,28.200000902400003,0.0,5.398230172743361,1769.5897050268823,28.200000902400003,11.483990492523999,5.64736018071552,1368,-18.3,99,P-GPS,
0.347611331523816,36.9000167824101,21100,2018-04-04 13:08:04,1769.7897050332822,28.4000009088,0.0,5.39253017256096,1769.7897050332822,28.4000009088,11.483990492523999,5.64736018071552,1383,-18.3,99,P-GPS,
0.347611326403988,36.9000167272613,21200,2018-04-04 13:08:04,1769.9897050396823,28.600000915200003,0.0,5.38879017244128,1769.9897050396823,28.600000915200003,11.483990492523999,5.64736018071552,1375,-18.3,99,P-GPS,
0.347611316017772,36.9000166879874,21300,2018-04-04 13:08:04,1770.0897050428823,28.7000009184,0.0,5.38668017237376,1770.0897050428823,28.7000009184,11.483990492523999,5.64736018071552,1375,-18.3,99,P-GPS,
0.347611311324596,36.9000166934132,21400,2018-04-04 13:08:04,1770.2897050492825,28.9000009248,0.0,5.387470172399041,1770.2897050492825,28.9000009248,11.483990492523999,5.64736018071552,1363,-18.3,99,P-GPS,
0.347611312428681,36.9000167053183,21500,2018-04-04 13:08:04,1770.4897050556822,29.1000009312,0.0,5.3882801724249605,1770.4897050556822,29.1000009312,11.483990492523999,5.64736018071552,1369,-18.3,99,P-GPS,
0.347611319698055,36.9000167296852,21600,2018-04-04 13:08:04,1770.6897050620823,29.300000937600004,0.0,5.38952017246464,1770.6897050620823,29.300000937600004,11.483990492523999,5.64736018071552,1374,-18.3,99,P-GPS,
0.347611309178307,36.9000167740252,21700,2018-04-04 13:08:04,1770.8897050684823,29.500000944,0.0,5.393720172599041,1770.8897050684823,29.500000944,11.483990492523999,5.64736018071552,1382,-18.3,99,P-GPS,
0.347611271564508,36.9000168455242,21800,2018-04-04 13:08:04,1771.0897050748824,29.700000950400003,0.0,5.402190172870081,1771.0897050748824,29.700000950400003,11.483990492523999,5.64736018071552,1382,-18.3,99,P-GPS,
0.347611220349944,36.900016920569,21900,2018-04-04 13:08:04,1771.1897050780824,29.8000009536,0.0,5.4120401731852805,1771.1897050780824,29.8000009536,11.483990492523999,5.64736018071552,1384,-18.3,99,P-GPS,
0.347611185338398,36.9000170122167,22000,2018-04-04 13:08:05,1771.389705084482,30.00000096,0.0,5.42183017349856,1771.389705084482,30.00000096,11.483990492523999,5.64736018071552,1384,-18.3,99,P-GPS,
0.347611164442205,36.9000171032905,22100,2018-04-04 13:08:05,1771.5897050908823,30.2000009664,0.35999970196000003,5.430420173773441,1771.5897050908823,30.2000009664,11.483990492523999,5.64736018071552,1385,-18.3,99,P-GPS,
0.347611160706554,36.9000172222899,22200,2018-04-04 13:08:05,1771.7897050972822,30.400000972800004,0.35999970196000003,5.43974017407168,1771.7897050972822,30.400000972800004,11.483990492523999,5.64736018071552,1388,-18.3,99,P-GPS,
0.34761116918749,36.9000173452119,22300,2018-04-04 13:08:05,1771.9897051036824,30.6000009792,0.35999970196000003,5.44839017434848,1771.9897051036824,30.6000009792,11.483990492523999,5.64736018071552,1389,-18.3,99,P-GPS,
0.347611204488899,36.9000174912376,22400,2018-04-04 13:08:05,1772.189705110082,30.8000009856,0.35999970196000003,5.45664017461248,1772.189705110082,30.8000009856,11.483990492523999,5.64736018071552,1389,-18.3,99,P-GPS,
0.347611240611044,36.9000176396828,22500,2018-04-04 13:08:05,1772.3897051164822,31.000000992,0.35999970196000003,5.4650501748816,1772.3897051164822,31.000000992,11.483990492523999,5.64736018071552,1388,-18.3,99,P-GPS,
0.34761127793498,36.9000177883506,22600,2018-04-04 13:08:05,1772.5897051228824,31.2000009984,0.35999970196000003,5.47343017514976,1772.5897051228824,31.2000009984,11.483990492523999,5.64736018071552,1389,-18.3,99,P-GPS,
0.347611311516753,36.9000179401275,22700,2018-04-04 13:08:05,1772.7897051292823,31.400001004800004,0.35999970196000003,5.48238017543616,1772.7897051292823,31.400001004800004,11.483990492523999,5.64736018071552,1397,-18.3,98,P-GPS,
0.347611389242385,36.9000180770059,22800,2018-04-04 13:08:05,1772.9897051356825,31.6000010112,0.35999970196000003,5.48668017557376,1772.9897051356825,31.6000010112,11.483990492523999,5.64736018071552,1397,-18.3,98,P-GPS,
0.347611452513948,36.9000182109423,22900,2018-04-04 13:08:06,1773.1897051420822,31.800001017600003,0.35999970196000003,5.491970175743041,1773.1897051420822,31.800001017600003,11.483990492523999,5.64736018071552,1398,-18.3,98,P-GPS,
0.347611493293442,36.9000183641795,23000,2018-04-04 13:08:06,1773.3897051484823,32.000001024,0.35999970196000003,5.50059017601888,1773.3897051484823,32.000001024,11.483990492523999,5.64736018071552,1399,-18.3,98,P-GPS,
0.347611525917689,36.9000184932254,23100,2018-04-04 13:08:06,1773.5897051548823,32.2000010304,0.35999970196000003,5.50802017625664,1773.5897051548823,32.2000010304,11.483990492523999,5.64736018071552,1403,-18.3,98,P-GPS,
0.34761157130568,36.9000186061052,23200,2018-04-04 13:08:06,1773.8897051644822,32.50000104,0.0,5.513200176422401,1773.8897051644822,32.50000104,11.483990492523999,5.64736018071552,1403,-18.3,98,P-GPS,
0.347611620862488,36.9000186928667,23300,2018-04-04 13:08:06,1774.089705170882,32.700001046400004,0.0,5.51604017651328,1774.089705170882,32.700001046400004,11.483990492523999,5.64736018071552,1404,-18.3,98,P-GPS,
0.347611685120888,36.9000187671878,23400,2018-04-04 13:08:06,1774.2897051772823,32.9000010528,0.0,5.516770176536641,1774.2897051772823,32.9000010528,11.483990492523999,5.64736018071552,1405,-18.3,98,P-GPS,
0.347611740080873,36.9000188140501,23500,2018-04-04 13:08:06,1774.4897051836822,33.100001059200004,0.0,5.5161001765152005,1774.4897051836822,33.100001059200004,11.483990492523999,5.64736018071552,1404,-18.3,98,P-GPS,
0.347611799102197,36.9000188151635,23600,2018-04-04 13:08:06,1774.789705193282,33.4000010688,0.0,5.51154017636928,1774.789705193282,33.4000010688,11.483990492523999,5.64736018071552,1401,-18.3,98,P-GPS,
0.347611845946017,36.9000188033013,23700,2018-04-04 13:08:06,1774.9897051996822,33.600001075200005,0.0,5.50692017622144,1774.9897051996822,33.600001075200005,11.483990492523999,5.64736018071552,1403,-18.3,98,P-GPS,
0.34761191970476,36.9000187845058,23800,2018-04-04 13:08:06,1775.2897052092824,33.9000010848,0.0,5.499630175988161,1775.2897052092824,33.9000010848,11.483990492523999,5.64736018071552,1405,-18.3,98,P-GPS,
0.347611978074706,36.9000187545718,23900,2018-04-04 13:08:06,1775.4897052156823,34.1000010912,0.0,5.492680175765761,1775.4897052156823,34.1000010912,11.483990492523999,5.64736018071552,1405,-18.3,98,P-GPS,
0.347612001706686,36.9000187124801,24000,2018-04-04 13:08:07,1775.6897052220825,34.3000010976,0.0,5.487520175600641,1775.6897052220825,34.3000010976,11.483990492523999,5.64736018071552,1405,-18.3,98,P-GPS,
0.347611986431881,36.9000186635023,24100,2018-04-04 13:08:07,1775.9897052316821,34.6000011072,0.0,5.48488017551616,1775.9897052316821,34.6000011072,11.483990492523999,5.64736018071552,1405,-18.3,98,P-GPS,
0.347611974172954,36.9000186290032,24200,2018-04-04 13:08:07,1776.1897052380823,34.800001113600004,0.0,5.48313017546016,1776.1897052380823,34.800001113600004,11.483990492523999,5.64736018071552,1405,-18.3,98,P-GPS,
0.347611972417492,36.9000185820895,24300,2018-04-04 13:08:07,1776.4897052476824,35.1000011232,0.0,5.47959017534688,1776.4897052476824,35.1000011232,11.483990492523999,5.64736018071552,1405,-18.3,98,P-GPS,
0.347611943245546,36.9000185137938,24400,2018-04-04 13:08:07,1776.6897052540821,35.300001129600005,0.0,5.4765501752496,1776.6897052540821,35.300001129600005,11.483990492523999,5.64736018071552,1405,-18.3,98,P-GPS,
0.347611905706655,36.900018429045,24500,2018-04-04 13:08:07,1776.8897052604823,35.500001136,0.0,5.4728901751324806,1776.8897052604823,35.500001136,11.483990492523999,5.64736018071552,1405,-18.3,98,P-GPS,
0.347611903938165,36.9000183482918,24600,2018-04-04 13:08:07,1777.1897052700824,35.8000011456,0.0,5.4667301749353605,1777.1897052700824,35.8000011456,11.483990492523999,5.64736018071552,1406,-18.3,98,P-GPS,
0.347611894108877,36.9000182785357,24700,2018-04-04 13:08:07,1777.3897052764821,36.000001152,0.0,5.46206017478592,1777.3897052764821,36.000001152,11.483990492523999,5.64736018071552,1406,-18.3,98,P-GPS,
0.347611920271458,36.9000182068954,24800,2018-04-04 13:08:07,1777.5897052828823,36.2000011584,0.0,5.45441017454112,1777.5897052828823,36.2000011584,11.483990492523999,5.64736018071552,1406,-18.3,98,P-GPS,
0.347611961461321,36.9000181438157,24900,2018-04-04 13:08:08,1777.8897052924822,36.500001168000004,0.0,5.44622017427904,1777.8897052924822,36.500001168000004,11.483990492523999,5.64736018071552,1406,-18.3,98,P-GPS,
0.34761201276382,36.90001809754,25000,2018-04-04 13:08:08,1778.0897052988823,36.7000011744,0.0,5.438550174033601,1778.0897052988823,36.7000011744,11.483990492523999,5.64736018071552,1406,-18.3,98,P-GPS,
0.347612049589453,36.9000180432691,25100,2018-04-04 13:08:08,1778.3897053084822,37.000001184000006,0.0,5.4314001738048,1778.3897053084822,37.000001184000006,11.483990492523999,5.64736018071552,1406,-18.3,98,P-GPS,
0.347612100286171,36.9000179962784,25200,2018-04-04 13:08:08,1778.5897053148822,37.2000011904,0.0,5.4237201735590395,1778.5897053148822,37.2000011904,11.483990492523999,5.64736018071552,1406,-18.3,98,P-GPS,
0.34761212685912,36.9000179434078,25300,2018-04-04 13:08:08,1778.8897053244823,37.5000012,0.0,5.41749017335968,1778.8897053244823,37.5000012,11.483990492523999,5.64736018071552,1406,-18.3,98,P-GPS,
0.347612153399501,36.900017892974,25400,2018-04-04 13:08:08,1779.0897053308825,37.7000012064,0.0,5.41146017316672,1779.0897053308825,37.7000012064,11.483990492523999,5.64736018071552,1406,-18.3,98,P-GPS,
0.347612158848274,36.9000178257917,25500,2018-04-04 13:08:08,1779.3897053404821,38.000001216,0.0,5.4058001729856,1779.3897053404821,38.000001216,11.483990492523999,5.64736018071552,1406,-18.3,98,P-GPS,
0.34761215877988,36.9000177425118,25600,2018-04-04 13:08:08,1779.5897053468823,38.2000012224,0.35999970196000003,5.39934017277888,1779.5897053468823,38.2000012224,11.483990492523999,5.64736018071552,1405,-18.3,98,P-GPS,
0.3476121464721,36.9000176579729,25700,2018-04-04 13:08:08,1779.8897053564824,38.500001232,0.0,5.39376017260032,1779.8897053564824,38.500001232,11.483990492523999,5.64736018071552,1406,-18.3,98,P-GPS,
0.347612101211128,36.900017569597,25800,2018-04-04 13:08:08,1780.0897053628821,38.7000012384,0.0,5.39053017249696,1780.0897053628821,38.7000012384,11.483990492523999,5.64736018071552,1407,-18.3,98,P-GPS,
0.347612059428511,36.9000174971087,25900,2018-04-04 13:08:08,1780.2897053692823,38.9000012448,0.0,5.388270172424641,1780.2897053692823,38.9000012448,11.483990492523999,5.64736018071552,1407,-18.3,98,P-GPS,
0.347612023527835,36.9000174304831,26000,2018-04-04 13:08:09,1780.5897053788822,39.2000012544,0.0,5.386010172352321,1780.5897053788822,39.2000012544,11.483990492523999,5.64736018071552,1407,-18.3,98,P-GPS,
0.34761196435018,36.900017378953,26100,2018-04-04 13:08:09,1780.7897053852823,39.4000012608,0.0,5.38678017237696,1780.7897053852823,39.4000012608,11.483990492523999,5.64736018071552,1407,-18.3,98,P-GPS,
0.347611906504593,36.9000173238727,26200,2018-04-04 13:08:09,1780.989705391682,39.60000126720001,0.35999970196000003,5.38719017239008,1780.989705391682,39.60000126720001,11.483990492523999,5.64736018071552,1404,-18.3,98,P-GPS,
0.347611820167749,36.9000172894294,26300,2018-04-04 13:08:09,1781.1897053980822,39.800001273599996,0.35999970196000003,5.3915001725280005,1781.1897053980822,39.800001273599996,11.483990492523999,5.64736018071552,1354,-18.3,98,P-GPS,
0.347611715960361,36.9000172942685,26400,2018-04-04 13:08:09,1781.3897054044824,40.00000128,0.0,5.40027017280864,1781.3897054044824,40.00000128,11.483990492523999,5.64736018071552,1225,-18.3,98,P-GPS,
0.347611638091425,36.9000173004994,26500,2018-04-04 13:08:09,1781.6897054140823,40.3000012896,0.0,5.40702017302464,1781.6897054140823,40.3000012896,11.483990492523999,5.64736018071552,1029,-18.3,98,P-GPS,
0.347611601936712,36.9000173018312,26600,2018-04-04 13:08:09,1781.8897054204822,40.500001296,0.0,5.410050173121601,1781.8897054204822,40.500001296,11.483990492523999,5.64736018071552,1024,-18.3,98,P-GPS,
0.347611553242979,36.9000172823463,26700,2018-04-04 13:08:09,1781.9897054236822,40.6000012992,0.0,5.41249017319968,1781.9897054236822,40.6000012992,11.483990492523999,5.64736018071552,1024,-18.3,98,P-GPS,
0.34761151989896,36.9000172409012,26800,2018-04-04 13:08:09,1782.0897054268821,40.700001302400004,0.0,5.41202017318464,1782.0897054268821,40.700001302400004,11.483990492523999,5.64736018071552,1024,-18.3,98,P-GPS,
0.347611496921615,36.9000172105176,26900,2018-04-04 13:08:09,1782.0897054268821,40.700001302400004,0.0,5.41157017317024,1782.0897054268821,40.700001302400004,11.483990492523999,5.64736018071552,1024,-18.3,98,P-GPS,
0.347611482734611,36.9000171562724,27000,2018-04-04 13:08:10,1782.0897054268821,40.700001302400004,0.0,5.408580173074561,1782.0897054268821,40.700001302400004,11.483990492523999,5.64736018071552,1024,-18.3,98,P-GPS,
0.347611457998547,36.9000171115941,27100,2018-04-04 13:08:10,1782.0897054268821,40.700001302400004,0.0,5.407190173030081,1782.0897054268821,40.700001302400004,11.483990492523999,5.64736018071552,1024,-18.3,98,P-GPS,
0.347611414838267,36.9000170889701,27200,2018-04-04 13:08:10,1782.0897054268821,40.700001302400004,0.0,5.40897017308704,1782.0897054268821,40.700001302400004,11.483990492523999,5.64736018071552,1024,-18.3,98,P-GPS,
0.347611360913973,36.9000170691041,27300,2018-04-04 13:08:10,1782.0897054268821,40.700001302400004,0.0,5.411840173178881,1782.0897054268821,40.700001302400004,11.483990492523999,5.64736018071552,1024,-18.3,98,P-GPS,
0.347611304126874,36.9000170794461,27400,2018-04-04 13:08:10,1782.0897054268821,40.700001302400004,0.0,5.417250173352,1782.0897054268821,40.700001302400004,11.483990492523999,5.64736018071552,1024,-18.3,98,P-GPS,
0.34761125437791,36.9000170997832,27500,2018-04-04 13:08:10,1781.9897054236822,40.6000012992,0.0,5.42283017353056,1782.0897054268821,40.700001302400004,11.483990492523999,5.64736018071552,1024,-18.3,98,P-GPS,
0.347611253068641,36.9000171136582,27600,2018-04-04 13:08:10,1781.9897054236822,40.6000012992,0.0,5.42399017356768,1782.0897054268821,40.700001302400004,11.483990492523999,5.64736018071552,1024,-18.3,98,P-GPS,
0.347611275713783,36.900017139631,27700,2018-04-04 13:08:10,1781.9897054236822,40.6000012992,0.0,5.424120173571841,1782.0897054268821,40.700001302400004,11.483990492523999,5.64736018071552,1024,-18.3,98,P-GPS,
0.347611352319045,36.9000172008179,27800,2018-04-04 13:08:10,1781.9897054236822,40.6000012992,0.0,5.4225501735216,1782.0897054268821,40.700001302400004,11.483990492523999,5.64736018071552,1024,-18.3,98,P-GPS,
0.347611444788609,36.9000172769248,27900,2018-04-04 13:08:10,1782.0897054268821,40.700001302400004,0.0,5.4208501734672,1782.0897054268821,40.700001302400004,11.483990492523999,5.64736018071552,1024,-18.3,98,P-GPS,
0.347611591765451,36.9000173448051,28000,2018-04-04 13:08:11,1782.0897054268821,40.700001302400004,0.0,5.414150173252801,1782.0897054268821,40.700001302400004,11.483990492523999,5.64736018071552,1024,-18.3,98,P-GPS,
0.347611732785444,36.9000174281064,28100,2018-04-04 13:08:11,1782.0897054268821,40.700001302400004,0.0,5.4091701730934405,1782.0897054268821,40.700001302400004,11.483990492523999,5.64736018071552,1024,-18.3,98,P-GPS,
0.347611908615056,36.9000175493412,28200,2018-04-04 13:08:11,1782.0897054268821,40.700001302400004,0.0,5.404380172940161,1782.0897054268821,40.700001302400004,11.483990492523999,5.64736018071552,1024,-18.3,98,P-GPS,
0.347612081145441,36.900017666512,28300,2018-04-04 13:08:11,1782.0897054268821,40.700001302400004,0.35999970196000003,5.399630172788161,1782.0897054268821,40.700001302400004,11.483990492523999,5.64736018071552,1024,-18.3,98,P-GPS,
0.3476122390296,36.9000177879995,28400,2018-04-04 13:08:11,1782.1897054300823,40.8000013056,0.35999970196000003,5.39649017268768,1782.1897054300823,40.8000013056,11.483990492523999,5.64736018071552,1024,-18.3,98,P-GPS,
0.347612375320592,36.9000179084463,28500,2018-04-04 13:08:11,1782.1897054300823,40.8000013056,0.35999970196000003,5.39506017264192,1782.1897054300823,40.8000013056,11.483990492523999,5.64736018071552,1024,-18.3,98,P-GPS,
0.347612464565837,36.9000180326745,28600,2018-04-04 13:08:11,1782.0897054268821,40.700001302400004,0.35999970196000003,5.39771017272672,1782.1897054300823,40.8000013056,11.483990492523999,5.64736018071552,1024,-18.3,98,P-GPS,
0.347612540167978,36.9000181601316,28700,2018-04-04 13:08:11,1782.0897054268821,40.700001302400004,0.35999970196000003,5.401740172855681,1782.1897054300823,40.8000013056,11.483990492523999,5.64736018071552,1024,-18.3,98,P-GPS,
0.347612583295688,36.9000182545843,28800,2018-04-04 13:08:11,1782.0897054268821,40.700001302400004,0.0,5.405780172984961,1782.1897054300823,40.8000013056,11.483990492523999,5.64736018071552,1024,-18.3,98,P-GPS,
0.347612601690592,36.9000183275607,28900,2018-04-04 13:08:11,1782.0897054268821,40.700001302400004,0.0,5.4100801731225605,1782.1897054300823,40.8000013056,11.483990492523999,5.64736018071552,1024,-18.3,98,P-GPS,
