latitude,longitude,time_millisecond,datetime_utc,altitude_m,ascent_m,speed_kph,distance_m,max_altitude_m,max_ascent_m,max_speed_kph,max_distance_m,rc_throttle,gimbal_pitch_degrees,battery_percent,flycState,message
0.307992690791099,36.879397536678205,100,2017-11-14 13:55:31,1768.3284256864945,0.0,0.0,0.0,1768.3284256864945,0.0,0.0,0.0,1024,0.0,100,Motors_Started,
0.30799271487782104,36.879397531569,200,2017-11-14 13:55:31,1768.3284256864945,0.0,0.0,0.0027381900876220803,1768.3284256864945,0.0,0.0,0.0027381900876220803,1024,0.0,100,Motors_Started,
0.307992731847836,36.8793975139016,300,2017-11-14 13:55:31,1768.3284256864945,0.0,0.0,0.005221260167080319,1768.3284256864945,0.0,0.0,0.005221260167080319,1024,0.0,100,Motors_Started,
0.307992740177938,36.879397496912496,400,2017-11-14 13:55:31,1768.3284256864945,0.0,0.0,0.007051140225636481,1768.3284256864945,0.0,0.0,0.007051140225636481,1024,0.0,100,Motors_Started,
0.307992747289353,36.8793974872777,500,2017-11-14 13:55:31,1768.3284256864945,0.0,0.0,0.00834594026707008,1768.3284256864945,0.0,0.0,0.00834594026707008,1024,0.0,100,Motors_Started,
0.30799276960677097,36.8793975037711,600,2017-11-14 13:55:31,1768.3284256864945,0.0,0.0,0.00949804030393728,1768.3284256864945,0.0,0.0,0.00949804030393728,1024,0.0,100,Motors_Started,Setting new Return-To-Home altitude to 30m (98 ft). Setting new Maximum Flight Altitude to 150m (492 ft)
0.307992800279328,36.87939752899621,700,2017-11-14 13:55:31,1768.3284256864945,0.0,0.0,0.012205700390582401,1768.3284256864945,0.0,0.0,0.012205700390582401,1024,0.0,100,Motors_Started,
0.30799282383843396,36.8793975579648,800,2017-11-14 13:55:31,1768.3284256864945,0.0,0.0,0.014983800479481602,1768.3284256864945,0.0,0.0,0.014983800479481602,465,0.0,100,Motors_Started,
0.30799284042820696,36.8793975770748,900,2017-11-14 13:55:31,1768.3284256864945,0.0,0.0,0.0172363005515616,1768.3284256864945,0.0,0.0,0.0172363005515616,1024,0.0,100,Motors_Started,
0.30799284749992895,36.8793975978719,1000,2017-11-14 13:55:32,1768.3284256864945,0.0,0.0,0.018708500598672,1768.3284256864945,0.0,0.0,0.018708500598672,1024,0.0,100,Motors_Started,
0.307992851722281,36.879397606994,1100,2017-11-14 13:55:32,1768.3284256864945,0.0,0.0,0.019530200624966403,1768.3284256864945,0.0,0.0,0.019530200624966403,1024,0.0,100,Motors_Started,
0.30799286949084403,36.8793976160452,1200,2017-11-14 13:55:32,1768.3284256864945,0.0,0.0,0.0217443006958176,1768.3284256864945,0.0,0.0,0.0217443006958176,1024,0.0,100,Motors_Started,
0.307992897815999,36.8793976222739,1300,2017-11-14 13:55:32,1768.3284256864945,0.0,0.0,0.0249126007972032,1768.3284256864945,0.0,0.0,0.0249126007972032,1024,0.0,100,Motors_Started,
0.30799291999662703,36.8793976247877,1400,2017-11-14 13:55:32,1768.3284256864945,0.0,0.0,0.0273074008738368,1768.3284256864945,0.0,0.0,0.0273074008738368,1024,0.0,100,Motors_Started,
0.307992933755758,36.8793976278572,1500,2017-11-14 13:55:32,1768.3284256864945,0.0,0.0,0.028859000923488,1768.3284256864945,0.0,0.0,0.028859000923488,1024,0.0,100,Assisted_Takeoff,
0.30799294477727,36.8793976319464,1600,2017-11-14 13:55:32,1768.3284256864945,0.0,0.0,0.030166300965321604,1768.3284256864945,0.0,0.0,0.030166300965321604,1024,0.0,100,Assisted_Takeoff,
0.30799295071315197,36.87939763512279,1700,2017-11-14 13:55:32,1768.3284256864945,0.0,0.0,0.0309086009890752,1768.3284256864945,0.0,0.0,0.0309086009890752,1024,0.0,100,Assisted_Takeoff,
0.307992946006542,36.879397632320206,1800,2017-11-14 13:55:32,1768.3284256864945,0.0,0.0,0.030308900969884804,1768.3284256864945,0.0,0.0,0.0309086009890752,1034,0.0,100,Assisted_Takeoff,
0.307992946424034,36.87939763465229,1900,2017-11-14 13:55:32,1768.3284256864945,0.0,0.0,0.030444200974214398,1768.3284256864945,0.0,0.0,0.0309086009890752,1046,0.0,100,Assisted_Takeoff,
0.30799295569822605,36.8793976286894,2000,2017-11-14 13:55:33,1768.3284256864945,0.0,0.0,0.0311856009979392,1768.3284256864945,0.0,0.0,0.0311856009979392,1075,0.0,100,Assisted_Takeoff,
0.30799298229641603,36.879397628756706,2100,2017-11-14 13:55:33,1768.3284256864945,0.0,0.0,0.0339959010878688,1768.3284256864945,0.0,0.0,0.0339959010878688,1147,0.0,100,Assisted_Takeoff,
0.30799300500160803,36.8793976257913,2200,2017-11-14 13:55:33,1768.3284256864945,0.0,0.0,0.0363202011622464,1768.3284256864945,0.0,0.0,0.0363202011622464,1200,0.0,100,Assisted_Takeoff,
0.30799301634005605,36.8793976226565,2300,2017-11-14 13:55:33,1768.3284256864945,0.0,0.0,0.0374443011982176,1768.3284256864945,0.0,0.0,0.0374443011982176,1260,0.0,100,Assisted_Takeoff,
0.307993022310949,36.8793976179881,2400,2017-11-14 13:55:33,1768.3284256864945,0.0,0.0,0.0379597012147104,1768.3284256864945,0.0,0.0,0.0379597012147104,1357,0.0,100,Assisted_Takeoff,
0.307993023459206,36.879397613519295,2500,2017-11-14 13:55:33,1768.3284256864945,0.0,0.0,0.0379688012150016,1768.3284256864945,0.0,0.0,0.0379688012150016,1390,0.0,100,Assisted_Takeoff,
0.30799304118013693,36.8793976076408,2600,2017-11-14 13:55:33,1768.3284256864945,0.0,0.0,0.039756501272208,1768.3284256864945,0.0,0.0,0.039756501272208,1421,0.0,100,Assisted_Takeoff,
0.30799305447475395,36.8793975948382,2700,2017-11-14 13:55:33,1768.3284256864945,0.0,0.0,0.040957701310646404,1768.3284256864945,0.0,0.0,0.040957701310646404,1474,0.0,100,Assisted_Takeoff,
0.307993035302676,36.8793975504437,2800,2017-11-14 13:55:33,1768.3284256864945,0.0,0.35999970196000003,0.038342401226956806,1768.3284256864945,0.0,0.35999970196000003,0.040957701310646404,1495,0.0,100,Assisted_Takeoff,
0.307992883966897,36.879397447272,2900,2017-11-14 13:55:33,1768.3284256864945,0.0,1.1375990581936,0.023671500757488004,1768.3284256864945,0.0,1.1375990581936,0.040957701310646404,1516,0.0,100,GPS_Atti,
0.30799258799435103,36.8793972734621,3000,2017-11-14 13:55:34,1768.3284256864945,0.0,1.2995989240756,0.0314239010055648,1768.3284256864945,0.0,1.2995989240756,0.040957701310646404,1559,0.0,100,GPS_Atti,
0.3079922284101,36.8793970435559,3100,2017-11-14 13:55:34,1768.4284256896944,0.10000000320000002,1.2995989240756,0.0751739024055648,1768.4284256896944,0.10000000320000002,1.2995989240756,0.0751739024055648,1591,0.0,100,GPS_Atti,
0.307991852148955,36.879396730077,3200,2017-11-14 13:55:34,1768.5284256928946,0.20000000640000004,1.5263987363104,0.12939700414070401,1768.5284256928946,0.20000000640000004,1.5263987363104,0.12939700414070401,1597,0.0,100,GPS_Atti,
0.307991484202135,36.8793963644619,3300,2017-11-14 13:55:34,1768.7284256992946,0.4000000128000001,1.5263987363104,0.1870750059864,1768.7284256992946,0.4000000128000001,1.5263987363104,0.1870750059864,1594,0.0,100,GPS_Atti,
0.307991101800942,36.8793959705174,3400,2017-11-14 13:55:34,1768.9284257056947,0.6000000192,1.5263987363104,0.248109007939488,1768.9284257056947,0.6000000192,1.5263987363104,0.248109007939488,1604,0.0,100,GPS_Atti,
0.307990706964772,36.8793956181752,3500,2017-11-14 13:55:34,1769.1284257120944,0.8000000256000002,1.6091986677612,0.306899009820768,1769.1284257120944,0.8000000256000002,1.6091986677612,0.306899009820768,1660,0.0,100,GPS_Atti,
0.307990337709224,36.87939524156621,3600,2017-11-14 13:55:34,1769.4284257216946,1.1000000352,1.5263987363104,0.36553501169712005,1769.4284257216946,1.1000000352,1.6091986677612,0.36553501169712005,1684,0.0,100,GPS_Atti,
0.30799000200742105,36.8793948424294,3700,2017-11-14 13:55:34,1769.8284257344947,1.5000000480000002,1.5263987363104,0.42329001354528006,1769.8284257344947,1.5000000480000002,1.6091986677612,0.42329001354528006,1684,0.0,100,GPS_Atti,
0.307989699555653,36.879394473449295,3800,2017-11-14 13:55:34,1770.1284257440946,1.8000000576000001,1.2995989240756,0.4761200152358401,1770.1284257440946,1.8000000576000001,1.6091986677612,0.4761200152358401,1684,0.0,100,GPS_Atti,
0.307989414202495,36.879394183547504,3900,2017-11-14 13:55:34,1770.6284257600946,2.3000000736,1.2995989240756,0.5213560166833919,1770.6284257600946,2.3000000736,1.6091986677612,0.5213560166833919,1684,0.0,100,GPS_Atti,
0.307989122723131,36.8793939298774,4000,2017-11-14 13:55:35,1771.0284257728945,2.7000000863999998,1.2995989240756,0.564197018054304,1771.0284257728945,2.7000000863999998,1.6091986677612,0.564197018054304,1684,0.0,100,GPS_Atti,
0.307988844281701,36.8793936926849,4100,2017-11-14 13:55:35,1771.5284257888948,3.2000001024000007,1.0187991565468,0.6047350193515201,1771.5284257888948,3.2000001024000007,1.6091986677612,0.6047350193515201,1684,0.0,100,GPS_Atti,
0.307988554431799,36.879393473608296,4200,2017-11-14 13:55:35,1772.0284258048946,3.7000001184,1.0187991565468,0.6447800206329601,1772.0284258048946,3.7000001184,1.6091986677612,0.6447800206329601,1684,0.0,100,GPS_Atti,
0.307988290588453,36.879393277242706,4300,2017-11-14 13:55:35,1772.5284258208947,4.2000001344,0.8063993323904,0.6810320217930241,1772.5284258208947,4.2000001344,1.6091986677612,0.6810320217930241,1684,0.0,100,GPS_Atti,
0.307988042318323,36.8793930749894,4400,2017-11-14 13:55:35,1773.0284258368947,4.700000150400001,0.8063993323904,0.7165190229286079,1773.0284258368947,4.700000150400001,1.6091986677612,0.7165190229286079,1684,0.0,100,GPS_Atti,
0.307987839645237,36.8793928555354,4500,2017-11-14 13:55:35,1773.5284258528948,5.200000166400001,0.8063993323904,0.749682023989824,1773.5284258528948,5.200000166400001,1.6091986677612,0.749682023989824,1684,-0.1,100,GPS_Atti,
0.307987658933346,36.87939259804121,4600,2017-11-14 13:55:35,1774.1284258720946,5.8000001856,1.0187991565468,0.784054025089728,1774.1284258720946,5.8000001856,1.6091986677612,0.784054025089728,1684,-0.6,100,GPS_Atti,
0.307987497366664,36.879392312677396,4700,2017-11-14 13:55:35,1774.6284258880946,6.300000201600001,1.0187991565468,0.819167026213344,1774.6284258880946,6.300000201600001,1.6091986677612,0.819167026213344,1684,-1.6,100,GPS_Atti,Home Point Recorded. RTH Altitude:  30m.
0.307987326941654,36.87939194777729,4800,2017-11-14 13:55:35,1775.1284259040947,6.800000217600001,1.0187991565468,0.86144002756608,1775.1284259040947,6.800000217600001,1.6091986677612,0.86144002756608,1684,-2.8,100,GPS_Atti,
0.307987162471864,36.8793915604825,4900,2017-11-14 13:55:35,1775.6284259200945,7.3000002336000005,1.0187991565468,0.905331028970592,1775.6284259200945,7.3000002336000005,1.6091986677612,0.905331028970592,1684,-4.0,100,GPS_Atti,
0.307987033815221,36.879391167459005,5000,2017-11-14 13:55:36,1776.1284259360948,7.8000002496,1.2995989240756,0.9473240303143678,1776.1284259360948,7.8000002496,1.6091986677612,0.9473240303143678,1684,-5.2,100,GPS_Atti,
0.307986932751544,36.8793907985361,5100,2017-11-14 13:55:36,1776.6284259520946,8.3000002656,1.0187991565468,0.985642031540544,1776.6284259520946,8.3000002656,1.6091986677612,0.985642031540544,1684,-5.9,100,GPS_Atti,
0.30798682766438895,36.879390450303,5200,2017-11-14 13:55:36,1777.1284259680947,8.8000002816,1.0187991565468,1.0228000327296,1777.1284259680947,8.8000002816,1.6091986677612,1.0228000327296,1684,-5.9,100,GPS_Atti,
0.307986723211513,36.8793901353084,5300,2017-11-14 13:55:36,1777.6284259840947,9.3000002976,1.0187991565468,1.05728003383296,1777.6284259840947,9.3000002976,1.6091986677612,1.05728003383296,1684,-5.9,100,GPS_Atti,
0.30798665031584604,36.8793898450284,5400,2017-11-14 13:55:36,1778.1284260000946,9.8000003136,0.8063993323904,1.08759003480288,1778.1284260000946,9.8000003136,1.6091986677612,1.08759003480288,1684,-5.9,100,GPS_Atti,
0.30798659176717696,36.8793895584972,5500,2017-11-14 13:55:36,1778.6284260160946,10.300000329600001,0.8063993323904,1.11676003573632,1778.6284260160946,10.300000329600001,1.6091986677612,1.11676003573632,1684,-5.9,100,GPS_Atti,
0.307986538494667,36.879389259907796,5600,2017-11-14 13:55:36,1779.0284260288945,10.700000342400001,0.8063993323904,1.1468500366992,1779.0284260288945,10.700000342400001,1.6091986677612,1.1468500366992,1684,-5.9,100,GPS_Atti,
0.307986479632931,36.8793889542081,5700,2017-11-14 13:55:36,1779.6284260480948,11.3000003616,0.8063993323904,1.1781300377001602,1779.6284260480948,11.3000003616,1.6091986677612,1.1781300377001602,1684,-5.9,100,GPS_Atti,
0.307986446713528,36.879388667754505,5800,2017-11-14 13:55:36,1780.0284260608946,11.700000374400002,0.8063993323904,1.2061800385977601,1780.0284260608946,11.700000374400002,1.6091986677612,1.2061800385977601,1684,-5.9,100,GPS_Atti,
0.30798641773251695,36.8793884299709,5900,2017-11-14 13:55:36,1780.5284260768947,12.2000003904,0.5075995797636,1.22973003935136,1780.5284260768947,12.2000003904,1.6091986677612,1.22973003935136,1684,-5.9,100,GPS_Atti,
0.30798638300187803,36.8793882334533,6000,2017-11-14 13:55:37,1781.0284260928945,12.700000406400001,0.5075995797636,1.2499500399984,1781.0284260928945,12.700000406400001,1.6091986677612,1.2499500399984,1684,-6.1,100,GPS_Atti,
0.30798633533203,36.879388019101704,6100,2017-11-14 13:55:37,1781.5284261088948,13.2000004224,0.8063993323904,1.2726800407257601,1781.5284261088948,13.2000004224,1.6091986677612,1.2726800407257601,1684,-6.3,100,GPS_Atti,
0.30798626354574,36.879387784314794,6200,2017-11-14 13:55:37,1782.0284261248946,13.7000004384,0.8063993323904,1.2988500415631998,1782.0284261248946,13.7000004384,1.6091986677612,1.2988500415631998,1684,-6.4,100,GPS_Atti,
0.30798616505663295,36.8793875405862,6300,2017-11-14 13:55:37,1782.5284261408945,14.200000454400003,0.8063993323904,1.3275200424806402,1782.5284261408945,14.200000454400003,1.6091986677612,1.3275200424806402,1684,-6.4,100,GPS_Atti,
0.30798605042068894,36.8793873013285,6400,2017-11-14 13:55:37,1783.0284261568947,14.7000004704,0.8063993323904,1.3567800434169601,1783.0284261568947,14.7000004704,1.6091986677612,1.3567800434169601,1684,-6.4,100,GPS_Atti,
0.307985932597067,36.879387078181,6500,2017-11-14 13:55:37,1783.5284261728946,15.200000486399999,0.5075995797636,1.38473004431136,1783.5284261728946,15.200000486399999,1.6091986677612,1.38473004431136,1684,-6.6,100,GPS_Atti,
0.30798580459648306,36.879386875376895,6600,2017-11-14 13:55:37,1784.0284261888946,15.700000502400002,0.5075995797636,1.4114000451648,1784.0284261888946,15.700000502400002,1.6091986677612,1.4114000451648,1684,-6.6,100,GPS_Atti,
0.30798568678263105,36.879386700514104,6700,2017-11-14 13:55:37,1784.5284262048947,16.2000005184,0.5075995797636,1.43484004591488,1784.5284262048947,16.2000005184,1.6091986677612,1.43484004591488,1684,-6.6,100,GPS_Atti,
0.30798557307083,36.8793865514675,6800,2017-11-14 13:55:37,1785.1284262240947,16.8000005376,0.5075995797636,1.45562004657984,1785.1284262240947,16.8000005376,1.6091986677612,1.45562004657984,1684,-6.6,100,GPS_Atti,
0.307985484380477,36.8793864039487,6900,2017-11-14 13:55:37,1785.6284262400945,17.3000005536,0.35999970196000003,1.4747600471923201,1785.6284262400945,17.3000005536,1.6091986677612,1.4747600471923201,1684,-6.6,100,GPS_Atti,
0.30798539563516497,36.8793862256782,7000,2017-11-14 13:55:38,1786.1284262560948,17.8000005696,0.35999970196000003,1.49676004789632,1786.1284262560948,17.8000005696,1.6091986677612,1.49676004789632,1684,-6.6,100,GPS_Atti,
0.30798533646972304,36.8793860545239,7100,2017-11-14 13:55:38,1786.6284262720947,18.3000005856,0.35999970196000003,1.5163300485225604,1786.6284262720947,18.3000005856,1.6091986677612,1.5163300485225604,1684,-6.6,100,GPS_Atti,
0.307985292306729,36.879385929372894,7200,2017-11-14 13:55:38,1787.1284262880945,18.800000601600004,0.35999970196000003,1.5307000489824,1787.1284262880945,18.800000601600004,1.6091986677612,1.5307000489824,1684,-6.6,100,GPS_Atti,
0.30798526785889896,36.8793858476783,7300,2017-11-14 13:55:38,1787.6284263040948,19.300000617600002,0.0,1.53983004927456,1787.6284263040948,19.300000617600002,1.6091986677612,1.53983004927456,1684,-6.6,100,GPS_Atti,
0.307985231774209,36.8793857879543,7400,2017-11-14 13:55:38,1788.2284263232946,19.900000636800005,0.0,1.5475900495228803,1788.2284263232946,19.900000636800005,1.6091986677612,1.5475900495228803,1684,-6.6,100,GPS_Atti,
0.307985190950339,36.879385736047794,7500,2017-11-14 13:55:38,1788.7284263392949,20.4000006528,0.0,1.5548900497564802,1788.7284263392949,20.4000006528,1.6091986677612,1.5548900497564802,1684,-6.6,100,GPS_Atti,
0.30798511384799393,36.8793856993105,7600,2017-11-14 13:55:38,1789.2284263552947,20.900000668800004,0.0,1.5629500500144002,1789.2284263552947,20.900000668800004,1.6091986677612,1.5629500500144002,1684,-6.7,100,GPS_Atti,
0.307984951148526,36.879385633614795,7800,2017-11-14 13:55:38,1790.3284263904948,22.000000704000005,0.0,1.5789000505248,1790.3284263904948,22.000000704000005,1.6091986677612,1.5789000505248,1684,-6.7,100,GPS_Atti,
0.30798489717375,36.8793855686963,7900,2017-11-14 13:55:38,1790.9284264096946,22.6000007232,0.0,1.5882200508230402,1790.9284264096946,22.6000007232,1.6091986677612,1.5882200508230402,1684,-7.2,100,GPS_Atti,
0.307984833757662,36.8793854811177,8000,2017-11-14 13:55:39,1791.4284264256949,23.100000739200006,0.0,1.60023005120736,1791.4284264256949,23.100000739200006,1.6091986677612,1.60023005120736,1684,-7.3,100,GPS_Atti,
0.307984768628044,36.8793853997378,8100,2017-11-14 13:55:39,1792.0284264448946,23.700000758399998,0.0,1.6117700515766402,1792.0284264448946,23.700000758399998,1.6091986677612,1.6117700515766402,1684,-7.3,100,GPS_Atti,
0.30798468409551694,36.879385346697504,8200,2017-11-14 13:55:39,1792.5284264608945,24.2000007744,0.0,1.6218500518991998,1792.5284264608945,24.2000007744,1.6091986677612,1.6218500518991998,1684,-7.3,100,GPS_Atti,
0.307984592501648,36.8793852981773,8300,2017-11-14 13:55:39,1793.1284264800947,24.8000007936,0.0,1.63196005222272,1793.1284264800947,24.8000007936,1.6091986677612,1.63196005222272,1684,-7.3,100,GPS_Atti,
0.307984514494703,36.8793852733792,8400,2017-11-14 13:55:39,1793.6284264960946,25.3000008096,0.0,1.63906005244992,1793.6284264960946,25.3000008096,1.6091986677612,1.63906005244992,1684,-7.3,100,GPS_Atti,
0.307984445545163,36.8793852736811,8500,2017-11-14 13:55:39,1794.1284265120948,25.800000825599998,0.0,1.6433000525856,1794.1284265120948,25.800000825599998,1.6091986677612,1.6433000525856,1684,-7.3,100,GPS_Atti,
0.307984373383517,36.87938530812521,8600,2017-11-14 13:55:39,1794.7284265312946,26.4000008448,0.0,1.6446200526278403,1794.7284265312946,26.4000008448,1.6091986677612,1.6446200526278403,1684,-7.3,100,GPS_Atti,
0.307984307089969,36.8793853436346,8700,2017-11-14 13:55:39,1795.2284265472945,26.9000008608,0.0,1.64552005265664,1795.2284265472945,26.9000008608,1.6091986677612,1.64552005265664,1684,-7.4,100,GPS_Atti,
0.307984262771458,36.8793854108762,8800,2017-11-14 13:55:39,1795.7284265632948,27.4000008768,0.0,1.6421700525494398,1795.7284265632948,27.4000008768,1.6091986677612,1.64552005265664,1684,-7.4,100,GPS_Atti,
0.307984227894259,36.87938548460671,8900,2017-11-14 13:55:39,1796.3284265824946,28.000000896,0.0,1.63767005240544,1796.3284265824946,28.000000896,1.6091986677612,1.64552005265664,1684,-7.4,100,GPS_Atti,
0.307984206146796,36.879385574106,9000,2017-11-14 13:55:40,1796.8284265984948,28.500000912,0.0,1.6309400521900799,1796.8284265984948,28.500000912,1.6091986677612,1.64552005265664,1684,-7.5,100,GPS_Atti,
0.307984199109068,36.8793856502485,9100,2017-11-14 13:55:40,1797.3284266144947,29.000000928,0.0,1.6244900519836802,1797.3284266144947,29.000000928,1.6091986677612,1.64552005265664,1684,-7.5,100,GPS_Atti,
0.30798416907730397,36.8793857388966,9200,2017-11-14 13:55:40,1797.8284266304945,29.500000944,0.0,1.61843005178976,1797.8284266304945,29.500000944,1.6091986677612,1.64552005265664,1684,-7.5,100,GPS_Atti,
0.307984138505304,36.879385818548606,9300,2017-11-14 13:55:40,1798.4284266496948,30.1000009632,0.0,1.6132600516243198,1798.4284266496948,30.1000009632,1.6091986677612,1.64552005265664,1684,-7.9,100,GPS_Atti,
0.30798411485703997,36.8793859215673,9400,2017-11-14 13:55:40,1798.9284266656946,30.6000009792,0.0,1.60558005137856,1798.9284266656946,30.6000009792,1.6091986677612,1.64552005265664,1684,-7.9,100,GPS_Atti,
0.307984067516545,36.8793861745789,9600,2017-11-14 13:55:40,1800.0284267008947,31.7000010144,0.0,1.58622005075904,1800.0284267008947,31.7000010144,1.6091986677612,1.64552005265664,1684,-8.0,99,GPS_Atti,
0.307984021418145,36.8793863072861,9700,2017-11-14 13:55:40,1800.5284267168945,32.2000010304,0.0,1.5776100504835202,1800.5284267168945,32.2000010304,1.6091986677612,1.64552005265664,1684,-8.1,99,GPS_Atti,
0.307983977441201,36.87938645530279,9800,2017-11-14 13:55:40,1801.1284267360948,32.800001049600006,0.0,1.56763005016416,1801.1284267360948,32.800001049600006,1.6091986677612,1.64552005265664,1684,-8.3,99,GPS_Atti,
0.307983952576896,36.8793865688143,9900,2017-11-14 13:55:40,1801.6284267520946,33.3000010656,0.0,1.5594500499024,1801.6284267520946,33.3000010656,1.6091986677612,1.64552005265664,1684,-8.3,99,GPS_Atti,
0.30798393277623903,36.879386678681506,10000,2017-11-14 13:55:41,1802.2284267712946,33.9000010848,0.0,1.5513000496416,1802.2284267712946,33.9000010848,1.6091986677612,1.64552005265664,1684,-8.3,99,GPS_Atti,
0.307983923445662,36.879386747804205,10100,2017-11-14 13:55:41,1802.7284267872947,34.4000011008,0.0,1.54598004947136,1802.7284267872947,34.4000011008,1.6091986677612,1.64552005265664,1684,-8.3,99,GPS_Atti,
0.30798391338432,36.8793868234425,10200,2017-11-14 13:55:41,1803.3284268064947,35.00000112,0.0,1.54017004928544,1803.3284268064947,35.00000112,1.6091986677612,1.64552005265664,1684,-8.3,99,GPS_Atti,
0.30798390825227895,36.879386894692395,10300,2017-11-14 13:55:41,1803.8284268224947,35.500001136,0.0,1.5344100491011199,1803.8284268224947,35.500001136,1.6091986677612,1.64552005265664,1684,-8.4,99,GPS_Atti,
0.30798386588057297,36.8793870045008,10400,2017-11-14 13:55:41,1804.4284268416948,36.1000011552,0.0,1.52803004889696,1804.4284268416948,36.1000011552,1.6091986677612,1.64552005265664,1684,-9.5,99,GPS_Atti,
0.307983823157938,36.8793871068022,10500,2017-11-14 13:55:41,1804.9284268576946,36.6000011712,0.0,1.5224000487168001,1804.9284268576946,36.6000011712,1.6091986677612,1.64552005265664,1684,-10.1,99,GPS_Atti,
0.307983773532329,36.87938723274,10600,2017-11-14 13:55:41,1805.5284268768946,37.2000011904,0.0,1.51537004849184,1805.5284268768946,37.2000011904,1.6091986677612,1.64552005265664,1684,-10.1,99,GPS_Atti,
0.30798374926077804,36.8793873258846,10700,2017-11-14 13:55:41,1806.0284268928947,37.700001206399996,0.0,1.5093300482985603,1806.0284268928947,37.700001206399996,1.6091986677612,1.64552005265664,1684,-10.1,99,GPS_Atti,
0.30798368917160196,36.879387511297004,10900,2017-11-14 13:55:41,1807.1284269280948,38.8000012416,0.0,1.4983300479465602,1807.1284269280948,38.8000012416,1.6091986677612,1.64552005265664,1684,-10.1,99,GPS_Atti,
0.30798366507429403,36.879387571575606,11000,2017-11-14 13:55:42,1807.7284269472946,39.4000012608,0.0,1.4951500478448,1807.7284269472946,39.4000012608,1.6091986677612,1.64552005265664,1684,-10.1,99,GPS_Atti,
0.307983658718477,36.8793875959529,11100,2017-11-14 13:55:42,1808.2284269632946,39.900001276800005,0.0,1.49362004779584,1808.2284269632946,39.900001276800005,1.6091986677612,1.64552005265664,1684,-10.1,99,GPS_Atti,
0.30798365213875,36.879387648736206,11200,2017-11-14 13:55:42,1808.7284269792947,40.400001292800006,0.0,1.48977004767264,1808.7284269792947,40.400001292800006,1.6091986677612,1.64552005265664,1684,-10.1,99,GPS_Atti,
0.307983651509763,36.8793877028707,11300,2017-11-14 13:55:42,1809.2284269952945,40.90000130880001,0.0,1.4853800475321604,1809.2284269952945,40.90000130880001,1.6091986677612,1.64552005265664,1684,-10.1,99,GPS_Atti,
0.307983629937765,36.879387793529396,11400,2017-11-14 13:55:42,1809.7284270112946,41.4000013248,0.0,1.47961004734752,1809.7284270112946,41.4000013248,1.6091986677612,1.64552005265664,1684,-10.1,99,GPS_Atti,
0.307983613464019,36.8793878711986,11500,2017-11-14 13:55:42,1810.3284270304946,42.000001344,0.0,1.4745500471856,1810.3284270304946,42.000001344,1.6091986677612,1.64552005265664,1684,-10.1,99,GPS_Atti,
0.307983600282579,36.879387955712104,11600,2017-11-14 13:55:42,1810.8284270464947,42.50000136,0.0,1.46872004699904,1810.8284270464947,42.50000136,1.6091986677612,1.64552005265664,1684,-10.1,99,GPS_Atti,
0.30798360574438,36.879388023995396,11700,2017-11-14 13:55:42,1811.3284270624947,43.000001376,0.0,1.4628000468096,1811.3284270624947,43.000001376,1.6091986677612,1.64552005265664,1684,-10.1,99,GPS_Atti,
0.30798361029425303,36.879388100103704,11800,2017-11-14 13:55:42,1811.8284270784948,43.500001391999994,0.0,1.4563400466028802,1811.8284270784948,43.500001391999994,1.6091986677612,1.64552005265664,1684,-10.1,99,GPS_Atti,
0.307983623230612,36.8793881610589,11900,2017-11-14 13:55:42,1812.4284270976946,44.100001411200004,0.0,1.45046004641472,1812.4284270976946,44.100001411200004,1.6091986677612,1.64552005265664,1684,-10.1,99,GPS_Atti,
0.307983624793104,36.8793882172874,12000,2017-11-14 13:55:43,1812.9284271136946,44.6000014272,0.0,1.4458500462672002,1812.9284271136946,44.6000014272,1.6091986677612,1.64552005265664,1684,-10.1,99,GPS_Atti,
0.307983626299822,36.879388262325,12100,2017-11-14 13:55:43,1813.4284271296947,45.10000144320001,0.0,1.4421500461488002,1813.4284271296947,45.10000144320001,1.6091986677612,1.64552005265664,1684,-10.1,99,GPS_Atti,
0.307983606165333,36.879388307814395,12200,2017-11-14 13:55:43,1814.0284271488947,45.700001462399996,0.0,1.4401100460835201,1814.0284271488947,45.700001462399996,1.6091986677612,1.64552005265664,1684,-10.1,99,GPS_Atti,
0.307983586514492,36.879388339715796,12300,2017-11-14 13:55:43,1814.5284271648948,46.20000147840001,0.0,1.43912004605184,1814.5284271648948,46.20000147840001,1.6091986677612,1.64552005265664,1684,-10.1,99,GPS_Atti,
0.307983558235748,36.8793883412564,12400,2017-11-14 13:55:43,1815.1284271840946,46.80000149760001,0.0,1.44121004611872,1815.1284271840946,46.80000149760001,1.6091986677612,1.64552005265664,1684,-10.1,99,GPS_Atti,
0.307983538886576,36.8793883289553,12500,2017-11-14 13:55:43,1815.6284272000946,47.30000151360001,0.0,1.4437000461984,1815.6284272000946,47.30000151360001,1.6091986677612,1.64552005265664,1684,-10.1,99,GPS_Atti,
0.307983523514065,36.879388303319004,12600,2017-11-14 13:55:43,1816.2284272192946,47.900001532800005,0.0,1.44693004630176,1816.2284272192946,47.900001532800005,1.6091986677612,1.64552005265664,1684,-10.1,99,GPS_Atti,
0.307983511042627,36.8793882692313,12700,2017-11-14 13:55:43,1816.7284272352947,48.4000015488,0.0,1.4505900464188801,1816.7284272352947,48.4000015488,1.6091986677612,1.64552005265664,1684,-10.1,99,GPS_Atti,
0.307983498212116,36.8793881993699,12800,2017-11-14 13:55:43,1817.3284272544945,49.00000156800001,0.35999970196000003,1.4571200466278402,1817.3284272544945,49.00000156800001,1.6091986677612,1.64552005265664,1684,-10.1,99,GPS_Atti,
0.30798349934632696,36.8793881078334,12900,2017-11-14 13:55:43,1817.9284272736948,49.6000015872,0.35999970196000003,1.46431004685792,1817.9284272736948,49.6000015872,1.6091986677612,1.64552005265664,1684,-10.1,99,GPS_Atti,
0.307983483987658,36.87938797977571,13000,2017-11-14 13:55:44,1818.4284272896946,50.100001603200006,0.35999970196000003,1.47572004722304,1818.4284272896946,50.100001603200006,1.6091986677612,1.64552005265664,1684,-10.1,99,GPS_Atti,
0.307983455898627,36.87938783511861,13100,2017-11-14 13:55:44,1818.9284273056946,50.6000016192,0.35999970196000003,1.489500047664,1818.9284273056946,50.6000016192,1.6091986677612,1.64552005265664,1684,-10.1,99,GPS_Atti,
0.30798342228103004,36.879387670700496,13200,2017-11-14 13:55:44,1819.5284273248947,51.20000163840001,0.35999970196000003,1.5053500481711999,1819.5284273248947,51.20000163840001,1.6091986677612,1.64552005265664,1684,-10.1,99,GPS_Atti,
0.307983398149932,36.8793875055276,13300,2017-11-14 13:55:44,1820.0284273408945,51.700001654400005,0.35999970196000003,1.52062004865984,1820.0284273408945,51.700001654400005,1.6091986677612,1.64552005265664,1684,-10.1,99,GPS_Atti,
0.307983357904567,36.8793873476294,13400,2017-11-14 13:55:44,1820.5284273568948,52.200001670400006,0.35999970196000003,1.5365600491699203,1820.5284273568948,52.200001670400006,1.6091986677612,1.64552005265664,1684,-10.1,99,GPS_Atti,
0.307983322766817,36.8793872219645,13500,2017-11-14 13:55:44,1821.1284273760946,52.8000016896,0.35999970196000003,1.54952004958464,1821.1284273760946,52.8000016896,1.6091986677612,1.64552005265664,1684,-10.1,99,GPS_Atti,
0.30798329806006497,36.879387121838604,13600,2017-11-14 13:55:44,1821.6284273920944,53.3000017056,0.35999970196000003,1.55962004990784,1821.6284273920944,53.3000017056,1.6091986677612,1.64552005265664,1684,-10.1,99,GPS_Atti,
0.3079832840929,36.87938704255279,13700,2017-11-14 13:55:44,1822.1284274080947,53.8000017216,0.0,1.5672100501507202,1822.1284274080947,53.8000017216,1.6091986677612,1.64552005265664,1684,-10.1,99,GPS_Atti,
0.30798324899178997,36.879386972945106,13800,2017-11-14 13:55:44,1822.7284274272945,54.40000174080001,0.0,1.57559005041888,1822.7284274272945,54.40000174080001,1.6091986677612,1.64552005265664,1684,-10.1,99,GPS_Atti,
0.30798321082269103,36.879386909020205,13900,2017-11-14 13:55:44,1823.2284274432948,54.9000017568,0.0,1.58372005067904,1823.2284274432948,54.9000017568,1.6091986677612,1.64552005265664,1684,-10.1,99,GPS_Atti,
0.307983161041158,36.8793868319451,14000,2017-11-14 13:55:45,1823.7284274592946,55.40000177280001,0.0,1.5938000510016002,1823.7284274592946,55.40000177280001,1.6091986677612,1.64552005265664,1684,-10.1,99,GPS_Atti,
0.30798311965262604,36.8793867587446,14100,2017-11-14 13:55:45,1824.3284274784944,56.000001792,0.0,1.6029400512940801,1824.3284274784944,56.000001792,1.6091986677612,1.64552005265664,1684,-10.1,99,GPS_Atti,
0.307983067424356,36.8793866556606,14200,2017-11-14 13:55:45,1824.8284274944947,56.50000180800001,0.0,1.6153700516918401,1824.8284274944947,56.50000180800001,1.6091986677612,1.64552005265664,1684,-10.1,99,GPS_Atti,
0.307982973942714,36.8793864640377,14400,2017-11-14 13:55:45,1825.8284275264946,57.50000184,0.0,1.6382300524233602,1825.8284275264946,57.50000184,1.6091986677612,1.64552005265664,1684,-10.1,99,GPS_Atti,
0.30798293576303004,36.8793863808913,14500,2017-11-14 13:55:45,1826.3284275424946,58.000001856,0.0,1.6479800527353603,1826.3284275424946,58.000001856,1.6091986677612,1.6479800527353603,1684,-10.1,99,GPS_Atti,
0.307982892663003,36.8793862884662,14600,2017-11-14 13:55:45,1826.8284275584947,58.500001872,0.0,1.65888005308416,1826.8284275584947,58.500001872,1.6091986677612,1.65888005308416,1684,-10.1,99,GPS_Atti,
0.307982871650376,36.8793862205468,14700,2017-11-14 13:55:45,1827.3284275744945,59.000001888,0.0,1.66611005331552,1827.3284275744945,59.000001888,1.6091986677612,1.66611005331552,1684,-10.1,99,GPS_Atti,
0.30798283067546806,36.879386145189,14800,2017-11-14 13:55:45,1827.9284275936948,59.6000019072,0.0,1.67543005361376,1827.9284275936948,59.6000019072,1.6091986677612,1.67543005361376,1684,-10.1,99,GPS_Atti,
0.307982802492802,36.8793860917216,14900,2017-11-14 13:55:45,1828.4284276096946,60.100001923200004,0.0,1.6819800538233602,1828.4284276096946,60.100001923200004,1.6091986677612,1.6819800538233602,1684,-10.1,99,GPS_Atti,
0.307982757042115,36.8793860393483,15000,2017-11-14 13:55:46,1828.9284276256947,60.600001939200006,0.0,1.68969005407008,1828.9284276256947,60.600001939200006,1.6091986677612,1.68969005407008,1684,-10.1,99,GPS_Atti,
0.30798272724240505,36.8793860136295,15100,2017-11-14 13:55:46,1829.4284276416947,61.10000195520001,0.0,1.6940200542086399,1829.4284276416947,61.10000195520001,1.6091986677612,1.6940200542086399,1684,-10.1,99,GPS_Atti,
0.307982687261662,36.8793859821284,15200,2017-11-14 13:55:46,1829.9284276576946,61.6000019712,0.0,1.69958005438656,1829.9284276576946,61.6000019712,1.6091986677612,1.69958005438656,1684,-10.1,99,GPS_Atti,
0.30798268709556,36.879385973020895,15300,2017-11-14 13:55:46,1830.4284276736946,62.1000019872,0.0,1.70036005441152,1830.4284276736946,62.1000019872,1.6091986677612,1.70036005441152,1684,-10.1,99,GPS_Atti,
0.30798265655734997,36.8793859778054,15500,2017-11-14 13:55:46,1831.4284277056947,63.100002019200005,0.0,1.7021800544697603,1831.4284277056947,63.100002019200005,1.6091986677612,1.7021800544697603,1684,-10.1,99,GPS_Atti,
0.3079826362392539,36.879386006717795,15600,2017-11-14 13:55:46,1831.9284277216946,63.600002035200006,0.0,1.7012400544396802,1831.9284277216946,63.600002035200006,1.6091986677612,1.7021800544697603,1684,-10.1,99,GPS_Atti,
0.307982628585568,36.8793860573085,15700,2017-11-14 13:55:46,1832.5284277408946,64.2000020544,0.0,1.6975600543219198,1832.5284277408946,64.2000020544,1.6091986677612,1.7021800544697603,1684,-10.1,99,GPS_Atti,
0.30798260384217496,36.879386108050205,15800,2017-11-14 13:55:46,1833.0284277568946,64.7000020704,0.0,1.69514005424448,1833.0284277568946,64.7000020704,1.6091986677612,1.7021800544697603,1684,-10.1,99,GPS_Atti,
0.307982595355539,36.87938616457421,15900,2017-11-14 13:55:46,1833.5284277728947,65.2000020864,0.0,1.69106005411392,1833.5284277728947,65.2000020864,1.6091986677612,1.7021800544697603,1684,-10.1,99,GPS_Atti,
0.307982556035945,36.879386231396204,16000,2017-11-14 13:55:47,1834.0284277888948,65.7000021024,0.0,1.68843005402976,1834.0284277888948,65.7000021024,1.6091986677612,1.7021800544697603,1684,-10.1,99,GPS_Atti,
0.307982537759104,36.879386312803895,16100,2017-11-14 13:55:47,1834.6284278080946,66.3000021216,0.0,1.6830600538579201,1834.6284278080946,66.3000021216,1.6091986677612,1.7021800544697603,1684,-10.1,99,GPS_Atti,
0.30798249025495,36.879386411979205,16200,2017-11-14 13:55:47,1835.1284278240946,66.8000021376,0.0,1.67846005371072,1835.1284278240946,66.8000021376,1.6091986677612,1.7021800544697603,1684,-10.1,99,GPS_Atti,
0.307982467494188,36.8793865237991,16300,2017-11-14 13:55:47,1835.6284278400947,67.30000215359999,0.0,1.67104005347328,1835.6284278400947,67.30000215359999,1.6091986677612,1.7021800544697603,1684,-10.1,99,GPS_Atti,
0.307982441394302,36.8793866205313,16400,2017-11-14 13:55:47,1836.1284278560945,67.8000021696,0.0,1.66516005328512,1836.1284278560945,67.8000021696,1.6091986677612,1.7021800544697603,1684,-10.1,99,GPS_Atti,
0.30798245549988396,36.879386696976795,16500,2017-11-14 13:55:47,1836.7284278752948,68.4000021888,0.0,1.65789005305248,1836.7284278752948,68.4000021888,1.6091986677612,1.7021800544697603,1684,-10.1,99,GPS_Atti,
0.307982456678877,36.8793867550799,16600,2017-11-14 13:55:47,1837.2284278912946,68.9000022048,0.0,1.6531100528995202,1837.2284278912946,68.9000022048,1.6091986677612,1.7021800544697603,1684,-10.1,99,GPS_Atti,
0.307982470107841,36.8793868163573,16700,2017-11-14 13:55:47,1837.7284279072944,69.4000022208,0.0,1.6471400527084799,1837.7284279072944,69.4000022208,1.6091986677612,1.7021800544697603,1684,-10.2,99,GPS_Atti,
0.307982453874697,36.8793868656045,16800,2017-11-14 13:55:47,1838.2284279232947,69.9000022368,0.0,1.6444300526217601,1838.2284279232947,69.9000022368,1.6091986677612,1.7021800544697603,1684,-10.4,99,GPS_Atti,
0.30798245215587394,36.8793869144074,16900,2017-11-14 13:55:47,1838.7284279392945,70.4000022528,0.0,1.6406500525008,1838.7284279392945,70.4000022528,1.6091986677612,1.7021800544697603,1684,-10.5,99,GPS_Atti,
0.307982427608709,36.8793869544871,17000,2017-11-14 13:55:48,1839.3284279584948,71.000002272,0.0,1.6393500524592002,1839.3284279584948,71.000002272,1.6091986677612,1.7021800544697603,1684,-10.7,99,GPS_Atti,
0.307982421983249,36.8793870045565,17100,2017-11-14 13:55:48,1839.8284279744946,71.500002288,0.0,1.6357900523452802,1839.8284279744946,71.500002288,1.6091986677612,1.7021800544697603,1684,-10.8,99,GPS_Atti,
0.30798237491958896,36.8793870699899,17200,2017-11-14 13:55:48,1840.3284279904947,72.00000230399999,0.0,1.63426005229632,1840.3284279904947,72.00000230399999,1.6091986677612,1.7021800544697603,1684,-11.0,99,GPS_Atti,
0.307982326446511,36.8793871424229,17300,2017-11-14 13:55:48,1840.8284280064947,72.50000232,0.0,1.6323300522345603,1840.8284280064947,72.50000232,1.6091986677612,1.7021800544697603,1684,-11.1,99,GPS_Atti,
0.30798226341514395,36.879387201125496,17400,2017-11-14 13:55:48,1841.4284280256945,73.1000023392,0.0,1.63269005224608,1841.4284280256945,73.1000023392,1.6091986677612,1.7021800544697603,1684,-11.3,99,GPS_Atti,
0.30798223283296505,36.8793872500183,17500,2017-11-14 13:55:48,1841.9284280416946,73.6000023552,0.0,1.6312900522012803,1841.9284280416946,73.6000023552,1.6091986677612,1.7021800544697603,1684,-11.5,99,GPS_Atti,
0.30798218905876196,36.879387293671606,17600,2017-11-14 13:55:48,1842.4284280576946,74.1000023712,0.0,1.63137005220384,1842.4284280576946,74.1000023712,1.6091986677612,1.7021800544697603,1684,-11.6,99,GPS_Atti,
0.307982172047222,36.879387341825705,17700,2017-11-14 13:55:48,1842.9284280736947,74.6000023872,0.0,1.62899005212768,1842.9284280736947,74.6000023872,1.6091986677612,1.7021800544697603,1684,-11.6,99,GPS_Atti,
0.307982148003246,36.8793873899959,17800,2017-11-14 13:55:48,1843.4284280896945,75.1000024032,0.0,1.62719005207008,1843.4284280896945,75.1000024032,1.6091986677612,1.7021800544697603,1684,-11.6,99,GPS_Atti,
0.30798214071840196,36.8793874388662,17900,2017-11-14 13:55:48,1843.9284281056948,75.60000241920001,0.0,1.62402005196864,1843.9284281056948,75.60000241920001,1.6091986677612,1.7021800544697603,1684,-11.6,99,GPS_Atti,
0.307982097632217,36.8793874834499,18000,2017-11-14 13:55:49,1844.4284281216947,76.10000243520001,0.0,1.6240600519699202,1844.4284281216947,76.10000243520001,1.6091986677612,1.7021800544697603,1684,-11.6,99,GPS_Atti,
0.30798207751930495,36.879387534401395,18100,2017-11-14 13:55:49,1844.9284281376945,76.6000024512,0.0,1.6218000518976,1844.9284281376945,76.6000024512,1.6091986677612,1.7021800544697603,1684,-11.6,99,GPS_Atti,
0.30798203662989004,36.8793875860628,18200,2017-11-14 13:55:49,1845.4284281536948,77.1000024672,0.0,1.6211800518777602,1845.4284281536948,77.1000024672,1.6091986677612,1.7021800544697603,1684,-11.6,99,GPS_Atti,
0.30798201344003395,36.8793876312792,18300,2017-11-14 13:55:49,1845.9284281696946,77.6000024832,0.0,1.6196400518284801,1845.9284281696946,77.6000024832,1.6091986677612,1.7021800544697603,1684,-11.6,99,GPS_Atti,
0.307981969064121,36.879387687304295,18400,2017-11-14 13:55:49,1846.5284281888944,78.20000250240001,0.0,1.6190400518092802,1846.5284281888944,78.20000250240001,1.6091986677612,1.7021800544697603,1684,-11.6,99,GPS_Atti,
0.307981940842372,36.8793877429418,18500,2017-11-14 13:55:49,1847.0284282048947,78.70000251840001,0.0,1.6171800517497603,1847.0284282048947,78.70000251840001,1.6091986677612,1.7021800544697603,1684,-11.6,99,GPS_Atti,
0.307981888601888,36.879387766589,18600,2017-11-14 13:55:49,1847.5284282208945,79.20000253439999,0.0,1.6197200518310402,1847.5284282208945,79.20000253439999,1.6091986677612,1.7021800544697603,1684,-11.6,99,GPS_Atti,
0.30798185537104605,36.8793877666393,18700,2017-11-14 13:55:49,1848.0284282368946,79.70000255040001,0.0,1.62246005191872,1848.0284282368946,79.70000255040001,1.6091986677612,1.7021800544697603,1684,-11.6,99,GPS_Atti,
0.307981811728747,36.8793877848469,18800,2017-11-14 13:55:49,1848.6284282560946,80.30000256960001,0.0,1.62471005199072,1848.6284282560946,80.30000256960001,1.6091986677612,1.7021800544697603,1684,-11.6,99,GPS_Atti,
0.307981791646775,36.8793878257424,18900,2017-11-14 13:55:49,1849.1284282720947,80.80000258560001,0.0,1.6233500519472002,1849.1284282720947,80.80000258560001,1.6091986677612,1.7021800544697603,1684,-11.6,99,GPS_Atti,
0.30798174924616495,36.879387858283,19000,2017-11-14 13:55:50,1849.6284282880947,81.3000026016,0.0,1.6244700519830402,1849.6284282880947,81.3000026016,1.6091986677612,1.7021800544697603,1684,-11.6,99,GPS_Atti,
0.307981728284834,36.8793878824237,19100,2017-11-14 13:55:50,1850.1284283040948,81.80000261760001,0.0,1.62444005198208,1850.1284283040948,81.80000261760001,1.6091986677612,1.7021800544697603,1684,-11.6,99,GPS_Atti,
0.307981704890607,36.8793878898611,19300,2017-11-14 13:55:50,1851.1284283360944,82.8000026496,0.0,1.6258500520272001,1851.1284283360944,82.8000026496,1.6091986677612,1.7021800544697603,1684,-11.6,99,GPS_Atti,
0.30798167928251097,36.8793878999514,19400,2017-11-14 13:55:50,1851.6284283520947,83.3000026656,0.0,1.6272500520720001,1851.6284283520947,83.3000026656,1.6091986677612,1.7021800544697603,1684,-11.6,99,GPS_Atti,
0.307981668184665,36.87938792848271,19500,2017-11-14 13:55:50,1852.1284283680945,83.8000026816,0.0,1.6260900520348802,1852.1284283680945,83.8000026816,1.6091986677612,1.7021800544697603,1684,-11.6,99,GPS_Atti,
0.30798164058579697,36.879387952265795,19600,2017-11-14 13:55:50,1852.6284283840946,84.30000269760001,0.0,1.6266700520534398,1852.6284283840946,84.30000269760001,1.6091986677612,1.7021800544697603,1684,-11.6,99,GPS_Atti,
0.307981644429739,36.8793879794235,19700,2017-11-14 13:55:50,1853.1284284000947,84.8000027136,0.0,1.62437005197984,1853.1284284000947,84.8000027136,1.6091986677612,1.7021800544697603,1684,-11.6,99,GPS_Atti,
0.30798162002506296,36.8793879978826,19800,2017-11-14 13:55:50,1853.6284284160947,85.30000272960001,0.0,1.6250900520028801,1853.6284284160947,85.30000272960001,1.6091986677612,1.7021800544697603,1684,-11.6,99,GPS_Atti,
0.307981600707646,36.879388027745705,19900,2017-11-14 13:55:50,1854.2284284352947,85.9000027488,0.0,1.6245500519856,1854.2284284352947,85.9000027488,1.6091986677612,1.7021800544697603,1684,-11.6,99,GPS_Atti,
0.307981564566774,36.8793880815365,20000,2017-11-14 13:55:51,1854.7284284512946,86.40000276479999,0.0,1.62372005195904,1854.7284284512946,86.40000276479999,1.6091986677612,1.7021800544697603,1684,-11.6,99,GPS_Atti,
0.30798156098094004,36.87938815770789,20100,2017-11-14 13:55:51,1855.2284284672946,86.9000027808,0.0,1.61856005179392,1855.2284284672946,86.9000027808,1.6091986677612,1.7021800544697603,1684,-11.6,99,GPS_Atti,
0.30798149154001697,36.879388326286296,20300,2017-11-14 13:55:51,1856.2284284992948,87.9000028128,0.0,1.6125000515999999,1856.2284284992948,87.9000028128,1.6091986677612,1.7021800544697603,1684,-11.6,99,GPS_Atti,
0.30798145536331895,36.8793883950921,20400,2017-11-14 13:55:51,1856.7284285152946,88.4000028288,0.0,1.61077005154464,1856.7284285152946,88.4000028288,1.6091986677612,1.7021800544697603,1684,-11.6,99,GPS_Atti,
0.307981443084037,36.8793884543729,20500,2017-11-14 13:55:51,1857.2284285312944,88.9000028448,0.0,1.60768005144576,1857.2284285312944,88.9000028448,1.6091986677612,1.7021800544697603,1684,-11.6,99,GPS_Atti,
0.30798141769008197,36.8793884711373,20600,2017-11-14 13:55:51,1857.7284285472947,89.4000028608,0.0,1.6087000514784002,1857.7284285472947,89.4000028608,1.6091986677612,1.7021800544697603,1684,-11.6,99,GPS_Atti,
0.307981419965018,36.879388482889105,20700,2017-11-14 13:55:51,1858.2284285632945,89.9000028768,0.0,1.60769005144608,1858.2284285632945,89.9000028768,1.6091986677612,1.7021800544697603,1684,-11.6,99,GPS_Atti,
0.307981396604989,36.8793884830925,20800,2017-11-14 13:55:51,1858.7284285792946,90.4000028928,0.0,1.6097000515104,1858.7284285792946,90.4000028928,1.6091986677612,1.7021800544697603,1684,-11.6,99,GPS_Atti,
0.30798138496242894,36.87938850961,20900,2017-11-14 13:55:51,1859.2284285952946,90.9000029088,0.0,1.60887005148384,1859.2284285952946,90.9000029088,1.6091986677612,1.7021800544697603,1684,-11.6,99,GPS_Atti,
0.30798130846057203,36.8793885378308,21000,2017-11-14 13:55:52,1859.7284286112947,91.40000292479999,0.0,1.6135800516345602,1859.7284286112947,91.40000292479999,1.6091986677612,1.7021800544697603,1684,-11.6,99,GPS_Atti,
0.307981235512795,36.8793885881453,21100,2017-11-14 13:55:52,1860.2284286272945,91.9000029408,0.0,1.6165000517280002,1860.2284286272945,91.9000029408,1.6091986677612,1.7021800544697603,1684,-11.6,99,GPS_Atti,
0.30798115175215,36.8793886113622,21200,2017-11-14 13:55:52,1860.7284286432948,92.40000295680002,0.0,1.62227005191264,1860.7284286432948,92.40000295680002,1.6091986677612,1.7021800544697603,1684,-11.6,99,GPS_Atti,
0.307981128668956,36.879388634658206,21300,2017-11-14 13:55:52,1861.2284286592947,92.9000029728,0.0,1.6227200519270402,1861.2284286592947,92.9000029728,1.6091986677612,1.7021800544697603,1684,-11.6,99,GPS_Atti,
0.307981096617107,36.8793886484196,21400,2017-11-14 13:55:52,1861.7284286752945,93.4000029888,0.0,1.6246100519875202,1861.7284286752945,93.4000029888,1.6091986677612,1.7021800544697603,1684,-11.6,99,GPS_Atti,
0.307981083655507,36.8793886826453,21500,2017-11-14 13:55:52,1862.2284286912945,93.9000030048,0.0,1.6234500519504003,1862.2284286912945,93.9000030048,1.6091986677612,1.7021800544697603,1684,-11.6,99,GPS_Atti,
0.307981025424792,36.879388698272706,21600,2017-11-14 13:55:52,1862.7284287072946,94.4000030208,0.0,1.6275500520816,1862.7284287072946,94.4000030208,1.6091986677612,1.7021800544697603,1684,-11.6,98,GPS_Atti,
0.30798098740469604,36.879388725658394,21700,2017-11-14 13:55:52,1863.2284287232947,94.9000030368,0.0,1.62909005213088,1863.2284287232947,94.9000030368,1.6091986677612,1.7021800544697603,1684,-11.6,98,GPS_Atti,
0.30798092834510304,36.8793887389894,21800,2017-11-14 13:55:52,1863.8284287424947,95.50000305600001,0.0,1.6334500522704,1863.8284287424947,95.50000305600001,1.6091986677612,1.7021800544697603,1684,-11.6,98,GPS_Atti,
0.30798088196457596,36.8793887488785,21900,2017-11-14 13:55:52,1864.3284287584947,96.00000307200001,0.0,1.63693005238176,1864.3284287584947,96.00000307200001,1.6091986677612,1.7021800544697603,1684,-11.6,98,GPS_Atti,
0.30798079588746896,36.8793887184983,22000,2017-11-14 13:55:53,1864.8284287744946,96.50000308800001,0.0,1.64663005269216,1864.8284287744946,96.50000308800001,1.6091986677612,1.7021800544697603,1684,-11.6,98,GPS_Atti,
0.3079807367130711,36.8793886892894,22100,2017-11-14 13:55:53,1865.3284287904949,97.000003104,0.0,1.6538500529232,1865.3284287904949,97.000003104,1.6091986677612,1.7021800544697603,1684,-11.6,98,GPS_Atti,
0.307980640971963,36.8793886056645,22200,2017-11-14 13:55:53,1865.8284288064947,97.50000312,0.0,1.66794005337408,1865.8284288064947,97.50000312,1.6091986677612,1.7021800544697603,1684,-11.6,98,GPS_Atti,
0.307980594558866,36.8793885519561,22300,2017-11-14 13:55:53,1866.4284288256945,98.10000313920001,0.0,1.67564005362048,1866.4284288256945,98.10000313920001,1.6091986677612,1.7021800544697603,1684,-11.6,98,GPS_Atti,
0.307980516357729,36.879388472291396,22400,2017-11-14 13:55:53,1866.9284288416948,98.60000315520001,0.0,1.6879100540131202,1866.9284288416948,98.60000315520001,1.6091986677612,1.7021800544697603,1684,-11.6,98,GPS_Atti,
0.30798047415823104,36.879388418474896,22500,2017-11-14 13:55:53,1867.4284288576946,99.1000031712,0.0,1.695250054248,1867.4284288576946,99.1000031712,1.6091986677612,1.7021800544697603,1684,-11.6,98,GPS_Atti,
0.307980416110716,36.879388331827705,22600,2017-11-14 13:55:53,1867.9284288736944,99.6000031872,0.0,1.7061900545980802,1867.9284288736944,99.6000031872,1.6091986677612,1.7061900545980802,1684,-11.6,98,GPS_Atti,
0.30798039600838895,36.879388269296605,22700,2017-11-14 13:55:53,1868.5284288928947,100.20000320640001,0.0,1.7121500547888,1868.5284288928947,100.20000320640001,1.6091986677612,1.7121500547888,1684,-11.6,98,GPS_Atti,
0.307980340071338,36.8793881714714,22800,2017-11-14 13:55:53,1869.0284289088945,100.7000032224,0.0,1.72368005515776,1869.0284289088945,100.7000032224,1.6091986677612,1.72368005515776,1684,-11.6,98,GPS_Atti,
0.307980320427418,36.879388103663395,22900,2017-11-14 13:55:53,1869.5284289248948,101.2000032384,0.0,1.7299800553593603,1869.5284289248948,101.2000032384,1.6091986677612,1.7299800553593603,1684,-11.6,98,GPS_Atti,
0.307980298430396,36.879388011511296,23000,2017-11-14 13:55:54,1870.0284289408946,101.7000032544,0.35999970196000003,1.7381500556208003,1870.0284289408946,101.7000032544,1.6091986677612,1.7381500556208003,1684,-11.6,98,GPS_Atti,
0.307980316703167,36.879387961568206,23100,2017-11-14 13:55:54,1870.5284289568947,102.2000032704,0.35999970196000003,1.73993005567776,1870.5284289568947,102.2000032704,1.6091986677612,1.73993005567776,1684,-11.6,98,GPS_Atti,
0.307980323275567,36.879387873177,23200,2017-11-14 13:55:54,1870.9284289696946,102.6000032832,0.35999970196000003,1.74539005585248,1870.9284289696946,102.6000032832,1.6091986677612,1.74539005585248,1684,-11.6,98,GPS_Atti,
0.307980352657582,36.879387813998,23300,2017-11-14 13:55:54,1871.4284289856948,103.10000329920001,0.35999970196000003,1.7468800559001598,1871.4284289856948,103.10000329920001,1.6091986677612,1.7468800559001598,1684,-11.6,98,GPS_Atti,
0.307980354581588,36.8793877010474,23400,2017-11-14 13:55:54,1871.9284290016947,103.60000331520001,0.35999970196000003,1.75452005614464,1871.9284290016947,103.60000331520001,1.6091986677612,1.75452005614464,1684,-11.6,98,GPS_Atti,
0.307980385145854,36.87938762574,23500,2017-11-14 13:55:54,1872.4284290176945,104.1000033312,0.35999970196000003,1.7571000562272001,1872.4284290176945,104.1000033312,1.6091986677612,1.7571000562272001,1684,-11.6,98,GPS_Atti,
0.307980400181277,36.879387468871705,23600,2017-11-14 13:55:54,1872.9284290336946,104.6000033472,0.35999970196000003,1.7668000565376,1872.9284290336946,104.6000033472,1.6091986677612,1.7668000565376,1684,-11.6,98,GPS_Atti,
0.30798041985450897,36.8793873430387,23700,2017-11-14 13:55:54,1873.4284290496946,105.1000033632,0.0,1.7740200567686397,1873.4284290496946,105.1000033632,1.6091986677612,1.7740200567686397,1684,-11.6,98,GPS_Atti,
0.30798039860738596,36.8793872077203,23800,2017-11-14 13:55:54,1873.9284290656947,105.6000033792,0.0,1.7854800571353602,1873.9284290656947,105.6000033792,1.6091986677612,1.7854800571353602,1684,-11.6,98,GPS_Atti,
0.307980375613757,36.8793871230216,23900,2017-11-14 13:55:54,1874.4284290816945,106.1000033952,0.0,1.7935100573923202,1874.4284290816945,106.1000033952,1.6091986677612,1.7935100573923202,1684,-11.6,98,GPS_Atti,
0.30798032160722605,36.8793869968375,24000,2017-11-14 13:55:55,1874.9284290976948,106.6000034112,0.0,1.8071600578291203,1874.9284290976948,106.6000034112,1.6091986677612,1.8071600578291203,1684,-11.6,98,GPS_Atti,
0.30798029886844797,36.8793869377238,24100,2017-11-14 13:55:55,1875.4284291136946,107.10000342720001,0.0,1.8133600580275202,1875.4284291136946,107.10000342720001,1.6091986677612,1.8133600580275202,1684,-11.6,98,GPS_Atti,
0.30798025014133196,36.87938682843139,24200,2017-11-14 13:55:55,1876.0284291328949,107.7000034464,0.0,1.8253800584121598,1876.0284291328949,107.7000034464,1.6091986677612,1.8253800584121598,1684,-11.6,98,GPS_Atti,
0.307980227353701,36.879386761846106,24300,2017-11-14 13:55:55,1876.4284291456947,108.10000345920001,0.0,1.8321400586284802,1876.4284291456947,108.10000345920001,1.6091986677612,1.8321400586284802,1684,-11.6,98,GPS_Atti,
0.307980207749678,36.8793866525195,24400,2017-11-14 13:55:55,1877.0284291648945,108.70000347840002,0.0,1.84176005893632,1877.0284291648945,108.70000347840002,1.6091986677612,1.84176005893632,1684,-11.6,98,GPS_Atti,
0.307980212349218,36.8793865829482,24500,2017-11-14 13:55:55,1877.5284291808946,109.2000034944,0.0,1.8464600590867202,1877.5284291808946,109.2000034944,1.6091986677612,1.8464600590867202,1684,-11.6,98,GPS_Atti,
0.307980208010229,36.879386458704,24600,2017-11-14 13:55:55,1878.0284291968946,109.7000035104,0.0,1.85597005939104,1878.0284291968946,109.7000035104,1.6091986677612,1.85597005939104,1684,-11.6,98,GPS_Atti,
0.3079802162086311,36.8793863741381,24700,2017-11-14 13:55:55,1878.5284292128947,110.2000035264,0.0,1.8615400595692804,1878.5284292128947,110.2000035264,1.6091986677612,1.8615400595692804,1684,-11.6,98,GPS_Atti,
0.30798021692026095,36.8793861868832,24900,2017-11-14 13:55:55,1879.5284292448948,111.2000035584,0.0,1.8754400600140801,1879.5284292448948,111.2000035584,1.6091986677612,1.8754400600140801,1684,-11.6,98,GPS_Atti,
0.30798021839970197,36.8793860793167,25000,2017-11-14 13:55:56,1880.0284292608947,111.70000357440001,0.0,1.88339006026848,1880.0284292608947,111.70000357440001,1.6091986677612,1.88339006026848,1684,-11.6,98,GPS_Atti,
0.307980217358312,36.8793859914426,25100,2017-11-14 13:55:56,1880.6284292800947,112.30000359360001,0.0,1.8901000604832,1880.6284292800947,112.30000359360001,1.6091986677612,1.8901000604832,1684,-11.6,98,GPS_Atti,
0.30798021203981396,36.879385885233496,25200,2017-11-14 13:55:56,1881.1284292960947,112.80000360960001,0.0,1.8985700607542402,1881.1284292960947,112.80000360960001,1.6091986677612,1.8985700607542402,1684,-11.6,98,GPS_Atti,
0.307980229823237,36.8793858141838,25300,2017-11-14 13:55:56,1881.6284293120946,113.30000362560001,0.0,1.9025300608809599,1881.6284293120946,113.30000362560001,1.6091986677612,1.9025300608809599,1684,-11.6,98,GPS_Atti,
0.307980293399319,36.879385667697,25500,2017-11-14 13:55:56,1882.6284293440947,114.30000365760002,0.35999970196000003,1.9086200610758401,1882.6284293440947,114.30000365760002,1.6091986677612,1.9086200610758401,1684,-11.6,98,GPS_Atti,
0.30798034387456896,36.8793855873749,25600,2017-11-14 13:55:56,1883.1284293600945,114.8000036736,0.35999970196000003,1.9107700611446399,1883.1284293600945,114.8000036736,1.6091986677612,1.9107700611446399,1684,-11.6,98,GPS_Atti,
0.307980419677823,36.879385541744206,25700,2017-11-14 13:55:56,1883.6284293760946,115.3000036896,0.35999970196000003,1.9082600610643201,1883.6284293760946,115.3000036896,1.6091986677612,1.9107700611446399,1684,-11.6,98,GPS_Atti,
0.30798050990746195,36.8793854806873,25800,2017-11-14 13:55:56,1884.1284293920946,115.80000370560002,0.35999970196000003,1.9058700609878403,1884.1284293920946,115.80000370560002,1.6091986677612,1.9107700611446399,1684,-11.6,98,GPS_Atti,
0.30798060837784197,36.87938545510129,25900,2017-11-14 13:55:56,1884.6284294080947,116.3000037216,0.35999970196000003,1.9001100608035202,1884.6284294080947,116.3000037216,1.6091986677612,1.9107700611446399,1684,-11.6,98,GPS_Atti,
0.30798068949145196,36.879385393765,26000,2017-11-14 13:55:57,1885.1284294240945,116.80000373760001,0.35999970196000003,1.89859006075488,1885.1284294240945,116.80000373760001,1.6091986677612,1.9107700611446399,1684,-11.6,98,GPS_Atti,
0.307980765440451,36.8793853683727,26100,2017-11-14 13:55:57,1885.6284294400948,117.30000375360001,0.35999970196000003,1.8946800606297602,1885.6284294400948,117.30000375360001,1.6091986677612,1.9107700611446399,1684,-11.6,98,GPS_Atti,
0.307980827615257,36.879385315640796,26200,2017-11-14 13:55:57,1886.1284294560946,117.80000376960001,0.35999970196000003,1.8940500606096002,1886.1284294560946,117.80000376960001,1.6091986677612,1.9107700611446399,1684,-11.6,98,GPS_Atti,
0.30798089174093896,36.8793853098125,26300,2017-11-14 13:55:57,1886.6284294720947,118.30000378560001,0.5075995797636,1.8895500604656001,1886.6284294720947,118.30000378560001,1.6091986677612,1.9107700611446399,1684,-11.6,98,GPS_Atti,
0.30798095333357695,36.8793852661142,26400,2017-11-14 13:55:57,1887.1284294880948,118.8000038016,0.35999970196000003,1.88831006042592,1887.1284294880948,118.8000038016,1.6091986677612,1.9107700611446399,1684,-11.6,98,GPS_Atti,
0.307981036033291,36.8793852430033,26500,2017-11-14 13:55:57,1887.7284295072945,119.40000382080001,0.35999970196000003,1.8838300602825602,1887.7284295072945,119.40000382080001,1.6091986677612,1.9107700611446399,1684,-11.6,98,GPS_Atti,
0.307981093755931,36.879385191297004,26600,2017-11-14 13:55:57,1888.2284295232946,119.90000383680001,0.35999970196000003,1.8836100602755201,1888.2284295232946,119.90000383680001,1.6091986677612,1.9107700611446399,1684,-11.6,98,GPS_Atti,
0.30798112717078696,36.8793851824475,26700,2017-11-14 13:55:57,1888.7284295392947,120.4000038528,0.0,1.88178006021696,1888.7284295392947,120.4000038528,1.6091986677612,1.9107700611446399,1684,-11.6,98,GPS_Atti,
0.307981118100354,36.879385148179004,26800,2017-11-14 13:55:57,1889.3284295584945,121.000003872,0.0,1.8852600603283203,1889.3284295584945,121.000003872,1.6091986677612,1.9107700611446399,1684,-11.6,98,GPS_Atti,
0.3079810970747,36.879385071639206,27000,2017-11-14 13:55:58,1890.3284295904946,122.000003904,0.0,1.89308006057856,1890.3284295904946,122.000003904,1.6091986677612,1.9107700611446399,1684,-11.6,98,GPS_Atti,
0.307981110578572,36.879384956515395,27200,2017-11-14 13:55:58,1891.4284296256947,123.10000393920001,0.0,1.9014500608464,1891.4284296256947,123.10000393920001,1.6091986677612,1.9107700611446399,1684,-11.6,98,GPS_Atti,
0.307981114035758,36.8793849452977,27300,2017-11-14 13:55:58,1891.9284296416947,123.60000395520002,0.0,1.90211006086752,1891.9284296416947,123.60000395520002,1.6091986677612,1.9107700611446399,1684,-11.6,98,GPS_Atti,
0.307981101449514,36.879384930364104,27400,2017-11-14 13:55:58,1892.4284296576946,124.10000397120001,0.0,1.9042800609369601,1892.4284296576946,124.10000397120001,1.6091986677612,1.9107700611446399,1684,-11.6,98,GPS_Atti,
0.307981101460914,36.8793849452389,27500,2017-11-14 13:55:58,1892.9284296736948,124.60000398720001,0.0,1.90306006089792,1892.9284296736948,124.60000398720001,1.6091986677612,1.9107700611446399,1684,-11.6,98,GPS_Atti,
0.307981077466606,36.879384958265796,27600,2017-11-14 13:55:58,1893.4284296896947,125.10000400320001,0.0,1.90381006092192,1893.4284296896947,125.10000400320001,1.6091986677612,1.9107700611446399,1684,-11.6,98,GPS_Atti,
0.30798105460569397,36.8793849919166,27700,2017-11-14 13:55:58,1893.9284297056945,125.60000401920001,0.0,1.9027900608892803,1893.9284297056945,125.60000401920001,1.6091986677612,1.9107700611446399,1684,-11.6,98,GPS_Atti,
0.307981024236842,36.879385017084104,27800,2017-11-14 13:55:58,1894.4284297216948,126.10000403520002,0.35999970196000003,1.9030400608972802,1894.4284297216948,126.10000403520002,1.6091986677612,1.9107700611446399,1684,-11.6,98,GPS_Atti,
0.307981004711799,36.8793850574678,27900,2017-11-14 13:55:58,1894.8284297344946,126.50000404800002,0.35999970196000003,1.9012400608396802,1894.8284297344946,126.50000404800002,1.6091986677612,1.9107700611446399,1684,-11.6,98,GPS_Atti,
0.30798095596921304,36.8793850991984,28000,2017-11-14 13:55:59,1895.3284297504947,127.000004064,0.35999970196000003,1.90157006085024,1895.3284297504947,127.000004064,1.6091986677612,1.9107700611446399,1684,-11.6,98,GPS_Atti,
0.30798091432827196,36.8793851748409,28100,2017-11-14 13:55:59,1895.8284297664945,127.50000408000001,0.35999970196000003,1.8986500607568,1895.8284297664945,127.50000408000001,1.6091986677612,1.9107700611446399,1684,-11.6,98,GPS_Atti,
0.307980812763034,36.87938533305179,28300,2017-11-14 13:55:59,1896.8284297984947,128.50000411200003,0.35999970196000003,1.89381006060192,1896.8284297984947,128.50000411200003,1.6091986677612,1.9107700611446399,1684,-11.6,98,GPS_Atti,
0.307980757794093,36.8793853944191,28400,2017-11-14 13:55:59,1897.3284298144947,129.000004128,0.35999970196000003,1.89321006058272,1897.3284298144947,129.000004128,1.6091986677612,1.9107700611446399,1684,-11.6,98,GPS_Atti,
0.30798072202613397,36.8793854635407,28500,2017-11-14 13:55:59,1897.9284298336947,129.6000041472,0.35999970196000003,1.8905300604969602,1897.9284298336947,129.6000041472,1.6091986677612,1.9107700611446399,1684,-11.6,98,GPS_Atti,
0.30798064629941696,36.8793855075816,28600,2017-11-14 13:55:59,1898.4284298496946,130.1000041632,0.35999970196000003,1.8930000605760002,1898.4284298496946,130.1000041632,1.6091986677612,1.9107700611446399,1684,-11.6,98,GPS_Atti,
0.307980582866638,36.8793855665283,28700,2017-11-14 13:55:59,1898.9284298656946,130.6000041792,0.35999970196000003,1.89339006058848,1898.9284298656946,130.6000041792,1.6091986677612,1.9107700611446399,1684,-11.6,98,GPS_Atti,
0.30798050106256797,36.879385624410894,28800,2017-11-14 13:55:59,1899.4284298816947,131.1000041952,0.35999970196000003,1.8953600606515202,1899.4284298816947,131.1000041952,1.6091986677612,1.9107700611446399,1684,-11.6,98,GPS_Atti,
0.307980452683126,36.879385702551204,28900,2017-11-14 13:55:59,1899.9284298976947,131.6000042112,0.35999970196000003,1.8931600605811203,1899.9284298976947,131.6000042112,1.6091986677612,1.9107700611446399,1417,-11.6,98,GPS_Atti,
0.307980324129685,36.8793858195475,29100,2017-11-14 13:56:00,1900.9284299296949,132.6000042432,0.35999970196000003,1.89449006062368,1900.9284299296949,132.6000042432,1.6091986677612,1.9107700611446399,1089,-11.6,98,GPS_Atti,
0.30798022330050395,36.8793858666609,29200,2017-11-14 13:56:00,1901.4284299456947,133.1000042592,0.0,1.8990700607702402,1901.4284299456947,133.1000042592,1.6091986677612,1.9107700611446399,719,-11.6,98,GPS_Atti,
