latitude,longitude,time_millisecond,datetime_utc,altitude_m,ascent_m,speed_kph,distance_m,max_altitude_m,max_ascent_m,max_speed_kph,max_distance_m,rc_throttle,gimbal_pitch_degrees,battery_percent,flycState,message
0.350064526826365,36.914646803579295,100,2017-11-12 05:49:25,1650.2275919072679,0.0,0.0,0.0,1650.2275919072679,0.0,0.0,0.0,1024,0.0,100,Motors_Started,
0.35006449217210905,36.914646774053004,200,2017-11-12 05:49:25,1650.2275919072679,0.0,0.0,0.005062850162011199,1650.2275919072679,0.0,0.0,0.005062850162011199,1024,0.0,100,Motors_Started,
0.35006445083003807,36.9146467698664,300,2017-11-12 05:49:25,1650.2275919072679,0.0,0.0,0.00924547029585504,1650.2275919072679,0.0,0.0,0.00924547029585504,1024,0.0,100,Motors_Started,
0.35006440554555496,36.914646764111794,400,2017-11-12 05:49:25,1650.2275919072679,0.0,0.0,0.014183300453865599,1650.2275919072679,0.0,0.0,0.014183300453865599,1024,0.0,100,Motors_Started,
0.350064353311433,36.9146467819231,500,2017-11-12 05:49:25,1650.2275919072679,0.0,0.0,0.0194456006222592,1650.2275919072679,0.0,0.0,0.0194456006222592,916,0.0,100,Motors_Started,
0.35006430128397,36.9146467902838,600,2017-11-12 05:49:25,1650.2275919072679,0.0,0.0,0.0251252008040064,1650.2275919072679,0.0,0.0,0.0251252008040064,1024,0.0,100,Motors_Started,
0.35006426632183796,36.9146467957025,700,2017-11-12 05:49:25,1650.2275919072679,0.0,0.0,0.0289829009274528,1650.2275919072679,0.0,0.0,0.0289829009274528,1024,0.0,100,Motors_Started,
0.350064239948373,36.9146467815506,800,2017-11-12 05:49:26,1650.2275919072679,0.0,0.0,0.031996501023888,1650.2275919072679,0.0,0.0,0.031996501023888,1024,0.0,100,Motors_Started,
0.3500642108246189,36.914646758345704,900,2017-11-12 05:49:26,1650.2275919072679,0.0,0.0,0.035499501135984,1650.2275919072679,0.0,0.0,0.035499501135984,1024,0.0,100,Motors_Started,
0.350064174155877,36.914646728623794,1000,2017-11-12 05:49:26,1650.2275919072679,0.0,0.0,0.0400951012830432,1650.2275919072679,0.0,0.0,0.0400951012830432,1024,0.0,100,Motors_Started,
0.350064134658324,36.9146467103695,1100,2017-11-12 05:49:26,1650.2275919072679,0.0,0.0,0.04482630143444161,1650.2275919072679,0.0,0.0,0.04482630143444161,1024,0.0,100,Motors_Started,
0.350064092044692,36.9146466939471,1200,2017-11-12 05:49:26,1650.2275919072679,0.0,0.0,0.0498637015956384,1650.2275919072679,0.0,0.0,0.0498637015956384,1024,0.0,100,Motors_Started,
0.35006406487451097,36.914646673631296,1300,2017-11-12 05:49:26,1650.2275919072679,0.0,0.0,0.05336560170769921,1650.2275919072679,0.0,0.0,0.05336560170769921,1024,0.0,100,Motors_Started,
0.35006404483350606,36.9146466410278,1400,2017-11-12 05:49:26,1650.2275919072679,0.0,0.0,0.056566501810128,1650.2275919072679,0.0,0.0,0.056566501810128,1024,0.0,100,Motors_Started,
0.350064021206513,36.914646622736605,1500,2017-11-12 05:49:26,1650.2275919072679,0.0,0.0,0.05971620191091841,1650.2275919072679,0.0,0.0,0.05971620191091841,1024,0.0,100,Assisted_Takeoff,
0.350063987903307,36.9146466060149,1600,2017-11-12 05:49:26,1650.2275919072679,0.0,0.0,0.0638316020426112,1650.2275919072679,0.0,0.0,0.0638316020426112,1024,0.0,100,Assisted_Takeoff,
0.350063948845587,36.914646581948205,1700,2017-11-12 05:49:26,1650.2275919072679,0.0,0.0,0.06883830220282561,1650.2275919072679,0.0,0.0,0.06883830220282561,1024,0.0,100,Assisted_Takeoff,
0.350063904949148,36.9146465488643,1800,2017-11-12 05:49:27,1650.2275919072679,0.0,0.0,0.07473250239144001,1650.2275919072679,0.0,0.0,0.07473250239144001,1024,0.0,100,Assisted_Takeoff,
0.35006385484080704,36.9146465046907,1900,2017-11-12 05:49:27,1650.2275919072679,0.0,0.0,0.0817872026171904,1650.2275919072679,0.0,0.0,0.0817872026171904,1024,0.0,100,Assisted_Takeoff,
0.35006380419935396,36.9146464602841,2000,2017-11-12 05:49:27,1650.2275919072679,0.0,0.0,0.08896740284695681,1650.2275919072679,0.0,0.0,0.08896740284695681,1024,0.0,100,Assisted_Takeoff,
0.35006374868641,36.9146464260854,2100,2017-11-12 05:49:27,1650.2275919072679,0.0,0.0,0.0961787030777184,1650.2275919072679,0.0,0.0,0.0961787030777184,1024,0.0,100,Assisted_Takeoff,
0.350063695000479,36.9146464044681,2200,2017-11-12 05:49:27,1650.2275919072679,0.0,0.0,0.1026000032832,1650.2275919072679,0.0,0.0,0.1026000032832,1024,0.0,100,Assisted_Takeoff,
0.350063637198453,36.9146463966901,2300,2017-11-12 05:49:27,1650.2275919072679,0.0,0.0,0.108788003481216,1650.2275919072679,0.0,0.0,0.108788003481216,1024,0.0,100,Assisted_Takeoff,
0.35006358171950297,36.914646391607796,2400,2017-11-12 05:49:27,1650.2275919072679,0.0,0.0,0.11465200366886401,1650.2275919072679,0.0,0.0,0.11465200366886401,1024,0.0,100,Assisted_Takeoff,
0.35006354588630495,36.9146464003336,2500,2017-11-12 05:49:27,1650.2275919072679,0.0,0.0,0.117944003774208,1650.2275919072679,0.0,0.0,0.117944003774208,1024,0.0,100,Assisted_Takeoff,
0.35006352001012697,36.914646404949295,2600,2017-11-12 05:49:27,1650.2275919072679,0.0,0.0,0.12042000385344,1650.2275919072679,0.0,0.0,0.12042000385344,1024,0.0,100,Assisted_Takeoff,
0.350063494133236,36.9146464192059,2700,2017-11-12 05:49:27,1650.2275919072679,0.0,0.0,0.122538003921216,1650.2275919072679,0.0,0.0,0.122538003921216,1024,0.0,100,Assisted_Takeoff,
0.350063458704808,36.914646428922794,2800,2017-11-12 05:49:28,1650.2275919072679,0.0,0.0,0.125877004028064,1650.2275919072679,0.0,0.0,0.125877004028064,1024,0.0,100,Assisted_Takeoff,
0.3500634206344339,36.914646445321495,2900,2017-11-12 05:49:28,1650.2275919072679,0.0,0.0,0.12930600413779203,1650.2275919072679,0.0,0.0,0.12930600413779203,1024,0.0,100,Assisted_Takeoff,
0.350063376421975,36.914646456898105,3000,2017-11-12 05:49:28,1650.2275919072679,0.0,0.0,0.13361500427568,1650.2275919072679,0.0,0.0,0.13361500427568,1024,0.0,100,Assisted_Takeoff,
0.35006334983457393,36.9146464716921,3100,2017-11-12 05:49:28,1650.2275919072679,0.0,0.0,0.13599300435177603,1650.2275919072679,0.0,0.0,0.13599300435177603,1024,0.0,100,Assisted_Takeoff,
0.350063329815908,36.9146464825642,3200,2017-11-12 05:49:28,1650.2275919072679,0.0,0.0,0.137818004410176,1650.2275919072679,0.0,0.0,0.137818004410176,1024,0.0,100,Assisted_Takeoff,
0.350063329572659,36.9146464939371,3300,2017-11-12 05:49:28,1650.2275919072679,0.0,0.0,0.13752200440070403,1650.2275919072679,0.0,0.0,0.137818004410176,1024,0.0,100,Assisted_Takeoff,
0.35006332602550105,36.9146465031436,3400,2017-11-12 05:49:28,1650.2275919072679,0.0,0.0,0.137652004404864,1650.2275919072679,0.0,0.0,0.137818004410176,1024,0.0,100,Assisted_Takeoff,
0.350063320097456,36.9146465107509,3500,2017-11-12 05:49:28,1650.2275919072679,0.0,0.0,0.13809000441888,1650.2275919072679,0.0,0.0,0.13809000441888,1024,0.0,100,Assisted_Takeoff,
0.350063296061928,36.9146465179192,3600,2017-11-12 05:49:28,1650.2275919072679,0.0,0.0,0.140507004496224,1650.2275919072679,0.0,0.0,0.140507004496224,1024,0.0,100,Assisted_Takeoff,
0.350063285699732,36.914646522081206,3700,2017-11-12 05:49:28,1650.2275919072679,0.0,0.0,0.141526004528832,1650.2275919072679,0.0,0.0,0.141526004528832,1024,0.0,100,Assisted_Takeoff,
0.35006327581599295,36.9146465276222,3800,2017-11-12 05:49:29,1650.2275919072679,0.0,0.0,0.142464004558848,1650.2275919072679,0.0,0.0,0.142464004558848,1024,0.0,100,Assisted_Takeoff,
0.3500632588346811,36.9146465302184,3900,2017-11-12 05:49:29,1650.2275919072679,0.0,0.0,0.14424800461593598,1650.2275919072679,0.0,0.0,0.14424800461593598,1024,0.0,100,Assisted_Takeoff,
0.350063228131082,36.914646534360706,4000,2017-11-12 05:49:29,1650.2275919072679,0.0,0.0,0.147493004719776,1650.2275919072679,0.0,0.0,0.147493004719776,1024,0.0,100,Assisted_Takeoff,
0.350063188543608,36.91464653476079,4100,2017-11-12 05:49:29,1650.2275919072679,0.0,0.0,0.151798004857536,1650.2275919072679,0.0,0.0,0.151798004857536,1024,0.0,100,Assisted_Takeoff,
0.350063143993858,36.91464653767979,4200,2017-11-12 05:49:29,1650.2275919072679,0.0,0.0,0.15659600501107201,1650.2275919072679,0.0,0.0,0.15659600501107201,1024,0.0,100,Assisted_Takeoff,
0.350063090246657,36.914646536431,4300,2017-11-12 05:49:29,1650.2275919072679,0.0,0.0,0.16249500519984,1650.2275919072679,0.0,0.0,0.16249500519984,1024,0.0,100,Assisted_Takeoff,
0.35006303666291105,36.914646538175795,4400,2017-11-12 05:49:29,1650.2275919072679,0.0,0.0,0.16832300538633602,1650.2275919072679,0.0,0.0,0.16832300538633602,1024,0.0,100,Assisted_Takeoff,
0.35006297563025496,36.914646535810796,4500,2017-11-12 05:49:29,1650.2275919072679,0.0,0.0,0.17505400560172804,1650.2275919072679,0.0,0.0,0.17505400560172804,1024,0.0,100,Assisted_Takeoff,
0.35006291742050605,36.9146465374151,4600,2017-11-12 05:49:29,1650.2275919072679,0.0,0.0,0.181407005805024,1650.2275919072679,0.0,0.0,0.181407005805024,1024,0.0,100,Assisted_Takeoff,
0.35006285390304803,36.9146465349666,4700,2017-11-12 05:49:29,1650.2275919072679,0.0,0.0,0.188422006029504,1650.2275919072679,0.0,0.0,0.188422006029504,1024,0.0,100,Assisted_Takeoff,
0.35006279403819,36.9146465356202,4800,2017-11-12 05:49:30,1650.2275919072679,0.0,0.0,0.194987006239584,1650.2275919072679,0.0,0.0,0.194987006239584,1024,0.0,100,Assisted_Takeoff,
0.350062750389174,36.9146465317216,4900,2017-11-12 05:49:30,1650.2275919072679,0.0,0.0,0.19985000639519998,1650.2275919072679,0.0,0.0,0.19985000639519998,1024,0.0,100,Assisted_Takeoff,
0.350062720126985,36.9146465315361,5000,2017-11-12 05:49:30,1650.2275919072679,0.0,0.0,0.20318100650179202,1650.2275919072679,0.0,0.0,0.20318100650179202,1024,0.0,100,Assisted_Takeoff,
0.350062691172233,36.9146465271854,5100,2017-11-12 05:49:30,1650.2275919072679,0.0,0.0,0.20643700660598402,1650.2275919072679,0.0,0.0,0.20643700660598402,1024,0.0,100,Assisted_Takeoff,
0.35006265034591993,36.9146465266016,5200,2017-11-12 05:49:30,1650.2275919072679,0.0,0.0,0.21093700674998403,1650.2275919072679,0.0,0.0,0.21093700674998403,1024,0.0,100,Assisted_Takeoff,
0.350062628335261,36.9146465427463,5300,2017-11-12 05:49:30,1650.2275919072679,0.0,0.0,0.21310700681942402,1650.2275919072679,0.0,0.0,0.21310700681942402,1024,0.0,100,Assisted_Takeoff,
0.350062611991179,36.914646572316705,5400,2017-11-12 05:49:30,1650.2275919072679,0.0,0.0,0.21448900686364802,1650.2275919072679,0.0,0.0,0.21448900686364802,1024,0.0,100,Assisted_Takeoff,
0.350062617176145,36.9146466016029,5500,2017-11-12 05:49:30,1650.2275919072679,0.0,0.0,0.213549006833568,1650.2275919072679,0.0,0.0,0.21448900686364802,1024,0.0,100,Assisted_Takeoff,
0.350062614330235,36.914646621878795,5600,2017-11-12 05:49:30,1650.2275919072679,0.0,0.0,0.21363900683644801,1650.2275919072679,0.0,0.0,0.21448900686364802,1025,0.0,100,Assisted_Takeoff,
0.350062609076875,36.9146466373966,5700,2017-11-12 05:49:30,1650.2275919072679,0.0,0.0,0.21406500685008,1650.2275919072679,0.0,0.0,0.21448900686364802,1031,0.0,100,Assisted_Takeoff,
0.350062585157272,36.914646649309,5800,2017-11-12 05:49:31,1650.2275919072679,0.0,0.0,0.216606006931392,1650.2275919072679,0.0,0.0,0.216606006931392,1027,0.0,100,Assisted_Takeoff,
0.350062555475826,36.9146466541806,5900,2017-11-12 05:49:31,1650.2275919072679,0.0,0.0,0.21985500703535998,1650.2275919072679,0.0,0.0,0.21985500703535998,1024,0.0,100,Assisted_Takeoff,
0.350062514670277,36.9146466601482,6000,2017-11-12 05:49:31,1650.2275919072679,0.0,0.0,0.22433200717862398,1650.2275919072679,0.0,0.0,0.22433200717862398,1024,0.0,100,Assisted_Takeoff,
0.35006246713721806,36.9146466596729,6100,2017-11-12 05:49:31,1650.2275919072679,0.0,0.0,0.229608007347456,1650.2275919072679,0.0,0.0,0.229608007347456,1024,0.0,100,Assisted_Takeoff,
0.350062416540445,36.914646661295706,6200,2017-11-12 05:49:31,1650.2275919072679,0.0,0.0,0.23520900752668805,1650.2275919072679,0.0,0.0,0.23520900752668805,1024,0.0,100,Assisted_Takeoff,
0.350062378815708,36.914646656768,6300,2017-11-12 05:49:31,1650.2275919072679,0.0,0.0,0.239429007661728,1650.2275919072679,0.0,0.0,0.239429007661728,1036,0.0,100,Assisted_Takeoff,
0.350062351806539,36.9146466560986,6400,2017-11-12 05:49:31,1650.2275919072679,0.0,0.0,0.242431007757792,1650.2275919072679,0.0,0.0,0.242431007757792,1066,0.0,100,Assisted_Takeoff,
0.350062322566199,36.914646650498,6500,2017-11-12 05:49:31,1650.2275919072679,0.0,0.0,0.24571800786297598,1650.2275919072679,0.0,0.0,0.24571800786297598,1102,0.0,100,Assisted_Takeoff,
0.35006228256652505,36.9146466491782,6600,2017-11-12 05:49:31,1650.2275919072679,0.0,0.0,0.25016500800528,1650.2275919072679,0.0,0.0,0.25016500800528,1137,0.0,100,Assisted_Takeoff,
0.35006223912656004,36.9146466443267,6700,2017-11-12 05:49:31,1650.2275919072679,0.0,0.0,0.25502200816070403,1650.2275919072679,0.0,0.0,0.25502200816070403,1192,0.0,100,Assisted_Takeoff,
0.35006219113367,36.9146466433286,6800,2017-11-12 05:49:32,1650.2275919072679,0.0,0.0,0.26035400833132805,1650.2275919072679,0.0,0.0,0.26035400833132805,1251,0.0,100,Assisted_Takeoff,
0.35006213983015194,36.9146466393205,6900,2017-11-12 05:49:32,1650.2275919072679,0.0,0.0,0.266076008514432,1650.2275919072679,0.0,0.0,0.266076008514432,1310,0.0,100,Assisted_Takeoff,
0.350062087035184,36.9146466401735,7000,2017-11-12 05:49:32,1650.2275919072679,0.0,0.0,0.271927008701664,1650.2275919072679,0.0,0.0,0.271927008701664,1384,0.0,100,Assisted_Takeoff,
0.35006201197612896,36.914646641109705,7100,2017-11-12 05:49:32,1650.2275919072679,0.0,0.0,0.280250008968,1650.2275919072679,0.0,0.0,0.280250008968,1441,0.0,100,Assisted_Takeoff,
0.35006192634399397,36.9146466703319,7200,2017-11-12 05:49:32,1650.2275919072679,0.0,0.0,0.289569009266208,1650.2275919072679,0.0,0.0,0.289569009266208,1512,0.0,100,Assisted_Takeoff,
0.35006183496772697,36.9146467573675,7300,2017-11-12 05:49:32,1650.2275919072679,0.0,0.35999970196000003,0.29939500958064,1650.2275919072679,0.0,0.35999970196000003,0.29939500958064,1568,0.0,100,GPS_Atti,Obstacle Avoided. Revise Flight Route
0.350061749551768,36.9146468931799,7400,2017-11-12 05:49:32,1650.2275919072679,0.0,0.35999970196000003,0.309011009888352,1650.2275919072679,0.0,0.35999970196000003,0.309011009888352,1623,0.0,100,GPS_Atti,
0.3500616613403811,36.9146470302991,7500,2017-11-12 05:49:32,1650.2275919072679,0.0,0.35999970196000003,0.31965501022896,1650.2275919072679,0.0,0.35999970196000003,0.31965501022896,1655,0.0,100,GPS_Atti,
0.350061590495333,36.9146471359634,7600,2017-11-12 05:49:32,1650.327591910468,0.10000000320000002,0.35999970196000003,0.32862301051593606,1650.327591910468,0.10000000320000002,0.35999970196000003,0.32862301051593606,1663,0.0,100,GPS_Atti,
0.3500615558045901,36.914647202593606,7700,2017-11-12 05:49:32,1650.427591913668,0.20000000640000004,0.0,0.33336201066758403,1650.427591913668,0.20000000640000004,0.35999970196000003,0.33336201066758403,1664,0.0,100,GPS_Atti,
0.35006154900115505,36.914647230657,7800,2017-11-12 05:49:33,1650.6275919200682,0.4000000128000001,0.0,0.33454101070531195,1650.6275919200682,0.4000000128000001,0.35999970196000003,0.33454101070531195,1657,0.0,100,GPS_Atti,
0.350061587959845,36.914647214165605,7900,2017-11-12 05:49:33,1650.827591926468,0.6000000192,0.0,0.3299940105598081,1650.827591926468,0.6000000192,0.35999970196000003,0.33454101070531195,1639,0.0,100,GPS_Atti,
0.35006164117882,36.914647159453395,8000,2017-11-12 05:49:33,1651.127591936068,0.9000000288000001,0.0,0.323333010346656,1651.127591936068,0.9000000288000001,0.35999970196000003,0.33454101070531195,1635,0.0,100,GPS_Atti,Setting new Return-To-Home altitude to 30m (98 ft). Setting new Maximum Flight Altitude to 150m (492 ft)
0.350061746378745,36.914647033916204,8100,2017-11-12 05:49:33,1651.4275919456682,1.2000000384,0.0,0.310262009928384,1651.4275919456682,1.2000000384,0.35999970196000003,0.33454101070531195,1606,0.0,100,GPS_Atti,Home Point Recorded. RTH Altitude:  30m.
0.35006184712202604,36.914646871796705,8200,2017-11-12 05:49:33,1651.827591958468,1.6000000512000003,0.35999970196000003,0.298096009539072,1651.827591958468,1.6000000512000003,0.35999970196000003,0.33454101070531195,1601,0.0,100,GPS_Atti,
0.350062006292656,36.914646665566394,8300,2017-11-12 05:49:33,1652.227591971268,2.000000064,0.35999970196000003,0.280719008983008,1652.227591971268,2.000000064,0.35999970196000003,0.33454101070531195,1602,0.0,100,GPS_Atti,
0.350062152357568,36.914646465695,8400,2017-11-12 05:49:33,1652.627591984068,2.4000000768,0.35999970196000003,0.26671500853488,1652.627591984068,2.4000000768,0.35999970196000003,0.33454101070531195,1605,0.0,100,GPS_Atti,
0.35006238139312795,36.9146462533101,8500,2017-11-12 05:49:33,1653.027591996868,2.8000000896000006,0.0,0.24630800788185597,1653.027591996868,2.8000000896000006,0.35999970196000003,0.33454101070531195,1595,0.0,100,GPS_Atti,
0.35006260377751097,36.9146460537458,8600,2017-11-12 05:49:33,1653.527592012868,3.3000001056,0.0,0.22953600734515198,1653.527592012868,3.3000001056,0.35999970196000003,0.33454101070531195,1594,0.0,100,GPS_Atti,
0.350062894848644,36.9146458532966,8700,2017-11-12 05:49:33,1653.927592025668,3.7000001184,0.35999970196000003,0.21001000672032002,1653.927592025668,3.7000001184,0.35999970196000003,0.33454101070531195,1597,0.0,100,GPS_Atti,
0.350063162709158,36.9146456837187,8800,2017-11-12 05:49:34,1654.4275920416678,4.2000001344,0.35999970196000003,0.19626700628054403,1654.4275920416678,4.2000001344,0.35999970196000003,0.33454101070531195,1612,0.0,100,GPS_Atti,
0.350063450684212,36.9146455008889,8900,2017-11-12 05:49:34,1654.827592054468,4.6000001472,0.0,0.187903006012896,1654.827592054468,4.6000001472,0.35999970196000003,0.33454101070531195,1621,0.0,100,GPS_Atti,
0.35006364689095104,36.9146453207999,9000,2017-11-12 05:49:34,1655.227592067268,5.00000016,0.0,0.191741006135712,1655.227592067268,5.00000016,0.35999970196000003,0.33454101070531195,1631,0.0,100,GPS_Atti,
0.35006382973254196,36.9146451541804,9100,2017-11-12 05:49:34,1655.727592083268,5.500000176000001,0.0,0.19912900637212802,1655.727592083268,5.500000176000001,0.35999970196000003,0.33454101070531195,1627,0.0,100,GPS_Atti,
0.35006396566191694,36.914645014901204,9200,2017-11-12 05:49:34,1656.127592096068,5.9000001888,0.0,0.208468006670976,1656.127592096068,5.9000001888,0.35999970196000003,0.33454101070531195,1621,0.0,100,GPS_Atti,
0.350064069566008,36.91464487938921,9300,2017-11-12 05:49:34,1656.527592108868,6.300000201600001,0.0,0.21993700703798402,1656.527592108868,6.300000201600001,0.35999970196000003,0.33454101070531195,1626,0.0,100,GPS_Atti,
0.350064120005432,36.9146447370114,9400,2017-11-12 05:49:34,1656.9275921216679,6.7000002144,0.0,0.234221007495072,1656.9275921216679,6.7000002144,0.35999970196000003,0.33454101070531195,1634,0.0,100,GPS_Atti,
0.350064148802225,36.9146445575179,9500,2017-11-12 05:49:34,1657.427592137668,7.200000230400001,0.35999970196000003,0.253284008105088,1657.427592137668,7.200000230400001,0.35999970196000003,0.33454101070531195,1635,0.0,100,GPS_Atti,
0.350064191991562,36.914644362451504,9600,2017-11-12 05:49:34,1657.8275921504678,7.600000243199999,0.35999970196000003,0.27400500876816003,1657.8275921504678,7.600000243199999,0.35999970196000003,0.33454101070531195,1637,0.0,100,GPS_Atti,
0.350064249709877,36.914644166995394,9700,2017-11-12 05:49:34,1658.227592163268,8.000000256,0.5075995797636,0.294814009434048,1658.227592163268,8.000000256,0.5075995797636,0.33454101070531195,1669,0.0,100,GPS_Atti,
0.35006433184085695,36.9146439926096,9800,2017-11-12 05:49:35,1658.727592179268,8.500000272000001,0.35999970196000003,0.313342010026944,1658.727592179268,8.500000272000001,0.5075995797636,0.33454101070531195,1684,0.0,100,GPS_Atti,
0.35006439270639395,36.914643840359396,9900,2017-11-12 05:49:35,1659.127592192068,8.9000002848,0.35999970196000003,0.32985901055548805,1659.127592192068,8.9000002848,0.5075995797636,0.33454101070531195,1684,0.0,100,GPS_Atti,
0.35006444228579603,36.9146437265164,10000,2017-11-12 05:49:35,1659.6275922080679,9.400000300800002,0.0,0.342311010953952,1659.6275922080679,9.400000300800002,0.5075995797636,0.342311010953952,1684,0.0,100,GPS_Atti,
0.35006445566768796,36.914643630000796,10100,2017-11-12 05:49:35,1660.027592220868,9.8000003136,0.0,0.35300301129609607,1660.027592220868,9.8000003136,0.5075995797636,0.35300301129609607,1684,0.0,100,GPS_Atti,
0.350064457222953,36.9146435491056,10200,2017-11-12 05:49:35,1660.5275922368678,10.300000329600001,0.0,0.36199301158377606,1660.5275922368678,10.300000329600001,0.5075995797636,0.36199301158377606,1684,0.0,100,GPS_Atti,
0.35006441338635996,36.9146434811626,10300,2017-11-12 05:49:35,1661.027592252868,10.800000345599999,0.0,0.369681011829792,1661.027592252868,10.800000345599999,0.5075995797636,0.369681011829792,1684,0.0,100,GPS_Atti,
0.350064352275234,36.9146434315213,10400,2017-11-12 05:49:35,1661.527592268868,11.3000003616,0.0,0.37548801201561605,1661.527592268868,11.3000003616,0.5075995797636,0.37548801201561605,1684,0.0,100,GPS_Atti,
0.35006423160682104,36.914643405159005,10500,2017-11-12 05:49:35,1662.027592284868,11.8000003776,0.0,0.379341012138912,1662.027592284868,11.8000003776,0.5075995797636,0.379341012138912,1684,0.0,100,GPS_Atti,
0.350064099036722,36.9146434184609,10600,2017-11-12 05:49:35,1662.527592300868,12.300000393600001,0.0,0.37943301214185604,1662.527592300868,12.300000393600001,0.5075995797636,0.37943301214185604,1684,0.0,100,GPS_Atti,
0.350063950661912,36.914643482070495,10700,2017-11-12 05:49:35,1663.027592316868,12.800000409600003,0.35999970196000003,0.37488101199619195,1663.027592316868,12.800000409600003,0.5075995797636,0.37943301214185604,1684,0.0,100,GPS_Atti,
0.350063819769518,36.914643556944604,10800,2017-11-12 05:49:36,1663.527592332868,13.3000004256,0.35999970196000003,0.369502011824064,1663.527592332868,13.3000004256,0.5075995797636,0.37943301214185604,1684,0.0,100,GPS_Atti,
0.3500636698813239,36.9146436100194,10900,2017-11-12 05:49:36,1664.0275923488682,13.8000004416,0.35999970196000003,0.367701011766432,1664.0275923488682,13.8000004416,0.5075995797636,0.37943301214185604,1684,0.0,100,GPS_Atti,
0.350063514197498,36.9146436288906,11000,2017-11-12 05:49:36,1664.527592364868,14.300000457600001,0.0,0.37056301185801604,1664.527592364868,14.300000457600001,0.5075995797636,0.37943301214185604,1684,0.0,100,GPS_Atti,
0.350063340604859,36.9146436261477,11100,2017-11-12 05:49:36,1665.0275923808679,14.8000004736,0.0,0.37716401206924804,1665.0275923808679,14.8000004736,0.5075995797636,0.37943301214185604,1684,0.0,100,GPS_Atti,
0.350063161667158,36.9146436197106,11200,2017-11-12 05:49:36,1665.527592396868,15.3000004896,0.0,0.385234012327488,1665.527592396868,15.3000004896,0.5075995797636,0.385234012327488,1684,0.0,100,GPS_Atti,
0.35006296422768707,36.9146436395438,11300,2017-11-12 05:49:36,1666.027592412868,15.8000005056,0.0,0.39242501255760004,1666.027592412868,15.8000005056,0.5075995797636,0.39242501255760004,1684,0.0,100,GPS_Atti,
0.350062747060024,36.9146436809424,11400,2017-11-12 05:49:36,1666.6275924320678,16.400000524800003,0.0,0.39969401279020805,1666.6275924320678,16.400000524800003,0.5075995797636,0.39969401279020805,1684,0.0,100,GPS_Atti,
0.35006249811470097,36.914643739423205,11500,2017-11-12 05:49:36,1667.127592448068,16.900000540799997,0.0,0.4086630130772161,1667.127592448068,16.900000540799997,0.5075995797636,0.4086630130772161,1684,-0.9,100,GPS_Atti,
0.350062213836418,36.914643821683,11600,2017-11-12 05:49:36,1667.627592464068,17.400000556800002,0.0,0.419666013429312,1667.627592464068,17.400000556800002,0.5075995797636,0.419666013429312,1684,-2.0,100,GPS_Atti,
0.350061884736232,36.91464391686829,11700,2017-11-12 05:49:36,1668.127592480068,17.9000005728,0.0,0.4351760139256321,1668.127592480068,17.9000005728,0.5075995797636,0.4351760139256321,1684,-2.9,100,GPS_Atti,
0.350061534492126,36.914644017862294,11800,2017-11-12 05:49:37,1668.627592496068,18.4000005888,0.35999970196000003,0.4546410145485119,1668.627592496068,18.4000005888,0.5075995797636,0.4546410145485119,1684,-3.5,100,GPS_Atti,
0.350061141593982,36.9146441380406,11900,2017-11-12 05:49:37,1669.127592512068,18.900000604800002,0.35999970196000003,0.47915001533280005,1669.127592512068,18.900000604800002,0.5075995797636,0.47915001533280005,1684,-3.6,100,GPS_Atti,
0.350060745593856,36.9146442637203,12000,2017-11-12 05:49:37,1669.627592528068,19.4000006208,0.35999970196000003,0.506548016209536,1669.627592528068,19.4000006208,0.5075995797636,0.506548016209536,1684,-3.6,99,GPS_Atti,
0.35006035429301297,36.9146444046724,12100,2017-11-12 05:49:37,1670.2275925472682,20.00000064,0.35999970196000003,0.5352300171273601,1670.2275925472682,20.00000064,0.5075995797636,0.5352300171273601,1684,-3.6,99,GPS_Atti,
0.35005999219057693,36.9146445378742,12200,2017-11-12 05:49:37,1670.727592563268,20.500000655999997,0.35999970196000003,0.563719018039008,1670.727592563268,20.500000655999997,0.5075995797636,0.563719018039008,1684,-3.6,99,GPS_Atti,
0.35005960831258803,36.9146446566921,12300,2017-11-12 05:49:37,1671.2275925792678,21.000000672,0.35999970196000003,0.5968020190976641,1671.2275925792678,21.000000672,0.5075995797636,0.5968020190976641,1684,-3.6,99,GPS_Atti,
0.35005923078878803,36.914644750503,12400,2017-11-12 05:49:37,1671.727592595268,21.500000688,0.35999970196000003,0.6316560202129919,1671.727592595268,21.500000688,0.5075995797636,0.6316560202129919,1684,-3.6,99,GPS_Atti,
0.35005882230012497,36.914644854078205,12500,2017-11-12 05:49:37,1672.227592611268,22.000000704000005,0.35999970196000003,0.670399021452768,1672.227592611268,22.000000704000005,0.5075995797636,0.670399021452768,1684,-3.6,99,GPS_Atti,
0.350058431756915,36.9146449602157,12600,2017-11-12 05:49:37,1672.727592627268,22.50000072,0.35999970196000003,0.7081280226600961,1672.727592627268,22.50000072,0.5075995797636,0.7081280226600961,1684,-3.6,99,GPS_Atti,
0.350058034430829,36.9146450710114,12700,2017-11-12 05:49:37,1673.227592643268,23.000000735999997,0.35999970196000003,0.7472590239122879,1673.227592643268,23.000000735999997,0.5075995797636,0.7472590239122879,1684,-3.6,99,GPS_Atti,
0.35005767952123,36.9146451631942,12800,2017-11-12 05:49:38,1673.727592659268,23.500000752000002,0.35999970196000003,0.783007025056224,1673.727592659268,23.500000752000002,0.5075995797636,0.783007025056224,1684,-3.6,99,GPS_Atti,
0.35005731838690507,36.9146452765428,12900,2017-11-12 05:49:38,1674.227592675268,24.000000768000003,0.0,0.819411026221152,1674.227592675268,24.000000768000003,0.5075995797636,0.819411026221152,1684,-3.7,99,GPS_Atti,
0.350056998787672,36.9146453882574,13000,2017-11-12 05:49:38,1674.7275926912678,24.500000784000004,0.0,0.85183002725856,1674.7275926912678,24.500000784000004,0.5075995797636,0.85183002725856,1684,-3.8,99,GPS_Atti,
0.35005668120526695,36.914645505880706,13100,2017-11-12 05:49:38,1675.227592707268,25.000000800000002,0.0,0.88433502829872,1675.227592707268,25.000000800000002,0.5075995797636,0.88433502829872,1684,-4.0,99,GPS_Atti,
0.35005640342610406,36.914645609075606,13200,2017-11-12 05:49:38,1675.8275927264679,25.600000819200005,0.0,0.9130850292187199,1675.8275927264679,25.600000819200005,0.5075995797636,0.9130850292187199,1684,-4.1,99,GPS_Atti,
0.350056121548962,36.9146457465773,13300,2017-11-12 05:49:38,1676.327592742468,26.100000835200003,0.0,0.9420800301465602,1676.327592742468,26.100000835200003,0.5075995797636,0.9420800301465602,1684,-4.3,99,GPS_Atti,
0.35005587364604696,36.9146458824584,13400,2017-11-12 05:49:38,1676.8275927584677,26.6000008512,0.0,0.9677230309671361,1676.8275927584677,26.6000008512,0.5075995797636,0.9677230309671361,1684,-4.4,99,GPS_Atti,
0.350055622162183,36.9146460203819,13500,2017-11-12 05:49:38,1677.3275927744678,27.100000867200002,0.0,0.994076031810432,1677.3275927744678,27.100000867200002,0.5075995797636,0.994076031810432,1684,-4.6,99,GPS_Atti,
0.350055396620247,36.914646127875,13600,2017-11-12 05:49:38,1677.9275927936678,27.700000886400005,0.0,1.01811003257952,1677.9275927936678,27.700000886400005,0.5075995797636,1.01811003257952,1684,-4.7,99,GPS_Atti,
0.350055191074789,36.914646226783205,13700,2017-11-12 05:49:38,1678.4275928096677,28.200000902400003,0.0,1.04017003328544,1678.4275928096677,28.200000902400003,0.5075995797636,1.04017003328544,1684,-4.9,99,GPS_Atti,
0.350055016800341,36.914646357905895,13800,2017-11-12 05:49:39,1678.927592825668,28.7000009184,0.0,1.05873003387936,1678.927592825668,28.7000009184,0.5075995797636,1.05873003387936,1684,-5.0,99,GPS_Atti,
0.350054794558446,36.9146465704865,13900,2017-11-12 05:49:39,1679.4275928416678,29.200000934400002,0.0,1.0826000346431999,1679.4275928416678,29.200000934400002,0.5075995797636,1.0826000346431999,1684,-5.1,99,GPS_Atti,
0.35005458811897194,36.914646699112296,14000,2017-11-12 05:49:39,1680.0275928608678,29.8000009536,0.0,1.1053100353699201,1680.0275928608678,29.8000009536,0.5075995797636,1.1053100353699201,1684,-5.3,99,GPS_Atti,
0.35005437905444703,36.91464682663229,14100,2017-11-12 05:49:39,1680.5275928768679,30.300000969600003,0.0,1.1285000361120001,1680.5275928768679,30.300000969600003,0.5075995797636,1.1285000361120001,1684,-5.4,99,GPS_Atti,
0.350054206951529,36.914646923045105,14200,2017-11-12 05:49:39,1681.0275928928677,30.8000009856,0.0,1.1477100367267201,1681.0275928928677,30.8000009856,0.5075995797636,1.1477100367267201,1684,-5.4,99,GPS_Atti,
0.35005406057558297,36.9146470009341,14300,2017-11-12 05:49:39,1681.627592912068,31.400001004800004,0.0,1.1641200372518399,1681.627592912068,31.400001004800004,0.5075995797636,1.1641200372518399,1684,-5.6,99,GPS_Atti,
0.35005390511617696,36.914647128873206,14400,2017-11-12 05:49:39,1682.1275929280678,31.9000010208,0.0,1.181750037816,1682.1275929280678,31.9000010208,0.5075995797636,1.181750037816,1684,-5.7,99,GPS_Atti,
0.350053775908102,36.914647267041296,14500,2017-11-12 05:49:39,1682.6275929440676,32.4000010368,0.0,1.1966800382937601,1682.6275929440676,32.4000010368,0.5075995797636,1.1966800382937601,1684,-5.8,99,GPS_Atti,
0.350053679492004,36.914647389314794,14600,2017-11-12 05:49:39,1683.127592960068,32.9000010528,0.0,1.2080500386576,1683.127592960068,32.9000010528,0.5075995797636,1.2080500386576,1684,-6.0,99,GPS_Atti,
0.35005358010806703,36.9146475190362,14700,2017-11-12 05:49:39,1683.6275929760677,33.4000010688,0.0,1.21994003903808,1683.6275929760677,33.4000010688,0.5075995797636,1.21994003903808,1684,-6.1,99,GPS_Atti,
0.35005350968682103,36.9146476196082,14800,2017-11-12 05:49:40,1684.227592995268,34.000001088000005,0.0,1.22853003931296,1684.227592995268,34.000001088000005,0.5075995797636,1.22853003931296,1684,-6.2,99,GPS_Atti,
0.35005345514860303,36.914647725757206,14900,2017-11-12 05:49:40,1684.7275930112678,34.500001104,0.0,1.235500039536,1684.7275930112678,34.500001104,0.5075995797636,1.235500039536,1684,-6.4,99,GPS_Atti,
0.35005344374623804,36.914647818946904,15000,2017-11-12 05:49:40,1685.2275930272676,35.00000112,0.0,1.23767003960544,1685.2275930272676,35.00000112,0.5075995797636,1.23767003960544,1684,-6.5,99,GPS_Atti,
0.35005344378532105,36.914647934557706,15100,2017-11-12 05:49:40,1685.727593043268,35.500001136,0.0,1.2389000396448002,1685.727593043268,35.500001136,0.5075995797636,1.2389000396448002,1684,-6.7,99,GPS_Atti,
0.350053451825763,36.9146480556935,15200,2017-11-12 05:49:40,1686.2275930592677,36.000001151999996,0.35999970196000003,1.2394500396624002,1686.2275930592677,36.000001151999996,0.5075995797636,1.2394500396624002,1684,-6.8,99,GPS_Atti,
0.35005349230481,36.9146482026364,15300,2017-11-12 05:49:40,1686.7275930752678,36.500001168000004,0.35999970196000003,1.23693003958176,1686.7275930752678,36.500001168000004,0.5075995797636,1.2394500396624002,1684,-6.9,99,GPS_Atti,
0.350053584902206,36.914648361583296,15400,2017-11-12 05:49:40,1687.2275930912676,37.000001184000006,0.5075995797636,1.22908003933056,1687.2275930912676,37.000001184000006,0.5075995797636,1.2394500396624002,1684,-7.1,99,GPS_Atti,
0.35005371879938596,36.914648604152,15500,2017-11-12 05:49:40,1687.827593110468,37.60000120320001,0.8063993323904,1.2184800389913601,1687.827593110468,37.60000120320001,0.8063993323904,1.2394500396624002,1684,-7.2,99,GPS_Atti,
0.35005388165925605,36.9146488976501,15600,2017-11-12 05:49:40,1688.3275931264677,38.1000012192,1.0187991565468,1.20649003860768,1688.3275931264677,38.1000012192,1.0187991565468,1.2394500396624002,1684,-7.3,99,GPS_Atti,
0.350054077588752,36.9146492387965,15700,2017-11-12 05:49:40,1688.827593142468,38.600001235200004,1.2995989240756,1.19316003818112,1688.827593142468,38.600001235200004,1.2995989240756,1.2394500396624002,1684,-7.3,99,GPS_Atti,
0.35005434482211106,36.9146496108325,15800,2017-11-12 05:49:41,1689.3275931584678,39.100001251200005,1.5263987363104,1.1745500375856,1689.3275931584678,39.100001251200005,1.5263987363104,1.2394500396624002,1684,-7.4,99,GPS_Atti,
0.35005466927655,36.9146500619089,15900,2017-11-12 05:49:41,1689.8275931744677,39.60000126719999,1.7999985098000002,1.1545500369456,1689.8275931744677,39.60000126719999,1.7999985098000002,1.2394500396624002,1684,-7.6,99,GPS_Atti,
0.350055006579412,36.914650566857,16000,2017-11-12 05:49:41,1690.327593190468,40.10000128320001,1.7999985098000002,1.1384200364294401,1690.327593190468,40.10000128320001,1.7999985098000002,1.2394500396624002,1684,-7.7,99,GPS_Atti,
0.350055407945261,36.9146511451359,16100,2017-11-12 05:49:41,1690.8275932064678,40.6000012992,2.303998092544,1.1231400359404802,1690.8275932064678,40.6000012992,2.303998092544,1.2394500396624002,1684,-7.8,99,GPS_Atti,
0.35005584740367196,36.914651753998605,16200,2017-11-12 05:49:41,1691.4275932256676,41.200001318400005,2.303998092544,1.11116003555712,1691.4275932256676,41.200001318400005,2.303998092544,1.2394500396624002,1684,-7.9,99,GPS_Atti,
0.350056363415235,36.914652426368704,16300,2017-11-12 05:49:41,1691.8275932384677,41.600001331200005,2.8115976723076,1.10232003527424,1691.8275932384677,41.600001331200005,2.8115976723076,1.2394500396624002,1684,-8.1,99,GPS_Atti,
0.35005692697899105,36.914653127624604,16400,2017-11-12 05:49:41,1692.327593254468,42.1000013472,3.3191972520712003,1.09948003518336,1692.327593254468,42.1000013472,3.3191972520712003,1.2394500396624002,1684,-8.2,99,GPS_Atti,
0.35005758140910803,36.9146539177132,16500,2017-11-12 05:49:41,1692.8275932704678,42.60000136320001,3.3191972520712003,1.10564003538048,1692.8275932704678,42.60000136320001,3.3191972520712003,1.2394500396624002,1684,-8.3,99,GPS_Atti,
0.350058289579098,36.9146547688423,16600,2017-11-12 05:49:41,1693.3275932864676,43.1000013792,3.8267968318348005,1.12503003600096,1693.3275932864676,43.1000013792,3.8267968318348005,1.2394500396624002,1684,-8.4,99,GPS_Atti,
0.35005908572984695,36.914655720679,16700,2017-11-12 05:49:41,1693.827593302468,43.6000013952,4.334396411598401,1.1616500371728,1693.827593302468,43.6000013952,4.334396411598401,1.2394500396624002,1684,-8.5,99,GPS_Atti,
0.350059936635396,36.9146567326619,16800,2017-11-12 05:49:42,1694.3275933184677,44.100001411200004,4.841995991361999,1.21644003892608,1694.3275933184677,44.100001411200004,4.841995991361999,1.2394500396624002,1684,-8.6,99,GPS_Atti,
0.35006089426875797,36.9146578451296,16900,2017-11-12 05:49:42,1694.8275933344678,44.6000014272,5.0903957857144,1.2926100413635202,1694.8275933344678,44.6000014272,5.0903957857144,1.2926100413635202,1684,-8.7,99,GPS_Atti,
0.35006191421778604,36.9146590023041,17000,2017-11-12 05:49:42,1695.3275933504679,45.10000144320001,5.6015953624976,1.3873100443939201,1695.3275933504679,45.10000144320001,5.6015953624976,1.3873100443939201,1684,-8.8,99,GPS_Atti,
0.350063025343597,36.914660270704495,17100,2017-11-12 05:49:42,1695.727593363268,45.50000145600001,5.8607951479088,1.50688004822016,1695.727593363268,45.50000145600001,5.8607951479088,1.50688004822016,1684,-8.9,99,GPS_Atti,
0.350064169596132,36.9146615806309,17200,2017-11-12 05:49:42,1696.2275933792678,46.000001471999994,6.109194942261199,1.6437500526,1696.2275933792678,46.000001471999994,6.109194942261199,1.6437500526,1684,-9.0,99,GPS_Atti,
0.35006538524138203,36.914662986771496,17300,2017-11-12 05:49:42,1696.7275933952678,46.50000148800001,6.3683947276724,1.80217005766944,1696.7275933952678,46.50000148800001,6.3683947276724,1.80217005766944,1684,-9.0,99,GPS_Atti,
0.35006661964986896,36.9146644093268,17400,2017-11-12 05:49:42,1697.227593411268,47.000001504000004,6.8759943074360015,1.97161006309152,1697.227593411268,47.000001504000004,6.8759943074360015,1.97161006309152,1684,-9.0,99,GPS_Atti,
0.350067908738553,36.914665908742705,17500,2017-11-12 05:49:42,1697.7275934272677,47.500001520000005,6.8759943074360015,2.1576000690432,1697.7275934272677,47.500001520000005,6.8759943074360015,2.1576000690432,1684,-9.0,99,GPS_Atti,
0.35006919590811697,36.914667407938104,17600,2017-11-12 05:49:42,1698.2275934432678,48.000001536000006,6.8759943074360015,2.34938007518016,1698.2275934432678,48.000001536000006,6.8759943074360015,2.34938007518016,1684,-9.0,99,GPS_Atti,
0.350070554499809,36.914668989885705,17700,2017-11-12 05:49:43,1698.7275934592676,48.500001552,6.8759943074360015,2.55664008181248,1698.7275934592676,48.500001552,6.8759943074360015,2.55664008181248,1664,-9.0,99,GPS_Atti,
0.3500718718104471,36.9146704809359,17800,2017-11-12 05:49:43,1699.227593475268,49.00000156800001,6.3683947276724,2.7568000882176005,1699.227593475268,49.00000156800001,6.8759943074360015,2.7568000882176005,1666,-9.0,99,GPS_Atti,
0.35007309474176196,36.9146718704723,17900,2017-11-12 05:49:43,1699.7275934912677,49.500001584,5.6015953624976,2.94588009426816,1699.7275934912677,49.500001584,6.8759943074360015,2.94588009426816,1673,-9.0,99,GPS_Atti,
0.350074098615605,36.9146730058656,18000,2017-11-12 05:49:43,1700.327593510468,50.100001603200006,4.334396411598401,3.1021400992684804,1700.327593510468,50.100001603200006,6.8759943074360015,3.1021400992684804,1680,-9.0,99,GPS_Atti,
0.350074965488455,36.914673965134,18100,2017-11-12 05:49:43,1700.8275935264678,50.6000016192,3.3191972520712003,3.2358601035475205,1700.8275935264678,50.6000016192,6.8759943074360015,3.2358601035475205,1684,-9.0,99,GPS_Atti,
0.350075636785995,36.914674670569795,18200,2017-11-12 05:49:43,1701.3275935424676,51.1000016352,2.303998092544,3.33613010675616,1701.3275935424676,51.1000016352,6.8759943074360015,3.33613010675616,1684,-9.0,99,GPS_Atti,
0.35007621474845296,36.9146752636829,18300,2017-11-12 05:49:43,1701.827593558468,51.600001651199996,1.7999985098000002,3.4213801094841605,1701.827593558468,51.600001651199996,6.8759943074360015,3.4213801094841605,1684,-9.0,99,GPS_Atti,
0.350076667480311,36.9146757111279,18400,2017-11-12 05:49:43,1702.3275935744678,52.1000016672,1.2995989240756,3.48664011157248,1702.3275935744678,52.1000016672,6.8759943074360015,3.48664011157248,1684,-9.0,99,GPS_Atti,
0.350077149183816,36.9146761569242,18500,2017-11-12 05:49:43,1702.8275935904678,52.600001683200006,1.0187991565468,3.5532201137030404,1702.8275935904678,52.600001683200006,6.8759943074360015,3.5532201137030404,1684,-9.0,99,GPS_Atti,
0.35007761283276195,36.9146765642275,18600,2017-11-12 05:49:43,1703.3275936064676,53.1000016992,1.0187991565468,3.6153201156902406,1703.3275936064676,53.1000016992,6.8759943074360015,3.6153201156902406,1684,-9.0,99,GPS_Atti,
0.35007816616174803,36.914677020759896,18700,2017-11-12 05:49:43,1703.827593622468,53.6000017152,1.0187991565468,3.6867401179756807,1703.827593622468,53.6000017152,6.8759943074360015,3.6867401179756807,1684,-9.0,99,GPS_Atti,
0.35007865985548603,36.9146774307055,18800,2017-11-12 05:49:44,1704.3275936384678,54.100001731199995,0.8063993323904,3.75101012003232,1704.3275936384678,54.100001731199995,6.8759943074360015,3.75101012003232,1684,-9.0,99,GPS_Atti,
0.350079245540025,36.914677907770205,18900,2017-11-12 05:49:44,1704.8275936544676,54.6000017472,0.8063993323904,3.8266501224528,1704.8275936544676,54.6000017472,6.8759943074360015,3.8266501224528,1684,-9.0,99,GPS_Atti,
0.350079730422253,36.9146783156067,19000,2017-11-12 05:49:44,1705.2275936672677,55.00000176,0.8063993323904,3.8908201245062406,1705.2275936672677,55.00000176,6.8759943074360015,3.8908201245062406,1684,-9.0,99,GPS_Atti,
0.350080299698591,36.914678763773296,19100,2017-11-12 05:49:44,1705.8275936864677,55.6000017792,0.8063993323904,3.9633701268278396,1705.8275936864677,55.6000017792,6.8759943074360015,3.9633701268278396,1684,-9.0,99,GPS_Atti,
0.350080785390155,36.9146791301448,19200,2017-11-12 05:49:44,1706.3275937024678,56.10000179520001,0.8063993323904,4.0239201287654405,1706.3275937024678,56.10000179520001,6.8759943074360015,4.0239201287654405,1684,-9.0,99,GPS_Atti,
0.35008132617849397,36.9146795344182,19300,2017-11-12 05:49:44,1706.7275937152676,56.50000180800001,0.8063993323904,4.09125013092,1706.7275937152676,56.50000180800001,6.8759943074360015,4.09125013092,1684,-9.0,99,GPS_Atti,
0.350081753200478,36.9146798560358,19400,2017-11-12 05:49:44,1707.227593731268,57.000001824,0.35999970196000003,4.14483013263456,1707.227593731268,57.000001824,6.8759943074360015,4.14483013263456,1684,-9.0,99,GPS_Atti,
0.350082192287603,36.9146801879227,19500,2017-11-12 05:49:44,1707.7275937472677,57.50000184,0.35999970196000003,4.200210134406721,1707.7275937472677,57.50000184,6.8759943074360015,4.200210134406721,1684,-9.0,99,GPS_Atti,
0.350082513543778,36.9146804428837,19600,2017-11-12 05:49:44,1708.2275937632678,58.000001856,0.35999970196000003,4.2420201357446405,1708.2275937632678,58.000001856,6.8759943074360015,4.2420201357446405,1684,-9.0,99,GPS_Atti,
0.350082854469928,36.9146806962816,19700,2017-11-12 05:49:44,1708.7275937792679,58.500001872,0.35999970196000003,4.28479013711328,1708.7275937792679,58.500001872,6.8759943074360015,4.28479013711328,1684,-9.0,99,GPS_Atti,
0.35008309676611,36.9146808399219,19800,2017-11-12 05:49:45,1709.3275937984677,59.1000018912,0.0,4.311690137974081,1709.3275937984677,59.1000018912,6.8759943074360015,4.311690137974081,1684,-9.0,99,GPS_Atti,
0.35008335898304804,36.914680986011895,19900,2017-11-12 05:49:45,1709.8275938144677,59.6000019072,0.0,4.3399501388784,1709.8275938144677,59.6000019072,6.8759943074360015,4.3399501388784,1684,-9.0,99,GPS_Atti,
0.35008352899260103,36.9146810770721,20000,2017-11-12 05:49:45,1710.3275938304678,60.100001923200004,0.0,4.357960139454721,1710.3275938304678,60.100001923200004,6.8759943074360015,4.357960139454721,1684,-9.0,99,GPS_Atti,
0.35008370307815,36.9146811752841,20100,2017-11-12 05:49:45,1710.8275938464678,60.600001939200006,0.0,4.376910140061121,1710.8275938464678,60.600001939200006,6.8759943074360015,4.376910140061121,1684,-9.0,99,GPS_Atti,
0.35008379366360404,36.914681223603104,20200,2017-11-12 05:49:45,1711.3275938624677,61.10000195520001,0.35999970196000003,4.38652014036864,1711.3275938624677,61.10000195520001,6.8759943074360015,4.38652014036864,1684,-9.0,99,GPS_Atti,
0.350083888647485,36.914681278885496,20300,2017-11-12 05:49:45,1711.827593878468,61.6000019712,0.35999970196000003,4.3970501407056,1711.827593878468,61.6000019712,6.8759943074360015,4.3970501407056,1684,-9.0,99,GPS_Atti,
0.350083935040226,36.9146812926344,20400,2017-11-12 05:49:45,1712.3275938944678,62.1000019872,0.35999970196000003,4.4009101408291205,1712.3275938944678,62.1000019872,6.8759943074360015,4.4009101408291205,1684,-9.0,99,GPS_Atti,
0.35008398560992604,36.9146813067108,20500,2017-11-12 05:49:45,1712.8275939104676,62.600002003200004,0.35999970196000003,4.40503014096096,1712.8275939104676,62.600002003200004,6.8759943074360015,4.40503014096096,1684,-9.0,99,GPS_Atti,
0.35008397749376097,36.914681285673204,20600,2017-11-12 05:49:45,1713.327593926468,63.100002019200005,0.35999970196000003,4.4025501408816,1713.327593926468,63.100002019200005,6.8759943074360015,4.40503014096096,1684,-9.0,99,GPS_Atti,
0.350083970592416,36.914681272571,20700,2017-11-12 05:49:46,1713.8275939424677,63.600002035200006,0.5075995797636,4.4009101408291205,1713.8275939424677,63.600002035200006,6.8759943074360015,4.40503014096096,1684,-9.0,99,GPS_Atti,
0.350083913645729,36.9146812436729,20800,2017-11-12 05:49:46,1714.4275939616678,64.2000020544,0.5075995797636,4.3950001406400006,1714.4275939616678,64.2000020544,6.8759943074360015,4.40503014096096,1684,-9.0,99,GPS_Atti,
0.35008384655872193,36.914681230620005,20900,2017-11-12 05:49:46,1714.9275939776678,64.7000020704,0.5075995797636,4.39008014048256,1714.9275939776678,64.7000020704,6.8759943074360015,4.40503014096096,1684,-9.0,99,GPS_Atti,
0.350083743559639,36.91468120896779,21000,2017-11-12 05:49:46,1715.4275939936679,65.2000020864,0.5075995797636,4.382380140236161,1715.4275939936679,65.2000020864,6.8759943074360015,4.40503014096096,1684,-9.0,99,GPS_Atti,
0.350083652195789,36.9146812028182,21100,2017-11-12 05:49:46,1715.9275940096677,65.7000021024,0.5075995797636,4.376840140058881,1715.9275940096677,65.7000021024,6.8759943074360015,4.40503014096096,1684,-9.0,99,GPS_Atti,
0.350083552691347,36.9146811860395,21200,2017-11-12 05:49:46,1716.427594025668,66.20000211840001,0.5075995797636,4.36984013983488,1716.427594025668,66.20000211840001,6.8759943074360015,4.40503014096096,1684,-9.0,99,GPS_Atti,
0.35008346708893107,36.9146811877246,21300,2017-11-12 05:49:46,1716.9275940416678,66.7000021344,0.5075995797636,4.3654001396928,1716.9275940416678,66.7000021344,6.8759943074360015,4.40503014096096,1684,-9.0,99,GPS_Atti,
0.35008335582061,36.914681165710604,21400,2017-11-12 05:49:46,1717.4275940576676,67.2000021504,0.5075995797636,4.3573001394336,1717.4275940576676,67.2000021504,6.8759943074360015,4.40503014096096,1684,-9.0,99,GPS_Atti,
0.350083276893186,36.914681164503,21500,2017-11-12 05:49:46,1718.027594076868,67.8000021696,0.5075995797636,4.35297013929504,1718.027594076868,67.8000021696,6.8759943074360015,4.40503014096096,1684,-9.0,99,GPS_Atti,
0.35008319226946505,36.9146811412213,21600,2017-11-12 05:49:46,1718.5275940928677,68.30000218560001,0.5075995797636,4.346190139078081,1718.5275940928677,68.30000218560001,6.8759943074360015,4.40503014096096,1684,-9.0,99,GPS_Atti,
0.35008312077426,36.9146811300912,21700,2017-11-12 05:49:46,1719.0275941088676,68.8000022016,0.5075995797636,4.34131013892192,1719.0275941088676,68.8000022016,6.8759943074360015,4.40503014096096,1684,-9.0,99,GPS_Atti,
0.35008302487030796,36.9146810945125,21800,2017-11-12 05:49:47,1719.5275941248678,69.30000221760001,0.5075995797636,4.33276013864832,1719.5275941248678,69.30000221760001,6.8759943074360015,4.40503014096096,1684,-9.0,99,GPS_Atti,
0.350082938908006,36.9146810869667,21900,2017-11-12 05:49:47,1720.0275941408677,69.8000022336,0.5075995797636,4.32749013847968,1720.0275941408677,69.8000022336,6.8759943074360015,4.40503014096096,1684,-9.0,99,GPS_Atti,
0.35008283962503195,36.91468107111729,22000,2017-11-12 05:49:47,1720.5275941568677,70.30000224960001,0.5075995797636,4.32072013826304,1720.5275941568677,70.30000224960001,6.8759943074360015,4.40503014096096,1684,-9.0,99,GPS_Atti,
0.35008277297444795,36.9146810791727,22100,2017-11-12 05:49:47,1721.1275941760678,70.90000226880001,0.5075995797636,4.318030138176961,1721.1275941760678,70.90000226880001,6.8759943074360015,4.40503014096096,1684,-9.0,99,GPS_Atti,
0.3500827091052461,36.914681074933,22200,2017-11-12 05:49:47,1721.6275941920678,71.4000022848,0.5075995797636,4.31428013805696,1721.6275941920678,71.4000022848,6.8759943074360015,4.40503014096096,1684,-9.0,99,GPS_Atti,
0.35008267264927,36.9146811194064,22300,2017-11-12 05:49:47,1722.1275942080679,71.9000023008,0.5075995797636,4.316750138136,1722.1275942080679,71.9000023008,6.8759943074360015,4.40503014096096,1684,-9.0,99,GPS_Atti,
0.350082624582489,36.9146811643573,22400,2017-11-12 05:49:47,1722.627594224068,72.40000231680001,0.35999970196000003,4.3186801381977595,1722.627594224068,72.40000231680001,6.8759943074360015,4.40503014096096,1684,-9.0,99,GPS_Atti,
0.35008258532233194,36.9146812314229,22500,2017-11-12 05:49:47,1723.1275942400678,72.9000023328,0.35999970196000003,4.323250138344,1723.1275942400678,72.9000023328,6.8759943074360015,4.40503014096096,1684,-9.0,99,GPS_Atti,
0.35008250826761894,36.91468125139421,22600,2017-11-12 05:49:47,1723.6275942560678,73.4000023488,0.5075995797636,4.321240138279681,1723.6275942560678,73.4000023488,6.8759943074360015,4.40503014096096,1684,-9.0,99,GPS_Atti,
0.35008244396036603,36.9146812750805,22700,2017-11-12 05:49:47,1724.1275942720679,73.9000023648,0.5075995797636,4.32027013824864,1724.1275942720679,73.9000023648,6.8759943074360015,4.40503014096096,1684,-9.0,99,GPS_Atti,
0.350082365542645,36.914681266395704,22800,2017-11-12 05:49:48,1724.6275942880677,74.4000023808,0.5075995797636,4.3154001380928,1724.6275942880677,74.4000023808,6.8759943074360015,4.40503014096096,1684,-9.0,99,GPS_Atti,
0.35008230911217497,36.9146812745302,22900,2017-11-12 05:49:48,1725.1275943040678,74.9000023968,0.5075995797636,4.31332013802624,1725.1275943040678,74.9000023968,6.8759943074360015,4.40503014096096,1684,-9.0,99,GPS_Atti,
0.35008224544001504,36.914681271434,23000,2017-11-12 05:49:48,1725.6275943200678,75.40000241279999,0.5075995797636,4.30977013791264,1725.6275943200678,75.40000241279999,6.8759943074360015,4.40503014096096,1684,-9.0,99,GPS_Atti,
0.350082190862715,36.9146812873883,23100,2017-11-12 05:49:48,1726.127594336068,75.90000242880001,0.35999970196000003,4.308580137874561,1726.127594336068,75.90000242880001,6.8759943074360015,4.40503014096096,1684,-9.0,99,GPS_Atti,
0.35008211283744894,36.9146812996448,23200,2017-11-12 05:49:48,1726.6275943520677,76.4000024448,0.35999970196000003,4.305850137787201,1726.6275943520677,76.4000024448,6.8759943074360015,4.40503014096096,1684,-9.0,99,GPS_Atti,
0.35008205707627,36.9146813290353,23300,2017-11-12 05:49:48,1727.127594368068,76.9000024608,0.35999970196000003,4.3059501377904,1727.127594368068,76.9000024608,6.8759943074360015,4.40503014096096,1684,-9.0,99,GPS_Atti,
0.35008199604707396,36.914681339480296,23400,2017-11-12 05:49:48,1727.6275943840678,77.40000247680001,0.0,4.303920137725441,1727.6275943840678,77.40000247680001,6.8759943074360015,4.40503014096096,1684,-9.0,99,GPS_Atti,
0.350081926061436,36.914681337763,23500,2017-11-12 05:49:48,1728.0275943968677,77.8000024896,0.0,4.30024013760768,1728.0275943968677,77.8000024896,6.8759943074360015,4.40503014096096,1684,-9.0,99,GPS_Atti,
0.35008190844655795,36.9146813448805,23600,2017-11-12 05:49:48,1728.5275944128678,78.3000025056,0.0,4.30006013760192,1728.5275944128678,78.3000025056,6.8759943074360015,4.40503014096096,1684,-9.0,99,GPS_Atti,
0.350081901100647,36.914681360980396,23700,2017-11-12 05:49:48,1729.0275944288678,78.8000025216,0.0,4.301300137641601,1729.0275944288678,78.8000025216,6.8759943074360015,4.40503014096096,1684,-9.0,99,GPS_Atti,
0.35008187581579703,36.9146813749969,23800,2017-11-12 05:49:49,1729.5275944448679,79.30000253760001,0.0,4.3014301376457595,1729.5275944448679,79.30000253760001,6.8759943074360015,4.40503014096096,1684,-9.0,99,GPS_Atti,
0.350081864105656,36.9146814149845,23900,2017-11-12 05:49:49,1730.0275944608677,79.80000255360001,0.0,4.30482013775424,1730.0275944608677,79.80000255360001,6.8759943074360015,4.40503014096096,1684,-9.0,99,GPS_Atti,
0.350081835910777,36.914681438628,24000,2017-11-12 05:49:49,1730.527594476868,80.30000256960001,0.0,4.3057701377846405,1730.527594476868,80.30000256960001,6.8759943074360015,4.40503014096096,1684,-9.0,99,GPS_Atti,
0.350081841229275,36.9146814791401,24100,2017-11-12 05:49:49,1731.0275944928678,80.80000258560001,0.0,4.31006013792192,1731.0275944928678,80.80000258560001,6.8759943074360015,4.40503014096096,1684,-9.0,99,GPS_Atti,
0.350081856025317,36.914681494437104,24200,2017-11-12 05:49:49,1731.5275945088677,81.3000026016,0.0,4.312320137994241,1731.5275945088677,81.3000026016,6.8759943074360015,4.40503014096096,1684,-9.0,99,GPS_Atti,
0.35008187336336,36.914681509958896,24300,2017-11-12 05:49:49,1732.0275945248677,81.80000261760001,0.0,4.31472013807104,1732.0275945248677,81.80000261760001,6.8759943074360015,4.40503014096096,1684,-9.0,99,GPS_Atti,
0.350081884580082,36.9146815922401,24400,2017-11-12 05:49:49,1732.6275945440677,82.40000263680001,0.0,4.32347013835104,1732.6275945440677,82.40000263680001,6.8759943074360015,4.40503014096096,1684,-9.0,99,GPS_Atti,
0.350081889048533,36.9146816775596,24500,2017-11-12 05:49:49,1733.1275945600678,82.9000026528,0.0,4.332180138629759,1733.1275945600678,82.9000026528,6.8759943074360015,4.40503014096096,1684,-9.0,99,GPS_Atti,
0.35008187975988797,36.9146817379553,24600,2017-11-12 05:49:49,1733.6275945760678,83.4000026688,0.0,4.337740138807681,1733.6275945760678,83.4000026688,6.8759943074360015,4.40503014096096,1684,-9.0,99,GPS_Atti,
0.350081876340156,36.91468181494329,24700,2017-11-12 05:49:49,1734.127594592068,83.9000026848,0.0,4.3452401390476805,1734.127594592068,83.9000026848,6.8759943074360015,4.40503014096096,1611,-9.0,99,GPS_Atti,
0.35008186247721196,36.914681865924,24800,2017-11-12 05:49:50,1734.6275946080677,84.4000027008,0.0,4.349630139188161,1734.6275946080677,84.4000027008,6.8759943074360015,4.40503014096096,1464,-9.0,99,GPS_Atti,
0.35008185149987103,36.9146819293452,24900,2017-11-12 05:49:50,1735.127594624068,84.9000027168,0.0,4.35542013937344,1735.127594624068,84.9000027168,6.8759943074360015,4.40503014096096,1314,-9.0,99,GPS_Atti,
0.350081838578168,36.9146819686325,25000,2017-11-12 05:49:50,1735.6275946400679,85.4000027328,0.0,4.3587001394784,1735.6275946400679,85.4000027328,6.8759943074360015,4.40503014096096,1180,-9.0,99,GPS_Atti,
0.35008182784997904,36.9146820054831,25100,2017-11-12 05:49:50,1736.0275946528677,85.80000274560001,0.0,4.361850139579201,1736.0275946528677,85.80000274560001,6.8759943074360015,4.40503014096096,1117,-9.0,99,GPS_Atti,
0.350081792413409,36.9146820063439,25200,2017-11-12 05:49:50,1736.3275946624678,86.10000275520001,0.0,4.3602001395264,1736.3275946624678,86.10000275520001,6.8759943074360015,4.40503014096096,1060,-9.0,99,GPS_Atti,
0.350081757462116,36.9146820242253,25300,2017-11-12 05:49:50,1736.6275946720677,86.40000276479999,0.0,4.36028013952896,1736.6275946720677,86.40000276479999,6.8759943074360015,4.40503014096096,1038,-9.0,99,GPS_Atti,
0.350081725766082,36.9146820446206,25400,2017-11-12 05:49:50,1736.727594675268,86.500002768,0.0,4.36077013954464,1736.727594675268,86.500002768,6.8759943074360015,4.40503014096096,1027,-9.0,99,GPS_Atti,
0.35008169284382895,36.914682088186105,25500,2017-11-12 05:49:50,1736.827594678468,86.60000277120001,0.0,4.363520139632641,1736.827594678468,86.60000277120001,6.8759943074360015,4.40503014096096,1024,-9.0,99,GPS_Atti,
0.350081659989972,36.914682123062605,25600,2017-11-12 05:49:50,1736.9275946816676,86.7000027744,0.0,4.36541013969312,1736.9275946816676,86.7000027744,6.8759943074360015,4.40503014096096,1024,-9.0,99,GPS_Atti,
0.35008161549599603,36.9146821637631,25700,2017-11-12 05:49:50,1737.0275946848678,86.80000277760001,0.0,4.367330139754561,1737.0275946848678,86.80000277760001,6.8759943074360015,4.40503014096096,1024,-9.0,99,GPS_Atti,
0.350081566802264,36.914682174876106,25800,2017-11-12 05:49:51,1737.1275946880678,86.9000027808,0.35999970196000003,4.36609013971488,1737.1275946880678,86.9000027808,6.8759943074360015,4.40503014096096,1024,-9.0,99,GPS_Atti,
0.350081494126437,36.9146821981342,25900,2017-11-12 05:49:51,1737.1275946880678,86.9000027808,0.7199994039200001,4.36492013967744,1737.1275946880678,86.9000027808,6.8759943074360015,4.40503014096096,1024,-9.0,99,GPS_Atti,
0.350081454794629,36.914682196853704,26000,2017-11-12 05:49:51,1737.1275946880678,86.9000027808,0.7199994039200001,4.362900139612799,1737.1275946880678,86.9000027808,6.8759943074360015,4.40503014096096,1004,-9.0,98,GPS_Atti,
0.350081436235253,36.9146821869762,26100,2017-11-12 05:49:51,1737.1275946880678,86.9000027808,0.7199994039200001,4.3610201395526405,1737.1275946880678,86.9000027808,6.8759943074360015,4.40503014096096,910,-9.0,98,GPS_Atti,
0.35008148980943204,36.9146821431388,26200,2017-11-12 05:49:51,1737.1275946880678,86.9000027808,0.7199994039200001,4.35919013949408,1737.1275946880678,86.9000027808,6.8759943074360015,4.40503014096096,857,-9.0,98,GPS_Atti,
0.350081635872716,36.914682101678096,26300,2017-11-12 05:49:51,1737.1275946880678,86.9000027808,0.7199994039200001,4.3621001395872,1737.1275946880678,86.9000027808,6.8759943074360015,4.40503014096096,838,-9.0,98,GPS_Atti,
0.35008190359867997,36.914682035822295,26400,2017-11-12 05:49:51,1737.1275946880678,86.9000027808,0.7199994039200001,4.3686001397952,1737.1275946880678,86.9000027808,6.8759943074360015,4.40503014096096,835,-9.0,98,GPS_Atti,
0.350082253857442,36.914681983032295,26500,2017-11-12 05:49:51,1737.1275946880678,86.9000027808,0.35999970196000003,4.3807201401830405,1737.1275946880678,86.9000027808,6.8759943074360015,4.40503014096096,832,-9.0,98,GPS_Atti,
0.350082666817812,36.9146819096951,26600,2017-11-12 05:49:51,1737.0275946848678,86.80000277760001,0.35999970196000003,4.39433014061856,1737.1275946880678,86.9000027808,6.8759943074360015,4.40503014096096,826,-9.0,98,GPS_Atti,
0.350083197640073,36.9146818465779,26700,2017-11-12 05:49:51,1737.0275946848678,86.80000277760001,0.35999970196000003,4.4155501412976,1737.1275946880678,86.9000027808,6.8759943074360015,4.4155501412976,833,-9.0,98,GPS_Atti,
0.35008380700544606,36.9146817504001,26800,2017-11-12 05:49:52,1736.9275946816676,86.7000027744,0.35999970196000003,4.4384501420303994,1737.1275946880678,86.9000027808,6.8759943074360015,4.4384501420303994,910,-9.0,98,GPS_Atti,
0.35008450076167097,36.914681659937294,26900,2017-11-12 05:49:52,1736.9275946816676,86.7000027744,0.35999970196000003,4.46749014295968,1737.1275946880678,86.9000027808,6.8759943074360015,4.46749014295968,979,-9.0,98,GPS_Atti,
0.35008522528897396,36.914681543385704,27000,2017-11-12 05:49:52,1736.827594678468,86.60000277120001,0.5075995797636,4.4969601439027205,1737.1275946880678,86.9000027808,6.8759943074360015,4.4969601439027205,969,-9.0,98,GPS_Atti,
0.350086040631342,36.9146814484819,27100,2017-11-12 05:49:52,1736.827594678468,86.60000277120001,0.5075995797636,4.535070145122241,1737.1275946880678,86.9000027808,6.8759943074360015,4.535070145122241,976,-9.0,98,GPS_Atti,
0.350086894689966,36.914681344936106,27200,2017-11-12 05:49:52,1736.827594678468,86.60000277120001,0.8063993323904,4.57621014643872,1737.1275946880678,86.9000027808,6.8759943074360015,4.57621014643872,963,-9.0,98,GPS_Atti,
0.35008781659608096,36.9146812774402,27300,2017-11-12 05:49:52,1736.727594675268,86.500002768,0.8063993323904,4.62652014804864,1737.1275946880678,86.9000027808,6.8759943074360015,4.62652014804864,873,-9.0,98,GPS_Atti,
0.350088728430269,36.9146812067088,27400,2017-11-12 05:49:52,1736.727594675268,86.500002768,1.1375990581936,4.6776001496832,1737.1275946880678,86.9000027808,6.8759943074360015,4.6776001496832,827,-9.0,98,GPS_Atti,
0.350089674357561,36.914681135913206,27500,2017-11-12 05:49:52,1736.727594675268,86.500002768,1.1375990581936,4.7325501514416,1737.1275946880678,86.9000027808,6.8759943074360015,4.7325501514416,806,-9.0,98,GPS_Atti,
0.35009058932813303,36.914681012758,27600,2017-11-12 05:49:52,1736.6275946720677,86.40000276479999,1.1375990581936,4.78248015303936,1737.1275946880678,86.9000027808,6.8759943074360015,4.78248015303936,819,-9.0,98,GPS_Atti,
0.35009150084803203,36.9146808968916,27700,2017-11-12 05:49:52,1736.5275946688678,86.3000027616,1.1375990581936,4.83447015470304,1737.1275946880678,86.9000027808,6.8759943074360015,4.83447015470304,808,-9.0,98,GPS_Atti,
0.35009234049166904,36.914680770507395,27800,2017-11-12 05:49:53,1736.5275946688678,86.3000027616,1.1375990581936,4.8820701562262405,1737.1275946880678,86.9000027808,6.8759943074360015,4.8820701562262405,816,-9.0,98,GPS_Atti,
0.350093159455697,36.9146806654927,27900,2017-11-12 05:49:53,1736.4275946656678,86.2000027584,1.1375990581936,4.931350157803201,1737.1275946880678,86.9000027808,6.8759943074360015,4.931350157803201,853,-9.0,98,GPS_Atti,
0.35009392741360096,36.9146805601205,28000,2017-11-12 05:49:53,1736.3275946624678,86.10000275520001,1.1375990581936,4.97808015929856,1737.1275946880678,86.9000027808,6.8759943074360015,4.97808015929856,855,-9.0,98,GPS_Atti,
0.35009466998406397,36.9146804828348,28100,2017-11-12 05:49:53,1736.3275946624678,86.10000275520001,1.1375990581936,5.026290160841279,1737.1275946880678,86.9000027808,6.8759943074360015,5.026290160841279,861,-9.0,98,GPS_Atti,
0.35009535843156203,36.9146803997357,28200,2017-11-12 05:49:53,1736.2275946592677,86.000002752,0.8063993323904,5.07086016226752,1737.1275946880678,86.9000027808,6.8759943074360015,5.07086016226752,858,-9.0,98,GPS_Atti,
