latitude,longitude,time_millisecond,datetime_utc,altitude_m,ascent_m,speed_kph,distance_m,max_altitude_m,max_ascent_m,max_speed_kph,max_distance_m,rc_throttle,gimbal_pitch_degrees,battery_percent,flycState,message
0.37413203805587003,36.9266630685594,0,2018-04-18 05:16:20,1632.4633090388206,0.0,0.0,0.0,1632.4633090388206,0.0,0.0,0.0,364,0.0,99,P-GPS,
0.37413206425671997,36.9266630911137,100,2018-04-18 05:16:20,1632.4633090388206,0.0,0.0,0.00384451012302432,1632.4633090388206,0.0,0.0,0.00384451012302432,364,0.0,99,Motors_Started,
0.37413208886210203,36.926663112803,200,2018-04-18 05:16:20,1632.4633090388206,0.0,0.0,0.007491920239741441,1632.4633090388206,0.0,0.0,0.007491920239741441,364,0.0,99,Motors_Started,
0.37413210890498994,36.926663097917,300,2018-04-18 05:16:21,1632.4633090388206,0.0,0.0,0.0085284502729104,1632.4633090388206,0.0,0.0,0.0085284502729104,364,0.0,99,Motors_Started,
0.37413212367579207,36.9266630873237,400,2018-04-18 05:16:21,1632.4633090388206,0.0,0.0,0.00974743031191776,1632.4633090388206,0.0,0.0,0.00974743031191776,364,0.0,99,Motors_Started,
0.37413209032240896,36.9266630816944,500,2018-04-18 05:16:21,1632.4633090388206,0.0,0.0,0.005993080191778561,1632.4633090388206,0.0,0.0,0.00974743031191776,364,0.0,99,Motors_Started,
0.374132074618102,36.9266630783225,600,2018-04-18 05:16:21,1632.4633090388206,0.0,0.0,0.004208400134668801,1632.4633090388206,0.0,0.0,0.00974743031191776,364,0.0,99,Motors_Started,Setting new Return-To-Home altitude to 30m (98 ft). Setting new Maximum Flight Altitude to 150m (492 ft)
0.374132088755439,36.9266630776009,700,2018-04-18 05:16:21,1632.4633090388206,0.0,0.0,0.0057270501832656,1632.4633090388206,0.0,0.0,0.00974743031191776,364,0.0,99,Motors_Started,
0.374132101981661,36.9266630772963,800,2018-04-18 05:16:21,1632.4633090388206,0.0,0.0,0.0071750202296006396,1632.4633090388206,0.0,0.0,0.00974743031191776,364,0.0,99,Motors_Started,
0.374132112814885,36.926663080316,900,2018-04-18 05:16:21,1632.4633090388206,0.0,0.0,0.00841583026930656,1632.4633090388206,0.0,0.0,0.00974743031191776,364,0.0,99,Motors_Started,
0.374132120893595,36.9266630824941,1000,2018-04-18 05:16:21,1632.4633090388206,0.0,0.0,0.009341480298927361,1632.4633090388206,0.0,0.0,0.00974743031191776,364,0.0,99,Motors_Started,
0.37413212548702895,36.9266630858693,1100,2018-04-18 05:16:21,1632.4633090388206,0.0,0.0,0.009911590317170881,1632.4633090388206,0.0,0.0,0.009911590317170881,413,0.0,99,Motors_Started,
0.374132131153199,36.9266630892931,1200,2018-04-18 05:16:22,1632.4633090388206,0.0,0.0,0.0106066003394112,1632.4633090388206,0.0,0.0,0.0106066003394112,481,0.0,99,Motors_Started,
0.374132131888849,36.9266630916737,1300,2018-04-18 05:16:22,1632.4633090388206,0.0,0.0,0.010746700343894402,1632.4633090388206,0.0,0.0,0.010746700343894402,669,0.0,99,Motors_Started,
0.37413213423340097,36.9266630933947,1400,2018-04-18 05:16:22,1632.4633090388206,0.0,0.0,0.0110463003534816,1632.4633090388206,0.0,0.0,0.0110463003534816,850,0.0,99,Motors_Started,
0.37413213319771105,36.9266630538041,1500,2018-04-18 05:16:22,1632.4633090388206,0.0,0.0,0.0107068003426176,1632.4633090388206,0.0,0.0,0.0110463003534816,1003,0.0,99,Motors_Started,
0.37413213145690394,36.9266630256296,1600,2018-04-18 05:16:22,1632.4633090388206,0.0,0.0,0.011431300365801601,1632.4633090388206,0.0,0.0,0.011431300365801601,1024,0.0,99,Assisted_Takeoff,
0.37413213030518705,36.92666304333879,1700,2018-04-18 05:16:22,1632.4633090388206,0.0,0.0,0.0106352003403264,1632.4633090388206,0.0,0.0,0.011431300365801601,1024,0.0,99,Assisted_Takeoff,
0.37413212969899895,36.926663057284706,1800,2018-04-18 05:16:22,1632.4633090388206,0.0,0.0,0.010268100328579203,1632.4633090388206,0.0,0.0,0.011431300365801601,1024,0.0,99,Assisted_Takeoff,
0.37413212658378603,36.926663072816794,1900,2018-04-18 05:16:22,1632.4633090388206,0.0,0.0,0.00985622031539904,1632.4633090388206,0.0,0.0,0.011431300365801601,1024,0.0,99,Assisted_Takeoff,
0.374132125174774,36.9266630838555,2000,2018-04-18 05:16:22,1632.4633090388206,0.0,0.0,0.009836340314762881,1632.4633090388206,0.0,0.0,0.011431300365801601,1024,0.0,99,Assisted_Takeoff,
0.37413212287541203,36.926663092142604,2100,2018-04-18 05:16:22,1632.4633090388206,0.0,0.0,0.009790240313287681,1632.4633090388206,0.0,0.0,0.011431300365801601,1024,0.0,99,Assisted_Takeoff,
0.374132120731972,36.9266630989609,2200,2018-04-18 05:16:22,1632.4633090388206,0.0,0.0,0.0097959503134704,1632.4633090388206,0.0,0.0,0.011431300365801601,1024,0.0,99,Assisted_Takeoff,
0.3741321186870539,36.926663102481605,2300,2018-04-18 05:16:23,1632.4633090388206,0.0,0.0,0.009727870311291839,1632.4633090388206,0.0,0.0,0.011431300365801601,1024,0.0,99,Assisted_Takeoff,
0.37413211736272106,36.926663106513,2400,2018-04-18 05:16:23,1632.4633090388206,0.0,0.0,0.009777280312872961,1632.4633090388206,0.0,0.0,0.011431300365801601,1024,0.0,99,Assisted_Takeoff,
0.374132075396498,36.9266631082689,2500,2018-04-18 05:16:23,1632.4633090388206,0.0,0.0,0.00606159019397088,1632.4633090388206,0.0,0.0,0.011431300365801601,1024,0.0,99,Assisted_Takeoff,
0.3741320459298039,36.9266631114277,2600,2018-04-18 05:16:23,1632.4633090388206,0.0,0.0,0.004846860155099521,1632.4633090388206,0.0,0.0,0.011431300365801601,1024,0.0,99,Assisted_Takeoff,
0.37413202247614,36.9266631114749,2700,2018-04-18 05:16:23,1632.4633090388206,0.0,0.0,0.0050771201624678405,1632.4633090388206,0.0,0.0,0.011431300365801601,1024,0.0,99,Assisted_Takeoff,
0.37413200352227294,36.9266631134753,2800,2018-04-18 05:16:23,1632.4633090388206,0.0,0.0,0.006300510201616321,1632.4633090388206,0.0,0.0,0.011431300365801601,1024,0.0,99,Assisted_Takeoff,
0.374131992536382,36.926663070501,2900,2018-04-18 05:16:23,1632.4633090388206,0.0,0.0,0.0050666501621328,1632.4633090388206,0.0,0.0,0.011431300365801601,1024,0.0,99,Assisted_Takeoff,
0.374131981641685,36.9266630415391,3000,2018-04-18 05:16:23,1632.4633090388206,0.0,0.0,0.006956050222593601,1632.4633090388206,0.0,0.0,0.011431300365801601,1026,0.0,99,Assisted_Takeoff,
0.37413197933255105,36.9266630163521,3100,2018-04-18 05:16:23,1632.4633090388206,0.0,0.0,0.00873794027961408,1632.4633090388206,0.0,0.0,0.011431300365801601,1081,0.0,99,Assisted_Takeoff,
0.374131975040787,36.9266629985669,3200,2018-04-18 05:16:24,1632.4633090388206,0.0,0.0,0.0104733003351456,1632.4633090388206,0.0,0.0,0.011431300365801601,1171,0.0,99,Assisted_Takeoff,
0.37413197800496206,36.926662987665296,3300,2018-04-18 05:16:24,1632.4633090388206,0.0,0.0,0.011203500358512,1632.4633090388206,0.0,0.0,0.011431300365801601,1193,0.0,99,Assisted_Takeoff,
0.37413197721435293,36.926662979096605,3400,2018-04-18 05:16:24,1632.4633090388206,0.0,0.0,0.012031300385001602,1632.4633090388206,0.0,0.0,0.012031300385001602,1217,0.0,99,Assisted_Takeoff,
0.374131981350601,36.926662976685,3500,2018-04-18 05:16:24,1632.4633090388206,0.0,0.0,0.0120062003841984,1632.4633090388206,0.0,0.0,0.012031300385001602,1277,0.0,99,Assisted_Takeoff,
0.374131982572748,36.926662974404,3600,2018-04-18 05:16:24,1632.4633090388206,0.0,0.0,0.012153200388902401,1632.4633090388206,0.0,0.0,0.012153200388902401,1284,0.0,99,Assisted_Takeoff,
0.374131984627437,36.9266629749731,3700,2018-04-18 05:16:24,1632.4633090388206,0.0,0.0,0.011983800383481602,1632.4633090388206,0.0,0.0,0.012153200388902401,1300,0.0,99,Assisted_Takeoff,
0.37413198704771206,36.9266629803444,3800,2018-04-18 05:16:24,1632.4633090388206,0.0,0.0,0.0113318003626176,1632.4633090388206,0.0,0.0,0.012153200388902401,1314,0.0,99,Assisted_Takeoff,
0.37413201149798403,36.9266629787845,3900,2018-04-18 05:16:24,1632.4633090388206,0.0,0.0,0.010411000333152001,1632.4633090388206,0.0,0.0,0.012153200388902401,1345,0.0,99,Assisted_Takeoff,
0.37413206090009005,36.9266630039955,4000,2018-04-18 05:16:24,1632.4633090388206,0.0,0.0,0.007615940243710081,1632.4633090388206,0.0,0.0,0.012153200388902401,1357,0.0,99,P-GPS,Obstacle Avoided. Revise Flight Route
0.374132142697646,36.9266630701938,4100,2018-04-18 05:16:24,1632.4633090388206,0.0,0.0,0.011638200372422402,1632.4633090388206,0.0,0.0,0.012153200388902401,1362,0.0,99,P-GPS,
0.37413223831702797,36.9266631317048,4200,2018-04-18 05:16:24,1632.4633090388206,0.0,0.0,0.0233511007472352,1632.4633090388206,0.0,0.0,0.0233511007472352,1364,0.0,99,P-GPS,
0.374132382690394,36.926663204785,4300,2018-04-18 05:16:25,1632.5633090420206,0.10000000320000002,0.35999970196000003,0.041210801318745605,1632.5633090420206,0.10000000320000002,0.35999970196000003,0.041210801318745605,1394,0.0,99,P-GPS,
0.37413250665610104,36.9266632755564,4400,2018-04-18 05:16:25,1632.7633090484205,0.3000000096,0.0,0.0569688018230016,1632.7633090484205,0.3000000096,0.35999970196000003,0.0569688018230016,1411,0.0,99,P-GPS,
0.374132573907988,36.9266633895077,4500,2018-04-18 05:16:25,1632.8633090516205,0.4000000128000001,0.0,0.0694607022227424,1632.8633090516205,0.4000000128000001,0.35999970196000003,0.0694607022227424,1407,0.0,99,P-GPS,
0.374132628617396,36.9266634871421,4600,2018-04-18 05:16:25,1632.9633090548205,0.500000016,0.0,0.0804972025759104,1632.9633090548205,0.500000016,0.35999970196000003,0.0804972025759104,1401,0.0,99,P-GPS,
0.374132693810319,36.9266635646226,4700,2018-04-18 05:16:25,1633.1633090612206,0.7000000224000001,0.0,0.0914383029260256,1633.1633090612206,0.7000000224000001,0.35999970196000003,0.0914383029260256,1398,0.0,99,P-GPS,Home Point Recorded. RTH Altitude:  30m.
0.37413275434996396,36.926663623530395,4800,2018-04-18 05:16:25,1633.3633090676205,0.9000000288000001,0.0,0.10076600322451201,1633.3633090676205,0.9000000288000001,0.35999970196000003,0.10076600322451201,1390,0.0,99,P-GPS,
0.37413287045109994,36.9266637332859,4900,2018-04-18 05:16:25,1633.5633090740205,1.1000000352,0.0,0.118461003790752,1633.5633090740205,1.1000000352,0.35999970196000003,0.118461003790752,1387,0.0,99,P-GPS,
0.374132955684673,36.9266638081246,5000,2018-04-18 05:16:25,1633.7633090804204,1.3000000416000002,0.0,0.13106200419398403,1633.7633090804204,1.3000000416000002,0.35999970196000003,0.13106200419398403,1387,0.0,99,P-GPS,
0.374133068566986,36.926663904628896,5100,2018-04-18 05:16:25,1634.0633090900205,1.6000000512000003,0.0,0.147571004722272,1634.0633090900205,1.6000000512000003,0.35999970196000003,0.147571004722272,1387,0.0,99,P-GPS,
0.374133176470128,36.9266639906562,5200,2018-04-18 05:16:26,1634.2633090964207,1.8000000576000001,0.0,0.16291600521331198,1634.2633090964207,1.8000000576000001,0.35999970196000003,0.16291600521331198,1390,0.0,99,P-GPS,
0.374133256685651,36.926664056827704,5300,2018-04-18 05:16:26,1634.4633091028204,2.000000064,0.0,0.17448000558336002,1634.4633091028204,2.000000064,0.35999970196000003,0.17448000558336002,1390,0.0,99,P-GPS,
0.37413332740815997,36.9266641246998,5400,2018-04-18 05:16:26,1634.7633091124205,2.3000000736,0.0,0.18534500593103997,1634.7633091124205,2.3000000736,0.35999970196000003,0.18534500593103997,1390,0.0,99,P-GPS,
0.374133416156933,36.9266642409294,5500,2018-04-18 05:16:26,1634.9633091188207,2.50000008,0.0,0.20120500643856,1634.9633091188207,2.50000008,0.35999970196000003,0.20120500643856,1390,0.0,99,P-GPS,
0.374133486135649,36.92666434016171,5600,2018-04-18 05:16:26,1635.1633091252206,2.7000000863999998,0.0,0.214309006857888,1635.1633091252206,2.7000000863999998,0.35999970196000003,0.214309006857888,1391,0.0,99,P-GPS,
0.37413349384714595,36.9266643497679,5700,2018-04-18 05:16:26,1635.3633091316208,2.9000000928,0.0,0.21565800690105602,1635.3633091316208,2.9000000928,0.35999970196000003,0.21565800690105602,1405,0.0,99,P-GPS,
0.374133505805014,36.926664374867,5800,2018-04-18 05:16:26,1635.5633091380205,3.1000000992,0.0,0.21850400699212805,1635.5633091380205,3.1000000992,0.35999970196000003,0.21850400699212805,1424,0.0,99,P-GPS,
0.374133479189521,36.9266643547361,5900,2018-04-18 05:16:26,1635.8633091476206,3.4000001088000005,0.0,0.21480500687376003,1635.8633091476206,3.4000001088000005,0.35999970196000003,0.21850400699212805,1424,0.0,99,P-GPS,
0.374133466918178,36.9266643589083,6000,2018-04-18 05:16:26,1636.0633091540205,3.6000001152000003,0.0,0.214099006851168,1636.0633091540205,3.6000001152000003,0.35999970196000003,0.21850400699212805,1468,0.0,99,P-GPS,
0.37413343717485203,36.926664366598,6100,2018-04-18 05:16:26,1636.2633091604205,3.8000001215999997,0.0,0.21223700679158403,1636.2633091604205,3.8000001215999997,0.35999970196000003,0.21850400699212805,1489,0.0,99,P-GPS,
0.37413342252211296,36.9266643762856,6200,2018-04-18 05:16:26,1636.4633091668204,4.000000128,0.0,0.21178300677705603,1636.4633091668204,4.000000128,0.35999970196000003,0.21850400699212805,1522,0.0,99,P-GPS,
0.37413340029751596,36.9266643537024,6300,2018-04-18 05:16:27,1636.7633091764205,4.3000001376,0.0,0.20826200666438402,1636.7633091764205,4.3000001376,0.35999970196000003,0.21850400699212805,1538,0.0,99,P-GPS,
0.37413338939589796,36.92666435027321,6400,2018-04-18 05:16:27,1636.9633091828207,4.5000001439999995,0.0,0.20711900662780802,1636.9633091828207,4.5000001439999995,0.35999970196000003,0.21850400699212805,1538,0.0,99,P-GPS,
0.37413337604143604,36.926664337086294,6500,2018-04-18 05:16:27,1637.2633091924206,4.8000001536,0.0,0.20503300656105602,1637.2633091924206,4.8000001536,0.35999970196000003,0.21850400699212805,1550,0.0,99,P-GPS,
0.37413337735884705,36.9266643401933,6600,2018-04-18 05:16:27,1637.5633092020205,5.1000001632,0.0,0.205377006572064,1637.5633092020205,5.1000001632,0.35999970196000003,0.21850400699212805,1615,0.0,99,P-GPS,
0.374133384891418,36.92666432368,6700,2018-04-18 05:16:27,1637.8633092116206,5.4000001727999996,0.0,0.204729006551328,1637.8633092116206,5.4000001727999996,0.35999970196000003,0.21850400699212805,1615,0.0,99,P-GPS,
0.37413339342344704,36.9266643160459,6800,2018-04-18 05:16:27,1638.2633092244205,5.8000001856,0.0,0.204848006555136,1638.2633092244205,5.8000001856,0.35999970196000003,0.21850400699212805,1662,0.0,99,P-GPS,
0.3741334316662329,36.9266642895506,6900,2018-04-18 05:16:27,1638.6633092372206,6.2000001984,0.0,0.20604400659340802,1638.6633092372206,6.2000001984,0.35999970196000003,0.21850400699212805,1684,0.0,99,P-GPS,
0.37413346294558897,36.9266642705958,7000,2018-04-18 05:16:27,1639.0633092500204,6.6000002112,0.0,0.207307006633824,1639.0633092500204,6.6000002112,0.35999970196000003,0.21850400699212805,1684,0.0,99,P-GPS,
0.374133525065435,36.9266642845016,7100,2018-04-18 05:16:27,1639.4633092628205,7.000000224,0.0,0.21361000683551998,1639.4633092628205,7.000000224,0.35999970196000003,0.21850400699212805,1684,0.0,99,P-GPS,
0.37413357169715,36.9266642982901,7200,2018-04-18 05:16:28,1639.9633092788206,7.50000024,0.0,0.21860500699536,1639.9633092788206,7.50000024,0.35999970196000003,0.21860500699536,1684,0.0,99,P-GPS,
0.374133609830627,36.9266643206266,7300,2018-04-18 05:16:28,1640.4633092948206,8.000000256,0.0,0.22346800715097598,1640.4633092948206,8.000000256,0.35999970196000003,0.22346800715097598,1684,0.0,99,P-GPS,
0.374133621105159,36.926664353043996,7400,2018-04-18 05:16:28,1640.9633093108205,8.500000272000001,0.0,0.22670400725452802,1640.9633093108205,8.500000272000001,0.35999970196000003,0.22670400725452802,1684,0.0,99,P-GPS,
0.374133608420598,36.926664377689704,7500,2018-04-18 05:16:28,1641.4633093268208,9.000000287999999,0.0,0.227356007275392,1641.4633093268208,9.000000287999999,0.35999970196000003,0.227356007275392,1684,0.0,99,P-GPS,
0.374133597763857,36.926664399630496,7600,2018-04-18 05:16:28,1641.9633093428206,9.500000304,0.0,0.228023007296736,1641.9633093428206,9.500000304,0.35999970196000003,0.228023007296736,1684,0.0,99,P-GPS,
0.37413358550961207,36.926664445862706,7700,2018-04-18 05:16:28,1642.4633093588204,10.00000032,0.0,0.23037400737196803,1642.4633093588204,10.00000032,0.35999970196000003,0.23037400737196803,1684,0.0,99,P-GPS,
0.374133567369153,36.926664499558704,7800,2018-04-18 05:16:28,1642.9633093748205,10.500000336,0.0,0.23290900745308804,1642.9633093748205,10.500000336,0.35999970196000003,0.23290900745308804,1684,0.0,99,P-GPS,
0.37413352034193004,36.9266645388704,7900,2018-04-18 05:16:28,1643.4633093908205,11.000000352000002,0.0,0.232176007429632,1643.4633093908205,11.000000352000002,0.35999970196000003,0.23290900745308804,1684,0.0,99,P-GPS,
0.374133487099892,36.9266645892748,8000,2018-04-18 05:16:28,1643.9633094068206,11.500000367999998,0.0,0.233591007474912,1643.9633094068206,11.500000367999998,0.35999970196000003,0.233591007474912,1684,-0.2,99,P-GPS,
0.374133431945104,36.9266646129715,8100,2018-04-18 05:16:28,1644.4633094228204,12.000000384000002,0.0,0.231352007403264,1644.4633094228204,12.000000384000002,0.35999970196000003,0.233591007474912,1684,-0.7,99,P-GPS,
0.374133378375403,36.926664657067796,8200,2018-04-18 05:16:28,1644.9633094388207,12.500000400000001,0.0,0.23113000739616002,1644.9633094388207,12.500000400000001,0.35999970196000003,0.233591007474912,1684,-1.6,99,P-GPS,
0.37413334108159296,36.926664711951105,8300,2018-04-18 05:16:29,1645.4633094548205,13.000000416,0.0,0.233228007463296,1645.4633094548205,13.000000416,0.35999970196000003,0.233591007474912,1684,-2.9,99,P-GPS,
0.374133311256234,36.9266647898625,8400,2018-04-18 05:16:29,1645.9633094708204,13.500000432000002,0.0,0.23809000761888002,1645.9633094708204,13.500000432000002,0.35999970196000003,0.23809000761888002,1684,-2.9,99,P-GPS,
0.374133273739938,36.9266648715018,8500,2018-04-18 05:16:29,1646.4633094868207,14.000000448,0.0,0.24306600777811202,1646.4633094868207,14.000000448,0.35999970196000003,0.24306600777811202,1684,-4.7,99,P-GPS,
0.37413323842713,36.92666497309,8600,2018-04-18 05:16:29,1646.9633095028205,14.500000464,0.0,0.25034900801116805,1646.9633095028205,14.500000464,0.35999970196000003,0.25034900801116805,1684,-7.1,98,P-GPS,
0.37413319188701505,36.9266650997539,8700,2018-04-18 05:16:29,1647.4633095188206,15.00000048,0.0,0.259778008312896,1647.4633095188206,15.00000048,0.35999970196000003,0.259778008312896,1684,-9.8,98,P-GPS,
0.374133153215134,36.9266652386699,8800,2018-04-18 05:16:29,1647.9633095348204,15.500000496,0.0,0.271324008682368,1647.9633095348204,15.500000496,0.35999970196000003,0.271324008682368,1684,-12.4,98,P-GPS,
0.374133098924846,36.926665366327,8900,2018-04-18 05:16:29,1648.4633095508207,16.000000512,0.0,0.28144000900608,1648.4633095508207,16.000000512,0.35999970196000003,0.28144000900608,1684,-15.1,98,P-GPS,
0.374133051383238,36.9266654926852,9000,2018-04-18 05:16:29,1648.9633095668205,16.500000528,0.0,0.292177009349664,1648.9633095668205,16.500000528,0.35999970196000003,0.292177009349664,1684,-17.8,98,P-GPS,
0.37413298900100894,36.9266655925856,9100,2018-04-18 05:16:29,1649.4633095828203,17.000000544000002,0.0,0.299942009598144,1649.4633095828203,17.000000544000002,0.35999970196000003,0.299942009598144,1684,-20.5,98,P-GPS,
0.37413294006850606,36.9266656959885,9200,2018-04-18 05:16:30,1649.9633095988206,17.50000056,0.0,0.308919009885408,1649.9633095988206,17.50000056,0.35999970196000003,0.308919009885408,1684,-23.1,98,P-GPS,
0.374132883529948,36.926665813791104,9300,2018-04-18 05:16:30,1650.4633096148204,18.000000575999998,0.0,0.31943101022179204,1650.4633096148204,18.000000575999998,0.35999970196000003,0.31943101022179204,1684,-25.3,98,P-GPS,
0.37413283356053395,36.9266659318374,9400,2018-04-18 05:16:30,1650.9633096308205,18.500000592000003,0.0,0.33046801057497605,1650.9633096308205,18.500000592000003,0.35999970196000003,0.33046801057497605,1684,-25.3,98,P-GPS,
0.374132811877395,36.926666069738005,9500,2018-04-18 05:16:30,1651.4633096468206,19.000000608,0.0,0.3446580110290561,1651.4633096468206,19.000000608,0.35999970196000003,0.3446580110290561,1684,-25.3,98,P-GPS,
0.374132792883427,36.926666200932395,9600,2018-04-18 05:16:30,1651.9633096628206,19.500000624000002,0.0,0.358303011465696,1651.9633096628206,19.500000624000002,0.35999970196000003,0.358303011465696,1684,-25.3,98,P-GPS,
0.374132766855193,36.92666635367689,9700,2018-04-18 05:16:30,1652.4633096788205,20.00000064,0.0,0.3742000119744,1652.4633096788205,20.00000064,0.35999970196000003,0.3742000119744,1684,-25.3,98,P-GPS,
0.37413274224859,36.9266664927741,9800,2018-04-18 05:16:30,1652.9633096948207,20.500000655999997,0.0,0.38875501244016003,1652.9633096948207,20.500000655999997,0.35999970196000003,0.38875501244016003,1684,-25.3,98,P-GPS,
0.3741327373365921,36.926666604311706,9900,2018-04-18 05:16:30,1653.4633097108206,21.000000672,0.0,0.4008050128257601,1653.4633097108206,21.000000672,0.35999970196000003,0.4008050128257601,1684,-25.3,98,P-GPS,
0.37413274019858206,36.9266667077534,10000,2018-04-18 05:16:30,1653.9633097268204,21.500000688,0.0,0.41215601318899203,1653.9633097268204,21.500000688,0.35999970196000003,0.41215601318899203,1684,-25.3,98,P-GPS,
0.37413276719899796,36.926666819083295,10100,2018-04-18 05:16:30,1654.4633097428205,22.000000704000005,0.0,0.42488101359619207,1654.4633097428205,22.000000704000005,0.35999970196000003,0.42488101359619207,1684,-25.3,98,P-GPS,
0.37413279492915996,36.9266669182537,10200,2018-04-18 05:16:30,1654.9633097588205,22.50000072,0.0,0.43629601396147205,1654.9633097588205,22.50000072,0.35999970196000003,0.43629601396147205,1684,-25.3,98,P-GPS,
0.374132866233837,36.9266670480858,10300,2018-04-18 05:16:31,1655.4633097748206,23.000000735999997,0.0,0.45202001446464,1655.4633097748206,23.000000735999997,0.35999970196000003,0.45202001446464,1684,-25.3,98,P-GPS,
0.37413292073032595,36.9266671615812,10400,2018-04-18 05:16:31,1655.9633097908204,23.500000752000002,0.0,0.46562301489993607,1655.9633097908204,23.500000752000002,0.35999970196000003,0.46562301489993607,1684,-25.3,98,P-GPS,
0.37413295915794104,36.926667316452,10500,2018-04-18 05:16:31,1656.5633098100207,24.100000771199998,0.0,0.48336001546752005,1656.5633098100207,24.100000771199998,0.35999970196000003,0.48336001546752005,1684,-25.3,98,P-GPS,
0.374132989836808,36.926667438346705,10600,2018-04-18 05:16:31,1656.9633098228205,24.500000784000004,0.0,0.49733001591456005,1656.9633098228205,24.500000784000004,0.35999970196000003,0.49733001591456005,1684,-25.3,98,P-GPS,
0.37413299771135206,36.926667587362296,10700,2018-04-18 05:16:31,1657.4633098388206,25.000000800000002,0.0,0.51371501643888,1657.4633098388206,25.000000800000002,0.35999970196000003,0.51371501643888,1684,-25.3,98,P-GPS,
0.37413300505726294,36.9266677029209,10800,2018-04-18 05:16:31,1657.9633098548206,25.500000816,0.0,0.526458016846656,1657.9633098548206,25.500000816,0.35999970196000003,0.526458016846656,1684,-25.3,98,P-GPS,
0.37413303466095,36.926667809444105,10900,2018-04-18 05:16:31,1658.4633098708205,26.000000832,0.0,0.538727017239264,1658.4633098708205,26.000000832,0.35999970196000003,0.538727017239264,1684,-25.3,98,P-GPS,
0.37413306251670597,36.9266678918326,11000,2018-04-18 05:16:31,1658.9633098868205,26.500000848000003,0.0,0.548332017546624,1658.9633098868205,26.500000848000003,0.35999970196000003,0.548332017546624,1684,-25.3,98,P-GPS,
0.374133082129889,36.9266679813355,11100,2018-04-18 05:16:31,1659.5633099060205,27.100000867200002,0.0,0.5585210178726722,1659.5633099060205,27.100000867200002,0.35999970196000003,0.5585210178726722,1684,-25.3,98,P-GPS,
0.374133104799255,36.9266680482354,11200,2018-04-18 05:16:31,1660.0633099220206,27.6000008832,0.0,0.5663230181223361,1660.0633099220206,27.6000008832,0.35999970196000003,0.5663230181223361,1684,-25.3,98,P-GPS,
0.37413314933536607,36.9266680910166,11300,2018-04-18 05:16:32,1660.5633099380204,28.1000008992,0.0,0.5720250183048,1660.5633099380204,28.1000008992,0.35999970196000003,0.5720250183048,1684,-25.3,98,P-GPS,
0.37413318500806,36.9266681248202,11400,2018-04-18 05:16:32,1661.0633099540207,28.600000915200003,0.0,0.57656001844992,1661.0633099540207,28.600000915200003,0.35999970196000003,0.57656001844992,1684,-25.3,98,P-GPS,
0.3741331942602679,36.926668156124,11500,2018-04-18 05:16:32,1661.5633099700206,29.1000009312,0.0,0.5801830185658561,1661.5633099700206,29.1000009312,0.35999970196000003,0.5801830185658561,1684,-25.3,98,P-GPS,
0.37413320335614597,36.9266681781559,11600,2018-04-18 05:16:32,1662.0633099860204,29.6000009472,0.0,0.5827960186494721,1662.0633099860204,29.6000009472,0.35999970196000003,0.5827960186494721,1684,-25.3,98,P-GPS,
0.37413324022676403,36.9266681726137,11700,2018-04-18 05:16:32,1662.5633100020207,30.1000009632,0.0,0.583122018659904,1662.5633100020207,30.1000009632,0.35999970196000003,0.583122018659904,1684,-25.3,98,P-GPS,
0.3741332758367629,36.9266681715426,11800,2018-04-18 05:16:32,1663.0633100180205,30.6000009792,0.0,0.5839270186856641,1663.0633100180205,30.6000009792,0.35999970196000003,0.5839270186856641,1684,-25.3,98,P-GPS,
0.374133296786899,36.9266681621011,11900,2018-04-18 05:16:32,1663.5633100340206,31.100000995200002,0.0,0.5834610186707521,1663.5633100340206,31.100000995200002,0.35999970196000003,0.5839270186856641,1684,-25.3,98,P-GPS,
0.37413332371769803,36.926668148625204,12000,2018-04-18 05:16:32,1664.0633100500206,31.6000010112,0.0,0.582734018647488,1664.0633100500206,31.6000010112,0.35999970196000003,0.5839270186856641,1684,-25.3,98,P-GPS,
0.37413337742256003,36.9266681619629,12100,2018-04-18 05:16:32,1664.5633100660207,32.1000010272,0.0,0.585662018741184,1664.5633100660207,32.1000010272,0.35999970196000003,0.585662018741184,1684,-25.3,98,P-GPS,
0.3741334364206789,36.9266681746166,12200,2018-04-18 05:16:32,1665.0633100820205,32.6000010432,0.0,0.588722018839104,1665.0633100820205,32.6000010432,0.35999970196000003,0.588722018839104,1684,-25.3,98,P-GPS,
0.3741335135342199,36.9266681852663,12300,2018-04-18 05:16:33,1665.5633100980203,33.100001059200004,0.0,0.592183018949856,1665.5633100980203,33.100001059200004,0.35999970196000003,0.592183018949856,1684,-25.3,98,P-GPS,
0.37413357361016497,36.926668183616,12400,2018-04-18 05:16:33,1666.1633101172206,33.70000107840001,0.0,0.593893019004576,1666.1633101172206,33.70000107840001,0.35999970196000003,0.593893019004576,1684,-25.3,98,P-GPS,
0.3741336134583929,36.9266681314722,12500,2018-04-18 05:16:33,1666.5633101300205,34.1000010912,0.0,0.589643018868576,1666.5633101300205,34.1000010912,0.35999970196000003,0.593893019004576,1684,-25.3,98,P-GPS,
0.374133636788092,36.9266680825937,12600,2018-04-18 05:16:33,1667.0633101460205,34.6000011072,0.0,0.585238018727616,1667.0633101460205,34.6000011072,0.35999970196000003,0.593893019004576,1684,-25.3,98,P-GPS,
0.37413366171549894,36.92666804499979,12700,2018-04-18 05:16:33,1667.6633101652205,35.2000011264,0.0,0.5821100186275201,1667.6633101652205,35.2000011264,0.35999970196000003,0.593893019004576,1684,-25.3,98,P-GPS,
0.374133691962828,36.9266680131741,12800,2018-04-18 05:16:33,1668.1633101812206,35.7000011424,0.0,0.5798050185537601,1668.1633101812206,35.7000011424,0.35999970196000003,0.593893019004576,1684,-25.3,98,P-GPS,
0.374133708975183,36.9266679635407,12900,2018-04-18 05:16:33,1668.6633101972207,36.200001158400006,0.0,0.575182018405824,1668.6633101972207,36.200001158400006,0.35999970196000003,0.593893019004576,1684,-25.3,98,P-GPS,
0.37413373058504207,36.9266679128773,13000,2018-04-18 05:16:33,1669.1633102132205,36.7000011744,0.0,0.5706410182605121,1669.1633102132205,36.7000011744,0.35999970196000003,0.593893019004576,1684,-25.3,98,P-GPS,
0.374133774643001,36.9266678412851,13100,2018-04-18 05:16:33,1669.6633102292205,37.2000011904,0.0,0.564788018073216,1669.6633102292205,37.2000011904,0.35999970196000003,0.593893019004576,1684,-25.3,98,P-GPS,
0.374133818182505,36.926667778035295,13200,2018-04-18 05:16:34,1670.1633102452204,37.700001206399996,0.0,0.559877017916064,1670.1633102452204,37.700001206399996,0.35999970196000003,0.593893019004576,1684,-25.3,98,P-GPS,
0.3741338813636889,36.9266676778026,13300,2018-04-18 05:16:34,1670.6633102612207,38.2000012224,0.0,0.55203501766512,1670.6633102612207,38.2000012224,0.35999970196000003,0.593893019004576,1684,-25.3,98,P-GPS,
0.37413392808924295,36.9266676079548,13400,2018-04-18 05:16:34,1671.1633102772205,38.700001238400006,0.0,0.546807017497824,1671.1633102772205,38.700001238400006,0.35999970196000003,0.593893019004576,1684,-25.3,98,P-GPS,
0.37413399581460105,36.926667555436,13500,2018-04-18 05:16:34,1671.5633102900206,39.100001251200005,0.0,0.544388017420416,1671.5633102900206,39.100001251200005,0.35999970196000003,0.593893019004576,1684,-25.3,98,P-GPS,
0.37413403480586,36.9266675212206,13600,2018-04-18 05:16:34,1672.0633103060204,39.60000126719999,0.0,0.5426620173651839,1672.0633103060204,39.60000126719999,0.35999970196000003,0.593893019004576,1684,-25.3,98,P-GPS,
0.37413406484698797,36.92666748232121,13700,2018-04-18 05:16:34,1672.5633103220207,40.10000128320001,0.0,0.540104017283328,1672.5633103220207,40.10000128320001,0.35999970196000003,0.593893019004576,1684,-25.3,98,P-GPS,
0.37413407023612,36.9266674542637,13800,2018-04-18 05:16:34,1673.0633103380205,40.6000012992,0.0,0.537522017200704,1673.0633103380205,40.6000012992,0.35999970196000003,0.593893019004576,1684,-25.3,98,P-GPS,
0.3741340626825821,36.92666740874,13900,2018-04-18 05:16:34,1673.5633103540204,41.100001315200004,0.0,0.532577017042464,1673.5633103540204,41.100001315200004,0.35999970196000003,0.593893019004576,1684,-25.3,98,P-GPS,
0.374134049204766,36.926667379582895,14000,2018-04-18 05:16:34,1674.0633103700206,41.600001331200005,0.0,0.5290050169281599,1674.0633103700206,41.600001331200005,0.35999970196000003,0.593893019004576,1684,-25.3,98,P-GPS,
0.374134044423451,36.9266672988946,14100,2018-04-18 05:16:34,1674.5633103860205,42.1000013472,0.0,0.520659016661088,1674.5633103860205,42.1000013472,0.35999970196000003,0.593893019004576,1684,-25.3,98,P-GPS,
0.37413403697474396,36.926667243840704,14200,2018-04-18 05:16:34,1675.0633104020205,42.60000136320001,0.0,0.514776016472832,1675.0633104020205,42.60000136320001,0.35999970196000003,0.593893019004576,1684,-25.3,98,P-GPS,
0.3741340448757511,36.9266671683015,14300,2018-04-18 05:16:35,1675.6633104212206,43.200001382399996,0.0,0.507598016243136,1675.6633104212206,43.200001382399996,0.35999970196000003,0.593893019004576,1684,-25.3,98,P-GPS,
0.374134047927658,36.92666710834929,14400,2018-04-18 05:16:35,1676.0633104340207,43.6000013952,0.0,0.5017700160566401,1676.0633104340207,43.6000013952,0.35999970196000003,0.593893019004576,1684,-25.3,98,P-GPS,
0.37413409510490203,36.9266670213981,14500,2018-04-18 05:16:35,1676.5633104500205,44.100001411200004,0.0,0.49553201585702406,1676.5633104500205,44.100001411200004,0.35999970196000003,0.593893019004576,1684,-25.3,98,P-GPS,
0.37413411669094504,36.926666954247,14600,2018-04-18 05:16:35,1677.0633104660203,44.6000014272,0.0,0.490047015681504,1677.0633104660203,44.6000014272,0.35999970196000003,0.593893019004576,1684,-25.3,98,P-GPS,
0.374134129282685,36.9266668867148,14700,2018-04-18 05:16:35,1677.5633104820206,45.10000144320001,0.0,0.48411001549152005,1677.5633104820206,45.10000144320001,0.35999970196000003,0.593893019004576,1684,-25.3,98,P-GPS,
0.374134120123095,36.9266668446746,14800,2018-04-18 05:16:35,1678.0633104980204,45.6000014592,0.0,0.47952201534470396,1678.0633104980204,45.6000014592,0.35999970196000003,0.593893019004576,1684,-25.3,98,P-GPS,
0.37413411454750606,36.926666769943,14900,2018-04-18 05:16:35,1678.5633105140205,46.1000014752,0.0,0.47195801510265606,1678.5633105140205,46.1000014752,0.35999970196000003,0.593893019004576,1684,-25.3,98,P-GPS,
0.374134113622346,36.9266667246719,15000,2018-04-18 05:16:35,1679.0633105300205,46.600001491200004,0.0,0.46752301496073606,1679.0633105300205,46.600001491200004,0.35999970196000003,0.593893019004576,1684,-25.3,98,P-GPS,
0.374134134200382,36.9266666390743,15100,2018-04-18 05:16:35,1679.5633105460206,47.1000015072,0.0,0.460424014733568,1679.5633105460206,47.1000015072,0.35999970196000003,0.593893019004576,1684,-25.3,98,P-GPS,
0.374134152010471,36.926666586022,15200,2018-04-18 05:16:35,1680.0633105620204,47.60000152320001,0.0,0.45636301460361606,1680.0633105620204,47.60000152320001,0.35999970196000003,0.593893019004576,1684,-25.3,98,P-GPS,
0.374134183074058,36.9266665054621,15300,2018-04-18 05:16:36,1680.5633105780207,48.1000015392,0.0,0.45052701441686405,1680.5633105780207,48.1000015392,0.35999970196000003,0.593893019004576,1684,-25.3,98,P-GPS,
0.37413420176330203,36.9266664451531,15400,2018-04-18 05:16:36,1681.0633105940205,48.6000015552,0.0,0.44597001427104,1681.0633105940205,48.6000015552,0.35999970196000003,0.593893019004576,1684,-25.3,98,P-GPS,
0.37413420567808203,36.926666371532,15500,2018-04-18 05:16:36,1681.5633106100204,49.1000015712,0.0,0.4393380140588161,1681.5633106100204,49.1000015712,0.35999970196000003,0.593893019004576,1684,-25.3,98,P-GPS,
0.37413420665555497,36.9266663265583,15600,2018-04-18 05:16:36,1682.0633106260207,49.6000015872,0.0,0.435226013927232,1682.0633106260207,49.6000015872,0.35999970196000003,0.593893019004576,1684,-25.3,98,P-GPS,
0.374134215511441,36.926666260769295,15700,2018-04-18 05:16:36,1682.5633106420205,50.100001603200006,0.0,0.429709013750688,1682.5633106420205,50.100001603200006,0.35999970196000003,0.593893019004576,1684,-25.3,98,P-GPS,
0.37413422642771504,36.9266662101593,15800,2018-04-18 05:16:36,1683.0633106580206,50.6000016192,0.0,0.42576401362444805,1683.0633106580206,50.6000016192,0.35999970196000003,0.593893019004576,1684,-25.3,98,P-GPS,
0.3741342381565829,36.9266661772909,15900,2018-04-18 05:16:36,1683.5633106740204,51.1000016352,0.0,0.42352201355270397,1683.5633106740204,51.1000016352,0.35999970196000003,0.593893019004576,1684,-25.3,98,P-GPS,
0.374134264645057,36.9266661622476,16000,2018-04-18 05:16:36,1684.0633106900207,51.600001651199996,0.0,0.423872013563904,1684.0633106900207,51.600001651199996,0.35999970196000003,0.593893019004576,1684,-25.3,98,P-GPS,
0.37413430692373795,36.926666100655495,16100,2018-04-18 05:16:36,1684.5633107060205,52.1000016672,0.0,0.42113201347622403,1684.5633107060205,52.1000016672,0.35999970196000003,0.593893019004576,1684,-25.3,98,P-GPS,
0.37413436420985297,36.9266660512127,16200,2018-04-18 05:16:36,1685.0633107220206,52.600001683200006,0.0,0.42063001346016,1685.0633107220206,52.600001683200006,0.35999970196000003,0.593893019004576,1684,-25.3,98,P-GPS,
0.3741344419144171,36.926666019291,16300,2018-04-18 05:16:37,1685.5633107380206,53.1000016992,0.0,0.42324101354371196,1685.5633107380206,53.1000016992,0.35999970196000003,0.593893019004576,1684,-25.3,98,P-GPS,
0.374134502735477,36.9266660132345,16400,2018-04-18 05:16:37,1686.0633107540204,53.6000017152,0.0,0.427028013664896,1686.0633107540204,53.6000017152,0.35999970196000003,0.593893019004576,1684,-25.3,98,P-GPS,
0.37413453927562296,36.9266659931087,16500,2018-04-18 05:16:37,1686.5633107700205,54.100001731199995,0.0,0.42794401369420804,1686.5633107700205,54.100001731199995,0.35999970196000003,0.593893019004576,1684,-25.3,98,P-GPS,
0.37413456097871006,36.9266659959977,16600,2018-04-18 05:16:37,1687.0633107860206,54.6000017472,0.0,0.42976001375232004,1687.0633107860206,54.6000017472,0.35999970196000003,0.593893019004576,1684,-25.3,98,P-GPS,
0.374134572407945,36.926665969559004,16700,2018-04-18 05:16:37,1687.5633108020206,55.1000017632,0.0,0.4283730137079361,1687.5633108020206,55.1000017632,0.35999970196000003,0.593893019004576,1684,-25.3,98,P-GPS,
0.374134579022989,36.926665961831205,16800,2018-04-18 05:16:37,1688.0633108180205,55.6000017792,0.0,0.42821101370275205,1688.0633108180205,55.6000017792,0.35999970196000003,0.593893019004576,1684,-25.3,98,P-GPS,
0.37413459974158103,36.926665941361996,16900,2018-04-18 05:16:37,1688.5633108340207,56.10000179520001,0.0,0.42803301369705604,1688.5633108340207,56.10000179520001,0.35999970196000003,0.593893019004576,1684,-25.3,98,P-GPS,
0.374134612121012,36.9266659406629,17000,2018-04-18 05:16:37,1689.0633108500206,56.600001811199995,0.0,0.428893013724576,1689.0633108500206,56.600001811199995,0.35999970196000003,0.593893019004576,1684,-25.3,98,P-GPS,
0.37413465616563796,36.9266659260767,17100,2018-04-18 05:16:37,1689.5633108660206,57.100001827199996,0.0,0.43098001379136,1689.5633108660206,57.100001827199996,0.35999970196000003,0.593893019004576,1684,-25.3,98,P-GPS,
0.37413469046392606,36.926665925835295,17200,2018-04-18 05:16:38,1690.0633108820205,57.600001843200005,0.0,0.43354601387347197,1690.0633108820205,57.600001843200005,0.35999970196000003,0.593893019004576,1684,-25.3,98,P-GPS,
0.37413471154769606,36.926665914352796,17300,2018-04-18 05:16:38,1690.5633108980205,58.100001859200006,0.0,0.4342130138948161,1690.5633108980205,58.100001859200006,0.35999970196000003,0.593893019004576,1684,-25.3,98,P-GPS,
0.374134723525003,36.926665918242705,17400,2018-04-18 05:16:38,1691.0633109140206,58.60000187520001,0.0,0.43544101393411205,1691.0633109140206,58.60000187520001,0.35999970196000003,0.593893019004576,1684,-25.3,98,P-GPS,
0.37413476543738594,36.9266659168401,17500,2018-04-18 05:16:38,1691.5633109300204,59.1000018912,0.0,0.438538014033216,1691.5633109300204,59.1000018912,0.35999970196000003,0.593893019004576,1684,-25.3,98,P-GPS,
0.37413479557245394,36.926665930879004,17600,2018-04-18 05:16:38,1692.0633109460207,59.6000019072,0.0,0.44198501414352004,1692.0633109460207,59.6000019072,0.35999970196000003,0.593893019004576,1684,-25.3,98,P-GPS,
0.37413481528029097,36.926665933363296,17700,2018-04-18 05:16:38,1692.5633109620205,60.100001923200004,0.0,0.443707014198624,1692.5633109620205,60.100001923200004,0.35999970196000003,0.593893019004576,1684,-25.3,98,P-GPS,
0.374134829053059,36.9266659460558,17800,2018-04-18 05:16:38,1693.1633109812208,60.7000019424,0.0,0.44578701426518397,1693.1633109812208,60.7000019424,0.35999970196000003,0.593893019004576,1684,-25.3,98,P-GPS,
0.374134838669734,36.92666594378179,17900,2018-04-18 05:16:38,1693.6633109972206,61.2000019584,0.0,0.446351014283232,1693.6633109972206,61.2000019584,0.35999970196000003,0.593893019004576,1684,-25.3,98,P-GPS,
0.374134843923399,36.9266659514534,18000,2018-04-18 05:16:38,1694.1633110132204,61.7000019744,0.0,0.44737001431584006,1694.1633110132204,61.7000019744,0.35999970196000003,0.593893019004576,1684,-25.3,98,P-GPS,
0.37413487139209395,36.926665935724294,18100,2018-04-18 05:16:38,1694.5633110260205,62.1000019872,0.0,0.44826001434432006,1694.5633110260205,62.1000019872,0.35999970196000003,0.593893019004576,1684,-25.3,98,P-GPS,
0.37413488861563793,36.9266659268411,18200,2018-04-18 05:16:38,1695.0633110420206,62.600002003200004,0.0,0.44890801436505606,1695.0633110420206,62.600002003200004,0.35999970196000003,0.593893019004576,1684,-25.3,98,P-GPS,
0.37413492638515705,36.9266659056492,18300,2018-04-18 05:16:39,1695.5633110580206,63.100002019200005,0.0,0.45022901440732804,1695.5633110580206,63.100002019200005,0.35999970196000003,0.593893019004576,1684,-25.3,98,P-GPS,
0.374134948721811,36.9266658961958,18400,2018-04-18 05:16:39,1696.0633110740205,63.600002035200006,0.0,0.45127201444070403,1696.0633110740205,63.600002035200006,0.35999970196000003,0.593893019004576,1684,-25.3,98,P-GPS,
0.37413495936684793,36.926665885469,18500,2018-04-18 05:16:39,1696.5633110900205,64.1000020512,0.0,0.4512930144413761,1696.5633110900205,64.1000020512,0.35999970196000003,0.593893019004576,1684,-25.3,98,P-GPS,
0.37413494358274696,36.9266658928576,18600,2018-04-18 05:16:39,1697.0633111060206,64.60000206720001,0.0,0.450603014419296,1697.0633111060206,64.60000206720001,0.35999970196000003,0.593893019004576,1684,-25.3,98,P-GPS,
0.374134924523337,36.926665901515996,18700,2018-04-18 05:16:39,1697.5633111220207,65.1000020832,0.0,0.44976001439232,1697.5633111220207,65.1000020832,0.35999970196000003,0.593893019004576,1684,-25.3,98,P-GPS,
0.374134901410831,36.9266659223531,18800,2018-04-18 05:16:39,1698.0633111380205,65.60000209920001,0.0,0.4495610143859519,1698.0633111380205,65.60000209920001,0.35999970196000003,0.593893019004576,1684,-25.3,98,P-GPS,
0.37413489856705895,36.926665966678705,18900,2018-04-18 05:16:39,1698.5633111540208,66.10000211520001,0.0,0.45283201449062394,1698.5633111540208,66.10000211520001,0.35999970196000003,0.593893019004576,1684,-25.3,98,P-GPS,
0.37413489360814206,36.926666014939705,19000,2018-04-18 05:16:39,1699.0633111700206,66.6000021312,0.0,0.4562830146010561,1699.0633111700206,66.6000021312,0.35999970196000003,0.593893019004576,1684,-25.3,98,P-GPS,
0.37413489984070597,36.9266660356204,19100,2018-04-18 05:16:39,1699.5633111860204,67.10000214720002,0.0,0.45841901466940804,1699.5633111860204,67.10000214720002,0.35999970196000003,0.593893019004576,1684,-25.3,98,P-GPS,
0.37413489117249804,36.926666055687896,19200,2018-04-18 05:16:40,1700.0633112020207,67.60000216319999,0.0,0.45936101469955204,1700.0633112020207,67.60000216319999,0.35999970196000003,0.593893019004576,1684,-25.3,98,P-GPS,
0.374134895539171,36.9266660481192,19300,2018-04-18 05:16:40,1700.5633112180205,68.1000021792,0.0,0.45908901469084806,1700.5633112180205,68.1000021792,0.35999970196000003,0.593893019004576,1684,-25.3,98,P-GPS,
0.37413490745500394,36.9266660504036,19500,2018-04-18 05:16:40,1701.5633112500204,69.1000022112,0.0,0.46019001472608007,1701.5633112500204,69.1000022112,0.35999970196000003,0.593893019004576,1684,-25.3,98,P-GPS,
0.37413491187999603,36.92666605705671,19600,2018-04-18 05:16:40,1702.0633112660207,69.60000222720001,0.0,0.46106401475404807,1702.0633112660207,69.60000222720001,0.35999970196000003,0.593893019004576,1684,-25.3,97,P-GPS,
0.37413492904043705,36.9266660815515,19700,2018-04-18 05:16:40,1702.5633112820205,70.1000022432,0.0,0.46435101485923197,1702.5633112820205,70.1000022432,0.35999970196000003,0.593893019004576,1684,-25.3,97,P-GPS,
0.37413493187749197,36.926666110396,19800,2018-04-18 05:16:40,1703.0633112980204,70.60000225920001,0.0,0.46688801494041604,1703.0633112980204,70.60000225920001,0.35999970196000003,0.593893019004576,1684,-25.3,97,P-GPS,
0.374134937942529,36.9266661209368,19900,2018-04-18 05:16:40,1703.5633113140207,71.10000227520001,0.0,0.468202014982464,1703.5633113140207,71.10000227520001,0.35999970196000003,0.593893019004576,1684,-25.3,97,P-GPS,
0.374134932133768,36.926666140556996,20000,2018-04-18 05:16:40,1704.1633113332205,71.7000022944,0.0,0.469343015018976,1704.1633113332205,71.7000022944,0.35999970196000003,0.593893019004576,1684,-25.3,97,P-GPS,
0.374134932815577,36.9266661396992,20100,2018-04-18 05:16:40,1704.6633113492207,72.2000023104,0.0,0.469326015018432,1704.6633113492207,72.2000023104,0.35999970196000003,0.593893019004576,1684,-25.3,97,P-GPS,
0.374134926558993,36.9266661522343,20200,2018-04-18 05:16:40,1705.1633113652206,72.70000232640001,0.0,0.46986501503568,1705.1633113652206,72.70000232640001,0.35999970196000003,0.593893019004576,1684,-25.3,97,P-GPS,
0.37413492894425704,36.926666148235796,20300,2018-04-18 05:16:41,1705.6633113812204,73.2000023424,0.0,0.469722015031104,1705.6633113812204,73.2000023424,0.35999970196000003,0.593893019004576,1684,-25.3,97,P-GPS,
0.37413492460821896,36.9266661586677,20400,2018-04-18 05:16:41,1706.1633113972205,73.7000023584,0.0,0.47023901504764803,1706.1633113972205,73.7000023584,0.35999970196000003,0.593893019004576,1684,-25.3,97,P-GPS,
0.374134893898005,36.9266661472846,20500,2018-04-18 05:16:41,1706.6633114132205,74.2000023744,0.0,0.466986014943552,1706.6633114132205,74.2000023744,0.35999970196000003,0.593893019004576,1684,-25.3,97,P-GPS,
0.37413486530975393,36.9266661456706,20600,2018-04-18 05:16:41,1707.1633114292206,74.7000023904,0.0,0.4646970148703039,1707.1633114292206,74.7000023904,0.35999970196000003,0.593893019004576,1684,-25.3,97,P-GPS,
0.37413488928849,36.9266661629101,20700,2018-04-18 05:16:41,1707.6633114452204,75.20000240640002,0.0,0.467914014973248,1707.6633114452204,75.20000240640002,0.35999970196000003,0.593893019004576,1482,-25.3,97,P-GPS,
0.374134900997613,36.926666185865,20800,2018-04-18 05:16:41,1708.1633114612207,75.7000024224,0.0,0.47067401506156803,1708.1633114612207,75.7000024224,0.35999970196000003,0.593893019004576,1024,-25.3,97,P-GPS,
0.374134889368488,36.926666159407,20900,2018-04-18 05:16:41,1708.5633114740206,76.10000243520001,0.0,0.4676330149642561,1708.5633114740206,76.10000243520001,0.35999970196000003,0.593893019004576,1024,-25.3,97,P-GPS,
0.374134872300563,36.9266661528505,21000,2018-04-18 05:16:41,1709.0633114900206,76.6000024512,0.0,0.465811014905952,1709.0633114900206,76.6000024512,0.35999970196000003,0.593893019004576,1024,-25.3,97,P-GPS,
0.374134853852837,36.926666172024,21100,2018-04-18 05:16:41,1709.3633114996205,76.9000024608,0.0,0.466003014912096,1709.3633114996205,76.9000024608,0.35999970196000003,0.593893019004576,1024,-25.3,97,P-GPS,
0.374134831450638,36.9266661926289,21200,2018-04-18 05:16:42,1709.6633115092206,77.20000247040001,0.0,0.466038014913216,1709.6633115092206,77.20000247040001,0.35999970196000003,0.593893019004576,1024,-25.3,97,P-GPS,
0.37413483407772496,36.926666194430794,21300,2018-04-18 05:16:42,1709.8633115156206,77.40000247680001,0.0,0.466382014924224,1709.8633115156206,77.40000247680001,0.35999970196000003,0.593893019004576,1024,-25.3,97,P-GPS,
0.374134837585801,36.9266662019214,21400,2018-04-18 05:16:42,1710.0633115220207,77.6000024832,0.0,0.46726301495241607,1710.0633115220207,77.6000024832,0.35999970196000003,0.593893019004576,1024,-25.3,97,P-GPS,
0.37413489416395,36.92666619459921,21500,2018-04-18 05:16:42,1710.0633115220207,77.6000024832,0.0,0.47087701506806395,1710.0633115220207,77.6000024832,0.35999970196000003,0.593893019004576,1024,-25.3,97,P-GPS,
0.374134948407114,36.9266661941369,21600,2018-04-18 05:16:42,1710.1633115252205,77.70000248640001,0.0,0.47492901519772807,1710.1633115252205,77.70000248640001,0.35999970196000003,0.593893019004576,983,-25.3,97,P-GPS,
0.374135018435295,36.9266661759952,21700,2018-04-18 05:16:42,1710.1633115252205,77.70000248640001,0.0,0.47881201532198403,1710.1633115252205,77.70000248640001,0.35999970196000003,0.593893019004576,855,-25.3,97,P-GPS,
0.37413508961091796,36.9266661533788,21800,2018-04-18 05:16:42,1710.1633115252205,77.70000248640001,0.0,0.48253301544105603,1710.1633115252205,77.70000248640001,0.35999970196000003,0.593893019004576,741,-25.3,97,P-GPS,
0.374135151666797,36.92666614682629,21900,2018-04-18 05:16:42,1710.1633115252205,77.70000248640001,0.0,0.48689901558076804,1710.1633115252205,77.70000248640001,0.35999970196000003,0.593893019004576,644,-25.3,97,P-GPS,
0.374135213985058,36.926666125219604,22000,2018-04-18 05:16:42,1710.1633115252205,77.70000248640001,0.0,0.490182015685824,1710.1633115252205,77.70000248640001,0.35999970196000003,0.593893019004576,570,-25.3,97,P-GPS,
0.37413530470145,36.926666094967,22100,2018-04-18 05:16:42,1710.1633115252205,77.70000248640001,0.35999970196000003,0.49520701584662397,1710.1633115252205,77.70000248640001,0.35999970196000003,0.593893019004576,502,-25.3,97,P-GPS,
0.37413537800687396,36.9266660484235,22200,2018-04-18 05:16:42,1710.0633115220207,77.6000024832,0.35999970196000003,0.497757015928224,1710.1633115252205,77.70000248640001,0.35999970196000003,0.593893019004576,456,-25.3,97,P-GPS,
0.37413543828479706,36.9266659694313,22300,2018-04-18 05:16:43,1709.8633115156206,77.40000247680001,0.35999970196000003,0.49703301590505605,1710.1633115252205,77.70000248640001,0.35999970196000003,0.593893019004576,400,-25.3,97,P-GPS,
0.37413548880442205,36.926665872356,22400,2018-04-18 05:16:43,1709.7633115124206,77.3000024736,0.35999970196000003,0.49444301582217604,1710.1633115252205,77.70000248640001,0.35999970196000003,0.593893019004576,364,-25.3,97,P-GPS,
0.374135532730885,36.926665723288295,22500,2018-04-18 05:16:43,1709.5633115060205,77.1000024672,0.0,0.48804201561734406,1710.1633115252205,77.70000248640001,0.35999970196000003,0.593893019004576,364,-25.3,97,P-GPS,
0.374135582330847,36.926665555499504,22600,2018-04-18 05:16:43,1709.2633114964208,76.8000024576,0.0,0.48149101540771194,1710.1633115252205,77.70000248640001,0.35999970196000003,0.593893019004576,364,-25.3,97,P-GPS,
0.374135673827644,36.9266653303319,22700,2018-04-18 05:16:43,1708.9633114868207,76.500002448,0.0,0.47616801523737606,1710.1633115252205,77.70000248640001,0.35999970196000003,0.593893019004576,400,-25.3,97,P-GPS,
0.374135757068994,36.9266651218885,22800,2018-04-18 05:16:43,1708.6633114772205,76.2000024384,0.0,0.47242401511756804,1710.1633115252205,77.70000248640001,0.35999970196000003,0.593893019004576,646,-25.3,97,P-GPS,
0.37413583298529796,36.9266648839173,22900,2018-04-18 05:16:43,1708.3633114676204,75.90000242880001,0.0,0.4678180149701761,1710.1633115252205,77.70000248640001,0.35999970196000003,0.593893019004576,1024,-25.3,97,P-GPS,
0.3741358663102079,36.9266643122853,23100,2018-04-18 05:16:43,1707.8633114516206,75.40000241279999,0.0,0.44762801432409605,1710.1633115252205,77.70000248640001,0.35999970196000003,0.593893019004576,1024,-25.3,97,P-GPS,
0.374135950305893,36.9266640319319,23200,2018-04-18 05:16:44,1707.7633114484206,75.30000240960001,0.35999970196000003,0.44806201433798404,1710.1633115252205,77.70000248640001,0.35999970196000003,0.593893019004576,1024,-25.3,97,P-GPS,
0.374136086898602,36.9266636755075,23300,2018-04-18 05:16:44,1707.6633114452204,75.20000240640002,0.503999582744,0.45528701456918397,1710.1633115252205,77.70000248640001,0.503999582744,0.593893019004576,1024,-25.3,97,P-GPS,
0.374136131759404,36.9266631964764,23400,2018-04-18 05:16:44,1707.5633114420204,75.1000024032,0.503999582744,0.45546701457494393,1710.1633115252205,77.70000248640001,0.503999582744,0.593893019004576,1024,-25.3,97,P-GPS,
0.374135979560899,36.926662620178206,23500,2018-04-18 05:16:44,1707.5633114420204,75.1000024032,1.007999165488,0.44114601411667204,1710.1633115252205,77.70000248640001,1.007999165488,0.593893019004576,1024,-25.3,97,P-GPS,
0.374135686630242,36.926662102679,23600,2018-04-18 05:16:44,1707.5633114420204,75.1000024032,1.2959989270560002,0.41972001343104,1710.1633115252205,77.70000248640001,1.2959989270560002,0.593893019004576,1024,-25.3,97,P-GPS,
0.37413534833927103,36.9266615689691,23700,2018-04-18 05:16:44,1707.5633114420204,75.1000024032,1.2959989270560002,0.404134012932288,1710.1633115252205,77.70000248640001,1.2959989270560002,0.593893019004576,1024,-25.3,97,P-GPS,
0.374135020223021,36.9266610831749,23800,2018-04-18 05:16:44,1707.6633114452204,75.20000240640002,1.2959989270560002,0.39840501274896,1710.1633115252205,77.70000248640001,1.2959989270560002,0.593893019004576,1024,-25.3,97,P-GPS,
0.374134761902441,36.9266605812576,23900,2018-04-18 05:16:44,1707.6633114452204,75.20000240640002,1.007999165488,0.410194013126208,1710.1633115252205,77.70000248640001,1.2959989270560002,0.593893019004576,1024,-25.3,97,P-GPS,
0.37413453767211496,36.926660139313896,24000,2018-04-18 05:16:44,1707.6633114452204,75.20000240640002,1.007999165488,0.42822601370323204,1710.1633115252205,77.70000248640001,1.2959989270560002,0.593893019004576,1024,-25.3,97,P-GPS,
0.37413434684656893,36.9266596871619,24100,2018-04-18 05:16:44,1707.6633114452204,75.20000240640002,1.007999165488,0.45531901457020807,1710.1633115252205,77.70000248640001,1.2959989270560002,0.593893019004576,1024,-25.3,97,P-GPS,
0.37413405492650703,36.92665934599071,24200,2018-04-18 05:16:44,1707.6633114452204,75.20000240640002,1.475998778036,0.47082001506624,1710.1633115252205,77.70000248640001,1.475998778036,0.593893019004576,1024,-25.3,97,P-GPS,
0.374133615131009,36.9266591233289,24300,2018-04-18 05:16:45,1707.6633114452204,75.20000240640002,2.15999821176,0.47248001511935994,1710.1633115252205,77.70000248640001,2.15999821176,0.593893019004576,1024,-25.3,97,P-GPS,
0.374131870138053,36.9266595024077,24500,2018-04-18 05:16:45,1707.5633114420204,75.1000024032,5.147995738028,0.397009012704288,1710.1633115252205,77.70000248640001,5.147995738028,0.593893019004576,1024,-25.3,97,P-GPS,
0.37413049372670504,36.9266601787054,24600,2018-04-18 05:16:45,1707.5633114420204,75.1000024032,6.623994516064001,0.3643740116599681,1710.1633115252205,77.70000248640001,6.623994516064001,0.593893019004576,1024,-25.3,97,P-GPS,
0.37412877081870793,36.9266611958628,24700,2018-04-18 05:16:45,1707.5633114420204,75.1000024032,8.0999932941,0.418786013401152,1710.1633115252205,77.70000248640001,8.0999932941,0.593893019004576,1024,-25.3,97,P-GPS,
0.374126802439469,36.926662466626205,24800,2018-04-18 05:16:45,1707.5633114420204,75.1000024032,9.575992072136,0.5860680187541761,1710.1633115252205,77.70000248640001,9.575992072136,0.593893019004576,1024,-25.3,97,P-GPS,
0.37412457728066706,36.9266639443357,24900,2018-04-18 05:16:45,1707.6633114452204,75.20000240640002,11.087990820368,0.83538002673216,1710.1633115252205,77.70000248640001,11.087990820368,0.83538002673216,1024,-25.3,97,P-GPS,
0.374122141091808,36.9266656354656,25000,2018-04-18 05:16:45,1707.6633114452204,75.20000240640002,12.095989985856,1.13702003638464,1710.1633115252205,77.70000248640001,12.095989985856,1.13702003638464,1024,-25.3,97,P-GPS,
0.37411943878995896,36.926667467684496,25100,2018-04-18 05:16:45,1707.6633114452204,75.20000240640002,13.391988912912,1.4840600474899202,1710.1633115252205,77.70000248640001,13.391988912912,1.4840600474899202,1024,-25.3,97,P-GPS,
0.37411654660502597,36.9266695090591,25200,2018-04-18 05:16:46,1707.6633114452204,75.20000240640002,14.399988078400002,1.8656900597020802,1710.1633115252205,77.70000248640001,14.399988078400002,1.8656900597020802,1024,-25.3,97,P-GPS,
0.374113335513762,36.926671726045896,25300,2018-04-18 05:16:46,1707.6633114452204,75.20000240640002,14.399988078400002,2.2918500733392,1710.1633115252205,77.70000248640001,14.399988078400002,2.2918500733392,1024,-25.3,97,P-GPS,
0.374109970928625,36.926674144444,25400,2018-04-18 05:16:46,1707.6633114452204,75.20000240640002,16.703986170944,2.745750087864,1710.1633115252205,77.70000248640001,16.703986170944,2.745750087864,1024,-25.3,97,P-GPS,
0.37410642539079,36.926676701103204,25500,2018-04-18 05:16:46,1707.6633114452204,75.20000240640002,17.495985515256002,3.2266001032512,1710.1633115252205,77.70000248640001,17.495985515256002,3.2266001032512,1024,-25.3,97,P-GPS,
0.37410270926530503,36.926679459678,25600,2018-04-18 05:16:46,1707.7633114484206,75.30000240960001,18.503984680744,3.7363201195622406,1710.1633115252205,77.70000248640001,18.503984680744,3.7363201195622406,1024,-25.3,97,P-GPS,
0.374098751664373,36.9266823464487,25700,2018-04-18 05:16:46,1707.7633114484206,75.30000240960001,19.511983846232003,4.277610136883521,1710.1633115252205,77.70000248640001,19.511983846232003,4.277610136883521,1024,-25.3,97,P-GPS,
0.37409463204954796,36.9266854315095,25800,2018-04-18 05:16:46,1707.7633114484206,75.30000240960001,20.51998301172,4.846460155086721,1710.1633115252205,77.70000248640001,20.51998301172,4.846460155086721,1024,-25.3,97,P-GPS,
0.37409036265695794,36.9266886174572,25900,2018-04-18 05:16:46,1707.7633114484206,75.30000240960001,21.527982177208,5.4361001739552,1710.1633115252205,77.70000248640001,21.527982177208,5.4361001739552,1024,-25.3,97,P-GPS,
0.37408592233962895,36.9266919985625,26000,2018-04-18 05:16:46,1707.7633114484206,75.30000240960001,22.535981342696,6.0539101937251205,1710.1633115252205,77.70000248640001,22.535981342696,6.0539101937251205,1024,-25.3,97,P-GPS,
0.3740811411726861,36.926695598830705,26100,2018-04-18 05:16:46,1707.7633114484206,75.30000240960001,23.831980269752002,6.717310214953921,1710.1633115252205,77.70000248640001,23.831980269752002,6.717310214953921,1024,-25.3,97,P-GPS,
0.374076227779349,36.926699373180206,26200,2018-04-18 05:16:46,1707.7633114484206,75.30000240960001,24.623979614063998,7.4039902369276795,1710.1633115252205,77.70000248640001,24.623979614063998,7.4039902369276795,1024,-25.3,97,P-GPS,
0.37407117929029704,36.9267032523693,26300,2018-04-18 05:16:47,1707.7633114484206,75.30000240960001,25.631978779552,8.11001025952032,1710.1633115252205,77.70000248640001,25.631978779552,8.11001025952032,1024,-25.5,97,P-GPS,
0.374065989035425,36.926707296924796,26400,2018-04-18 05:16:47,1707.8633114516206,75.40000241279999,26.351978183472,8.83969028287008,1710.1633115252205,77.70000248640001,26.351978183472,8.83969028287008,1024,-25.9,97,P-GPS,
0.374060555705974,36.9267115209018,26500,2018-04-18 05:16:47,1707.8633114516206,75.40000241279999,27.395977319156,9.603250307304,1710.1633115252205,77.70000248640001,27.395977319156,9.603250307304,1024,-25.9,97,P-GPS,
0.374054999161937,36.926715892569,26600,2018-04-18 05:16:47,1707.8633114516206,75.40000241279999,28.151976693272005,10.387700332406402,1710.1633115252205,77.70000248640001,28.151976693272005,10.387700332406402,1024,-26.5,97,P-GPS,
0.374049188789077,36.9267204252495,26700,2018-04-18 05:16:47,1707.8633114516206,75.40000241279999,29.195975828955998,11.205700358582401,1710.1633115252205,77.70000248640001,29.195975828955998,11.205700358582401,1024,-27.7,97,P-GPS,
0.37404328594013897,36.926725095085295,26800,2018-04-18 05:16:47,1707.8633114516206,75.40000241279999,29.951975203072,12.0411003853152,1710.1633115252205,77.70000248640001,29.951975203072,12.0411003853152,1024,-29.5,97,P-GPS,
0.374037178851755,36.9267299230308,26900,2018-04-18 05:16:47,1707.8633114516206,75.40000241279999,30.707974577188,12.905500412976,1710.1633115252205,77.70000248640001,30.707974577188,12.905500412976,1024,-31.7,97,P-GPS,
0.37403099970798104,36.9267348756354,27000,2018-04-18 05:16:47,1707.8633114516206,75.40000241279999,31.4999739215,13.784500441104,1710.1633115252205,77.70000248640001,31.4999739215,13.784500441104,1024,-34.1,97,P-GPS,
0.374024743473669,36.9267399005969,27100,2018-04-18 05:16:47,1707.9633114548205,75.50000241600002,31.4999739215,14.675400469612802,1710.1633115252205,77.70000248640001,31.4999739215,14.675400469612802,1024,-36.4,97,P-GPS,
0.37401839547328003,36.926745052448794,27200,2018-04-18 05:16:47,1707.9633114548205,75.50000241600002,32.723972908164,15.583000498656002,1710.1633115252205,77.70000248640001,32.723972908164,15.583000498656002,1024,-38.8,97,P-GPS,
0.37401160281648704,36.9267505790145,27300,2018-04-18 05:16:48,1707.9633114548205,75.50000241600002,33.731972073652,16.5553005297696,1710.1633115252205,77.70000248640001,33.731972073652,16.5553005297696,1024,-41.0,97,P-GPS,
0.37400478557670397,36.926756172224295,27400,2018-04-18 05:16:48,1707.9633114548205,75.50000241600002,34.235971656395996,17.534300561097602,1710.1633115252205,77.70000248640001,34.235971656395996,17.534300561097602,1024,-41.2,97,P-GPS,
0.373997786889176,36.92676191429361,27500,2018-04-18 05:16:48,1707.9633114548205,75.50000241600002,35.027971000708,18.5396005932672,1710.1633115252205,77.70000248640001,35.027971000708,18.5396005932672,1024,-41.2,97,P-GPS,
0.37399076329297,36.9267677185104,27600,2018-04-18 05:16:48,1707.9633114548205,75.50000241600002,35.783970374824,19.551300625641602,1710.1633115252205,77.70000248640001,35.783970374824,19.551300625641602,1024,-41.2,97,P-GPS,
0.373983715048635,36.926773586082504,27700,2018-04-18 05:16:48,1707.9633114548205,75.50000241600002,36.287969957568,20.569600658227202,1710.1633115252205,77.70000248640001,36.287969957568,20.569600658227202,1024,-41.2,97,P-GPS,
0.37397659493129604,36.926779539141606,27800,2018-04-18 05:16:48,1707.9633114548205,75.50000241600002,36.791969540312,21.6002006912064,1710.1633115252205,77.70000248640001,36.791969540312,21.6002006912064,1024,-41.2,97,P-GPS,
0.37396935678433596,36.926785587965895,27900,2018-04-18 05:16:48,1707.9633114548205,75.50000241600002,37.583968884624,22.647700724726402,1710.1633115252205,77.70000248640001,37.583968884624,22.647700724726402,1024,-41.2,97,P-GPS,
0.373962033267827,36.9267917259088,28000,2018-04-18 05:16:48,1707.9633114548205,75.50000241600002,38.087968467368,23.709000758688,1710.1633115252205,77.70000248640001,38.087968467368,23.709000758688,1024,-41.2,97,P-GPS,
0.373954896371001,36.9267976998237,28100,2018-04-18 05:16:48,1707.9633114548205,75.50000241600002,38.807967871288,24.742800791769604,1710.1633115252205,77.70000248640001,38.807967871288,24.742800791769604,1024,-41.2,97,P-GPS,
0.373947643997954,36.926803784758,28200,2018-04-18 05:16:49,1707.9633114548205,75.50000241600002,39.311967454032,25.7944008254208,1710.1633115252205,77.70000248640001,39.311967454032,25.7944008254208,1024,-41.2,97,P-GPS,
0.373940197814017,36.9268099930194,28300,2018-04-18 05:16:49,1707.9633114548205,75.50000241600002,39.815967036776,26.871500859888002,1710.1633115252205,77.70000248640001,39.815967036776,26.871500859888002,1024,-41.2,97,P-GPS,
