latitude,longitude,time_millisecond,datetime_utc,altitude_m,ascent_m,speed_kph,distance_m,max_altitude_m,max_ascent_m,max_speed_kph,max_distance_m,rc_throttle,gimbal_pitch_degrees,battery_percent,flycState,message
0.357805157653912,36.9199599812618,100,2017-11-10 06:12:15,1669.928642337722,0.0,0.0,0.0,1669.928642337722,0.0,0.0,0.0,1024,0.0,99,Motors_Started,
0.357805160544095,36.9199600127347,200,2017-11-10 06:12:15,1669.928642337722,0.0,0.0,0.00351463011246816,1669.928642337722,0.0,0.0,0.00351463011246816,1024,0.0,99,Motors_Started,
0.357805164874636,36.9199600295725,300,2017-11-10 06:12:15,1669.928642337722,0.0,0.0,0.0054320201738246405,1669.928642337722,0.0,0.0,0.0054320201738246405,1024,0.0,99,Motors_Started,
0.357805168974244,36.9199600373262,400,2017-11-10 06:12:15,1669.928642337722,0.0,0.0,0.00636041020353312,1669.928642337722,0.0,0.0,0.00636041020353312,1024,0.0,99,Motors_Started,
0.357805174578432,36.9199600481728,500,2017-11-10 06:12:15,1669.928642337722,0.0,0.0,0.007675110245603521,1669.928642337722,0.0,0.0,0.007675110245603521,1024,0.0,99,Motors_Started,Setting new Return-To-Home altitude to 30m (98 ft). Setting new Maximum Flight Altitude to 100m (328 ft)
0.35780517913716,36.9199600736117,600,2017-11-10 06:12:15,1669.928642337722,0.0,0.0,0.0105439003374048,1669.928642337722,0.0,0.0,0.0105439003374048,1024,0.0,99,Motors_Started,
0.357805183915625,36.9199601074022,700,2017-11-10 06:12:15,1669.928642337722,0.0,0.0,0.0143281004584992,1669.928642337722,0.0,0.0,0.0143281004584992,1024,0.0,99,Motors_Started,
0.357805188266217,36.9199601476365,800,2017-11-10 06:12:15,1669.928642337722,0.0,0.0,0.0188121006019872,1669.928642337722,0.0,0.0,0.0188121006019872,1024,0.0,99,Motors_Started,
0.357805192091025,36.9199601800132,900,2017-11-10 06:12:15,1669.928642337722,0.0,0.0,0.0224313007178016,1669.928642337722,0.0,0.0,0.0224313007178016,764,0.0,99,Motors_Started,
0.357805196077354,36.9199602005361,1000,2017-11-10 06:12:15,1669.928642337722,0.0,0.0,0.0247557007921824,1669.928642337722,0.0,0.0,0.0247557007921824,1024,0.0,99,Motors_Started,
0.357805198885605,36.9199602273726,1100,2017-11-10 06:12:16,1669.928642337722,0.0,0.0,0.0277499008879968,1669.928642337722,0.0,0.0,0.0277499008879968,1024,0.0,99,Motors_Started,
0.357805204466995,36.9199602612573,1200,2017-11-10 06:12:16,1669.928642337722,0.0,0.0,0.031568801010201604,1669.928642337722,0.0,0.0,0.031568801010201604,1024,0.0,99,Motors_Started,
0.357805205121019,36.9199603034489,1300,2017-11-10 06:12:16,1669.928642337722,0.0,0.0,0.0362152011588864,1669.928642337722,0.0,0.0,0.0362152011588864,1024,0.0,99,Motors_Started,
0.357805208127636,36.9199603492391,1400,2017-11-10 06:12:16,1669.928642337722,0.0,0.0,0.0413037013217184,1669.928642337722,0.0,0.0,0.0413037013217184,1024,0.0,99,Motors_Started,
0.357805209818164,36.9199603855865,1500,2017-11-10 06:12:16,1669.928642337722,0.0,0.0,0.045335201450726406,1669.928642337722,0.0,0.0,0.045335201450726406,1024,0.0,99,Motors_Started,
0.357805212011271,36.9199604079672,1600,2017-11-10 06:12:16,1669.928642337722,0.0,0.0,0.0478348015307136,1669.928642337722,0.0,0.0,0.0478348015307136,1024,0.0,99,Assisted_Takeoff,
0.357805212809616,36.9199604325683,1700,2017-11-10 06:12:16,1669.928642337722,0.0,0.0,0.050560501617936,1669.928642337722,0.0,0.0,0.050560501617936,1024,0.0,99,Assisted_Takeoff,
0.357805215787938,36.9199604684671,1800,2017-11-10 06:12:16,1669.928642337722,0.0,0.0,0.054563501746032,1669.928642337722,0.0,0.0,0.054563501746032,1024,0.0,99,Assisted_Takeoff,
0.357805215370446,36.9199604903007,1900,2017-11-10 06:12:16,1669.928642337722,0.0,0.0,0.0569698018230336,1669.928642337722,0.0,0.0,0.0569698018230336,1024,0.0,99,Assisted_Takeoff,
0.357805216279525,36.9199605048332,2000,2017-11-10 06:12:16,1669.928642337722,0.0,0.0,0.058587101874787204,1669.928642337722,0.0,0.0,0.058587101874787204,1024,0.0,99,Assisted_Takeoff,
0.357805214841303,36.9199605243784,2100,2017-11-10 06:12:17,1669.928642337722,0.0,0.0,0.0607306019433792,1669.928642337722,0.0,0.0,0.0607306019433792,1024,0.0,99,Assisted_Takeoff,
0.357805214971477,36.9199605553245,2200,2017-11-10 06:12:17,1669.928642337722,0.0,0.0,0.064155502052976,1669.928642337722,0.0,0.0,0.064155502052976,1024,0.0,99,Assisted_Takeoff,
0.357805213075357,36.9199605746828,2300,2017-11-10 06:12:17,1669.928642337722,0.0,0.0,0.06627790212089281,1669.928642337722,0.0,0.0,0.06627790212089281,1024,0.0,99,Assisted_Takeoff,
0.357805213466489,36.9199605871887,2400,2017-11-10 06:12:17,1669.928642337722,0.0,0.0,0.06766670216533441,1669.928642337722,0.0,0.0,0.06766670216533441,1024,0.0,99,Assisted_Takeoff,
0.35780521206501,36.9199606060604,2500,2017-11-10 06:12:17,1669.928642337722,0.0,0.0,0.069743002231776,1669.928642337722,0.0,0.0,0.069743002231776,1024,0.0,99,Assisted_Takeoff,
0.357805212768905,36.9199606366859,2600,2017-11-10 06:12:17,1669.928642337722,0.0,0.0,0.073143002340576,1669.928642337722,0.0,0.0,0.073143002340576,1024,0.0,99,Assisted_Takeoff,
0.357805231892639,36.9199606782252,2700,2017-11-10 06:12:17,1669.928642337722,0.0,0.0,0.077943502494192,1669.928642337722,0.0,0.0,0.077943502494192,1024,0.0,99,Assisted_Takeoff,
0.357805261826289,36.9199607218453,2800,2017-11-10 06:12:17,1669.928642337722,0.0,0.0,0.0831666026613312,1669.928642337722,0.0,0.0,0.0831666026613312,1024,0.0,99,Assisted_Takeoff,
0.357805291273442,36.9199607556296,2900,2017-11-10 06:12:17,1669.928642337722,0.0,0.0,0.0873854027963328,1669.928642337722,0.0,0.0,0.0873854027963328,1024,0.0,99,Assisted_Takeoff,
0.357805310897108,36.9199607770515,3000,2017-11-10 06:12:17,1669.928642337722,0.0,0.0,0.09012090288386881,1669.928642337722,0.0,0.0,0.09012090288386881,1024,0.0,99,Assisted_Takeoff,
0.357805346417543,36.9199608052285,3100,2017-11-10 06:12:18,1669.928642337722,0.0,0.0,0.0940021030080672,1669.928642337722,0.0,0.0,0.0940021030080672,1024,0.0,99,Assisted_Takeoff,
0.357805387852282,36.9199608421176,3200,2017-11-10 06:12:18,1669.928642337722,0.0,0.0,0.0990942031710144,1669.928642337722,0.0,0.0,0.0990942031710144,1024,0.0,99,Assisted_Takeoff,
0.357805425181308,36.9199608879651,3300,2017-11-10 06:12:18,1669.928642337722,0.0,0.0,0.105127003364064,1669.928642337722,0.0,0.0,0.105127003364064,1024,0.0,99,Assisted_Takeoff,
0.357805448936438,36.9199609347579,3400,2017-11-10 06:12:18,1669.928642337722,0.0,0.0,0.11087000354784,1669.928642337722,0.0,0.0,0.11087000354784,1024,0.0,99,Assisted_Takeoff,
0.357805483750535,36.9199609910744,3500,2017-11-10 06:12:18,1669.928642337722,0.0,0.0,0.11800500377616001,1669.928642337722,0.0,0.0,0.11800500377616001,1024,0.0,99,Assisted_Takeoff,
0.357805524957089,36.9199610444596,3600,2017-11-10 06:12:18,1669.928642337722,0.0,0.0,0.125089004002848,1669.928642337722,0.0,0.0,0.125089004002848,1024,0.0,99,Assisted_Takeoff,
0.357805559056503,36.9199611039306,3700,2017-11-10 06:12:18,1669.928642337722,0.0,0.0,0.13258500424272002,1669.928642337722,0.0,0.0,0.13258500424272002,1024,0.0,99,Assisted_Takeoff,
0.357805580948286,36.9199611595849,3800,2017-11-10 06:12:18,1669.928642337722,0.0,0.0,0.139233004455456,1669.928642337722,0.0,0.0,0.139233004455456,1024,0.0,99,Assisted_Takeoff,
0.357805610430043,36.9199612031065,3900,2017-11-10 06:12:18,1669.928642337722,0.0,0.0,0.144903004636896,1669.928642337722,0.0,0.0,0.144903004636896,1024,0.0,99,Assisted_Takeoff,
0.357805651812266,36.9199612312958,4000,2017-11-10 06:12:18,1669.928642337722,0.0,0.0,0.149477004783264,1669.928642337722,0.0,0.0,0.149477004783264,1024,0.0,99,Assisted_Takeoff,
0.357805681122426,36.9199612583572,4100,2017-11-10 06:12:19,1669.928642337722,0.0,0.0,0.153486004911552,1669.928642337722,0.0,0.0,0.153486004911552,1024,0.0,99,Assisted_Takeoff,
0.357805702519569,36.9199612960594,4200,2017-11-10 06:12:19,1669.928642337722,0.0,0.0,0.15826900506460803,1669.928642337722,0.0,0.0,0.15826900506460803,1024,0.0,99,Assisted_Takeoff,
0.357805710706978,36.9199613184706,4300,2017-11-10 06:12:19,1669.928642337722,0.0,0.0,0.16092000514944,1669.928642337722,0.0,0.0,0.16092000514944,1024,0.0,99,Assisted_Takeoff,
0.357805719660774,36.9199613338827,4400,2017-11-10 06:12:19,1669.928642337722,0.0,0.0,0.16288400521228802,1669.928642337722,0.0,0.0,0.16288400521228802,1024,0.0,99,Assisted_Takeoff,
0.357805735842622,36.9199613325267,4500,2017-11-10 06:12:19,1669.928642337722,0.0,0.0,0.16344500523024,1669.928642337722,0.0,0.0,0.16344500523024,1024,0.0,99,Assisted_Takeoff,
0.357805764245942,36.9199613330476,4600,2017-11-10 06:12:19,1669.928642337722,0.0,0.0,0.16476600527251203,1669.928642337722,0.0,0.0,0.16476600527251203,1024,0.0,99,Assisted_Takeoff,
0.357805785220912,36.9199613368777,4700,2017-11-10 06:12:19,1669.928642337722,0.0,0.0,0.166121005315872,1669.928642337722,0.0,0.0,0.166121005315872,1024,0.0,99,Assisted_Takeoff,
0.357805799997209,36.9199613581637,4800,2017-11-10 06:12:19,1669.928642337722,0.0,0.0,0.16896000540672002,1669.928642337722,0.0,0.0,0.16896000540672002,1024,0.0,99,Assisted_Takeoff,
0.357805821530735,36.9199613684234,4900,2017-11-10 06:12:19,1669.928642337722,0.0,0.0,0.17101400547244802,1669.928642337722,0.0,0.0,0.17101400547244802,1024,0.0,99,Assisted_Takeoff,
0.357805857076817,36.9199613748134,5000,2017-11-10 06:12:19,1669.928642337722,0.0,0.0,0.173392005548544,1669.928642337722,0.0,0.0,0.173392005548544,1024,0.0,99,Assisted_Takeoff,
0.357805883872253,36.9199613711165,5100,2017-11-10 06:12:20,1669.928642337722,0.0,0.0,0.17438500558032002,1669.928642337722,0.0,0.0,0.17438500558032002,1024,0.0,99,Assisted_Takeoff,
0.357805902524857,36.9199613688511,5200,2017-11-10 06:12:20,1669.928642337722,0.0,0.0,0.175133005604256,1669.928642337722,0.0,0.0,0.175133005604256,1024,0.0,99,Assisted_Takeoff,
0.357805908985302,36.9199613568147,5300,2017-11-10 06:12:20,1669.928642337722,0.0,0.0,0.174298005577536,1669.928642337722,0.0,0.0,0.175133005604256,1024,0.0,99,Assisted_Takeoff,
0.357805917435094,36.9199613508359,5400,2017-11-10 06:12:20,1669.928642337722,0.0,0.0,0.174169005573408,1669.928642337722,0.0,0.0,0.175133005604256,1024,0.0,99,Assisted_Takeoff,
0.357805932883328,36.9199613383675,5500,2017-11-10 06:12:20,1669.928642337722,0.0,0.0,0.173804005561728,1669.928642337722,0.0,0.0,0.175133005604256,1024,0.0,99,Assisted_Takeoff,
0.357805963023791,36.9199613299931,5600,2017-11-10 06:12:20,1669.928642337722,0.0,0.0,0.17469000559008002,1669.928642337722,0.0,0.0,0.175133005604256,1024,0.0,99,Assisted_Takeoff,
0.357805983040014,36.9199613178673,5700,2017-11-10 06:12:20,1669.928642337722,0.0,0.0,0.17469300559017603,1669.928642337722,0.0,0.0,0.175133005604256,1024,0.0,99,Assisted_Takeoff,
0.357805998466467,36.9199613106075,5800,2017-11-10 06:12:20,1669.928642337722,0.0,0.0,0.17491800559737603,1669.928642337722,0.0,0.0,0.175133005604256,1024,0.0,99,Assisted_Takeoff,
0.35780602089238,36.9199613198244,5900,2017-11-10 06:12:20,1669.928642337722,0.0,0.0,0.17712400566796802,1669.928642337722,0.0,0.0,0.17712400566796802,1024,0.0,99,Assisted_Takeoff,
0.357806056331189,36.9199613433962,6000,2017-11-10 06:12:20,1669.928642337722,0.0,0.0,0.181472005807104,1669.928642337722,0.0,0.0,0.181472005807104,1024,0.0,99,Assisted_Takeoff,
0.357806082077907,36.9199613680663,6100,2017-11-10 06:12:21,1669.928642337722,0.0,0.0,0.18534100593091202,1669.928642337722,0.0,0.0,0.18534100593091202,1024,0.0,99,Assisted_Takeoff,
0.35780610138026,36.9199613828167,6200,2017-11-10 06:12:21,1669.928642337722,0.0,0.0,0.18789900601276802,1669.928642337722,0.0,0.0,0.18789900601276802,1024,0.0,99,Assisted_Takeoff,
0.357806108373613,36.9199613953692,6300,2017-11-10 06:12:21,1669.928642337722,0.0,0.0,0.189491006063712,1669.928642337722,0.0,0.0,0.189491006063712,1024,0.0,99,Assisted_Takeoff,
0.357806116581378,36.9199614034855,6400,2017-11-10 06:12:21,1669.928642337722,0.0,0.0,0.190750006104,1669.928642337722,0.0,0.0,0.190750006104,1024,0.0,99,Assisted_Takeoff,
0.35780611237124,36.9199614078408,6500,2017-11-10 06:12:21,1669.928642337722,0.0,0.0,0.19089000610848003,1669.928642337722,0.0,0.0,0.19089000610848003,1024,0.0,99,Assisted_Takeoff,
0.357806114181662,36.9199614100382,6600,2017-11-10 06:12:21,1669.928642337722,0.0,0.0,0.191206006118592,1669.928642337722,0.0,0.0,0.191206006118592,1024,0.0,99,Assisted_Takeoff,
0.357806123689536,36.9199614080538,6700,2017-11-10 06:12:21,1669.928642337722,0.0,0.0,0.191613006131616,1669.928642337722,0.0,0.0,0.191613006131616,1024,0.0,99,Assisted_Takeoff,
0.357806151853882,36.9199614059463,6800,2017-11-10 06:12:21,1669.928642337722,0.0,0.0,0.19319400618220803,1669.928642337722,0.0,0.0,0.19319400618220803,1024,0.0,99,Assisted_Takeoff,
0.357806172002416,36.9199614001537,6900,2017-11-10 06:12:21,1669.928642337722,0.0,0.0,0.19396100620675202,1669.928642337722,0.0,0.0,0.19396100620675202,1024,0.0,99,Assisted_Takeoff,
0.357806187541436,36.9199613957342,7000,2017-11-10 06:12:21,1669.928642337722,0.0,0.0,0.194573006226336,1669.928642337722,0.0,0.0,0.194573006226336,1024,0.0,99,Assisted_Takeoff,
0.357806192821462,36.9199613894444,7100,2017-11-10 06:12:22,1669.928642337722,0.0,0.0,0.19435500621936003,1669.928642337722,0.0,0.0,0.194573006226336,1024,0.0,99,Assisted_Takeoff,
0.357806200084526,36.9199613854885,7200,2017-11-10 06:12:22,1669.928642337722,0.0,0.0,0.19448200622342401,1669.928642337722,0.0,0.0,0.194573006226336,1024,0.0,99,Assisted_Takeoff,
0.357806196758022,36.9199613613327,7300,2017-11-10 06:12:22,1669.928642337722,0.0,0.0,0.19210900614748802,1669.928642337722,0.0,0.0,0.194573006226336,1024,0.0,99,Assisted_Takeoff,
0.357806199659095,36.9199613281319,7400,2017-11-10 06:12:22,1669.928642337722,0.0,0.0,0.18936900605980803,1669.928642337722,0.0,0.0,0.194573006226336,1024,0.0,99,Assisted_Takeoff,
0.357806192246825,36.9199612928444,7500,2017-11-10 06:12:22,1669.928642337722,0.0,0.0,0.18577000594464002,1669.928642337722,0.0,0.0,0.194573006226336,1024,0.0,99,Assisted_Takeoff,
0.357806192941356,36.9199612709755,7600,2017-11-10 06:12:22,1669.928642337722,0.0,0.0,0.18391500588528,1669.928642337722,0.0,0.0,0.194573006226336,1024,0.0,99,Assisted_Takeoff,
0.3578062035582,36.9199612515513,7700,2017-11-10 06:12:22,1669.928642337722,0.0,0.0,0.18298300585545602,1669.928642337722,0.0,0.0,0.194573006226336,1024,0.0,99,Assisted_Takeoff,
0.357806233797184,36.9199612383394,7800,2017-11-10 06:12:22,1669.928642337722,0.0,0.0,0.184021005888672,1669.928642337722,0.0,0.0,0.194573006226336,1024,0.0,99,Assisted_Takeoff,
0.357806257307437,36.9199612306283,7900,2017-11-10 06:12:22,1669.928642337722,0.0,0.0,0.18508700592278401,1669.928642337722,0.0,0.0,0.194573006226336,1024,0.0,99,Assisted_Takeoff,
0.357806277571998,36.9199612232999,8000,2017-11-10 06:12:22,1669.928642337722,0.0,0.0,0.18597800595129602,1669.928642337722,0.0,0.0,0.194573006226336,1024,0.0,99,Assisted_Takeoff,
0.357806288676357,36.9199612213985,8100,2017-11-10 06:12:23,1669.928642337722,0.0,0.0,0.18665000597280001,1669.928642337722,0.0,0.0,0.194573006226336,1024,0.0,99,Assisted_Takeoff,
0.357806299248012,36.9199612192835,8200,2017-11-10 06:12:23,1669.928642337722,0.0,0.0,0.18727200599270402,1669.928642337722,0.0,0.0,0.194573006226336,1024,0.0,99,Assisted_Takeoff,
0.357806318595963,36.919961222331,8300,2017-11-10 06:12:23,1669.928642337722,0.0,0.0,0.18898400604748802,1669.928642337722,0.0,0.0,0.194573006226336,1024,0.0,99,Assisted_Takeoff,
0.357806354210643,36.9199612221945,8400,2017-11-10 06:12:23,1669.928642337722,0.0,0.0,0.191701006134432,1669.928642337722,0.0,0.0,0.194573006226336,1024,0.0,99,Assisted_Takeoff,
0.357806381135336,36.9199612278597,8500,2017-11-10 06:12:23,1669.928642337722,0.0,0.0,0.19424000621568,1669.928642337722,0.0,0.0,0.194573006226336,1024,0.0,99,Assisted_Takeoff,
0.357806404204688,36.9199612295598,8600,2017-11-10 06:12:23,1669.928642337722,0.0,0.0,0.19618000627776003,1669.928642337722,0.0,0.0,0.19618000627776003,1024,0.0,99,Assisted_Takeoff,
0.357806415139486,36.9199612157574,8700,2017-11-10 06:12:23,1669.928642337722,0.0,0.0,0.195962006270784,1669.928642337722,0.0,0.0,0.19618000627776003,1024,0.0,99,Assisted_Takeoff,
0.357806426955476,36.9199611881238,8800,2017-11-10 06:12:23,1669.928642337722,0.0,0.0,0.194772006232704,1669.928642337722,0.0,0.0,0.19618000627776003,1024,0.0,99,Assisted_Takeoff,
0.357806425415375,36.9199611622652,8900,2017-11-10 06:12:23,1669.928642337722,0.0,0.0,0.19267700616566402,1669.928642337722,0.0,0.0,0.19618000627776003,1024,0.0,99,Assisted_Takeoff,
0.357806430366862,36.9199611459683,9000,2017-11-10 06:12:23,1669.928642337722,0.0,0.0,0.191852006139264,1669.928642337722,0.0,0.0,0.19618000627776003,1027,0.0,99,Assisted_Takeoff,
0.357806422894951,36.9199611335626,9100,2017-11-10 06:12:24,1669.928642337722,0.0,0.0,0.190308006089856,1669.928642337722,0.0,0.0,0.19618000627776003,1034,0.0,99,Assisted_Takeoff,
0.357806424334495,36.9199611250555,9200,2017-11-10 06:12:24,1669.928642337722,0.0,0.0,0.189791006073312,1669.928642337722,0.0,0.0,0.19618000627776003,1037,0.0,99,Assisted_Takeoff,
0.357806412607052,36.9199611214074,9300,2017-11-10 06:12:24,1669.928642337722,0.0,0.0,0.188552006033664,1669.928642337722,0.0,0.0,0.19618000627776003,1038,0.0,99,Assisted_Takeoff,
0.357806412445836,36.9199611171501,9400,2017-11-10 06:12:24,1669.928642337722,0.0,0.0,0.188221006023072,1669.928642337722,0.0,0.0,0.19618000627776003,1036,0.0,99,Assisted_Takeoff,
0.357806422269832,36.9199611186494,9500,2017-11-10 06:12:24,1669.928642337722,0.0,0.0,0.18914400605260803,1669.928642337722,0.0,0.0,0.19618000627776003,1024,0.0,99,Assisted_Takeoff,
0.357806451291554,36.9199611183813,9600,2017-11-10 06:12:24,1669.928642337722,0.0,0.0,0.191536006129152,1669.928642337722,0.0,0.0,0.19618000627776003,1025,0.0,99,Assisted_Takeoff,
0.357806473010111,36.9199611233254,9700,2017-11-10 06:12:24,1669.928642337722,0.0,0.0,0.193716006198912,1669.928642337722,0.0,0.0,0.19618000627776003,1024,0.0,99,Assisted_Takeoff,
0.357806492834381,36.9199611250212,9800,2017-11-10 06:12:24,1669.928642337722,0.0,0.0,0.19550900625628803,1669.928642337722,0.0,0.0,0.19618000627776003,1024,0.0,99,Assisted_Takeoff,
0.35780650253319,36.9199611099384,9900,2017-11-10 06:12:24,1669.928642337722,0.0,0.0,0.195247006247904,1669.928642337722,0.0,0.0,0.19618000627776003,1024,0.0,99,Assisted_Takeoff,
0.357806514845448,36.9199610844299,10000,2017-11-10 06:12:24,1669.928642337722,0.0,0.0,0.194496006223872,1669.928642337722,0.0,0.0,0.19618000627776003,1024,0.0,99,Assisted_Takeoff,
0.357806536345794,36.9199610585467,10100,2017-11-10 06:12:25,1669.928642337722,0.0,0.0,0.194572006226304,1669.928642337722,0.0,0.0,0.19618000627776003,1024,0.0,99,Assisted_Takeoff,
0.357806574514486,36.9199610425175,10200,2017-11-10 06:12:25,1669.928642337722,0.0,0.0,0.19686000629952002,1669.928642337722,0.0,0.0,0.19686000629952002,1024,0.0,99,Assisted_Takeoff,
0.357806604382592,36.9199610095554,10300,2017-11-10 06:12:25,1669.928642337722,0.0,0.0,0.19738300631625602,1669.928642337722,0.0,0.0,0.19738300631625602,1031,0.0,99,Assisted_Takeoff,
0.357806628290592,36.919960973883,10400,2017-11-10 06:12:25,1669.928642337722,0.0,0.0,0.19731000631392004,1669.928642337722,0.0,0.0,0.19738300631625602,1055,0.0,99,Assisted_Takeoff,
0.35780666145589,36.9199609385752,10500,2017-11-10 06:12:25,1669.928642337722,0.0,0.0,0.198241006343712,1669.928642337722,0.0,0.0,0.198241006343712,1109,0.0,99,Assisted_Takeoff,
0.357806705315179,36.9199609176688,10600,2017-11-10 06:12:25,1669.928642337722,0.0,0.0,0.20115900643708803,1669.928642337722,0.0,0.0,0.20115900643708803,1225,0.0,99,Assisted_Takeoff,
0.357806738962089,36.9199609036512,10700,2017-11-10 06:12:25,1669.928642337722,0.0,0.0,0.20358000651456,1669.928642337722,0.0,0.0,0.20358000651456,1350,0.0,99,Assisted_Takeoff,
0.357806765793553,36.9199608943556,10800,2017-11-10 06:12:25,1669.928642337722,0.0,0.0,0.205651006580832,1669.928642337722,0.0,0.0,0.205651006580832,1527,0.0,99,Assisted_Takeoff,
0.357806777575956,36.9199608770903,10900,2017-11-10 06:12:25,1669.928642337722,0.0,0.0,0.20585500658736003,1669.928642337722,0.0,0.0,0.20585500658736003,1634,0.0,99,Assisted_Takeoff,
0.357806798300756,36.9199608528837,11000,2017-11-10 06:12:25,1669.928642337722,0.0,0.0,0.20659900661116803,1669.928642337722,0.0,0.0,0.20659900661116803,1684,0.0,99,Assisted_Takeoff,
0.357806814876891,36.9199608472876,11100,2017-11-10 06:12:26,1669.928642337722,0.0,0.0,0.207939006654048,1669.928642337722,0.0,0.0,0.207939006654048,1684,0.0,99,Assisted_Takeoff,
0.357806865295756,36.9199608968084,11200,2017-11-10 06:12:26,1669.928642337722,0.0,0.35999970196000003,0.215471006895072,1669.928642337722,0.0,0.35999970196000003,0.215471006895072,1684,0.0,99,Assisted_Takeoff,
0.357806850534319,36.9199609756437,11300,2017-11-10 06:12:26,1669.928642337722,0.0,0.35999970196000003,0.218332006986624,1669.928642337722,0.0,0.35999970196000003,0.218332006986624,1684,0.0,99,GPS_Atti,
0.35780674982035,36.9199610395412,11400,2017-11-10 06:12:26,1669.928642337722,0.0,0.35999970196000003,0.21260200680326402,1669.928642337722,0.0,0.35999970196000003,0.218332006986624,1684,0.0,99,GPS_Atti,
0.357806565376269,36.9199610966012,11500,2017-11-10 06:12:26,1670.0286423409223,0.1000000032,0.7199994039200001,0.199726006391232,1670.0286423409223,0.1000000032,0.7199994039200001,0.218332006986624,1684,0.0,99,GPS_Atti,Home Point Recorded. RTH Altitude:  30m.
0.357806379763372,36.9199611303336,11600,2017-11-10 06:12:26,1670.1286423441222,0.2000000064,0.7199994039200001,0.186544005969408,1670.1286423441222,0.2000000064,0.7199994039200001,0.218332006986624,1684,0.0,99,GPS_Atti,
0.35780613856924,36.9199611304449,11700,2017-11-10 06:12:26,1670.2286423473222,0.3000000096,0.7199994039200001,0.16801900537660802,1670.2286423473222,0.3000000096,0.7199994039200001,0.218332006986624,1684,0.0,99,GPS_Atti,
0.357805899024517,36.9199610868811,11800,2017-11-10 06:12:26,1670.4286423537224,0.500000016,0.7199994039200001,0.148033004737056,1670.4286423537224,0.500000016,0.7199994039200001,0.218332006986624,1684,0.0,99,GPS_Atti,
0.357805643678188,36.9199610086127,11900,2017-11-10 06:12:26,1670.628642360122,0.7000000224,0.7199994039200001,0.12638600404435202,1670.628642360122,0.7000000224,0.7199994039200001,0.218332006986624,1684,0.0,99,GPS_Atti,
0.357805441475315,36.9199609321788,12000,2017-11-10 06:12:26,1670.9286423697222,1.000000032,0.7199994039200001,0.11035600353139201,1670.9286423697222,1.000000032,0.7199994039200001,0.218332006986624,1684,0.0,99,GPS_Atti,
0.357805273351194,36.9199608571196,12100,2017-11-10 06:12:27,1671.3286423825223,1.4000000448,0.35999970196000003,0.09824500314383999,1671.3286423825223,1.4000000448,0.7199994039200001,0.218332006986624,1684,0.0,99,GPS_Atti,
0.357805180994909,36.9199607907104,12200,2017-11-10 06:12:27,1671.6286423921222,1.7000000544000002,0.0,0.0900513028816416,1671.6286423921222,1.7000000544000002,0.7199994039200001,0.218332006986624,1684,0.0,99,GPS_Atti,
0.357805081535351,36.9199606692197,12300,2017-11-10 06:12:27,1672.1286424081222,2.2000000704000002,0.0,0.076970502463056,1672.1286424081222,2.2000000704000002,0.7199994039200001,0.218332006986624,1684,0.0,99,GPS_Atti,
0.357804985915867,36.9199605221847,12400,2017-11-10 06:12:27,1672.6286424241223,2.7000000864,0.0,0.06311180201957761,1672.6286424241223,2.7000000864,0.7199994039200001,0.218332006986624,1684,0.0,99,GPS_Atti,
0.357804883270768,36.9199603115508,12500,2017-11-10 06:12:27,1673.1286424401223,3.2000001024,0.0,0.047750401528012805,1673.1286424401223,3.2000001024,0.7199994039200001,0.218332006986624,1684,0.0,99,GPS_Atti,
0.357804829235535,36.9199601118902,12600,2017-11-10 06:12:27,1673.6286424561222,3.7000001184,0.0,0.03930500125776,1673.6286424561222,3.7000001184,0.7199994039200001,0.218332006986624,1684,0.0,99,GPS_Atti,
0.357804762913591,36.9199598772122,12700,2017-11-10 06:12:27,1674.128642472122,4.200000134400001,0.0,0.0453969014527008,1674.128642472122,4.200000134400001,0.7199994039200001,0.218332006986624,1684,0.0,99,GPS_Atti,
0.357804718278043,36.9199596827141,12800,2017-11-10 06:12:27,1674.6286424881223,4.7000001504,0.0,0.0590732018903424,1674.6286424881223,4.7000001504,0.7199994039200001,0.218332006986624,1684,0.0,99,GPS_Atti,
0.357804668149753,36.9199595427665,12900,2017-11-10 06:12:27,1675.1286425041221,5.200000166400001,0.0,0.0730824023386368,1675.1286425041221,5.200000166400001,0.7199994039200001,0.218332006986624,1684,0.0,99,GPS_Atti,
0.357804638835014,36.9199594816826,13000,2017-11-10 06:12:27,1675.7286425233224,5.8000001856,0.0,0.08009490256303681,1675.7286425233224,5.8000001856,0.7199994039200001,0.218332006986624,1684,0.0,99,GPS_Atti,
0.357804636610763,36.9199595042252,13100,2017-11-10 06:12:28,1676.2286425393222,6.3000002016,0.0,0.0785591025138912,1676.2286425393222,6.3000002016,0.7199994039200001,0.218332006986624,1684,0.0,99,GPS_Atti,
0.357804635098956,36.919959462631,13200,2017-11-10 06:12:28,1676.7286425553223,6.800000217600001,0.35999970196000003,0.081873002619936,1676.7286425553223,6.800000217600001,0.7199994039200001,0.218332006986624,1684,0.0,99,GPS_Atti,
0.357804597560472,36.9199593800261,13300,2017-11-10 06:12:28,1677.2286425713223,7.3000002336000005,0.5075995797636,0.09137700292406399,1677.2286425713223,7.3000002336000005,0.7199994039200001,0.218332006986624,1684,0.0,99,GPS_Atti,
0.357804486588731,36.9199592077336,13400,2017-11-10 06:12:28,1677.7286425873224,7.8000002496,0.5075995797636,0.11387900364412801,1677.7286425873224,7.8000002496,0.7199994039200001,0.218332006986624,1684,0.0,99,GPS_Atti,
0.357804309661548,36.919959066523,13500,2017-11-10 06:12:28,1678.2286426033222,8.300000265600001,0.7199994039200001,0.13871000443872,1678.2286426033222,8.300000265600001,0.7199994039200001,0.218332006986624,1684,0.0,99,GPS_Atti,
0.357804083973662,36.9199589222402,13600,2017-11-10 06:12:28,1678.728642619322,8.800000281600001,0.7199994039200001,0.167706005366592,1678.728642619322,8.800000281600001,0.7199994039200001,0.218332006986624,1684,0.0,99,GPS_Atti,
0.357803835864673,36.9199587730899,13700,2017-11-10 06:12:28,1679.2286426353223,9.3000002976,0.7199994039200001,0.199141006372512,1679.2286426353223,9.3000002976,0.7199994039200001,0.218332006986624,1684,0.0,99,GPS_Atti,
0.357803607745821,36.9199585678565,13800,2017-11-10 06:12:28,1679.7286426513222,9.8000003136,0.5075995797636,0.23326400746444803,1679.7286426513222,9.8000003136,0.7199994039200001,0.23326400746444803,1684,0.0,99,GPS_Atti,
0.35780338964528,36.9199583269708,13900,2017-11-10 06:12:28,1680.2286426673222,10.3000003296,0.5075995797636,0.26925700861622404,1680.2286426673222,10.3000003296,0.7199994039200001,0.26925700861622404,1684,0.0,99,GPS_Atti,
0.357803212789838,36.9199580568514,14000,2017-11-10 06:12:28,1680.7286426833223,10.8000003456,0.5075995797636,0.30426000973632,1680.7286426833223,10.8000003456,0.7199994039200001,0.30426000973632,1684,0.0,99,GPS_Atti,
0.357803009287135,36.9199577946542,14100,2017-11-10 06:12:29,1681.2286426993223,11.3000003616,0.5075995797636,0.34088901090844803,1681.2286426993223,11.3000003616,0.7199994039200001,0.34088901090844803,1684,0.0,99,GPS_Atti,
0.357802805091606,36.9199575565639,14200,2017-11-10 06:12:29,1681.7286427153222,11.8000003776,0.5075995797636,0.37569701202230404,1681.7286427153222,11.8000003776,0.7199994039200001,0.37569701202230404,1684,0.0,99,GPS_Atti,
0.357802589671518,36.9199573563221,14300,2017-11-10 06:12:29,1682.2286427313225,12.300000393600001,0.5075995797636,0.408364013067648,1682.2286427313225,12.300000393600001,0.7199994039200001,0.408364013067648,1684,0.0,99,GPS_Atti,
0.357802184797899,36.9199570257388,14500,2017-11-10 06:12:29,1683.2286427633221,13.3000004256,0.5075995797636,0.46617301491753604,1683.2286427633221,13.3000004256,0.7199994039200001,0.46617301491753604,1684,0.0,99,GPS_Atti,
0.357801988769373,36.9199568695845,14600,2017-11-10 06:12:29,1683.7286427793224,13.800000441600002,0.35999970196000003,0.49388501580432004,1683.7286427793224,13.800000441600002,0.7199994039200001,0.49388501580432004,1684,0.0,99,GPS_Atti,
0.357801784816126,36.9199567036631,14700,2017-11-10 06:12:29,1684.2286427953222,14.300000457600001,0.35999970196000003,0.523003016736096,1684.2286427953222,14.300000457600001,0.7199994039200001,0.523003016736096,1684,0.0,99,GPS_Atti,
0.357801619466365,36.9199565276445,14800,2017-11-10 06:12:29,1684.7286428113223,14.8000004736,0.35999970196000003,0.5498330175946561,1684.7286428113223,14.8000004736,0.7199994039200001,0.5498330175946561,1684,0.0,99,GPS_Atti,
0.357801427271501,36.9199563703187,14900,2017-11-10 06:12:29,1685.3286428305223,15.4000004928,0.35999970196000003,0.5773530184752961,1685.3286428305223,15.4000004928,0.7199994039200001,0.5773530184752961,1684,0.0,99,GPS_Atti,
0.357801252564498,36.9199562540517,15000,2017-11-10 06:12:29,1685.8286428465221,15.900000508800002,0.35999970196000003,0.60032001921024,1685.8286428465221,15.900000508800002,0.7199994039200001,0.60032001921024,1684,0.0,99,GPS_Atti,
0.357801053294859,36.9199561716015,15100,2017-11-10 06:12:30,1686.3286428625222,16.400000524800003,0.35999970196000003,0.6227410199277121,1686.3286428625222,16.400000524800003,0.7199994039200001,0.6227410199277121,1684,0.0,99,GPS_Atti,
0.357800892363271,36.9199561045311,15200,2017-11-10 06:12:30,1686.8286428785223,16.9000005408,0.0,0.640967020510944,1686.8286428785223,16.9000005408,0.7199994039200001,0.640967020510944,1684,0.0,99,GPS_Atti,
0.357800715544989,36.9199560297567,15300,2017-11-10 06:12:30,1687.3286428945223,17.400000556800002,0.0,0.661149021156768,1687.3286428945223,17.400000556800002,0.7199994039200001,0.661149021156768,1684,0.0,99,GPS_Atti,
0.357800587439982,36.9199559341497,15400,2017-11-10 06:12:30,1687.8286429105221,17.9000005728,0.35999970196000003,0.678861021723552,1687.8286429105221,17.9000005728,0.7199994039200001,0.678861021723552,1684,0.0,99,GPS_Atti,
0.357800429719481,36.9199558274377,15500,2017-11-10 06:12:30,1688.4286429297224,18.500000592000003,0.0,0.69986502239568,1688.4286429297224,18.500000592000003,0.7199994039200001,0.69986502239568,1684,0.0,99,GPS_Atti,
0.357800312039976,36.9199557485916,15600,2017-11-10 06:12:30,1688.9286429457222,19.000000608,0.0,0.715486022895552,1688.9286429457222,19.000000608,0.7199994039200001,0.715486022895552,1684,0.0,99,GPS_Atti,
0.35780008936919,36.9199557051876,15800,2017-11-10 06:12:30,1690.0286429809223,20.1000006432,0.0,0.73742002359744,1690.0286429809223,20.1000006432,0.7199994039200001,0.73742002359744,1684,0.0,99,GPS_Atti,
0.357799992655087,36.9199557471504,15900,2017-11-10 06:12:30,1690.5286429969221,20.6000006592,0.0,0.74270502376656,1690.5286429969221,20.6000006592,0.7199994039200001,0.74270502376656,1684,0.0,99,GPS_Atti,
0.35779992939533,36.9199558527778,16000,2017-11-10 06:12:30,1691.0286430129224,21.1000006752,0.35999970196000003,0.740823023706336,1691.0286430129224,21.1000006752,0.7199994039200001,0.74270502376656,1684,0.0,99,GPS_Atti,
0.357799793630733,36.9199561377422,16200,2017-11-10 06:12:31,1692.128643048122,22.2000007104,0.0,0.733832023482624,1692.128643048122,22.2000007104,0.7199994039200001,0.74270502376656,1684,0.0,99,GPS_Atti,
0.357799721668978,36.9199562612502,16300,2017-11-10 06:12:31,1692.6286430641223,22.7000007264,0.0,0.732509023440288,1692.6286430641223,22.7000007264,0.7199994039200001,0.74270502376656,1684,0.0,99,GPS_Atti,
0.357799674988817,36.9199563557685,16400,2017-11-10 06:12:31,1693.2286430833221,23.300000745600002,0.0,0.7309490233903679,1693.2286430833221,23.300000745600002,0.7199994039200001,0.74270502376656,1684,0.0,99,GPS_Atti,
0.357799641768966,36.919956438697,16500,2017-11-10 06:12:31,1693.7286430993224,23.8000007616,0.0,0.729009023328288,1693.7286430993224,23.8000007616,0.7199994039200001,0.74270502376656,1684,0.0,99,GPS_Atti,
0.357799650866269,36.9199565007129,16600,2017-11-10 06:12:31,1694.2286431153223,24.3000007776,0.0,0.7244500231824,1694.2286431153223,24.3000007776,0.7199994039200001,0.74270502376656,1684,0.0,99,GPS_Atti,
0.357799674350874,36.9199565859581,16700,2017-11-10 06:12:31,1694.8286431345223,24.9000007968,0.0,0.717208022950656,1694.8286431345223,24.9000007968,0.7199994039200001,0.74270502376656,1684,0.0,99,GPS_Atti,
0.357799726148013,36.9199566700398,16800,2017-11-10 06:12:31,1695.3286431505223,25.400000812800002,0.0,0.707406022636992,1695.3286431505223,25.400000812800002,0.7199994039200001,0.74270502376656,1684,0.0,99,GPS_Atti,
0.357799820414565,36.9199567792174,16900,2017-11-10 06:12:31,1695.8286431665222,25.9000008288,0.35999970196000003,0.6921520221488641,1695.8286431665222,25.9000008288,0.7199994039200001,0.74270502376656,1684,0.0,99,GPS_Atti,
0.357799951097603,36.91995685284,17000,2017-11-10 06:12:31,1696.3286431825222,26.4000008448,0.35999970196000003,0.675479021615328,1696.3286431825222,26.4000008448,0.7199994039200001,0.74270502376656,1684,0.0,99,GPS_Atti,
0.357800102754593,36.919956953942,17100,2017-11-10 06:12:32,1696.8286431985223,26.900000860800002,0.35999970196000003,0.6552320209674241,1696.8286431985223,26.900000860800002,0.7199994039200001,0.74270502376656,1684,0.0,99,GPS_Atti,
0.357800252801051,36.919957047862,17200,2017-11-10 06:12:32,1697.428643217722,27.50000088,0.35999970196000003,0.635551020337632,1697.428643217722,27.50000088,0.7199994039200001,0.74270502376656,1684,0.0,99,GPS_Atti,
0.357800439256871,36.9199571964271,17300,2017-11-10 06:12:32,1697.9286432337224,28.000000896,0.35999970196000003,0.609286019497152,1697.9286432337224,28.000000896,0.7199994039200001,0.74270502376656,1684,0.0,99,GPS_Atti,
0.357800642342361,36.9199573478035,17400,2017-11-10 06:12:32,1698.4286432497222,28.500000912,0.35999970196000003,0.581289018601248,1698.4286432497222,28.500000912,0.7199994039200001,0.74270502376656,1684,0.0,99,GPS_Atti,
0.357800853756324,36.919957530065,17500,2017-11-10 06:12:32,1698.9286432657223,29.000000928000002,0.35999970196000003,0.550798017625536,1698.9286432657223,29.000000928000002,0.7199994039200001,0.74270502376656,1684,0.0,99,GPS_Atti,
0.35780103030408,36.9199576729149,17600,2017-11-10 06:12:32,1699.5286432849223,29.6000009472,0.35999970196000003,0.525892016828544,1699.5286432849223,29.6000009472,0.7199994039200001,0.74270502376656,1684,0.0,99,GPS_Atti,
0.357801216600516,36.9199578391862,17700,2017-11-10 06:12:32,1700.028643300922,30.1000009632,0.35999970196000003,0.498821015962272,1700.028643300922,30.1000009632,0.7199994039200001,0.74270502376656,1684,0.0,99,GPS_Atti,
0.357801392424835,36.9199579803745,17800,2017-11-10 06:12:32,1700.6286433201224,30.700000982400002,0.35999970196000003,0.47416501517328,1700.6286433201224,30.700000982400002,0.7199994039200001,0.74270502376656,1684,0.0,99,GPS_Atti,
0.357801592550628,36.9199581352183,17900,2017-11-10 06:12:32,1701.1286433361222,31.2000009984,0.35999970196000003,0.44645801428665605,1701.1286433361222,31.2000009984,0.7199994039200001,0.74270502376656,1684,0.0,99,GPS_Atti,
0.35780179212499,36.919958265657,18000,2017-11-10 06:12:32,1701.6286433521223,31.7000010144,0.35999970196000003,0.420088013442816,1701.6286433521223,31.7000010144,0.7199994039200001,0.74270502376656,1684,0.0,99,GPS_Atti,
0.357802015432497,36.9199584100851,18100,2017-11-10 06:12:33,1702.1286433681223,32.2000010304,0.35999970196000003,0.39068101250179205,1702.1286433681223,32.2000010304,0.7199994039200001,0.74270502376656,1684,0.0,99,GPS_Atti,
0.357802221041566,36.9199585367819,18200,2017-11-10 06:12:33,1702.728643387322,32.800001049600006,0.35999970196000003,0.363937011645984,1702.728643387322,32.800001049600006,0.7199994039200001,0.74270502376656,1684,0.0,99,GPS_Atti,
0.357802439533053,36.9199586984887,18300,2017-11-10 06:12:33,1703.2286434033222,33.3000010656,0.35999970196000003,0.334241010695712,1703.2286434033222,33.3000010656,0.7199994039200001,0.74270502376656,1684,0.0,99,GPS_Atti,
0.357802634911524,36.9199588767894,18400,2017-11-10 06:12:33,1703.7286434193222,33.8000010816,0.35999970196000003,0.306252009800064,1703.7286434193222,33.8000010816,0.7199994039200001,0.74270502376656,1684,0.0,99,GPS_Atti,
0.35780283859048,36.9199590661911,18500,2017-11-10 06:12:33,1704.2286434353223,34.3000010976,0.35999970196000003,0.277244008871808,1704.2286434353223,34.3000010976,0.7199994039200001,0.74270502376656,1684,0.0,99,GPS_Atti,
0.357803025623024,36.9199592235011,18600,2017-11-10 06:12:33,1704.7286434513221,34.800001113600004,0.35999970196000003,0.251624008051968,1704.7286434513221,34.800001113600004,0.7199994039200001,0.74270502376656,1684,0.0,99,GPS_Atti,
0.357803238177127,36.9199593783915,18700,2017-11-10 06:12:33,1705.2286434673224,35.300001129600005,0.35999970196000003,0.22373800715961603,1705.2286434673224,35.300001129600005,0.7199994039200001,0.74270502376656,1684,0.0,99,GPS_Atti,
0.357803444407358,36.9199595099956,18800,2017-11-10 06:12:33,1705.7286434833222,35.8000011456,0.35999970196000003,0.19760000632320002,1705.7286434833222,35.8000011456,0.7199994039200001,0.74270502376656,1684,0.0,99,GPS_Atti,
0.357803655995699,36.9199596344393,18900,2017-11-10 06:12:33,1706.228643499322,36.3000011616,0.0,0.171389005484448,1706.228643499322,36.3000011616,0.7199994039200001,0.74270502376656,1684,0.0,99,GPS_Atti,
0.357803813769181,36.9199597244836,19000,2017-11-10 06:12:33,1706.7286435153223,36.8000011776,0.0,0.15215200486886402,1706.7286435153223,36.8000011776,0.7199994039200001,0.74270502376656,1684,0.0,99,GPS_Atti,
0.35780398090766,36.9199598142582,19100,2017-11-10 06:12:34,1707.3286435345221,37.400001196800005,0.0,0.132173004229536,1707.3286435345221,37.400001196800005,0.7199994039200001,0.74270502376656,1684,0.0,99,GPS_Atti,
0.357804138064516,36.9199599052088,19200,2017-11-10 06:12:34,1707.8286435505222,37.9000012128,0.0,0.11370000363840001,1707.8286435505222,37.9000012128,0.7199994039200001,0.74270502376656,1684,0.0,99,GPS_Atti,
0.357804322593327,36.9199600036513,19300,2017-11-10 06:12:34,1708.3286435665223,38.4000012288,0.0,0.09289720297271041,1708.3286435665223,38.4000012288,0.7199994039200001,0.74270502376656,1684,0.0,99,GPS_Atti,
0.35780448485627,36.9199600910071,19400,2017-11-10 06:12:34,1708.928643585722,39.000001248000004,0.0,0.075808002425856,1708.928643585722,39.000001248000004,0.7199994039200001,0.74270502376656,1684,0.0,99,GPS_Atti,
0.35780466028559,36.9199601919564,19500,2017-11-10 06:12:34,1709.4286436017223,39.500001264,0.0,0.060068401922188805,1709.4286436017223,39.500001264,0.7199994039200001,0.74270502376656,1684,0.0,99,GPS_Atti,
0.357804781054458,36.9199602870043,19600,2017-11-10 06:12:34,1709.9286436177222,40.00000128,0.0,0.053943801726201605,1709.9286436177222,40.00000128,0.7199994039200001,0.74270502376656,1684,0.0,99,GPS_Atti,
0.357804937835346,36.9199603896511,19700,2017-11-10 06:12:34,1710.4286436337222,40.500001296,0.0,0.0515756016504192,1710.4286436337222,40.500001296,0.7199994039200001,0.74270502376656,1684,0.0,99,GPS_Atti,
0.357805074798783,36.919960483702,19800,2017-11-10 06:12:34,1710.9286436497223,41.000001312,0.0,0.056628001812096006,1710.9286436497223,41.000001312,0.7199994039200001,0.74270502376656,1684,0.0,99,GPS_Atti,
0.357805249250834,36.9199605861346,19900,2017-11-10 06:12:34,1711.4286436657223,41.500001328,0.0,0.0680311021769952,1711.4286436657223,41.500001328,0.7199994039200001,0.74270502376656,1684,0.0,99,GPS_Atti,
0.357805399148798,36.9199606727501,20000,2017-11-10 06:12:34,1711.9286436817222,42.000001344,0.0,0.0814509026064288,1711.9286436817222,42.000001344,0.7199994039200001,0.74270502376656,1684,0.0,99,GPS_Atti,
0.357805562749,36.9199607755794,20100,2017-11-10 06:12:35,1712.5286437009224,42.6000013632,0.0,0.0991556031729792,1712.5286437009224,42.6000013632,0.7199994039200001,0.74270502376656,1684,0.0,99,GPS_Atti,
0.35780567202492,36.9199608717528,20200,2017-11-10 06:12:35,1713.0286437169223,43.1000013792,0.0,0.11436000365952001,1713.0286437169223,43.1000013792,0.7199994039200001,0.74270502376656,1684,0.0,99,GPS_Atti,
0.357805808619006,36.9199609847075,20300,2017-11-10 06:12:35,1713.528643732922,43.6000013952,0.0,0.13301200425638401,1713.528643732922,43.6000013952,0.7199994039200001,0.74270502376656,1684,0.0,99,GPS_Atti,
0.357805924766145,36.9199610804504,20400,2017-11-10 06:12:35,1714.0286437489224,44.100001411200004,0.0,0.149059004769888,1714.0286437489224,44.100001411200004,0.7199994039200001,0.74270502376656,1684,0.0,99,GPS_Atti,
0.357806072076614,36.9199611779861,20500,2017-11-10 06:12:35,1714.5286437649222,44.600001427200006,0.0,0.16748500535952,1714.5286437649222,44.600001427200006,0.7199994039200001,0.74270502376656,1684,0.0,99,GPS_Atti,
0.357806208608209,36.9199612573498,20600,2017-11-10 06:12:35,1715.0286437809223,45.1000014432,0.0,0.183838005882816,1715.0286437809223,45.1000014432,0.7199994039200001,0.74270502376656,1684,0.0,99,GPS_Atti,
0.357806360730323,36.9199613445091,20700,2017-11-10 06:12:35,1715.5286437969223,45.6000014592,0.0,0.20219200647014401,1715.5286437969223,45.6000014592,0.7199994039200001,0.74270502376656,1684,0.0,99,GPS_Atti,
0.357806460786196,36.9199614205666,20800,2017-11-10 06:12:35,1716.1286438161221,46.2000014784,0.0,0.21591400690924803,1716.1286438161221,46.2000014784,0.7199994039200001,0.74270502376656,1684,0.0,99,GPS_Atti,
0.357806561479606,36.919961519864,20900,2017-11-10 06:12:35,1716.6286438321222,46.7000014944,0.0,0.231617007411744,1716.6286438321222,46.7000014944,0.7199994039200001,0.74270502376656,1684,0.0,99,GPS_Atti,
0.357806628351252,36.9199616115965,21000,2017-11-10 06:12:35,1717.1286438481222,47.2000015104,0.0,0.24416900781340803,1717.1286438481222,47.2000015104,0.7199994039200001,0.74270502376656,1684,0.0,99,GPS_Atti,
0.357806712571118,36.9199616980534,21100,2017-11-10 06:12:36,1717.6286438641223,47.70000152640001,0.0,0.257581008242592,1717.6286438641223,47.70000152640001,0.7199994039200001,0.74270502376656,1684,0.0,99,GPS_Atti,
0.35780678473195,36.9199617559865,21200,2017-11-10 06:12:36,1718.1286438801221,48.20000154240001,0.0,0.267748008567936,1718.1286438801221,48.20000154240001,0.7199994039200001,0.74270502376656,1684,0.0,99,GPS_Atti,
0.357806878071103,36.9199618255771,21300,2017-11-10 06:12:36,1718.6286438961224,48.7000015584,0.0,0.280478008975296,1718.6286438961224,48.7000015584,0.7199994039200001,0.74270502376656,1684,0.0,99,GPS_Atti,
0.357806951700588,36.9199618949192,21400,2017-11-10 06:12:36,1719.2286439153222,49.3000015776,0.0,0.291702009334464,1719.2286439153222,49.3000015776,0.7199994039200001,0.74270502376656,1684,0.0,99,GPS_Atti,
0.357807037296489,36.9199619647062,21500,2017-11-10 06:12:36,1719.7286439313223,49.8000015936,0.0,0.303879009724128,1719.7286439313223,49.8000015936,0.7199994039200001,0.74270502376656,1684,0.0,99,GPS_Atti,
0.357807098400186,36.9199620082422,21600,2017-11-10 06:12:36,1720.2286439473223,50.3000016096,0.0,0.312071009986272,1720.2286439473223,50.3000016096,0.7199994039200001,0.74270502376656,1684,0.0,99,GPS_Atti,
0.357807169389353,36.9199620466548,21700,2017-11-10 06:12:36,1720.7286439633222,50.800001625600004,0.0,0.320628010260096,1720.7286439633222,50.800001625600004,0.7199994039200001,0.74270502376656,1684,0.0,99,GPS_Atti,
0.357807198042639,36.9199620544526,21800,2017-11-10 06:12:36,1721.2286439793222,51.300001641600005,0.0,0.323477010351264,1721.2286439793222,51.300001641600005,0.7199994039200001,0.74270502376656,1684,0.0,99,GPS_Atti,
0.357807206990939,36.9199620391631,21900,2017-11-10 06:12:36,1721.7286439953223,51.8000016576,0.0,0.322969010335008,1721.7286439953223,51.8000016576,0.7199994039200001,0.74270502376656,1684,0.0,99,GPS_Atti,
0.357807247257881,36.9199620338342,22000,2017-11-10 06:12:36,1722.2286440113223,52.3000016736,0.0,0.32572801042329597,1722.2286440113223,52.3000016736,0.7199994039200001,0.74270502376656,1684,0.0,99,GPS_Atti,
0.357807307117446,36.9199620224551,22100,2017-11-10 06:12:37,1722.7286440273222,52.8000016896,0.0,0.329637010548384,1722.7286440273222,52.8000016896,0.7199994039200001,0.74270502376656,1684,0.0,99,GPS_Atti,
0.357807350865594,36.9199619965505,22200,2017-11-10 06:12:37,1723.3286440465222,53.400001708800005,0.0,0.33122601059923207,1723.3286440465222,53.400001708800005,0.7199994039200001,0.74270502376656,1684,0.0,99,GPS_Atti,
0.357807402887866,36.9199620081041,22300,2017-11-10 06:12:37,1723.8286440625222,53.900001724800006,0.0,0.33636901076380804,1723.8286440625222,53.900001724800006,0.7199994039200001,0.74270502376656,1684,0.0,99,GPS_Atti,
0.35780740910323,36.9199620441581,22400,2017-11-10 06:12:37,1724.3286440785223,54.40000174080001,0.0,0.339578010866496,1724.3286440785223,54.40000174080001,0.7199994039200001,0.74270502376656,1684,0.0,99,GPS_Atti,
0.35780742464225,36.9199620997102,22500,2017-11-10 06:12:37,1724.8286440945224,54.9000017568,0.0,0.345042011041344,1724.8286440945224,54.9000017568,0.7199994039200001,0.74270502376656,1684,0.0,99,GPS_Atti,
0.357807455643345,36.9199621860751,22700,2017-11-10 06:12:37,1725.828644126522,55.900001788800004,0.0,0.354149011332768,1725.828644126522,55.900001788800004,0.7199994039200001,0.74270502376656,1684,0.0,99,GPS_Atti,
0.357807471526374,36.9199622444316,22800,2017-11-10 06:12:37,1726.3286441425223,56.400001804800006,0.0,0.359932011517824,1726.3286441425223,56.400001804800006,0.7199994039200001,0.74270502376656,1684,0.0,99,GPS_Atti,
0.35780751526068,36.919962328037,22900,2017-11-10 06:12:37,1726.8286441585221,56.90000182080001,0.0,0.3699250118376,1726.8286441585221,56.90000182080001,0.7199994039200001,0.74270502376656,1684,0.0,99,GPS_Atti,
0.357807549800384,36.9199623880305,23000,2017-11-10 06:12:37,1727.3286441745222,57.4000018368,0.0,0.377359012075488,1727.3286441745222,57.4000018368,0.7199994039200001,0.74270502376656,1684,0.0,99,GPS_Atti,
0.357807585269523,36.9199624333448,23100,2017-11-10 06:12:38,1727.8286441905223,57.9000018528,0.0,0.38371401227884805,1727.8286441905223,57.9000018528,0.7199994039200001,0.74270502376656,1684,0.0,99,GPS_Atti,
0.357807633668507,36.9199624915135,23200,2017-11-10 06:12:38,1728.3286442065223,58.400001868800004,0.0,0.39209801254713605,1728.3286442065223,58.400001868800004,0.7199994039200001,0.74270502376656,1684,0.0,99,GPS_Atti,
0.357807676694033,36.9199625339008,23300,2017-11-10 06:12:38,1728.8286442225221,58.900001884800005,0.0,0.39881401276204803,1728.8286442225221,58.900001884800005,0.7199994039200001,0.74270502376656,1684,0.0,99,GPS_Atti,
0.357807712334565,36.9199625547767,23400,2017-11-10 06:12:38,1729.3286442385224,59.40000190080001,0.0,0.403252012904064,1729.3286442385224,59.40000190080001,0.7199994039200001,0.74270502376656,1684,0.0,99,GPS_Atti,
0.357807797501779,36.9199625847298,23500,2017-11-10 06:12:38,1729.8286442545223,59.9000019168,0.0,0.41231201319398403,1729.8286442545223,59.9000019168,0.7199994039200001,0.74270502376656,1684,0.0,99,GPS_Atti,
0.35780789165434,36.9199625893345,23600,2017-11-10 06:12:38,1730.328644270522,60.4000019328,0.0,0.42018401344588807,1730.328644270522,60.4000019328,0.7199994039200001,0.74270502376656,1684,0.0,99,GPS_Atti,
0.357807975919396,36.9199625847405,23700,2017-11-10 06:12:38,1730.8286442865224,60.9000019488,0.0,0.42666701365334403,1730.8286442865224,60.9000019488,0.7199994039200001,0.74270502376656,1684,0.0,99,GPS_Atti,
0.357808076984701,36.9199626292669,23800,2017-11-10 06:12:38,1731.3286443025222,61.400001964800005,0.0,0.43830101402563204,1731.3286443025222,61.400001964800005,0.7199994039200001,0.74270502376656,1684,0.0,99,GPS_Atti,
0.357808167119077,36.9199626773407,23900,2017-11-10 06:12:38,1731.8286443185223,61.900001980800006,0.0,0.4493250143784,1731.8286443185223,61.900001980800006,0.7199994039200001,0.74270502376656,1684,0.0,99,GPS_Atti,
0.357808209682125,36.9199626979982,24000,2017-11-10 06:12:38,1732.328644334522,62.4000019968,0.0,0.454386014540352,1732.328644334522,62.4000019968,0.7199994039200001,0.74270502376656,1684,0.0,99,GPS_Atti,
0.357808239097116,36.919962719259,24100,2017-11-10 06:12:39,1732.8286443505224,62.9000020128,0.0,0.45840201466886404,1732.8286443505224,62.9000020128,0.7199994039200001,0.74270502376656,1684,0.0,99,GPS_Atti,
0.357808342269221,36.9199627375167,24200,2017-11-10 06:12:39,1733.3286443665222,63.4000020288,0.0,0.468367014987744,1733.3286443665222,63.4000020288,0.7199994039200001,0.74270502376656,1684,0.0,99,GPS_Atti,
0.357808486470786,36.9199627554608,24300,2017-11-10 06:12:39,1733.828644382522,63.900002044800004,0.0,0.4818820154202241,1733.828644382522,63.900002044800004,0.7199994039200001,0.74270502376656,1684,0.0,99,GPS_Atti,
0.35780858246186,36.919962752114,24400,2017-11-10 06:12:39,1734.3286443985223,64.4000020608,0.0,0.489896015676672,1734.3286443985223,64.4000020608,0.7199994039200001,0.74270502376656,1684,0.0,99,GPS_Atti,
0.357808706652699,36.9199627492282,24500,2017-11-10 06:12:39,1734.8286444145222,64.9000020768,0.0,0.5005110160163521,1734.8286444145222,64.9000020768,0.7199994039200001,0.74270502376656,1684,0.0,99,GPS_Atti,
0.357808798767669,36.9199627215865,24600,2017-11-10 06:12:39,1735.3286444305222,65.40000209280001,0.0,0.5067730162167361,1735.3286444305222,65.40000209280001,0.7199994039200001,0.74270502376656,1684,0.0,99,GPS_Atti,
0.35780888967067,36.9199626824497,24700,2017-11-10 06:12:39,1735.8286444465223,65.90000210880001,0.0,0.512322016394304,1735.8286444465223,65.90000210880001,0.7199994039200001,0.74270502376656,1684,0.0,99,GPS_Atti,
0.35780905479082,36.9199626674284,24800,2017-11-10 06:12:39,1736.3286444625223,66.40000212480001,0.0,0.5263570168434241,1736.3286444625223,66.40000212480001,0.7199994039200001,0.74270502376656,1684,0.0,99,GPS_Atti,
0.357809328849803,36.9199626476274,25000,2017-11-10 06:12:39,1737.2286444913223,67.3000021536,0.0,0.550533017617056,1737.2286444913223,67.3000021536,0.7199994039200001,0.74270502376656,1684,0.0,99,GPS_Atti,
0.357809424835584,36.9199626262574,25100,2017-11-10 06:12:40,1737.7286445073223,67.8000021696,0.0,0.558301017865632,1737.7286445073223,67.8000021696,0.7199994039200001,0.74270502376656,1684,0.0,99,GPS_Atti,
0.357809558982323,36.9199626328411,25200,2017-11-10 06:12:40,1738.328644526522,68.4000021888,0.0,0.5714120182851841,1738.328644526522,68.4000021888,0.7199994039200001,0.74270502376656,1684,0.0,99,GPS_Atti,
0.357809684484059,36.9199626447613,25300,2017-11-10 06:12:40,1738.8286445425222,68.9000022048,0.0,0.584082018690624,1738.8286445425222,68.9000022048,0.7199994039200001,0.74270502376656,1684,0.0,99,GPS_Atti,
0.357809779108054,36.9199626492167,25400,2017-11-10 06:12:40,1739.3286445585222,69.4000022208,0.0,0.5934230189895361,1739.3286445585222,69.4000022208,0.7199994039200001,0.74270502376656,1684,0.0,99,GPS_Atti,
0.357809908770872,36.9199626512728,25500,2017-11-10 06:12:40,1739.8286445745223,69.9000022368,0.0,0.6060660193941121,1739.8286445745223,69.9000022368,0.7199994039200001,0.74270502376656,1684,0.0,99,GPS_Atti,
0.35781004011058,36.9199626069975,25600,2017-11-10 06:12:40,1740.3286445905221,70.40000225280001,0.0,0.616493019727776,1740.3286445905221,70.40000225280001,0.7199994039200001,0.74270502376656,1684,0.0,99,GPS_Atti,
0.357810206329115,36.919962579874,25700,2017-11-10 06:12:40,1740.8286446065224,70.90000226880001,0.0,0.631447020206304,1740.8286446065224,70.90000226880001,0.7199994039200001,0.74270502376656,1684,0.0,99,GPS_Atti,
0.357810343985558,36.9199625661852,25800,2017-11-10 06:12:40,1741.3286446225222,71.40000228480001,0.0,0.644416020621312,1741.3286446225222,71.40000228480001,0.7199994039200001,0.74270502376656,1684,0.0,99,GPS_Atti,
0.357810497691537,36.919962582618,25900,2017-11-10 06:12:40,1741.828644638522,71.9000023008,0.0,0.660557021137824,1741.828644638522,71.9000023008,0.7199994039200001,0.74270502376656,1684,0.0,99,GPS_Atti,
0.357810616356251,36.9199625860306,26000,2017-11-10 06:12:40,1742.4286446577223,72.50000232,0.0,0.6726080215234561,1742.4286446577223,72.50000232,0.7199994039200001,0.74270502376656,1684,0.0,99,GPS_Atti,
0.357810741329557,36.9199625986564,26100,2017-11-10 06:12:41,1742.9286446737221,73.00000233600001,0.0,0.685772021944704,1742.9286446737221,73.00000233600001,0.7199994039200001,0.74270502376656,1684,0.0,99,GPS_Atti,
0.357810829818389,36.9199625763378,26200,2017-11-10 06:12:41,1743.4286446897222,73.50000235200001,0.0,0.693659022197088,1743.4286446897222,73.50000235200001,0.7199994039200001,0.74270502376656,1684,0.0,99,GPS_Atti,
0.357810924455412,36.9199625741345,26300,2017-11-10 06:12:41,1743.9286447057223,74.00000236800001,0.0,0.7031420225005439,1743.9286447057223,74.00000236800001,0.7199994039200001,0.74270502376656,1684,0.0,99,GPS_Atti,
0.357811012884807,36.9199625665588,26400,2017-11-10 06:12:41,1744.4286447217223,74.50000238400001,0.0,0.711782022777024,1744.4286447217223,74.50000238400001,0.7199994039200001,0.74270502376656,1684,0.0,99,GPS_Atti,
0.357811111057181,36.919962589023,26500,2017-11-10 06:12:41,1744.9286447377222,75.0000024,0.0,0.7227810231289921,1744.9286447377222,75.0000024,0.7199994039200001,0.74270502376656,1684,0.0,98,GPS_Atti,
0.357811191382624,36.9199626004914,26600,2017-11-10 06:12:41,1745.4286447537224,75.500002416,0.0,0.7314790234073281,1745.4286447537224,75.500002416,0.7199994039200001,0.74270502376656,1684,0.0,98,GPS_Atti,
0.357811300920724,36.9199626359518,26700,2017-11-10 06:12:41,1745.9286447697223,76.000002432,0.0,0.7442240238151681,1745.9286447697223,76.000002432,0.7199994039200001,0.7442240238151681,1684,0.0,98,GPS_Atti,
0.357811387787626,36.9199626472425,26800,2017-11-10 06:12:41,1746.428644785722,76.500002448,0.0,0.75359502411504,1746.428644785722,76.500002448,0.7199994039200001,0.75359502411504,1684,0.0,98,GPS_Atti,
0.357811483259227,36.9199626831809,26900,2017-11-10 06:12:41,1746.9286448017224,77.000002464,0.0,0.764928024477696,1746.9286448017224,77.000002464,0.7199994039200001,0.764928024477696,1684,0.0,98,GPS_Atti,
0.357811539164523,36.9199627197949,27000,2017-11-10 06:12:41,1747.4286448177222,77.50000248,0.0,0.772246024711872,1747.4286448177222,77.50000248,0.7199994039200001,0.772246024711872,1684,0.0,98,GPS_Atti,
0.357811591632989,36.91996278286,27100,2017-11-10 06:12:42,1747.9286448337223,78.00000249600001,0.35999970196000003,0.7803840249722881,1747.9286448337223,78.00000249600001,0.7199994039200001,0.7803840249722881,1684,0.0,98,GPS_Atti,
0.357811615780371,36.9199628279211,27200,2017-11-10 06:12:42,1748.428644849722,78.500002512,0.35999970196000003,0.7848550251153601,1748.428644849722,78.500002512,0.7199994039200001,0.7848550251153601,1684,0.0,98,GPS_Atti,
0.357811676142719,36.9199628907207,27300,2017-11-10 06:12:42,1748.9286448657224,79.000002528,0.35999970196000003,0.793822025402304,1748.9286448657224,79.000002528,0.7199994039200001,0.793822025402304,1684,0.0,98,GPS_Atti,
0.357811733714728,36.9199628998744,27400,2017-11-10 06:12:42,1749.4286448817222,79.500002544,0.0,0.80008502560272,1749.4286448817222,79.500002544,0.7199994039200001,0.80008502560272,1684,0.0,98,GPS_Atti,
0.357811829915871,36.9199629157013,27500,2017-11-10 06:12:42,1750.0286449009222,80.1000025632,0.0,0.810582025938624,1750.0286449009222,80.1000025632,0.7199994039200001,0.810582025938624,1684,0.0,98,GPS_Atti,
0.357811889967186,36.9199629200031,27600,2017-11-10 06:12:42,1750.5286449169223,80.6000025792,0.0,0.816891026140512,1750.5286449169223,80.6000025792,0.7199994039200001,0.816891026140512,1684,0.0,98,GPS_Atti,
0.357811974125172,36.9199629481736,27700,2017-11-10 06:12:42,1751.0286449329221,81.1000025952,0.0,0.8267220264551041,1751.0286449329221,81.1000025952,0.7199994039200001,0.8267220264551041,1684,0.0,98,GPS_Atti,
0.357812033487655,36.9199629608369,27800,2017-11-10 06:12:42,1751.5286449489224,81.6000026112,0.35999970196000003,0.833338026666816,1751.5286449489224,81.6000026112,0.7199994039200001,0.833338026666816,1684,0.0,98,GPS_Atti,
0.357812071180434,36.9199629608208,27900,2017-11-10 06:12:42,1752.0286449649223,82.10000262720001,0.35999970196000003,0.8371850267899201,1752.0286449649223,82.10000262720001,0.7199994039200001,0.8371850267899201,1684,0.0,98,GPS_Atti,
0.357812144190906,36.9199630147744,28000,2017-11-10 06:12:42,1752.628644984122,82.70000264640001,0.35999970196000003,0.847019027104608,1752.628644984122,82.70000264640001,0.7199994039200001,0.847019027104608,1684,0.0,98,GPS_Atti,
0.35781221956018,36.9199630706006,28100,2017-11-10 06:12:43,1753.1286450001223,83.20000266240001,0.35999970196000003,0.857183027429856,1753.1286450001223,83.20000266240001,0.7199994039200001,0.857183027429856,1684,0.0,98,GPS_Atti,
0.357812248035966,36.9199631007587,28200,2017-11-10 06:12:43,1753.6286450161222,83.70000267840001,0.35999970196000003,0.86143002756576,1753.6286450161222,83.70000267840001,0.7199994039200001,0.86143002756576,1684,0.0,98,GPS_Atti,
0.357812287898646,36.9199631778489,28300,2017-11-10 06:12:43,1754.1286450321222,84.20000269440001,0.35999970196000003,0.868961027806752,1754.1286450321222,84.20000269440001,0.7199994039200001,0.868961027806752,1684,0.0,98,GPS_Atti,
0.357812295065428,36.9199632484999,28400,2017-11-10 06:12:43,1754.6286450481223,84.70000271040001,0.35999970196000003,0.872929027933728,1754.6286450481223,84.70000271040001,0.7199994039200001,0.872929027933728,1684,0.0,98,GPS_Atti,
0.357812333602556,36.9199633628715,28500,2017-11-10 06:12:43,1755.1286450641223,85.2000027264,0.35999970196000003,0.882174028229568,1755.1286450641223,85.2000027264,0.7199994039200001,0.882174028229568,1684,0.0,98,GPS_Atti,
0.357812349135469,36.9199634606508,28600,2017-11-10 06:12:43,1755.6286450801222,85.7000027424,0.35999970196000003,0.888418028429376,1755.6286450801222,85.7000027424,0.7199994039200001,0.888418028429376,1668,0.0,98,GPS_Atti,
0.357812409501888,36.9199635741697,28700,2017-11-10 06:12:43,1756.1286450961225,86.2000027584,0.35999970196000003,0.899999028799968,1756.1286450961225,86.2000027584,0.7199994039200001,0.899999028799968,1495,0.0,98,GPS_Atti,
0.357812439948905,36.9199636170612,28800,2017-11-10 06:12:43,1756.6286451121223,86.7000027744,0.35999970196000003,0.905154028964928,1756.6286451121223,86.7000027744,0.7199994039200001,0.905154028964928,1304,0.0,98,GPS_Atti,
0.357812506696382,36.9199636721824,28900,2017-11-10 06:12:43,1757.1286451281221,87.2000027904,0.35999970196000003,0.9145360292651521,1757.1286451281221,87.2000027904,0.7199994039200001,0.9145360292651521,1219,0.0,98,GPS_Atti,
0.357812545825448,36.9199637001816,29000,2017-11-10 06:12:43,1757.6286451441224,87.70000280640001,0.35999970196000003,0.919822029434304,1757.6286451441224,87.70000280640001,0.7199994039200001,0.919822029434304,1113,0.0,98,GPS_Atti,
0.357812604745809,36.9199637519972,29100,2017-11-10 06:12:44,1758.0286451569223,88.10000281920001,0.35999970196000003,0.928268029704576,1758.0286451569223,88.10000281920001,0.7199994039200001,0.928268029704576,1024,0.0,98,GPS_Atti,
0.357812624821267,36.9199637771101,29200,2017-11-10 06:12:44,1758.3286451665222,88.4000028288,0.35999970196000003,0.931523029808736,1758.3286451665222,88.4000028288,0.7199994039200001,0.931523029808736,1024,0.0,98,GPS_Atti,
0.357812655511737,36.9199638160093,29300,2017-11-10 06:12:44,1758.6286451761223,88.70000283840001,0.35999970196000003,0.9365280299688961,1758.6286451761223,88.70000283840001,0.7199994039200001,0.9365280299688961,937,0.0,98,GPS_Atti,
0.357812632851124,36.9199638143472,29400,2017-11-10 06:12:44,1758.728645179322,88.8000028416,0.35999970196000003,0.9342010298944321,1758.728645179322,88.8000028416,0.7199994039200001,0.9365280299688961,720,0.0,98,GPS_Atti,
0.357812627766308,36.919963808811,29500,2017-11-10 06:12:44,1758.8286451825225,88.9000028448,0.35999970196000003,0.933417029869344,1758.8286451825225,88.9000028448,0.7199994039200001,0.9365280299688961,475,0.0,98,GPS_Atti,
0.35781259587486,36.9199637533114,29600,2017-11-10 06:12:44,1758.9286451857222,89.000002848,0.35999970196000003,0.9274540296785281,1758.9286451857222,89.000002848,0.7199994039200001,0.9365280299688961,475,0.0,98,GPS_Atti,
0.357812585791535,36.919963717934,29700,2017-11-10 06:12:44,1758.9286451857222,89.000002848,0.35999970196000003,0.92468002958976,1758.9286451857222,89.000002848,0.7199994039200001,0.9365280299688961,364,0.0,98,GPS_Atti,
0.357812556915966,36.9199636963788,29800,2017-11-10 06:12:44,1758.8286451825225,88.9000028448,0.35999970196000003,0.920734029463488,1758.9286451857222,89.000002848,0.7199994039200001,0.9365280299688961,364,0.0,98,GPS_Atti,
0.35781255534696,36.9199636717364,29900,2017-11-10 06:12:44,1758.6286451761223,88.70000283840001,0.35999970196000003,0.9193520294192641,1758.9286451857222,89.000002848,0.7199994039200001,0.9365280299688961,364,0.0,98,GPS_Atti,
