latitude,longitude,time_millisecond,datetime_utc,altitude_m,ascent_m,speed_kph,distance_m,max_altitude_m,max_ascent_m,max_speed_kph,max_distance_m,rc_throttle,gimbal_pitch_degrees,battery_percent,flycState,message
0.35393738637498495,36.9197217292131,0,2018-04-04 07:06:14,1671.9049607009424,0.0,0.0,0.0,1671.9049607009424,0.0,0.0,0.0,364,0.0,98,Motors_Started,
0.353937412807481,36.9197217219774,100,2018-04-04 07:06:14,1671.9049607009424,0.0,0.0,0.0030476000975232,1671.9049607009424,0.0,0.0,0.0030476000975232,364,0.0,98,Motors_Started,
0.3539374315067,36.9197217183871,200,2018-04-04 07:06:14,1671.9049607009424,0.0,0.0,0.00516129016516128,1671.9049607009424,0.0,0.0,0.00516129016516128,364,0.0,98,Motors_Started,
0.35393744167633207,36.9197217167549,300,2018-04-04 07:06:14,1671.9049607009424,0.0,0.0,0.006303960201726721,1671.9049607009424,0.0,0.0,0.006303960201726721,364,0.0,98,Motors_Started,
0.35393745020612205,36.919721717360396,400,2018-04-04 07:06:15,1671.9049607009424,0.0,0.0,0.007219750231032001,1671.9049607009424,0.0,0.0,0.007219750231032001,364,0.0,98,Motors_Started,
0.35393744967402796,36.9197217186531,500,2018-04-04 07:06:15,1671.9049607009424,0.0,0.0,0.0071365202283686395,1671.9049607009424,0.0,0.0,0.007219750231032001,364,0.0,98,Motors_Started,
0.353937452598917,36.9197217210422,600,2018-04-04 07:06:15,1671.9049607009424,0.0,0.0,0.0074203502374512,1671.9049607009424,0.0,0.0,0.0074203502374512,364,0.0,98,Motors_Started,
0.353937473968173,36.9197217239521,700,2018-04-04 07:06:15,1671.9049607009424,0.0,0.0,0.009758450312270399,1671.9049607009424,0.0,0.0,0.009758450312270399,364,0.0,98,Motors_Started,
0.353937502436631,36.9197217271656,800,2018-04-04 07:06:15,1671.9049607009424,0.0,0.0,0.0129088004130816,1671.9049607009424,0.0,0.0,0.0129088004130816,364,0.0,98,Motors_Started,Setting new Return-To-Home altitude to 45m (148 ft). Setting new Maximum Flight Altitude to 150m (492 ft)
0.353937523473889,36.9197217300343,900,2018-04-04 07:06:15,1671.9049607009424,0.0,0.0,0.015246500487888002,1671.9049607009424,0.0,0.0,0.015246500487888002,364,0.0,98,Motors_Started,
0.353937539665507,36.919721732187796,1000,2018-04-04 07:06:15,1671.9049607009424,0.0,0.0,0.0170501005456032,1671.9049607009424,0.0,0.0,0.0170501005456032,364,0.0,98,Motors_Started,
0.353937546611228,36.919721733752496,1100,2018-04-04 07:06:15,1671.9049607009424,0.0,0.0,0.0178264005704448,1671.9049607009424,0.0,0.0,0.0178264005704448,364,0.0,98,Motors_Started,
0.353937554571062,36.9197217407431,1200,2018-04-04 07:06:15,1671.9049607009424,0.0,0.0,0.0187483005999456,1671.9049607009424,0.0,0.0,0.0187483005999456,364,0.0,98,Motors_Started,
0.353937552331952,36.9197217431386,1300,2018-04-04 07:06:16,1671.9049607009424,0.0,0.0,0.0185203005926496,1671.9049607009424,0.0,0.0,0.0187483005999456,364,0.0,98,Motors_Started,
0.353937553400618,36.9197217486908,1400,2018-04-04 07:06:16,1671.9049607009424,0.0,0.0,0.0187001005984032,1671.9049607009424,0.0,0.0,0.0187483005999456,419,0.0,98,Motors_Started,
0.35393754518389703,36.919721746708,1500,2018-04-04 07:06:16,1671.9049607009424,0.0,0.0,0.0177674005685568,1671.9049607009424,0.0,0.0,0.0187483005999456,572,0.0,98,Motors_Started,
0.35393754294153007,36.9197217503898,1600,2018-04-04 07:06:16,1671.9049607009424,0.0,0.0,0.0175697005622304,1671.9049607009424,0.0,0.0,0.0187483005999456,1020,0.0,98,Assisted_Takeoff,
0.35393753093094105,36.9197217564506,1800,2018-04-04 07:06:16,1671.9049607009424,0.0,0.0,0.016358400523468798,1671.9049607009424,0.0,0.0,0.0187483005999456,1024,0.0,98,Assisted_Takeoff,
0.353937548834868,36.919721729223795,1900,2018-04-04 07:06:16,1671.9049607009424,0.0,0.0,0.018066500578128,1671.9049607009424,0.0,0.0,0.0187483005999456,1024,0.0,98,Assisted_Takeoff,
0.35393757446657703,36.9197217007113,2000,2018-04-04 07:06:16,1671.9049607009424,0.0,0.0,0.0211557006769824,1671.9049607009424,0.0,0.0,0.0211557006769824,1024,0.0,98,Assisted_Takeoff,
0.353937610841945,36.9197215934632,2200,2018-04-04 07:06:16,1671.9049607009424,0.0,0.0,0.0291718009334976,1671.9049607009424,0.0,0.0,0.0291718009334976,1024,0.0,98,Assisted_Takeoff,
0.353937644571091,36.91972152104329,2300,2018-04-04 07:06:16,1671.9049607009424,0.0,0.0,0.0368826011802432,1671.9049607009424,0.0,0.0,0.0368826011802432,1024,0.0,98,Assisted_Takeoff,
0.353937681534734,36.919721462647296,2400,2018-04-04 07:06:17,1671.9049607009424,0.0,0.0,0.04422790141529279,1671.9049607009424,0.0,0.0,0.04422790141529279,1024,0.0,98,Assisted_Takeoff,
0.3539377113531721,36.919721382892,2500,2018-04-04 07:06:17,1671.9049607009424,0.0,0.0,0.05281350169003201,1671.9049607009424,0.0,0.0,0.05281350169003201,1024,0.0,98,Assisted_Takeoff,
0.3539377326373421,36.919721320178795,2600,2018-04-04 07:06:17,1671.9049607009424,0.0,0.0,0.059596501907088,1671.9049607009424,0.0,0.0,0.059596501907088,1024,0.0,98,Assisted_Takeoff,
0.35393774382068105,36.9197212665727,2700,2018-04-04 07:06:17,1671.9049607009424,0.0,0.0,0.0650147020804704,1671.9049607009424,0.0,0.0,0.0650147020804704,1024,0.0,98,Assisted_Takeoff,
0.3539377539259911,36.919721232490794,2800,2018-04-04 07:06:17,1671.9049607009424,0.0,0.0,0.06871580219890559,1671.9049607009424,0.0,0.0,0.06871580219890559,1024,0.0,98,Assisted_Takeoff,
0.35393775434450103,36.919721188942596,2900,2018-04-04 07:06:17,1671.9049607009424,0.0,0.0,0.07269190232614081,1671.9049607009424,0.0,0.0,0.07269190232614081,1024,0.0,98,Assisted_Takeoff,
0.35393775677821004,36.919721145207504,3000,2018-04-04 07:06:17,1671.9049607009424,0.0,0.0,0.0769051024609632,1671.9049607009424,0.0,0.0,0.0769051024609632,1024,0.0,98,Assisted_Takeoff,
0.353937750656889,36.91972111760129,3100,2018-04-04 07:06:17,1671.9049607009424,0.0,0.0,0.0791641025332512,1671.9049607009424,0.0,0.0,0.0791641025332512,1024,0.0,98,Assisted_Takeoff,
0.353937749279226,36.919721096211,3200,2018-04-04 07:06:17,1671.9049607009424,0.0,0.0,0.081140502596496,1671.9049607009424,0.0,0.0,0.081140502596496,1024,0.0,98,Assisted_Takeoff,
0.35393774115003296,36.9197210932315,3300,2018-04-04 07:06:18,1671.9049607009424,0.0,0.0,0.08098390259148482,1671.9049607009424,0.0,0.0,0.081140502596496,1024,0.0,98,Assisted_Takeoff,
0.353937738229419,36.9197210875695,3400,2018-04-04 07:06:18,1671.9049607009424,0.0,0.0,0.0813777026040864,1671.9049607009424,0.0,0.0,0.0813777026040864,1024,0.0,98,Assisted_Takeoff,
0.353937730350193,36.919721073290795,3500,2018-04-04 07:06:18,1671.9049607009424,0.0,0.0,0.0823629026356128,1671.9049607009424,0.0,0.0,0.0823629026356128,1024,0.0,98,Assisted_Takeoff,
0.353937727402302,36.9197210474184,3600,2018-04-04 07:06:18,1671.9049607009424,0.0,0.0,0.08477420271277442,1671.9049607009424,0.0,0.0,0.08477420271277442,1024,0.0,98,Assisted_Takeoff,
0.353937720166718,36.9197210349398,3700,2018-04-04 07:06:18,1671.9049607009424,0.0,0.0,0.0856658027413056,1671.9049607009424,0.0,0.0,0.0856658027413056,1024,0.0,98,Assisted_Takeoff,
0.35393771788811795,36.919721024604705,3800,2018-04-04 07:06:18,1671.9049607009424,0.0,0.0,0.08659490277103679,1671.9049607009424,0.0,0.0,0.08659490277103679,1043,0.0,98,Assisted_Takeoff,
0.353937712979581,36.919721027871105,3900,2018-04-04 07:06:18,1671.9049607009424,0.0,0.0,0.08603450275310401,1671.9049607009424,0.0,0.0,0.08659490277103679,1078,0.0,98,Assisted_Takeoff,
0.35393771064887003,36.9197210372154,4100,2018-04-04 07:06:18,1671.9049607009424,0.0,0.0,0.08498330271946561,1671.9049607009424,0.0,0.0,0.08659490277103679,1145,0.0,98,Assisted_Takeoff,
0.35393771075227604,36.91972104354271,4200,2018-04-04 07:06:18,1671.9049607009424,0.0,0.0,0.0843516026992512,1671.9049607009424,0.0,0.0,0.08659490277103679,1224,0.0,98,Assisted_Takeoff,
0.353937708218417,36.9197210585586,4300,2018-04-04 07:06:19,1671.9049607009424,0.0,0.0,0.0827229026471328,1671.9049607009424,0.0,0.0,0.08659490277103679,1339,0.0,98,Assisted_Takeoff,
0.3539377070793211,36.9197210802524,4500,2018-04-04 07:06:19,1671.9049607009424,0.0,0.0,0.0804986025759552,1671.9049607009424,0.0,0.0,0.08659490277103679,1360,0.0,98,Assisted_Takeoff,
0.353937709883094,36.919721070103,4600,2018-04-04 07:06:19,1671.9049607009424,0.0,0.0,0.0816488026127616,1671.9049607009424,0.0,0.0,0.08659490277103679,1377,0.0,98,Assisted_Takeoff,
0.35393770204132197,36.919721003460104,4700,2018-04-04 07:06:19,1671.9049607009424,0.0,0.35999970196000003,0.088010502816336,1671.9049607009424,0.0,0.35999970196000003,0.088010502816336,1394,0.0,98,Assisted_Takeoff,
0.35393765334351895,36.9197209210069,4800,2018-04-04 07:06:19,1671.9049607009424,0.0,0.0,0.0946523030288736,1671.9049607009424,0.0,0.35999970196000003,0.0946523030288736,1398,0.0,98,P-GPS,Home Point Recorded. RTH Altitude:  45m.
0.353937547992149,36.9197208560716,4900,2018-04-04 07:06:19,1671.9049607009424,0.0,0.0,0.0987462031598784,1671.9049607009424,0.0,0.35999970196000003,0.0987462031598784,1403,0.0,98,P-GPS,
0.353937419127879,36.9197207965413,5000,2018-04-04 07:06:19,1672.0049607041424,0.10000000320000002,0.35999970196000003,0.10378100332099201,1672.0049607041424,0.10000000320000002,0.35999970196000003,0.10378100332099201,1420,0.0,98,P-GPS,
0.353937267011872,36.91972072976721,5100,2018-04-04 07:06:19,1672.1049607073423,0.20000000640000004,0.35999970196000003,0.11193200358182401,1672.1049607073423,0.20000000640000004,0.35999970196000003,0.11193200358182401,1420,0.0,98,P-GPS,
0.35393711998169897,36.9197206723824,5200,2018-04-04 07:06:19,1672.2049607105425,0.3000000096,0.35999970196000003,0.1212000038784,1672.2049607105425,0.3000000096,0.35999970196000003,0.1212000038784,1418,0.0,98,P-GPS,
0.35393700207685796,36.9197206253472,5300,2018-04-04 07:06:20,1672.4049607169425,0.500000016,0.0,0.129981004159392,1672.4049607169425,0.500000016,0.35999970196000003,0.129981004159392,1420,0.0,98,P-GPS,
0.35393691409284295,36.919720588909996,5400,2018-04-04 07:06:20,1672.6049607233426,0.7000000224000001,0.0,0.137252004392064,1672.6049607233426,0.7000000224000001,0.35999970196000003,0.137252004392064,1421,0.0,98,P-GPS,
0.35393682866609605,36.9197205569645,5500,2018-04-04 07:06:20,1672.8049607297423,0.9000000288000001,0.0,0.14436000461952003,1672.8049607297423,0.9000000288000001,0.35999970196000003,0.14436000461952003,1422,0.0,98,P-GPS,
0.35393674871397396,36.9197205457118,5600,2018-04-04 07:06:20,1673.0049607361425,1.1000000352,0.0,0.149498004783936,1673.0049607361425,1.1000000352,0.35999970196000003,0.149498004783936,1425,0.0,98,P-GPS,
0.35393666650889893,36.9197205448698,5700,2018-04-04 07:06:20,1673.3049607457424,1.4000000448000003,0.0,0.15412500493200001,1673.3049607457424,1.4000000448000003,0.35999970196000003,0.15412500493200001,1437,0.0,98,P-GPS,
0.35393658477994105,36.9197205528394,5800,2018-04-04 07:06:20,1673.5049607521426,1.6000000512000003,0.0,0.158302005065664,1673.5049607521426,1.6000000512000003,0.35999970196000003,0.158302005065664,1438,0.0,98,P-GPS,
0.35393651812243604,36.919720534699,5900,2018-04-04 07:06:20,1673.8049607617424,1.9000000607999998,0.0,0.16421900525500802,1673.8049607617424,1.9000000607999998,0.35999970196000003,0.16421900525500802,1452,0.0,98,P-GPS,
0.3539364716464411,36.919720519326,6000,2018-04-04 07:06:20,1674.0049607681424,2.1000000672,0.0,0.16867100539747198,1674.0049607681424,2.1000000672,0.35999970196000003,0.16867100539747198,1451,0.0,98,P-GPS,
0.35393642081578297,36.9197205171452,6100,2018-04-04 07:06:20,1674.3049607777425,2.4000000768,0.0,0.172328005514496,1674.3049607777425,2.4000000768,0.35999970196000003,0.172328005514496,1452,0.0,98,P-GPS,
0.353936369966805,36.9197205215915,6200,2018-04-04 07:06:20,1674.5049607841427,2.6000000832000003,0.0,0.17552900561692802,1674.5049607841427,2.6000000832000003,0.35999970196000003,0.17552900561692802,1452,0.0,98,P-GPS,
0.35393632214632503,36.919720540821295,6300,2018-04-04 07:06:20,1674.8049607937423,2.9000000928,0.0,0.17740100567683198,1674.8049607937423,2.9000000928,0.35999970196000003,0.17740100567683198,1452,0.0,98,P-GPS,
0.35393627713593,36.9197205599702,6400,2018-04-04 07:06:21,1675.1049608033425,3.2000001024000007,0.0,0.179228005735296,1675.1049608033425,3.2000001024000007,0.35999970196000003,0.179228005735296,1453,0.0,98,P-GPS,
0.353936198256749,36.9197205847249,6500,2018-04-04 07:06:21,1675.3049608097426,3.4000001088000005,0.0,0.18345400587052801,1675.3049608097426,3.4000001088000005,0.35999970196000003,0.18345400587052801,1455,0.0,98,P-GPS,
0.353936131627945,36.919720625199396,6600,2018-04-04 07:06:21,1675.6049608193423,3.7000001184,0.0,0.18585700594742402,1675.6049608193423,3.7000001184,0.35999970196000003,0.18585700594742402,1456,0.0,98,P-GPS,
0.35393606472169503,36.9197206847849,6700,2018-04-04 07:06:21,1675.9049608289426,4.000000128,0.0,0.187327005994464,1675.9049608289426,4.000000128,0.35999970196000003,0.187327005994464,1457,0.0,98,P-GPS,
0.353936013716793,36.9197207398245,6800,2018-04-04 07:06:21,1676.1049608353426,4.2000001344,0.0,0.18816700602134404,1676.1049608353426,4.2000001344,0.35999970196000003,0.18816700602134404,1461,0.0,98,P-GPS,
0.35393596553622403,36.919720785508105,6900,2018-04-04 07:06:21,1676.4049608449425,4.5000001439999995,0.0,0.18968100606979202,1676.4049608449425,4.5000001439999995,0.35999970196000003,0.18968100606979202,1459,0.0,98,P-GPS,
0.35393593814294705,36.919720818276794,7000,2018-04-04 07:06:21,1676.7049608545426,4.8000001536,0.0,0.190262006088384,1676.7049608545426,4.8000001536,0.35999970196000003,0.190262006088384,1460,0.0,98,P-GPS,
0.35393593733930895,36.919720844081795,7100,2018-04-04 07:06:21,1676.9049608609425,5.00000016,0.0,0.188826006042432,1676.9049608609425,5.00000016,0.35999970196000003,0.190262006088384,1462,0.0,98,P-GPS,
0.3539359462977871,36.91972086222229,7200,2018-04-04 07:06:21,1677.2049608705427,5.3000001696,0.0,0.186928005981696,1677.2049608705427,5.3000001696,0.35999970196000003,0.190262006088384,1461,0.0,98,P-GPS,
0.35393593484433,36.9197208619899,7300,2018-04-04 07:06:22,1677.5049608801426,5.600000179200001,0.0,0.188033006017056,1677.5049608801426,5.600000179200001,0.35999970196000003,0.190262006088384,1461,0.0,98,P-GPS,
0.35393592086413794,36.9197208490676,7400,2018-04-04 07:06:22,1677.7049608865427,5.8000001856,0.0,0.19010500608336,1677.7049608865427,5.8000001856,0.35999970196000003,0.190262006088384,1462,0.0,98,P-GPS,
0.353935935719008,36.9197208458296,7500,2018-04-04 07:06:22,1678.0049608961426,6.1000001952,0.0,0.188878006044096,1678.0049608961426,6.1000001952,0.35999970196000003,0.190262006088384,1460,0.0,98,P-GPS,
0.353935964508269,36.9197208426793,7600,2018-04-04 07:06:22,1678.3049609057425,6.400000204800001,0.0,0.18633600596275202,1678.3049609057425,6.400000204800001,0.35999970196000003,0.190262006088384,1466,0.0,98,P-GPS,
0.35393599147021293,36.91972081080021,7700,2018-04-04 07:06:22,1678.5049609121427,6.6000002112,0.0,0.18572400594316804,1678.5049609121427,6.6000002112,0.35999970196000003,0.190262006088384,1478,0.0,98,P-GPS,
0.353936009417498,36.9197207692771,7800,2018-04-04 07:06:22,1678.8049609217426,6.9000002208,0.0,0.186662005973184,1678.8049609217426,6.9000002208,0.35999970196000003,0.190262006088384,1480,0.0,98,P-GPS,
0.35393602283669,36.9197207184787,7900,2018-04-04 07:06:22,1679.1049609313425,7.200000230400001,0.0,0.18874900603996803,1679.1049609313425,7.200000230400001,0.35999970196000003,0.190262006088384,1483,0.0,98,P-GPS,
0.353936031692983,36.9197206814216,8000,2018-04-04 07:06:22,1679.3049609377426,7.4000002368,0.0,0.190451006094432,1679.3049609377426,7.4000002368,0.35999970196000003,0.190451006094432,1484,0.0,98,P-GPS,
0.353936019729416,36.9197206641231,8100,2018-04-04 07:06:22,1679.6049609473428,7.7000002464,0.0,0.192682006165824,1679.6049609473428,7.7000002464,0.35999970196000003,0.192682006165824,1499,0.0,98,P-GPS,
0.353935991357239,36.9197206690206,8200,2018-04-04 07:06:22,1679.9049609569427,8.000000256,0.0,0.1948500062352,1679.9049609569427,8.000000256,0.35999970196000003,0.1948500062352,1517,0.0,98,P-GPS,
0.35393595843152703,36.9197206689184,8300,2018-04-04 07:06:22,1680.2049609665426,8.3000002656,0.0,0.19778400632908802,1680.2049609665426,8.3000002656,0.35999970196000003,0.19778400632908802,1538,0.0,98,P-GPS,
0.3539359360913111,36.919720673067005,8400,2018-04-04 07:06:23,1680.5049609761427,8.6000002752,0.0,0.19951300638441602,1680.5049609761427,8.6000002752,0.35999970196000003,0.19951300638441602,1542,0.0,98,P-GPS,
0.353935886755157,36.919720717206204,8500,2018-04-04 07:06:23,1680.8049609857428,8.9000002848,0.0,0.201187006437984,1680.8049609857428,8.9000002848,0.35999970196000003,0.201187006437984,1543,0.0,98,P-GPS,
0.353935843605666,36.9197207661343,8600,2018-04-04 07:06:23,1681.1049609953425,9.2000002944,0.0,0.202249006471968,1681.1049609953425,9.2000002944,0.35999970196000003,0.202249006471968,1543,0.0,98,P-GPS,
0.353935781406433,36.919720816562794,8700,2018-04-04 07:06:23,1681.4049610049426,9.500000304,0.0,0.20532000657024,1681.4049610049426,9.500000304,0.35999970196000003,0.20532000657024,1543,0.0,98,P-GPS,
0.35393573574130105,36.9197208369959,8800,2018-04-04 07:06:23,1681.8049610177425,9.900000316799998,0.0,0.208659006677088,1681.8049610177425,9.900000316799998,0.35999970196000003,0.208659006677088,1544,0.0,98,P-GPS,
0.35393567333749504,36.9197208415193,8900,2018-04-04 07:06:23,1682.1049610273426,10.2000003264,0.0,0.214558006865856,1682.1049610273426,10.2000003264,0.35999970196000003,0.214558006865856,1543,0.0,98,P-GPS,
0.3539356295765229,36.9197208259328,9000,2018-04-04 07:06:23,1682.4049610369427,10.500000336,0.0,0.219677007029664,1682.4049610369427,10.500000336,0.35999970196000003,0.219677007029664,1543,0.0,98,P-GPS,
0.35393554338471295,36.9197208466175,9100,2018-04-04 07:06:23,1682.8049610497426,10.9000003488,0.0,0.227241007271712,1682.8049610497426,10.9000003488,0.35999970196000003,0.227241007271712,1544,0.0,98,P-GPS,
0.35393547489408894,36.9197208711057,9200,2018-04-04 07:06:23,1683.1049610593427,11.200000358400002,0.0,0.23300500745616,1683.1049610593427,11.200000358400002,0.35999970196000003,0.23300500745616,1542,0.0,98,P-GPS,
0.353935394142604,36.9197209098281,9300,2018-04-04 07:06:24,1683.5049610721428,11.6000003712,0.0,0.23955400766572799,1683.5049610721428,11.6000003712,0.35999970196000003,0.23955400766572799,1541,0.0,98,P-GPS,
0.35393533668926797,36.919720931269204,9400,2018-04-04 07:06:24,1683.8049610817427,11.900000380800002,0.0,0.24460000782720004,1683.8049610817427,11.900000380800002,0.35999970196000003,0.24460000782720004,1541,0.0,98,P-GPS,
0.353935256845743,36.9197209501035,9500,2018-04-04 07:06:24,1684.2049610945428,12.300000393600001,0.0,0.25216800806937606,1684.2049610945428,12.300000393600001,0.35999970196000003,0.25216800806937606,1544,0.0,98,P-GPS,
0.35393518673654706,36.9197209606715,9600,2018-04-04 07:06:24,1684.5049611041425,12.600000403200003,0.0,0.25911400829164805,1684.5049611041425,12.600000403200003,0.35999970196000003,0.25911400829164805,1542,-0.1,98,P-GPS,
0.353935111691435,36.9197209955124,9700,2018-04-04 07:06:24,1684.9049611169426,13.000000416,0.0,0.265791008505312,1684.9049611169426,13.000000416,0.35999970196000003,0.265791008505312,1543,-0.6,98,P-GPS,
0.35393506895251603,36.9197210168952,9800,2018-04-04 07:06:24,1685.2049611265427,13.3000004256,0.0,0.269611008627552,1685.2049611265427,13.3000004256,0.35999970196000003,0.269611008627552,1540,-0.6,98,P-GPS,
0.353935032378071,36.919721048996394,9900,2018-04-04 07:06:24,1685.6049611393425,13.7000004384,0.0,0.27248900871964804,1685.6049611393425,13.7000004384,0.35999970196000003,0.27248900871964804,1537,-1.9,98,P-GPS,
0.35393501341789396,36.9197210622993,10000,2018-04-04 07:06:24,1686.0049611521426,14.100000451200001,0.0,0.27411100877155203,1686.0049611521426,14.100000451200001,0.35999970196000003,0.27411100877155203,1536,-2.8,98,P-GPS,
0.35393499036686205,36.919721080718105,10100,2018-04-04 07:06:24,1686.3049611617425,14.400000460800001,0.0,0.276037008833184,1686.3049611617425,14.400000460800001,0.35999970196000003,0.276037008833184,1533,-3.9,98,P-GPS,
0.35393497015298603,36.919721082395796,10200,2018-04-04 07:06:25,1686.7049611745426,14.8000004736,0.0,0.278159008901088,1686.7049611745426,14.8000004736,0.35999970196000003,0.278159008901088,1526,-5.1,98,P-GPS,
0.353934807583692,36.9197210692299,10500,2018-04-04 07:06:25,1687.8049612097427,15.900000508800002,0.0,0.29602000947264,1687.8049612097427,15.900000508800002,0.35999970196000003,0.29602000947264,1523,-7.3,98,P-GPS,
0.353934762915117,36.919721052214705,10600,2018-04-04 07:06:25,1688.2049612225426,16.3000005216,0.0,0.301302009641664,1688.2049612225426,16.3000005216,0.35999970196000003,0.301302009641664,1521,-8.5,98,P-GPS,
0.35393468751449597,36.919721033723604,10700,2018-04-04 07:06:25,1688.5049612321427,16.6000005312,0.0,0.30993500991792006,1688.5049612321427,16.6000005312,0.35999970196000003,0.30993500991792006,1521,-9.6,98,P-GPS,
0.353934607574791,36.9197210145388,10800,2018-04-04 07:06:25,1688.9049612449428,17.000000544000002,0.0,0.319076010210432,1688.9049612449428,17.000000544000002,0.35999970196000003,0.319076010210432,1520,-10.8,98,P-GPS,
0.35393448078302203,36.9197210250447,10900,2018-04-04 07:06:25,1689.3049612577427,17.400000556800002,0.0,0.33247301063913604,1689.3049612577427,17.400000556800002,0.35999970196000003,0.33247301063913604,1517,-11.9,98,P-GPS,
0.35393435938201295,36.9197210532114,11000,2018-04-04 07:06:25,1689.6049612673428,17.700000566400004,0.0,0.344912011037184,1689.6049612673428,17.700000566400004,0.35999970196000003,0.344912011037184,1518,-13.0,98,P-GPS,
0.353934229343241,36.9197210867045,11100,2018-04-04 07:06:25,1690.0049612801427,18.100000579200003,0.0,0.3582780114648961,1690.0049612801427,18.100000579200003,0.35999970196000003,0.3582780114648961,1515,-14.1,98,P-GPS,
0.353934135779105,36.9197210964181,11200,2018-04-04 07:06:25,1690.4049612929427,18.500000592000003,0.0,0.36827201178470403,1690.4049612929427,18.500000592000003,0.35999970196000003,0.36827201178470403,1514,-15.2,98,P-GPS,
0.353934017419186,36.919721079081704,11300,2018-04-04 07:06:26,1690.7049613025429,18.800000601600004,0.0,0.38156001220992003,1690.7049613025429,18.800000601600004,0.35999970196000003,0.38156001220992003,1513,-16.3,98,P-GPS,
0.353933910003019,36.9197210420294,11400,2018-04-04 07:06:26,1691.1049613153427,19.2000006144,0.0,0.394074012610368,1691.1049613153427,19.2000006144,0.35999970196000003,0.394074012610368,1513,-17.4,98,P-GPS,
0.353933797381512,36.9197210272079,11500,2018-04-04 07:06:26,1691.5049613281428,19.6000006272,0.0,0.406681013013792,1691.5049613281428,19.6000006272,0.35999970196000003,0.406681013013792,1514,-18.5,98,P-GPS,
0.35393362041259996,36.919721006239904,11700,2018-04-04 07:06:26,1692.2049613505426,20.3000006496,0.0,0.42644501364624,1692.2049613505426,20.3000006496,0.35999970196000003,0.42644501364624,1516,-19.6,98,P-GPS,
0.35393354138161703,36.919720970937,11800,2018-04-04 07:06:26,1692.6049613633425,20.7000006624,0.0,0.435822013946304,1692.6049613633425,20.7000006624,0.35999970196000003,0.435822013946304,1512,-20.7,98,P-GPS,
0.35393342581344,36.919720908644,11900,2018-04-04 07:06:26,1693.0049613761428,21.1000006752,0.0,0.44979201439334404,1693.0049613761428,21.1000006752,0.35999970196000003,0.44979201439334404,1507,-21.7,98,P-GPS,
0.353933316678737,36.9197208386656,12000,2018-04-04 07:06:26,1693.3049613857424,21.400000684800002,0.0,0.463283014825056,1693.3049613857424,21.400000684800002,0.35999970196000003,0.463283014825056,1504,-22.0,98,P-GPS,
0.35393319125715,36.9197207740482,12100,2018-04-04 07:06:26,1693.7049613985425,21.8000006976,0.0,0.47846201531078403,1693.7049613985425,21.8000006976,0.35999970196000003,0.47846201531078403,1498,-22.0,98,P-GPS,
0.3539330977823279,36.9197207273155,12200,2018-04-04 07:06:26,1694.1049614113426,22.2000007104,0.0,0.4897590156722881,1694.1049614113426,22.2000007104,0.35999970196000003,0.4897590156722881,1500,-22.0,98,P-GPS,
0.35393300898795793,36.9197207065954,12300,2018-04-04 07:06:27,1694.5049614241425,22.6000007232,0.0,0.499899015996768,1694.5049614241425,22.6000007232,0.35999970196000003,0.499899015996768,1490,-22.0,98,P-GPS,
0.35393296402051294,36.9197207077945,12400,2018-04-04 07:06:27,1694.8049614337426,22.900000732800002,0.0,0.5047390161516481,1694.8049614337426,22.900000732800002,0.35999970196000003,0.5047390161516481,1485,-22.0,98,P-GPS,
0.353932917995393,36.9197207399005,12500,2018-04-04 07:06:27,1695.2049614465425,23.300000745600002,0.0,0.508944016286208,1695.2049614465425,23.300000745600002,0.35999970196000003,0.508944016286208,1489,-22.0,98,P-GPS,
0.353932893661351,36.9197207802722,12600,2018-04-04 07:06:27,1695.5049614561426,23.6000007552,0.0,0.5106400163404801,1695.5049614561426,23.6000007552,0.35999970196000003,0.5106400163404801,1490,-22.0,98,P-GPS,
0.35393286150426395,36.9197208201927,12700,2018-04-04 07:06:27,1695.9049614689427,24.000000768000003,0.0,0.513246016423872,1695.9049614689427,24.000000768000003,0.35999970196000003,0.513246016423872,1493,-22.0,98,P-GPS,
0.35393286034430294,36.9197208500317,12800,2018-04-04 07:06:27,1696.2049614785426,24.3000007776,0.0,0.51273001640736,1696.2049614785426,24.3000007776,0.35999970196000003,0.513246016423872,1503,-22.0,98,P-GPS,
0.35393281708244895,36.9197209641617,13100,2018-04-04 07:06:27,1697.2049615105425,25.3000008096,0.0,0.515206016486592,1697.2049615105425,25.3000008096,0.35999970196000003,0.515206016486592,1502,-22.0,98,P-GPS,
0.35393282892083006,36.919720968635204,13200,2018-04-04 07:06:27,1697.6049615233428,25.7000008224,0.0,0.5138260164424321,1697.6049615233428,25.7000008224,0.35999970196000003,0.515206016486592,1504,-22.0,98,P-GPS,
0.353932817405898,36.9197209729535,13300,2018-04-04 07:06:28,1697.9049615329425,26.000000832,0.0,0.5150100164803201,1697.9049615329425,26.000000832,0.35999970196000003,0.515206016486592,1507,-22.0,98,P-GPS,
0.3539328213343161,36.9197209776177,13400,2018-04-04 07:06:28,1698.3049615457426,26.4000008448,0.0,0.51449501646384,1698.3049615457426,26.4000008448,0.35999970196000003,0.515206016486592,1511,-22.0,98,P-GPS,
0.3539328111677371,36.9197209551294,13500,2018-04-04 07:06:28,1698.7049615585424,26.8000008576,0.0,0.516021016512672,1698.7049615585424,26.8000008576,0.35999970196000003,0.516021016512672,1524,-22.0,98,P-GPS,
0.353932826283768,36.919720918561104,13600,2018-04-04 07:06:28,1699.0049615681426,27.100000867200002,0.0,0.51506001648192,1699.0049615681426,27.100000867200002,0.35999970196000003,0.516021016512672,1539,-22.0,98,P-GPS,
0.35393282760983,36.9197209063609,13700,2018-04-04 07:06:28,1699.4049615809427,27.50000088,0.0,0.515154016484928,1699.4049615809427,27.50000088,0.35999970196000003,0.516021016512672,1542,-22.0,98,P-GPS,
0.3539328524151029,36.9197208953561,13800,2018-04-04 07:06:28,1699.8049615937425,27.9000008928,0.0,0.51266001640512,1699.8049615937425,27.9000008928,0.35999970196000003,0.516021016512672,1544,-22.0,98,P-GPS,
0.35393286776807303,36.919720869219205,13900,2018-04-04 07:06:28,1700.1049616033426,28.200000902400003,0.0,0.511516016368512,1700.1049616033426,28.200000902400003,0.35999970196000003,0.516021016512672,1544,-22.0,98,P-GPS,
0.353932910339467,36.919720824634105,14000,2018-04-04 07:06:28,1700.5049616161425,28.600000915200003,0.0,0.5078250162504,1700.5049616161425,28.600000915200003,0.35999970196000003,0.516021016512672,1547,-22.0,98,P-GPS,
0.353932961393934,36.9197207723331,14100,2018-04-04 07:06:28,1700.9049616289426,29.000000928,0.0,0.5034580161106561,1700.9049616289426,29.000000928,0.35999970196000003,0.516021016512672,1556,-22.0,98,P-GPS,
0.35393303955314004,36.9197207135153,14200,2018-04-04 07:06:28,1701.3049616417425,29.4000009408,0.35999970196000003,0.496414015885248,1701.3049616417425,29.4000009408,0.35999970196000003,0.516021016512672,1557,-22.0,98,P-GPS,
0.353933079200153,36.919720685330404,14300,2018-04-04 07:06:29,1701.6049616513426,29.7000009504,0.35999970196000003,0.4928500157712,1701.6049616513426,29.7000009504,0.35999970196000003,0.516021016512672,1562,-22.0,98,P-GPS,
0.35393312459099396,36.919720661281204,14400,2018-04-04 07:06:29,1702.0049616641427,30.1000009632,0.35999970196000003,0.488589015634848,1702.0049616641427,30.1000009632,0.35999970196000003,0.516021016512672,1567,-22.0,98,P-GPS,
0.3539331216663089,36.919720684647295,14500,2018-04-04 07:06:29,1702.4049616769425,30.500000976,0.35999970196000003,0.48828001562496004,1702.4049616769425,30.500000976,0.35999970196000003,0.516021016512672,1571,-22.0,98,P-GPS,
0.353933126934834,36.9197207036394,14600,2018-04-04 07:06:29,1702.8049616897426,30.900000988800006,0.0,0.48721201559078403,1702.8049616897426,30.900000988800006,0.35999970196000003,0.516021016512672,1574,-22.0,98,P-GPS,
0.35393308121402894,36.9197207733529,14700,2018-04-04 07:06:29,1703.2049617025425,31.300001001600002,0.0,0.49041801569337606,1703.2049617025425,31.300001001600002,0.35999970196000003,0.516021016512672,1574,-22.0,98,P-GPS,
0.353933064782724,36.9197208227932,14800,2018-04-04 07:06:29,1703.6049617153426,31.7000010144,0.0,0.49104401571340806,1703.6049617153426,31.7000010144,0.35999970196000003,0.516021016512672,1575,-22.0,98,P-GPS,
0.35393306420320203,36.919720897329796,14900,2018-04-04 07:06:29,1704.0049617281425,32.1000010272,0.0,0.489473015663136,1704.0049617281425,32.1000010272,0.35999970196000003,0.516021016512672,1576,-22.0,98,P-GPS,
0.35393311300349495,36.91972094261929,15000,2018-04-04 07:06:29,1704.4049617409426,32.50000104,0.35999970196000003,0.48320801546265607,1704.4049617409426,32.50000104,0.35999970196000003,0.516021016512672,1583,-22.0,98,P-GPS,
0.35393313250543496,36.919721022154604,15100,2018-04-04 07:06:29,1704.8049617537426,32.9000010528,0.35999970196000003,0.47954601534547203,1704.8049617537426,32.9000010528,0.35999970196000003,0.516021016512672,1588,-22.0,98,P-GPS,
0.35393315699774197,36.9197210820221,15200,2018-04-04 07:06:29,1705.2049617665425,33.3000010656,0.0,0.47580701522582397,1705.2049617665425,33.3000010656,0.35999970196000003,0.516021016512672,1588,-22.0,98,P-GPS,
0.353933136422759,36.9197211880877,15300,2018-04-04 07:06:29,1705.6049617793426,33.70000107840001,0.0,0.476436015245952,1705.6049617793426,33.70000107840001,0.35999970196000003,0.516021016512672,1595,-22.0,98,P-GPS,
0.353933128703731,36.9197212789361,15400,2018-04-04 07:06:30,1706.0049617921425,34.1000010912,0.0,0.47611901523580796,1706.0049617921425,34.1000010912,0.35999970196000003,0.516021016512672,1595,-22.0,98,P-GPS,
0.35393308651766797,36.9197213973073,15500,2018-04-04 07:06:30,1706.4049618049428,34.500001104,0.0,0.47959301534697607,1706.4049618049428,34.500001104,0.35999970196000003,0.516021016512672,1602,-22.0,98,P-GPS,
0.35393303561098205,36.9197215928503,15700,2018-04-04 07:06:30,1707.3049618337427,35.40000113280001,0.0,0.4840690154902081,1707.3049618337427,35.40000113280001,0.35999970196000003,0.516021016512672,1603,-22.0,98,P-GPS,
0.35393302775262,36.9197216640669,15800,2018-04-04 07:06:30,1707.7049618465426,35.8000011456,0.0,0.48476001551232,1707.7049618465426,35.8000011456,0.35999970196000003,0.516021016512672,1604,-22.0,98,P-GPS,
0.35393300611904704,36.919721755164204,15900,2018-04-04 07:06:30,1708.1049618593427,36.200001158400006,0.0,0.48712001558784007,1708.1049618593427,36.200001158400006,0.35999970196000003,0.516021016512672,1607,-22.0,98,P-GPS,
0.353932965204697,36.9197218950852,16100,2018-04-04 07:06:30,1709.0049618881426,37.1000011872,0.0,0.49200701574422406,1709.0049618881426,37.1000011872,0.35999970196000003,0.516021016512672,1604,-22.0,98,P-GPS,
0.35393293489253497,36.9197219379541,16200,2018-04-04 07:06:30,1709.4049619009425,37.5000012,0.0,0.49557601585843203,1709.4049619009425,37.5000012,0.35999970196000003,0.516021016512672,1599,-22.0,98,P-GPS,
0.353932860759658,36.9197220107424,16300,2018-04-04 07:06:31,1709.9049619169427,38.000001216,0.0,0.5042490161359681,1709.9049619169427,38.000001216,0.35999970196000003,0.516021016512672,1600,-22.0,98,P-GPS,
0.35393280563428403,36.919722074925,16400,2018-04-04 07:06:31,1710.3049619297426,38.4000012288,0.0,0.51085501634736,1710.3049619297426,38.4000012288,0.35999970196000003,0.516021016512672,1603,-22.0,98,P-GPS,
0.35393271372083396,36.9197221748054,16500,2018-04-04 07:06:31,1710.7049619425427,38.8000012416,0.0,0.52198501670352,1710.7049619425427,38.8000012416,0.35999970196000003,0.52198501670352,1603,-22.0,98,P-GPS,
0.3539326485494871,36.919722255943604,16600,2018-04-04 07:06:31,1711.2049619585425,39.3000012576,0.0,0.530121016963872,1711.2049619585425,39.3000012576,0.35999970196000003,0.530121016963872,1597,-22.0,98,P-GPS,
0.353932565911654,36.91972234308629,16700,2018-04-04 07:06:31,1711.6049619713426,39.7000012704,0.0,0.5403940172926079,1711.6049619713426,39.7000012704,0.35999970196000003,0.5403940172926079,1595,-22.0,98,P-GPS,
0.35393252023776894,36.9197223960482,16800,2018-04-04 07:06:31,1712.0049619841425,40.10000128320001,0.0,0.5462010174784321,1712.0049619841425,40.10000128320001,0.35999970196000003,0.5462010174784321,1595,-22.0,98,P-GPS,
0.353932462142317,36.9197224750369,16900,2018-04-04 07:06:31,1712.5049620001425,40.6000012992,0.0,0.5538500177232001,1712.5049620001425,40.6000012992,0.35999970196000003,0.5538500177232001,1577,-22.0,98,P-GPS,
0.353932355115685,36.9197226020259,17100,2018-04-04 07:06:31,1713.3049620257427,41.4000013248,0.0,0.5678630181716161,1713.3049620257427,41.4000013248,0.35999970196000003,0.5678630181716161,1574,-22.0,98,P-GPS,
0.353932301800632,36.91972264666379,17200,2018-04-04 07:06:31,1713.7049620385428,41.80000133760001,0.0,0.5745660183861121,1713.7049620385428,41.80000133760001,0.35999970196000003,0.5745660183861121,1570,-22.0,98,P-GPS,
0.35393222786968204,36.9197227094166,17300,2018-04-04 07:06:32,1714.1049620513427,42.2000013504,0.0,0.5839210186854721,1714.1049620513427,42.2000013504,0.35999970196000003,0.5839210186854721,1574,-22.0,98,P-GPS,
0.35393219229632306,36.91972275686479,17400,2018-04-04 07:06:32,1714.5049620641428,42.60000136320001,0.0,0.58881001884192,1714.5049620641428,42.60000136320001,0.35999970196000003,0.58881001884192,1575,-22.0,98,P-GPS,
0.353932112207615,36.9197228452797,17500,2018-04-04 07:06:32,1714.9049620769426,43.000001376,0.0,0.599507019184224,1714.9049620769426,43.000001376,0.35999970196000003,0.599507019184224,1576,-22.0,98,P-GPS,
0.353932058229989,36.9197229107188,17600,2018-04-04 07:06:32,1715.3049620897427,43.40000138880001,0.0,0.6069150194212801,1715.3049620897427,43.40000138880001,0.35999970196000003,0.6069150194212801,1574,-22.0,98,P-GPS,
0.35393198323240793,36.9197229758564,17700,2018-04-04 07:06:32,1715.7049621025426,43.80000140159999,0.0,0.6166480197327361,1715.7049621025426,43.80000140159999,0.35999970196000003,0.6166480197327361,1575,-22.0,98,P-GPS,
0.353931953296111,36.9197229978155,17800,2018-04-04 07:06:32,1716.1049621153427,44.2000014144,0.0,0.620443019854176,1716.1049621153427,44.2000014144,0.35999970196000003,0.620443019854176,1574,-22.0,98,P-GPS,
0.353931891807287,36.919723024292004,17900,2018-04-04 07:06:32,1716.5049621281426,44.6000014272,0.0,0.627772020088704,1716.5049621281426,44.6000014272,0.35999970196000003,0.627772020088704,1574,-22.0,98,P-GPS,
0.353931861478739,36.919723019616896,18000,2018-04-04 07:06:32,1716.9049621409426,45.00000144,0.0,0.6309370201899841,1716.9049621409426,45.00000144,0.35999970196000003,0.6309370201899841,1574,-22.0,98,P-GPS,
0.35393180009759595,36.919723016048,18100,2018-04-04 07:06:32,1717.3049621537427,45.400001452800005,0.0,0.6374970203999041,1717.3049621537427,45.400001452800005,0.35999970196000003,0.6374970203999041,1571,-22.0,98,P-GPS,
0.35393177224835404,36.9197229908118,18200,2018-04-04 07:06:33,1717.7049621665426,45.800001465600005,0.0,0.639894020476608,1717.7049621665426,45.800001465600005,0.35999970196000003,0.639894020476608,1572,-22.0,98,P-GPS,
0.35393168767104405,36.919722964670896,18400,2018-04-04 07:06:33,1718.5049621921426,46.600001491200004,0.0,0.648452020750464,1718.5049621921426,46.600001491200004,0.35999970196000003,0.648452020750464,1571,-22.0,98,P-GPS,
0.353931634471407,36.9197229886344,18500,2018-04-04 07:06:33,1718.9049622049426,47.000001504000004,0.0,0.6548000209536,1718.9049622049426,47.000001504000004,0.35999970196000003,0.6548000209536,1574,-22.0,98,P-GPS,
0.35393161070162,36.9197230063702,18600,2018-04-04 07:06:33,1719.3049622177425,47.400001516799996,0.0,0.65780502104976,1719.3049622177425,47.400001516799996,0.35999970196000003,0.65780502104976,1578,-22.0,98,P-GPS,
0.35393153109065706,36.9197230513531,18800,2018-04-04 07:06:33,1720.1049622433425,48.200001542399995,0.0,0.6675360213611521,1720.1049622433425,48.200001542399995,0.35999970196000003,0.6675360213611521,1593,-22.0,98,P-GPS,
0.35393147245954903,36.9197230944736,18900,2018-04-04 07:06:33,1720.4049622529426,48.500001552,0.0,0.67496002159872,1720.4049622529426,48.500001552,0.35999970196000003,0.67496002159872,1602,-22.0,98,P-GPS,
0.353931448886804,36.919723118570104,19000,2018-04-04 07:06:33,1720.8049622657427,48.9000015648,0.0,0.6781200216998401,1720.8049622657427,48.9000015648,0.35999970196000003,0.6781200216998401,1607,-22.0,98,P-GPS,
0.353931386114359,36.9197231579499,19100,2018-04-04 07:06:33,1721.2049622785426,49.30000157760001,0.0,0.68592002194944,1721.2049622785426,49.30000157760001,0.35999970196000003,0.68592002194944,1608,-22.0,98,P-GPS,
0.35393136098828293,36.919723164219896,19200,2018-04-04 07:06:33,1721.7049622945426,49.8000015936,0.0,0.6888000220416001,1721.7049622945426,49.8000015936,0.35999970196000003,0.6888000220416001,1616,-22.0,98,P-GPS,
0.353931326605113,36.9197232238565,19400,2018-04-04 07:06:34,1722.5049623201428,50.6000016192,0.0,0.6940780222104961,1722.5049623201428,50.6000016192,0.35999970196000003,0.6940780222104961,1620,-22.0,98,P-GPS,
0.353931291814221,36.9197232529317,19500,2018-04-04 07:06:34,1722.9049623329427,51.000001632,0.0,0.698612022355584,1722.9049623329427,51.000001632,0.35999970196000003,0.698612022355584,1620,-22.0,98,P-GPS,
0.35393128842726096,36.9197232414437,19600,2018-04-04 07:06:34,1723.4049623489427,51.50000164800001,0.0,0.698669022357408,1723.4049623489427,51.50000164800001,0.35999970196000003,0.698669022357408,1623,-22.0,98,P-GPS,
0.35393126269967795,36.919723242044896,19700,2018-04-04 07:06:34,1723.8049623617426,51.90000166080001,0.0,0.701463022446816,1723.8049623617426,51.90000166080001,0.35999970196000003,0.701463022446816,1626,-22.0,98,P-GPS,
0.353931265521771,36.9197232226754,19800,2018-04-04 07:06:34,1724.3049623777426,52.400001676799995,0.0,0.700644022420608,1724.3049623777426,52.400001676799995,0.35999970196000003,0.701463022446816,1622,-22.0,98,P-GPS,
0.35393121775971204,36.9197232253364,19900,2018-04-04 07:06:34,1724.7049623905425,52.8000016896,0.0,0.7058750225880001,1724.7049623905425,52.8000016896,0.35999970196000003,0.7058750225880001,1623,-22.0,98,P-GPS,
0.353931195354155,36.9197232057937,20000,2018-04-04 07:06:34,1725.2049624065428,53.3000017056,0.0,0.707789022649248,1725.2049624065428,53.3000017056,0.35999970196000003,0.707789022649248,1627,-22.0,98,P-GPS,
0.353931089564123,36.9197232483671,20200,2018-04-04 07:06:34,1726.0049624321427,54.100001731199995,0.0,0.720334023050688,1726.0049624321427,54.100001731199995,0.35999970196000003,0.720334023050688,1626,-22.0,98,P-GPS,
0.35393101271357597,36.9197232884313,20300,2018-04-04 07:06:35,1726.5049624481426,54.6000017472,0.0,0.72969002335008,1726.5049624481426,54.6000017472,0.35999970196000003,0.72969002335008,1626,-22.0,98,P-GPS,
0.353930979600185,36.919723291061004,20400,2018-04-04 07:06:35,1726.9049624609427,55.00000176,0.0,0.733337023466784,1726.9049624609427,55.00000176,0.35999970196000003,0.733337023466784,1621,-22.0,98,P-GPS,
0.35393087794640005,36.9197233395637,20500,2018-04-04 07:06:35,1727.4049624769425,55.500001776,0.0,0.745602023859264,1727.4049624769425,55.500001776,0.35999970196000003,0.745602023859264,1625,-22.0,98,P-GPS,
0.353930818167646,36.9197233575048,20600,2018-04-04 07:06:35,1727.8049624897426,55.900001788800004,0.0,0.7525340240810879,1727.8049624897426,55.900001788800004,0.35999970196000003,0.7525340240810879,1621,-22.0,98,P-GPS,
0.3539307202220321,36.9197234166283,20700,2018-04-04 07:06:35,1728.3049625057427,56.400001804800006,0.0,0.764697024470304,1728.3049625057427,56.400001804800006,0.35999970196000003,0.764697024470304,1621,-22.0,98,P-GPS,
0.353930663953185,36.9197234540132,20800,2018-04-04 07:06:35,1728.7049625185427,56.80000181760001,0.0,0.771788024697216,1728.7049625185427,56.80000181760001,0.35999970196000003,0.771788024697216,1622,-22.0,98,P-GPS,
0.353930560052352,36.9197235446363,20900,2018-04-04 07:06:35,1729.2049625345426,57.3000018336,0.0,0.785514025136448,1729.2049625345426,57.3000018336,0.35999970196000003,0.785514025136448,1621,-22.0,98,P-GPS,
0.353930505872391,36.919723599084705,21000,2018-04-04 07:06:35,1729.6049625473427,57.7000018464,0.0,0.79290502537296,1729.6049625473427,57.7000018464,0.35999970196000003,0.79290502537296,1621,-22.0,98,P-GPS,
0.35393040049415203,36.919723686683795,21100,2018-04-04 07:06:35,1730.1049625633425,58.2000018624,0.0,0.8067930258173761,1730.1049625633425,58.2000018624,0.35999970196000003,0.8067930258173761,1622,-22.0,98,P-GPS,
0.35393033372876204,36.9197237221896,21200,2018-04-04 07:06:35,1730.5049625761426,58.60000187520001,0.0,0.81501002608032,1730.5049625761426,58.60000187520001,0.35999970196000003,0.81501002608032,1621,-22.0,98,P-GPS,
0.35393022012281,36.919723779334795,21300,2018-04-04 07:06:36,1731.0049625921426,59.1000018912,0.0,0.8289000265248001,1731.0049625921426,59.1000018912,0.35999970196000003,0.8289000265248001,1622,-22.0,98,P-GPS,
0.353930075152211,36.9197238623097,21500,2018-04-04 07:06:36,1731.9049626209426,60.00000192,0.0,0.8469490271023679,1731.9049626209426,60.00000192,0.35999970196000003,0.8469490271023679,1622,-22.0,98,P-GPS,
0.353930042042281,36.91972389939,21600,2018-04-04 07:06:36,1732.3049626337427,60.40000193280001,0.0,0.8516440272526079,1732.3049626337427,60.40000193280001,0.35999970196000003,0.8516440272526079,1622,-22.0,98,P-GPS,
0.35392997989515795,36.9197239583845,21700,2018-04-04 07:06:36,1732.8049626497425,60.9000019488,0.0,0.8601410275245122,1732.8049626497425,60.9000019488,0.35999970196000003,0.8601410275245122,1622,-22.0,98,P-GPS,
0.35392996425354706,36.91972398394,21800,2018-04-04 07:06:36,1733.2049626625428,61.3000019616,0.35999970196000003,0.862629027604128,1733.2049626625428,61.3000019616,0.35999970196000003,0.862629027604128,1622,-22.0,98,P-GPS,
0.35392991195281104,36.91972404650979,21900,2018-04-04 07:06:36,1733.6049626753427,61.7000019744,0.35999970196000003,0.87023002784736,1733.6049626753427,61.7000019744,0.35999970196000003,0.87023002784736,1622,-22.0,98,P-GPS,
0.35392990038515904,36.9197240842626,22000,2018-04-04 07:06:36,1734.1049626913427,62.200001990400004,0.35999970196000003,0.87271002792672,1734.1049626913427,62.200001990400004,0.35999970196000003,0.87271002792672,1622,-22.0,98,P-GPS,
0.353929848588426,36.91972415304429,22100,2018-04-04 07:06:36,1734.5049627041426,62.600002003200004,0.35999970196000003,0.8805170281765439,1734.5049627041426,62.600002003200004,0.35999970196000003,0.8805170281765439,1622,-22.0,98,P-GPS,
0.353929833494786,36.919724185575106,22200,2018-04-04 07:06:37,1734.9049627169427,63.000002015999996,0.35999970196000003,0.883228028263296,1734.9049627169427,63.000002015999996,0.35999970196000003,0.883228028263296,1623,-22.0,98,P-GPS,
0.353929745885313,36.919724258625706,22400,2018-04-04 07:06:37,1735.8049627457426,63.900002044800004,0.35999970196000003,0.8950180286405761,1735.8049627457426,63.900002044800004,0.35999970196000003,0.8950180286405761,1622,-22.0,98,P-GPS,
0.35392968311938205,36.9197243086626,22500,2018-04-04 07:06:37,1736.3049627617427,64.4000020608,0.35999970196000003,0.903398028908736,1736.3049627617427,64.4000020608,0.35999970196000003,0.903398028908736,1622,-22.0,98,P-GPS,
0.35392966684227006,36.9197243280043,22600,2018-04-04 07:06:37,1736.7049627745428,64.8000020736,0.35999970196000003,0.9057980289855361,1736.7049627745428,64.8000020736,0.35999970196000003,0.9057980289855361,1622,-22.0,98,P-GPS,
0.35392960267669105,36.919724386321505,22700,2018-04-04 07:06:37,1737.2049627905426,65.3000020896,0.35999970196000003,0.914638029268416,1737.2049627905426,65.3000020896,0.35999970196000003,0.914638029268416,1621,-22.0,98,P-GPS,
0.353929581460916,36.91972441336139,22800,2018-04-04 07:06:37,1737.6049628033427,65.7000021024,0.35999970196000003,0.9178450293710401,1737.6049628033427,65.7000021024,0.35999970196000003,0.9178450293710401,1622,-22.0,97,P-GPS,
0.35392950738177703,36.919724446059206,22900,2018-04-04 07:06:37,1738.0049628161426,66.10000211520001,0.35999970196000003,0.9268180296581761,1738.0049628161426,66.10000211520001,0.35999970196000003,0.9268180296581761,1622,-22.0,97,P-GPS,
0.35392948447486205,36.919724438799896,23000,2018-04-04 07:06:37,1738.5049628321426,66.6000021312,0.35999970196000003,0.928964029726848,1738.5049628321426,66.6000021312,0.35999970196000003,0.928964029726848,1622,-22.0,97,P-GPS,
0.353929438420024,36.919724440247705,23100,2018-04-04 07:06:37,1738.9049628449425,67.00000214399999,0.35999970196000003,0.9338630298836159,1738.9049628449425,67.00000214399999,0.35999970196000003,0.9338630298836159,1622,-22.0,97,P-GPS,
0.3539294434677929,36.91972441068889,23200,2018-04-04 07:06:37,1739.4049628609428,67.50000216000001,0.35999970196000003,0.9322750298328001,1739.4049628609428,67.50000216000001,0.35999970196000003,0.9338630298836159,1622,-22.0,97,P-GPS,
0.353929403016023,36.919724400760295,23300,2018-04-04 07:06:38,1739.8049628737426,67.9000021728,0.503999582744,0.9361870299579841,1739.8049628737426,67.9000021728,0.503999582744,0.9361870299579841,1621,-22.0,97,P-GPS,
0.353929392283355,36.9197243727765,23400,2018-04-04 07:06:38,1740.2049628865427,68.30000218560001,0.503999582744,0.936337029962784,1740.2049628865427,68.30000218560001,0.503999582744,0.936337029962784,1622,-22.0,97,P-GPS,
0.35392931748078005,36.919724405882796,23500,2018-04-04 07:06:38,1740.7049629025425,68.8000022016,0.35999970196000003,0.9453910302525121,1740.7049629025425,68.8000022016,0.503999582744,0.9453910302525121,1621,-22.0,97,P-GPS,
0.35392928129186896,36.919724427812795,23600,2018-04-04 07:06:38,1741.1049629153426,69.2000022144,0.35999970196000003,0.9499800303993601,1741.1049629153426,69.2000022144,0.503999582744,0.9499800303993601,1620,-22.0,97,P-GPS,
0.353929188583738,36.919724481902705,23700,2018-04-04 07:06:38,1741.5049629281425,69.60000222720001,0.0,0.96166503077328,1741.5049629281425,69.60000222720001,0.503999582744,0.96166503077328,1621,-22.0,97,P-GPS,
0.353929145869652,36.919724495139704,23800,2018-04-04 07:06:38,1742.0049629441428,70.1000022432,0.35999970196000003,0.9666360309323522,1742.0049629441428,70.1000022432,0.503999582744,0.9666360309323522,1620,-22.0,97,P-GPS,
0.353929073017546,36.9197245553883,23900,2018-04-04 07:06:38,1742.4049629569427,70.50000225600002,0.35999970196000003,0.9764560312465921,1742.4049629569427,70.50000225600002,0.503999582744,0.9764560312465921,1621,-22.0,97,P-GPS,
0.35392905447282597,36.9197245990037,24000,2018-04-04 07:06:38,1742.9049629729427,71.000002272,0.35999970196000003,0.9799770313592641,1742.9049629729427,71.000002272,0.503999582744,0.9799770313592641,1619,-22.0,97,P-GPS,
0.35392901662127396,36.919724688665,24100,2018-04-04 07:06:38,1743.3049629857426,71.4000022848,0.35999970196000003,0.987237031591584,1743.3049629857426,71.4000022848,0.503999582744,0.987237031591584,1618,-22.0,97,P-GPS,
0.35392902694886497,36.9197247439458,24200,2018-04-04 07:06:38,1743.8049630017426,71.9000023008,0.35999970196000003,0.9882230316231361,1743.8049630017426,71.9000023008,0.503999582744,0.9882230316231361,1618,-22.0,97,P-GPS,
0.353929002063391,36.919724815680105,24300,2018-04-04 07:06:39,1744.2049630145425,72.3000023136,0.35999970196000003,0.9935540317937281,1744.2049630145425,72.3000023136,0.503999582744,0.9935540317937281,1616,-22.0,97,P-GPS,
0.353929005118352,36.91972485419971,24400,2018-04-04 07:06:39,1744.6049630273426,72.70000232640001,0.35999970196000003,0.994724031831168,1744.6049630273426,72.70000232640001,0.503999582744,0.994724031831168,1617,-22.0,97,P-GPS,
0.353928957113045,36.91972497894729,24600,2018-04-04 07:06:39,1745.5049630561427,73.6000023552,0.35999970196000003,1.00463003214816,1745.5049630561427,73.6000023552,0.503999582744,1.00463003214816,1614,-22.0,97,P-GPS,
0.35392892422091904,36.9197250150831,24700,2018-04-04 07:06:39,1746.0049630721426,74.1000023712,0.35999970196000003,1.0095000323040002,1746.0049630721426,74.1000023712,0.503999582744,1.0095000323040002,1613,-22.0,97,P-GPS,
0.35392893472478903,36.9197250027054,24800,2018-04-04 07:06:39,1746.4049630849427,74.500002384,0.35999970196000003,1.00791003225312,1746.4049630849427,74.500002384,0.503999582744,1.0095000323040002,1614,-22.0,97,P-GPS,
0.353928905523532,36.919725028440794,24900,2018-04-04 07:06:39,1746.8049630977425,74.9000023968,0.35999970196000003,1.01197003238304,1746.8049630977425,74.9000023968,0.503999582744,1.01197003238304,1614,-22.0,97,P-GPS,
0.353928926054139,36.919725027312104,25000,2018-04-04 07:06:39,1747.2049631105426,75.30000240960001,0.35999970196000003,1.0098000323136,1747.2049631105426,75.30000240960001,0.503999582744,1.01197003238304,1614,-22.0,97,P-GPS,
0.35392890223407497,36.919725042824105,25100,2018-04-04 07:06:39,1747.7049631265425,75.80000242560001,0.503999582744,1.01289003241248,1747.7049631265425,75.80000242560001,0.503999582744,1.01289003241248,1615,-22.0,97,P-GPS,
0.353928920303697,36.9197250210869,25200,2018-04-04 07:06:39,1748.1049631393425,76.2000024384,0.35999970196000003,1.01014003232448,1748.1049631393425,76.2000024384,0.503999582744,1.01289003241248,1615,-22.0,97,P-GPS,
0.35392892420137706,36.9197250281437,25300,2018-04-04 07:06:40,1748.5049631521424,76.6000024512,0.35999970196000003,1.01002003232064,1748.5049631521424,76.6000024512,0.503999582744,1.01289003241248,1614,-22.0,97,P-GPS,
0.35392899542911105,36.919725010236,25400,2018-04-04 07:06:40,1748.9049631649427,77.000002464,0.35999970196000003,1.0019200320614399,1748.9049631649427,77.000002464,0.503999582744,1.01289003241248,1615,-22.0,97,P-GPS,
0.353929029317437,36.919725053483894,25500,2018-04-04 07:06:40,1749.3049631777428,77.40000247680001,0.35999970196000003,1.0001800320057601,1749.3049631777428,77.40000247680001,0.503999582744,1.01289003241248,1616,-22.0,97,P-GPS,
0.35392909230443,36.919725076887204,25600,2018-04-04 07:06:40,1749.8049631937427,77.9000024928,0.35999970196000003,0.9946460318286721,1749.8049631937427,77.9000024928,0.503999582744,1.01289003241248,1616,-22.0,97,P-GPS,
0.353929108964633,36.919725132056705,25700,2018-04-04 07:06:40,1750.2049632065427,78.3000025056,0.35999970196000003,0.9952440318478081,1750.2049632065427,78.3000025056,0.503999582744,1.01289003241248,1618,-22.0,97,P-GPS,
0.353929159888112,36.919725145735995,25800,2018-04-04 07:06:40,1750.6049632193426,78.70000251840001,0.35999970196000003,0.990591031698912,1750.6049632193426,78.70000251840001,0.503999582744,1.01289003241248,1615,-22.0,97,P-GPS,
0.35392914821542604,36.919725202621,25900,2018-04-04 07:06:40,1751.1049632353427,79.20000253439999,0.35999970196000003,0.9942310318153922,1751.1049632353427,79.20000253439999,0.503999582744,1.01289003241248,1615,-22.0,97,P-GPS,
0.35392916850135997,36.9197252100078,26000,2018-04-04 07:06:40,1751.5049632481425,79.60000254720002,0.503999582744,0.992473031759136,1751.5049632481425,79.60000254720002,0.503999582744,1.01289003241248,1613,-22.0,97,P-GPS,
0.353929136010238,36.9197252434341,26100,2018-04-04 07:06:40,1751.9049632609426,80.00000256,0.503999582744,0.997251031912032,1751.9049632609426,80.00000256,0.503999582744,1.01289003241248,1609,-22.0,97,P-GPS,
0.353929153052719,36.919725227946294,26200,2018-04-04 07:06:41,1752.4049632769427,80.500002576,0.503999582744,0.994833031834656,1752.4049632769427,80.500002576,0.503999582744,1.01289003241248,1586,-22.0,97,P-GPS,
0.35392908465522105,36.9197252519635,26400,2018-04-04 07:06:41,1753.2049633025426,81.3000026016,0.503999582744,1.00288003209216,1753.2049633025426,81.3000026016,0.503999582744,1.01289003241248,1454,-22.0,97,P-GPS,
0.35392902126030296,36.9197253208749,26500,2018-04-04 07:06:41,1753.7049633185427,81.80000261760001,0.503999582744,1.01237003239584,1753.7049633185427,81.80000261760001,0.503999582744,1.01289003241248,1024,-22.0,97,P-GPS,
0.35392901403123295,36.919725361528705,26600,2018-04-04 07:06:41,1754.1049633313426,82.20000263040001,0.35999970196000003,1.0149000324768,1754.1049633313426,82.20000263040001,0.503999582744,1.0149000324768,1024,-22.0,97,P-GPS,
0.353928936048714,36.9197254739563,26700,2018-04-04 07:06:41,1754.5049633441427,82.60000264320001,0.35999970196000003,1.0278600328915202,1754.5049633441427,82.60000264320001,0.503999582744,1.0278600328915202,1024,-22.0,97,P-GPS,
0.35392890189413706,36.919725539206794,26800,2018-04-04 07:06:41,1754.8049633537426,82.9000026528,0.35999970196000003,1.0342900330972802,1754.8049633537426,82.9000026528,0.503999582744,1.0342900330972802,1024,-22.0,97,P-GPS,
0.35392882544113397,36.9197256480871,26900,2018-04-04 07:06:41,1755.1049633633427,83.20000266240001,0.35999970196000003,1.04703003350496,1755.1049633633427,83.20000266240001,0.503999582744,1.04703003350496,1024,-22.0,97,P-GPS,
0.3539287972486971,36.919725706326496,27000,2018-04-04 07:06:41,1755.2049633665426,83.3000026656,0.0,1.05259003368288,1755.2049633665426,83.3000026656,0.503999582744,1.05259003368288,880,-22.0,97,P-GPS,
0.35392865520400607,36.9197258632363,27200,2018-04-04 07:06:42,1755.4049633729428,83.500002672,0.0,1.07429003437728,1755.4049633729428,83.500002672,0.503999582744,1.07429003437728,735,-22.0,97,P-GPS,
0.353928504120636,36.919726026400596,27500,2018-04-04 07:06:42,1755.3049633697426,83.4000026688,0.0,1.09728003511296,1755.4049633729428,83.500002672,0.503999582744,1.09728003511296,665,-22.0,97,P-GPS,
0.353928499737679,36.919726017121896,27600,2018-04-04 07:06:42,1755.3049633697426,83.4000026688,0.0,1.09727003511264,1755.4049633729428,83.500002672,0.503999582744,1.09728003511296,696,-22.0,97,P-GPS,
0.353928496860218,36.919726013984295,27700,2018-04-04 07:06:42,1755.2049633665426,83.3000026656,0.0,1.09741003511712,1755.4049633729428,83.500002672,0.503999582744,1.09741003511712,724,-22.0,97,P-GPS,
0.353928563788859,36.919725972195295,27800,2018-04-04 07:06:42,1755.1049633633427,83.20000266240001,0.0,1.0886900348380801,1755.4049633729428,83.500002672,0.503999582744,1.09741003511712,759,-22.0,97,P-GPS,
0.353928626852796,36.9197259226937,27900,2018-04-04 07:06:42,1755.0049633601425,83.10000265920002,0.35999970196000003,1.07998003455936,1755.4049633729428,83.500002672,0.503999582744,1.09741003511712,875,-22.0,97,P-GPS,
0.35392874285174697,36.9197258342729,28000,2018-04-04 07:06:42,1754.9049633569425,83.000002656,0.503999582744,1.0641100340515202,1755.4049633729428,83.500002672,0.503999582744,1.09741003511712,900,-22.0,97,P-GPS,
0.353928851418887,36.9197257899537,28100,2018-04-04 07:06:42,1754.8049633537426,82.9000026528,0.503999582744,1.05109003363488,1755.4049633729428,83.500002672,0.503999582744,1.09741003511712,900,-22.0,97,P-GPS,
0.353929005726576,36.91972573303771,28200,2018-04-04 07:06:43,1754.8049633537426,82.9000026528,0.503999582744,1.0328700330518399,1755.4049633729428,83.500002672,0.503999582744,1.09741003511712,920,-22.0,97,P-GPS,
0.353929133414498,36.91972569566371,28300,2018-04-04 07:06:43,1754.7049633505428,82.8000026496,0.503999582744,1.01827003258464,1755.4049633729428,83.500002672,0.503999582744,1.09741003511712,920,-22.0,97,P-GPS,
0.353929302960759,36.9197256110554,28400,2018-04-04 07:06:43,1754.7049633505428,82.8000026496,0.503999582744,0.9972010319104321,1755.4049633729428,83.500002672,0.503999582744,1.09741003511712,824,-22.0,97,P-GPS,
0.353929411689522,36.919725571567604,28500,2018-04-04 07:06:43,1754.7049633505428,82.8000026496,0.503999582744,0.984402031500864,1755.4049633729428,83.500002672,0.503999582744,1.09741003511712,789,-22.0,97,P-GPS,
0.353929548930304,36.9197255032605,28600,2018-04-04 07:06:43,1754.6049633473426,82.70000264640001,0.503999582744,0.96735503095536,1755.4049633729428,83.500002672,0.503999582744,1.09741003511712,789,-22.0,97,P-GPS,
0.353929609989626,36.9197254948249,28700,2018-04-04 07:06:43,1754.6049633473426,82.70000264640001,0.503999582744,0.960833030746656,1755.4049633729428,83.500002672,0.503999582744,1.09741003511712,735,-22.0,97,P-GPS,
0.353929713572506,36.919725451924705,28800,2018-04-04 07:06:43,1754.6049633473426,82.70000264640001,0.7919993443119999,0.9483860303483521,1755.4049633729428,83.500002672,0.7919993443119999,1.09741003511712,713,-22.0,97,P-GPS,
0.353929755257008,36.9197254780196,28900,2018-04-04 07:06:43,1754.5049633441427,82.60000264320001,0.7919993443119999,0.945494030255808,1755.4049633729428,83.500002672,0.7919993443119999,1.09741003511712,748,-22.0,97,P-GPS,
0.35392985633330604,36.919725462192396,29000,2018-04-04 07:06:43,1754.4049633409427,82.50000264,0.7919993443119999,0.93463502990832,1755.4049633729428,83.500002672,0.7919993443119999,1.09741003511712,847,-22.0,97,P-GPS,
0.35392985535420396,36.9197255104117,29100,2018-04-04 07:06:43,1754.3049633377427,82.40000263680001,0.7919993443119999,0.937126029988032,1755.4049633729428,83.500002672,0.7919993443119999,1.09741003511712,923,-22.0,97,P-GPS,
0.35392989336575104,36.9197255116569,29200,2018-04-04 07:06:43,1754.3049633377427,82.40000263680001,0.503999582744,0.933413029869216,1755.4049633729428,83.500002672,0.7919993443119999,1.09741003511712,945,-22.0,97,P-GPS,
0.35392985330114296,36.919725574899005,29300,2018-04-04 07:06:44,1754.2049633345425,82.3000026336,0.503999582744,0.9405690300982081,1755.4049633729428,83.500002672,0.7919993443119999,1.09741003511712,1005,-22.0,97,P-GPS,
0.35392988174395296,36.919725585796705,29400,2018-04-04 07:06:44,1754.2049633345425,82.3000026336,0.503999582744,0.938306030025792,1755.4049633729428,83.500002672,0.7919993443119999,1.09741003511712,1024,-22.0,97,P-GPS,
0.353929826060939,36.919725660835205,29500,2018-04-04 07:06:44,1754.2049633345425,82.3000026336,0.503999582744,0.947639030324448,1755.4049633729428,83.500002672,0.7919993443119999,1.09741003511712,1024,-22.0,97,P-GPS,
0.35392983263252503,36.9197256873652,29600,2018-04-04 07:06:44,1754.2049633345425,82.3000026336,0.503999582744,0.948357030347424,1755.4049633729428,83.500002672,0.7919993443119999,1.09741003511712,1024,-22.0,97,P-GPS,
0.35392974740913,36.9197257757373,29700,2018-04-04 07:06:44,1754.2049633345425,82.3000026336,0.503999582744,0.961322030762304,1755.4049633729428,83.500002672,0.7919993443119999,1.09741003511712,1024,-22.0,97,P-GPS,
0.353929725311145,36.9197258094944,29800,2018-04-04 07:06:44,1754.2049633345425,82.3000026336,0.503999582744,0.9652530308880961,1755.4049633729428,83.500002672,0.7919993443119999,1.09741003511712,1024,-22.0,97,P-GPS,
0.35392961766977504,36.9197259221596,29900,2018-04-04 07:06:44,1754.2049633345425,82.3000026336,0.503999582744,0.981723031415136,1755.4049633729428,83.500002672,0.7919993443119999,1.09741003511712,1024,-22.0,97,P-GPS,
0.353929578806959,36.9197259828874,30000,2018-04-04 07:06:44,1754.2049633345425,82.3000026336,0.503999582744,0.9887410316397122,1755.4049633729428,83.500002672,0.7919993443119999,1.09741003511712,966,-22.0,97,P-GPS,
0.353929429953743,36.9197261177937,30100,2018-04-04 07:06:44,1754.2049633345425,82.3000026336,0.503999582744,1.0104700323350402,1755.4049633729428,83.500002672,0.7919993443119999,1.09741003511712,856,-22.0,97,P-GPS,
0.35392934256696,36.9197261907806,30200,2018-04-04 07:06:45,1754.1049633313426,82.20000263040001,0.503999582744,1.0229000327328002,1755.4049633729428,83.500002672,0.7919993443119999,1.09741003511712,753,-22.0,97,P-GPS,
0.353929169349372,36.9197263306708,30300,2018-04-04 07:06:45,1754.1049633313426,82.20000263040001,0.503999582744,1.0473000335136,1755.4049633729428,83.500002672,0.7919993443119999,1.09741003511712,726,-22.0,97,P-GPS,
0.35392906258736206,36.9197264204664,30400,2018-04-04 07:06:45,1754.1049633313426,82.20000263040001,0.503999582744,1.06254003400128,1755.4049633729428,83.500002672,0.7919993443119999,1.09741003511712,652,-22.0,97,P-GPS,
0.353928779756359,36.9197266785389,30600,2018-04-04 07:06:45,1754.0049633281426,82.10000262720001,0.503999582744,1.10407003533024,1755.4049633729428,83.500002672,0.7919993443119999,1.10407003533024,630,-22.0,97,P-GPS,
