latitude,longitude,time_millisecond,datetime_utc,altitude_m,ascent_m,speed_kph,distance_m,max_altitude_m,max_ascent_m,max_speed_kph,max_distance_m,rc_throttle,gimbal_pitch_degrees,battery_percent,flycState,message
0.37169689133142797,36.9135383655162,0,2018-04-18 06:18:41,1649.5147011844822,0.0,0.0,0.0,1649.5147011844822,0.0,0.0,0.0,364,0.0,99,Motors_Started,
0.371696861484288,36.91353836597621,100,2018-04-18 06:18:41,1649.5147011844822,0.0,0.0,0.003319580106226561,1649.5147011844822,0.0,0.0,0.003319580106226561,364,0.0,99,Motors_Started,
0.371696838770955,36.9135383667201,200,2018-04-18 06:18:41,1649.5147011844822,0.0,0.0,0.005846580187090561,1649.5147011844822,0.0,0.0,0.005846580187090561,364,0.0,99,Motors_Started,
0.3716968327164,36.9135383695844,300,2018-04-18 06:18:41,1649.5147011844822,0.0,0.0,0.006534030209088961,1649.5147011844822,0.0,0.0,0.006534030209088961,364,0.0,99,Motors_Started,
0.371696825179961,36.9135383723145,400,2018-04-18 06:18:42,1649.5147011844822,0.0,0.0,0.00739519023664608,1649.5147011844822,0.0,0.0,0.00739519023664608,868,0.0,99,Motors_Started,
0.371696836432306,36.9135383179519,600,2018-04-18 06:18:42,1649.5147011844822,0.0,0.0,0.008077710258486722,1649.5147011844822,0.0,0.0,0.008077710258486722,1024,0.0,99,Motors_Started,Setting new Return-To-Home altitude to 30m (98 ft). Setting new Maximum Flight Altitude to 120m (394 ft)
0.37169681989036796,36.913538293644,700,2018-04-18 06:18:42,1649.5147011844822,0.0,0.0,0.0112693003606176,1649.5147011844822,0.0,0.0,0.0112693003606176,1024,0.0,99,Motors_Started,
0.37169679733580796,36.913538279058706,800,2018-04-18 06:18:42,1649.5147011844822,0.0,0.0,0.0142021004544672,1649.5147011844822,0.0,0.0,0.0142021004544672,1024,0.0,99,Motors_Started,
0.37169677340562,36.9135382645401,1000,2018-04-18 06:18:42,1649.5147011844822,0.0,0.0,0.0172646005524672,1649.5147011844822,0.0,0.0,0.0172646005524672,1024,0.0,99,Motors_Started,
0.371696770848352,36.91353826424,1100,2018-04-18 06:18:42,1649.5147011844822,0.0,0.0,0.0175031005600992,1649.5147011844822,0.0,0.0,0.0175031005600992,1024,0.0,99,Motors_Started,
0.37169677420254,36.9135382594903,1200,2018-04-18 06:18:43,1649.5147011844822,0.0,0.0,0.0175692005622144,1649.5147011844822,0.0,0.0,0.0175692005622144,1024,0.0,99,Motors_Started,
0.37169678105686405,36.9135382613888,1300,2018-04-18 06:18:43,1649.5147011844822,0.0,0.0,0.0168662005397184,1649.5147011844822,0.0,0.0,0.0175692005622144,1024,0.0,99,Motors_Started,
0.371696783717131,36.9135382647242,1400,2018-04-18 06:18:43,1649.5147011844822,0.0,0.0,0.0163966005246912,1649.5147011844822,0.0,0.0,0.0175692005622144,1024,0.0,99,Motors_Started,
0.371696790501025,36.913538270083706,1500,2018-04-18 06:18:43,1649.5147011844822,0.0,0.0,0.015438700494038402,1649.5147011844822,0.0,0.0,0.0175692005622144,1024,0.0,99,Assisted_Takeoff,
0.3716967953373,36.9135382731149,1600,2018-04-18 06:18:43,1649.5147011844822,0.0,0.0,0.0148169004741408,1649.5147011844822,0.0,0.0,0.0175692005622144,1024,0.0,99,Assisted_Takeoff,
0.37169678256317495,36.91353827368221,1700,2018-04-18 06:18:43,1649.5147011844822,0.0,0.0,0.0158302005065664,1649.5147011844822,0.0,0.0,0.0175692005622144,1024,0.0,99,Assisted_Takeoff,
0.37169675561466603,36.913538279461896,1800,2018-04-18 06:18:43,1649.5147011844822,0.0,0.0,0.0178707005718624,1649.5147011844822,0.0,0.0,0.0178707005718624,1024,0.0,99,Assisted_Takeoff,
0.37169674005406894,36.9135382490725,1900,2018-04-18 06:18:43,1649.5147011844822,0.0,0.0,0.021229400679340805,1649.5147011844822,0.0,0.0,0.021229400679340805,1024,0.0,99,Assisted_Takeoff,
0.37169672260692,36.9135382262306,2000,2018-04-18 06:18:43,1649.5147011844822,0.0,0.0,0.0243304007785728,1649.5147011844822,0.0,0.0,0.0243304007785728,1024,0.0,99,Assisted_Takeoff,
0.3716967170793711,36.91353820100029,2100,2018-04-18 06:18:43,1649.5147011844822,0.0,0.0,0.0266496008527872,1649.5147011844822,0.0,0.0,0.0266496008527872,1024,0.0,99,Assisted_Takeoff,
0.371696708927787,36.9135381878576,2200,2018-04-18 06:18:43,1649.5147011844822,0.0,0.0,0.028315500906096,1649.5147011844822,0.0,0.0,0.028315500906096,1024,0.0,99,Assisted_Takeoff,
0.371696709513823,36.9135381756404,2300,2018-04-18 06:18:43,1649.5147011844822,0.0,0.0,0.029234500935504,1649.5147011844822,0.0,0.0,0.029234500935504,1024,0.0,99,Assisted_Takeoff,
0.37169670703716395,36.9135381688239,2400,2018-04-18 06:18:44,1649.5147011844822,0.0,0.0,0.029974200959174403,1649.5147011844822,0.0,0.0,0.029974200959174403,1024,0.0,99,Assisted_Takeoff,
0.37169670940695704,36.9135381639855,2500,2018-04-18 06:18:44,1649.5147011844822,0.0,0.0,0.0301919009661408,1649.5147011844822,0.0,0.0,0.0301919009661408,1024,0.0,99,Assisted_Takeoff,
0.37169670974078795,36.9135381609086,2600,2018-04-18 06:18:44,1649.5147011844822,0.0,0.0,0.030422100973507202,1649.5147011844822,0.0,0.0,0.030422100973507202,1024,0.0,99,Assisted_Takeoff,
0.3716966820110329,36.913538161095296,2700,2018-04-18 06:18:44,1649.5147011844822,0.0,0.0,0.032536301041161605,1649.5147011844822,0.0,0.0,0.032536301041161605,1024,0.0,99,Assisted_Takeoff,
0.37169665382388895,36.913538160806,2800,2018-04-18 06:18:44,1649.5147011844822,0.0,0.0,0.0348688011158016,1649.5147011844822,0.0,0.0,0.0348688011158016,1024,0.0,99,Assisted_Takeoff,
0.371696630377348,36.9135381629736,2900,2018-04-18 06:18:44,1649.5147011844822,0.0,0.0,0.0367349011755168,1649.5147011844822,0.0,0.0,0.0367349011755168,1024,0.0,99,Assisted_Takeoff,
0.37169661460810705,36.9135381645825,3000,2018-04-18 06:18:44,1649.5147011844822,0.0,0.0,0.03803000121696,1649.5147011844822,0.0,0.0,0.03803000121696,1024,0.0,99,Assisted_Takeoff,
0.37169657406188705,36.9135381677823,3100,2018-04-18 06:18:44,1649.5147011844822,0.0,0.0,0.0415734013303488,1649.5147011844822,0.0,0.0,0.0415734013303488,1024,0.0,99,Assisted_Takeoff,
0.37169650856933006,36.9135381725591,3300,2018-04-18 06:18:45,1649.5147011844822,0.0,0.0,0.0476681015253792,1649.5147011844822,0.0,0.0,0.0476681015253792,1024,0.0,99,Assisted_Takeoff,
0.37169648699550106,36.9135381746646,3400,2018-04-18 06:18:45,1649.5147011844822,0.0,0.0,0.0497217015910944,1649.5147011844822,0.0,0.0,0.0497217015910944,1024,0.0,99,Assisted_Takeoff,
0.37169647545899304,36.913538176967,3500,2018-04-18 06:18:45,1649.5147011844822,0.0,0.0,0.0507786016249152,1649.5147011844822,0.0,0.0,0.0507786016249152,1024,0.0,99,Assisted_Takeoff,
0.371696465144632,36.913538179047706,3600,2018-04-18 06:18:45,1649.5147011844822,0.0,0.0,0.0517323016554336,1649.5147011844822,0.0,0.0,0.0517323016554336,1038,0.0,99,Assisted_Takeoff,
0.37169646567143394,36.913538181141206,3700,2018-04-18 06:18:45,1649.5147011844822,0.0,0.0,0.05158560165073921,1649.5147011844822,0.0,0.0,0.0517323016554336,1064,0.0,99,Assisted_Takeoff,
0.371696463696335,36.913538183412705,3800,2018-04-18 06:18:45,1649.5147011844822,0.0,0.0,0.0516878016540096,1649.5147011844822,0.0,0.0,0.0517323016554336,1078,0.0,99,Assisted_Takeoff,
0.37169650404876997,36.9135381847719,3900,2018-04-18 06:18:45,1649.5147011844822,0.0,0.0,0.0475274015208768,1649.5147011844822,0.0,0.0,0.0517323016554336,1132,0.0,99,Assisted_Takeoff,
0.371696536026525,36.9135381871976,4000,2018-04-18 06:18:45,1649.5147011844822,0.0,0.0,0.04420880141468161,1649.5147011844822,0.0,0.0,0.0517323016554336,1181,0.0,99,Assisted_Takeoff,
0.37169654043146605,36.91353818857711,4100,2018-04-18 06:18:45,1649.5147011844822,0.0,0.0,0.04370230139847361,1649.5147011844822,0.0,0.0,0.0517323016554336,1228,0.0,99,Assisted_Takeoff,
0.37169653443024203,36.9135381902223,4200,2018-04-18 06:18:45,1649.5147011844822,0.0,0.0,0.0442182014149824,1649.5147011844822,0.0,0.0,0.0517323016554336,1240,0.0,99,Assisted_Takeoff,
0.37169652954511406,36.91353819032221,4300,2018-04-18 06:18:45,1649.5147011844822,0.0,0.0,0.044701701430454405,1649.5147011844822,0.0,0.0,0.0517323016554336,1230,0.0,99,Assisted_Takeoff,
0.3716965234640971,36.9135381934196,4400,2018-04-18 06:18:46,1649.5147011844822,0.0,0.0,0.0451642014452544,1649.5147011844822,0.0,0.0,0.0517323016554336,1225,0.0,99,Assisted_Takeoff,
0.37169651192982794,36.913538204208606,4500,2018-04-18 06:18:46,1649.5147011844822,0.0,0.0,0.0458467014670944,1649.5147011844822,0.0,0.0,0.0517323016554336,1238,0.0,99,Assisted_Takeoff,
0.37169646074152296,36.913538262645204,4600,2018-04-18 06:18:46,1649.5147011844822,0.0,0.0,0.049231701575414406,1649.5147011844822,0.0,0.0,0.0517323016554336,1245,0.0,99,Assisted_Takeoff,Home Point Recorded. RTH Altitude:  30m.
0.37169632461032204,36.913538326308206,4700,2018-04-18 06:18:46,1649.5147011844822,0.0,0.0,0.063173502021552,1649.5147011844822,0.0,0.0,0.063173502021552,1237,0.0,99,P-GPS,
0.3716961325044121,36.9135383520284,4800,2018-04-18 06:18:46,1649.5147011844822,0.0,0.7199994039200001,0.084399502700784,1649.5147011844822,0.0,0.7199994039200001,0.084399502700784,1228,0.0,99,P-GPS,Obstacle Avoided. Revise Flight Route
0.371695911016487,36.913538382515505,4900,2018-04-18 06:18:46,1649.5147011844822,0.0,0.7199994039200001,0.10903300348905601,1649.5147011844822,0.0,0.7199994039200001,0.10903300348905601,1260,0.0,99,P-GPS,
0.37169570985479994,36.9135383914291,5000,2018-04-18 06:18:46,1649.6147011876822,0.10000000320000002,0.35999970196000003,0.131419004205408,1649.6147011876822,0.10000000320000002,0.7199994039200001,0.131419004205408,1286,0.0,99,P-GPS,
0.3716955735548521,36.9135383608096,5100,2018-04-18 06:18:46,1649.6147011876822,0.10000000320000002,0.35999970196000003,0.146546004689472,1649.6147011876822,0.10000000320000002,0.7199994039200001,0.146546004689472,1319,0.0,99,P-GPS,
0.37169547435696504,36.9135383052152,5200,2018-04-18 06:18:46,1649.7147011908821,0.20000000640000004,0.35999970196000003,0.15771900504700803,1649.7147011908821,0.20000000640000004,0.7199994039200001,0.15771900504700803,1368,0.0,99,P-GPS,
0.37169538493177706,36.9135382092444,5300,2018-04-18 06:18:47,1649.814701194082,0.3000000096,0.0,0.16842000538944002,1649.814701194082,0.3000000096,0.7199994039200001,0.16842000538944002,1355,0.0,99,P-GPS,
0.37169531398535705,36.9135380988535,5400,2018-04-18 06:18:47,1649.9147011972823,0.4000000128000001,0.0,0.17789900569276804,1649.9147011972823,0.4000000128000001,0.7199994039200001,0.17789900569276804,1326,0.0,99,P-GPS,
0.371695302990511,36.91353802373,5500,2018-04-18 06:18:47,1650.0147012004822,0.500000016,0.0,0.18067600578163198,1650.0147012004822,0.500000016,0.7199994039200001,0.18067600578163198,1303,0.0,99,P-GPS,
0.37169530964351793,36.9135379589704,5600,2018-04-18 06:18:47,1650.214701206882,0.7000000224000001,0.0,0.18161000581152,1650.214701206882,0.7000000224000001,0.7199994039200001,0.18161000581152,1314,0.0,99,P-GPS,
0.3716954246194,36.913537854299705,5700,2018-04-18 06:18:47,1650.3147012100824,0.8000000256000002,0.0,0.172731005527392,1650.3147012100824,0.8000000256000002,0.7199994039200001,0.18161000581152,1381,0.0,99,P-GPS,
0.371695529700855,36.913537742561005,5800,2018-04-18 06:18:47,1650.514701216482,1.000000032,0.0,0.166516005328512,1650.514701216482,1.000000032,0.7199994039200001,0.18161000581152,1506,0.0,99,P-GPS,
0.37169564364186,36.9135376317867,5900,2018-04-18 06:18:47,1650.7147012228822,1.2000000384,0.0,0.16096400515084802,1650.7147012228822,1.2000000384,0.7199994039200001,0.18161000581152,1522,0.0,99,P-GPS,
0.37169572210477003,36.9135375303375,6000,2018-04-18 06:18:47,1650.8147012260822,1.3000000416000002,0.0,0.159788005113216,1650.8147012260822,1.3000000416000002,0.7199994039200001,0.18161000581152,1523,0.0,99,P-GPS,
0.37169580989133594,36.9135374176743,6100,2018-04-18 06:18:47,1651.0147012324824,1.5000000480000002,0.0,0.159916005117312,1651.0147012324824,1.5000000480000002,0.7199994039200001,0.18161000581152,1501,0.0,99,P-GPS,
0.371695875695944,36.913537306367296,6200,2018-04-18 06:18:47,1651.314701242082,1.8000000576000001,0.0,0.163184005221888,1651.314701242082,1.8000000576000001,0.7199994039200001,0.18161000581152,1494,0.0,99,P-GPS,
0.371696043536003,36.913537175329296,6300,2018-04-18 06:18:48,1651.5147012484822,2.000000064,0.0,0.16250000520000002,1651.5147012484822,2.000000064,0.7199994039200001,0.18161000581152,1536,0.0,99,P-GPS,
0.37169633658976703,36.9135370289326,6500,2018-04-18 06:18:48,1652.114701267682,2.6000000832000003,0.0,0.16092700514966402,1652.114701267682,2.6000000832000003,0.7199994039200001,0.18161000581152,1587,0.0,99,P-GPS,
0.37169642894167604,36.913536993575,6600,2018-04-18 06:18:48,1652.4147012772821,2.9000000928,0.0,0.16099700515190402,1652.4147012772821,2.9000000928,0.7199994039200001,0.18161000581152,1587,0.0,99,P-GPS,
0.3716965397815129,36.9135369252295,6700,2018-04-18 06:18:48,1652.8147012900822,3.3000001056,0.0,0.164868005275776,1652.8147012900822,3.3000001056,0.7199994039200001,0.18161000581152,1628,0.0,99,P-GPS,
0.37169675671183006,36.9135367649085,6900,2018-04-18 06:18:48,1653.5147013124822,4.000000128,0.0,0.17862200571590403,1653.5147013124822,4.000000128,0.7199994039200001,0.18161000581152,1641,0.0,99,P-GPS,
0.371696846666873,36.9135366779879,7000,2018-04-18 06:18:48,1653.914701325282,4.4000001408,0.0,0.18772500600720002,1653.914701325282,4.4000001408,0.7199994039200001,0.18772500600720002,1652,0.0,99,P-GPS,
0.371696836240353,36.9135366162555,7100,2018-04-18 06:18:49,1654.3147013380822,4.8000001536,0.0,0.19462100622787198,1654.3147013380822,4.8000001536,0.7199994039200001,0.19462100622787198,1684,0.0,99,P-GPS,
0.371696800026405,36.913536580982,7300,2018-04-18 06:18:49,1655.2147013668823,5.7000001824,0.0,0.198706006358592,1655.2147013668823,5.7000001824,0.7199994039200001,0.198706006358592,1684,0.0,99,P-GPS,
0.37169678484788204,36.9135365775599,7400,2018-04-18 06:18:49,1655.7147013828821,6.2000001984,0.0,0.19918000637376002,1655.7147013828821,6.2000001984,0.7199994039200001,0.19918000637376002,1684,0.0,99,P-GPS,
0.371696712573059,36.913536594994895,7500,2018-04-18 06:18:49,1656.2147013988822,6.7000002144,0.0,0.19789000633248,1656.2147013988822,6.7000002144,0.7199994039200001,0.19918000637376002,1684,0.0,99,P-GPS,
0.371696691783122,36.9135365997229,7600,2018-04-18 06:18:49,1656.714701414882,7.200000230400001,0.0,0.197613006323616,1656.714701414882,7.200000230400001,0.7199994039200001,0.19918000637376002,1684,0.0,99,P-GPS,
0.37169672587765,36.9135366074434,7700,2018-04-18 06:18:49,1657.2147014308823,7.7000002464,0.0,0.19636800628377601,1657.2147014308823,7.7000002464,0.7199994039200001,0.19918000637376002,1684,0.0,99,P-GPS,
0.37169681414318206,36.913536596503704,7800,2018-04-18 06:18:49,1657.6147014436822,8.1000002592,0.0,0.196908006301056,1657.6147014436822,8.1000002592,0.7199994039200001,0.19918000637376002,1684,0.0,99,P-GPS,
0.37169694200840103,36.913536593189605,7900,2018-04-18 06:18:49,1658.1147014596822,8.6000002752,0.0,0.19717000630944,1658.1147014596822,8.6000002752,0.7199994039200001,0.19918000637376002,1684,-0.6,99,P-GPS,
0.37169707791874396,36.913536572378995,8000,2018-04-18 06:18:49,1658.614701475682,9.1000002912,0.0,0.20048000641536,1658.614701475682,9.1000002912,0.7199994039200001,0.20048000641536,1684,-1.3,99,P-GPS,
0.371697240296391,36.9135365144979,8100,2018-04-18 06:18:49,1659.1147014916824,9.6000003072,0.0,0.209466006702912,1659.1147014916824,9.6000003072,0.7199994039200001,0.209466006702912,1684,-2.9,99,P-GPS,
0.371697553393858,36.913536366883896,8300,2018-04-18 06:18:49,1660.114701523682,10.6000003392,0.35999970196000003,0.234133007492256,1660.114701523682,10.6000003392,0.7199994039200001,0.234133007492256,1684,-4.2,99,P-GPS,
0.3716976910676029,36.9135363098671,8400,2018-04-18 06:18:50,1660.6147015396823,11.1000003552,0.35999970196000003,0.245287007849184,1660.6147015396823,11.1000003552,0.7199994039200001,0.245287007849184,1684,-4.2,99,P-GPS,
0.37169779172823997,36.9135362725405,8500,2018-04-18 06:18:50,1661.1147015556821,11.6000003712,0.35999970196000003,0.25337100810787194,1661.1147015556821,11.6000003712,0.7199994039200001,0.25337100810787194,1684,-7.7,99,P-GPS,
0.37169785957003104,36.913536251356796,8600,2018-04-18 06:18:50,1661.6147015716822,12.1000003872,0.35999970196000003,0.258586008274752,1661.6147015716822,12.1000003872,0.7199994039200001,0.258586008274752,1684,-7.7,99,P-GPS,
0.37169788287286104,36.91353624465221,8700,2018-04-18 06:18:50,1662.2147015908822,12.700000406400001,0.35999970196000003,0.26035100833123204,1662.2147015908822,12.700000406400001,0.7199994039200001,0.26035100833123204,1684,-11.0,99,P-GPS,
0.37169786929143506,36.913536253976005,8800,2018-04-18 06:18:50,1662.7147016068823,13.2000004224,0.35999970196000003,0.258774008280768,1662.7147016068823,13.2000004224,0.7199994039200001,0.26035100833123204,1674,-11.6,99,P-GPS,
0.37169781054938794,36.9135362563311,8900,2018-04-18 06:18:50,1663.214701622882,13.7000004384,0.35999970196000003,0.255857008187424,1663.214701622882,13.7000004384,0.7199994039200001,0.26035100833123204,1672,-11.6,99,P-GPS,
0.371697722096382,36.9135362703891,9000,2018-04-18 06:18:50,1663.7147016388822,14.200000454400003,0.0,0.25063500802032,1663.7147016388822,14.200000454400003,0.7199994039200001,0.26035100833123204,1671,-11.6,99,P-GPS,
0.371697613218209,36.913536290634205,9100,2018-04-18 06:18:50,1664.2147016548822,14.7000004704,0.0,0.24430100781763198,1664.2147016548822,14.7000004704,0.7199994039200001,0.26035100833123204,1667,-11.6,99,P-GPS,
0.371697477313769,36.91353633366629,9200,2018-04-18 06:18:51,1664.714701670882,15.200000486399999,0.0,0.23515900752508803,1664.714701670882,15.200000486399999,0.7199994039200001,0.26035100833123204,1663,-11.6,99,P-GPS,
0.37169730517075,36.9135364142065,9300,2018-04-18 06:18:51,1665.2147016868823,15.700000502400002,0.0,0.22182000709823999,1665.2147016868823,15.700000502400002,0.7199994039200001,0.26035100833123204,1664,-11.6,99,P-GPS,
0.37169711627389296,36.913536513438295,9400,2018-04-18 06:18:51,1665.7147017028822,16.2000005184,0.0,0.20747200663910403,1665.7147017028822,16.2000005184,0.7199994039200001,0.26035100833123204,1668,-11.6,99,P-GPS,
0.37169690638578207,36.9135366173416,9500,2018-04-18 06:18:51,1666.2147017188822,16.7000005344,0.0,0.19441100622115198,1666.2147017188822,16.7000005344,0.7199994039200001,0.26035100833123204,1621,-11.6,99,P-GPS,
0.37169647112448206,36.913536863223705,9700,2018-04-18 06:18:51,1667.2147017508823,17.700000566400004,0.0,0.173473005551136,1667.2147017508823,17.700000566400004,0.7199994039200001,0.26035100833123204,1552,-11.6,99,P-GPS,
0.371696255952681,36.913536991671,9800,2018-04-18 06:18:51,1667.7147017668822,18.2000005824,0.0,0.1683250053864,1667.7147017668822,18.2000005824,0.7199994039200001,0.26035100833123204,1555,-11.6,99,P-GPS,
0.37169602078256897,36.9135370993206,9900,2018-04-18 06:18:51,1668.214701782882,18.7000005984,0.0,0.170876005468032,1668.214701782882,18.7000005984,0.7199994039200001,0.26035100833123204,1599,-11.6,99,P-GPS,
0.37169579486812604,36.913537216078794,10000,2018-04-18 06:18:51,1668.6147017956823,19.1000006112,0.0,0.176653005652896,1668.6147017956823,19.1000006112,0.7199994039200001,0.26035100833123204,1669,-11.6,99,P-GPS,
0.371695564449408,36.9135373506491,10100,2018-04-18 06:18:51,1669.0147018084824,19.500000624000002,0.0,0.185768005944576,1669.0147018084824,19.500000624000002,0.7199994039200001,0.26035100833123204,1671,-11.6,99,P-GPS,
0.37169533332353705,36.913537469582,10200,2018-04-18 06:18:51,1669.5147018244822,20.00000064,0.35999970196000003,0.199863006395616,1669.5147018244822,20.00000064,0.7199994039200001,0.26035100833123204,1684,-11.6,99,P-GPS,
0.37169511017704204,36.9135375476667,10300,2018-04-18 06:18:51,1669.914701837282,20.4000006528,0.35999970196000003,0.217957006974624,1669.914701837282,20.4000006528,0.7199994039200001,0.26035100833123204,1684,-11.6,99,P-GPS,
0.37169490528540405,36.913537607432794,10400,2018-04-18 06:18:52,1670.4147018532822,20.900000668800004,0.35999970196000003,0.23640200756486401,1670.4147018532822,20.900000668800004,0.7199994039200001,0.26035100833123204,1684,-11.6,99,P-GPS,
0.371694704707514,36.9135376726679,10500,2018-04-18 06:18:52,1670.9147018692822,21.400000684800002,0.35999970196000003,0.25508000816256,1670.9147018692822,21.400000684800002,0.7199994039200001,0.26035100833123204,1684,-11.6,99,P-GPS,
0.3716945233509629,36.9135377415825,10600,2018-04-18 06:18:52,1671.4147018852823,21.900000700799996,0.35999970196000003,0.27232100871427206,1671.4147018852823,21.900000700799996,0.7199994039200001,0.27232100871427206,1684,-11.6,99,P-GPS,
0.37169436907136405,36.913537814421396,10700,2018-04-18 06:18:52,1671.9147019012821,22.400000716800005,0.35999970196000003,0.28710800918745605,1671.9147019012821,22.400000716800005,0.7199994039200001,0.28710800918745605,1684,-11.6,99,P-GPS,
0.37169425402260997,36.913537906831,10800,2018-04-18 06:18:52,1672.4147019172822,22.900000732800002,0.0,0.297687009525984,1672.4147019172822,22.900000732800002,0.7199994039200001,0.297687009525984,1684,-11.6,99,P-GPS,
0.371694147289505,36.9135380206471,10900,2018-04-18 06:18:52,1672.9147019332822,23.400000748800004,0.0,0.30755500984176004,1672.9147019332822,23.400000748800004,0.7199994039200001,0.30755500984176004,1684,-11.6,99,P-GPS,
0.371694065305492,36.913538134738296,11000,2018-04-18 06:18:52,1673.414701949282,23.9000007648,0.0,0.315317010090144,1673.414701949282,23.9000007648,0.7199994039200001,0.315317010090144,1684,-11.6,99,P-GPS,
0.371693989165558,36.9135382337791,11100,2018-04-18 06:18:53,1673.9147019652821,24.4000007808,0.0,0.323071010338272,1673.9147019652821,24.4000007808,0.7199994039200001,0.323071010338272,1643,-11.6,99,P-GPS,
0.37169393579167703,36.9135384728016,11400,2018-04-18 06:18:53,1675.5147020164823,26.000000832,0.0,0.328891010524512,1675.5147020164823,26.000000832,0.7199994039200001,0.328891010524512,1593,-11.6,99,P-GPS,
0.37169394101939,36.91353853210779,11500,2018-04-18 06:18:53,1676.0147020324825,26.500000848000003,0.0,0.32861501051568004,1676.0147020324825,26.500000848000003,0.7199994039200001,0.328891010524512,1547,-11.6,99,P-GPS,
0.3716939407230129,36.913538579545296,11600,2018-04-18 06:18:53,1676.5147020484824,27.000000864000004,0.0,0.32898801052761606,1676.5147020484824,27.000000864000004,0.7199994039200001,0.32898801052761606,1524,-11.6,99,P-GPS,
0.37169390916010403,36.9135386204063,11700,2018-04-18 06:18:53,1676.9147020612825,27.4000008768,0.0,0.33284501065104,1676.9147020612825,27.4000008768,0.7199994039200001,0.33284501065104,1556,-11.6,99,P-GPS,
0.371693886797904,36.913538667645,11800,2018-04-18 06:18:53,1677.4147020772823,27.9000008928,0.0,0.33580701074582403,1677.4147020772823,27.9000008928,0.7199994039200001,0.33580701074582403,1587,-11.6,99,P-GPS,
0.371693847956258,36.9135387221358,11900,2018-04-18 06:18:53,1677.7147020868824,28.200000902400003,0.0,0.340757010904224,1677.7147020868824,28.200000902400003,0.7199994039200001,0.340757010904224,1612,-11.6,99,P-GPS,
0.37169381674834995,36.913538781495205,12000,2018-04-18 06:18:53,1678.1147020996823,28.600000915200003,0.0,0.345027011040864,1678.1147020996823,28.600000915200003,0.7199994039200001,0.345027011040864,1642,-11.6,99,P-GPS,
0.37169372833483294,36.9135388528961,12100,2018-04-18 06:18:53,1678.5147021124824,29.000000928,0.0,0.35589601138867205,1678.5147021124824,29.000000928,0.7199994039200001,0.35589601138867205,1676,-11.6,99,P-GPS,
0.37169350587432,36.9135389678381,12300,2018-04-18 06:18:53,1679.3147021380823,29.8000009536,0.0,0.38239501223664,1679.3147021380823,29.8000009536,0.7199994039200001,0.38239501223664,1683,-11.6,99,P-GPS,
0.371693417522277,36.913538992423796,12400,2018-04-18 06:18:54,1679.7147021508824,30.200000966400005,0.0,0.392549012561568,1679.7147021508824,30.200000966400005,0.7199994039200001,0.392549012561568,1684,-11.6,99,P-GPS,
0.37169335324799896,36.9135390015292,12500,2018-04-18 06:18:54,1680.2147021668823,30.700000982400002,0.0,0.39976301279241605,1680.2147021668823,30.700000982400002,0.7199994039200001,0.39976301279241605,1684,-11.6,99,P-GPS,
0.371693349891776,36.913538988110794,12600,2018-04-18 06:18:54,1680.7147021828825,31.2000009984,0.0,0.39986901279580805,1680.7147021828825,31.2000009984,0.7199994039200001,0.39986901279580805,1684,-11.6,99,P-GPS,
0.37169337506792705,36.91353898674821,12700,2018-04-18 06:18:54,1681.2147021988824,31.7000010144,0.0,0.397086012706752,1681.2147021988824,31.7000010144,0.7199994039200001,0.39986901279580805,1684,-11.6,99,P-GPS,
0.37169344055987397,36.9135389909686,12800,2018-04-18 06:18:54,1681.7147022148822,32.2000010304,0.0,0.38999901247996804,1681.7147022148822,32.2000010304,0.7199994039200001,0.39986901279580805,1684,-11.6,99,P-GPS,
0.371693556800649,36.913538987851204,12900,2018-04-18 06:18:54,1682.2147022308825,32.700001046400004,0.0,0.37722301207113607,1682.2147022308825,32.700001046400004,0.7199994039200001,0.39986901279580805,1684,-11.6,99,P-GPS,
0.371693689255841,36.913538977237295,13000,2018-04-18 06:18:54,1682.7147022468823,33.2000010624,0.0,0.36253001160096004,1682.7147022468823,33.2000010624,0.7199994039200001,0.39986901279580805,1684,-11.6,99,P-GPS,
0.371693822735324,36.913538964801795,13100,2018-04-18 06:18:55,1683.2147022628824,33.70000107840001,0.0,0.34769301112617607,1683.2147022628824,33.70000107840001,0.7199994039200001,0.39986901279580805,1684,-11.6,99,P-GPS,
0.37169402838540994,36.9135389411695,13300,2018-04-18 06:18:55,1684.3147022980822,34.800001113600004,0.35999970196000003,0.324749010391968,1684.3147022980822,34.800001113600004,0.7199994039200001,0.39986901279580805,1684,-11.6,99,P-GPS,
0.37169410396271707,36.913538936796606,13400,2018-04-18 06:18:55,1684.8147023140825,35.300001129600005,0.35999970196000003,0.31641501012528006,1684.8147023140825,35.300001129600005,0.7199994039200001,0.39986901279580805,1684,-11.6,99,P-GPS,
0.371694145207947,36.9135389447245,13500,2018-04-18 06:18:55,1685.3147023300824,35.8000011456,0.35999970196000003,0.312104009987328,1685.3147023300824,35.8000011456,0.7199994039200001,0.39986901279580805,1684,-11.6,99,P-GPS,
0.37169420769948497,36.9135389856235,13700,2018-04-18 06:18:55,1686.3147023620822,36.8000011776,0.35999970196000003,0.30630000980160005,1686.3147023620822,36.8000011776,0.7199994039200001,0.39986901279580805,1684,-11.6,99,P-GPS,
0.37169423466773904,36.9135390150203,13800,2018-04-18 06:18:55,1686.9147023812823,37.4000011968,0.0,0.30413800973241606,1686.9147023812823,37.4000011968,0.7199994039200001,0.39986901279580805,1684,-11.6,99,P-GPS,
0.371694247010123,36.913539069518,13900,2018-04-18 06:18:55,1687.4147023972823,37.90000121280001,0.0,0.304307009737824,1687.4147023972823,37.90000121280001,0.7199994039200001,0.39986901279580805,1684,-11.6,99,P-GPS,
0.37169424285067,36.913539123096704,14000,2018-04-18 06:18:55,1687.9147024132824,38.4000012288,0.0,0.30633900980284806,1687.9147024132824,38.4000012288,0.7199994039200001,0.39986901279580805,1684,-11.6,99,P-GPS,
0.37169421590765706,36.9135391634328,14100,2018-04-18 06:18:55,1688.4147024292824,38.9000012448,0.0,0.31047300993513605,1688.4147024292824,38.9000012448,0.7199994039200001,0.39986901279580805,1684,-11.6,99,P-GPS,
0.371694172210805,36.9135391954229,14200,2018-04-18 06:18:55,1688.9147024452823,39.4000012608,0.0,0.31615301011689606,1688.9147024452823,39.4000012608,0.7199994039200001,0.39986901279580805,1684,-11.6,99,P-GPS,
0.3716941271542029,36.9135392382835,14300,2018-04-18 06:18:56,1689.5147024644825,40.00000128,0.0,0.322351010315232,1689.5147024644825,40.00000128,0.7199994039200001,0.39986901279580805,1684,-11.6,99,P-GPS,
0.37169400508563305,36.9135393628067,14500,2018-04-18 06:18:56,1690.5147024964822,41.000001311999995,0.0,0.33958801086681606,1690.5147024964822,41.000001311999995,0.7199994039200001,0.39986901279580805,1684,-11.6,99,P-GPS,
0.37169393341252094,36.913539442704895,14600,2018-04-18 06:18:56,1691.0147025124825,41.500001328,0.0,0.350071011202272,1691.0147025124825,41.500001328,0.7199994039200001,0.39986901279580805,1684,-11.6,99,P-GPS,
0.37169389879058,36.9135395292886,14700,2018-04-18 06:18:56,1691.5147025284823,42.000001344,0.0,0.35706701142614394,1691.5147025284823,42.000001344,0.7199994039200001,0.39986901279580805,1684,-11.6,99,P-GPS,
0.37169387452228597,36.9135396127375,14800,2018-04-18 06:18:56,1692.0147025444824,42.50000136,0.0,0.36302701161686396,1692.0147025444824,42.50000136,0.7199994039200001,0.39986901279580805,1684,-11.6,99,P-GPS,
0.37169383360193103,36.9135397104722,14900,2018-04-18 06:18:56,1692.6147025636824,43.1000013792,0.0,0.371477011887264,1692.6147025636824,43.1000013792,0.7199994039200001,0.39986901279580805,1684,-11.6,99,P-GPS,
0.37169377949932203,36.9135398064695,15000,2018-04-18 06:18:56,1693.1147025796822,43.6000013952,0.0,0.38135401220332804,1693.1147025796822,43.6000013952,0.7199994039200001,0.39986901279580805,1684,-11.6,99,P-GPS,
0.37169373015421203,36.9135398863669,15100,2018-04-18 06:18:56,1693.6147025956823,44.100001411200004,0.0,0.39010901248348806,1693.6147025956823,44.100001411200004,0.7199994039200001,0.39986901279580805,1684,-11.6,99,P-GPS,
0.371693686248919,36.913539949996,15200,2018-04-18 06:18:57,1694.1147026116823,44.6000014272,0.0,0.397599012723168,1694.1147026116823,44.6000014272,0.7199994039200001,0.39986901279580805,1684,-11.6,99,P-GPS,
0.3716936106976671,36.9135400887236,15400,2018-04-18 06:18:57,1695.1147026436822,45.6000014592,0.0,0.41209101318691205,1695.1147026436822,45.6000014592,0.7199994039200001,0.41209101318691205,1684,-11.6,99,P-GPS,
0.37169358025553495,36.9135401754476,15500,2018-04-18 06:18:57,1695.7147026628825,46.20000147840001,0.0,0.41963101342819203,1695.7147026628825,46.20000147840001,0.7199994039200001,0.41963101342819203,1684,-11.6,99,P-GPS,
0.37169355852191405,36.913540256800204,15600,2018-04-18 06:18:57,1696.2147026788823,46.7000014944,0.0,0.42614501363664004,1696.2147026788823,46.7000014944,0.7199994039200001,0.42614501363664004,1684,-11.6,99,P-GPS,
0.37169353736313393,36.913540323392205,15700,2018-04-18 06:18:57,1696.7147026948826,47.2000015104,0.0,0.43187801382009605,1696.7147026948826,47.2000015104,0.7199994039200001,0.43187801382009605,1677,-11.6,99,P-GPS,
0.37169352364023706,36.9135403738703,15800,2018-04-18 06:18:57,1697.2147027108824,47.700001526399994,0.0,0.43604501395344003,1697.2147027108824,47.700001526399994,0.7199994039200001,0.43604501395344003,1672,-11.6,99,P-GPS,
0.371693495766161,36.913540416149004,15900,2018-04-18 06:18:57,1697.7147027268823,48.200001542399995,0.0,0.44112201411590396,1697.7147027268823,48.200001542399995,0.7199994039200001,0.44112201411590396,1684,-11.6,99,P-GPS,
0.371693468121289,36.9135404563963,16000,2018-04-18 06:18:57,1698.2147027428825,48.70000155840001,0.0,0.44607301427433604,1698.2147027428825,48.70000155840001,0.7199994039200001,0.44607301427433604,1684,-11.6,99,P-GPS,
0.371693448942289,36.913540514981705,16100,2018-04-18 06:18:57,1698.7147027588824,49.200001574400005,0.0,0.45131101444195193,1698.7147027588824,49.200001574400005,0.7199994039200001,0.45131101444195193,1684,-11.6,99,P-GPS,
0.371693428815943,36.9135406119683,16300,2018-04-18 06:18:57,1699.7147027908823,50.200001606399994,0.0,0.458991014687712,1699.7147027908823,50.200001606399994,0.7199994039200001,0.458991014687712,1684,-11.6,99,P-GPS,
0.37169341480196105,36.9135406341694,16400,2018-04-18 06:18:58,1700.2147028068825,50.7000016224,0.0,0.4616440147726081,1700.2147028068825,50.7000016224,0.7199994039200001,0.4616440147726081,1684,-11.6,99,P-GPS,
0.3716934054892971,36.91354066619729,16500,2018-04-18 06:18:58,1700.7147028228824,51.20000163840001,0.0,0.46446401486284805,1700.7147028228824,51.20000163840001,0.7199994039200001,0.46446401486284805,1684,-11.6,99,P-GPS,
0.37169341649595,36.9135406958925,16600,2018-04-18 06:18:58,1701.2147028388822,51.700001654400005,0.0,0.465274014888768,1701.2147028388822,51.700001654400005,0.7199994039200001,0.465274014888768,1684,-11.6,98,P-GPS,
0.37169340271687107,36.9135407192898,16700,2018-04-18 06:18:58,1701.6147028516823,52.1000016672,0.0,0.46799701497590407,1701.6147028516823,52.1000016672,0.7199994039200001,0.46799701497590407,1684,-11.6,98,P-GPS,
0.37169339468334994,36.913540733653,16800,2018-04-18 06:18:58,1702.1147028676824,52.600001683200006,0.0,0.469632015028224,1702.1147028676824,52.600001683200006,0.7199994039200001,0.469632015028224,1684,-11.6,98,P-GPS,
0.37169340628275604,36.913540773764296,16900,2018-04-18 06:18:58,1702.6147028836824,53.1000016992,0.0,0.47108601507475206,1702.6147028836824,53.1000016992,0.7199994039200001,0.47108601507475206,1684,-11.6,98,P-GPS,
0.37169344127069004,36.913540812379395,17000,2018-04-18 06:18:58,1703.1147028996822,53.6000017152,0.0,0.470361015051552,1703.1147028996822,53.6000017152,0.7199994039200001,0.47108601507475206,1684,-11.6,98,P-GPS,
0.37169343909142405,36.9135408312421,17100,2018-04-18 06:18:59,1703.6147029156825,54.100001731199995,0.0,0.47177501509680003,1703.6147029156825,54.100001731199995,0.7199994039200001,0.47177501509680003,1684,-11.6,98,P-GPS,
0.37169349066913104,36.913540835541205,17300,2018-04-18 06:18:59,1704.6147029476824,55.1000017632,0.0,0.46740001495679995,1704.6147029476824,55.1000017632,0.7199994039200001,0.47177501509680003,1684,-11.6,98,P-GPS,
0.371693572249697,36.9135408342489,17400,2018-04-18 06:18:59,1705.1147029636825,55.6000017792,0.0,0.46000501472016,1705.1147029636825,55.6000017792,0.7199994039200001,0.47177501509680003,1684,-11.6,98,P-GPS,
0.37169366196963305,36.9135408377102,17500,2018-04-18 06:18:59,1705.6147029796825,56.10000179520001,0.0,0.452272014472704,1705.6147029796825,56.10000179520001,0.7199994039200001,0.47177501509680003,1684,-11.6,98,P-GPS,
0.3716937397359771,36.913540851316704,17600,2018-04-18 06:18:59,1706.2147029988823,56.700001814400004,0.0,0.446372014283904,1706.2147029988823,56.700001814400004,0.7199994039200001,0.47177501509680003,1684,-11.6,98,P-GPS,
0.37169379313061995,36.913540848333994,17700,2018-04-18 06:18:59,1706.7147030148824,57.200001830400005,0.0,0.441517014128544,1706.7147030148824,57.200001830400005,0.7199994039200001,0.47177501509680003,1683,-11.6,98,P-GPS,
0.37169382525737704,36.9135408374608,17800,2018-04-18 06:18:59,1707.2147030308824,57.7000018464,0.0,0.4379750140152,1707.2147030308824,57.7000018464,0.7199994039200001,0.47177501509680003,1672,-11.6,98,P-GPS,
0.371693845353597,36.9135408186061,17900,2018-04-18 06:18:59,1707.7147030468823,58.2000018624,0.0,0.43491901391740806,1707.7147030468823,58.2000018624,0.7199994039200001,0.47177501509680003,1673,-11.6,98,P-GPS,
0.37169387265405396,36.9135408000223,18000,2018-04-18 06:18:59,1708.2147030628826,58.7000018784,0.0,0.431259013800288,1708.2147030628826,58.7000018784,0.7199994039200001,0.47177501509680003,1684,-11.6,98,P-GPS,
0.3716939181617361,36.9135407526926,18100,2018-04-18 06:18:59,1708.7147030788824,59.2000018944,0.0,0.424016013568512,1708.7147030788824,59.2000018944,0.7199994039200001,0.47177501509680003,1684,-11.6,98,P-GPS,
0.371693973002437,36.913540710404504,18200,2018-04-18 06:18:59,1709.2147030948822,59.700001910400005,0.0,0.416317013322144,1709.2147030948822,59.700001910400005,0.7199994039200001,0.47177501509680003,1684,-11.9,98,P-GPS,
0.371694033892401,36.913540685510995,18300,2018-04-18 06:19:00,1709.7147031108825,60.2000019264,0.0,0.40931001309792,1709.7147031108825,60.2000019264,0.7199994039200001,0.47177501509680003,1684,-12.4,98,P-GPS,
0.37169409102147294,36.913540680561,18400,2018-04-18 06:19:00,1710.2147031268823,60.7000019424,0.0,0.404046012929472,1710.2147031268823,60.7000019424,0.7199994039200001,0.47177501509680003,1684,-13.4,98,P-GPS,
0.3716941429293471,36.913540666334,18500,2018-04-18 06:19:00,1710.7147031428824,61.2000019584,0.0,0.39859701275510395,1710.7147031428824,61.2000019584,0.7199994039200001,0.47177501509680003,1684,-14.6,98,P-GPS,
0.371694186345699,36.913540656156705,18600,2018-04-18 06:19:00,1711.1147031556823,61.6000019712,0.0,0.394174012613568,1711.1147031556823,61.6000019712,0.7199994039200001,0.47177501509680003,1684,-15.7,98,P-GPS,
0.371694201856628,36.91354064964921,18700,2018-04-18 06:19:00,1711.6147031716825,62.1000019872,0.0,0.392391012556512,1711.6147031716825,62.1000019872,0.7199994039200001,0.47177501509680003,1684,-16.9,98,P-GPS,
0.371694216027348,36.9135406575183,18800,2018-04-18 06:19:00,1712.1147031876824,62.600002003200004,0.0,0.39176001253632003,1712.1147031876824,62.600002003200004,0.7199994039200001,0.47177501509680003,1670,-16.9,98,P-GPS,
0.3716942382959121,36.9135406378695,18900,2018-04-18 06:19:00,1712.6147032036824,63.100002019200005,0.0,0.388458012430656,1712.6147032036824,63.100002019200005,0.7199994039200001,0.47177501509680003,1670,-18.0,98,P-GPS,
0.37169427598747,36.9135406202321,19000,2018-04-18 06:19:00,1713.1147032196823,63.600002035200006,0.0,0.384000012288,1713.1147032196823,63.600002035200006,0.7199994039200001,0.47177501509680003,1668,-18.2,98,P-GPS,
0.371694302168371,36.9135406155837,19100,2018-04-18 06:19:00,1713.7147032388823,64.2000020544,0.0,0.381461012206752,1713.7147032388823,64.2000020544,0.7199994039200001,0.47177501509680003,1672,-18.2,98,P-GPS,
0.37169433690918796,36.9135406252613,19200,2018-04-18 06:19:01,1714.2147032548824,64.7000020704,0.0,0.37926501213648,1714.2147032548824,64.7000020704,0.7199994039200001,0.47177501509680003,1674,-18.2,98,P-GPS,
0.37169437781081605,36.9135406280136,19300,2018-04-18 06:19:01,1714.7147032708824,65.2000020864,0.0,0.3760750120344,1714.7147032708824,65.2000020864,0.7199994039200001,0.47177501509680003,1678,-18.2,98,P-GPS,
0.37169443678817293,36.913540629085105,19400,2018-04-18 06:19:01,1715.2147032868825,65.7000021024,0.0,0.37130701188182397,1715.2147032868825,65.7000021024,0.7199994039200001,0.47177501509680003,1678,-18.2,98,P-GPS,
0.371694497051185,36.913540632157996,19500,2018-04-18 06:19:01,1715.7147033028823,66.20000211840001,0.0,0.366643011732576,1715.7147033028823,66.20000211840001,0.7199994039200001,0.47177501509680003,1672,-18.2,98,P-GPS,
0.37169454541922897,36.9135406420867,19600,2018-04-18 06:19:01,1716.2147033188826,66.7000021344,0.0,0.363524011632768,1716.2147033188826,66.7000021344,0.7199994039200001,0.47177501509680003,1637,-18.2,98,P-GPS,
0.371694598009014,36.9135406502464,19700,2018-04-18 06:19:01,1716.7147033348824,67.2000021504,0.0,0.35999001151968,1716.7147033348824,67.2000021504,0.7199994039200001,0.47177501509680003,1587,-18.2,98,P-GPS,
0.37169465486939296,36.9135406575793,19800,2018-04-18 06:19:01,1717.2147033508822,67.70000216640001,0.0,0.356122011395904,1717.2147033508822,67.70000216640001,0.7199994039200001,0.47177501509680003,1527,-18.2,98,P-GPS,
0.371694693114214,36.913540649084204,19900,2018-04-18 06:19:01,1717.7147033668823,68.2000021824,0.0,0.3524830112794561,1717.7147033668823,68.2000021824,0.7199994039200001,0.47177501509680003,1527,-18.2,98,P-GPS,
0.371694729709015,36.9135406397064,20000,2018-04-18 06:19:01,1718.2147033828824,68.7000021984,0.0,0.348917011165344,1718.2147033828824,68.7000021984,0.7199994039200001,0.47177501509680003,1484,-18.2,98,P-GPS,
0.371694773835369,36.913540629892296,20100,2018-04-18 06:19:01,1718.6147033956825,69.1000022112,0.0,0.344756011032192,1718.6147033956825,69.1000022112,0.7199994039200001,0.47177501509680003,1471,-18.2,98,P-GPS,
0.37169487961217,36.913540628902,20300,2018-04-18 06:19:02,1719.3147034180824,69.8000022336,0.0,0.336749010775968,1719.3147034180824,69.8000022336,0.7199994039200001,0.47177501509680003,1471,-18.2,98,P-GPS,
0.37169492944825605,36.913540628156795,20400,2018-04-18 06:19:02,1719.5147034244824,70.00000224,0.0,0.33303001065696,1719.5147034244824,70.00000224,0.7199994039200001,0.47177501509680003,1466,-18.2,98,P-GPS,
0.37169496648558603,36.9135406177809,20500,2018-04-18 06:19:02,1719.8147034340825,70.30000224960001,0.0,0.329469010543008,1719.8147034340825,70.30000224960001,0.7199994039200001,0.47177501509680003,1457,-18.2,98,P-GPS,
0.37169500250351006,36.9135406013555,20600,2018-04-18 06:19:02,1720.1147034436824,70.60000225920001,0.0,0.3254830104154561,1720.1147034436824,70.60000225920001,0.7199994039200001,0.47177501509680003,1463,-18.2,98,P-GPS,
0.37169501769811397,36.913540576004294,20700,2018-04-18 06:19:02,1720.4147034532823,70.90000226880001,0.0,0.32224001031168,1720.4147034532823,70.90000226880001,0.7199994039200001,0.47177501509680003,1500,-18.2,98,P-GPS,
0.37169513874605603,36.9135405057725,20900,2018-04-18 06:19:02,1721.0147034724823,71.500002288,0.35999970196000003,0.307622009843904,1721.0147034724823,71.500002288,0.7199994039200001,0.47177501509680003,1486,-18.2,98,P-GPS,
0.371695272905008,36.9135404554833,21000,2018-04-18 06:19:02,1721.3147034820825,71.8000022976,0.0,0.293952009406464,1721.3147034820825,71.8000022976,0.7199994039200001,0.47177501509680003,1486,-18.2,98,P-GPS,
0.371695450771396,36.9135404037004,21100,2018-04-18 06:19:02,1721.6147034916826,72.1000023072,0.0,0.27755300888169604,1721.6147034916826,72.1000023072,0.7199994039200001,0.47177501509680003,1473,-18.2,98,P-GPS,
0.371695649779466,36.913540347636896,21200,2018-04-18 06:19:02,1721.9147035012822,72.40000231680001,0.0,0.260091008322912,1721.9147035012822,72.40000231680001,0.7199994039200001,0.47177501509680003,1452,-18.2,98,P-GPS,
0.37169586709206,36.9135402731111,21300,2018-04-18 06:19:03,1722.2147035108824,72.70000232640001,0.0,0.24077700770486404,1722.2147035108824,72.70000232640001,0.7199994039200001,0.47177501509680003,1451,-18.2,98,P-GPS,
0.371696108814623,36.9135401898849,21400,2018-04-18 06:19:03,1722.5147035204825,73.00000233600001,0.0,0.220752007064064,1722.5147035204825,73.00000233600001,0.7199994039200001,0.47177501509680003,1451,-18.2,98,P-GPS,
0.371696416300269,36.9135400833398,21500,2018-04-18 06:19:03,1722.8147035300824,73.3000023456,0.0,0.198198006342336,1722.8147035300824,73.3000023456,0.7199994039200001,0.47177501509680003,1451,-18.2,98,P-GPS,
0.371696766068666,36.913539968740395,21600,2018-04-18 06:19:03,1723.0147035364823,73.50000235200001,0.0,0.17882800572249602,1723.0147035364823,73.50000235200001,0.7199994039200001,0.47177501509680003,1450,-18.2,98,P-GPS,
0.37169716331516206,36.9135398334144,21700,2018-04-18 06:19:03,1723.3147035460825,73.80000236160001,0.0,0.16601400531244803,1723.3147035460825,73.80000236160001,0.7199994039200001,0.47177501509680003,1448,-18.2,98,P-GPS,
0.37169757326861,36.9135396982912,21800,2018-04-18 06:19:03,1723.6147035556824,74.1000023712,0.35999970196000003,0.16648500532752003,1723.6147035556824,74.1000023712,0.7199994039200001,0.47177501509680003,1438,-18.2,98,P-GPS,
0.371698034555295,36.9135395341776,21900,2018-04-18 06:19:03,1723.8147035620823,74.30000237760001,0.35999970196000003,0.181803005817696,1723.8147035620823,74.30000237760001,0.7199994039200001,0.47177501509680003,1437,-18.2,98,P-GPS,
0.37169849531833293,36.9135393822139,22000,2018-04-18 06:19:04,1724.1147035716824,74.6000023872,0.35999970196000003,0.21118600675795202,1724.1147035716824,74.6000023872,0.7199994039200001,0.47177501509680003,1440,-18.2,98,P-GPS,
0.371699784269281,36.9135389797843,22300,2018-04-18 06:19:04,1724.9147035972824,75.40000241279999,0.35999970196000003,0.328884010524288,1724.9147035972824,75.40000241279999,0.7199994039200001,0.47177501509680003,1434,-18.2,98,P-GPS,
0.371700205839215,36.9135388428189,22400,2018-04-18 06:19:04,1725.1147036036825,75.60000241920001,0.35999970196000003,0.37239501191664004,1725.1147036036825,75.60000241920001,0.7199994039200001,0.47177501509680003,1443,-18.2,98,P-GPS,
0.37170132065991496,36.9135384685776,22700,2018-04-18 06:19:04,1725.9147036292825,76.4000024448,0.35999970196000003,0.49270201576646405,1725.9147036292825,76.4000024448,0.7199994039200001,0.49270201576646405,1438,-18.2,98,P-GPS,
0.37170168934686204,36.9135383414784,22800,2018-04-18 06:19:04,1726.1147036356822,76.6000024512,0.35999970196000003,0.5335750170744001,1726.1147036356822,76.6000024512,0.7199994039200001,0.5335750170744001,1427,-18.2,98,P-GPS,
0.371702048415303,36.913538194918104,22900,2018-04-18 06:19:04,1726.4147036452823,76.9000024608,0.35999970196000003,0.573813018362016,1726.4147036452823,76.9000024608,0.7199994039200001,0.573813018362016,1435,-18.2,98,P-GPS,
0.371702383799044,36.9135380586792,23000,2018-04-18 06:19:04,1726.6147036516825,77.1000024672,0.35999970196000003,0.611748019575936,1726.6147036516825,77.1000024672,0.7199994039200001,0.611748019575936,1423,-18.2,98,P-GPS,
0.37170271585505893,36.9135379220973,23100,2018-04-18 06:19:04,1726.9147036612821,77.40000247680001,0.35999970196000003,0.649597020787104,1726.9147036612821,77.40000247680001,0.7199994039200001,0.649597020787104,1406,-18.2,98,P-GPS,
0.3717030211535,36.913537808297704,23200,2018-04-18 06:19:04,1727.1147036676823,77.6000024832,0.35999970196000003,0.684484021903488,1727.1147036676823,77.6000024832,0.7199994039200001,0.684484021903488,1377,-18.2,98,P-GPS,
0.371703349143698,36.913537683477294,23300,2018-04-18 06:19:05,1727.4147036772824,77.9000024928,0.35999970196000003,0.7221420231085441,1727.4147036772824,77.9000024928,0.7199994039200001,0.7221420231085441,1360,-18.2,98,P-GPS,
0.371703654020983,36.9135375773909,23400,2018-04-18 06:19:05,1727.6147036836824,78.1000024992,0.35999970196000003,0.757142024228544,1727.6147036836824,78.1000024992,0.7199994039200001,0.757142024228544,1297,-18.2,98,P-GPS,
0.37170397809436606,36.913537478208106,23500,2018-04-18 06:19:05,1727.8147036900825,78.3000025056,0.35999970196000003,0.7942440254158081,1727.8147036900825,78.3000025056,0.7199994039200001,0.7942440254158081,1228,-18.2,98,P-GPS,
0.37170426913028504,36.9135373929371,23600,2018-04-18 06:19:05,1728.1147036996824,78.6000025152,0.35999970196000003,0.8275540264817282,1728.1147036996824,78.6000025152,0.7199994039200001,0.8275540264817282,1202,-18.2,98,P-GPS,
0.371704591247906,36.9135372664628,23700,2018-04-18 06:19:05,1728.2147037028824,78.70000251840001,0.35999970196000003,0.8649560276785921,1728.2147037028824,78.70000251840001,0.7199994039200001,0.8649560276785921,1190,-18.2,98,P-GPS,
0.371705194779785,36.913537039527796,23900,2018-04-18 06:19:05,1728.5147037124825,79.00000252800001,0.0,0.9350930299229762,1728.5147037124825,79.00000252800001,0.7199994039200001,0.9350930299229762,1188,-18.2,98,P-GPS,
0.371705448979079,36.9135369533074,24000,2018-04-18 06:19:05,1728.6147037156825,79.10000253119999,0.0,0.964533030865056,1728.6147037156825,79.10000253119999,0.7199994039200001,0.964533030865056,1188,-18.2,98,P-GPS,
0.371705658076173,36.9135368848684,24100,2018-04-18 06:19:05,1728.6147037156825,79.10000253119999,0.0,0.9887220316391041,1728.6147037156825,79.10000253119999,0.7199994039200001,0.9887220316391041,1172,-18.2,98,P-GPS,
0.3717058120826,36.913536841772,24200,2018-04-18 06:19:06,1728.7147037188824,79.20000253439999,0.0,1.00641003220512,1728.7147037188824,79.20000253439999,0.7199994039200001,1.00641003220512,1167,-18.2,98,P-GPS,
0.371705968473883,36.9135368087716,24300,2018-04-18 06:19:06,1728.8147037220822,79.30000253760001,0.35999970196000003,1.02417003277344,1728.8147037220822,79.30000253760001,0.7199994039200001,1.02417003277344,1141,-18.2,98,P-GPS,
0.37170611432424894,36.9135367802409,24400,2018-04-18 06:19:06,1728.8147037220822,79.30000253760001,0.35999970196000003,1.0406900333020799,1728.8147037220822,79.30000253760001,0.7199994039200001,1.0406900333020799,1126,-18.2,98,P-GPS,
0.3717062887358929,36.913536719176,24500,2018-04-18 06:19:06,1728.9147037252824,79.4000025408,0.35999970196000003,1.06096003395072,1728.9147037252824,79.4000025408,0.7199994039200001,1.06096003395072,1104,-18.2,98,P-GPS,
0.37170646059617296,36.913536653624604,24600,2018-04-18 06:19:06,1729.0147037284823,79.500002544,0.35999970196000003,1.0810500345936,1729.0147037284823,79.500002544,0.7199994039200001,1.0810500345936,1096,-18.2,98,P-GPS,
0.371706630461609,36.9135365746217,24700,2018-04-18 06:19:06,1729.0147037284823,79.500002544,0.35999970196000003,1.10121003523872,1729.0147037284823,79.500002544,0.7199994039200001,1.10121003523872,1072,-18.2,98,P-GPS,
0.371706785850178,36.913536506918895,24800,2018-04-18 06:19:06,1729.0147037284823,79.500002544,0.35999970196000003,1.1195700358262402,1729.0147037284823,79.500002544,0.7199994039200001,1.1195700358262402,1055,-18.2,98,P-GPS,
0.37170698734488206,36.9135364019723,24900,2018-04-18 06:19:06,1729.0147037284823,79.500002544,0.35999970196000003,1.14377003660064,1729.0147037284823,79.500002544,0.7199994039200001,1.14377003660064,1055,-18.2,98,P-GPS,
0.37170720945812896,36.91353628965339,25000,2018-04-18 06:19:06,1729.0147037284823,79.500002544,0.35999970196000003,1.1704300374537602,1729.0147037284823,79.500002544,0.7199994039200001,1.1704300374537602,1058,-18.2,98,P-GPS,
0.37170747800808507,36.913536165429996,25100,2018-04-18 06:19:06,1729.0147037284823,79.500002544,0.35999970196000003,1.20246003847872,1729.0147037284823,79.500002544,0.7199994039200001,1.20246003847872,1058,-18.2,98,P-GPS,
0.37170774945911494,36.9135360505487,25200,2018-04-18 06:19:06,1729.0147037284823,79.500002544,0.35999970196000003,1.2346300395081602,1729.0147037284823,79.500002544,0.7199994039200001,1.2346300395081602,1069,-18.2,98,P-GPS,
0.371708085854933,36.9135359205912,25300,2018-04-18 06:19:06,1729.0147037284823,79.500002544,0.35999970196000003,1.27424004077568,1729.0147037284823,79.500002544,0.7199994039200001,1.27424004077568,1069,-18.2,98,P-GPS,
0.37170842718656605,36.9135357924476,25400,2018-04-18 06:19:07,1729.0147037284823,79.500002544,0.0,1.3143800420601601,1729.0147037284823,79.500002544,0.7199994039200001,1.3143800420601601,1054,-18.2,98,P-GPS,
0.371708811719189,36.9135356357259,25500,2018-04-18 06:19:07,1729.0147037284823,79.500002544,0.0,1.3599300435177601,1729.0147037284823,79.500002544,0.7199994039200001,1.3599300435177601,1054,-18.2,98,P-GPS,
0.37170918360368793,36.9135354795284,25600,2018-04-18 06:19:07,1729.0147037284823,79.500002544,0.0,1.4041400449324801,1729.0147037284823,79.500002544,0.7199994039200001,1.4041400449324801,1024,-18.2,98,P-GPS,
0.37170959421421296,36.913535301124504,25700,2018-04-18 06:19:07,1729.0147037284823,79.500002544,0.0,1.45316004650112,1729.0147037284823,79.500002544,0.7199994039200001,1.45316004650112,1024,-18.2,98,P-GPS,
0.371709989554005,36.913535134747896,25800,2018-04-18 06:19:07,1729.0147037284823,79.500002544,0.0,1.5002600480083201,1729.0147037284823,79.500002544,0.7199994039200001,1.5002600480083201,1024,-18.2,98,P-GPS,
0.3717104224326879,36.9135349337094,25900,2018-04-18 06:19:07,1729.0147037284823,79.500002544,0.0,1.5523800496761602,1729.0147037284823,79.500002544,0.7199994039200001,1.5523800496761602,1025,-18.2,98,P-GPS,
0.371710834953378,36.913534745166295,26000,2018-04-18 06:19:07,1729.0147037284823,79.500002544,0.0,1.60203005126496,1729.0147037284823,79.500002544,0.7199994039200001,1.60203005126496,1060,-18.2,98,P-GPS,
0.37171126652930603,36.913534528818005,26100,2018-04-18 06:19:07,1729.0147037284823,79.500002544,0.0,1.65457005294624,1729.0147037284823,79.500002544,0.7199994039200001,1.65457005294624,1060,-18.2,98,P-GPS,
0.371711668872221,36.9135343320154,26200,2018-04-18 06:19:07,1729.0147037284823,79.500002544,0.0,1.70347005451104,1729.0147037284823,79.500002544,0.7199994039200001,1.70347005451104,1138,-18.2,98,P-GPS,
0.371712110306748,36.9135340845913,26300,2018-04-18 06:19:08,1729.0147037284823,79.500002544,0.0,1.7581200562598402,1729.0147037284823,79.500002544,0.7199994039200001,1.7581200562598402,1178,-18.2,98,P-GPS,
0.37171252320442294,36.9135338592349,26400,2018-04-18 06:19:08,1729.0147037284823,79.500002544,0.0,1.8091500578928001,1729.0147037284823,79.500002544,0.7199994039200001,1.8091500578928001,1197,-18.2,98,P-GPS,
0.37171293162224894,36.913533614589,26500,2018-04-18 06:19:08,1729.0147037284823,79.500002544,0.0,1.8603700595318402,1729.0147037284823,79.500002544,0.7199994039200001,1.8603700595318402,1219,-18.2,98,P-GPS,
0.371713285268175,36.9135334049371,26600,2018-04-18 06:19:08,1729.0147037284823,79.500002544,0.0,1.90474006095168,1729.0147037284823,79.500002544,0.7199994039200001,1.90474006095168,1238,-18.2,98,P-GPS,
0.371713612118869,36.913533184159895,26700,2018-04-18 06:19:08,1729.1147037316823,79.60000254720002,0.0,1.9466800622937601,1729.1147037316823,79.60000254720002,0.7199994039200001,1.9466800622937601,1219,-18.2,98,P-GPS,
0.37171389088242607,36.9135329977428,26800,2018-04-18 06:19:08,1729.1147037316823,79.60000254720002,0.0,1.9824500634384,1729.1147037316823,79.60000254720002,0.7199994039200001,1.9824500634384,1210,-18.2,98,P-GPS,
0.371714190408644,36.9135327558891,26900,2018-04-18 06:19:08,1729.2147037348823,79.70000255040001,0.0,2.02238006471616,1729.2147037348823,79.70000255040001,0.7199994039200001,2.02238006471616,1210,-18.2,98,P-GPS,
0.371714455810818,36.9135325427965,27000,2018-04-18 06:19:08,1729.3147037380825,79.80000255360001,0.0,2.0578000658496003,1729.3147037380825,79.80000255360001,0.7199994039200001,2.0578000658496003,1201,-18.2,98,P-GPS,
0.37171471447286303,36.9135323492911,27100,2018-04-18 06:19:08,1729.3147037380825,79.80000255360001,0.0,2.09191006694112,1729.3147037380825,79.80000255360001,0.7199994039200001,2.09191006694112,1188,-18.2,98,P-GPS,
0.371714912978558,36.9135322160475,27200,2018-04-18 06:19:08,1729.4147037412824,79.9000025568,0.0,2.1175800677625602,1729.4147037412824,79.9000025568,0.7199994039200001,2.1175800677625602,1193,-18.2,98,P-GPS,
0.3717150803288621,36.9135320991944,27300,2018-04-18 06:19:09,1729.5147037444824,80.00000256,0.0,2.13939006846048,1729.5147037444824,80.00000256,0.7199994039200001,2.13939006846048,1198,-18.2,98,P-GPS,
0.37171519515859003,36.9135320153336,27400,2018-04-18 06:19:09,1729.5147037444824,80.00000256,0.0,2.15451006894432,1729.5147037444824,80.00000256,0.7199994039200001,2.15451006894432,1199,-18.2,98,P-GPS,
0.371715278678226,36.9135319378248,27500,2018-04-18 06:19:09,1729.6147037476826,80.1000025632,0.0,2.16612006931584,1729.6147037476826,80.1000025632,0.7199994039200001,2.16612006931584,1197,-18.2,98,P-GPS,
0.37171529846382106,36.9135318948846,27600,2018-04-18 06:19:09,1729.7147037508823,80.20000256640002,0.0,2.16977006943264,1729.7147037508823,80.20000256640002,0.7199994039200001,2.16977006943264,1169,-18.2,98,P-GPS,
0.371715318252672,36.9135318194132,27700,2018-04-18 06:19:09,1729.7147037508823,80.20000256640002,0.0,2.17464006958848,1729.7147037508823,80.20000256640002,0.7199994039200001,2.17464006958848,1024,-18.2,98,P-GPS,
0.37171529244020596,36.9135317638756,27800,2018-04-18 06:19:09,1729.8147037540823,80.30000256960001,0.35999970196000003,2.17402006956864,1729.8147037540823,80.30000256960001,0.7199994039200001,2.17464006958848,1024,-18.2,98,P-GPS,
0.371715292964565,36.9135317099164,27900,2018-04-18 06:19:09,1729.9147037572823,80.4000025728,0.35999970196000003,2.17611006963552,1729.9147037572823,80.4000025728,0.7199994039200001,2.17611006963552,1024,-18.2,98,P-GPS,
0.37171526190688103,36.9135316937811,28000,2018-04-18 06:19:09,1729.9147037572823,80.4000025728,0.35999970196000003,2.17347006955104,1729.9147037572823,80.4000025728,0.7199994039200001,2.17611006963552,1024,-18.2,98,P-GPS,
0.371715270565318,36.913531651114795,28100,2018-04-18 06:19:09,1729.9147037572823,80.4000025728,0.35999970196000003,2.1760000696320003,1729.9147037572823,80.4000025728,0.7199994039200001,2.17611006963552,1024,-18.2,98,P-GPS,
0.37171522058348605,36.913531633283604,28200,2018-04-18 06:19:10,1729.9147037572823,80.4000025728,0.35999970196000003,2.17146006948672,1729.9147037572823,80.4000025728,0.7199994039200001,2.17611006963552,1024,-18.2,98,P-GPS,
0.37171517281308203,36.9135316141773,28300,2018-04-18 06:19:10,1729.9147037572823,80.4000025728,0.35999970196000003,2.16721006935072,1729.9147037572823,80.4000025728,0.7199994039200001,2.17611006963552,1024,-18.2,98,P-GPS,
0.371715066915369,36.9135316340898,28400,2018-04-18 06:19:10,1729.9147037572823,80.4000025728,0.7919993443119999,2.1554000689728,1729.9147037572823,80.4000025728,0.7919993443119999,2.17611006963552,1024,-18.2,98,P-GPS,
0.37171499044363904,36.91353161966,28500,2018-04-18 06:19:10,1729.9147037572823,80.4000025728,0.7919993443119999,2.14798006873536,1729.9147037572823,80.4000025728,0.7919993443119999,2.17611006963552,1024,-18.2,98,P-GPS,
0.37171488558650106,36.913531622116,28600,2018-04-18 06:19:10,1729.9147037572823,80.4000025728,0.7919993443119999,2.13697006838304,1729.9147037572823,80.4000025728,0.7919993443119999,2.17611006963552,1024,-18.2,98,P-GPS,
0.371714811448331,36.9135316277753,28700,2018-04-18 06:19:10,1729.9147037572823,80.4000025728,0.7919993443119999,2.12903006812896,1729.9147037572823,80.4000025728,0.7919993443119999,2.17611006963552,1024,-18.2,98,P-GPS,
0.37171470473965296,36.9135316668143,28800,2018-04-18 06:19:10,1729.9147037572823,80.4000025728,0.7919993443119999,2.1163900677244802,1729.9147037572823,80.4000025728,0.7919993443119999,2.17611006963552,1024,-18.2,98,P-GPS,
0.37171461134350503,36.9135317004505,28900,2018-04-18 06:19:10,1729.9147037572823,80.4000025728,0.7919993443119999,2.1053500673712002,1729.9147037572823,80.4000025728,0.7919993443119999,2.17611006963552,1024,-18.2,98,P-GPS,
0.37171449274555696,36.9135317477194,29000,2018-04-18 06:19:10,1729.9147037572823,80.4000025728,0.7919993443119999,2.09116006691712,1729.9147037572823,80.4000025728,0.7919993443119999,2.17611006963552,1024,-18.2,98,P-GPS,
0.3717143653914651,36.913531786239794,29100,2018-04-18 06:19:10,1729.9147037572823,80.4000025728,0.7919993443119999,2.07639006644448,1729.9147037572823,80.4000025728,0.7919993443119999,2.17611006963552,1024,-18.2,98,P-GPS,
0.37171422573773705,36.9135318301167,29200,2018-04-18 06:19:11,1729.9147037572823,80.4000025728,0.7919993443119999,2.06014006592448,1729.9147037572823,80.4000025728,0.7919993443119999,2.17611006963552,1024,-18.2,98,P-GPS,
0.371713922848782,36.91353190202621,29400,2018-04-18 06:19:11,1729.9147037572823,80.4000025728,0.7919993443119999,2.02581006482592,1729.9147037572823,80.4000025728,0.7919993443119999,2.17611006963552,1024,-18.2,98,P-GPS,
0.371713723072901,36.913531959822,29500,2018-04-18 06:19:11,1729.9147037572823,80.4000025728,0.7919993443119999,2.0027600640883203,1729.9147037572823,80.4000025728,0.7919993443119999,2.17611006963552,1024,-18.2,98,P-GPS,
0.37171353721207395,36.9135320234668,29600,2018-04-18 06:19:11,1729.9147037572823,80.4000025728,0.7919993443119999,1.98092006338944,1729.9147037572823,80.4000025728,0.7919993443119999,2.17611006963552,1024,-18.2,98,P-GPS,
0.37171321050631106,36.9135321336644,29800,2018-04-18 06:19:11,1729.9147037572823,80.4000025728,0.7919993443119999,1.94261006216352,1729.9147037572823,80.4000025728,0.7919993443119999,2.17611006963552,1024,-18.2,98,P-GPS,
0.37171300671224394,36.9135322090683,29900,2018-04-18 06:19:11,1729.9147037572823,80.4000025728,0.7919993443119999,1.9184400613900803,1729.9147037572823,80.4000025728,0.7919993443119999,2.17611006963552,1024,-18.2,98,P-GPS,
0.3717128225327849,36.9135322831817,30000,2018-04-18 06:19:11,1729.9147037572823,80.4000025728,0.7919993443119999,1.8963700606838403,1729.9147037572823,80.4000025728,0.7919993443119999,2.17611006963552,1024,-18.2,98,P-GPS,
0.37171260439375603,36.913532355627,30100,2018-04-18 06:19:11,1729.9147037572823,80.4000025728,0.35999970196000003,1.8708300598665604,1729.9147037572823,80.4000025728,0.7919993443119999,2.17611006963552,1024,-18.2,98,P-GPS,
0.371712424533745,36.9135324146961,30200,2018-04-18 06:19:12,1729.9147037572823,80.4000025728,0.35999970196000003,1.84981005919392,1729.9147037572823,80.4000025728,0.7919993443119999,2.17611006963552,1024,-18.2,98,P-GPS,
0.37171221467779497,36.9135324965465,30300,2018-04-18 06:19:12,1729.9147037572823,80.4000025728,0.35999970196000003,1.8247600583923202,1729.9147037572823,80.4000025728,0.7919993443119999,2.17611006963552,1024,-18.2,98,P-GPS,
0.37171203876676095,36.913532573061794,30400,2018-04-18 06:19:12,1729.9147037572823,80.4000025728,0.35999970196000003,1.8034500577104,1729.9147037572823,80.4000025728,0.7919993443119999,2.17611006963552,1024,-18.2,98,P-GPS,
0.3717118209973879,36.9135326507385,30500,2018-04-18 06:19:12,1729.9147037572823,80.4000025728,0.35999970196000003,1.7777400568876802,1729.9147037572823,80.4000025728,0.7919993443119999,2.17611006963552,1024,-18.2,98,P-GPS,
0.37171164222924896,36.913532709788,30600,2018-04-18 06:19:12,1729.9147037572823,80.4000025728,0.35999970196000003,1.7568300562185601,1729.9147037572823,80.4000025728,0.7919993443119999,2.17611006963552,1024,-18.2,97,P-GPS,
