latitude,longitude,time_millisecond,datetime_utc,altitude_m,ascent_m,speed_kph,distance_m,max_altitude_m,max_ascent_m,max_speed_kph,max_distance_m,rc_throttle,gimbal_pitch_degrees,battery_percent,flycState,message
0.311969847151728,36.9075262137814,70400,2018-04-06 13:18:33,1648.5575478538449,0.0,0.0,0.0,1648.5575478538449,0.0,0.0,0.0,608,0.0,95,Motors_Started,
0.311969866636874,36.9075261863747,70500,2018-04-06 13:18:33,1648.5575478538449,0.0,0.0,0.0037395201196646403,1648.5575478538449,0.0,0.0,0.0037395201196646403,1009,0.0,95,Motors_Started,
0.311969880865404,36.907526151165,70600,2018-04-06 13:18:33,1648.5575478538449,0.0,0.0,0.00790839025306848,1648.5575478538449,0.0,0.0,0.00790839025306848,1024,0.0,95,Motors_Started,
0.311969900420574,36.9075261223757,70700,2018-04-06 13:18:33,1648.5575478538449,0.0,0.0,0.0117649003764768,1648.5575478538449,0.0,0.0,0.0117649003764768,1024,0.0,95,Motors_Started,
0.311969931375665,36.9075261038257,70800,2018-04-06 13:18:33,1648.5575478538449,0.0,0.0,0.015402600492883202,1648.5575478538449,0.0,0.0,0.015402600492883202,1024,0.0,95,Motors_Started,
0.311969950687383,36.9075260944423,70900,2018-04-06 13:18:33,1648.5575478538449,0.0,0.0,0.017569500562224002,1648.5575478538449,0.0,0.0,0.017569500562224002,1024,0.0,95,Motors_Started,Setting new Return-To-Home altitude to 30m (98 ft). Setting new Maximum Flight Altitude to 150m (492 ft)
0.311969963207675,36.9075260883286,71000,2018-04-06 13:18:33,1648.5575478538449,0.0,0.0,0.019005200608166403,1648.5575478538449,0.0,0.0,0.019005200608166403,1024,0.0,95,Motors_Started,
0.311969962492788,36.907526072196,71100,2018-04-06 13:18:33,1648.5575478538449,0.0,0.0,0.0203082006498624,1648.5575478538449,0.0,0.0,0.0203082006498624,1024,0.0,95,Motors_Started,
0.311969962544084,36.9075260435952,71200,2018-04-06 13:18:33,1648.5575478538449,0.0,0.0,0.0228657007317024,1648.5575478538449,0.0,0.0,0.0228657007317024,1024,0.0,95,Motors_Started,
0.311969950944677,36.9075260211053,71300,2018-04-06 13:18:33,1648.5575478538449,0.0,0.0,0.0243376007788032,1648.5575478538449,0.0,0.0,0.0243376007788032,1024,0.0,95,Motors_Started,
0.311969944111726,36.9075260061965,71400,2018-04-06 13:18:33,1648.5575478538449,0.0,0.0,0.0254784008153088,1648.5575478538449,0.0,0.0,0.0254784008153088,1024,0.0,95,Motors_Started,
0.311969944864881,36.9075259993928,71500,2018-04-06 13:18:34,1648.5575478538449,0.0,0.0,0.026200500838416005,1648.5575478538449,0.0,0.0,0.026200500838416005,1024,0.0,95,Motors_Started,
0.311969965070614,36.907525993158,71600,2018-04-06 13:18:34,1648.5575478538449,0.0,0.0,0.027818900890204803,1648.5575478538449,0.0,0.0,0.027818900890204803,1024,0.0,95,Motors_Started,
0.311969981531741,36.9075259764993,71700,2018-04-06 13:18:34,1648.5575478538449,0.0,0.0,0.0303246009703872,1648.5575478538449,0.0,0.0,0.0303246009703872,1024,0.0,95,Motors_Started,
0.311969990377448,36.907525947823,71800,2018-04-06 13:18:34,1648.5575478538449,0.0,0.0,0.033591901074940804,1648.5575478538449,0.0,0.0,0.033591901074940804,1024,0.0,95,Motors_Started,
0.311970010782666,36.9075259245559,71900,2018-04-06 13:18:34,1648.5575478538449,0.0,0.0,0.036953901182524805,1648.5575478538449,0.0,0.0,0.036953901182524805,1024,0.0,95,Assisted_Takeoff,
0.311970044113658,36.9075259062709,72000,2018-04-06 13:18:34,1648.5575478538449,0.0,0.0,0.0406099012995168,1648.5575478538449,0.0,0.0,0.0406099012995168,1024,0.0,95,Assisted_Takeoff,
0.311970071325771,36.9075259001272,72100,2018-04-06 13:18:34,1648.5575478538449,0.0,0.0,0.0428728013719296,1648.5575478538449,0.0,0.0,0.0428728013719296,1027,0.0,95,Assisted_Takeoff,
0.311970088695569,36.9075258950583,72200,2018-04-06 13:18:34,1648.5575478538449,0.0,0.0,0.044472001423104,1648.5575478538449,0.0,0.0,0.044472001423104,1064,0.0,95,Assisted_Takeoff,
0.311970100925183,36.9075258802892,72300,2018-04-06 13:18:34,1648.5575478538449,0.0,0.0,0.04660250149128,1648.5575478538449,0.0,0.0,0.04660250149128,1101,0.0,95,Assisted_Takeoff,
0.311970108407069,36.9075258521894,72400,2018-04-06 13:18:34,1648.5575478538449,0.0,0.0,0.0496083015874656,1648.5575478538449,0.0,0.0,0.0496083015874656,1145,0.0,95,Assisted_Takeoff,
0.311970109900352,36.9075258287703,72500,2018-04-06 13:18:35,1648.5575478538449,0.0,0.0,0.051835201658726404,1648.5575478538449,0.0,0.0,0.051835201658726404,1163,0.0,95,Assisted_Takeoff,
0.311970111792604,36.9075258151805,72600,2018-04-06 13:18:35,1648.5575478538449,0.0,0.0,0.0532064017026048,1648.5575478538449,0.0,0.0,0.0532064017026048,1176,0.0,95,Assisted_Takeoff,
0.311970106100378,36.9075258085544,72700,2018-04-06 13:18:35,1648.5575478538449,0.0,0.0,0.053478301711305604,1648.5575478538449,0.0,0.0,0.053478301711305604,1197,0.0,95,Assisted_Takeoff,
0.31197010366504,36.9075258034995,72800,2018-04-06 13:18:35,1648.5575478538449,0.0,0.0,0.0538087017218784,1648.5575478538449,0.0,0.0,0.0538087017218784,1218,0.0,95,Assisted_Takeoff,
0.311970113688927,36.9075258069309,72900,2018-04-06 13:18:35,1648.5575478538449,0.0,0.0,0.0540883017308256,1648.5575478538449,0.0,0.0,0.0540883017308256,1248,0.0,95,Assisted_Takeoff,
0.311970136045021,36.9075258095308,73000,2018-04-06 13:18:35,1648.5575478538449,0.0,0.0,0.055254201768134406,1648.5575478538449,0.0,0.0,0.055254201768134406,1290,0.0,95,Assisted_Takeoff,
0.311970156459195,36.9075258062002,73100,2018-04-06 13:18:35,1648.5575478538449,0.0,0.0,0.056898901820764805,1648.5575478538449,0.0,0.0,0.056898901820764805,1306,0.0,95,Assisted_Takeoff,
0.311970168784887,36.9075258406048,73200,2018-04-06 13:18:35,1648.5575478538449,0.0,0.0,0.0547857017531424,1648.5575478538449,0.0,0.0,0.056898901820764805,1306,0.0,95,Assisted_Takeoff,
0.311970197706867,36.9075259263133,73300,2018-04-06 13:18:35,1648.5575478538449,0.0,0.35999970196000003,0.050415101613283206,1648.5575478538449,0.0,0.35999970196000003,0.056898901820764805,1326,0.0,95,P-GPS,
0.311970324694558,36.9075262188721,73500,2018-04-06 13:18:36,1648.5575478538449,0.0,0.35999970196000003,0.0531087016994784,1648.5575478538449,0.0,0.35999970196000003,0.056898901820764805,1332,0.0,95,P-GPS,Obstacle Avoided. Revise Flight Route
0.311970392572989,36.9075264006226,73600,2018-04-06 13:18:36,1648.6575478570448,0.1000000032,0.35999970196000003,0.06411420205165441,1648.6575478570448,0.1000000032,0.35999970196000003,0.06411420205165441,1354,0.0,95,P-GPS,
0.311970460749426,36.9075265589988,73700,2018-04-06 13:18:36,1648.7575478602446,0.2000000064,0.35999970196000003,0.07829370250539841,1648.7575478602446,0.2000000064,0.35999970196000003,0.07829370250539841,1360,0.0,95,P-GPS,
0.311970542728554,36.9075266824565,73800,2018-04-06 13:18:36,1648.8575478634448,0.3000000096,0.35999970196000003,0.09327250298472001,1648.8575478634448,0.3000000096,0.35999970196000003,0.09327250298472001,1359,0.0,95,P-GPS,
0.31197065154281,36.9075268259272,73900,2018-04-06 13:18:36,1648.9575478666447,0.4000000128,0.503999582744,0.11240900359708801,1648.9575478666447,0.4000000128,0.503999582744,0.11240900359708801,1360,0.0,95,P-GPS,
0.311970798224089,36.9075269659478,74000,2018-04-06 13:18:36,1649.0575478698447,0.500000016,0.503999582744,0.134843004314976,1649.0575478698447,0.500000016,0.503999582744,0.134843004314976,1364,0.0,95,P-GPS,Home Point Recorded. RTH Altitude:  30m.
0.311970904847274,36.9075271442482,74100,2018-04-06 13:18:36,1649.2575478762449,0.7000000224,0.0,0.156657005013024,1649.2575478762449,0.7000000224,0.503999582744,0.156657005013024,1366,0.0,95,P-GPS,
0.311970960912158,36.9075273097548,74200,2018-04-06 13:18:36,1649.4575478826448,0.9000000288000001,0.0,0.17376600556051203,1649.4575478826448,0.9000000288000001,0.503999582744,0.17376600556051203,1365,0.0,95,P-GPS,
0.311970947212058,36.9075274700488,74300,2018-04-06 13:18:36,1649.557547885845,1.000000032,0.0,0.185694005942208,1649.557547885845,1.000000032,0.503999582744,0.185694005942208,1365,0.0,95,P-GPS,
0.311970882409758,36.9075275767913,74400,2018-04-06 13:18:36,1649.8575478954447,1.3000000416000002,0.0,0.190338006090816,1649.8575478954447,1.3000000416000002,0.503999582744,0.190338006090816,1365,0.0,95,P-GPS,
0.311970730058237,36.9075276986948,74500,2018-04-06 13:18:37,1650.0575479018448,1.5000000480000002,0.0,0.192114006147648,1650.0575479018448,1.5000000480000002,0.503999582744,0.192114006147648,1365,0.0,95,P-GPS,
0.311970604430297,36.9075277422593,74600,2018-04-06 13:18:37,1650.2575479082448,1.7000000544000002,0.35999970196000003,0.189692006070144,1650.2575479082448,1.7000000544000002,0.503999582744,0.192114006147648,1360,0.0,95,P-GPS,
0.311970421082158,36.9075277767004,74700,2018-04-06 13:18:37,1650.457547914645,1.9000000608000003,0.35999970196000003,0.185152005924864,1650.457547914645,1.9000000608000003,0.503999582744,0.192114006147648,1364,0.0,95,P-GPS,
0.311970228146556,36.9075277313757,74800,2018-04-06 13:18:37,1650.6575479210446,2.1000000672000003,0.35999970196000003,0.17400000556800002,1650.6575479210446,2.1000000672000003,0.503999582744,0.192114006147648,1364,0.0,95,P-GPS,
0.311970026155991,36.9075276760577,74900,2018-04-06 13:18:37,1650.8575479274448,2.3000000736,0.35999970196000003,0.16382600524243202,1650.8575479274448,2.3000000736,0.503999582744,0.192114006147648,1363,0.0,95,P-GPS,
0.311969903688861,36.907527616734,75000,2018-04-06 13:18:37,1651.0575479338447,2.50000008,0.35999970196000003,0.15614100499651198,1651.0575479338447,2.50000008,0.503999582744,0.192114006147648,1363,0.0,95,P-GPS,
0.31196979516121,36.9075275980256,75100,2018-04-06 13:18:37,1651.2575479402449,2.7000000864,0.0,0.154043004929376,1651.2575479402449,2.7000000864,0.503999582744,0.192114006147648,1362,0.0,95,P-GPS,
0.311969768729936,36.9075276017237,75200,2018-04-06 13:18:37,1651.4575479466446,2.9000000928,0.35999970196000003,0.154592004946944,1651.4575479466446,2.9000000928,0.503999582744,0.192114006147648,1362,0.0,95,P-GPS,
0.311969879423417,36.9075276265528,75300,2018-04-06 13:18:37,1651.6575479530447,3.1000000992000003,1.07999910588,0.157147005028704,1651.6575479530447,3.1000000992000003,1.07999910588,0.192114006147648,1362,0.0,95,P-GPS,
0.311970191394204,36.907527687286,75400,2018-04-06 13:18:37,1651.857547959445,3.3000001056,2.15999821176,0.16827300538473602,1651.857547959445,3.3000001056,2.15999821176,0.192114006147648,1361,0.0,95,P-GPS,
0.311970779498611,36.9075277815273,75500,2018-04-06 13:18:38,1652.0575479658448,3.500000112,2.8799976156800002,0.20284100649091202,1652.0575479658448,3.500000112,2.8799976156800002,0.20284100649091202,1361,0.0,95,P-GPS,
0.311971602037887,36.9075279541411,75600,2018-04-06 13:18:38,1652.257547972245,3.7000001184,3.5999970196000004,0.274848008795136,1652.257547972245,3.7000001184,3.5999970196000004,0.274848008795136,1362,0.0,95,P-GPS,
0.311972722054799,36.9075281713564,75700,2018-04-06 13:18:38,1652.4575479786447,3.9000001248,3.5999970196000004,0.38678401237708804,1652.4575479786447,3.9000001248,3.5999970196000004,0.38678401237708804,1361,0.0,95,P-GPS,
0.31197405906513,36.907528490187,75800,2018-04-06 13:18:38,1652.6575479850449,4.100000131200001,5.57999538038,0.532422017037504,1652.6575479850449,4.100000131200001,5.57999538038,0.532422017037504,1359,0.0,95,P-GPS,
0.3119757218123,36.9075289397713,75900,2018-04-06 13:18:38,1652.8575479914448,4.3000001376,6.731994426652,0.7202040230465281,1652.8575479914448,4.3000001376,6.731994426652,0.7202040230465281,1354,0.0,95,P-GPS,
0.311977639653593,36.9075295759187,76000,2018-04-06 13:18:38,1653.057547997845,4.500000144,7.955993413316,0.9437900302012799,1653.057547997845,4.500000144,7.955993413316,0.9437900302012799,1351,0.0,95,P-GPS,
0.311979870108909,36.9075303416782,76100,2018-04-06 13:18:38,1653.157548001045,4.6000001472,9.107992459588,1.20544003857408,1653.157548001045,4.6000001472,9.107992459588,1.20544003857408,1351,0.0,95,P-GPS,
0.311982234694272,36.9075311911411,76200,2018-04-06 13:18:38,1653.3575480074446,4.8000001536,9.215992370176,1.4846100475075201,1653.3575480074446,4.8000001536,9.215992370176,1.4846100475075201,1354,0.0,95,P-GPS,
0.311984699422426,36.9075321054361,76300,2018-04-06 13:18:38,1653.5575480138448,5.00000016,9.215992370176,1.7768700568598401,1653.5575480138448,5.00000016,9.215992370176,1.7768700568598401,1353,0.0,95,P-GPS,
0.311987051221247,36.9075330103352,76400,2018-04-06 13:18:38,1653.7575480202447,5.200000166400001,8.423993025864,2.0570800658265602,1653.7575480202447,5.200000166400001,9.215992370176,2.0570800658265602,1335,0.0,95,P-GPS,
0.311989110492901,36.9075338297905,76500,2018-04-06 13:18:39,1653.857548023445,5.3000001696000005,7.271993979592,2.3035500737136,1653.857548023445,5.3000001696000005,9.215992370176,2.3035500737136,1310,0.0,95,P-GPS,
0.311990740920343,36.9075344995503,76600,2018-04-06 13:18:39,1654.0575480298448,5.5000001759999995,6.0479949929279995,2.4995400799852803,1654.0575480298448,5.5000001759999995,9.215992370176,2.4995400799852803,1319,0.0,95,P-GPS,
0.31199200643954,36.9075350689348,76700,2018-04-06 13:18:39,1654.2575480362448,5.7000001824,4.895995946656,2.65372008491904,1654.2575480362448,5.7000001824,9.215992370176,2.65372008491904,1355,0.0,95,P-GPS,
0.311993067957044,36.9075355313659,76800,2018-04-06 13:18:39,1654.3575480394447,5.8000001856,4.103996602344,2.78242008903744,1654.3575480394447,5.8000001856,9.215992370176,2.78242008903744,1362,0.0,95,P-GPS,
0.311993784983734,36.9075358577609,76900,2018-04-06 13:18:39,1654.557548045845,6.000000192000001,2.951997556072,2.8699400918380804,1654.557548045845,6.000000192000001,9.215992370176,2.8699400918380804,1361,0.0,95,P-GPS,
0.311994288306461,36.9075360467728,77000,2018-04-06 13:18:39,1654.7575480522448,6.200000198400001,2.267998122348,2.92972009375104,1654.7575480522448,6.200000198400001,9.215992370176,2.92972009375104,1360,0.0,95,P-GPS,
0.311994607406576,36.9075361662939,77100,2018-04-06 13:18:39,1654.957548058645,6.4000002048,2.195998181956,2.9676000949632004,1654.957548058645,6.4000002048,9.215992370176,2.9676000949632004,1360,0.0,95,P-GPS,
0.311994892648084,36.9075362700606,77200,2018-04-06 13:18:39,1655.1575480650447,6.6000002112,2.195998181956,3.0013300960425604,1655.1575480650447,6.6000002112,9.215992370176,3.0013300960425604,1360,0.0,95,P-GPS,
0.311995103521811,36.9075363017205,77300,2018-04-06 13:18:39,1655.3575480714449,6.800000217600001,1.7999985098000002,3.02441009678112,1655.3575480714449,6.800000217600001,9.215992370176,3.02441009678112,1360,0.0,95,P-GPS,
0.311995309920574,36.90753631482,77400,2018-04-06 13:18:39,1655.5575480778448,7.000000224,1.4399988078400001,3.0462800974809605,1655.5575480778448,7.000000224,9.215992370176,3.0462800974809605,1361,0.0,95,P-GPS,
0.311995456855075,36.9075363057007,77500,2018-04-06 13:18:40,1655.757548084245,7.200000230400001,0.7199994039200001,3.0611000979552,1655.757548084245,7.200000230400001,9.215992370176,3.0611000979552,1367,0.0,95,P-GPS,
0.311995588830691,36.907536330259,77600,2018-04-06 13:18:40,1655.9575480906447,7.4000002368,0.35999970196000003,3.07576009842432,1655.9575480906447,7.4000002368,9.215992370176,3.07576009842432,1368,0.0,95,P-GPS,
0.31199573087986,36.9075363108199,77700,2018-04-06 13:18:40,1656.1575480970448,7.600000243200001,0.35999970196000003,3.08968009886976,1656.1575480970448,7.600000243200001,9.215992370176,3.08968009886976,1366,0.0,95,P-GPS,
0.311995882497767,36.9075362869209,77800,2018-04-06 13:18:40,1656.3575481034447,7.8000002496,0.35999970196000003,3.10443009934176,1656.3575481034447,7.8000002496,9.215992370176,3.10443009934176,1362,0.0,95,P-GPS,
0.311996050481536,36.9075362478633,77900,2018-04-06 13:18:40,1656.557548109845,8.000000256,0.35999970196000003,3.1203100998499202,1656.557548109845,8.000000256,9.215992370176,3.1203100998499202,1376,0.0,95,P-GPS,
0.311996176835763,36.9075362310879,78000,2018-04-06 13:18:40,1656.7575481162446,8.200000262400001,0.35999970196000003,3.13277010024864,1656.7575481162446,8.200000262400001,9.215992370176,3.13277010024864,1382,0.0,95,P-GPS,
0.311996336227861,36.9075361650479,78100,2018-04-06 13:18:40,1656.9575481226448,8.400000268800001,0.35999970196000003,3.146750100696,1656.9575481226448,8.400000268800001,9.215992370176,3.146750100696,1369,0.0,95,P-GPS,
0.311996612180724,36.9075358280445,78300,2018-04-06 13:18:40,1657.3575481354449,8.800000281600001,0.503999582744,3.16263010120416,1657.3575481354449,8.800000281600001,9.215992370176,3.16263010120416,1365,0.0,95,P-GPS,
0.311996733265306,36.9075356304273,78400,2018-04-06 13:18:40,1657.5575481418448,9.000000288,0.503999582744,3.16798010137536,1657.5575481418448,9.000000288,9.215992370176,3.16798010137536,1362,0.0,95,P-GPS,
0.311996872295341,36.9075354846045,78500,2018-04-06 13:18:41,1657.7575481482447,9.2000002944,0.35999970196000003,3.17727010167264,1657.7575481482447,9.2000002944,9.215992370176,3.17727010167264,1362,0.0,95,P-GPS,
0.31199703111097,36.9075353974997,78600,2018-04-06 13:18:41,1657.9575481546447,9.4000003008,0.7199994039200001,3.19087010210784,1657.9575481546447,9.4000003008,9.215992370176,3.19087010210784,1363,0.0,95,P-GPS,
0.311997215887253,36.9075353550595,78700,2018-04-06 13:18:41,1658.1575481610448,9.6000003072,0.7199994039200001,3.2088501026832,1658.1575481610448,9.6000003072,9.215992370176,3.2088501026832,1363,0.0,95,P-GPS,
0.311997414870082,36.9075353489418,78800,2018-04-06 13:18:41,1658.357548167445,9.8000003136,0.7199994039200001,3.22963010334816,1658.357548167445,9.8000003136,9.215992370176,3.22963010334816,1364,0.0,95,P-GPS,
0.311997603290823,36.9075353805596,78900,2018-04-06 13:18:41,1658.557548173845,10.00000032,0.35999970196000003,3.25063010402016,1658.557548173845,10.00000032,9.215992370176,3.25063010402016,1356,0.0,95,P-GPS,
0.311997786220451,36.9075353873832,79000,2018-04-06 13:18:41,1658.7575481802448,10.2000003264,0.7199994039200001,3.27019010464608,1658.7575481802448,10.2000003264,9.215992370176,3.27019010464608,1336,0.0,95,P-GPS,
0.311997980923729,36.9075353766626,79100,2018-04-06 13:18:41,1658.9575481866448,10.400000332800001,0.7199994039200001,3.29039010529248,1658.9575481866448,10.400000332800001,9.215992370176,3.29039010529248,1325,0.0,95,P-GPS,
0.311998199229675,36.9075353706554,79200,2018-04-06 13:18:41,1659.157548193045,10.600000339200001,0.7199994039200001,3.31328010602496,1659.157548193045,10.600000339200001,9.215992370176,3.31328010602496,1325,0.0,95,P-GPS,
0.31199843784883,36.907535398732,79300,2018-04-06 13:18:41,1659.3575481994449,10.8000003456,1.07999910588,3.3395001068640005,1659.3575481994449,10.8000003456,9.215992370176,3.3395001068640005,1318,0.0,95,P-GPS,
0.311998673149217,36.9075354349122,79400,2018-04-06 13:18:41,1659.5575482058448,11.000000351999999,0.7199994039200001,3.36564010770048,1659.5575482058448,11.000000351999999,9.215992370176,3.36564010770048,1229,0.0,95,P-GPS,
0.311998899773255,36.9075354898023,79500,2018-04-06 13:18:42,1659.7575482122447,11.2000003584,0.7199994039200001,3.3915101085283204,1659.7575482122447,11.2000003584,9.215992370176,3.3915101085283204,1229,0.0,95,P-GPS,
0.311999141141224,36.9075355830746,79600,2018-04-06 13:18:42,1659.957548218645,11.4000003648,0.7199994039200001,3.42023010944736,1659.957548218645,11.4000003648,9.215992370176,3.42023010944736,1165,0.0,95,P-GPS,
0.311999381502815,36.9075357393,79700,2018-04-06 13:18:42,1660.1575482250448,11.6000003712,1.151999046272,3.4509901104316802,1660.1575482250448,11.6000003712,9.215992370176,3.4509901104316802,1173,0.0,95,P-GPS,
0.311999601000781,36.9075359105354,79800,2018-04-06 13:18:42,1660.2575482282446,11.7000003744,0.7919993443119999,3.48009011136288,1660.2575482282446,11.7000003744,9.215992370176,3.48009011136288,1172,0.0,95,P-GPS,
0.311999770782352,36.9075361148097,79900,2018-04-06 13:18:42,1660.357548231445,11.8000003776,0.503999582744,3.50511011216352,1660.357548231445,11.8000003776,9.215992370176,3.50511011216352,1172,0.0,95,P-GPS,
0.311999937704376,36.9075363052075,80000,2018-04-06 13:18:42,1660.4575482346447,11.9000003808,0.503999582744,3.5294101129411204,1660.4575482346447,11.9000003808,9.215992370176,3.5294101129411204,1168,-0.1,95,P-GPS,
0.312000101027538,36.9075364446933,80100,2018-04-06 13:18:42,1660.4575482346447,11.9000003808,0.35999970196000003,3.55158011365056,1660.4575482346447,11.9000003808,9.215992370176,3.55158011365056,1220,-0.1,95,P-GPS,
0.312000270809109,36.9075364809523,80200,2018-04-06 13:18:42,1660.5575482378447,12.000000384000002,0.35999970196000003,3.57076011426432,1660.5575482378447,12.000000384000002,9.215992370176,3.57076011426432,1362,-0.1,95,P-GPS,
0.312000431142448,36.9075364163478,80300,2018-04-06 13:18:42,1660.6575482410449,12.1000003872,0.0,3.58537011473184,1660.6575482410449,12.1000003872,9.215992370176,3.58537011473184,1490,-0.1,95,P-GPS,
0.312000587479585,36.9075362054205,80400,2018-04-06 13:18:42,1660.6575482410449,12.1000003872,0.7919993443119999,3.5945501150256,1660.6575482410449,12.1000003872,9.215992370176,3.5945501150256,1502,-0.1,95,P-GPS,
0.312000766654021,36.9075358965265,80500,2018-04-06 13:18:43,1660.8575482474448,12.300000393600001,1.151999046272,3.60309011529888,1660.8575482474448,12.300000393600001,9.215992370176,3.60309011529888,1519,-0.1,95,P-GPS,
0.312000979198532,36.9075355624857,80600,2018-04-06 13:18:43,1661.057548253845,12.500000400000001,1.151999046272,3.6148001156736003,1661.057548253845,12.500000400000001,9.215992370176,3.6148001156736003,1512,-0.1,95,P-GPS,
0.312001185883901,36.9075352439768,80700,2018-04-06 13:18:43,1661.2575482602447,12.700000406400001,0.7919993443119999,3.6268501160592,1661.2575482602447,12.700000406400001,9.215992370176,3.6268501160592,1507,-0.1,95,P-GPS,
0.312001352304364,36.9075349806058,80800,2018-04-06 13:18:43,1661.5575482698448,13.000000416,0.35999970196000003,3.63668011637376,1661.5575482698448,13.000000416,9.215992370176,3.63668011637376,1465,-0.1,95,P-GPS,
0.312001418630888,36.9075347779741,80900,2018-04-06 13:18:43,1661.857548279445,13.3000004256,0.35999970196000003,3.63782011641024,1661.857548279445,13.3000004256,9.215992370176,3.63782011641024,1447,-0.1,95,P-GPS,
0.312001410921834,36.9075346332479,81000,2018-04-06 13:18:43,1662.2575482922448,13.7000004384,0.35999970196000003,3.63281011624992,1662.2575482922448,13.7000004384,9.215992370176,3.63782011641024,1466,-0.1,95,P-GPS,
0.312001340208282,36.9075345169285,81100,2018-04-06 13:18:43,1662.5575483018447,14.000000448,0.0,3.62189011590048,1662.5575483018447,14.000000448,9.215992370176,3.63782011641024,1505,-0.1,95,P-GPS,
0.312001243745773,36.9075344226067,81200,2018-04-06 13:18:43,1662.8575483114448,14.300000457600001,0.0,3.6088501154832002,1662.8575483114448,14.300000457600001,9.215992370176,3.63782011641024,1516,-0.1,95,P-GPS,
0.312001147084594,36.9075343343403,81300,2018-04-06 13:18:43,1663.1575483210447,14.600000467200001,0.0,3.59598011507136,1663.1575483210447,14.600000467200001,9.215992370176,3.63782011641024,1536,-0.1,95,P-GPS,
0.312001134307823,36.9075342433722,81400,2018-04-06 13:18:43,1663.4575483306448,14.9000004768,0.0,3.59207011494624,1663.4575483306448,14.9000004768,9.215992370176,3.63782011641024,1547,-0.1,95,P-GPS,
0.312001141313389,36.9075341754011,81500,2018-04-06 13:18:44,1663.757548340245,15.200000486400002,0.0,3.5909601149107204,1663.757548340245,15.200000486400002,9.215992370176,3.63782011641024,1551,-0.1,95,P-GPS,
0.312001153139149,36.9075341535451,81600,2018-04-06 13:18:44,1664.1575483530448,15.6000004992,0.0,3.59163011493216,1664.1575483530448,15.6000004992,9.215992370176,3.63782011641024,1550,-0.1,95,P-GPS,
0.312001163746833,36.907534155015,81700,2018-04-06 13:18:44,1664.557548365845,16.000000512,0.0,3.59282011497024,1664.557548365845,16.000000512,9.215992370176,3.63782011641024,1550,-0.1,95,P-GPS,
0.312001113235757,36.9075341731132,81800,2018-04-06 13:18:44,1664.9575483786448,16.400000524800003,0.0,3.58787011481184,1664.9575483786448,16.400000524800003,9.215992370176,3.63782011641024,1551,-0.1,95,P-GPS,
0.312001056135997,36.9075342150542,81900,2018-04-06 13:18:44,1665.3575483914449,16.800000537600003,0.0,3.5828701146518402,1665.3575483914449,16.800000537600003,9.215992370176,3.63782011641024,1556,-0.1,94,P-GPS,
0.312000971831451,36.9075342714444,82000,2018-04-06 13:18:44,1665.657548401045,17.1000005472,0.0,3.5753601144115206,1665.657548401045,17.1000005472,9.215992370176,3.63782011641024,1560,-0.1,94,P-GPS,
0.312000852505589,36.9075343355814,82100,2018-04-06 13:18:44,1666.0575484138449,17.50000056,0.0,3.5643101140579203,1666.0575484138449,17.50000056,9.215992370176,3.63782011641024,1561,-0.1,94,P-GPS,
0.312000724477322,36.9075344057868,82200,2018-04-06 13:18:44,1666.457548426645,17.9000005728,0.0,3.5525401136812804,1666.457548426645,17.9000005728,9.215992370176,3.63782011641024,1560,-0.1,94,P-GPS,
0.312000576832819,36.9075344629784,82300,2018-04-06 13:18:44,1666.8575484394448,18.3000005856,0.0,3.5383101132259203,1666.8575484394448,18.3000005856,9.215992370176,3.63782011641024,1561,-0.1,94,P-GPS,
0.312000424325781,36.9075345124233,82400,2018-04-06 13:18:44,1667.257548452245,18.700000598400003,0.0,3.5233701127478403,1667.257548452245,18.700000598400003,9.215992370176,3.63782011641024,1566,-0.1,94,P-GPS,
0.312000259113624,36.9075345940361,82500,2018-04-06 13:18:45,1667.6575484650448,19.1000006112,0.35999970196000003,3.50804011225728,1667.6575484650448,19.1000006112,9.215992370176,3.63782011641024,1562,-0.1,94,P-GPS,
0.31200009070646,36.9075347232722,82600,2018-04-06 13:18:45,1667.957548474645,19.4000006208,0.35999970196000003,3.49386011180352,1667.957548474645,19.4000006208,9.215992370176,3.63782011641024,1561,-0.1,94,P-GPS,
0.311999920931402,36.907534864137,82700,2018-04-06 13:18:45,1668.357548487445,19.800000633600003,0.35999970196000003,3.4799801113593603,1668.357548487445,19.800000633600003,9.215992370176,3.63782011641024,1562,-0.1,94,P-GPS,
0.311999786086469,36.9075349850922,82800,2018-04-06 13:18:45,1668.7575485002449,20.200000646400003,0.0,3.4693301110185604,1668.7575485002449,20.200000646400003,9.215992370176,3.63782011641024,1561,-0.1,94,P-GPS,
0.311999641584862,36.9075350944405,82900,2018-04-06 13:18:45,1669.157548513045,20.6000006592,0.35999970196000003,3.4573701106358405,1669.157548513045,20.6000006592,9.215992370176,3.63782011641024,1561,-0.1,94,P-GPS,
0.311999496780365,36.9075351586355,83000,2018-04-06 13:18:45,1669.5575485258448,21.000000672,0.0,3.44399011020768,1669.5575485258448,21.000000672,9.215992370176,3.63782011641024,1558,-0.1,94,P-GPS,
0.311999343387454,36.9075352002706,83100,2018-04-06 13:18:45,1669.957548538645,21.400000684800002,0.0,3.42901010972832,1669.957548538645,21.400000684800002,9.215992370176,3.63782011641024,1550,-0.1,94,P-GPS,
0.311999184799807,36.9075352401603,83200,2018-04-06 13:18:45,1670.3575485514448,21.8000006976,0.0,3.4134501092304,1670.3575485514448,21.8000006976,9.215992370176,3.63782011641024,1551,-0.1,94,P-GPS,
0.311999029263864,36.9075353219118,83300,2018-04-06 13:18:45,1670.7575485642449,22.2000007104,0.0,3.39962010878784,1670.7575485642449,22.2000007104,9.215992370176,3.63782011641024,1556,-0.1,94,P-GPS,
0.311998892139109,36.9075354255556,83400,2018-04-06 13:18:45,1671.1575485770447,22.6000007232,0.0,3.38853010843296,1671.1575485770447,22.6000007232,9.215992370176,3.63782011641024,1546,-0.1,94,P-GPS,
0.311998737111241,36.9075355231781,83500,2018-04-06 13:18:46,1671.5575485898448,23.000000736000004,0.0,3.37542010801344,1671.5575485898448,23.000000736000004,9.215992370176,3.63782011641024,1526,-0.1,94,P-GPS,
0.311998586932878,36.9075355497606,83600,2018-04-06 13:18:46,1671.9575486026447,23.4000007488,0.0,3.36044010753408,1671.9575486026447,23.4000007488,9.215992370176,3.63782011641024,1531,-0.1,94,P-GPS,
0.311998431061476,36.9075355516262,83700,2018-04-06 13:18:46,1672.3575486154448,23.8000007616,0.0,3.34402010700864,1672.3575486154448,23.8000007616,9.215992370176,3.63782011641024,1529,-0.1,94,P-GPS,
0.311998270786761,36.9075355761761,83800,2018-04-06 13:18:46,1672.7575486282449,24.2000007744,0.35999970196000003,3.3279301064937603,1672.7575486282449,24.2000007744,9.215992370176,3.63782011641024,1534,-0.1,94,P-GPS,
0.311998100210509,36.9075356463593,83900,2018-04-06 13:18:46,1673.1575486410447,24.600000787200003,0.35999970196000003,3.31239010599648,1673.1575486410447,24.600000787200003,9.215992370176,3.63782011641024,1540,-0.1,94,P-GPS,
0.311997958617303,36.907535723133,84000,2018-04-06 13:18:46,1673.4575486506449,24.9000007968,0.0,3.3001801056057603,1673.4575486506449,24.9000007968,9.215992370176,3.63782011641024,1540,-0.1,94,P-GPS,
0.311997831947159,36.9075358129908,84100,2018-04-06 13:18:46,1673.8575486634447,25.3000008096,0.0,3.2900701052822403,1673.8575486634447,25.3000008096,9.215992370176,3.63782011641024,1541,-0.1,94,P-GPS,
0.311997733478407,36.9075358953469,84200,2018-04-06 13:18:46,1674.1575486730449,25.6000008192,0.0,3.2827001050464,1674.1575486730449,25.6000008192,9.215992370176,3.63782011641024,1533,-0.1,94,P-GPS,
0.311997641637422,36.9075359785507,84300,2018-04-06 13:18:46,1674.557548685845,26.000000832,0.0,3.27611010483552,1674.557548685845,26.000000832,9.215992370176,3.63782011641024,1500,-0.1,94,P-GPS,
0.311997560612563,36.9075360493163,84400,2018-04-06 13:18:46,1674.8575486954448,26.3000008416,0.0,3.2702401046476806,1674.8575486954448,26.3000008416,9.215992370176,3.63782011641024,1509,-0.1,94,P-GPS,
0.311997497451734,36.9075361303628,84500,2018-04-06 13:18:46,1675.257548708245,26.700000854400002,0.0,3.2666501045328,1675.257548708245,26.700000854400002,9.215992370176,3.63782011641024,1545,-0.1,94,P-GPS,
0.311997467478594,36.9075362267358,84600,2018-04-06 13:18:47,1675.5575487178446,27.000000864,0.0,3.2671501045488003,1675.5575487178446,27.000000864,9.215992370176,3.63782011641024,1548,-0.1,94,P-GPS,
0.311997415612653,36.9075363492372,84700,2018-04-06 13:18:47,1675.9575487306447,27.4000008768,0.0,3.2664001045248003,1675.9575487306447,27.4000008768,9.215992370176,3.63782011641024,1544,-0.1,94,P-GPS,
0.311997347459014,36.9075364778721,84800,2018-04-06 13:18:47,1676.357548743445,27.8000008896,0.0,3.2642601044563206,1676.357548743445,27.8000008896,9.215992370176,3.63782011641024,1546,-3.0,94,P-GPS,
0.311997313066277,36.9075366110093,84900,2018-04-06 13:18:47,1676.6575487530447,28.1000008992,0.0,3.26589010450848,1676.6575487530447,28.1000008992,9.215992370176,3.63782011641024,1531,-8.7,94,P-GPS,
0.311997312737332,36.9075367008706,85000,2018-04-06 13:18:47,1677.0575487658448,28.500000912,0.0,3.2694101046211204,1677.0575487658448,28.500000912,9.215992370176,3.63782011641024,1509,-20.0,94,P-GPS,
0.311997276396975,36.9075367801222,85200,2018-04-06 13:18:47,1677.7575487882448,29.200000934400002,0.0,3.2687901046012797,1677.7575487882448,29.200000934400002,9.215992370176,3.63782011641024,1501,-25.6,94,P-GPS,
0.31199725262495,36.9075368213611,85300,2018-04-06 13:18:47,1678.1575488010446,29.6000009472,0.0,3.26798010457536,1678.1575488010446,29.6000009472,9.215992370176,3.63782011641024,1496,-31.3,94,P-GPS,
0.311997238633359,36.9075368666593,85400,2018-04-06 13:18:47,1678.4575488106448,29.900000956800003,0.0,3.2683501045872,1678.4575488106448,29.900000956800003,9.215992370176,3.63782011641024,1482,-36.7,94,P-GPS,
0.311997212223254,36.9075369087381,85500,2018-04-06 13:18:48,1678.8575488234449,30.300000969600003,0.0,3.2673101045539203,1678.8575488234449,30.300000969600003,9.215992370176,3.63782011641024,1480,-37.0,94,P-GPS,
0.31199717909419,36.9075369428928,85600,2018-04-06 13:18:48,1679.1575488330448,30.6000009792,0.0,3.26527010448864,1679.1575488330448,30.6000009792,9.215992370176,3.63782011641024,1480,-37.0,94,P-GPS,
0.311997146408062,36.9075369592255,85700,2018-04-06 13:18:48,1679.4575488426449,30.900000988800002,0.0,3.2625501044016003,1679.4575488426449,30.900000988800002,9.215992370176,3.63782011641024,1472,-37.0,94,P-GPS,
0.311997126130677,36.9075369474986,85800,2018-04-06 13:18:48,1679.7575488522448,31.2000009984,0.0,3.25997010431904,1679.7575488522448,31.2000009984,9.215992370176,3.63782011641024,1464,-37.0,94,P-GPS,
0.311997104068518,36.907536955654,85900,2018-04-06 13:18:48,1680.0575488618447,31.500001007999998,0.0,3.2580201042566403,1680.0575488618447,31.500001007999998,9.215992370176,3.63782011641024,1447,-37.0,94,P-GPS,
0.311997094115468,36.9075369703968,86000,2018-04-06 13:18:48,1680.3575488714448,31.800001017600003,0.0,3.2576001042432,1680.3575488714448,31.800001017600003,9.215992370176,3.63782011641024,1449,-37.0,94,P-GPS,
0.311997073551477,36.9075369871637,86100,2018-04-06 13:18:48,1680.657548881045,32.1000010272,0.0,3.2561501041968,1680.657548881045,32.1000010272,9.215992370176,3.63782011641024,1432,-37.0,94,P-GPS,
0.311997041292002,36.907536974925,86200,2018-04-06 13:18:48,1680.8575488874446,32.3000010336,0.0,3.25232010407424,1680.8575488874446,32.3000010336,9.215992370176,3.63782011641024,1431,-37.0,94,P-GPS,
0.311997011025742,36.907536947862,86300,2018-04-06 13:18:48,1681.1575488970448,32.6000010432,0.0,3.2480801039385603,1681.1575488970448,32.6000010432,9.215992370176,3.63782011641024,1431,-37.0,94,P-GPS,
0.311996989689868,36.9075369367866,86400,2018-04-06 13:18:48,1681.457548906645,32.9000010528,0.0,3.2454201038534403,1681.457548906645,32.9000010528,9.215992370176,3.63782011641024,1431,-36.8,94,P-GPS,
0.311996972040792,36.9075369195834,86500,2018-04-06 13:18:49,1681.6575489130446,33.100001059200004,0.0,3.2428901037724804,1681.6575489130446,33.100001059200004,9.215992370176,3.63782011641024,1429,-34.9,94,P-GPS,
0.311996958677781,36.9075368817405,86600,2018-04-06 13:18:49,1681.9575489226447,33.4000010688,0.0,3.23997010367904,1681.9575489226447,33.4000010688,9.215992370176,3.63782011641024,1431,-32.4,94,P-GPS,
0.311996942419396,36.9075368607126,86700,2018-04-06 13:18:49,1682.2575489322448,33.7000010784,0.0,3.2374301035977604,1682.2575489322448,33.7000010784,9.215992370176,3.63782011641024,1439,-29.5,94,P-GPS,
0.311996924359952,36.9075368476789,86800,2018-04-06 13:18:49,1682.4575489386448,33.9000010848,0.0,3.2350301035209603,1682.4575489386448,33.9000010848,9.215992370176,3.63782011641024,1435,-28.8,94,P-GPS,
0.311996897966132,36.9075368235746,86900,2018-04-06 13:18:49,1682.7575489482447,34.2000010944,0.0,3.2313201034022403,1682.7575489482447,34.2000010944,9.215992370176,3.63782011641024,1436,-28.8,94,P-GPS,
0.311996851174422,36.9075367752969,87000,2018-04-06 13:18:49,1683.0575489578448,34.500001104,0.0,3.22452010318464,1683.0575489578448,34.500001104,9.215992370176,3.63782011641024,1436,-28.8,94,P-GPS,
0.311996798308616,36.907536737902,87100,2018-04-06 13:18:49,1683.357548967445,34.800001113600004,0.0,3.21753010296096,1683.357548967445,34.800001113600004,9.215992370176,3.63782011641024,1432,-28.8,94,P-GPS,
0.311996745742444,36.9075367131489,87200,2018-04-06 13:18:49,1683.5575489738446,35.00000112,0.0,3.21108010275456,1683.5575489738446,35.00000112,9.215992370176,3.63782011641024,1441,-28.8,94,P-GPS,
0.311996690394889,36.9075366905071,87300,2018-04-06 13:18:49,1683.8575489834448,35.300001129600005,0.0,3.2044301025417603,1683.8575489834448,35.300001129600005,9.215992370176,3.63782011641024,1446,-28.8,94,P-GPS,
0.311996643730198,36.9075366739682,87400,2018-04-06 13:18:49,1684.057548989845,35.500001136,0.0,3.19893010236576,1684.057548989845,35.500001136,9.215992370176,3.63782011641024,1448,-28.8,94,P-GPS,
0.311996588063468,36.9075366610845,87500,2018-04-06 13:18:49,1684.3575489994446,35.8000011456,0.0,3.1926401021644804,1684.3575489994446,35.8000011456,9.215992370176,3.63782011641024,1446,-28.8,94,P-GPS,
0.311996538063724,36.9075366429392,87600,2018-04-06 13:18:50,1684.6575490090447,36.1000011552,0.0,3.1867301019753604,1684.6575490090447,36.1000011552,9.215992370176,3.63782011641024,1450,-28.8,94,P-GPS,
0.311996474183123,36.907536616418,87700,2018-04-06 13:18:50,1684.8575490154449,36.3000011616,0.0,3.17904010172928,1684.8575490154449,36.3000011616,9.215992370176,3.63782011641024,1455,-28.8,94,P-GPS,
0.311996403479341,36.9075365945095,87800,2018-04-06 13:18:50,1685.157549025045,36.6000011712,0.0,3.1708301014665605,1685.157549025045,36.6000011712,9.215992370176,3.63782011641024,1455,-28.8,94,P-GPS,
0.311996323923338,36.9075365945893,87900,2018-04-06 13:18:50,1685.4575490346447,36.900001180800004,0.0,3.1625901012028805,1685.4575490346447,36.900001180800004,9.215992370176,3.63782011641024,1466,-28.8,94,P-GPS,
0.311996263468983,36.9075365977139,88000,2018-04-06 13:18:50,1685.7575490442448,37.2000011904,0.0,3.15646010100672,1685.7575490442448,37.2000011904,9.215992370176,3.63782011641024,1480,-28.8,94,P-GPS,
0.311996157825308,36.9075366236462,88200,2018-04-06 13:18:50,1686.2575490602446,37.7000012064,0.0,3.1465901006908803,1686.2575490602446,37.7000012064,9.215992370176,3.63782011641024,1489,-28.8,94,P-GPS,
0.311996123445598,36.9075366369818,88300,2018-04-06 13:18:50,1686.5575490698448,38.000001216,0.0,3.1435801005945603,1686.5575490698448,38.000001216,9.215992370176,3.63782011641024,1502,-28.8,94,P-GPS,
0.311996106079871,36.9075366409254,88400,2018-04-06 13:18:50,1686.9575490826448,38.4000012288,0.0,3.1419501005424,1686.9575490826448,38.4000012288,9.215992370176,3.63782011641024,1507,-28.8,94,P-GPS,
0.31199606677249,36.9075366501289,88500,2018-04-06 13:18:51,1687.2575490922447,38.7000012384,0.0,3.1382601004243202,1687.2575490922447,38.7000012384,9.215992370176,3.63782011641024,1509,-28.8,94,P-GPS,
0.311996021042526,36.9075366477136,88600,2018-04-06 13:18:51,1687.5575491018449,39.000001248000004,0.0,3.1334401002700805,1687.5575491018449,39.000001248000004,9.215992370176,3.63782011641024,1515,-28.8,94,P-GPS,
0.31199596091386,36.9075366399308,88700,2018-04-06 13:18:51,1687.857549111445,39.3000012576,0.0,3.12691010006112,1687.857549111445,39.3000012576,9.215992370176,3.63782011641024,1525,-28.8,94,P-GPS,
0.311995901609186,36.9075366327282,88800,2018-04-06 13:18:51,1688.1575491210447,39.60000126720001,0.0,3.1204900998556804,1688.1575491210447,39.60000126720001,9.215992370176,3.63782011641024,1522,-28.8,94,P-GPS,
0.311995829648246,36.9075366349883,88900,2018-04-06 13:18:51,1688.5575491338448,40.00000128,0.0,3.1131500996208,1688.5575491338448,40.00000128,9.215992370176,3.63782011641024,1523,-28.8,94,P-GPS,
0.311995766011911,36.9075366437036,89000,2018-04-06 13:18:51,1688.8575491434447,40.3000012896,0.0,3.1069500994224004,1688.8575491434447,40.3000012896,9.215992370176,3.63782011641024,1524,-28.8,94,P-GPS,
0.311995698503137,36.9075366594727,89100,2018-04-06 13:18:51,1689.1575491530448,40.6000012992,0.0,3.1006400992204797,1689.1575491530448,40.6000012992,9.215992370176,3.63782011641024,1534,-28.8,94,P-GPS,
0.311995640400255,36.9075366727317,89200,2018-04-06 13:18:51,1689.5575491658449,41.000001312,0.0,3.0952000990464,1689.5575491658449,41.000001312,9.215992370176,3.63782011641024,1527,-28.8,94,P-GPS,
0.3119955742952,36.9075366960796,89300,2018-04-06 13:18:51,1689.8575491754448,41.30000132160001,0.0,3.0893700988598405,1689.8575491754448,41.30000132160001,9.215992370176,3.63782011641024,1505,-28.8,94,P-GPS,
0.311995519634848,36.9075367151938,89400,2018-04-06 13:18:51,1690.2575491882449,41.7000013344,0.0,3.0845500987056003,1690.2575491882449,41.7000013344,9.215992370176,3.63782011641024,1491,-28.8,94,P-GPS,
0.311995490062305,36.9075367273774,89500,2018-04-06 13:18:52,1690.557549197845,42.000001344,0.0,3.08202009862464,1690.557549197845,42.000001344,9.215992370176,3.63782011641024,1511,-28.8,94,P-GPS,
0.311995462131234,36.9075367379871,89700,2018-04-06 13:18:52,1691.2575492202448,42.7000013664,0.0,3.07959009854688,1691.2575492202448,42.7000013664,9.215992370176,3.63782011641024,1512,-28.8,94,P-GPS,
0.311995434597503,36.9075367498308,89800,2018-04-06 13:18:52,1691.5575492298447,43.000001376,0.0,3.07726009847232,1691.5575492298447,43.000001376,9.215992370176,3.63782011641024,1499,-28.8,94,P-GPS,
0.311995425132986,36.9075367649559,89900,2018-04-06 13:18:52,1691.8575492394448,43.300001385600005,0.0,3.07693009846176,1691.8575492394448,43.300001385600005,9.215992370176,3.63782011641024,1482,-28.8,94,P-GPS,
0.311995437121591,36.907536784205,90000,2018-04-06 13:18:52,1692.157549249045,43.6000013952,0.0,3.0789800985273605,1692.157549249045,43.6000013952,9.215992370176,3.63782011641024,1495,-28.8,94,P-GPS,
0.311995464655322,36.9075368011201,90100,2018-04-06 13:18:52,1692.457549258645,43.9000014048,0.0,3.08253009864096,1692.457549258645,43.9000014048,9.215992370176,3.63782011641024,1546,-28.8,94,P-GPS,
0.311995488052805,36.9075368164663,90200,2018-04-06 13:18:52,1692.7575492682447,44.2000014144,0.0,3.08558009873856,1692.7575492682447,44.2000014144,9.215992370176,3.63782011641024,1601,-28.8,94,P-GPS,
0.311995515192453,36.9075368406584,90300,2018-04-06 13:18:52,1693.0575492778448,44.500001424,0.0,3.0894000988608,1693.0575492778448,44.500001424,9.215992370176,3.63782011641024,1622,-28.8,94,P-GPS,
0.311995544690088,36.9075368601162,90400,2018-04-06 13:18:52,1693.4575492906447,44.900001436800004,0.0,3.09326009898432,1693.4575492906447,44.900001436800004,9.215992370176,3.63782011641024,1646,-28.8,94,P-GPS,
0.311995604486551,36.9075368576458,90500,2018-04-06 13:18:53,1693.7575493002448,45.2000014464,0.0,3.0993000991776003,1693.7575493002448,45.2000014464,9.215992370176,3.63782011641024,1680,-28.8,94,P-GPS,
0.311995686166045,36.9075368327401,90600,2018-04-06 13:18:53,1694.157549313045,45.6000014592,0.0,3.10664009941248,1694.157549313045,45.6000014592,9.215992370176,3.63782011641024,1684,-28.8,94,P-GPS,
0.311995760038779,36.907536804325,90700,2018-04-06 13:18:53,1694.6575493290447,46.1000014752,0.0,3.11304009961728,1694.6575493290447,46.1000014752,9.215992370176,3.63782011641024,1684,-28.8,94,P-GPS,
0.311995783713098,36.9075368001715,90800,2018-04-06 13:18:53,1695.0575493418446,46.500001487999995,0.0,3.1153100996899203,1695.0575493418446,46.500001487999995,9.215992370176,3.63782011641024,1684,-28.8,94,P-GPS,
0.311995778306663,36.9075368142142,90900,2018-04-06 13:18:53,1695.557549357845,47.000001504000004,0.0,3.1153400996908798,1695.557549357845,47.000001504000004,9.215992370176,3.63782011641024,1684,-28.8,94,P-GPS,
0.311995746933061,36.9075368435838,91000,2018-04-06 13:18:53,1696.0575493738447,47.500001520000005,0.0,3.1133500996272003,1696.0575493738447,47.500001520000005,9.215992370176,3.63782011641024,1684,-28.8,94,P-GPS,
0.311995675454141,36.9075368761251,91100,2018-04-06 13:18:53,1696.5575493898448,48.000001536000006,0.0,3.10738009943616,1696.5575493898448,48.000001536000006,9.215992370176,3.63782011641024,1684,-28.8,94,P-GPS,
0.311995584922425,36.9075369062056,91200,2018-04-06 13:18:53,1697.0575494058448,48.50000155200001,0.0,3.0993500991792002,1697.0575494058448,48.50000155200001,9.215992370176,3.63782011641024,1684,-28.8,94,P-GPS,
0.311995492615706,36.9075369264937,91300,2018-04-06 13:18:53,1697.6575494250449,49.1000015712,0.0,3.0907500989040004,1697.6575494250449,49.1000015712,9.215992370176,3.63782011641024,1684,-28.8,94,P-GPS,
0.311995418677834,36.9075369487705,91400,2018-04-06 13:18:53,1698.1575494410447,49.600001587200005,0.0,3.08412009869184,1698.1575494410447,49.600001587200005,9.215992370176,3.63782011641024,1684,-28.8,94,P-GPS,
0.311995369104742,36.9075369586003,91500,2018-04-06 13:18:53,1698.657549457045,50.1000016032,0.0,3.07946009854272,1698.657549457045,50.1000016032,9.215992370176,3.63782011641024,1684,-28.8,94,P-GPS,
0.311995345866846,36.9075369693337,91600,2018-04-06 13:18:54,1699.1575494730448,50.6000016192,0.0,3.07754009848128,1699.1575494730448,50.6000016192,9.215992370176,3.63782011641024,1684,-28.8,94,P-GPS,
0.311995330474794,36.9075369796218,91700,2018-04-06 13:18:54,1699.6575494890446,51.1000016352,0.0,3.07641009844512,1699.6575494890446,51.1000016352,9.215992370176,3.63782011641024,1684,-28.8,94,P-GPS,
0.311995307966441,36.9075370029322,91800,2018-04-06 13:18:54,1700.157549505045,51.6000016512,0.0,3.0751200984038403,1700.157549505045,51.6000016512,9.215992370176,3.63782011641024,1684,-28.8,94,P-GPS,
0.311995296463112,36.9075370153315,91900,2018-04-06 13:18:54,1700.6575495210448,52.1000016672,0.0,3.07448009838336,1700.6575495210448,52.1000016672,9.215992370176,3.63782011641024,1684,-28.8,94,P-GPS,
0.311995312236221,36.907537037823,92000,2018-04-06 13:18:54,1701.1575495370448,52.6000016832,0.0,3.07707009846624,1701.1575495370448,52.6000016832,9.215992370176,3.63782011641024,1684,-28.8,94,P-GPS,
0.311995324762212,36.9075370576593,92100,2018-04-06 13:18:54,1701.6575495530449,53.1000016992,0.0,3.0792100985347206,1701.6575495530449,53.1000016992,9.215992370176,3.63782011641024,1684,-28.8,94,P-GPS,
0.31199534514056,36.9075370426621,92200,2018-04-06 13:18:54,1702.157549569045,53.6000017152,0.0,3.0806500985808003,1702.157549569045,53.6000017152,9.215992370176,3.63782011641024,1684,-28.8,94,P-GPS,
0.311995383744454,36.9075370054519,92300,2018-04-06 13:18:54,1702.6575495850448,54.1000017312,0.0,3.0829900986556797,1702.6575495850448,54.1000017312,9.215992370176,3.63782011641024,1684,-28.8,94,P-GPS,
0.311995417831043,36.9075369512457,92400,2018-04-06 13:18:54,1703.157549601045,54.6000017472,0.0,3.0841400986924805,1703.157549601045,54.6000017472,9.215992370176,3.63782011641024,1684,-28.8,94,P-GPS,
0.311995440186323,36.9075369190037,92500,2018-04-06 13:18:55,1703.6575496170449,55.1000017632,0.0,3.0850500987216,1703.6575496170449,55.1000017632,9.215992370176,3.63782011641024,1684,-28.8,94,P-GPS,
0.31199542852015,36.9075369197119,92600,2018-04-06 13:18:55,1704.2575496362447,55.7000017824,0.0,3.08388009868416,1704.2575496362447,55.7000017824,9.215992370176,3.63782011641024,1684,-28.8,94,P-GPS,
0.311995431506716,36.9075369342958,92700,2018-04-06 13:18:55,1704.757549652245,56.2000017984,0.0,3.08481009871392,1704.757549652245,56.2000017984,9.215992370176,3.63782011641024,1684,-28.8,94,P-GPS,
0.311995456356772,36.9075369564928,92800,2018-04-06 13:18:55,1705.2575496682448,56.700001814400004,0.0,3.0883200988262405,1705.2575496682448,56.700001814400004,9.215992370176,3.63782011641024,1684,-28.8,94,P-GPS,
0.311995475986035,36.9075369841435,92900,2018-04-06 13:18:55,1705.7575496842446,57.200001830400005,0.0,3.0915200989286404,1705.7575496842446,57.200001830400005,9.215992370176,3.63782011641024,1684,-28.8,94,P-GPS,
0.311995495556675,36.907537006878,93000,2018-04-06 13:18:55,1706.257549700245,57.700001846400006,0.0,3.094500099024,1706.257549700245,57.700001846400006,9.215992370176,3.63782011641024,1684,-28.8,94,P-GPS,
0.311995506170873,36.9075370259483,93100,2018-04-06 13:18:55,1706.7575497162447,58.2000018624,0.0,3.09642009908544,1706.7575497162447,58.2000018624,9.215992370176,3.63782011641024,1684,-28.8,94,P-GPS,
0.311995506089451,36.9075370336342,93200,2018-04-06 13:18:55,1707.2575497322448,58.7000018784,0.0,3.09674009909568,1707.2575497322448,58.7000018784,9.215992370176,3.63782011641024,1684,-28.8,94,P-GPS,
0.311995492397494,36.9075370528404,93300,2018-04-06 13:18:55,1707.7575497482449,59.2000018944,0.0,3.09617009907744,1707.7575497482449,59.2000018944,9.215992370176,3.63782011641024,1684,-28.8,94,P-GPS,
0.311995480386091,36.907537087699,93400,2018-04-06 13:18:55,1708.257549764245,59.700001910400005,0.0,3.0964500990864003,1708.257549764245,59.700001910400005,9.215992370176,3.63782011641024,1684,-28.8,94,P-GPS,
0.311995464655322,36.9075371237755,93500,2018-04-06 13:18:55,1708.7575497802447,60.2000019264,0.0,3.0964100990851198,1708.7575497802447,60.2000019264,9.215992370176,3.63782011641024,1684,-28.8,94,P-GPS,
0.311995459418246,36.9075371519289,93600,2018-04-06 13:18:56,1709.2575497962446,60.7000019424,0.0,3.0971000991072,1709.2575497962446,60.7000019424,9.215992370176,3.63782011641024,1684,-28.8,94,P-GPS,
0.311995462000958,36.9075371823889,93700,2018-04-06 13:18:56,1709.7575498122449,61.2000019584,0.0,3.0987000991584,1709.7575498122449,61.2000019584,9.215992370176,3.63782011641024,1684,-28.8,94,P-GPS,
0.311995505519496,36.9075372212409,93900,2018-04-06 13:18:56,1710.7575498442447,62.200001990400004,0.0,3.1048500993552,1710.7575498442447,62.200001990400004,9.215992370176,3.63782011641024,1684,-28.8,94,P-GPS,
0.311995552552215,36.907537256055,94000,2018-04-06 13:18:56,1711.2575498602448,62.7000020064,0.0,3.1111800995577603,1711.2575498602448,62.7000020064,9.215992370176,3.63782011641024,1684,-28.8,94,P-GPS,
0.311995596341074,36.9075372666771,94100,2018-04-06 13:18:56,1711.7575498762449,63.2000020224,0.0,3.11612009971584,1711.7575498762449,63.2000020224,9.215992370176,3.63782011641024,1684,-28.8,94,P-GPS,
0.311995623174575,36.9075372397063,94200,2018-04-06 13:18:56,1712.357549895445,63.8000020416,0.0,3.11768009976576,1712.357549895445,63.8000020416,9.215992370176,3.63782011641024,1684,-28.8,94,P-GPS,
0.311995654189919,36.9075372070542,94300,2018-04-06 13:18:56,1712.857549911445,64.3000020576,0.0,3.11943009982176,1712.857549911445,64.3000020576,9.215992370176,3.63782011641024,1684,-28.8,94,P-GPS,
0.311995689582521,36.9075372025576,94400,2018-04-06 13:18:56,1713.3575499274448,64.8000020736,0.0,3.1228500999312003,1713.3575499274448,64.8000020736,9.215992370176,3.63782011641024,1684,-28.8,94,P-GPS,
0.311995709456051,36.907537200084,94500,2018-04-06 13:18:57,1713.8575499434446,65.3000020896,0.0,3.1247800999929605,1713.8575499434446,65.3000020896,9.215992370176,3.63782011641024,1684,-28.8,94,P-GPS,
0.311995710700183,36.9075372037058,94600,2018-04-06 13:18:57,1714.357549959445,65.8000021056,0.0,3.1250701000022403,1714.357549959445,65.8000021056,9.215992370176,3.63782011641024,1684,-28.8,94,P-GPS,
0.311995707514946,36.9075372085214,94700,2018-04-06 13:18:57,1714.8575499754447,66.3000021216,0.0,3.1249500999984003,1714.8575499754447,66.3000021216,9.215992370176,3.63782011641024,1684,-28.8,94,P-GPS,
0.311995716718912,36.9075372116723,94800,2018-04-06 13:18:57,1715.3575499914448,66.8000021376,0.0,3.1260301000329602,1715.3575499914448,66.8000021376,9.215992370176,3.63782011641024,1684,-28.8,94,P-GPS,
0.311995711866148,36.9075372113259,94900,2018-04-06 13:18:57,1715.9575500106448,67.4000021568,0.0,3.12552010001664,1715.9575500106448,67.4000021568,9.215992370176,3.63782011641024,1684,-28.8,94,P-GPS,
0.311995688533803,36.9075372032053,95000,2018-04-06 13:18:57,1716.357550023445,67.8000021696,0.0,3.12278009992896,1716.357550023445,67.8000021696,9.215992370176,3.63782011641024,1684,-28.8,94,P-GPS,
0.311995685723108,36.9075371879651,95100,2018-04-06 13:18:57,1716.8575500394447,68.3000021856,0.0,3.1218200998982404,1716.8575500394447,68.3000021856,9.215992370176,3.63782011641024,1684,-28.8,94,P-GPS,
0.311995722672503,36.9075371771514,95200,2018-04-06 13:18:57,1717.357550055445,68.8000022016,0.0,3.1251401000044803,1717.357550055445,68.8000022016,9.215992370176,3.63782011641024,1684,-28.8,94,P-GPS,
0.311995760839973,36.9075371620601,95300,2018-04-06 13:18:57,1717.8575500714448,69.30000221760001,0.0,3.12839010010848,1717.8575500714448,69.30000221760001,9.215992370176,3.63782011641024,1684,-28.8,94,P-GPS,
0.31199578516567,36.9075371415562,95400,2018-04-06 13:18:57,1718.3575500874447,69.80000223360001,0.0,3.13000010016,1718.3575500874447,69.80000223360001,9.215992370176,3.63782011641024,1684,-28.8,94,P-GPS,
0.311995813350778,36.9075371163331,95500,2018-04-06 13:18:57,1718.957550106645,70.40000225280001,0.0,3.1318001002176,1718.957550106645,70.40000225280001,9.215992370176,3.63782011641024,1684,-28.8,94,P-GPS,
0.311995846903238,36.907537099289,95600,2018-04-06 13:18:58,1719.4575501226448,70.90000226880001,0.0,3.13451010030432,1719.4575501226448,70.90000226880001,9.215992370176,3.63782011641024,1684,-28.8,94,P-GPS,
0.31199587978478,36.9075370883623,95700,2018-04-06 13:18:58,1719.9575501386446,71.40000228480001,0.0,3.13741010039712,1719.9575501386446,71.40000228480001,9.215992370176,3.63782011641024,1684,-28.8,94,P-GPS,
0.311995891255539,36.9075370862077,95800,2018-04-06 13:18:58,1720.4575501546449,71.9000023008,0.0,3.138500100432,1720.4575501546449,71.9000023008,9.215992370176,3.63782011641024,1684,-28.8,94,P-GPS,
0.311995887604568,36.9075370865101,95900,2018-04-06 13:18:58,1720.9575501706447,72.4000023168,0.0,3.1381401004204803,1720.9575501706447,72.4000023168,9.215992370176,3.63782011641024,1684,-28.8,94,P-GPS,
0.311995879452577,36.9075370916186,96000,2018-04-06 13:18:58,1721.4575501866448,72.9000023328,0.0,3.13752010040064,1721.4575501866448,72.9000023328,9.215992370176,3.63782011641024,1684,-28.8,94,P-GPS,
0.311995872977884,36.9075370836553,96100,2018-04-06 13:18:58,1721.9575502026448,73.4000023488,0.0,3.1365101003683202,1721.9575502026448,73.4000023488,9.215992370176,3.63782011641024,1684,-28.8,94,P-GPS,
0.311995875808119,36.9075370620081,96200,2018-04-06 13:18:58,1722.4575502186449,73.9000023648,0.0,3.1358801003481602,1722.4575502186449,73.9000023648,9.215992370176,3.63782011641024,1684,-28.8,94,P-GPS,
0.31199586168951,36.9075370349591,96300,2018-04-06 13:18:58,1722.9575502346447,74.4000023808,0.0,3.1332701002646406,1722.9575502346447,74.4000023808,9.215992370176,3.63782011641024,1684,-28.8,94,P-GPS,
0.311995821118456,36.9075370294759,96400,2018-04-06 13:18:58,1723.457550250645,74.9000023968,0.0,3.12887010012384,1723.457550250645,74.9000023968,9.215992370176,3.63782011641024,1684,-28.8,94,P-GPS,
0.311995777531524,36.9075370340886,96500,2018-04-06 13:18:59,1723.9575502666448,75.4000024128,0.0,3.12459009998688,1723.9575502666448,75.4000024128,9.215992370176,3.63782011641024,1551,-28.8,94,P-GPS,
0.311995745763839,36.9075370430818,96600,2018-04-06 13:18:59,1724.4575502826447,75.90000242880001,0.0,3.12172009989504,1724.4575502826447,75.90000242880001,9.215992370176,3.63782011641024,1045,-28.8,94,P-GPS,
0.311995708830729,36.9075370395333,96700,2018-04-06 13:18:59,1724.9575502986447,76.4000024448,0.0,3.11778009976896,1724.9575502986447,76.4000024448,9.215992370176,3.63782011641024,1024,-28.8,94,P-GPS,
0.31199569324652,36.9075370278791,96800,2018-04-06 13:18:59,1725.4575503146448,76.9000024608,0.0,3.11568009970176,1725.4575503146448,76.9000024608,9.215992370176,3.63782011641024,1024,-28.8,94,P-GPS,
0.311995721330665,36.9075369981455,96900,2018-04-06 13:18:59,1725.8575503274449,77.3000024736,0.0,3.1172900997532804,1725.8575503274449,77.3000024736,9.215992370176,3.63782011641024,1024,-28.8,93,P-GPS,
0.311995779641988,36.9075369708406,97000,2018-04-06 13:18:59,1726.2575503402447,77.70000248640001,0.0,3.12211009990752,1726.2575503402447,77.70000248640001,9.215992370176,3.63782011641024,1024,-28.8,93,P-GPS,
0.311995856263534,36.9075369436235,97100,2018-04-06 13:18:59,1726.4575503466447,77.9000024928,0.0,3.1288301001225602,1726.4575503466447,77.9000024928,9.215992370176,3.63782011641024,1024,-28.8,93,P-GPS,
0.311995960350418,36.9075369299871,97200,2018-04-06 13:18:59,1726.6575503530448,78.1000024992,0.35999970196000003,3.1389501004464004,1726.6575503530448,78.1000024992,9.215992370176,3.63782011641024,1023,-28.8,93,P-GPS,
0.311996087287627,36.9075369099447,97300,2018-04-06 13:18:59,1726.7575503562448,78.20000250240001,0.35999970196000003,3.15118010083776,1726.7575503562448,78.20000250240001,9.215992370176,3.63782011641024,825,-28.8,93,P-GPS,
0.311996207440739,36.9075368982332,97400,2018-04-06 13:18:59,1726.8575503594448,78.3000025056,0.35999970196000003,3.16306010121792,1726.8575503594448,78.3000025056,9.215992370176,3.63782011641024,694,-28.8,93,P-GPS,
0.311996315546622,36.9075368848731,97500,2018-04-06 13:18:59,1726.8575503594448,78.3000025056,0.35999970196000003,3.1736501015568,1726.8575503594448,78.3000025056,9.215992370176,3.63782011641024,694,-28.8,93,P-GPS,
0.311996440360341,36.9075368607072,97600,2018-04-06 13:19:00,1726.8575503594448,78.3000025056,0.35999970196000003,3.1855301019369597,1726.8575503594448,78.3000025056,9.215992370176,3.63782011641024,624,-28.8,93,P-GPS,
0.311996556022204,36.9075368241078,97700,2018-04-06 13:19:00,1726.7575503562448,78.20000250240001,0.35999970196000003,3.1959701022710405,1726.8575503594448,78.3000025056,9.215992370176,3.63782011641024,601,-28.8,93,P-GPS,
0.311996649511174,36.9075367844753,97800,2018-04-06 13:19:00,1726.6575503530448,78.1000024992,0.35999970196000003,3.20401010252832,1726.8575503594448,78.3000025056,9.215992370176,3.63782011641024,583,-28.8,93,P-GPS,
0.311996707907176,36.907536753351,97900,2018-04-06 13:19:00,1726.4575503466447,77.9000024928,0.0,3.2087901026812804,1726.8575503594448,78.3000025056,9.215992370176,3.63782011641024,561,-28.8,93,P-GPS,
0.311996753917233,36.9075367230617,98000,2018-04-06 13:19:00,1726.3575503434447,77.8000024896,0.0,3.21233010279456,1726.8575503594448,78.3000025056,9.215992370176,3.63782011641024,554,-28.8,93,P-GPS,
0.311996768521118,36.9075366677897,98100,2018-04-06 13:19:00,1726.157550337045,77.6000024832,0.0,3.21161010277152,1726.8575503594448,78.3000025056,9.215992370176,3.63782011641024,561,-28.8,93,P-GPS,
0.311996763394777,36.9075365803143,98200,2018-04-06 13:19:00,1725.9575503306448,77.4000024768,0.0,3.20757010264224,1726.8575503594448,78.3000025056,9.215992370176,3.63782011641024,575,-28.8,93,P-GPS,
0.311996732864709,36.9075364960469,98300,2018-04-06 13:19:00,1725.757550324245,77.20000247040001,0.0,3.20104010243328,1726.8575503594448,78.3000025056,9.215992370176,3.63782011641024,589,-28.8,93,P-GPS,
0.311996684187261,36.9075364681922,98400,2018-04-06 13:19:00,1725.5575503178447,77.000002464,0.0,3.19488010223616,1726.8575503594448,78.3000025056,9.215992370176,3.63782011641024,634,-28.8,93,P-GPS,
0.311996615808897,36.9075364380362,98500,2018-04-06 13:19:01,1725.357550311445,76.8000024576,0.0,3.1865801019705597,1726.8575503594448,78.3000025056,9.215992370176,3.63782011641024,683,-28.8,93,P-GPS,
0.311996522828002,36.9075363979793,98600,2018-04-06 13:19:01,1725.1575503050449,76.6000024512,0.35999970196000003,3.17533010161056,1726.8575503594448,78.3000025056,9.215992370176,3.63782011641024,727,-28.8,93,P-GPS,
0.311996433312435,36.9075363340463,98700,2018-04-06 13:19:01,1725.057550301845,76.500002448,0.35999970196000003,3.163500101232,1726.8575503594448,78.3000025056,9.215992370176,3.63782011641024,790,-28.8,93,P-GPS,
0.31199636342939,36.9075362571977,98800,2018-04-06 13:19:01,1724.9575502986447,76.4000024448,0.35999970196000003,3.1532001009024,1726.8575503594448,78.3000025056,9.215992370176,3.63782011641024,847,-28.8,93,P-GPS,
0.31199627925512,36.9075361901107,98900,2018-04-06 13:19:01,1724.7575502922448,76.2000024384,0.35999970196000003,3.1418001005376004,1726.8575503594448,78.3000025056,9.215992370176,3.63782011641024,904,-28.8,93,P-GPS,
0.311996174028325,36.9075361471569,99000,2018-04-06 13:19:01,1724.7575502922448,76.2000024384,0.35999970196000003,3.12917010013344,1726.8575503594448,78.3000025056,9.215992370176,3.63782011641024,924,-28.8,93,P-GPS,
0.311996048576257,36.9075360792696,99100,2018-04-06 13:19:01,1724.6575502890448,76.1000024352,0.35999970196000003,3.1134500996304,1726.8575503594448,78.3000025056,9.215992370176,3.63782011641024,954,-28.8,93,P-GPS,
0.311995932946962,36.9075360127166,99200,2018-04-06 13:19:01,1724.6575502890448,76.1000024352,0.35999970196000003,3.0988100991619203,1726.8575503594448,78.3000025056,9.215992370176,3.63782011641024,948,-28.8,93,P-GPS,
0.311995838998771,36.907535952785,99300,2018-04-06 13:19:01,1724.6575502890448,76.1000024352,0.35999970196000003,3.0866900987740804,1726.8575503594448,78.3000025056,9.215992370176,3.63782011641024,888,-28.8,93,P-GPS,
0.311995765158607,36.9075359107043,99400,2018-04-06 13:19:01,1724.6575502890448,76.1000024352,0.35999970196000003,3.07736009847552,1726.8575503594448,78.3000025056,9.215992370176,3.63782011641024,744,-28.8,93,P-GPS,
0.311995681658512,36.9075358682559,99500,2018-04-06 13:19:01,1724.6575502890448,76.1000024352,0.35999970196000003,3.0670100981443205,1726.8575503594448,78.3000025056,9.215992370176,3.63782011641024,666,-28.8,93,P-GPS,
0.311995577985254,36.9075358465005,99600,2018-04-06 13:19:02,1724.6575502890448,76.1000024352,0.35999970196000003,3.05536009777152,1726.8575503594448,78.3000025056,9.215992370176,3.63782011641024,622,-28.8,93,P-GPS,
0.311995464127706,36.9075358130693,99700,2018-04-06 13:19:02,1724.5575502858446,76.000002432,0.35999970196000003,3.0422000973504,1726.8575503594448,78.3000025056,9.215992370176,3.63782011641024,619,-28.8,93,P-GPS,
0.311995348055475,36.9075357723589,99800,2018-04-06 13:19:02,1724.4575502826447,75.90000242880001,0.35999970196000003,3.0285200969126405,1726.8575503594448,78.3000025056,9.215992370176,3.63782011641024,647,-28.8,93,P-GPS,
0.311995255791095,36.9075357260938,99900,2018-04-06 13:19:02,1724.357550279445,75.8000024256,0.35999970196000003,3.01711009654752,1726.8575503594448,78.3000025056,9.215992370176,3.63782011641024,707,-28.8,93,P-GPS,
