latitude,longitude,time_millisecond,datetime_utc,altitude_m,ascent_m,speed_kph,distance_m,max_altitude_m,max_ascent_m,max_speed_kph,max_distance_m,rc_throttle,gimbal_pitch_degrees,battery_percent,flycState,message
0.313731088879726,36.8862339340429,0,2018-03-30 07:45:19,1779.279842136963,0.0,0.0,0.0,1779.279842136963,0.0,0.0,0.0,364,0.0,99,Motors_Started,
0.313731060877817,36.88623388983179,100,2018-03-30 07:45:19,1779.279842136963,0.0,0.0,0.005819670186229441,1779.279842136963,0.0,0.0,0.005819670186229441,364,0.0,99,Motors_Started,
0.31373104146757896,36.8862338343967,200,2018-03-30 07:45:19,1779.279842136963,0.0,0.0,0.012271500392688001,1779.279842136963,0.0,0.0,0.012271500392688001,364,0.0,99,Motors_Started,
0.31373102856623103,36.8862338004076,300,2018-03-30 07:45:19,1779.279842136963,0.0,0.0,0.016304300521737602,1779.279842136963,0.0,0.0,0.016304300521737602,364,0.0,99,Motors_Started,
0.313731020758656,36.8862337528594,400,2018-03-30 07:45:19,1779.279842136963,0.0,0.0,0.021525500688816004,1779.279842136963,0.0,0.0,0.021525500688816004,364,0.0,99,Motors_Started,
0.313730981413007,36.8862337222705,500,2018-03-30 07:45:19,1779.279842136963,0.0,0.0,0.0264089008450848,1779.279842136963,0.0,0.0,0.0264089008450848,364,0.0,99,Motors_Started,
0.313730951193972,36.8862336785305,600,2018-03-30 07:45:19,1779.279842136963,0.0,0.0,0.032277001032864,1779.279842136963,0.0,0.0,0.032277001032864,364,0.0,99,Motors_Started,
0.313730929418418,36.8862336474149,700,2018-03-30 07:45:20,1779.279842136963,0.0,0.0,0.036475101167203205,1779.279842136963,0.0,0.0,0.036475101167203205,364,0.0,99,Motors_Started,
0.31373091466553005,36.886233604475606,800,2018-03-30 07:45:20,1779.279842136963,0.0,0.0,0.04145500132656,1779.279842136963,0.0,0.0,0.04145500132656,364,0.0,99,Motors_Started,
0.31373083770119603,36.88623357123271,900,2018-03-30 07:45:20,1779.279842136963,0.0,0.0,0.0490718015702976,1779.279842136963,0.0,0.0,0.0490718015702976,364,0.0,99,Motors_Started,
0.313730774844072,36.886233529099705,1000,2018-03-30 07:45:20,1779.279842136963,0.0,0.0,0.0569862018235584,1779.279842136963,0.0,0.0,0.0569862018235584,364,0.0,99,Motors_Started,
0.313730693364876,36.886233528761394,1100,2018-03-30 07:45:20,1779.279842136963,0.0,0.0,0.062974502015184,1779.279842136963,0.0,0.0,0.062974502015184,364,0.0,99,Motors_Started,
0.31373055296694896,36.8862335011894,1300,2018-03-30 07:45:20,1779.279842136963,0.0,0.0,0.07660790245145281,1779.279842136963,0.0,0.0,0.07660790245145281,364,0.0,99,Motors_Started,
0.31373049168941497,36.8862334739771,1400,2018-03-30 07:45:20,1779.279842136963,0.0,0.0,0.0838328026826496,1779.279842136963,0.0,0.0,0.0838328026826496,364,0.0,99,Motors_Started,
0.313730420918053,36.886233479888894,1500,2018-03-30 07:45:20,1779.279842136963,0.0,0.0,0.0898241028743712,1779.279842136963,0.0,0.0,0.0898241028743712,364,0.0,99,Assisted_Takeoff,
0.31373036241294605,36.8862334721871,1600,2018-03-30 07:45:20,1779.279842136963,0.0,0.0,0.095731503063408,1779.279842136963,0.0,0.0,0.095731503063408,364,0.0,99,Assisted_Takeoff,
0.313730297855726,36.8862334552675,1700,2018-03-30 07:45:21,1779.279842136963,0.0,0.0,0.10282400329036799,1779.279842136963,0.0,0.0,0.10282400329036799,364,0.0,99,Assisted_Takeoff,
0.313730240003625,36.8862334311385,1800,2018-03-30 07:45:21,1779.279842136963,0.0,0.0,0.109722003511104,1779.279842136963,0.0,0.0,0.109722003511104,369,0.0,99,Assisted_Takeoff,
0.313730178883236,36.886233393744995,1900,2018-03-30 07:45:21,1779.279842136963,0.0,0.0,0.11769000376608,1779.279842136963,0.0,0.0,0.11769000376608,472,0.0,99,Assisted_Takeoff,
0.313730123001552,36.886233355263705,2000,2018-03-30 07:45:21,1779.279842136963,0.0,0.0,0.125219004007008,1779.279842136963,0.0,0.0,0.125219004007008,598,0.0,99,Assisted_Takeoff,
0.31373006259767894,36.886233342667104,2100,2018-03-30 07:45:21,1779.279842136963,0.0,0.0,0.13172000421504,1779.279842136963,0.0,0.0,0.13172000421504,655,0.0,99,Assisted_Takeoff,
0.313730008841928,36.8862333239949,2200,2018-03-30 07:45:21,1779.279842136963,0.0,0.0,0.137942004414144,1779.279842136963,0.0,0.0,0.137942004414144,915,0.0,99,Assisted_Takeoff,
0.313729986902717,36.8862333285182,2300,2018-03-30 07:45:21,1779.279842136963,0.0,0.0,0.139828004474496,1779.279842136963,0.0,0.0,0.139828004474496,1024,0.0,99,Assisted_Takeoff,
0.313729963729959,36.8862333225164,2400,2018-03-30 07:45:21,1779.279842136963,0.0,0.0,0.14241000455712,1779.279842136963,0.0,0.0,0.14241000455712,1024,0.0,99,Assisted_Takeoff,
0.31372993481286404,36.8862333364063,2500,2018-03-30 07:45:21,1779.279842136963,0.0,0.0,0.14452600462483198,1779.279842136963,0.0,0.0,0.14452600462483198,1024,0.0,99,Assisted_Takeoff,
0.31372990270971896,36.8862333375004,2600,2018-03-30 07:45:21,1779.279842136963,0.0,0.0,0.147651004724832,1779.279842136963,0.0,0.0,0.147651004724832,1024,0.0,99,Assisted_Takeoff,
0.313729896911644,36.886233319592705,2700,2018-03-30 07:45:22,1779.279842136963,0.0,0.0,0.149129004772128,1779.279842136963,0.0,0.0,0.149129004772128,1024,0.0,99,Assisted_Takeoff,
0.31372988691218395,36.8862332950783,2800,2018-03-30 07:45:22,1779.279842136963,0.0,0.0,0.15137900484412803,1779.279842136963,0.0,0.0,0.15137900484412803,1024,0.0,99,Assisted_Takeoff,
0.31372989865896506,36.886233251699,2900,2018-03-30 07:45:22,1779.279842136963,0.0,0.0,0.152567004882144,1779.279842136963,0.0,0.0,0.152567004882144,1024,0.0,99,Assisted_Takeoff,
0.31372990124086303,36.886233209558505,3000,2018-03-30 07:45:22,1779.279842136963,0.0,0.0,0.154706004950592,1779.279842136963,0.0,0.0,0.154706004950592,1024,0.0,99,Assisted_Takeoff,
0.313729885507651,36.8862331867956,3100,2018-03-30 07:45:22,1779.279842136963,0.0,0.0,0.15752300504073602,1779.279842136963,0.0,0.0,0.15752300504073602,1024,0.0,99,Assisted_Takeoff,
0.31372986596550895,36.8862331632608,3200,2018-03-30 07:45:22,1779.279842136963,0.0,0.0,0.16075400514412802,1779.279842136963,0.0,0.0,0.16075400514412802,1024,0.0,99,Assisted_Takeoff,
0.313729862022232,36.88623315892921,3300,2018-03-30 07:45:22,1779.279842136963,0.0,0.0,0.161382005164224,1779.279842136963,0.0,0.0,0.161382005164224,1024,0.0,99,Assisted_Takeoff,
0.313729855704683,36.8862331472458,3400,2018-03-30 07:45:22,1779.279842136963,0.0,0.0,0.16267100520547198,1779.279842136963,0.0,0.0,0.16267100520547198,1024,0.0,99,Assisted_Takeoff,
0.313729862119938,36.88623311835379,3500,2018-03-30 07:45:22,1779.279842136963,0.0,0.0,0.16382700524246402,1779.279842136963,0.0,0.0,0.16382700524246402,1024,0.0,99,Assisted_Takeoff,
0.313729863966594,36.8862330848176,3600,2018-03-30 07:45:22,1779.279842136963,0.0,0.0,0.16575200530406403,1779.279842136963,0.0,0.0,0.16575200530406403,1024,0.0,99,Assisted_Takeoff,
0.31372983952853495,36.8862330710605,3700,2018-03-30 07:45:23,1779.279842136963,0.0,0.0,0.16885700540342402,1779.279842136963,0.0,0.0,0.16885700540342402,1024,0.0,99,Assisted_Takeoff,
0.31372981554969703,36.886233052950395,3800,2018-03-30 07:45:23,1779.279842136963,0.0,0.0,0.172196005510272,1779.279842136963,0.0,0.0,0.172196005510272,1115,0.0,99,Assisted_Takeoff,
0.313729801254401,36.886233053165604,3900,2018-03-30 07:45:23,1779.279842136963,0.0,0.0,0.173492005551744,1779.279842136963,0.0,0.0,0.173492005551744,1684,0.0,99,Assisted_Takeoff,
0.313729790880399,36.886233044486296,4000,2018-03-30 07:45:23,1779.279842136963,0.0,0.0,0.17498900559964803,1779.279842136963,0.0,0.0,0.17498900559964803,1684,0.0,99,Assisted_Takeoff,
0.31372975826348,36.8862330164604,4100,2018-03-30 07:45:23,1779.279842136963,0.0,0.0,0.17974400575180802,1779.279842136963,0.0,0.0,0.17974400575180802,1684,0.0,99,Assisted_Takeoff,
0.31372973267004,36.8862329791246,4200,2018-03-30 07:45:23,1779.279842136963,0.0,0.0,0.184453005902496,1779.279842136963,0.0,0.0,0.184453005902496,1684,0.0,99,Assisted_Takeoff,
0.313729721941037,36.8862329617725,4300,2018-03-30 07:45:23,1779.279842136963,0.0,0.0,0.186541005969312,1779.279842136963,0.0,0.0,0.186541005969312,1684,0.0,99,Assisted_Takeoff,
0.313729718945514,36.8862329608497,4400,2018-03-30 07:45:23,1779.279842136963,0.0,0.0,0.18687200597990403,1779.279842136963,0.0,0.0,0.18687200597990403,1684,0.0,99,Assisted_Takeoff,
0.313729773258192,36.886232951999105,4500,2018-03-30 07:45:23,1779.279842136963,0.0,0.35999970196000003,0.18256900584220803,1779.279842136963,0.0,0.35999970196000003,0.18687200597990403,1684,0.0,99,P-GPS,Obstacle Avoided. Revise Flight Route
0.313729894279265,36.88623291249,4600,2018-03-30 07:45:23,1779.3798421401632,0.10000000320000002,0.35999970196000003,0.17479600559347197,1779.3798421401632,0.10000000320000002,0.35999970196000003,0.18687200597990403,1684,0.0,99,P-GPS,
0.313730056781691,36.8862328272068,4700,2018-03-30 07:45:24,1779.4798421433632,0.20000000640000004,0.35999970196000003,0.16829500538544,1779.4798421433632,0.20000000640000004,0.35999970196000003,0.18687200597990403,1684,0.0,99,P-GPS,
0.31373018806765995,36.886232719676705,4800,2018-03-30 07:45:24,1779.5798421465631,0.3000000096,0.35999970196000003,0.16814200538054402,1779.5798421465631,0.3000000096,0.35999970196000003,0.18687200597990403,1684,0.0,99,P-GPS,
0.313730284092932,36.886232535289004,4900,2018-03-30 07:45:24,1779.679842149763,0.4000000128000001,0.35999970196000003,0.17945700574262402,1779.679842149763,0.4000000128000001,0.35999970196000003,0.18687200597990403,1684,0.0,99,P-GPS,Setting new Return-To-Home altitude to 45m (148 ft). Setting new Maximum Flight Altitude to 150m (492 ft)
0.313730287413329,36.8862322835033,5000,2018-03-30 07:45:24,1779.8798421561632,0.6000000192,0.35999970196000003,0.204043006529376,1779.8798421561632,0.6000000192,0.35999970196000003,0.204043006529376,1684,0.0,99,P-GPS,Home Point Recorded. RTH Altitude:  45m.
0.31373009874262203,36.886232140413604,5100,2018-03-30 07:45:24,1780.1798421657631,0.9000000288000001,0.7199994039200001,0.22783400729068803,1780.1798421657631,0.9000000288000001,0.7199994039200001,0.22783400729068803,1684,0.0,99,P-GPS,
0.31372986083591,36.88623200605021,5200,2018-03-30 07:45:24,1780.479842175363,1.2000000384,0.503999582744,0.254201008134432,1780.479842175363,1.2000000384,0.7199994039200001,0.254201008134432,1684,0.0,99,P-GPS,
0.31372957523614503,36.8862317736904,5300,2018-03-30 07:45:24,1780.8798421881631,1.6000000512000003,1.151999046272,0.293342009386944,1780.8798421881631,1.6000000512000003,1.151999046272,0.293342009386944,1672,0.0,99,P-GPS,
0.313729340599349,36.886231406860205,5400,2018-03-30 07:45:24,1781.279842200963,2.000000064,1.475998778036,0.341729010935328,1781.279842200963,2.000000064,1.475998778036,0.341729010935328,1653,0.0,99,P-GPS,
0.313729141097861,36.8862309841548,5500,2018-03-30 07:45:24,1781.6798422137633,2.4000000768,1.2959989270560002,0.39310101257923197,1781.6798422137633,2.4000000768,1.475998778036,0.39310101257923197,1610,0.0,99,P-GPS,
0.313728912391044,36.8862306480055,5600,2018-03-30 07:45:24,1782.1798422297632,2.9000000928,0.7919993443119999,0.43831001402591996,1782.1798422297632,2.9000000928,1.475998778036,0.43831001402591996,1577,0.0,99,P-GPS,
0.31372871388290596,36.8862304300216,5700,2018-03-30 07:45:25,1782.6798422457632,3.4000001088000005,0.7919993443119999,0.470737015063584,1782.6798422457632,3.4000001088000005,1.475998778036,0.470737015063584,1522,0.0,99,P-GPS,
0.31372850827475296,36.8862301700544,5800,2018-03-30 07:45:25,1783.079842258563,3.8000001215999997,0.7919993443119999,0.507503016240096,1783.079842258563,3.8000001215999997,1.475998778036,0.507503016240096,1487,0.0,99,P-GPS,
0.313728411603804,36.886229840564205,5900,2018-03-30 07:45:25,1783.579842274563,4.3000001376,0.7919993443119999,0.543932017405824,1783.579842274563,4.3000001376,1.475998778036,0.543932017405824,1522,0.0,99,P-GPS,
0.31372835404075106,36.8862294846026,6000,2018-03-30 07:45:25,1783.9798422873632,4.700000150400001,0.7199994039200001,0.5807930185853761,1783.9798422873632,4.700000150400001,1.475998778036,0.5807930185853761,1559,0.0,99,P-GPS,
0.313728417852958,36.886229029995796,6100,2018-03-30 07:45:25,1784.3798423001633,5.1000001632,0.7199994039200001,0.6209980198719361,1784.3798423001633,5.1000001632,1.475998778036,0.6209980198719361,1558,0.0,99,P-GPS,
0.313728480844428,36.8862285969271,6200,2018-03-30 07:45:25,1784.7798423129632,5.500000176000001,1.07999910588,0.66058502113872,1784.7798423129632,5.500000176000001,1.475998778036,0.66058502113872,1526,0.0,99,P-GPS,
0.31372862097854803,36.8862281213987,6300,2018-03-30 07:45:25,1785.1798423257633,5.9000001888,1.475998778036,0.702241022471712,1785.1798423257633,5.9000001888,1.475998778036,0.702241022471712,1505,0.0,99,P-GPS,
0.313728699463849,36.8862276492181,6400,2018-03-30 07:45:25,1785.479842335363,6.2000001984,1.475998778036,0.747708023926656,1785.479842335363,6.2000001984,1.475998778036,0.747708023926656,1484,0.0,99,P-GPS,
0.313728805088798,36.886227191646796,6500,2018-03-30 07:45:25,1785.879842348163,6.6000002112,1.07999910588,0.7916300253321601,1785.879842348163,6.6000002112,1.475998778036,0.7916300253321601,1490,0.0,99,P-GPS,
0.313728875591466,36.8862268031318,6600,2018-03-30 07:45:25,1786.1798423577632,6.9000002208,0.7199994039200001,0.8303080265698559,1786.1798423577632,6.9000002208,1.475998778036,0.8303080265698559,1507,0.0,99,P-GPS,
0.31372895633216197,36.8862264608277,6700,2018-03-30 07:45:26,1786.579842370563,7.3000002336000005,0.7199994039200001,0.86423002765536,1786.579842370563,7.3000002336000005,1.475998778036,0.86423002765536,1488,0.0,99,P-GPS,
0.313729039675112,36.8862261850244,6800,2018-03-30 07:45:26,1786.8798423801632,7.600000243199999,0.35999970196000003,0.891348028523136,1786.8798423801632,7.600000243199999,1.475998778036,0.891348028523136,1485,0.0,99,P-GPS,
0.313729101235995,36.886226014365896,6900,2018-03-30 07:45:26,1787.1798423897633,7.9000002528,0.7199994039200001,0.9080180290565761,1787.1798423897633,7.9000002528,1.475998778036,0.9080180290565761,1485,0.0,99,P-GPS,
0.313729183088918,36.8862258471782,7000,2018-03-30 07:45:26,1787.4798423993632,8.200000262400001,0.7199994039200001,0.923931029565792,1787.4798423993632,8.200000262400001,1.475998778036,0.923931029565792,1486,0.0,99,P-GPS,
0.313729259294397,36.8862257452859,7100,2018-03-30 07:45:26,1787.779842408963,8.500000272000001,0.35999970196000003,0.933079029858528,1787.779842408963,8.500000272000001,1.475998778036,0.933079029858528,1487,0.0,99,P-GPS,
0.31372930369799396,36.8862256601847,7200,2018-03-30 07:45:26,1788.1798424217634,8.9000002848,0.0,0.941263030120416,1788.1798424217634,8.9000002848,1.475998778036,0.941263030120416,1488,0.0,99,P-GPS,
0.31372931359649103,36.8862255849971,7300,2018-03-30 07:45:26,1788.479842431363,9.2000002944,0.0,0.9492080303746561,1788.479842431363,9.2000002944,1.475998778036,0.9492080303746561,1485,0.0,99,P-GPS,
0.31372935062567897,36.886225512051396,7400,2018-03-30 07:45:26,1788.7798424409632,9.500000304,0.0,0.9563040306017281,1788.7798424409632,9.500000304,1.475998778036,0.9563040306017281,1482,0.0,99,P-GPS,
0.313729352123848,36.886225461917796,7500,2018-03-30 07:45:26,1789.079842450563,9.8000003136,0.0,0.9617310307753921,1789.079842450563,9.8000003136,1.475998778036,0.9617310307753921,1481,0.0,99,P-GPS,
0.31372936114461303,36.8862254364956,7600,2018-03-30 07:45:26,1789.4798424633632,10.2000003264,0.0,0.9643000308576,1789.4798424633632,10.2000003264,1.475998778036,0.9643000308576,1481,0.0,99,P-GPS,
0.313729325577768,36.886225448828796,7700,2018-03-30 07:45:26,1789.7798424729633,10.500000336,0.0,0.9637530308400961,1789.7798424729633,10.500000336,1.475998778036,0.9643000308576,1482,0.0,99,P-GPS,
0.31372930963204404,36.8862254657676,7800,2018-03-30 07:45:27,1790.079842482563,10.800000345599999,0.0,0.9622720307927041,1790.079842482563,10.800000345599999,1.475998778036,0.9643000308576,1481,0.0,99,P-GPS,
0.31372929554111795,36.886225502840006,7900,2018-03-30 07:45:27,1790.379842492163,11.1000003552,0.0,0.958562030673984,1790.379842492163,11.1000003552,1.475998778036,0.9643000308576,1478,0.0,99,P-GPS,
0.313729312301878,36.8862255024461,8000,2018-03-30 07:45:27,1790.6798425017632,11.4000003648,0.0,0.958219030663008,1790.6798425017632,11.4000003648,1.475998778036,0.9643000308576,1475,0.0,99,P-GPS,
0.31372934237760997,36.8862254713304,8100,2018-03-30 07:45:27,1790.9798425113631,11.700000374400002,0.0,0.960924030749568,1790.9798425113631,11.700000374400002,1.475998778036,0.9643000308576,1479,0.0,99,P-GPS,
0.313729373425523,36.886225427312,8200,2018-03-30 07:45:27,1791.3798425241632,12.1000003872,0.0,0.9650300308809601,1791.3798425241632,12.1000003872,1.475998778036,0.9650300308809601,1479,0.0,99,P-GPS,
0.313729368858552,36.8862253842079,8300,2018-03-30 07:45:27,1791.6798425337633,12.4000003968,0.0,0.969829031034528,1791.6798425337633,12.4000003968,1.475998778036,0.969829031034528,1479,0.0,99,P-GPS,
0.313729378941877,36.8862253641494,8400,2018-03-30 07:45:27,1791.979842543363,12.700000406400001,0.0,0.971796031097472,1791.979842543363,12.700000406400001,1.475998778036,0.971796031097472,1479,0.0,99,P-GPS,
0.313729411969979,36.8862253835399,8500,2018-03-30 07:45:27,1792.2798425529631,13.000000416,0.0,0.9689680310069761,1792.2798425529631,13.000000416,1.475998778036,0.971796031097472,1478,0.0,99,P-GPS,
0.313729448035942,36.8862253971664,8600,2018-03-30 07:45:27,1792.579842562563,13.3000004256,0.0,0.9667160309349121,1792.579842562563,13.3000004256,1.475998778036,0.971796031097472,1472,0.0,99,P-GPS,
0.313729490552172,36.8862253844113,8700,2018-03-30 07:45:28,1792.9798425753631,13.7000004384,0.0,0.9672290309513281,1792.9798425753631,13.7000004384,1.475998778036,0.971796031097472,1470,0.0,99,P-GPS,
0.31372952995156,36.8862253804138,8800,2018-03-30 07:45:28,1793.2798425849633,14.000000448,0.0,0.9668710309398721,1793.2798425849633,14.000000448,1.475998778036,0.971796031097472,1462,0.0,99,P-GPS,
0.31372957338623303,36.886225396339896,8900,2018-03-30 07:45:28,1793.5798425945632,14.300000457600001,0.0,0.9642720308567041,1793.5798425945632,14.300000457600001,1.475998778036,0.971796031097472,1451,0.0,99,P-GPS,
0.31372960615134005,36.8862254283098,9000,2018-03-30 07:45:28,1793.879842604163,14.600000467200001,0.0,0.9601400307244801,1793.879842604163,14.600000467200001,1.475998778036,0.971796031097472,1436,0.0,99,P-GPS,
0.31372963384547303,36.886225451276104,9100,2018-03-30 07:45:28,1794.1798426137632,14.9000004768,0.0,0.957098030627136,1794.1798426137632,14.9000004768,1.475998778036,0.971796031097472,1438,0.0,99,P-GPS,
0.313729660268605,36.886225493594395,9200,2018-03-30 07:45:28,1794.479842623363,15.200000486399999,0.0,0.9519660304629121,1794.479842623363,15.200000486399999,1.475998778036,0.971796031097472,1452,0.0,99,P-GPS,
0.31372965721283,36.886225594471895,9300,2018-03-30 07:45:28,1794.7798426329632,15.500000496,0.0,0.9409640301108482,1794.7798426329632,15.500000496,1.475998778036,0.971796031097472,1460,0.0,99,P-GPS,
0.313729651287737,36.8862257089522,9400,2018-03-30 07:45:28,1795.0798426425633,15.8000005056,0.0,0.9285330297130561,1795.0798426425633,15.8000005056,1.475998778036,0.971796031097472,1470,0.0,99,P-GPS,
0.31372964555154303,36.886225833678104,9500,2018-03-30 07:45:28,1795.379842652163,16.1000005152,0.0,0.9149850292795201,1795.379842652163,16.1000005152,1.475998778036,0.971796031097472,1475,0.0,99,P-GPS,
0.31372965839101,36.886225960176894,9600,2018-03-30 07:45:28,1795.5798426585632,16.3000005216,0.0,0.900886028828352,1795.5798426585632,16.3000005216,1.475998778036,0.971796031097472,1477,0.0,99,P-GPS,
0.313729666440408,36.8862260960027,9700,2018-03-30 07:45:29,1795.8798426681633,16.6000005312,0.0,0.8858620283475841,1795.8798426681633,16.6000005312,1.475998778036,0.971796031097472,1474,0.0,99,P-GPS,
0.31372967470068996,36.8862262068816,9800,2018-03-30 07:45:29,1796.179842677763,16.900000540799997,0.0,0.8735670279541441,1796.179842677763,16.900000540799997,1.475998778036,0.971796031097472,1470,0.0,99,P-GPS,
0.3137297208320661,36.886226308007394,9900,2018-03-30 07:45:29,1796.579842690563,17.3000005536,0.0,0.8615870275707839,1796.579842690563,17.3000005536,1.475998778036,0.971796031097472,1470,0.0,99,P-GPS,
0.31372978368511895,36.8862264043562,10000,2018-03-30 07:45:29,1796.8798427001632,17.6000005632,0.0,0.8498210271942721,1796.8798427001632,17.6000005632,1.475998778036,0.971796031097472,1471,0.0,99,P-GPS,
0.313729894556914,36.8862264781734,10100,2018-03-30 07:45:29,1797.179842709763,17.9000005728,0.35999970196000003,0.839696026870272,1797.179842709763,17.9000005728,1.475998778036,0.971796031097472,1471,0.0,99,P-GPS,
0.313730029045219,36.886226543125,10200,2018-03-30 07:45:29,1797.4798427193632,18.2000005824,0.35999970196000003,0.8303100265699201,1797.4798427193632,18.2000005824,1.475998778036,0.971796031097472,1470,0.0,99,P-GPS,
0.313730245358763,36.886226620519096,10300,2018-03-30 07:45:29,1797.7798427289633,18.500000592000003,0.503999582744,0.8186880261980161,1797.7798427289633,18.500000592000003,1.475998778036,0.971796031097472,1471,0.0,99,P-GPS,
0.313730429657912,36.886226704567896,10400,2018-03-30 07:45:29,1798.079842738563,18.800000601600004,0.503999582744,0.80728502583312,1798.079842738563,18.800000601600004,1.475998778036,0.971796031097472,1466,0.0,99,P-GPS,
0.313730606535428,36.886226801963794,10500,2018-03-30 07:45:29,1798.3798427481631,19.1000006112,0.35999970196000003,0.7949310254377921,1798.3798427481631,19.1000006112,1.475998778036,0.971796031097472,1464,0.0,99,P-GPS,
0.313730740185898,36.8862268772616,10600,2018-03-30 07:45:29,1798.6798427577633,19.4000006208,0.0,0.7857030251424961,1798.6798427577633,19.4000006208,1.475998778036,0.971796031097472,1465,0.0,99,P-GPS,
0.313730860987945,36.8862269956453,10700,2018-03-30 07:45:30,1798.9798427673632,19.7000006304,0.35999970196000003,0.7719970247039041,1798.9798427673632,19.7000006304,1.475998778036,0.971796031097472,1464,0.0,99,P-GPS,
0.313730946628629,36.8862271033381,10800,2018-03-30 07:45:30,1799.279842776963,20.00000064,0.35999970196000003,0.7597690243126081,1799.279842776963,20.00000064,1.475998778036,0.971796031097472,1463,0.0,99,P-GPS,
0.31373102891553195,36.8862272595329,10900,2018-03-30 07:45:30,1799.5798427865632,20.3000006496,0.35999970196000003,0.7422650237524799,1799.5798427865632,20.3000006496,1.475998778036,0.971796031097472,1458,0.0,99,P-GPS,
0.313731107434217,36.8862273799883,11000,2018-03-30 07:45:30,1799.879842796163,20.600000659200003,0.35999970196000003,0.7288430233229761,1799.879842796163,20.600000659200003,1.475998778036,0.971796031097472,1458,0.0,99,P-GPS,
0.313731293476615,36.8862275835396,11200,2018-03-30 07:45:30,1800.4798428153633,21.2000006784,0.0,0.7065710226102722,1800.4798428153633,21.2000006784,1.475998778036,0.971796031097472,1452,0.0,99,P-GPS,
0.313731415092884,36.8862276668625,11300,2018-03-30 07:45:30,1800.779842824963,21.500000688,0.0,0.6978820223322241,1800.779842824963,21.500000688,1.475998778036,0.971796031097472,1454,0.0,99,P-GPS,
0.31373150251182896,36.8862277336941,11400,2018-03-30 07:45:30,1801.0798428345631,21.8000006976,0.0,0.6910390221132481,1801.0798428345631,21.8000006976,1.475998778036,0.971796031097472,1458,0.0,99,P-GPS,
0.313731608229599,36.8862277973011,11500,2018-03-30 07:45:30,1801.3798428441632,22.1000007072,0.0,0.684872021915904,1801.3798428441632,22.1000007072,1.475998778036,0.971796031097472,1454,0.0,99,P-GPS,
0.313731678707841,36.8862278549856,11700,2018-03-30 07:45:31,1801.9798428633633,22.700000726400003,0.0,0.6791930217341761,1801.9798428633633,22.700000726400003,1.475998778036,0.971796031097472,1453,0.0,99,P-GPS,
0.313731689843955,36.8862278645834,11800,2018-03-30 07:45:31,1802.279842872963,23.000000735999997,0.0,0.6782510217040321,1802.279842872963,23.000000735999997,1.475998778036,0.971796031097472,1457,0.0,99,P-GPS,
0.31373174605458504,36.886227854735104,11900,2018-03-30 07:45:31,1802.479842879363,23.2000007424,0.0,0.67998502175952,1802.479842879363,23.2000007424,1.475998778036,0.971796031097472,1458,0.0,99,P-GPS,
0.31373179490220504,36.8862278550134,12000,2018-03-30 07:45:31,1802.7798428889632,23.500000752000002,0.0,0.680559021777888,1802.7798428889632,23.500000752000002,1.475998778036,0.971796031097472,1458,0.0,99,P-GPS,
0.313731884425914,36.886227838722206,12100,2018-03-30 07:45:31,1803.0798428985631,23.800000761600003,0.0,0.6835760218744321,1803.0798428985631,23.800000761600003,1.475998778036,0.971796031097472,1459,0.0,99,P-GPS,
0.313731951746603,36.8862278213433,12200,2018-03-30 07:45:31,1803.379842908163,24.100000771199998,0.0,0.686499021967968,1803.379842908163,24.100000771199998,1.475998778036,0.971796031097472,1458,0.0,99,P-GPS,
0.31373200420529807,36.886227826718795,12300,2018-03-30 07:45:31,1803.6798429177632,24.4000007808,0.0,0.6867470219759041,1803.6798429177632,24.4000007808,1.475998778036,0.971796031097472,1459,0.0,99,P-GPS,
0.313732043700765,36.8862278316831,12400,2018-03-30 07:45:31,1803.8798429241633,24.600000787200003,0.0,0.686866021979712,1803.8798429241633,24.600000787200003,1.475998778036,0.971796031097472,1459,0.0,99,P-GPS,
0.31373213913084,36.8862278689664,12500,2018-03-30 07:45:31,1804.179842933763,24.9000007968,0.0,0.6845010219040321,1804.179842933763,24.9000007968,1.475998778036,0.971796031097472,1459,0.0,99,P-GPS,
0.313732219013346,36.8862278890807,12600,2018-03-30 07:45:32,1804.479842943363,25.200000806400006,0.0,0.683874021883968,1804.479842943363,25.200000806400006,1.475998778036,0.971796031097472,1458,0.0,99,P-GPS,
0.313732307467167,36.8862279034094,12700,2018-03-30 07:45:32,1804.7798429529632,25.500000816,0.0,0.6841880218940161,1804.7798429529632,25.500000816,1.475998778036,0.971796031097472,1459,0.0,99,P-GPS,
0.31373239127422303,36.886227902735,12800,2018-03-30 07:45:32,1805.0798429625631,25.800000825599998,0.0,0.6861680219573761,1805.0798429625631,25.800000825599998,1.475998778036,0.971796031097472,1459,0.0,99,P-GPS,
0.313732485434112,36.8862279222807,12900,2018-03-30 07:45:32,1805.379842972163,26.100000835200003,0.0,0.686337021962784,1805.379842972163,26.100000835200003,1.475998778036,0.971796031097472,1459,0.0,99,P-GPS,
0.313732561736484,36.8862279161441,13000,2018-03-30 07:45:32,1805.6798429817632,26.4000008448,0.0,0.6889690220470079,1805.6798429817632,26.4000008448,1.475998778036,0.971796031097472,1459,0.0,99,P-GPS,
0.313732707994367,36.886227786520294,13200,2018-03-30 07:45:32,1806.3798430041631,27.100000867200002,0.0,0.7069460226222721,1806.3798430041631,27.100000867200002,1.475998778036,0.971796031097472,1459,0.0,99,P-GPS,
0.313732733107416,36.886227738099606,13300,2018-03-30 07:45:32,1806.6798430137633,27.4000008768,0.0,0.7128650228116801,1806.6798430137633,27.4000008768,1.475998778036,0.971796031097472,1465,0.0,99,P-GPS,
0.313732801784599,36.8862276376033,13500,2018-03-30 07:45:32,1807.179843029763,27.9000008928,0.0,0.72564002322048,1807.179843029763,27.9000008928,1.475998778036,0.971796031097472,1466,0.0,99,P-GPS,
0.31373291103934897,36.886227488464705,13700,2018-03-30 07:45:33,1807.7798430489631,28.500000912,0.0,0.744869023835808,1807.7798430489631,28.500000912,1.475998778036,0.971796031097472,1475,0.0,99,P-GPS,
0.31373296177922194,36.886227404736,13800,2018-03-30 07:45:33,1808.079843058563,28.800000921600002,0.0,0.7553700241718401,1808.079843058563,28.800000921600002,1.475998778036,0.971796031097472,1482,0.0,99,P-GPS,
0.313733298594365,36.8862272651835,14100,2018-03-30 07:45:33,1808.9798430873632,29.7000009504,0.0,0.781259025000288,1808.9798430873632,29.7000009504,1.475998778036,0.971796031097472,1482,0.0,99,P-GPS,
0.31373340741676303,36.8862273035974,14200,2018-03-30 07:45:33,1809.2798430969633,30.00000096,0.35999970196000003,0.7811160249957121,1809.2798430969633,30.00000096,1.475998778036,0.971796031097472,1481,0.0,99,P-GPS,
0.313733483847782,36.8862273876976,14300,2018-03-30 07:45:33,1809.479843103363,30.200000966400005,0.35999970196000003,0.7751730248055361,1809.479843103363,30.200000966400005,1.475998778036,0.971796031097472,1481,0.0,99,P-GPS,
0.313733499728368,36.8862275043973,14400,2018-03-30 07:45:34,1809.7798431129631,30.500000976,0.35999970196000003,0.763617024435744,1809.7798431129631,30.500000976,1.475998778036,0.971796031097472,1482,0.0,99,P-GPS,
0.313733155438667,36.886227837570296,14700,2018-03-30 07:45:34,1810.7798431449633,31.500001007999998,0.503999582744,0.715847022907104,1810.7798431449633,31.500001007999998,1.475998778036,0.971796031097472,1480,0.0,99,P-GPS,
0.313733053056765,36.8862278845349,14800,2018-03-30 07:45:34,1811.0798431545632,31.800001017600003,0.503999582744,0.7073040226337279,1811.0798431545632,31.800001017600003,1.475998778036,0.971796031097472,1480,0.0,99,P-GPS,
0.313732853233659,36.8862280411066,15100,2018-03-30 07:45:34,1811.9798431833633,32.700001046400004,0.0,0.6840630218900161,1811.9798431833633,32.700001046400004,1.475998778036,0.971796031097472,1478,0.0,99,P-GPS,
0.31373278076301503,36.8862281150662,15400,2018-03-30 07:45:35,1812.8798432121632,33.6000010752,0.0,0.673894021564608,1812.8798432121632,33.6000010752,1.475998778036,0.971796031097472,1476,0.0,99,P-GPS,
0.31373259155980704,36.886228302125105,15900,2018-03-30 07:45:35,1814.3798432601632,35.1000011232,0.0,0.6482050207425601,1814.3798432601632,35.1000011232,1.475998778036,0.971796031097472,1475,0.0,99,P-GPS,
0.31373263291495695,36.8862282436526,16000,2018-03-30 07:45:35,1814.6798432697633,35.40000113280001,0.0,0.6556790209817279,1814.6798432697633,35.40000113280001,1.475998778036,0.971796031097472,1477,0.0,99,P-GPS,
0.31373270203019105,36.8862281265782,16100,2018-03-30 07:45:35,1814.9798432793632,35.7000011424,0.0,0.670268021448576,1814.9798432793632,35.7000011424,1.475998778036,0.971796031097472,1479,0.0,99,P-GPS,
0.313732820491349,36.8862278264361,16400,2018-03-30 07:45:35,1815.8798433081631,36.6000011712,0.0,0.7059640225908479,1815.8798433081631,36.6000011712,1.475998778036,0.971796031097472,1480,0.0,99,P-GPS,
0.3137328071739339,36.8862277572214,16500,2018-03-30 07:45:36,1816.1798433177632,36.900001180800004,0.0,0.7129730228151361,1816.1798433177632,36.900001180800004,1.475998778036,0.971796031097472,1471,0.0,99,P-GPS,
0.31373282118669504,36.8862275209582,16800,2018-03-30 07:45:36,1817.0798433465632,37.800001209600005,0.0,0.7387240236391679,1817.0798433465632,37.800001209600005,1.475998778036,0.971796031097472,1471,0.0,99,P-GPS,
0.313732917553125,36.886227440483,16900,2018-03-30 07:45:36,1817.3798433561633,38.1000012192,0.0,0.7502010240064321,1817.3798433561633,38.1000012192,1.475998778036,0.971796031097472,1471,0.0,99,P-GPS,
0.31373299516150893,36.8862273690736,17000,2018-03-30 07:45:36,1817.6798433657632,38.4000012288,0.0,0.7602090243266881,1817.6798433657632,38.4000012288,1.475998778036,0.971796031097472,1472,0.0,99,P-GPS,
0.31373337753481606,36.8862269787535,17400,2018-03-30 07:45:36,1818.8798434041632,39.60000126719999,0.0,0.8142580260562561,1818.8798434041632,39.60000126719999,1.475998778036,0.971796031097472,1479,0.0,99,P-GPS,
0.313733518098845,36.8862268343074,17600,2018-03-30 07:45:36,1819.479843423363,40.2000012864,0.0,0.83446002670272,1819.479843423363,40.2000012864,1.475998778036,0.971796031097472,1476,0.0,99,P-GPS,
0.31373357456839696,36.886226841371105,17700,2018-03-30 07:45:37,1819.7798434329632,40.500001296,0.0,0.835772026744704,1819.7798434329632,40.500001296,1.475998778036,0.971796031097472,1472,0.0,99,P-GPS,
0.313733639458634,36.8862269346838,17900,2018-03-30 07:45:37,1820.279843448963,41.000001311999995,0.0,0.82843002650976,1820.279843448963,41.000001311999995,1.475998778036,0.971796031097472,1465,0.0,98,P-GPS,
0.313733684164307,36.8862271738643,18200,2018-03-30 07:45:37,1821.079843474563,41.80000133760001,0.0,0.805259025768288,1821.079843474563,41.80000133760001,1.475998778036,0.971796031097472,1465,0.0,98,P-GPS,
0.313733735790867,36.8862272444344,18300,2018-03-30 07:45:37,1821.379843484163,42.1000013472,0.0,0.8000320256010239,1821.379843484163,42.1000013472,1.475998778036,0.971796031097472,1466,0.0,98,P-GPS,
0.313733787158504,36.8862272829382,18400,2018-03-30 07:45:37,1821.6798434937632,42.4000013568,0.0,0.798182025541824,1821.6798434937632,42.4000013568,1.475998778036,0.971796031097472,1470,0.0,98,P-GPS,
0.313734025394976,36.8862273178255,18600,2018-03-30 07:45:37,1822.2798435129632,43.000001376,0.0,0.804967025758944,1822.2798435129632,43.000001376,1.475998778036,0.971796031097472,1470,0.0,98,P-GPS,
0.31373416637100104,36.8862273087972,18700,2018-03-30 07:45:38,1822.5798435225631,43.300001385600005,0.0,0.8123640259956479,1822.5798435225631,43.300001385600005,1.475998778036,0.971796031097472,1470,0.0,98,P-GPS,
0.313734511343834,36.8862273596106,19100,2018-03-30 07:45:38,1823.779843560963,44.500001424,0.0,0.8242400263756802,1823.779843560963,44.500001424,1.475998778036,0.971796031097472,1469,0.0,98,P-GPS,
0.313734558347242,36.886227357486604,19200,2018-03-30 07:45:38,1824.079843570563,44.80000143360001,0.0,0.826876026460032,1824.079843570563,44.80000143360001,1.475998778036,0.971796031097472,1470,0.0,98,P-GPS,
0.313734822773978,36.8862275292071,19600,2018-03-30 07:45:38,1825.1798436057632,45.9000014688,0.0,0.824446026382272,1825.1798436057632,45.9000014688,1.475998778036,0.971796031097472,1471,0.0,98,P-GPS,
0.31373486858862104,36.886227553628295,19700,2018-03-30 07:45:39,1825.4798436153633,46.20000147840001,0.0,0.824687026389984,1825.4798436153633,46.20000147840001,1.475998778036,0.971796031097472,1465,0.0,98,P-GPS,
0.313734977225377,36.8862272118756,20400,2018-03-30 07:45:39,1827.579843682563,48.300001545600004,0.0,0.863588027634816,1827.579843682563,48.300001545600004,1.475998778036,0.971796031097472,1464,0.0,98,P-GPS,
0.31373504464458696,36.886227156678096,20500,2018-03-30 07:45:39,1827.8798436921631,48.6000015552,0.0,0.872662027925184,1827.8798436921631,48.6000015552,1.475998778036,0.971796031097472,1463,0.0,98,P-GPS,
0.31373508248799703,36.886227113472295,20600,2018-03-30 07:45:39,1828.179843701763,48.9000015648,0.0,0.878934028125888,1828.179843701763,48.9000015648,1.475998778036,0.971796031097472,1464,0.0,98,P-GPS,
0.313735200581127,36.886227133199,20700,2018-03-30 07:45:40,1828.3798437081632,49.1000015712,0.0,0.8837640282804481,1828.3798437081632,49.1000015712,1.475998778036,0.971796031097472,1464,0.0,98,P-GPS,
0.313735277262927,36.886227152063896,20800,2018-03-30 07:45:40,1828.679843717763,49.4000015808,0.0,0.8864210283654721,1828.679843717763,49.4000015808,1.475998778036,0.971796031097472,1463,0.0,98,P-GPS,
0.31373536974877503,36.8862272110663,20900,2018-03-30 07:45:40,1828.9798437273632,49.70000159040001,0.0,0.8863270283624641,1828.9798437273632,49.70000159040001,1.475998778036,0.971796031097472,1464,0.0,98,P-GPS,
0.313735422702517,36.886227260926795,21000,2018-03-30 07:45:40,1829.2798437369631,50.000001600000004,0.0,0.884848028315136,1829.2798437369631,50.000001600000004,1.475998778036,0.971796031097472,1465,0.0,98,P-GPS,
0.31373551479265305,36.8862273536271,21100,2018-03-30 07:45:40,1829.479843743363,50.200001606399994,0.0,0.8818950282206401,1829.479843743363,50.200001606399994,1.475998778036,0.971796031097472,1465,0.0,98,P-GPS,
0.31373562470285304,36.8862275392931,21300,2018-03-30 07:45:40,1830.079843762563,50.800001625600004,0.0,0.871854027899328,1830.079843762563,50.800001625600004,1.475998778036,0.971796031097472,1466,0.0,98,P-GPS,
0.313735655498357,36.8862276160866,21400,2018-03-30 07:45:40,1830.3798437721632,51.1000016352,0.0,0.866904027740928,1830.3798437721632,51.1000016352,1.475998778036,0.971796031097472,1466,0.0,98,P-GPS,
0.31373574876097304,36.8862277406037,21600,2018-03-30 07:45:40,1830.979843791363,51.700001654400005,0.0,0.8619160275813121,1830.979843791363,51.700001654400005,1.475998778036,0.971796031097472,1466,0.0,98,P-GPS,
0.31373580889940994,36.886227787705394,21700,2018-03-30 07:45:41,1831.2798438009631,52.000001664,0.0,0.861793027577376,1831.2798438009631,52.000001664,1.475998778036,0.971796031097472,1466,0.0,98,P-GPS,
0.31373583584038695,36.8862278162955,21800,2018-03-30 07:45:41,1831.5798438105633,52.3000016736,0.0,0.861107027555424,1831.5798438105633,52.3000016736,1.475998778036,0.971796031097472,1466,0.0,98,P-GPS,
0.313735904121044,36.8862278156467,21900,2018-03-30 07:45:41,1831.8798438201632,52.600001683200006,0.0,0.8658390277068481,1831.8798438201632,52.600001683200006,1.475998778036,0.971796031097472,1465,0.0,98,P-GPS,
0.3137359416876189,36.886227807471705,22000,2018-03-30 07:45:41,1832.079843826563,52.8000016896,0.0,0.869142027812544,1832.079843826563,52.8000016896,1.475998778036,0.971796031097472,1464,0.0,98,P-GPS,
0.313736071673275,36.8862278246932,22200,2018-03-30 07:45:41,1832.6798438457631,53.400001708800005,0.0,0.8767050280545602,1832.6798438457631,53.400001708800005,1.475998778036,0.971796031097472,1465,0.0,98,P-GPS,
0.31373616549607597,36.8862279207327,22400,2018-03-30 07:45:42,1833.2798438649631,54.00000172800001,0.0,0.875149028004768,1833.2798438649631,54.00000172800001,1.475998778036,0.971796031097472,1467,0.0,98,P-GPS,
0.31373620491744897,36.8862282392322,22800,2018-03-30 07:45:42,1834.379843900163,55.1000017632,0.0,0.8513170272421441,1834.379843900163,55.1000017632,1.475998778036,0.971796031097472,1466,0.0,98,P-GPS,
0.31373619068484804,36.886228367255505,23000,2018-03-30 07:45:42,1834.879843916163,55.6000017792,0.0,0.8397100268707199,1834.879843916163,55.6000017792,1.475998778036,0.971796031097472,1466,0.0,98,P-GPS,
0.313736189439088,36.886228463893396,23100,2018-03-30 07:45:42,1835.1798439257632,55.900001788800004,0.0,0.8317250266152,1835.1798439257632,55.900001788800004,1.475998778036,0.971796031097472,1462,0.0,98,P-GPS,
0.31373620149445897,36.886228599974,23300,2018-03-30 07:45:42,1835.7798439449632,56.50000180800001,0.0,0.8216490262927679,1835.7798439449632,56.50000180800001,1.475998778036,0.971796031097472,1462,0.0,98,P-GPS,
0.313736200462026,36.8862286339159,23400,2018-03-30 07:45:42,1836.0798439545633,56.80000181760001,0.0,0.818848026203136,1836.0798439545633,56.80000181760001,1.475998778036,0.971796031097472,1465,0.0,98,P-GPS,
0.313736218409107,36.8862286999874,23500,2018-03-30 07:45:42,1836.379843964163,57.100001827199996,0.0,0.8149710260790721,1836.379843964163,57.100001827199996,1.475998778036,0.971796031097472,1458,0.0,98,P-GPS,
0.313736259739016,36.8862288266072,23700,2018-03-30 07:45:43,1836.9798439833633,57.7000018464,0.0,0.8082390258636479,1836.9798439833633,57.7000018464,1.475998778036,0.971796031097472,1460,0.0,98,P-GPS,
0.313736293200283,36.886228865865704,23800,2018-03-30 07:45:43,1837.2798439929632,58.000001856,0.0,0.807839025850848,1837.2798439929632,58.000001856,1.475998778036,0.971796031097472,1458,0.0,98,P-GPS,
0.313736374482437,36.886228904559005,24000,2018-03-30 07:45:43,1837.8798440121632,58.60000187520001,0.0,0.811367025963744,1837.8798440121632,58.60000187520001,1.475998778036,0.971796031097472,1459,0.0,98,P-GPS,
0.31373637876035904,36.886228838378294,24200,2018-03-30 07:45:43,1838.4798440313632,59.2000018944,0.0,0.8168000261376,1838.4798440313632,59.2000018944,1.475998778036,0.971796031097472,1461,0.0,98,P-GPS,
0.31373641279972403,36.8862288309527,24400,2018-03-30 07:45:43,1838.979844047363,59.700001910400005,0.0,0.820102026243264,1838.979844047363,59.700001910400005,1.475998778036,0.971796031097472,1457,0.0,98,P-GPS,
0.313736430507424,36.886228842863005,24500,2018-03-30 07:45:43,1839.2798440569632,60.00000192,0.0,0.8206100262595202,1839.2798440569632,60.00000192,1.475998778036,0.971796031097472,1455,0.0,98,P-GPS,
0.313736405753447,36.8862288369395,24600,2018-03-30 07:45:44,1839.5798440665633,60.30000192960001,0.35999970196000003,0.8190750262104001,1839.5798440665633,60.30000192960001,1.475998778036,0.971796031097472,1455,0.0,98,P-GPS,
0.31373641903340804,36.8862288477524,24700,2018-03-30 07:45:44,1839.8798440761632,60.600001939200006,0.0,0.819311026217952,1839.8798440761632,60.600001939200006,1.475998778036,0.971796031097472,1458,0.0,98,P-GPS,
0.31373636517099396,36.8862289180099,25000,2018-03-30 07:45:44,1840.6798441017634,61.400001964800005,0.0,0.8095860259067521,1840.6798441017634,61.400001964800005,1.475998778036,0.971796031097472,1458,0.0,98,P-GPS,
0.31373635500299,36.886229004925795,25100,2018-03-30 07:45:44,1840.979844111363,61.7000019744,0.35999970196000003,0.802131025668192,1840.979844111363,61.7000019744,1.475998778036,0.971796031097472,1462,0.0,98,P-GPS,
0.31373632158569,36.8862291233127,25300,2018-03-30 07:45:44,1841.4798441273633,62.200001990400004,0.0,0.7904530252944961,1841.4798441273633,62.200001990400004,1.475998778036,0.971796031097472,1451,0.0,98,P-GPS,
0.313736318014513,36.886229147766,25400,2018-03-30 07:45:44,1841.7798441369632,62.50000200000001,0.0,0.788322025226304,1841.7798441369632,62.50000200000001,1.475998778036,0.971796031097472,1453,0.0,98,P-GPS,
0.31373637017520195,36.886229158685005,25500,2018-03-30 07:45:44,1842.0798441465631,62.80000200960001,0.0,0.7917960253374722,1842.0798441465631,62.80000200960001,1.475998778036,0.971796031097472,1461,0.0,98,P-GPS,
0.313736389597654,36.886229152839604,25600,2018-03-30 07:45:44,1842.3798441561632,63.100002019200005,0.0,0.793834025402688,1842.3798441561632,63.100002019200005,1.475998778036,0.971796031097472,1461,0.0,98,P-GPS,
0.313736470125838,36.886229190970795,25700,2018-03-30 07:45:45,1842.5798441625632,63.3000020256,0.0,0.7976960255262721,1842.5798441625632,63.3000020256,1.475998778036,0.971796031097472,1464,0.0,98,P-GPS,
0.313736503253274,36.88622922344071,25800,2018-03-30 07:45:45,1842.879844172163,63.600002035200006,0.0,0.798089025538848,1842.879844172163,63.600002035200006,1.475998778036,0.971796031097472,1462,0.0,98,P-GPS,
0.31373659602247195,36.8862292714321,25900,2018-03-30 07:45:45,1843.1798441817632,63.900002044800004,0.0,0.8024420256781439,1843.1798441817632,63.900002044800004,1.475998778036,0.971796031097472,1460,0.0,98,P-GPS,
0.31373661612887,36.8862293133221,26000,2018-03-30 07:45:45,1843.479844191363,64.2000020544,0.0,0.8011540256369281,1843.479844191363,64.2000020544,1.475998778036,0.971796031097472,1460,0.0,98,P-GPS,
0.313736629622157,36.8862293934665,26100,2018-03-30 07:45:45,1843.679844197763,64.4000020608,0.35999970196000003,0.796627025492064,1843.679844197763,64.4000020608,1.475998778036,0.971796031097472,1459,0.0,98,P-GPS,
0.313736596634767,36.8862294951715,26300,2018-03-30 07:45:45,1844.279844216963,65.00000208,0.35999970196000003,0.7866470251727041,1844.279844216963,65.00000208,1.475998778036,0.971796031097472,1446,0.0,98,P-GPS,
0.31373658209439004,36.8862295486989,26500,2018-03-30 07:45:45,1844.8798442361633,65.60000209920001,0.35999970196000003,0.781662025013184,1844.8798442361633,65.60000209920001,1.475998778036,0.971796031097472,1449,0.0,98,P-GPS,
0.313736621118422,36.88622958288921,26700,2018-03-30 07:45:46,1845.479844255363,66.20000211840001,0.35999970196000003,0.782702025046464,1845.479844255363,66.20000211840001,1.475998778036,0.971796031097472,1451,0.0,98,P-GPS,
0.31373662393074503,36.8862295796229,26800,2018-03-30 07:45:46,1845.6798442617633,66.4000021248,0.0,0.7831720250615041,1845.6798442617633,66.4000021248,1.475998778036,0.971796031097472,1454,0.0,98,P-GPS,
0.313736673202575,36.8862295857563,26900,2018-03-30 07:45:46,1845.979844271363,66.7000021344,0.0,0.787067025186144,1845.979844271363,66.7000021344,1.475998778036,0.971796031097472,1452,0.0,98,P-GPS,
0.31373673530491497,36.886229618144796,27100,2018-03-30 07:45:46,1846.5798442905632,67.30000215359999,0.0,0.7903350252907201,1846.5798442905632,67.30000215359999,1.475998778036,0.971796031097472,1452,0.0,98,P-GPS,
0.313736752007865,36.8862296227666,27200,2018-03-30 07:45:46,1846.7798442969633,67.50000216000001,0.0,0.791500025328,1846.7798442969633,67.50000216000001,1.475998778036,0.971796031097472,1453,0.0,98,P-GPS,
0.313736825957136,36.886229622266605,27300,2018-03-30 07:45:46,1847.079844306563,67.8000021696,0.0,0.798092025538944,1847.079844306563,67.8000021696,1.475998778036,0.971796031097472,1448,0.0,98,P-GPS,
0.31373686200111495,36.886229598159105,27400,2018-03-30 07:45:46,1847.3798443161631,68.1000021792,0.0,0.802907025693024,1847.3798443161631,68.1000021792,1.475998778036,0.971796031097472,1435,0.0,98,P-GPS,
0.313736946279606,36.886229617493896,27500,2018-03-30 07:45:46,1847.6798443257633,68.4000021888,0.0,0.809143025892576,1847.6798443257633,68.4000021888,1.475998778036,0.971796031097472,1432,0.0,98,P-GPS,
0.313736978670985,36.886229618817204,27600,2018-03-30 07:45:46,1847.879844332163,68.6000021952,0.0,0.811959025982688,1847.879844332163,68.6000021952,1.475998778036,0.971796031097472,1428,0.0,98,P-GPS,
0.313737037187492,36.886229669310495,27700,2018-03-30 07:45:47,1848.179844341763,68.9000022048,0.0,0.813933026045856,1848.179844341763,68.9000022048,1.475998778036,0.971796031097472,1433,0.0,98,P-GPS,
0.31373705848753897,36.886229681287205,27900,2018-03-30 07:45:47,1848.7798443609631,69.500002224,0.35999970196000003,0.81508502608272,1848.7798443609631,69.500002224,1.475998778036,0.971796031097472,1435,0.0,98,P-GPS,
0.313737027537333,36.8862296638184,28000,2018-03-30 07:45:47,1848.979844367363,69.7000022304,0.35999970196000003,0.813417026029344,1848.979844367363,69.7000022304,1.475998778036,0.971796031097472,1444,0.0,98,P-GPS,
0.313737047901025,36.8862296784062,28100,2018-03-30 07:45:47,1849.2798443769632,70.00000224,0.35999970196000003,0.8143130260580161,1849.2798443769632,70.00000224,1.475998778036,0.971796031097472,1447,0.0,98,P-GPS,
0.313737010409359,36.8862296715384,28200,2018-03-30 07:45:47,1849.579844386563,70.30000224960001,0.35999970196000003,0.81137002596384,1849.579844386563,70.30000224960001,1.475998778036,0.971796031097472,1445,0.0,98,P-GPS,
0.313736971356015,36.886229669076,28400,2018-03-30 07:45:47,1850.0798444025631,70.80000226560001,0.35999970196000003,0.8080100258563201,1850.0798444025631,70.80000226560001,1.475998778036,0.971796031097472,1444,0.0,98,P-GPS,
0.31373698587684995,36.8862297749424,28500,2018-03-30 07:45:47,1850.2798444089633,71.000002272,0.35999970196000003,0.8024750256792,1850.2798444089633,71.000002272,1.475998778036,0.971796031097472,1437,0.0,98,P-GPS,
0.31373695639387106,36.886229857859604,28600,2018-03-30 07:45:48,1850.579844418563,71.3000022816,0.35999970196000003,0.794501025424032,1850.579844418563,71.3000022816,1.475998778036,0.971796031097472,1426,0.0,98,P-GPS,
0.313736995250174,36.8862299413164,28700,2018-03-30 07:45:48,1850.7798444249631,71.500002288,0.35999970196000003,0.792819025370208,1850.7798444249631,71.500002288,1.475998778036,0.971796031097472,1405,0.0,98,P-GPS,
0.31373699581850106,36.8862299886044,28800,2018-03-30 07:45:48,1851.0798444345633,71.8000022976,0.35999970196000003,0.7899390252780479,1851.0798444345633,71.8000022976,1.475998778036,0.971796031097472,1397,0.0,98,P-GPS,
0.313737060666397,36.8862300487951,28900,2018-03-30 07:45:48,1851.279844440963,72.00000230399999,0.35999970196000003,0.792276025352832,1851.279844440963,72.00000230399999,1.475998778036,0.971796031097472,1374,0.0,98,P-GPS,
0.31373707962311403,36.886230093386295,29000,2018-03-30 07:45:48,1851.579844450563,72.3000023136,0.35999970196000003,0.7913560253233921,1851.579844450563,72.3000023136,1.475998778036,0.971796031097472,1359,0.0,98,P-GPS,
0.313737237225552,36.8862302134615,29200,2018-03-30 07:45:48,1851.9798444633632,72.70000232640001,0.0,0.7991720255735041,1851.9798444633632,72.70000232640001,1.475998778036,0.971796031097472,1276,0.0,98,P-GPS,
0.313737562992517,36.886230587913296,29700,2018-03-30 07:45:49,1852.879844492163,73.6000023552,0.35999970196000003,0.81043502593392,1852.879844492163,73.6000023552,1.475998778036,0.971796031097472,1236,0.0,98,P-GPS,
0.313737593581209,36.8862306319595,29800,2018-03-30 07:45:49,1853.0798444985633,73.80000236160001,0.35999970196000003,0.81123002595936,1853.0798444985633,73.80000236160001,1.475998778036,0.971796031097472,1247,0.0,98,P-GPS,
0.313737677025937,36.8862308122651,30000,2018-03-30 07:45:49,1853.2798445049632,74.00000236800001,0.35999970196000003,0.810729025943328,1853.2798445049632,74.00000236800001,1.475998778036,0.971796031097472,1256,0.0,98,P-GPS,
0.31373770731988004,36.886230919671,30100,2018-03-30 07:45:49,1853.3798445081632,74.1000023712,0.35999970196000003,0.8087510258800321,1853.3798445081632,74.1000023712,1.475998778036,0.971796031097472,1233,0.0,98,P-GPS,
0.313737690984958,36.886231005834205,30200,2018-03-30 07:45:49,1853.4798445113631,74.2000023744,0.35999970196000003,0.803166025701312,1853.4798445113631,74.2000023744,1.475998778036,0.971796031097472,1274,0.0,98,P-GPS,
0.313737732420716,36.886231125387,30300,2018-03-30 07:45:49,1853.579844514563,74.30000237760001,0.35999970196000003,0.8021110256675521,1853.579844514563,74.30000237760001,1.475998778036,0.971796031097472,1225,0.0,98,P-GPS,
0.313737813360896,36.8862313650857,30500,2018-03-30 07:45:50,1853.7798445209633,74.500002384,0.35999970196000003,0.800514025616448,1853.7798445209633,74.500002384,1.475998778036,0.971796031097472,1024,0.0,98,P-GPS,
0.31373796028888395,36.886231634913,30700,2018-03-30 07:45:50,1853.979844527363,74.7000023904,0.35999970196000003,0.8057810257849921,1853.979844527363,74.7000023904,1.475998778036,0.971796031097472,1024,0.0,98,P-GPS,
0.313738004605359,36.8862317191021,30800,2018-03-30 07:45:50,1854.0798445305632,74.8000023936,0.35999970196000003,0.8075510258416321,1854.0798445305632,74.8000023936,1.475998778036,0.971796031097472,1024,0.0,98,P-GPS,
0.313738140943576,36.8862318752659,30900,2018-03-30 07:45:50,1854.0798445305632,74.8000023936,0.0,0.816968026142976,1854.0798445305632,74.8000023936,1.475998778036,0.971796031097472,1024,0.0,98,P-GPS,
0.313738240768822,36.886232012190106,31000,2018-03-30 07:45:50,1854.1798445337631,74.9000023968,0.0,0.8235480263535361,1854.1798445337631,74.9000023968,1.475998778036,0.971796031097472,1024,0.0,98,P-GPS,
0.31373841043151596,36.886232204923104,31100,2018-03-30 07:45:50,1854.1798445337631,74.9000023968,0.0,0.836599026771168,1854.1798445337631,74.9000023968,1.475998778036,0.971796031097472,1024,0.0,98,P-GPS,
0.31373865065306106,36.8862325174166,31300,2018-03-30 07:45:50,1854.1798445337631,74.9000023968,0.35999970196000003,0.8555440273774081,1854.1798445337631,74.9000023968,1.475998778036,0.971796031097472,1024,0.0,98,P-GPS,
0.31373873799628305,36.8862326438158,31400,2018-03-30 07:45:50,1854.1798445337631,74.9000023968,0.35999970196000003,0.8626440276046079,1854.1798445337631,74.9000023968,1.475998778036,0.971796031097472,1024,0.0,98,P-GPS,
0.313738965914933,36.8862328509739,31600,2018-03-30 07:45:50,1854.279844536963,75.0000024,0.35999970196000003,0.884216028294912,1854.279844536963,75.0000024,1.475998778036,0.971796031097472,1024,0.0,98,P-GPS,
0.313739147348021,36.886232985758,31700,2018-03-30 07:45:51,1854.279844536963,75.0000024,0.0,0.9023340288746879,1854.279844536963,75.0000024,1.475998778036,0.971796031097472,1024,0.0,98,P-GPS,
0.313739267056568,36.8862330940225,31800,2018-03-30 07:45:51,1854.279844536963,75.0000024,0.0,0.9142480292559361,1854.279844536963,75.0000024,1.475998778036,0.971796031097472,1024,0.0,98,P-GPS,
0.31373945951910703,36.8862332308611,31900,2018-03-30 07:45:51,1854.279844536963,75.0000024,0.0,0.93414502989264,1854.279844536963,75.0000024,1.475998778036,0.971796031097472,1024,0.0,97,P-GPS,High Wind Velocity:Fly with caution and ensure the aircraft remains within your line of sight.
0.313739938460771,36.8862336794084,32200,2018-03-30 07:45:51,1854.279844536963,75.0000024,0.0,0.98453503150512,1854.279844536963,75.0000024,1.475998778036,0.98453503150512,1024,0.0,97,P-GPS,
0.313740130183997,36.886233838601896,32300,2018-03-30 07:45:51,1854.279844536963,75.0000024,0.0,1.005500032176,1854.279844536963,75.0000024,1.475998778036,1.005500032176,1024,0.0,97,P-GPS,
0.31374025706909603,36.8862339532964,32400,2018-03-30 07:45:51,1854.279844536963,75.0000024,0.0,1.0195600326259202,1854.279844536963,75.0000024,1.475998778036,1.0195600326259202,1024,0.0,97,P-GPS,
0.313740454415339,36.8862340902784,32500,2018-03-30 07:45:51,1854.279844536963,75.0000024,0.0,1.0416500333328,1854.279844536963,75.0000024,1.475998778036,1.0416500333328,1024,0.0,97,P-GPS,
0.313740595808245,36.8862341728092,32600,2018-03-30 07:45:51,1854.279844536963,75.0000024,0.0,1.05756003384192,1854.279844536963,75.0000024,1.475998778036,1.05756003384192,1024,0.0,97,P-GPS,
0.313740825247862,36.8862342960266,32700,2018-03-30 07:45:52,1854.1798445337631,74.9000023968,0.0,1.08349003467168,1854.279844536963,75.0000024,1.475998778036,1.08349003467168,1024,0.0,97,P-GPS,
0.31374097845513105,36.886234378234,32800,2018-03-30 07:45:52,1854.1798445337631,74.9000023968,0.0,1.10089003522848,1854.279844536963,75.0000024,1.475998778036,1.10089003522848,1024,0.0,97,P-GPS,
0.31374121500941904,36.886234530970796,32900,2018-03-30 07:45:52,1854.1798445337631,74.9000023968,0.0,1.1280400360972802,1854.279844536963,75.0000024,1.475998778036,1.1280400360972802,1024,0.0,97,P-GPS,
0.313741368631941,36.886234631639496,33000,2018-03-30 07:45:52,1854.1798445337631,74.9000023968,0.0,1.1458000366656,1854.279844536963,75.0000024,1.475998778036,1.1458000366656,1024,0.0,97,P-GPS,
0.31374159921961103,36.886234765556395,33100,2018-03-30 07:45:52,1854.1798445337631,74.9000023968,0.0,1.1724700375190402,1854.279844536963,75.0000024,1.475998778036,1.1724700375190402,1024,0.0,97,P-GPS,
0.313741759030219,36.8862348608732,33200,2018-03-30 07:45:52,1854.0798445305632,74.8000023936,0.0,1.1910500381136,1854.279844536963,75.0000024,1.475998778036,1.1910500381136,1024,0.0,97,P-GPS,
0.313741992848722,36.8862350333228,33300,2018-03-30 07:45:52,1854.0798445305632,74.8000023936,0.0,1.21873003899936,1854.279844536963,75.0000024,1.475998778036,1.21873003899936,1024,0.0,97,P-GPS,
0.31374213933703,36.886235159752005,33400,2018-03-30 07:45:52,1854.0798445305632,74.8000023936,0.0,1.23641003956512,1854.279844536963,75.0000024,1.475998778036,1.23641003956512,1024,0.0,97,P-GPS,
0.31374245144949203,36.8862354047951,33600,2018-03-30 07:45:52,1854.0798445305632,74.8000023936,0.0,1.27413004077216,1854.279844536963,75.0000024,1.475998778036,1.27413004077216,1024,0.0,97,P-GPS,
0.31374266948674395,36.886235512815496,33700,2018-03-30 07:45:53,1854.0798445305632,74.8000023936,0.0,1.299750041592,1854.279844536963,75.0000024,1.475998778036,1.299750041592,1024,0.0,97,P-GPS,
0.313742807376868,36.8862355610424,33800,2018-03-30 07:45:53,1854.1798445337631,74.9000023968,0.0,1.31567004210144,1854.279844536963,75.0000024,1.475998778036,1.31567004210144,1024,0.0,97,P-GPS,
0.31374299348847495,36.8862356330974,33900,2018-03-30 07:45:53,1854.1798445337631,74.9000023968,0.0,1.33728004279296,1854.279844536963,75.0000024,1.475998778036,1.33728004279296,1024,0.0,97,P-GPS,
0.313743265593325,36.8862357106188,34100,2018-03-30 07:45:53,1854.1798445337631,74.9000023968,0.0,1.3684600437907202,1854.279844536963,75.0000024,1.475998778036,1.3684600437907202,1024,0.0,97,P-GPS,
0.31374333498132395,36.8862357154847,34200,2018-03-30 07:45:53,1854.1798445337631,74.9000023968,0.0,1.37617004403744,1854.279844536963,75.0000024,1.475998778036,1.37617004403744,1024,0.0,97,P-GPS,
0.313743531091577,36.8862357819464,34400,2018-03-30 07:45:53,1854.1798445337631,74.9000023968,0.0,1.3988300447625601,1854.279844536963,75.0000024,1.475998778036,1.3988300447625601,1024,0.0,97,P-GPS,
0.313743677570115,36.8862357916646,34500,2018-03-30 07:45:53,1854.1798445337631,74.9000023968,0.503999582744,1.4151000452832,1854.279844536963,75.0000024,1.475998778036,1.4151000452832,1024,0.0,97,P-GPS,
0.313743724500243,36.8862357683103,34600,2018-03-30 07:45:53,1854.1798445337631,74.9000023968,0.503999582744,1.41989004543648,1854.279844536963,75.0000024,1.475998778036,1.41989004543648,1024,0.0,97,P-GPS,
0.313743818876714,36.88623575333221,34700,2018-03-30 07:45:54,1854.1798445337631,74.9000023968,0.503999582744,1.43004004576128,1854.279844536963,75.0000024,1.475998778036,1.43004004576128,1024,0.0,97,P-GPS,
0.3137438259865011,36.88623571028371,34800,2018-03-30 07:45:54,1854.1798445337631,74.9000023968,0.503999582744,1.4301500457648002,1854.279844536963,75.0000024,1.475998778036,1.4301500457648002,1024,0.0,97,P-GPS,
0.313743886957073,36.8862357074226,34900,2018-03-30 07:45:54,1854.1798445337631,74.9000023968,0.503999582744,1.43682004597824,1854.279844536963,75.0000024,1.475998778036,1.43682004597824,1024,0.0,97,P-GPS,
0.31374387013850297,36.8862356808377,35000,2018-03-30 07:45:54,1854.1798445337631,74.9000023968,0.503999582744,1.4345700459062403,1854.279844536963,75.0000024,1.475998778036,1.43682004597824,1024,0.0,97,P-GPS,
0.31374390353626097,36.8862356994071,35100,2018-03-30 07:45:54,1854.1798445337631,74.9000023968,0.503999582744,1.43853004603296,1854.279844536963,75.0000024,1.475998778036,1.43853004603296,1024,0.0,97,P-GPS,
0.313743825869253,36.8862356381158,35200,2018-03-30 07:45:54,1854.1798445337631,74.9000023968,1.2959989270560002,1.4290500457296003,1854.279844536963,75.0000024,1.475998778036,1.43853004603296,1024,0.0,97,P-GPS,
0.313743644188641,36.8862354451098,35300,2018-03-30 07:45:54,1854.0798445305632,74.8000023936,1.2959989270560002,1.4063000450015999,1854.279844536963,75.0000024,1.475998778036,1.43853004603296,1024,0.0,97,P-GPS,
0.313743112964155,36.886234996125104,35400,2018-03-30 07:45:54,1854.0798445305632,74.8000023936,4.103996602344,1.34236004295552,1854.279844536963,75.0000024,4.103996602344,1.43853004603296,1024,0.0,97,P-GPS,
0.31374208506750606,36.886234176384896,35500,2018-03-30 07:45:54,1853.979844527363,74.7000023904,6.407994694888,1.2231400391404799,1854.279844536963,75.0000024,6.407994694888,1.43853004603296,1024,0.0,97,P-GPS,
0.31373846826082,36.8862312179941,35700,2018-03-30 07:45:54,1853.8798445241632,74.6000023872,6.407994694888,0.8744500279824001,1854.279844536963,75.0000024,6.407994694888,1.43853004603296,1024,0.0,97,P-GPS,
0.313735956752354,36.886229085720004,35800,2018-03-30 07:45:55,1853.8798445241632,74.6000023872,13.787988585068,0.7640250244487999,1854.279844536963,75.0000024,13.787988585068,1.43853004603296,1024,0.0,97,P-GPS,
0.31373299724917497,36.8862264100325,35900,2018-03-30 07:45:55,1853.8798445241632,74.6000023872,15.587987094867998,0.8631980276223362,1854.279844536963,75.0000024,15.587987094867998,1.43853004603296,1024,0.0,97,P-GPS,
0.31372608697882803,36.8862201230772,36100,2018-03-30 07:45:55,1853.979844527363,74.7000023904,19.655983727016,1.6334700522710404,1854.279844536963,75.0000024,19.655983727016,1.6334700522710404,1024,0.0,97,P-GPS,
0.31372217227314697,36.8862165354246,36200,2018-03-30 07:45:55,1854.0798445305632,74.8000023936,21.167982475248,2.1741000695712,1854.279844536963,75.0000024,21.167982475248,2.1741000695712,1024,0.0,97,P-GPS,
0.313718053939195,36.8862125500134,36300,2018-03-30 07:45:55,1854.0798445305632,74.8000023936,21.167982475248,2.7849800891193603,1854.279844536963,75.0000024,21.167982475248,2.7849800891193603,1024,0.0,97,P-GPS,
0.313713631892091,36.8862083591431,36400,2018-03-30 07:45:55,1854.1798445337631,74.9000023968,24.443979763084,3.4434401101900804,1854.279844536963,75.0000024,24.443979763084,3.4434401101900804,1024,0.0,97,P-GPS,
0.313709095315402,36.886203840199,36500,2018-03-30 07:45:55,1854.1798445337631,74.9000023968,24.443979763084,4.1450601326419205,1854.279844536963,75.0000024,24.443979763084,4.1450601326419205,1024,0.0,97,P-GPS,
0.313704229191723,36.8861991275766,36600,2018-03-30 07:45:56,1854.1798445337631,74.9000023968,27.251977438372002,4.889140156452481,1854.279844536963,75.0000024,27.251977438372002,4.889140156452481,1024,0.0,97,P-GPS,
0.31369923696215396,36.886194113570205,36700,2018-03-30 07:45:56,1854.1798445337631,74.9000023968,28.799976156800003,5.670600181459201,1854.279844536963,75.0000024,28.799976156800003,5.670600181459201,1024,0.0,97,P-GPS,
0.313688441655155,36.8861834584957,36900,2018-03-30 07:45:56,1854.1798445337631,74.9000023968,31.859973623459997,7.348430235149761,1854.279844536963,75.0000024,31.859973623459997,7.348430235149761,1024,0.0,97,P-GPS,
0.313682647999901,36.8861778270499,37000,2018-03-30 07:45:56,1854.1798445337631,74.9000023968,32.867972788948,8.243080263778559,1854.279844536963,75.0000024,32.867972788948,8.243080263778559,1024,0.0,97,P-GPS,
0.313676803468799,36.8861719841669,37100,2018-03-30 07:45:56,1854.1798445337631,74.9000023968,33.875971954436,9.15988029311616,1854.279844536963,75.0000024,33.875971954436,9.15988029311616,1024,0.0,97,P-GPS,
