latitude,longitude,time_millisecond,datetime_utc,altitude_m,ascent_m,speed_kph,distance_m,max_altitude_m,max_ascent_m,max_speed_kph,max_distance_m,rc_throttle,gimbal_pitch_degrees,battery_percent,flycState,message
0.354659969408578,36.8975917382077,18200,2017-11-15 08:21:29,1770.5020097560614,0.0,0.0,0.0,1770.5020097560614,0.0,0.0,0.0,1024,0.0,99,Motors_Started,
0.354659966718388,36.8975917612555,18300,2017-11-15 08:21:29,1770.5020097560614,0.0,0.0,0.00258041008257312,1770.5020097560614,0.0,0.0,0.00258041008257312,1024,0.0,99,Motors_Started,
0.354659964015171,36.8975917749334,18400,2017-11-15 08:21:29,1770.5020097560614,0.0,0.0,0.00412786013209152,1770.5020097560614,0.0,0.0,0.00412786013209152,1024,0.0,99,Motors_Started,
0.354659967583092,36.8975917892088,18500,2017-11-15 08:21:29,1770.5020097560614,0.0,0.0,0.005675150181604801,1770.5020097560614,0.0,0.0,0.005675150181604801,1024,0.0,99,Motors_Started,
0.354659968623668,36.8975917972297,18600,2017-11-15 08:21:29,1770.5020097560614,0.0,0.0,0.006564060210049921,1770.5020097560614,0.0,0.0,0.006564060210049921,1024,0.0,99,Motors_Started,
0.354659975961436,36.8975918048352,18700,2017-11-15 08:21:29,1770.5020097560614,0.0,0.0,0.007444990238239681,1770.5020097560614,0.0,0.0,0.007444990238239681,1024,0.0,99,Motors_Started,Setting new Return-To-Home altitude to 30m (98 ft). Setting new Maximum Flight Altitude to 150m (492 ft)
0.354659989085066,36.8975918125392,18900,2017-11-15 08:21:29,1770.5020097560614,0.0,0.0,0.00855068027362176,1770.5020097560614,0.0,0.0,0.00855068027362176,1024,0.0,99,Motors_Started,
0.354659993861293,36.8975918145712,19000,2017-11-15 08:21:29,1770.5020097560614,0.0,0.0,0.00891669028533408,1770.5020097560614,0.0,0.0,0.00891669028533408,1024,0.0,99,Motors_Started,
0.354659987855591,36.8975918139973,19100,2017-11-15 08:21:30,1770.5020097560614,0.0,0.0,0.008674180277573761,1770.5020097560614,0.0,0.0,0.00891669028533408,1024,0.0,99,Motors_Started,
0.354659962666819,36.8975918146697,19200,2017-11-15 08:21:30,1770.5020097560614,0.0,0.0,0.00853587027314784,1770.5020097560614,0.0,0.0,0.00891669028533408,1024,0.0,99,Motors_Started,
0.354659934046916,36.8975918089613,19300,2017-11-15 08:21:30,1770.5020097560614,0.0,0.0,0.00879606028147392,1770.5020097560614,0.0,0.0,0.00891669028533408,1024,0.0,99,Motors_Started,
0.354659918827479,36.8975918091925,19400,2017-11-15 08:21:30,1770.5020097560614,0.0,0.0,0.00969287031017184,1770.5020097560614,0.0,0.0,0.00969287031017184,1024,0.0,99,Motors_Started,
0.35465990531465,36.8975918053748,19500,2017-11-15 08:21:30,1770.5020097560614,0.0,0.0,0.010324400330380802,1770.5020097560614,0.0,0.0,0.010324400330380802,1024,0.0,99,Motors_Started,
0.354659896525938,36.897591804681,19600,2017-11-15 08:21:30,1770.5020097560614,0.0,0.0,0.0109697003510304,1770.5020097560614,0.0,0.0,0.0109697003510304,1024,0.0,99,Motors_Started,
0.35465989118627,36.8975918027218,19700,2017-11-15 08:21:30,1770.5020097560614,0.0,0.0,0.0112756003608192,1770.5020097560614,0.0,0.0,0.0112756003608192,1024,0.0,99,Assisted_Takeoff,
0.354659888564475,36.8975918025098,19800,2017-11-15 08:21:30,1770.5020097560614,0.0,0.0,0.0114873003675936,1770.5020097560614,0.0,0.0,0.0114873003675936,1024,0.0,99,Assisted_Takeoff,
0.354659883882699,36.8975918015891,19900,2017-11-15 08:21:30,1770.5020097560614,0.0,0.0,0.011838000378816,1770.5020097560614,0.0,0.0,0.011838000378816,1024,0.0,99,Assisted_Takeoff,
0.354659889298904,36.8975918011887,20000,2017-11-15 08:21:30,1770.5020097560614,0.0,0.0,0.0113321003626272,1770.5020097560614,0.0,0.0,0.011838000378816,1024,0.0,99,Assisted_Takeoff,
0.354659891051109,36.8975918011138,20100,2017-11-15 08:21:31,1770.5020097560614,0.0,0.0,0.011174400357580801,1770.5020097560614,0.0,0.0,0.011838000378816,1024,0.0,99,Assisted_Takeoff,
0.354659897232683,36.8975918418907,20200,2017-11-15 08:21:31,1770.5020097560614,0.0,0.0,0.014048600449555202,1770.5020097560614,0.0,0.0,0.014048600449555202,1024,0.0,99,Assisted_Takeoff,
0.3546599026782,36.897591863157,20300,2017-11-15 08:21:31,1770.5020097560614,0.0,0.0,0.015752300504073603,1770.5020097560614,0.0,0.0,0.015752300504073603,1024,0.0,99,Assisted_Takeoff,
0.354659905303251,36.8975918527872,20400,2017-11-15 08:21:31,1770.5020097560614,0.0,0.0,0.014600400467212801,1770.5020097560614,0.0,0.0,0.015752300504073603,1024,0.0,99,Assisted_Takeoff,
0.354659896910251,36.8975918369659,20500,2017-11-15 08:21:31,1770.5020097560614,0.0,0.0,0.013623900435964802,1770.5020097560614,0.0,0.0,0.015752300504073603,1024,0.0,99,Assisted_Takeoff,
0.354659869685924,36.897591828399,20600,2017-11-15 08:21:31,1770.5020097560614,0.0,0.0,0.014952500478480001,1770.5020097560614,0.0,0.0,0.015752300504073603,1024,0.0,99,Assisted_Takeoff,
0.354659840290882,36.8975918303154,20700,2017-11-15 08:21:31,1770.5020097560614,0.0,0.0,0.0176376005644032,1770.5020097560614,0.0,0.0,0.0176376005644032,1024,0.0,99,Assisted_Takeoff,
0.35465982341206,36.8975918539477,20800,2017-11-15 08:21:31,1770.5020097560614,0.0,0.0,0.020718500662992,1770.5020097560614,0.0,0.0,0.020718500662992,1024,0.0,99,Assisted_Takeoff,
0.354659821765703,36.8975918796356,20900,2017-11-15 08:21:31,1770.5020097560614,0.0,0.0,0.022736000727552,1770.5020097560614,0.0,0.0,0.022736000727552,1024,0.0,99,Assisted_Takeoff,
0.354659843225338,36.8975918938382,21000,2017-11-15 08:21:31,1770.5020097560614,0.0,0.0,0.022280700712982403,1770.5020097560614,0.0,0.0,0.022736000727552,1024,0.0,99,Assisted_Takeoff,
0.3546598590473,36.8975919068545,21100,2017-11-15 08:21:32,1770.5020097560614,0.0,0.0,0.022413000717216,1770.5020097560614,0.0,0.0,0.022736000727552,1024,0.0,99,Assisted_Takeoff,
0.35465984544165,36.8975919137598,21200,2017-11-15 08:21:32,1770.5020097560614,0.0,0.0,0.023899000764768003,1770.5020097560614,0.0,0.0,0.023899000764768003,1024,0.0,99,Assisted_Takeoff,
0.35465983200373,36.8975919185754,21300,2017-11-15 08:21:32,1770.5020097560614,0.0,0.0,0.0252149008068768,1770.5020097560614,0.0,0.0,0.0252149008068768,1024,0.0,99,Assisted_Takeoff,
0.354659824566626,36.8975919208386,21400,2017-11-15 08:21:32,1770.5020097560614,0.0,0.0,0.025921300829481603,1770.5020097560614,0.0,0.0,0.025921300829481603,1024,0.0,99,Assisted_Takeoff,
0.354659818150557,36.8975919214531,21500,2017-11-15 08:21:32,1770.5020097560614,0.0,0.0,0.026423200845542404,1770.5020097560614,0.0,0.0,0.026423200845542404,1024,0.0,99,Assisted_Takeoff,
0.354659814410021,36.8975919219028,21600,2017-11-15 08:21:32,1770.5020097560614,0.0,0.0,0.0267282008553024,1770.5020097560614,0.0,0.0,0.0267282008553024,1024,0.0,99,Assisted_Takeoff,
0.35465981247543,36.8975919331055,21700,2017-11-15 08:21:32,1770.5020097560614,0.0,0.0,0.0278264008904448,1770.5020097560614,0.0,0.0,0.0278264008904448,1024,0.0,99,Assisted_Takeoff,
0.354659810658086,36.8975919622557,21800,2017-11-15 08:21:32,1770.5020097560614,0.0,0.0,0.0305356009771392,1770.5020097560614,0.0,0.0,0.0305356009771392,1024,0.0,99,Assisted_Takeoff,
0.354659811666093,36.8975919928298,21900,2017-11-15 08:21:32,1770.5020097560614,0.0,0.0,0.03330850106587201,1770.5020097560614,0.0,0.0,0.03330850106587201,1024,0.0,99,Assisted_Takeoff,
0.35465981144951,36.8975920099444,22000,2017-11-15 08:21:32,1770.5020097560614,0.0,0.0,0.0349529011184928,1770.5020097560614,0.0,0.0,0.0349529011184928,1024,0.0,99,Assisted_Takeoff,
0.354659813281509,36.8975920247678,22100,2017-11-15 08:21:33,1770.5020097560614,0.0,0.0,0.036289501161264004,1770.5020097560614,0.0,0.0,0.036289501161264004,1024,0.0,99,Assisted_Takeoff,
0.35465981355346,36.8975920336945,22200,2017-11-15 08:21:33,1770.5020097560614,0.0,0.0,0.0371501011888032,1770.5020097560614,0.0,0.0,0.0371501011888032,1024,0.0,99,Assisted_Takeoff,
0.354659816227365,36.8975920378206,22300,2017-11-15 08:21:33,1770.5020097560614,0.0,0.0,0.0374203011974496,1770.5020097560614,0.0,0.0,0.0374203011974496,1024,0.0,99,Assisted_Takeoff,
0.35465981667193,36.8975920398461,22400,2017-11-15 08:21:33,1770.5020097560614,0.0,0.0,0.0375986012031552,1770.5020097560614,0.0,0.0,0.0375986012031552,1024,0.0,99,Assisted_Takeoff,
0.354659818705856,36.8975920506784,22500,2017-11-15 08:21:33,1770.5020097560614,0.0,0.0,0.0385783012345056,1770.5020097560614,0.0,0.0,0.0385783012345056,1024,0.0,99,Assisted_Takeoff,
0.354659819059229,36.8975920783512,22600,2017-11-15 08:21:33,1770.5020097560614,0.0,0.0,0.04135580132338561,1770.5020097560614,0.0,0.0,0.04135580132338561,1024,0.0,99,Assisted_Takeoff,
0.354659820280562,36.8975921072916,22700,2017-11-15 08:21:33,1770.5020097560614,0.0,0.0,0.04426740141655681,1770.5020097560614,0.0,0.0,0.04426740141655681,1025,0.0,99,Assisted_Takeoff,
0.354659820243108,36.8975921233013,22800,2017-11-15 08:21:33,1770.5020097560614,0.0,0.0,0.0459244014695808,1770.5020097560614,0.0,0.0,0.0459244014695808,1076,0.0,99,Assisted_Takeoff,
0.354659821646826,36.8975921360328,22900,2017-11-15 08:21:33,1770.5020097560614,0.0,0.0,0.0471928015101696,1770.5020097560614,0.0,0.0,0.0471928015101696,1165,0.0,99,Assisted_Takeoff,
0.354659822125589,36.8975921435998,23000,2017-11-15 08:21:33,1770.5020097560614,0.0,0.0,0.0479644015348608,1770.5020097560614,0.0,0.0,0.0479644015348608,1199,0.0,99,Assisted_Takeoff,
0.354659823858253,36.8975921592091,23100,2017-11-15 08:21:34,1770.5020097560614,0.0,0.0,0.04953610158515521,1770.5020097560614,0.0,0.0,0.04953610158515521,1292,0.0,99,Assisted_Takeoff,
0.354659823881051,36.8975921906439,23200,2017-11-15 08:21:34,1770.5020097560614,0.0,0.0,0.052851401691244804,1770.5020097560614,0.0,0.0,0.052851401691244804,1346,0.0,99,Assisted_Takeoff,
0.354659825182178,36.8975922191454,23300,2017-11-15 08:21:34,1770.5020097560614,0.0,0.0,0.055835401786732804,1770.5020097560614,0.0,0.0,0.055835401786732804,1373,0.0,99,Assisted_Takeoff,
0.354659824288162,36.8975922378744,23400,2017-11-15 08:21:34,1770.5020097560614,0.0,0.0,0.0578611018515552,1770.5020097560614,0.0,0.0,0.0578611018515552,1394,0.0,99,Assisted_Takeoff,
0.354659823925019,36.8975922562394,23500,2017-11-15 08:21:34,1770.5020097560614,0.0,0.0,0.0598359019147488,1770.5020097560614,0.0,0.0,0.0598359019147488,1418,0.0,99,Assisted_Takeoff,
0.354659813087725,36.8975922849635,23600,2017-11-15 08:21:34,1770.5020097560614,0.0,0.0,0.0632377020236064,1770.5020097560614,0.0,0.0,0.0632377020236064,1424,0.0,99,Assisted_Takeoff,
0.354659800851596,36.8975923401185,23700,2017-11-15 08:21:34,1770.5020097560614,0.0,0.0,0.06951000222432001,1770.5020097560614,0.0,0.0,0.06951000222432001,1426,0.0,99,GPS_Atti,Obstacle Avoided. Revise Flight Route
0.354659803375685,36.8975924145742,23800,2017-11-15 08:21:34,1770.5020097560614,0.0,0.0,0.0774478024783296,1770.5020097560614,0.0,0.0,0.0774478024783296,1446,0.0,99,GPS_Atti,Home Point Recorded. RTH Altitude:  30m.
0.354659802356279,36.8975924619759,23900,2017-11-15 08:21:34,1770.5020097560614,0.0,0.0,0.082602002643264,1770.5020097560614,0.0,0.0,0.082602002643264,1460,0.0,99,GPS_Atti,
0.354659781080658,36.8975924139318,24000,2017-11-15 08:21:34,1770.6020097592614,0.1000000032,0.35999970196000003,0.0780072024962304,1770.6020097592614,0.1000000032,0.35999970196000003,0.082602002643264,1462,0.0,99,GPS_Atti,
0.354659731615043,36.8975922783986,24100,2017-11-15 08:21:35,1770.8020097656613,0.3000000096,0.35999970196000003,0.0656343021002976,1770.8020097656613,0.3000000096,0.35999970196000003,0.082602002643264,1464,0.0,99,GPS_Atti,
0.354659683926061,36.8975921016602,24200,2017-11-15 08:21:35,1770.9020097688615,0.4000000128,0.7199994039200001,0.051395101644643205,1770.9020097688615,0.4000000128,0.7199994039200001,0.082602002643264,1469,0.0,99,GPS_Atti,
0.354659606451209,36.8975919133487,24300,2017-11-15 08:21:35,1771.1020097752614,0.6000000192,0.35999970196000003,0.044816401434124804,1771.1020097752614,0.6000000192,0.7199994039200001,0.082602002643264,1475,0.0,99,GPS_Atti,
0.354659456951908,36.8975917687218,24400,2017-11-15 08:21:35,1771.3020097816616,0.8000000256,0.5075995797636,0.057089201826854404,1771.3020097816616,0.8000000256,0.7199994039200001,0.082602002643264,1490,0.0,99,GPS_Atti,
0.354659289686283,36.8975915978824,24500,2017-11-15 08:21:35,1771.6020097912613,1.1000000352000001,0.7199994039200001,0.0771832024698624,1771.6020097912613,1.1000000352000001,0.7199994039200001,0.082602002643264,1499,0.0,99,GPS_Atti,
0.354659170702394,36.8975913421298,24600,2017-11-15 08:21:35,1771.9020098008614,1.4000000448,1.07999910588,0.0991422031725504,1771.9020098008614,1.4000000448,1.07999910588,0.0991422031725504,1501,0.0,99,GPS_Atti,
0.354659064412225,36.8975910669072,24700,2017-11-15 08:21:35,1772.2020098104613,1.7000000544000002,0.7199994039200001,0.12530500400976,1772.2020098104613,1.7000000544000002,1.07999910588,0.12530500400976,1509,0.0,99,GPS_Atti,
0.354658931104543,36.8975908680289,24800,2017-11-15 08:21:35,1772.5020098200614,2.000000064,0.5075995797636,0.150653004820896,1772.5020098200614,2.000000064,1.07999910588,0.150653004820896,1535,0.0,99,GPS_Atti,
0.354658764881122,36.8975907156252,24900,2017-11-15 08:21:35,1772.8020098296615,2.3000000736,0.5075995797636,0.17571000562272002,1772.8020098296615,2.3000000736,1.07999910588,0.17571000562272002,1535,0.0,99,GPS_Atti,
0.354658609521051,36.8975905762335,25000,2017-11-15 08:21:35,1773.2020098424614,2.7000000864,0.8063993323904,0.198914006365248,1773.2020098424614,2.7000000864,1.07999910588,0.198914006365248,1535,0.0,99,GPS_Atti,
0.354658505412998,36.8975904089785,25100,2017-11-15 08:21:36,1773.5020098520613,3.0000000960000004,0.7199994039200001,0.219898007036736,1773.5020098520613,3.0000000960000004,1.07999910588,0.219898007036736,1528,0.0,99,GPS_Atti,
0.354658468862572,36.8975902112393,25200,2017-11-15 08:21:36,1773.9020098648612,3.4000001088000005,0.7199994039200001,0.238074007618368,1773.9020098648612,3.4000001088000005,1.07999910588,0.238074007618368,1549,0.0,99,GPS_Atti,
0.354658387451772,36.897590021763,25300,2017-11-15 08:21:36,1774.2020098744613,3.7000001184,0.5075995797636,0.25958100830659203,1774.2020098744613,3.7000001184,1.07999910588,0.25958100830659203,1549,0.0,99,GPS_Atti,
0.354658218355775,36.8975898705883,25400,2017-11-15 08:21:36,1774.6020098872614,4.100000131200001,0.8063993323904,0.284697009110304,1774.6020098872614,4.100000131200001,1.07999910588,0.284697009110304,1572,0.0,99,GPS_Atti,
0.354658013106694,36.8975897313894,25500,2017-11-15 08:21:36,1775.0020099000612,4.500000144,0.5075995797636,0.311661009973152,1775.0020099000612,4.500000144,1.07999910588,0.311661009973152,1598,0.0,99,GPS_Atti,
0.354657793833453,36.8975895626334,25600,2017-11-15 08:21:36,1775.3020099096614,4.8000001536,0.7199994039200001,0.34214801094873604,1775.3020099096614,4.8000001536,1.07999910588,0.34214801094873604,1585,0.0,99,GPS_Atti,
0.354657477827381,36.897589199639,25800,2017-11-15 08:21:36,1776.1020099352613,5.6000001792,0.7199994039200001,0.39555701265782406,1776.1020099352613,5.6000001792,1.07999910588,0.39555701265782406,1579,0.0,99,GPS_Atti,
0.354657301505979,36.8975890815694,25900,2017-11-15 08:21:36,1776.4020099448614,5.9000001888,0.5075995797636,0.41869001339808004,1776.4020099448614,5.9000001888,1.07999910588,0.41869001339808004,1589,0.0,99,GPS_Atti,
0.354657137059191,36.8975889768864,26000,2017-11-15 08:21:36,1776.8020099576613,6.3000002016,0.35999970196000003,0.43988701407638403,1776.8020099576613,6.3000002016,1.07999910588,0.43988701407638403,1607,0.0,99,GPS_Atti,
0.354656980316571,36.8975889038353,26100,2017-11-15 08:21:37,1777.2020099704614,6.7000002144,0.35999970196000003,0.45808301465865603,1777.2020099704614,6.7000002144,1.07999910588,0.45808301465865603,1616,-0.1,99,GPS_Atti,
0.354656857627972,36.8975888803957,26200,2017-11-15 08:21:37,1777.6020099832613,7.1000002272,0.0,0.46983701503478403,1777.6020099832613,7.1000002272,1.07999910588,0.46983701503478403,1621,-0.3,99,GPS_Atti,
0.354656759014288,36.8975888697133,26300,2017-11-15 08:21:37,1778.1020099992613,7.600000243200001,0.0,0.478762015320384,1778.1020099992613,7.600000243200001,1.07999910588,0.478762015320384,1627,-0.8,99,GPS_Atti,
0.354656685222977,36.8975888950329,26400,2017-11-15 08:21:37,1778.5020100120612,8.000000256,0.0,0.48306501545808,1778.5020100120612,8.000000256,1.07999910588,0.48306501545808,1627,-0.8,99,GPS_Atti,
0.354656583363805,36.8975889563438,26500,2017-11-15 08:21:37,1778.9020100248613,8.400000268800001,0.0,0.487329015594528,1778.9020100248613,8.400000268800001,1.07999910588,0.487329015594528,1636,-1.8,99,GPS_Atti,
0.354656475710629,36.8975890108821,26600,2017-11-15 08:21:37,1779.3020100376616,8.800000281600001,0.35999970196000003,0.492882015772224,1779.3020100376616,8.800000281600001,1.07999910588,0.492882015772224,1641,-3.1,99,GPS_Atti,
0.354656361369434,36.8975890678229,26700,2017-11-15 08:21:37,1779.8020100536614,9.3000002976,0.0,0.499173015973536,1779.8020100536614,9.3000002976,1.07999910588,0.499173015973536,1642,-4.5,99,GPS_Atti,
0.354656250294898,36.8975891044994,26800,2017-11-15 08:21:37,1780.2020100664613,9.7000003104,0.0,0.506787016217184,1780.2020100664613,9.7000003104,1.07999910588,0.506787016217184,1645,-5.9,99,GPS_Atti,
0.354656129695592,36.8975891568344,26900,2017-11-15 08:21:37,1780.7020100824614,10.2000003264,0.0,0.5145210164646721,1780.7020100824614,10.2000003264,1.07999910588,0.5145210164646721,1617,-7.3,99,GPS_Atti,
0.354656013370952,36.8975891777796,27000,2017-11-15 08:21:37,1781.2020100984612,10.700000342400001,0.0,0.524037016769184,1781.2020100984612,10.700000342400001,1.07999910588,0.524037016769184,1579,-8.7,99,GPS_Atti,
0.354655928511107,36.8975891647676,27100,2017-11-15 08:21:38,1781.7020101144615,11.2000003584,0.0,0.53276001704832,1781.7020101144615,11.2000003584,1.07999910588,0.53276001704832,1586,-8.7,99,GPS_Atti,
0.354655845738927,36.8975891631638,27200,2017-11-15 08:21:38,1782.1020101272613,11.6000003712,0.0,0.5406410173005121,1782.1020101272613,11.6000003712,1.07999910588,0.5406410173005121,1593,-8.7,99,GPS_Atti,
0.354655748134879,36.897589197151,27300,2017-11-15 08:21:38,1782.5020101400614,12.000000384000002,0.0,0.547919017533408,1782.5020101400614,12.000000384000002,1.07999910588,0.547919017533408,1576,-8.7,99,GPS_Atti,
0.354655684768866,36.8975892674827,27400,2017-11-15 08:21:38,1783.0020101560613,12.500000400000001,0.0,0.550019017600608,1783.0020101560613,12.500000400000001,1.07999910588,0.550019017600608,1573,-8.7,99,GPS_Atti,
0.354655598462963,36.8975893100175,27500,2017-11-15 08:21:38,1783.4020101688614,12.9000004128,0.0,0.5560420177933441,1783.4020101688614,12.9000004128,1.07999910588,0.5560420177933441,1565,-8.7,99,GPS_Atti,
0.35465550002678,36.8975892917125,27600,2017-11-15 08:21:38,1783.8020101816612,13.3000004256,0.0,0.566611018131552,1783.8020101816612,13.3000004256,1.07999910588,0.566611018131552,1574,-8.7,99,GPS_Atti,
0.354655382643652,36.8975892858542,27700,2017-11-15 08:21:38,1784.2020101944613,13.7000004384,0.0,0.5784020185088641,1784.2020101944613,13.7000004384,1.07999910588,0.5784020185088641,1598,-8.7,99,GPS_Atti,
0.35465527171079,36.8975893058101,27800,2017-11-15 08:21:38,1784.6020102072612,14.100000451200001,0.0,0.5882870188251841,1784.6020102072612,14.100000451200001,1.07999910588,0.5882870188251841,1604,-8.7,99,GPS_Atti,
0.354655152728529,36.8975893719537,27900,2017-11-15 08:21:38,1785.0020102200613,14.500000464000001,0.0,0.596788019097216,1785.0020102200613,14.500000464000001,1.07999910588,0.596788019097216,1602,-8.7,99,GPS_Atti,
0.354655052647618,36.8975894975882,28000,2017-11-15 08:21:38,1785.4020102328614,14.9000004768,0.0,0.60087001922784,1785.4020102328614,14.9000004768,1.07999910588,0.60087001922784,1598,-8.9,99,GPS_Atti,
0.354654937037865,36.8975896308646,28100,2017-11-15 08:21:39,1785.8020102456612,15.3000004896,0.0,0.60671501941488,1785.8020102456612,15.3000004896,1.07999910588,0.60671501941488,1598,-9.2,99,GPS_Atti,
0.354654791689467,36.8975897756778,28200,2017-11-15 08:21:39,1786.3020102616615,15.8000005056,0.0,0.6157660197045121,1786.3020102616615,15.8000005056,1.07999910588,0.6157660197045121,1597,-9.5,99,GPS_Atti,
0.354654647653596,36.8975899233216,28300,2017-11-15 08:21:39,1786.7020102744614,16.2000005184,0.0,0.625279020008928,1786.7020102744614,16.2000005184,1.07999910588,0.625279020008928,1599,-9.9,99,GPS_Atti,
0.354654536541605,36.8975900630024,28400,2017-11-15 08:21:39,1787.1020102872615,16.600000531200003,0.5075995797636,0.632236020231552,1787.1020102872615,16.600000531200003,1.07999910588,0.632236020231552,1597,-10.2,99,GPS_Atti,
0.354654402852867,36.8975902096869,28500,2017-11-15 08:21:39,1787.5020103000613,17.000000544,0.35999970196000003,0.641948020542336,1787.5020103000613,17.000000544,1.07999910588,0.641948020542336,1601,-10.6,99,GPS_Atti,
0.354654315258864,36.8975903800831,28600,2017-11-15 08:21:39,1788.0020103160614,17.50000056,0.0,0.64666002069312,1788.0020103160614,17.50000056,1.07999910588,0.64666002069312,1602,-10.9,99,GPS_Atti,
0.354654238923923,36.8975904940481,28700,2017-11-15 08:21:39,1788.4020103288613,17.9000005728,0.0,0.652111020867552,1788.4020103288613,17.9000005728,1.07999910588,0.652111020867552,1601,-11.3,99,GPS_Atti,
0.354654167236562,36.8975905495564,28800,2017-11-15 08:21:39,1788.8020103416613,18.3000005856,0.0,0.658637021076384,1788.8020103416613,18.3000005856,1.07999910588,0.658637021076384,1606,-12.0,99,GPS_Atti,
0.354654060027951,36.8975906843252,29000,2017-11-15 08:21:39,1789.7020103704615,19.2000006144,0.0,0.6675280213608961,1789.7020103704615,19.2000006144,1.07999910588,0.6675280213608961,1607,-12.3,99,GPS_Atti,
0.354654016292831,36.8975907474626,29100,2017-11-15 08:21:40,1790.1020103832614,19.6000006272,0.0,0.6711280214760961,1790.1020103832614,19.6000006272,1.07999910588,0.6711280214760961,1604,-12.7,99,GPS_Atti,
0.354653995118173,36.8975908178051,29200,2017-11-15 08:21:40,1790.5020103960615,20.00000064,0.0,0.67221502151088,1790.5020103960615,20.00000064,1.07999910588,0.67221502151088,1604,-12.7,99,GPS_Atti,
0.354653971875392,36.8975908644745,29300,2017-11-15 08:21:40,1791.0020104120613,20.500000656,0.0,0.674002021568064,1791.0020104120613,20.500000656,1.07999910588,0.674002021568064,1607,-13.0,99,GPS_Atti,
0.354653955335286,36.8975909097179,29400,2017-11-15 08:21:40,1791.4020104248614,20.900000668800004,0.0,0.6751180216037761,1791.4020104248614,20.900000668800004,1.07999910588,0.6751180216037761,1616,-13.4,99,GPS_Atti,
0.354653954029274,36.897590930434,29500,2017-11-15 08:21:40,1791.8020104376612,21.3000006816,0.0,0.674951021598432,1791.8020104376612,21.3000006816,1.07999910588,0.6751180216037761,1618,-13.7,99,GPS_Atti,
0.354653961871861,36.897590908748,29600,2017-11-15 08:21:40,1792.3020104536613,21.8000006976,0.0,0.6744120215811841,1792.3020104536613,21.8000006976,1.07999910588,0.6751180216037761,1618,-14.0,99,GPS_Atti,
0.354653985352395,36.8975909079771,29700,2017-11-15 08:21:40,1792.7020104664616,22.2000007104,0.0,0.6718380214988161,1792.7020104664616,22.2000007104,1.07999910588,0.6751180216037761,1614,-14.4,99,GPS_Atti,
0.354654010383207,36.8975909400522,29800,2017-11-15 08:21:40,1793.2020104824614,22.7000007264,0.0,0.668598021395136,1793.2020104824614,22.7000007264,1.07999910588,0.6751180216037761,1611,-14.7,99,GPS_Atti,
0.354654034539546,36.89759098976,29900,2017-11-15 08:21:40,1793.6020104952613,23.1000007392,0.0,0.6652210212870721,1793.6020104952613,23.1000007392,1.07999910588,0.6751180216037761,1590,-15.1,99,GPS_Atti,
0.354654089556526,36.897591037727,30000,2017-11-15 08:21:40,1794.1020105112614,23.6000007552,0.0,0.6584990210719681,1794.1020105112614,23.6000007552,1.07999910588,0.6751180216037761,1547,-15.4,99,GPS_Atti,
0.354654149916431,36.8975910808913,30100,2017-11-15 08:21:41,1794.5020105240612,24.000000768000003,0.0,0.651278020840896,1794.5020105240612,24.000000768000003,1.07999910588,0.6751180216037761,1527,-15.5,99,GPS_Atti,
0.354654226783873,36.8975911298669,30200,2017-11-15 08:21:41,1794.9020105368613,24.400000780800003,0.0,0.642188020550016,1794.9020105368613,24.400000780800003,1.07999910588,0.6751180216037761,1499,-15.5,99,GPS_Atti,
0.354654289858395,36.8975911537476,30300,2017-11-15 08:21:41,1795.3020105496612,24.800000793600002,0.0,0.6349360203179519,1795.3020105496612,24.800000793600002,1.07999910588,0.6751180216037761,1493,-15.5,99,GPS_Atti,
0.354654398544004,36.8975911776005,30400,2017-11-15 08:21:41,1795.7020105624613,25.2000008064,0.0,0.622643019924576,1795.7020105624613,25.2000008064,1.07999910588,0.6751180216037761,1527,-15.5,99,GPS_Atti,
0.354654491329486,36.8975911794804,30500,2017-11-15 08:21:41,1796.1020105752614,25.6000008192,0.0,0.612356019595392,1796.1020105752614,25.6000008192,1.07999910588,0.6751180216037761,1597,-15.5,99,GPS_Atti,
0.354654575997175,36.8975912024469,30600,2017-11-15 08:21:41,1796.4020105848613,25.9000008288,0.0,0.602732019287424,1796.4020105848613,25.9000008288,1.07999910588,0.6751180216037761,1601,-15.5,99,GPS_Atti,
0.354654653117025,36.8975912375753,30700,2017-11-15 08:21:41,1796.8020105976614,26.3000008416,0.0,0.593819019002208,1796.8020105976614,26.3000008416,1.07999910588,0.6751180216037761,1587,-15.5,99,GPS_Atti,
0.354654762511008,36.8975912359758,30800,2017-11-15 08:21:41,1797.2020106104612,26.700000854400002,0.0,0.581726018615232,1797.2020106104612,26.700000854400002,1.07999910588,0.6751180216037761,1606,-15.5,99,GPS_Atti,
0.354654856950989,36.8975912268415,30900,2017-11-15 08:21:41,1797.6020106232613,27.100000867200002,0.0,0.571373018283936,1797.6020106232613,27.100000867200002,1.07999910588,0.6751180216037761,1601,-15.5,99,GPS_Atti,
0.354654992333309,36.897591226683,31000,2017-11-15 08:21:41,1798.0020106360612,27.50000088,0.35999970196000003,0.5563970178047041,1798.0020106360612,27.50000088,1.07999910588,0.6751180216037761,1601,-15.5,99,GPS_Atti,
0.35465516360165,36.8975912803949,31100,2017-11-15 08:21:42,1798.4020106488613,27.9000008928,0.35999970196000003,0.536854017179328,1798.4020106488613,27.9000008928,1.07999910588,0.6751180216037761,1606,-15.5,99,GPS_Atti,
0.354655325247514,36.8975913779669,31200,2017-11-15 08:21:42,1798.8020106616611,28.300000905600005,0.35999970196000003,0.5180100165763201,1798.8020106616611,28.300000905600005,1.07999910588,0.6751180216037761,1617,-15.5,99,GPS_Atti,
0.354655472763371,36.8975915121191,31300,2017-11-15 08:21:42,1799.3020106776614,28.800000921600002,0.35999970196000003,0.5006860160219521,1799.3020106776614,28.800000921600002,1.07999910588,0.6751180216037761,1607,-15.5,99,GPS_Atti,
0.354655580182051,36.8975916718243,31400,2017-11-15 08:21:42,1799.7020106904615,29.200000934400002,0.35999970196000003,0.48816501562128006,1799.7020106904615,29.200000934400002,1.07999910588,0.6751180216037761,1617,-15.5,99,GPS_Atti,
0.354655691057917,36.8975918536415,31500,2017-11-15 08:21:42,1800.1020107032614,29.6000009472,0.35999970196000003,0.47595201523046404,1800.1020107032614,29.6000009472,1.07999910588,0.6751180216037761,1617,-15.5,99,GPS_Atti,
0.354655777412674,36.8975920356215,31600,2017-11-15 08:21:42,1800.6020107192614,30.1000009632,0.35999970196000003,0.467347014955104,1800.6020107192614,30.1000009632,1.07999910588,0.6751180216037761,1624,-15.5,99,GPS_Atti,
0.354655883206166,36.8975921902221,31700,2017-11-15 08:21:42,1801.0020107320613,30.500000976,0.35999970196000003,0.45718201462982405,1801.0020107320613,30.500000976,1.07999910588,0.6751180216037761,1619,-15.5,98,GPS_Atti,
0.354655987299564,36.8975922783686,31800,2017-11-15 08:21:42,1801.5020107480611,31.000000992,0.0,0.44689001430048003,1801.5020107480611,31.000000992,1.07999910588,0.6751180216037761,1619,-15.5,98,GPS_Atti,
0.354656092655005,36.897592323338,31900,2017-11-15 08:21:42,1801.9020107608615,31.400001004800004,0.0,0.43600101395203206,1801.9020107608615,31.400001004800004,1.07999910588,0.6751180216037761,1619,-15.5,98,GPS_Atti,
0.354656220782607,36.8975922728786,32000,2017-11-15 08:21:42,1802.4020107768615,31.9000010208,0.0,0.421089013474848,1802.4020107768615,31.9000010208,1.07999910588,0.6751180216037761,1617,-15.5,98,GPS_Atti,
0.3546563561405,36.8975922220788,32100,2017-11-15 08:21:43,1802.8020107896614,32.3000010336,0.0,0.405404012972928,1802.8020107896614,32.3000010336,1.07999910588,0.6751180216037761,1619,-15.5,98,GPS_Atti,
0.354656443708448,36.8975922254897,32200,2017-11-15 08:21:43,1803.3020108056612,32.800001049600006,0.0,0.395806012665792,1803.3020108056612,32.800001049600006,1.07999910588,0.6751180216037761,1619,-15.5,98,GPS_Atti,
0.354656553154541,36.8975922370029,32300,2017-11-15 08:21:43,1803.7020108184613,33.200001062400005,0.0,0.38393601228595203,1803.7020108184613,33.200001062400005,1.07999910588,0.6751180216037761,1617,-15.5,98,GPS_Atti,
0.354656653145887,36.8975922561773,32400,2017-11-15 08:21:43,1804.2020108344616,33.7000010784,0.0,0.37326001194432007,1804.2020108344616,33.7000010784,1.07999910588,0.6751180216037761,1610,-15.5,98,GPS_Atti,
0.354656752233448,36.8975922616951,32500,2017-11-15 08:21:43,1804.6020108472615,34.1000010912,0.0,0.36247501159920004,1804.6020108472615,34.1000010912,1.07999910588,0.6751180216037761,1605,-15.5,98,GPS_Atti,
0.354656790894337,36.8975922445592,32600,2017-11-15 08:21:43,1805.1020108632615,34.6000011072,0.0,0.357927011453664,1805.1020108632615,34.6000011072,1.07999910588,0.6751180216037761,1606,-15.5,98,GPS_Atti,
0.354656805550333,36.897592192434,32700,2017-11-15 08:21:43,1805.6020108792613,35.1000011232,0.0,0.35544801137433596,1805.6020108792613,35.1000011232,1.07999910588,0.6751180216037761,1606,-15.5,98,GPS_Atti,
0.354656781452618,36.8975921135182,32800,2017-11-15 08:21:43,1806.0020108920612,35.500001136,0.0,0.356968011422976,1806.0020108920612,35.500001136,1.07999910588,0.6751180216037761,1600,-15.5,98,GPS_Atti,
0.354656752726866,36.8975920177576,32900,2017-11-15 08:21:43,1806.4020109048613,35.9000011488,0.0,0.359063011490016,1806.4020109048613,35.9000011488,1.07999910588,0.6751180216037761,1591,-15.5,98,GPS_Atti,
0.354656692329507,36.8975919367541,33000,2017-11-15 08:21:43,1806.9020109208616,36.4000011648,0.0,0.365099011683168,1806.9020109208616,36.4000011648,1.07999910588,0.6751180216037761,1596,-15.5,98,GPS_Atti,
0.354656640829965,36.8975918416509,33100,2017-11-15 08:21:44,1807.3020109336614,36.8000011776,0.35999970196000003,0.370337011850784,1807.3020109336614,36.8000011776,1.07999910588,0.6751180216037761,1597,-15.5,98,GPS_Atti,
0.3546565931019,36.8975917614161,33200,2017-11-15 08:21:44,1807.7020109464615,37.2000011904,0.0,0.3754750120152,1807.7020109464615,37.2000011904,1.07999910588,0.6751180216037761,1590,-15.5,98,GPS_Atti,
0.354656566245602,36.8975917076015,33300,2017-11-15 08:21:44,1808.2020109624614,37.7000012064,0.0,0.378468012110976,1808.2020109624614,37.7000012064,1.07999910588,0.6751180216037761,1581,-15.5,98,GPS_Atti,
0.354656526884482,36.8975916731026,33400,2017-11-15 08:21:44,1808.6020109752615,38.1000012192,0.0,0.382898012252736,1808.6020109752615,38.1000012192,1.07999910588,0.6751180216037761,1585,-15.5,98,GPS_Atti,
0.354656494794365,36.897591603578,33500,2017-11-15 08:21:44,1809.0020109880613,38.500001232,0.35999970196000003,0.386688012374016,1809.0020109880613,38.500001232,1.07999910588,0.6751180216037761,1595,-15.5,98,GPS_Atti,
0.354656455355079,36.8975915035693,33600,2017-11-15 08:21:44,1809.5020110040612,39.000001248000004,0.35999970196000003,0.39165401253292803,1809.5020110040612,39.000001248000004,1.07999910588,0.6751180216037761,1600,-15.5,98,GPS_Atti,
0.354656426487653,36.8975914059223,33700,2017-11-15 08:21:44,1809.9020110168613,39.4000012608,0.0,0.395723012663136,1809.9020110168613,39.4000012608,1.07999910588,0.6751180216037761,1596,-15.5,98,GPS_Atti,
0.354656367629173,36.8975913411341,33800,2017-11-15 08:21:44,1810.3020110296613,39.800001273599996,0.0,0.402966012894912,1810.3020110296613,39.800001273599996,1.07999910588,0.6751180216037761,1601,-15.5,98,GPS_Atti,
0.354656303180245,36.8975912815297,33900,2017-11-15 08:21:44,1810.7020110424614,40.2000012864,0.0,0.410858013147456,1810.7020110424614,40.2000012864,1.07999910588,0.6751180216037761,1599,-15.5,98,GPS_Atti,
0.354656273314582,36.8975911982266,34000,2017-11-15 08:21:44,1811.2020110584615,40.700001302400004,0.0,0.415391013292512,1811.2020110584615,40.700001302400004,1.07999910588,0.6751180216037761,1598,-15.5,98,GPS_Atti,
0.354656243901626,36.897591147566,34100,2017-11-15 08:21:45,1811.6020110712614,41.100001315200004,0.0,0.41947301342313603,1811.6020110712614,41.100001315200004,1.07999910588,0.6751180216037761,1599,-15.5,98,GPS_Atti,
0.35465623679184,36.8975911280939,34200,2017-11-15 08:21:45,1812.0020110840615,41.500001328,0.0,0.420598013459136,1812.0020110840615,41.500001328,1.07999910588,0.6751180216037761,1597,-15.5,98,GPS_Atti,
0.354656233176694,36.8975911235353,34300,2017-11-15 08:21:45,1812.5020111000613,42.000001344,0.0,0.42107701347446397,1812.5020111000613,42.000001344,1.07999910588,0.6751180216037761,1599,-15.5,98,GPS_Atti,
0.354656215455967,36.8975911360999,34400,2017-11-15 08:21:45,1812.9020111128614,42.400001356800004,0.0,0.42279801352953605,1812.9020111128614,42.400001356800004,1.07999910588,0.6751180216037761,1602,-15.5,98,GPS_Atti,
0.354656185989273,36.8975911603425,34500,2017-11-15 08:21:45,1813.4020111288614,42.900001372800006,0.0,0.425618013619776,1813.4020111288614,42.900001372800006,1.07999910588,0.6751180216037761,1606,-15.5,98,GPS_Atti,
0.354656133353077,36.8975911860239,34600,2017-11-15 08:21:45,1813.8020111416615,43.300001385600005,0.0,0.43099001379168,1813.8020111416615,43.300001385600005,1.07999910588,0.6751180216037761,1617,-15.5,98,GPS_Atti,
0.354656092270692,36.8975912252827,34700,2017-11-15 08:21:45,1814.2020111544614,43.7000013984,0.0,0.434918013917376,1814.2020111544614,43.7000013984,1.07999910588,0.6751180216037761,1619,-15.5,98,GPS_Atti,
0.354656056469351,36.8975911928565,34800,2017-11-15 08:21:45,1814.7020111704614,44.2000014144,0.0,0.43934801405913604,1814.7020111704614,44.2000014144,1.07999910588,0.6751180216037761,1619,-15.5,98,GPS_Atti,
0.354656038478302,36.8975911664042,34900,2017-11-15 08:21:45,1815.1020111832613,44.600001427200006,0.0,0.441744014135808,1815.1020111832613,44.600001427200006,1.07999910588,0.6751180216037761,1621,-15.5,98,GPS_Atti,
0.354656043638841,36.8975911654107,35000,2017-11-15 08:21:45,1815.5020111960614,45.00000144,0.0,0.441192014118144,1815.5020111960614,45.00000144,1.07999910588,0.6751180216037761,1619,-15.5,98,GPS_Atti,
0.354656046996692,36.8975911779174,35100,2017-11-15 08:21:46,1816.0020112120612,45.50000145600001,0.0,0.440624014099968,1816.0020112120612,45.50000145600001,1.07999910588,0.6751180216037761,1619,-15.5,98,GPS_Atti,
0.354656014774671,36.8975911633637,35200,2017-11-15 08:21:46,1816.4020112248613,45.9000014688,0.0,0.444401014220832,1816.4020112248613,45.9000014688,1.07999910588,0.6751180216037761,1616,-15.5,98,GPS_Atti,
0.354655976673967,36.8975911636335,35300,2017-11-15 08:21:46,1816.9020112408614,46.4000014848,0.0,0.44859001435488,1816.9020112408614,46.4000014848,1.07999910588,0.6751180216037761,1612,-15.5,98,GPS_Atti,
0.354655913371463,36.8975911794912,35400,2017-11-15 08:21:46,1817.4020112568614,46.9000015008,0.0,0.45531501457008006,1817.4020112568614,46.9000015008,1.07999910588,0.6751180216037761,1612,-15.5,98,GPS_Atti,
0.354655881662402,36.8975911825252,35500,2017-11-15 08:21:46,1817.8020112696613,47.3000015136,0.0,0.458763014680416,1817.8020112696613,47.3000015136,1.07999910588,0.6751180216037761,1607,-15.5,98,GPS_Atti,
0.354655883131258,36.8975910869509,35700,2017-11-15 08:21:46,1818.8020113016614,48.300001545600004,0.0,0.46015401472492806,1818.8020113016614,48.300001545600004,1.07999910588,0.6751180216037761,1616,-15.5,98,GPS_Atti,
0.354655880937744,36.8975910418981,35800,2017-11-15 08:21:46,1819.2020113144615,48.7000015584,0.0,0.46120901475868803,1819.2020113144615,48.7000015584,1.07999910588,0.6751180216037761,1616,-15.5,98,GPS_Atti,
0.354655863454769,36.8975910140476,35900,2017-11-15 08:21:46,1819.7020113304613,49.200001574400005,0.0,0.46365401483692803,1819.7020113304613,49.200001574400005,1.07999910588,0.6751180216037761,1616,-15.5,98,GPS_Atti,
0.354655834040185,36.8975909834092,36000,2017-11-15 08:21:46,1820.1020113432614,49.600001587200005,0.0,0.4674750149592,1820.1020113432614,49.600001587200005,1.07999910588,0.6751180216037761,1601,-15.5,98,GPS_Atti,
0.354655787911252,36.8975909763626,36100,2017-11-15 08:21:47,1820.6020113592613,50.1000016032,0.0,0.472663015125216,1820.6020113592613,50.1000016032,1.07999910588,0.6751180216037761,1600,-15.5,98,GPS_Atti,
0.354655730472775,36.897590993308,36200,2017-11-15 08:21:47,1821.0020113720614,50.500001616000006,0.0,0.478618015315776,1821.0020113720614,50.500001616000006,1.07999910588,0.6751180216037761,1611,-15.5,98,GPS_Atti,
0.354655694715402,36.8975910217409,36300,2017-11-15 08:21:47,1821.4020113848612,50.9000016288,0.0,0.48200301542409607,1821.4020113848612,50.9000016288,1.07999910588,0.6751180216037761,1613,-15.5,98,GPS_Atti,
0.35465567793103,36.8975910613123,36400,2017-11-15 08:21:47,1821.9020114008615,51.4000016448,0.0,0.483138015460416,1821.9020114008615,51.4000016448,1.07999910588,0.6751180216037761,1607,-15.5,98,GPS_Atti,
0.354655682130787,36.8975911233384,36500,2017-11-15 08:21:47,1822.3020114136614,51.8000016576,0.0,0.4816500154128,1822.3020114136614,51.8000016576,1.07999910588,0.6751180216037761,1607,-15.5,98,GPS_Atti,
0.354655680490944,36.8975911673998,36600,2017-11-15 08:21:47,1822.7020114264615,52.200001670400006,0.0,0.481159015397088,1822.7020114264615,52.200001670400006,1.07999910588,0.6751180216037761,1597,-15.5,98,GPS_Atti,
0.354655687221303,36.8975912219574,36700,2017-11-15 08:21:47,1823.2020114424613,52.70000168640001,0.0,0.479653015348896,1823.2020114424613,52.70000168640001,1.07999910588,0.6751180216037761,1601,-15.5,98,GPS_Atti,
0.354655709182499,36.8975912728065,36800,2017-11-15 08:21:47,1823.6020114552614,53.1000016992,0.0,0.47658201525062405,1823.6020114552614,53.1000016992,1.07999910588,0.6751180216037761,1602,-15.5,98,GPS_Atti,
0.354655736046939,36.8975913286745,36900,2017-11-15 08:21:47,1824.0020114680613,53.500001712,0.0,0.47297301513513607,1824.0020114680613,53.500001712,1.07999910588,0.6751180216037761,1600,-15.5,98,GPS_Atti,
0.354655824149016,36.8975914188294,37000,2017-11-15 08:21:47,1824.5020114840615,54.000001728,0.0,0.46234401479500803,1824.5020114840615,54.000001728,1.07999910588,0.6751180216037761,1599,-15.5,98,GPS_Atti,
0.35465588495023,36.8975915174507,37100,2017-11-15 08:21:48,1824.9020114968614,54.40000174080001,0.0,0.45488001455616006,1824.9020114968614,54.40000174080001,1.07999910588,0.6751180216037761,1597,-15.5,98,GPS_Atti,
0.354655896354223,36.8975916090252,37200,2017-11-15 08:21:48,1825.3020115096615,54.8000017536,0.0,0.45317601450163203,1825.3020115096615,54.8000017536,1.07999910588,0.6751180216037761,1596,-15.5,98,GPS_Atti,
0.354655900599577,36.8975916984008,37300,2017-11-15 08:21:48,1825.8020115256613,55.3000017696,0.0,0.45249801447993604,1825.8020115256613,55.3000017696,1.07999910588,0.6751180216037761,1596,-15.5,98,GPS_Atti,
0.354655925049035,36.8975917934997,37400,2017-11-15 08:21:48,1826.2020115384614,55.7000017824,0.0,0.449799014393568,1826.2020115384614,55.7000017824,1.07999910588,0.6751180216037761,1587,-15.5,98,GPS_Atti,
0.354655963939534,36.8975918780533,37500,2017-11-15 08:21:48,1826.7020115544613,56.2000017984,0.0,0.445704014262528,1826.7020115544613,56.2000017984,1.07999910588,0.6751180216037761,1587,-15.5,98,GPS_Atti,
0.354656009350324,36.8975919551212,37600,2017-11-15 08:21:48,1827.1020115672613,56.60000181120001,0.0,0.44104301411337604,1827.1020115672613,56.60000181120001,1.07999910588,0.6751180216037761,1584,-15.5,98,GPS_Atti,
0.354656048190342,36.8975920157855,37700,2017-11-15 08:21:48,1827.5020115800612,57.000001824,0.0,0.43715501398896,1827.5020115800612,57.000001824,1.07999910588,0.6751180216037761,1584,-15.5,98,GPS_Atti,
0.354656115070536,36.8975920757475,37800,2017-11-15 08:21:48,1827.9020115928613,57.4000018368,0.0,0.43026601376851203,1827.9020115928613,57.4000018368,1.07999910588,0.6751180216037761,1572,-15.5,98,GPS_Atti,
0.354656179521093,36.8975921218817,37900,2017-11-15 08:21:48,1828.4020116088614,57.9000018528,0.0,0.42361301355561604,1828.4020116088614,57.9000018528,1.07999910588,0.6751180216037761,1571,-15.5,98,GPS_Atti,
0.354656210129326,36.8975921379642,38000,2017-11-15 08:21:48,1828.8020116216614,58.30000186560001,0.0,0.420412013453184,1828.8020116216614,58.30000186560001,1.07999910588,0.6751180216037761,1573,-15.5,98,GPS_Atti,
0.354656242263412,36.8975921590592,38100,2017-11-15 08:21:49,1829.2020116344613,58.7000018784,0.0,0.41711501334768003,1829.2020116344613,58.7000018784,1.07999910588,0.6751180216037761,1572,-15.5,98,GPS_Atti,
0.354656291979807,36.8975922013006,38200,2017-11-15 08:21:49,1829.6020116472614,59.10000189120001,0.0,0.412182013189824,1829.6020116472614,59.10000189120001,1.07999910588,0.6751180216037761,1572,-15.5,98,GPS_Atti,
0.35465635074058,36.8975922534366,38300,2017-11-15 08:21:49,1830.0020116600615,59.500001904,0.0,0.4064760130072321,1830.0020116600615,59.500001904,1.07999910588,0.6751180216037761,1572,-15.5,98,GPS_Atti,
0.354656402551154,36.8975923703907,38400,2017-11-15 08:21:49,1830.4020116728614,59.9000019168,0.0,0.402838012890816,1830.4020116728614,59.9000019168,1.07999910588,0.6751180216037761,1572,-15.5,98,GPS_Atti,
0.354656473445464,36.8975924793239,38500,2017-11-15 08:21:49,1830.8020116856615,60.30000192960001,0.0,0.397412012717184,1830.8020116856615,60.30000192960001,1.07999910588,0.6751180216037761,1572,-15.5,98,GPS_Atti,
0.354656550708618,36.8975925597407,38600,2017-11-15 08:21:49,1831.2020116984613,60.7000019424,0.0,0.391003012512096,1831.2020116984613,60.7000019424,1.07999910588,0.6751180216037761,1574,-15.5,98,GPS_Atti,
0.354656623819239,36.897592634691,38700,2017-11-15 08:21:49,1831.6020117112614,61.10000195520001,0.0,0.38517501232560003,1831.6020117112614,61.10000195520001,1.07999910588,0.6751180216037761,1574,-15.5,98,GPS_Atti,
0.354656723326938,36.8975926971218,38800,2017-11-15 08:21:49,1832.0020117240613,61.500001968,0.0,0.37640501204496,1832.0020117240613,61.500001968,1.07999910588,0.6751180216037761,1575,-15.5,98,GPS_Atti,
0.354656793608953,36.8975927631283,38900,2017-11-15 08:21:49,1832.4020117368614,61.900001980800006,0.0,0.37110401187532804,1832.4020117368614,61.900001980800006,1.07999910588,0.6751180216037761,1575,-15.5,98,GPS_Atti,
0.354656871841031,36.8975928578461,39000,2017-11-15 08:21:49,1832.8020117496612,62.300001993600006,0.0,0.36628001172096,1832.8020117496612,62.300001993600006,1.07999910588,0.6751180216037761,1579,-15.5,98,GPS_Atti,
0.354656924192248,36.897592937445,39100,2017-11-15 08:21:50,1833.2020117624613,62.7000020064,0.0,0.363959011646688,1833.2020117624613,62.7000020064,1.07999910588,0.6751180216037761,1584,-15.5,98,GPS_Atti,
0.35465696342635,36.8975930514528,39200,2017-11-15 08:21:50,1833.6020117752612,63.100002019200005,0.0,0.364791011673312,1833.6020117752612,63.100002019200005,1.07999910588,0.6751180216037761,1585,-15.5,98,GPS_Atti,
0.354656991823156,36.8975931565619,39300,2017-11-15 08:21:50,1834.0020117880613,63.500002032,0.0,0.36677201173670404,1834.0020117880613,63.500002032,1.07999910588,0.6751180216037761,1586,-15.5,98,GPS_Atti,
0.354657036230824,36.8975932345056,39400,2017-11-15 08:21:50,1834.4020118008611,63.900002044800004,0.0,0.36617601171763203,1834.4020118008611,63.900002044800004,1.07999910588,0.6751180216037761,1589,-15.5,98,GPS_Atti,
0.354657094455839,36.8975933083939,39500,2017-11-15 08:21:50,1834.8020118136612,64.3000020576,0.0,0.364287011657184,1834.8020118136612,64.3000020576,1.07999910588,0.6751180216037761,1589,-15.5,98,GPS_Atti,
0.354657164983748,36.8975933832264,39600,2017-11-15 08:21:50,1835.2020118264616,64.7000020704,0.0,0.361561011569952,1835.2020118264616,64.7000020704,1.07999910588,0.6751180216037761,1589,-15.5,98,GPS_Atti,
0.354657257191133,36.8975934510209,39700,2017-11-15 08:21:50,1835.6020118392614,65.10000208320001,0.0,0.356723011415136,1835.6020118392614,65.10000208320001,1.07999910588,0.6751180216037761,1595,-15.5,98,GPS_Atti,
0.354657346091148,36.8975934969688,39800,2017-11-15 08:21:50,1836.1020118552615,65.60000209920001,0.0,0.351223011239136,1836.1020118552615,65.60000209920001,1.07999910588,0.6751180216037761,1595,-15.5,98,GPS_Atti,
0.354657423885174,36.8975935405185,39900,2017-11-15 08:21:50,1836.5020118680613,66.000002112,0.0,0.34684701109910404,1836.5020118680613,66.000002112,1.07999910588,0.6751180216037761,1595,-15.5,98,GPS_Atti,
0.354657487368435,36.8975935873571,40000,2017-11-15 08:21:50,1836.9020118808614,66.40000212480001,0.0,0.34419601101427205,1836.9020118808614,66.40000212480001,1.07999910588,0.6751180216037761,1596,-15.5,98,GPS_Atti,
0.354657535059046,36.8975936421545,40100,2017-11-15 08:21:51,1837.3020118936613,66.8000021376,0.0,0.343678010997696,1837.3020118936613,66.8000021376,1.07999910588,0.6751180216037761,1595,-15.5,98,GPS_Atti,
0.354657561822523,36.8975937021721,40200,2017-11-15 08:21:51,1837.7020119064614,67.20000215040001,0.0,0.34551801105657604,1837.7020119064614,67.20000215040001,1.07999910588,0.6751180216037761,1594,-15.5,98,GPS_Atti,
0.354657587804347,36.8975937597231,40300,2017-11-15 08:21:51,1838.2020119224612,67.7000021664,0.0,0.347391011116512,1838.2020119224612,67.7000021664,1.07999910588,0.6751180216037761,1594,-15.5,98,GPS_Atti,
0.354657611921602,36.8975938045383,40400,2017-11-15 08:21:51,1838.6020119352613,68.1000021792,0.0,0.34861501115568,1838.6020119352613,68.1000021792,1.07999910588,0.6751180216037761,1593,-15.5,98,GPS_Atti,
0.354657641336186,36.8975938368553,40500,2017-11-15 08:21:51,1839.0020119480612,68.500002192,0.0,0.34855801115385604,1839.0020119480612,68.500002192,1.07999910588,0.6751180216037761,1593,-15.5,98,GPS_Atti,
0.354657701458339,36.8975938938175,40600,2017-11-15 08:21:51,1839.4020119608613,68.9000022048,0.0,0.34795401113452806,1839.4020119608613,68.9000022048,1.07999910588,0.6751180216037761,1589,-15.5,98,GPS_Atti,
0.354657758457135,36.8975939420265,40700,2017-11-15 08:21:51,1839.8020119736616,69.30000221760001,0.0,0.347151011108832,1839.8020119736616,69.30000221760001,1.07999910588,0.6751180216037761,1589,-15.5,98,GPS_Atti,
0.354657799620943,36.8975939787458,40800,2017-11-15 08:21:51,1840.3020119896614,69.80000223360001,0.0,0.34684501109904003,1840.3020119896614,69.80000223360001,1.07999910588,0.6751180216037761,1590,-15.5,98,GPS_Atti,
0.354657832927508,36.8975940135894,40900,2017-11-15 08:21:51,1840.7020120024615,70.2000022464,0.0,0.34709301110697605,1840.7020120024615,70.2000022464,1.07999910588,0.6751180216037761,1590,-15.5,98,GPS_Atti,
0.354657886472375,36.8975940271132,41000,2017-11-15 08:21:51,1841.1020120152614,70.60000225920001,0.0,0.34415601101299204,1841.1020120152614,70.60000225920001,1.07999910588,0.6751180216037761,1590,-15.5,98,GPS_Atti,
0.354657936595881,36.8975940496171,41100,2017-11-15 08:21:52,1841.5020120280615,71.000002272,0.0,0.34230401095372803,1841.5020120280615,71.000002272,1.07999910588,0.6751180216037761,1586,-15.5,98,GPS_Atti,
0.35465797415757,36.8975940770051,41200,2017-11-15 08:21:52,1842.0020120440613,71.500002288,0.0,0.34187101093987204,1842.0020120440613,71.500002288,1.07999910588,0.6751180216037761,1574,-15.5,98,GPS_Atti,
0.354658020354898,36.8975940975949,41300,2017-11-15 08:21:52,1842.4020120568614,71.9000023008,0.0,0.340322010890304,1842.4020120568614,71.9000023008,1.07999910588,0.6751180216037761,1573,-15.5,98,GPS_Atti,
0.354658049210926,36.8975941027252,41400,2017-11-15 08:21:52,1842.8020120696613,72.3000023136,0.0,0.33873001083936,1842.8020120696613,72.3000023136,1.07999910588,0.6751180216037761,1574,-15.5,98,GPS_Atti,
0.354658088505279,36.897594104451,41500,2017-11-15 08:21:52,1843.2020120824614,72.7000023264,0.0,0.33614201075654404,1843.2020120824614,72.7000023264,1.07999910588,0.6751180216037761,1571,-15.5,98,GPS_Atti,
0.354658127104288,36.8975941079261,41600,2017-11-15 08:21:52,1843.6020120952612,73.1000023392,0.0,0.333793010681376,1843.6020120952612,73.1000023392,1.07999910588,0.6751180216037761,1571,-15.5,98,GPS_Atti,
0.354658184601388,36.8975941142747,41700,2017-11-15 08:21:52,1844.0020121080613,73.50000235200001,0.0,0.33047101057507206,1844.0020121080613,73.50000235200001,1.07999910588,0.6751180216037761,1564,-15.5,98,GPS_Atti,
0.354658227861003,36.8975941280191,41800,2017-11-15 08:21:52,1844.4020121208614,73.9000023648,0.0,0.328839010522848,1844.4020121208614,73.9000023648,1.07999910588,0.6751180216037761,1560,-15.5,98,GPS_Atti,
0.354658263380623,36.8975941356588,41900,2017-11-15 08:21:52,1844.8020121336615,74.30000237760001,0.0,0.32722001047104,1844.8020121336615,74.30000237760001,1.07999910588,0.6751180216037761,1552,-15.5,98,GPS_Atti,
0.354658287095653,36.8975941257879,42000,2017-11-15 08:21:52,1845.2020121464616,74.7000023904,0.0,0.3248000103936,1845.2020121464616,74.7000023904,1.07999910588,0.6751180216037761,1550,-15.5,98,GPS_Atti,
0.354658294788423,36.8975941025967,42100,2017-11-15 08:21:53,1845.6020121592614,75.10000240320001,0.0,0.3222000103104,1845.6020121592614,75.10000240320001,1.07999910588,0.6751180216037761,1533,-15.5,98,GPS_Atti,
0.354658327612968,36.8975940747205,42200,2017-11-15 08:21:53,1846.0020121720615,75.500002416,0.0,0.317563010162016,1846.0020121720615,75.500002416,1.07999910588,0.6751180216037761,1501,-15.5,98,GPS_Atti,
0.354658346053468,36.8975940472939,42300,2017-11-15 08:21:53,1846.4020121848614,75.90000242880001,0.0,0.313888010044416,1846.4020121848614,75.90000242880001,1.07999910588,0.6751180216037761,1497,-15.5,98,GPS_Atti,
0.354658343128783,36.8975940202271,42400,2017-11-15 08:21:53,1846.7020121944615,76.2000024384,0.0,0.311619009971808,1846.7020121944615,76.2000024384,1.07999910588,0.6751180216037761,1497,-15.5,98,GPS_Atti,
0.35465834960999,36.8975939855826,42500,2017-11-15 08:21:53,1847.1020122072614,76.6000024512,0.0,0.30806800985817606,1847.1020122072614,76.6000024512,1.07999910588,0.6751180216037761,1495,-15.5,98,GPS_Atti,
0.35465835577365,36.8975939546252,42600,2017-11-15 08:21:53,1847.4020122168613,76.9000024608,0.0,0.304878009756096,1847.4020122168613,76.9000024608,1.07999910588,0.6751180216037761,1495,-15.5,98,GPS_Atti,
0.354658364645413,36.897593932648,42700,2017-11-15 08:21:53,1847.8020122296612,77.3000024736,0.0,0.302322009674304,1847.8020122296612,77.3000024736,1.07999910588,0.6751180216037761,1499,-15.5,98,GPS_Atti,
0.354658354536033,36.8975938993461,42900,2017-11-15 08:21:53,1848.4020122488614,77.9000024928,0.0,0.30001200960038404,1848.4020122488614,77.9000024928,1.07999910588,0.6751180216037761,1500,-15.5,98,GPS_Atti,
0.354658392410383,36.8975938654552,43000,2017-11-15 08:21:53,1848.7020122584615,78.20000250240001,0.0,0.294474009423168,1848.7020122584615,78.20000250240001,1.07999910588,0.6751180216037761,1500,-15.5,98,GPS_Atti,
0.354658419709619,36.8975938395532,43100,2017-11-15 08:21:54,1849.0020122680614,78.500002512,0.0,0.29035300929129604,1849.0020122680614,78.500002512,1.07999910588,0.6751180216037761,1495,-15.5,98,GPS_Atti,
0.354658426361812,36.8975938286546,43200,2017-11-15 08:21:54,1849.3020122776613,78.8000025216,0.0,0.28893900924604804,1849.3020122776613,78.8000025216,1.07999910588,0.6751180216037761,1482,-15.5,98,GPS_Atti,
0.354658432481505,36.8975938170878,43300,2017-11-15 08:21:54,1849.7020122904612,79.20000253440001,0.0,0.2875000092,1849.7020122904612,79.20000253440001,1.07999910588,0.6751180216037761,1469,-15.5,98,GPS_Atti,
0.354658449194226,36.8975937714183,43400,2017-11-15 08:21:54,1850.0020123000613,79.500002544,0.0,0.28231500903408,1850.0020123000613,79.500002544,1.07999910588,0.6751180216037761,1468,-15.5,98,GPS_Atti,
0.354658455716144,36.8975937372427,43500,2017-11-15 08:21:54,1850.3020123096614,79.80000255360001,0.0,0.27884300892297603,1850.3020123096614,79.80000255360001,1.07999910588,0.6751180216037761,1468,-15.5,98,GPS_Atti,
0.354658463408913,36.8975937224043,43600,2017-11-15 08:21:54,1850.6020123192613,80.1000025632,0.0,0.27701100886435204,1850.6020123192613,80.1000025632,1.07999910588,0.6751180216037761,1470,-15.5,98,GPS_Atti,
0.354658462728224,36.8975937153962,43700,2017-11-15 08:21:54,1850.9020123288615,80.4000025728,0.0,0.276436008845952,1850.9020123288615,80.4000025728,1.07999910588,0.6751180216037761,1470,-15.5,98,GPS_Atti,
0.354658471956616,36.8975937244855,43800,2017-11-15 08:21:54,1851.2020123384614,80.7000025824,0.0,0.276622008851904,1851.2020123384614,80.7000025824,1.07999910588,0.6751180216037761,1465,-15.5,98,GPS_Atti,
0.35465848325476,36.8975937281491,43900,2017-11-15 08:21:54,1851.5020123480613,81.000002592,0.0,0.27619400883820805,1851.5020123480613,81.000002592,1.07999910588,0.6751180216037761,1464,-15.5,98,GPS_Atti,
0.354658542173493,36.8975937016818,44000,2017-11-15 08:21:54,1851.8020123576614,81.3000026016,0.0,0.26993700863798403,1851.8020123576614,81.3000026016,1.07999910588,0.6751180216037761,1464,-15.5,98,GPS_Atti,
0.354658588562977,36.8975936939457,44100,2017-11-15 08:21:55,1852.1020123672615,81.6000026112,0.0,0.266234008519488,1852.1020123672615,81.6000026112,1.07999910588,0.6751180216037761,1461,-15.5,98,GPS_Atti,
0.354658663600048,36.8975936990289,44200,2017-11-15 08:21:55,1852.4020123768612,81.90000262080001,0.0,0.26198000838336,1852.4020123768612,81.90000262080001,1.07999910588,0.6751180216037761,1460,-15.5,98,GPS_Atti,
0.354658714769015,36.897593715818,44300,2017-11-15 08:21:55,1852.7020123864613,82.20000263040001,0.0,0.260443008334176,1852.7020123864613,82.20000263040001,1.07999910588,0.6751180216037761,1457,-15.5,98,GPS_Atti,
0.354658787404131,36.8975936899631,44400,2017-11-15 08:21:55,1853.0020123960614,82.50000264,0.0,0.253743008119776,1853.0020123960614,82.50000264,1.07999910588,0.6751180216037761,1457,-15.5,98,GPS_Atti,
0.354658846156762,36.8975936863744,44500,2017-11-15 08:21:55,1853.3020124056613,82.8000026496,0.0,0.2500750080024,1853.3020124056613,82.8000026496,1.07999910588,0.6751180216037761,1459,-15.5,98,GPS_Atti,
0.354658875493181,36.8975937128074,44600,2017-11-15 08:21:55,1853.5020124120613,83.000002656,0.0,0.251029008032928,1853.5020124120613,83.000002656,1.07999910588,0.6751180216037761,1465,-15.5,98,GPS_Atti,
0.354658919521421,36.8975937412232,44700,2017-11-15 08:21:55,1853.8020124216614,83.3000026656,0.0,0.251488008047616,1853.8020124216614,83.3000026656,1.07999910588,0.6751180216037761,1481,-15.5,97,GPS_Atti,
0.354658972097364,36.8975937847644,44800,2017-11-15 08:21:55,1854.1020124312613,83.60000267520002,0.0,0.253171008101472,1854.1020124312613,83.60000267520002,1.07999910588,0.6751180216037761,1479,-15.5,97,GPS_Atti,
0.354659011986099,36.8975938331682,44900,2017-11-15 08:21:55,1854.4020124408614,83.9000026848,0.0,0.25614500819664004,1854.4020124408614,83.9000026848,1.07999910588,0.6751180216037761,1474,-15.5,97,GPS_Atti,
0.354659006705056,36.8975938607682,45000,2017-11-15 08:21:55,1854.7020124504613,84.20000269440001,0.0,0.259182008293824,1854.7020124504613,84.20000269440001,1.07999910588,0.6751180216037761,1472,-15.5,97,GPS_Atti,
0.354658998204578,36.8975938825505,45100,2017-11-15 08:21:56,1855.0020124600612,84.500002704,0.0,0.261778008376896,1855.0020124600612,84.500002704,1.07999910588,0.6751180216037761,1471,-15.5,97,GPS_Atti,
0.354658987873729,36.8975939128548,45200,2017-11-15 08:21:56,1855.3020124696613,84.80000271360001,0.0,0.265322008490304,1855.3020124696613,84.80000271360001,1.07999910588,0.6751180216037761,1461,-15.5,97,GPS_Atti,
0.354658980312864,36.8975939629416,45300,2017-11-15 08:21:56,1855.6020124792615,85.1000027232,0.0,0.270749008663968,1855.6020124792615,85.1000027232,1.07999910588,0.6751180216037761,1448,-15.5,97,GPS_Atti,
0.354658974272965,36.8975940185142,45400,2017-11-15 08:21:56,1855.9020124888616,85.4000027328,0.0,0.2766750088536,1855.9020124888616,85.4000027328,1.07999910588,0.6751180216037761,1448,-15.5,97,GPS_Atti,
0.354658964753081,36.8975940646976,45500,2017-11-15 08:21:56,1856.2020124984613,85.7000027424,0.0,0.281808009017856,1856.2020124984613,85.7000027424,1.07999910588,0.6751180216037761,1441,-15.5,97,GPS_Atti,
0.354659002640459,36.8975941267194,45600,2017-11-15 08:21:56,1856.5020125080614,86.000002752,0.0,0.28654500916944003,1856.5020125080614,86.000002752,1.07999910588,0.6751180216037761,1423,-15.5,97,GPS_Atti,
0.354659021155868,36.8975941766199,45700,2017-11-15 08:21:56,1856.8020125176613,86.3000027616,0.0,0.29094400931020803,1856.8020125176613,86.3000027616,1.07999910588,0.6751180216037761,1390,-15.5,97,GPS_Atti,
0.354659035955167,36.8975942257774,45800,2017-11-15 08:21:56,1857.0020125240612,86.500002768,0.0,0.295463009454816,1857.0020125240612,86.500002768,1.07999910588,0.6751180216037761,1344,-15.5,97,GPS_Atti,
0.354659031170798,36.8975942661367,45900,2017-11-15 08:21:56,1857.3020125336614,86.8000027776,0.0,0.29985400959532804,1857.3020125336614,86.8000027776,1.07999910588,0.6751180216037761,1204,-15.5,97,GPS_Atti,
0.35465901789898,36.8975943099755,46000,2017-11-15 08:21:56,1857.5020125400615,87.000002784,0.0,0.30493800975801605,1857.5020125400615,87.000002784,1.07999910588,0.6751180216037761,1069,-15.5,97,GPS_Atti,
0.354658979539353,36.8975943327964,46100,2017-11-15 08:21:57,1857.7020125464612,87.2000027904,0.0,0.308814009882048,1857.7020125464612,87.2000027904,1.07999910588,0.6751180216037761,1024,-15.5,97,GPS_Atti,
0.354658940912661,36.8975943488125,46200,2017-11-15 08:21:57,1857.9020125528614,87.4000027968,0.0,0.312028009984896,1857.9020125528614,87.4000027968,1.07999910588,0.6751180216037761,923,-15.5,97,GPS_Atti,
0.354658899529014,36.8975943557671,46300,2017-11-15 08:21:57,1858.0020125560613,87.50000280000002,0.0,0.31446001006272,1858.0020125560613,87.50000280000002,1.07999910588,0.6751180216037761,907,-15.5,97,GPS_Atti,
0.354658861483677,36.8975943394854,46400,2017-11-15 08:21:57,1858.0020125560613,87.50000280000002,0.0,0.31441801006137604,1858.0020125560613,87.50000280000002,1.07999910588,0.6751180216037761,955,-15.5,97,GPS_Atti,
0.354658823619097,36.8975942995244,46500,2017-11-15 08:21:57,1858.0020125560613,87.50000280000002,0.0,0.31203000998496,1858.0020125560613,87.50000280000002,1.07999910588,0.6751180216037761,1024,-15.5,97,GPS_Atti,
0.354658836236281,36.8975942726674,46600,2017-11-15 08:21:57,1858.0020125560613,87.50000280000002,0.0,0.308731009879392,1858.0020125560613,87.50000280000002,1.07999910588,0.6751180216037761,1024,-15.5,97,GPS_Atti,
0.354658832829576,36.8975942433352,46700,2017-11-15 08:21:57,1857.9020125528614,87.4000027968,0.0,0.30591200978918404,1858.0020125560613,87.50000280000002,1.07999910588,0.6751180216037761,1010,-15.5,97,GPS_Atti,
0.354658807806906,36.8975941842382,46800,2017-11-15 08:21:57,1857.9020125528614,87.4000027968,0.0,0.301123009635936,1858.0020125560613,87.50000280000002,1.07999910588,0.6751180216037761,885,-15.5,97,GPS_Atti,
0.354658778081289,36.8975941366267,46900,2017-11-15 08:21:57,1857.9020125528614,87.4000027968,0.0,0.29780500952976,1858.0020125560613,87.50000280000002,1.07999910588,0.6751180216037761,880,-15.5,97,GPS_Atti,
0.354658778926451,36.8975941339352,47000,2017-11-15 08:21:57,1857.9020125528614,87.4000027968,0.0,0.29749500951984004,1858.0020125560613,87.50000280000002,1.07999910588,0.6751180216037761,880,-15.5,97,GPS_Atti,
0.354658780523955,36.8975941347488,47100,2017-11-15 08:21:58,1857.9020125528614,87.4000027968,0.0,0.297497009519904,1858.0020125560613,87.50000280000002,1.07999910588,0.6751180216037761,880,-15.5,97,GPS_Atti,
0.354658825959171,36.8975941433907,47200,2017-11-15 08:21:58,1857.9020125528614,87.4000027968,0.0,0.296154009476928,1858.0020125560613,87.50000280000002,1.07999910588,0.6751180216037761,877,-15.5,97,GPS_Atti,
0.354658966845632,36.8975941908374,47400,2017-11-15 08:21:58,1857.9020125528614,87.4000027968,0.0,0.2946500094288,1858.0020125560613,87.50000280000002,1.07999910588,0.6751180216037761,877,-15.5,97,GPS_Atti,
0.354659038988958,36.8975942258266,47500,2017-11-15 08:21:58,1857.9020125528614,87.4000027968,0.0,0.2953500094512,1858.0020125560613,87.50000280000002,1.07999910588,0.6751180216037761,876,-15.5,97,GPS_Atti,
0.354659118582415,36.8975942922679,47600,2017-11-15 08:21:58,1857.9020125528614,87.4000027968,0.0,0.29936700957974405,1858.0020125560613,87.50000280000002,1.07999910588,0.6751180216037761,870,-15.5,97,GPS_Atti,
0.354659181681363,36.8975943484057,47700,2017-11-15 08:21:58,1857.8020125496614,87.3000027936,0.0,0.30319500970224,1858.0020125560613,87.50000280000002,1.07999910588,0.6751180216037761,857,-15.5,97,GPS_Atti,
