latitude,longitude,time_millisecond,datetime_utc,altitude_m,ascent_m,speed_kph,distance_m,max_altitude_m,max_ascent_m,max_speed_kph,max_distance_m,rc_throttle,gimbal_pitch_degrees,battery_percent,flycState,message
0.0316474924378896,36.8843907971188,0,2018-04-12 05:55:14,1803.515194412476,0.0,0.0,0.0,1803.515194412476,0.0,0.0,0.0,364,0.0,99,Motors_Started,
0.0316474638814957,36.88439079656,100,2018-04-12 05:55:14,1803.515194412476,0.0,0.0,0.00317625010164,1803.515194412476,0.0,0.0,0.00317625010164,364,0.0,99,Motors_Started,
0.0316474405072176,36.8843907953202,200,2018-04-12 05:55:14,1803.515194412476,0.0,0.0,0.00577847018491104,1803.515194412476,0.0,0.0,0.00577847018491104,364,0.0,99,Motors_Started,
0.0316474241486835,36.8843907951329,300,2018-04-12 05:55:14,1803.515194412476,0.0,0.0,0.007597390243116481,1803.515194412476,0.0,0.0,0.007597390243116481,364,0.0,99,Motors_Started,Setting new Return-To-Home altitude to 45m (148 ft). Setting new Maximum Flight Altitude to 150m (492 ft)
0.0316473916950159,36.8843907943353,400,2018-04-12 05:55:14,1803.515194412476,0.0,0.0,0.01120750035864,1803.515194412476,0.0,0.0,0.01120750035864,364,0.0,99,Motors_Started,
0.0316473547549852,36.8843907947892,500,2018-04-12 05:55:14,1803.515194412476,0.0,0.0,0.0153134004900288,1803.515194412476,0.0,0.0,0.0153134004900288,451,0.0,99,Motors_Started,
0.0316473234819396,36.8843907945741,600,2018-04-12 05:55:14,1803.515194412476,0.0,0.0,0.0187911006013152,1803.515194412476,0.0,0.0,0.0187911006013152,796,0.0,99,Motors_Started,
0.0316472984934664,36.8843907957859,700,2018-04-12 05:55:14,1803.515194412476,0.0,0.0,0.0215683006901856,1803.515194412476,0.0,0.0,0.0215683006901856,1024,0.0,99,Motors_Started,
0.031647268072097,36.8843907954872,800,2018-04-12 05:55:14,1803.515194412476,0.0,0.0,0.024951500798448004,1803.515194412476,0.0,0.0,0.024951500798448004,1024,0.0,99,Motors_Started,
0.0316472300609573,36.8843907961392,900,2018-04-12 05:55:14,1803.515194412476,0.0,0.0,0.029178100933699203,1803.515194412476,0.0,0.0,0.029178100933699203,1024,0.0,99,Motors_Started,
0.0316472021013881,36.8843907957859,1000,2018-04-12 05:55:15,1803.515194412476,0.0,0.0,0.0322875010332,1803.515194412476,0.0,0.0,0.0322875010332,1024,0.0,99,Motors_Started,
0.0316471824106503,36.8843907963619,1100,2018-04-12 05:55:15,1803.515194412476,0.0,0.0,0.034477001103264,1803.515194412476,0.0,0.0,0.034477001103264,1024,0.0,99,Motors_Started,
0.0316471516424224,36.8843908205589,1200,2018-04-12 05:55:15,1803.515194412476,0.0,0.0,0.0379881012156192,1803.515194412476,0.0,0.0,0.0379881012156192,1024,0.0,99,Motors_Started,
0.0316471138112256,36.8843908506045,1300,2018-04-12 05:55:15,1803.515194412476,0.0,0.0,0.0425236013607552,1803.515194412476,0.0,0.0,0.0425236013607552,1024,0.0,99,Motors_Started,
0.0316470875586729,36.8843908816789,1400,2018-04-12 05:55:15,1803.515194412476,0.0,0.0,0.045996501471888,1803.515194412476,0.0,0.0,0.045996501471888,1024,0.0,99,Motors_Started,
0.0316470679021325,36.8843909008967,1500,2018-04-12 05:55:15,1803.515194412476,0.0,0.0,0.0486011015552352,1803.515194412476,0.0,0.0,0.0486011015552352,1024,0.0,99,Motors_Started,
0.0316470632284982,36.8843908917958,1600,2018-04-12 05:55:15,1803.515194412476,0.0,0.0,0.048878101564099205,1803.515194412476,0.0,0.0,0.048878101564099205,1024,0.0,99,Assisted_Takeoff,
0.0316470548074072,36.8843908727771,1700,2018-04-12 05:55:15,1803.515194412476,0.0,0.0,0.0493891015804512,1803.515194412476,0.0,0.0,0.0493891015804512,1024,0.0,99,Assisted_Takeoff,
0.0316470345821328,36.8843908487706,1800,2018-04-12 05:55:15,1803.515194412476,0.0,0.0,0.0512393016396576,1803.515194412476,0.0,0.0,0.0512393016396576,1024,0.0,99,Assisted_Takeoff,
0.031647007045959,36.884390836929,1900,2018-04-12 05:55:15,1803.515194412476,0.0,0.0,0.054159801733113605,1803.515194412476,0.0,0.0,0.054159801733113605,1024,0.0,99,Assisted_Takeoff,
0.0316469900360472,36.884390823109,2000,2018-04-12 05:55:16,1803.515194412476,0.0,0.0,0.055944901790236805,1803.515194412476,0.0,0.0,0.055944901790236805,1024,0.0,99,Assisted_Takeoff,
0.0316469773850729,36.8843908164822,2100,2018-04-12 05:55:16,1803.515194412476,0.0,0.0,0.05731750183416,1803.515194412476,0.0,0.0,0.05731750183416,1024,0.0,99,Assisted_Takeoff,
0.0316469517757555,36.8843908090278,2200,2018-04-12 05:55:16,1803.515194412476,0.0,0.0,0.06013950192446401,1803.515194412476,0.0,0.0,0.06013950192446401,1024,0.0,99,Assisted_Takeoff,
0.0316469198444114,36.8843908067775,2300,2018-04-12 05:55:16,1803.515194412476,0.0,0.0,0.06368490203791681,1803.515194412476,0.0,0.0,0.06368490203791681,1024,0.0,99,Assisted_Takeoff,
0.031646897748869,36.8843908036878,2400,2018-04-12 05:55:16,1803.515194412476,0.0,0.0,0.06613710211638721,1803.515194412476,0.0,0.0,0.06613710211638721,1024,0.0,99,Assisted_Takeoff,
0.0316468824402741,36.8843908036578,2500,2018-04-12 05:55:16,1803.515194412476,0.0,0.0,0.0678394021708608,1803.515194412476,0.0,0.0,0.0678394021708608,1024,0.0,99,Assisted_Takeoff,
0.0316468786118023,36.8843908022586,2600,2018-04-12 05:55:16,1803.515194412476,0.0,0.0,0.0682636021844352,1803.515194412476,0.0,0.0,0.0682636021844352,1024,0.0,99,Assisted_Takeoff,
0.0316468726052866,36.8843908032029,2700,2018-04-12 05:55:16,1803.515194412476,0.0,0.0,0.06893250220584,1803.515194412476,0.0,0.0,0.06893250220584,1024,0.0,99,Assisted_Takeoff,
0.0316468513589778,36.8843908031782,2800,2018-04-12 05:55:16,1803.515194412476,0.0,0.0,0.0712951022814432,1803.515194412476,0.0,0.0,0.0712951022814432,1024,0.0,99,Assisted_Takeoff,
0.0316468224703813,36.8843908055099,2900,2018-04-12 05:55:16,1803.515194412476,0.0,0.0,0.0745103023843296,1803.515194412476,0.0,0.0,0.0745103023843296,1024,0.0,99,Assisted_Takeoff,
0.0316468029404524,36.8843908069242,3000,2018-04-12 05:55:16,1803.515194412476,0.0,0.0,0.0766841024538912,1803.515194412476,0.0,0.0,0.0766841024538912,1024,0.0,99,Assisted_Takeoff,
0.0316467890958287,36.8843908101166,3100,2018-04-12 05:55:17,1803.515194412476,0.0,0.0,0.0782293025033376,1803.515194412476,0.0,0.0,0.0782293025033376,1024,0.0,99,Assisted_Takeoff,
0.0316467865583058,36.8843908114901,3200,2018-04-12 05:55:17,1803.515194412476,0.0,0.0,0.0785144025124608,1803.515194412476,0.0,0.0,0.0785144025124608,1024,0.0,99,Assisted_Takeoff,
0.0316467834031956,36.8843908151536,3300,2018-04-12 05:55:17,1803.515194412476,0.0,0.0,0.07887450252398401,1803.515194412476,0.0,0.0,0.07887450252398401,1024,0.0,99,Assisted_Takeoff,
0.0316467899100507,36.8843908165111,3400,2018-04-12 05:55:17,1803.515194412476,0.0,0.0,0.0781551025009632,1803.515194412476,0.0,0.0,0.07887450252398401,1024,0.0,99,Assisted_Takeoff,
0.0316467928208943,36.8843908206467,3500,2018-04-12 05:55:17,1803.515194412476,0.0,0.0,0.07784570249106242,1803.515194412476,0.0,0.0,0.07887450252398401,1024,0.0,99,Assisted_Takeoff,
0.0316467796150277,36.8843908227997,3600,2018-04-12 05:55:17,1803.515194412476,0.0,0.0,0.07932170253829442,1803.515194412476,0.0,0.0,0.07932170253829442,1024,0.0,99,Assisted_Takeoff,
0.0316467555714592,36.8843908271665,3700,2018-04-12 05:55:17,1803.515194412476,0.0,0.0,0.0820121026243872,1803.515194412476,0.0,0.0,0.0820121026243872,1024,0.0,99,Assisted_Takeoff,
0.031646735556254,36.8843908284137,3800,2018-04-12 05:55:17,1803.515194412476,0.0,0.0,0.08424180269573761,1803.515194412476,0.0,0.0,0.08424180269573761,1024,0.0,99,Assisted_Takeoff,
0.0316467224020906,36.884390833333,3900,2018-04-12 05:55:17,1803.515194412476,0.0,0.0,0.0857273027432736,1803.515194412476,0.0,0.0,0.0857273027432736,1024,0.0,99,Assisted_Takeoff,
0.031646715992535,36.8843908343265,4000,2018-04-12 05:55:18,1803.515194412476,0.0,0.0,0.08644450276622401,1803.515194412476,0.0,0.0,0.08644450276622401,1024,0.0,99,Assisted_Takeoff,
0.0316467106300689,36.8843908398399,4100,2018-04-12 05:55:18,1803.515194412476,0.0,0.0,0.087071502786288,1803.515194412476,0.0,0.0,0.087071502786288,1024,0.0,99,Assisted_Takeoff,
0.0316467117292686,36.8843908404544,4200,2018-04-12 05:55:18,1803.515194412476,0.0,0.0,0.0869532027825024,1803.515194412476,0.0,0.0,0.087071502786288,1024,0.0,99,Assisted_Takeoff,
0.0316467115000651,36.8843908446425,4300,2018-04-12 05:55:18,1803.515194412476,0.0,0.0,0.0870057027841824,1803.515194412476,0.0,0.0,0.087071502786288,1024,0.0,99,Assisted_Takeoff,
0.031646717067308,36.8843908433289,4400,2018-04-12 05:55:18,1803.515194412476,0.0,0.0,0.0863789027641248,1803.515194412476,0.0,0.0,0.087071502786288,1024,0.0,99,Assisted_Takeoff,
0.0316467192746639,36.8843908462601,4500,2018-04-12 05:55:18,1803.515194412476,0.0,0.0,0.08615400275692801,1803.515194412476,0.0,0.0,0.087071502786288,1025,0.0,99,Assisted_Takeoff,
0.0316467256821839,36.8843908190045,4600,2018-04-12 05:55:18,1803.515194412476,0.0,0.0,0.08530260272968321,1803.515194412476,0.0,0.0,0.087071502786288,1025,0.0,99,Assisted_Takeoff,
0.0316467279994597,36.8843907917445,4700,2018-04-12 05:55:18,1803.515194412476,0.0,0.0,0.0850123027203936,1803.515194412476,0.0,0.0,0.087071502786288,1024,0.0,99,Assisted_Takeoff,
0.0316467334987151,36.8843907596991,4800,2018-04-12 05:55:18,1803.515194412476,0.0,0.0,0.08450120270403841,1803.515194412476,0.0,0.0,0.087071502786288,1045,0.0,99,Assisted_Takeoff,
0.0316467355591038,36.8843907440356,4900,2018-04-12 05:55:18,1803.515194412476,0.0,0.0,0.0843763027000416,1803.515194412476,0.0,0.0,0.087071502786288,1087,0.0,99,Assisted_Takeoff,
0.0316467156501546,36.8843907279514,5000,2018-04-12 05:55:19,1803.515194412476,0.0,0.0,0.0867253027752096,1803.515194412476,0.0,0.0,0.087071502786288,1161,0.0,99,Assisted_Takeoff,
0.031646686944351,36.8843907214712,5100,2018-04-12 05:55:19,1803.515194412476,0.0,0.0,0.08997000287904,1803.515194412476,0.0,0.0,0.08997000287904,1212,0.0,99,Assisted_Takeoff,
0.0316466594252759,36.8843906880009,5200,2018-04-12 05:55:19,1803.515194412476,0.0,0.0,0.09342750298968001,1803.515194412476,0.0,0.0,0.09342750298968001,1241,0.0,99,Assisted_Takeoff,
0.0316466404070855,36.8843906588835,5300,2018-04-12 05:55:19,1803.515194412476,0.0,0.0,0.09599000307168,1803.515194412476,0.0,0.0,0.09599000307168,1247,0.0,99,Assisted_Takeoff,
0.0316466254453492,36.8843906557093,5400,2018-04-12 05:55:19,1803.515194412476,0.0,0.0,0.09768890312604481,1803.515194412476,0.0,0.0,0.09768890312604481,1252,0.0,99,Assisted_Takeoff,
0.0316466130850521,36.8843906730696,5500,2018-04-12 05:55:19,1803.515194412476,0.0,0.0,0.09875760316024321,1803.515194412476,0.0,0.0,0.09875760316024321,1264,0.0,99,Assisted_Takeoff,
0.0316466039413391,36.8843907097688,5600,2018-04-12 05:55:19,1803.515194412476,0.0,0.0,0.0992826031770432,1803.515194412476,0.0,0.0,0.0992826031770432,1281,0.0,99,Assisted_Takeoff,
0.0316465905628575,36.8843907720096,5700,2018-04-12 05:55:19,1803.515194412476,0.0,0.0,0.10033300321065601,1803.515194412476,0.0,0.0,0.10033300321065601,1306,0.0,99,Assisted_Takeoff,
0.0316465749652137,36.884390794725,5800,2018-04-12 05:55:19,1803.515194412476,0.0,0.0,0.10202900326492802,1803.515194412476,0.0,0.0,0.10202900326492802,1355,0.0,99,P-GPS,Obstacle Avoided. Revise Flight Route
0.0316465719570706,36.8843907681599,5900,2018-04-12 05:55:19,1803.515194412476,0.0,0.0,0.10241400327724799,1803.515194412476,0.0,0.0,0.10241400327724799,1369,0.0,99,P-GPS,
0.0316465882972847,36.8843907302199,6000,2018-04-12 05:55:20,1803.515194412476,0.0,0.0,0.10082100322627201,1803.515194412476,0.0,0.0,0.10241400327724799,1369,0.0,99,P-GPS,
0.0316466021565645,36.884390688973,6100,2018-04-12 05:55:20,1803.615194415676,0.1000000032,0.0,0.09973250319144002,1803.615194415676,0.1000000032,0.0,0.10241400327724799,1374,0.0,99,P-GPS,
0.0316465847965373,36.884390651427,6200,2018-04-12 05:55:20,1803.815194422076,0.3000000096,0.0,0.10222700327126401,1803.815194422076,0.3000000096,0.0,0.10241400327724799,1403,0.0,99,P-GPS,
0.0316465620687515,36.884390590868,6300,2018-04-12 05:55:20,1803.9151944252758,0.4000000128,0.35999970196000003,0.1059750033912,1803.9151944252758,0.4000000128,0.35999970196000003,0.1059750033912,1408,0.0,99,P-GPS,
0.0316465372516721,36.884390477804,6400,2018-04-12 05:55:20,1804.115194431676,0.6000000192,0.35999970196000003,0.11200100358403202,1804.115194431676,0.6000000192,0.35999970196000003,0.11200100358403202,1412,0.0,99,P-GPS,Home Point Recorded. RTH Altitude:  45m.
0.0316465274508819,36.8843903585092,6500,2018-04-12 05:55:20,1804.3151944380759,0.8000000256,0.35999970196000003,0.11787700377206402,1804.3151944380759,0.8000000256,0.35999970196000003,0.11787700377206402,1403,0.0,99,P-GPS,
0.0316465004297036,36.884390229363,6600,2018-04-12 05:55:20,1804.515194444476,1.000000032,0.0,0.127107004067424,1804.515194444476,1.000000032,0.35999970196000003,0.127107004067424,1389,0.0,99,P-GPS,
0.0316464591775531,36.8843901147499,6700,2018-04-12 05:55:20,1804.715194450876,1.2000000384,0.0,0.13770100440643201,1804.715194450876,1.2000000384,0.35999970196000003,0.13770100440643201,1380,0.0,99,P-GPS,
0.0316463695907422,36.8843899600342,6800,2018-04-12 05:55:20,1805.0151944604759,1.5000000480000002,0.35999970196000003,0.155748004983936,1805.0151944604759,1.5000000480000002,0.35999970196000003,0.155748004983936,1378,0.0,99,P-GPS,
0.0316462461131619,36.8843898126198,6900,2018-04-12 05:55:20,1805.215194466876,1.7000000544000002,0.35999970196000003,0.176624005651968,1805.215194466876,1.7000000544000002,0.35999970196000003,0.176624005651968,1376,0.0,99,P-GPS,
0.0316460889011429,36.8843896519261,7000,2018-04-12 05:55:21,1805.415194473276,1.9000000608000003,0.35999970196000003,0.20144500644624,1805.415194473276,1.9000000608000003,0.35999970196000003,0.20144500644624,1377,0.0,99,P-GPS,
0.0316459362280044,36.8843895140409,7100,2018-04-12 05:55:21,1805.6151944796761,2.1000000672000003,0.35999970196000003,0.224297007177504,1805.6151944796761,2.1000000672000003,0.35999970196000003,0.224297007177504,1406,0.0,99,P-GPS,
0.0316457894172643,36.8843893602727,7200,2018-04-12 05:55:21,1805.8151944860758,2.3000000736,0.0,0.24778800792921601,1805.8151944860758,2.3000000736,0.35999970196000003,0.24778800792921601,1420,0.0,99,P-GPS,
0.0316456551325154,36.884389225627,7300,2018-04-12 05:55:21,1806.015194492476,2.50000008,0.0,0.268863008603616,1806.015194492476,2.50000008,0.35999970196000003,0.268863008603616,1424,0.0,99,P-GPS,
0.0316455696485691,36.884389080494,7400,2018-04-12 05:55:21,1806.215194498876,2.7000000864,0.0,0.286643009172576,1806.215194498876,2.7000000864,0.35999970196000003,0.286643009172576,1414,0.0,99,P-GPS,
0.0316454965412043,36.8843889484434,7500,2018-04-12 05:55:21,1806.515194508476,3.0000000960000004,0.35999970196000003,0.302538009681216,1806.515194508476,3.0000000960000004,0.35999970196000003,0.302538009681216,1393,0.0,99,P-GPS,
0.0316454400838652,36.884388797024,7600,2018-04-12 05:55:21,1806.7151945148757,3.2000001024,0.0,0.318689010198048,1806.7151945148757,3.2000001024,0.35999970196000003,0.318689010198048,1398,0.0,99,P-GPS,
0.0316453742625659,36.884388667091,7700,2018-04-12 05:55:21,1806.915194521276,3.4000001088000005,0.0,0.334057010689824,1806.915194521276,3.4000001088000005,0.35999970196000003,0.334057010689824,1399,0.0,99,P-GPS,
0.0316453247277422,36.8843885256451,7800,2018-04-12 05:55:21,1807.1151945276758,3.6000001152000003,0.0,0.349169011173408,1807.1151945276758,3.6000001152000003,0.35999970196000003,0.349169011173408,1404,0.0,99,P-GPS,
0.0316452753366287,36.8843884204187,7900,2018-04-12 05:55:21,1807.315194534076,3.8000001216000006,0.0,0.36145001156640005,1807.315194534076,3.8000001216000006,0.35999970196000003,0.36145001156640005,1427,0.0,99,P-GPS,
0.0316452539286968,36.8843883228961,8000,2018-04-12 05:55:22,1807.615194543676,4.100000131200001,0.0,0.37104701187350403,1807.615194543676,4.100000131200001,0.35999970196000003,0.37104701187350403,1450,0.0,99,P-GPS,
0.0316452348787518,36.8843882505298,8100,2018-04-12 05:55:22,1807.8151945500758,4.3000001376,0.0,0.37845501211056004,1807.8151945500758,4.3000001376,0.35999970196000003,0.37845501211056004,1472,0.0,99,P-GPS,
0.0316452301131104,36.8843881715153,8200,2018-04-12 05:55:22,1808.015194556476,4.500000144,0.0,0.38542001233344003,1808.015194556476,4.500000144,0.35999970196000003,0.38542001233344003,1471,0.0,99,P-GPS,
0.0316452246513093,36.8843881159848,8300,2018-04-12 05:55:22,1808.215194562876,4.7000001504,0.0,0.390511012496352,1808.215194562876,4.7000001504,0.35999970196000003,0.390511012496352,1464,0.0,99,P-GPS,
0.031645249139443,36.8843880809835,8400,2018-04-12 05:55:22,1808.5151945724758,5.00000016,0.0,0.391751012536032,1808.5151945724758,5.00000016,0.35999970196000003,0.391751012536032,1471,0.0,99,P-GPS,
0.0316452785479202,36.8843880741618,8500,2018-04-12 05:55:22,1808.715194578876,5.200000166400001,0.0,0.39026501248848006,1808.715194578876,5.200000166400001,0.35999970196000003,0.391751012536032,1485,0.0,99,P-GPS,
0.0316452949475726,36.8843880849746,8600,2018-04-12 05:55:22,1809.0151945884759,5.5000001759999995,0.0,0.38818201242182404,1809.0151945884759,5.5000001759999995,0.35999970196000003,0.391751012536032,1498,0.0,99,P-GPS,
0.0316453003320227,36.8843881119872,8700,2018-04-12 05:55:22,1809.3151945980758,5.8000001856,0.0,0.38547401233516804,1809.3151945980758,5.8000001856,0.35999970196000003,0.391751012536032,1501,0.0,99,P-GPS,
0.0316453102345906,36.8843881499582,8800,2018-04-12 05:55:22,1809.615194607676,6.100000195200001,0.0,0.381511012208352,1809.615194607676,6.100000195200001,0.35999970196000003,0.391751012536032,1517,0.0,99,P-GPS,
0.0316453325776565,36.8843882035125,8900,2018-04-12 05:55:23,1809.915194617276,6.4000002048,0.0,0.37534001201088,1809.915194617276,6.4000002048,0.35999970196000003,0.391751012536032,1610,0.0,99,P-GPS,
0.031645326267436,36.8843882554587,9100,2018-04-12 05:55:23,1810.5151946364758,7.000000224,0.0,0.371374011883968,1810.5151946364758,7.000000224,0.35999970196000003,0.391751012536032,1610,0.0,99,P-GPS,
0.0316453147860916,36.8843882245792,9200,2018-04-12 05:55:23,1810.815194646076,7.3000002336000005,0.0,0.374818011994176,1810.815194646076,7.3000002336000005,0.35999970196000003,0.391751012536032,1619,0.0,99,P-GPS,
0.031645320267027,36.8843881881583,9300,2018-04-12 05:55:23,1811.2151946588758,7.7000002464,0.0,0.377528012080896,1811.2151946588758,7.7000002464,0.35999970196000003,0.391751012536032,1622,0.0,99,P-GPS,
0.0316453618570796,36.8843881162288,9400,2018-04-12 05:55:23,1811.515194668476,8.000000256,0.0,0.38081501218608005,1811.515194668476,8.000000256,0.35999970196000003,0.391751012536032,1638,0.0,99,P-GPS,
0.0316454277475877,36.8843880927555,9500,2018-04-12 05:55:23,1811.915194681276,8.400000268800001,0.0,0.37837101210787205,1811.915194681276,8.400000268800001,0.35999970196000003,0.391751012536032,1649,0.0,99,P-GPS,
0.0316454363815978,36.8843880434001,9600,2018-04-12 05:55:23,1812.315194694076,8.800000281600001,0.35999970196000003,0.382173012229536,1812.315194694076,8.800000281600001,0.35999970196000003,0.391751012536032,1676,0.0,99,P-GPS,
0.0316454266255898,36.8843880257292,9700,2018-04-12 05:55:23,1812.8151947100757,9.3000002976,0.0,0.384397012300704,1812.8151947100757,9.3000002976,0.35999970196000003,0.391751012536032,1676,0.0,99,P-GPS,
0.0316454225943767,36.8843879537783,9800,2018-04-12 05:55:23,1813.2151947228758,9.7000003104,0.0,0.39110501251536,1813.2151947228758,9.7000003104,0.35999970196000003,0.391751012536032,1678,-0.9,99,P-GPS,
0.0316454481487341,36.884387903196,9900,2018-04-12 05:55:23,1813.715194738876,10.2000003264,0.0,0.39402001260864,1813.715194738876,10.2000003264,0.35999970196000003,0.39402001260864,1678,-2.0,99,P-GPS,
0.0316454728115184,36.8843878101356,10000,2018-04-12 05:55:24,1814.115194751676,10.600000339200001,0.0,0.400974012831168,1814.115194751676,10.600000339200001,0.35999970196000003,0.400974012831168,1678,-6.8,99,P-GPS,
0.0316455195555962,36.8843876688031,10200,2018-04-12 05:55:24,1815.1151947836759,11.6000003712,0.0,0.41129201316134406,1815.1151947836759,11.6000003712,0.35999970196000003,0.41129201316134406,1667,-10.0,99,P-GPS,
0.0316455425459686,36.8843876077484,10300,2018-04-12 05:55:24,1815.5151947964757,12.000000384000002,0.0,0.415711013302752,1815.5151947964757,12.000000384000002,0.35999970196000003,0.415711013302752,1664,-10.0,99,P-GPS,
0.0316456022752588,36.884387550505,10400,2018-04-12 05:55:24,1816.015194812476,12.500000400000001,0.0,0.417774013368768,1816.015194812476,12.500000400000001,0.35999970196000003,0.417774013368768,1655,-13.2,99,P-GPS,
0.0316456787062778,36.8843875357033,10500,2018-04-12 05:55:24,1816.5151948284758,13.000000416,0.0,0.415001013280032,1816.5151948284758,13.000000416,0.35999970196000003,0.417774013368768,1652,-16.2,99,P-GPS,
0.0316457571276625,36.8843874865877,10600,2018-04-12 05:55:24,1817.015194844476,13.500000432,0.0,0.415663013301216,1817.015194844476,13.500000432,0.35999970196000003,0.417774013368768,1649,-16.6,99,P-GPS,
0.0316458313513257,36.8843874430561,10700,2018-04-12 05:55:24,1817.515194860476,14.000000448,0.0,0.416228013319296,1817.515194860476,14.000000448,0.35999970196000003,0.417774013368768,1644,-16.6,99,P-GPS,
0.0316459066261494,36.8843873769634,10800,2018-04-12 05:55:24,1818.015194876476,14.500000464000001,0.0,0.419238013415616,1818.015194876476,14.500000464000001,0.35999970196000003,0.419238013415616,1635,-16.6,99,P-GPS,
0.0316459800416972,36.8843873288862,10900,2018-04-12 05:55:24,1818.5151948924758,15.00000048,0.0,0.42076401346444803,1818.5151948924758,15.00000048,0.35999970196000003,0.42076401346444803,1614,-16.6,99,P-GPS,
0.0316460481375256,36.8843872335133,11000,2018-04-12 05:55:25,1818.915194905276,15.4000004928,0.0,0.427606013683392,1818.915194905276,15.4000004928,0.35999970196000003,0.427606013683392,1612,-16.6,99,P-GPS,
0.03164611060708,36.8843871549184,11100,2018-04-12 05:55:25,1819.415194921276,15.900000508800002,0.0,0.43320601386259205,1819.415194921276,15.900000508800002,0.35999970196000003,0.43320601386259205,1624,-16.6,99,P-GPS,
0.0316461571736574,36.8843870376032,11200,2018-04-12 05:55:25,1819.915194937276,16.400000524800003,0.0,0.443668014197376,1819.915194937276,16.400000524800003,0.35999970196000003,0.443668014197376,1637,-16.6,99,P-GPS,
0.0316462010129983,36.8843869427335,11300,2018-04-12 05:55:25,1820.315194950076,16.800000537600003,0.0,0.452051014465632,1820.315194950076,16.800000537600003,0.35999970196000003,0.452051014465632,1637,-16.6,99,P-GPS,
0.0316462723298889,36.8843868337579,11400,2018-04-12 05:55:25,1820.8151949660758,17.3000005536,0.0,0.461162014757184,1820.8151949660758,17.3000005536,0.35999970196000003,0.461162014757184,1647,-16.6,99,P-GPS,
0.0316463644595151,36.8843867702838,11500,2018-04-12 05:55:25,1821.315194982076,17.8000005696,0.0,0.46504501488144,1821.315194982076,17.8000005696,0.35999970196000003,0.46504501488144,1647,-16.6,99,P-GPS,
0.031646455828658,36.8843866756154,11600,2018-04-12 05:55:25,1821.8151949980759,18.3000005856,0.0,0.472611015123552,1821.8151949980759,18.3000005856,0.35999970196000003,0.472611015123552,1648,-16.6,99,P-GPS,
0.0316465249300506,36.8843866023412,11700,2018-04-12 05:55:25,1822.315195014076,18.8000006016,0.0,0.47873201531942405,1822.315195014076,18.8000006016,0.35999970196000003,0.47873201531942405,1648,-16.6,99,P-GPS,
0.0316465799861137,36.8843864763522,11800,2018-04-12 05:55:25,1822.815195030076,19.300000617600002,0.0,0.49109301571497604,1822.815195030076,19.300000617600002,0.35999970196000003,0.49109301571497604,1649,-16.6,99,P-GPS,
0.0316466148107957,36.8843863627411,11900,2018-04-12 05:55:25,1823.315195046076,19.800000633600003,0.0,0.50269501608624,1823.315195046076,19.800000633600003,0.35999970196000003,0.50269501608624,1651,-16.6,99,P-GPS,
0.031646637562601,36.8843862042666,12000,2018-04-12 05:55:25,1823.715195058876,20.200000646400003,0.0,0.5195250166248,1823.715195058876,20.200000646400003,0.35999970196000003,0.5195250166248,1656,-16.6,99,P-GPS,
0.0316466523814413,36.8843860923835,12100,2018-04-12 05:55:26,1824.3151950780757,20.800000665600002,0.0,0.53147001700704,1824.3151950780757,20.800000665600002,0.35999970196000003,0.53147001700704,1659,-16.6,99,P-GPS,
0.031646665613363,36.8843859391505,12200,2018-04-12 05:55:26,1824.815195094076,21.3000006816,0.0,0.54800501753616,1824.815195094076,21.3000006816,0.35999970196000003,0.54800501753616,1659,-16.6,99,P-GPS,
0.0316466761160126,36.8843858103737,12300,2018-04-12 05:55:26,1825.3151951100758,21.8000006976,0.0,0.561938017982016,1825.3151951100758,21.8000006976,0.35999970196000003,0.561938017982016,1661,-16.6,99,P-GPS,
0.0316466787422857,36.8843856315841,12400,2018-04-12 05:55:26,1825.8151951260759,22.300000713600003,0.0,0.581522018608704,1825.8151951260759,22.300000713600003,0.35999970196000003,0.581522018608704,1657,-16.6,99,P-GPS,
0.0316466707958861,36.8843854885302,12500,2018-04-12 05:55:26,1826.315195142076,22.8000007296,0.0,0.597377019116064,1826.315195142076,22.8000007296,0.35999970196000003,0.597377019116064,1650,-16.6,99,P-GPS,
0.0316466767108018,36.8843853274585,12600,2018-04-12 05:55:26,1826.815195158076,23.300000745600002,0.0,0.6149870196795841,1826.815195158076,23.300000745600002,0.35999970196000003,0.6149870196795841,1643,-16.6,99,P-GPS,
0.0316466897477173,36.8843852175216,12700,2018-04-12 05:55:26,1827.3151951740758,23.8000007616,0.0,0.6268730200599361,1827.3151951740758,23.8000007616,0.35999970196000003,0.6268730200599361,1643,-16.6,99,P-GPS,
0.0316466822312269,36.884385072652,12800,2018-04-12 05:55:26,1827.815195190076,24.3000007776,0.0,0.64294002057408,1827.815195190076,24.3000007776,0.35999970196000003,0.64294002057408,1641,-16.6,99,P-GPS,
0.0316466516718469,36.8843849570368,12900,2018-04-12 05:55:26,1828.315195206076,24.800000793600002,0.0,0.6561480209967361,1828.315195206076,24.800000793600002,0.35999970196000003,0.6561480209967361,1620,-16.6,99,P-GPS,
0.0316466231858831,36.8843847980228,13000,2018-04-12 05:55:27,1828.8151952220758,25.3000008096,0.0,0.6741030215712961,1828.8151952220758,25.3000008096,0.35999970196000003,0.6741030215712961,1622,-16.6,99,P-GPS,
0.0316466014408633,36.8843846822705,13100,2018-04-12 05:55:27,1829.3151952380758,25.8000008256,0.0,0.687189021990048,1829.3151952380758,25.8000008256,0.35999970196000003,0.687189021990048,1633,-16.6,99,P-GPS,
0.0316465885676064,36.8843845349772,13200,2018-04-12 05:55:27,1829.815195254076,26.3000008416,0.0,0.7036050225153601,1829.815195254076,26.3000008416,0.35999970196000003,0.7036050225153601,1651,-16.6,99,P-GPS,
0.0316465826087227,36.8843844268945,13300,2018-04-12 05:55:27,1830.215195266876,26.700000854400002,0.0,0.715597022899104,1830.215195266876,26.700000854400002,0.35999970196000003,0.715597022899104,1677,-16.6,99,P-GPS,
0.0316465861180196,36.8843843001089,13400,2018-04-12 05:55:27,1830.7151952828758,27.200000870400004,0.0,0.729503023344096,1830.7151952828758,27.200000870400004,0.35999970196000003,0.729503023344096,1684,-16.6,99,P-GPS,
0.0316465894774995,36.8843842275328,13500,2018-04-12 05:55:27,1831.2151952988759,27.7000008864,0.0,0.7374460235982719,1831.2151952988759,27.7000008864,0.35999970196000003,0.7374460235982719,1684,-16.6,99,P-GPS,
0.0316465768847421,36.8843841065626,13600,2018-04-12 05:55:27,1831.6151953116757,28.1000008992,0.0,0.75096502403088,1831.6151953116757,28.1000008992,0.35999970196000003,0.75096502403088,1684,-16.6,99,P-GPS,
0.0316465513413767,36.8843840061559,13700,2018-04-12 05:55:27,1832.115195327676,28.600000915200003,0.0,0.762414024397248,1832.115195327676,28.600000915200003,0.35999970196000003,0.762414024397248,1684,-16.6,99,P-GPS,
0.0316465561782625,36.8843838998547,13800,2018-04-12 05:55:27,1832.7151953468758,29.200000934400002,0.0,0.774052024769664,1832.7151953468758,29.200000934400002,0.35999970196000003,0.774052024769664,1684,-16.6,99,P-GPS,
0.0316465791946899,36.8843838684634,13900,2018-04-12 05:55:27,1833.215195362876,29.700000950400003,0.0,0.777173024869536,1833.215195362876,29.700000950400003,0.35999970196000003,0.777173024869536,1684,-16.6,99,P-GPS,
0.0316465914279683,36.8843838159926,14000,2018-04-12 05:55:27,1833.815195382076,30.300000969600003,0.35999970196000003,0.7827830250490561,1833.815195382076,30.300000969600003,0.35999970196000003,0.7827830250490561,1684,-16.6,99,P-GPS,
0.0316465857251574,36.8843837890827,14100,2018-04-12 05:55:28,1834.315195398076,30.8000009856,0.35999970196000003,0.7858320251466241,1834.315195398076,30.8000009856,0.35999970196000003,0.7858320251466241,1684,-16.6,99,P-GPS,
0.0316466170596768,36.8843837308244,14200,2018-04-12 05:55:28,1834.815195414076,31.300001001600002,0.35999970196000003,0.791822025338304,1834.815195414076,31.300001001600002,0.35999970196000003,0.791822025338304,1684,-16.6,99,P-GPS,
0.0316466655356048,36.8843837051971,14300,2018-04-12 05:55:28,1835.4151954332758,31.9000010208,0.35999970196000003,0.794008025408256,1835.4151954332758,31.9000010208,0.35999970196000003,0.794008025408256,1684,-16.6,99,P-GPS,
0.0316466708687589,36.884383617937,14400,2018-04-12 05:55:28,1835.915195449276,32.4000010368,0.35999970196000003,0.8035790257145281,1835.915195449276,32.4000010368,0.35999970196000003,0.8035790257145281,1684,-16.6,99,P-GPS,
0.0316466256712958,36.8843835475769,14500,2018-04-12 05:55:28,1836.415195465276,32.9000010528,0.0,0.81193502598192,1836.415195465276,32.9000010528,0.35999970196000003,0.81193502598192,1684,-16.6,99,P-GPS,
0.0316465473008,36.8843834189928,14600,2018-04-12 05:55:28,1836.9151954812758,33.4000010688,0.0,0.827197026470304,1836.9151954812758,33.4000010688,0.35999970196000003,0.827197026470304,1684,-16.6,99,P-GPS,
0.0316464714771906,36.884383331493,14700,2018-04-12 05:55:28,1837.515195500476,34.000001088,0.0,0.8379500268144001,1837.515195500476,34.000001088,0.35999970196000003,0.8379500268144001,1684,-16.6,99,P-GPS,
0.0316463821102196,36.8843832180253,14800,2018-04-12 05:55:28,1838.0151955164758,34.500001104,0.0,0.851838027258816,1838.0151955164758,34.500001104,0.35999970196000003,0.851838027258816,1684,-16.6,99,P-GPS,
0.0316463097132635,36.8843831620644,14900,2018-04-12 05:55:28,1838.5151955324761,35.00000112,0.0,0.859191027494112,1838.5151955324761,35.00000112,0.35999970196000003,0.859191027494112,1684,-16.6,99,P-GPS,
0.0316462315727854,36.8843830565725,15000,2018-04-12 05:55:29,1839.015195548476,35.500001136,0.0,0.872141027908512,1839.015195548476,35.500001136,0.35999970196000003,0.872141027908512,1684,-16.6,99,P-GPS,
0.0316461720674062,36.8843829889767,15100,2018-04-12 05:55:29,1839.5151955644758,36.000001152,0.0,0.88064002818048,1839.5151955644758,36.000001152,0.35999970196000003,0.88064002818048,1684,-16.6,99,P-GPS,
0.0316461133823557,36.8843828755069,15200,2018-04-12 05:55:29,1840.115195583676,36.6000011712,0.0,0.8941810286137921,1840.115195583676,36.6000011712,0.35999970196000003,0.8941810286137921,1684,-16.6,99,P-GPS,
0.0316460622952177,36.884382798914,15300,2018-04-12 05:55:29,1840.6151955996759,37.10000118720001,0.0,0.903556028913792,1840.6151955996759,37.10000118720001,0.35999970196000003,0.903556028913792,1684,-16.6,99,P-GPS,
0.0316460302718665,36.8843826774278,15400,2018-04-12 05:55:29,1841.115195615676,37.6000012032,0.0,0.917483029359456,1841.115195615676,37.6000012032,0.35999970196000003,0.917483029359456,1684,-16.6,99,P-GPS,
0.0316460157693514,36.8843825976167,15500,2018-04-12 05:55:29,1841.615195631676,38.1000012192,0.0,0.926503029648096,1841.615195631676,38.1000012192,0.35999970196000003,0.926503029648096,1684,-16.6,99,P-GPS,
0.0316460037620196,36.884382470298,15600,2018-04-12 05:55:29,1842.115195647676,38.600001235200004,0.0,0.9406750301016,1842.115195647676,38.600001235200004,0.35999970196000003,0.9406750301016,1684,-16.6,99,P-GPS,
0.0316459829110156,36.8843824030212,15700,2018-04-12 05:55:29,1842.7151956668758,39.2000012544,0.0,0.9484490303503681,1842.7151956668758,39.2000012544,0.35999970196000003,0.9484490303503681,1684,-16.6,99,P-GPS,
0.0316459729925703,36.8843823012699,15800,2018-04-12 05:55:29,1843.215195682876,39.7000012704,0.35999970196000003,0.9597810307129921,1843.215195682876,39.7000012704,0.35999970196000003,0.9597810307129921,1684,-16.6,99,P-GPS,
0.0316459683535404,36.8843822435169,15900,2018-04-12 05:55:29,1843.715195698876,40.2000012864,0.35999970196000003,0.966194030918208,1843.715195698876,40.2000012864,0.35999970196000003,0.966194030918208,1684,-16.6,99,P-GPS,
0.0316459496264345,36.8843821612864,16000,2018-04-12 05:55:29,1844.2151957148758,40.700001302400004,0.35999970196000003,0.975562031217984,1844.2151957148758,40.700001302400004,0.35999970196000003,0.975562031217984,1684,-16.6,99,P-GPS,
0.0316459181693747,36.8843821324195,16100,2018-04-12 05:55:30,1844.715195730876,41.2000013184,0.35999970196000003,0.979342031338944,1844.715195730876,41.2000013184,0.35999970196000003,0.979342031338944,1684,-16.6,99,P-GPS,
0.0316458961133221,36.8843820946412,16200,2018-04-12 05:55:30,1845.215195746876,41.7000013344,0.35999970196000003,0.98391503148528,1845.215195746876,41.7000013344,0.35999970196000003,0.98391503148528,1684,-16.6,99,P-GPS,
0.0316458746113475,36.8843821128174,16300,2018-04-12 05:55:30,1845.8151957660762,42.300001353599995,0.35999970196000003,0.9823620314355841,1845.8151957660762,42.300001353599995,0.35999970196000003,0.98391503148528,1684,-16.6,99,P-GPS,
0.0316458454748204,36.8843820735338,16400,2018-04-12 05:55:30,1846.315195782076,42.800001369600004,0.35999970196000003,0.9872530315920961,1846.315195782076,42.800001369600004,0.35999970196000003,0.9872530315920961,1684,-16.6,99,P-GPS,
0.031645807211679,36.8843820474911,16500,2018-04-12 05:55:30,1846.8151957980758,43.300001385600005,0.35999970196000003,0.99089503170864,1846.8151957980758,43.300001385600005,0.35999970196000003,0.99089503170864,1684,-16.6,99,P-GPS,
0.0316457815510656,36.8843819752662,16600,2018-04-12 05:55:30,1847.3151958140759,43.80000140160001,0.35999970196000003,0.999323031978336,1847.3151958140759,43.80000140160001,0.35999970196000003,0.999323031978336,1684,-16.6,99,P-GPS,
0.0316457645036996,36.8843819450225,16700,2018-04-12 05:55:30,1847.815195830076,44.30000141760001,0.35999970196000003,1.00299003209568,1847.815195830076,44.30000141760001,0.35999970196000003,1.00299003209568,1684,-16.6,99,P-GPS,
0.0316457571740731,36.8843818683611,16800,2018-04-12 05:55:30,1848.4151958492757,44.900001436800004,0.35999970196000003,1.01151003236832,1848.4151958492757,44.900001436800004,0.35999970196000003,1.01151003236832,1684,-16.6,99,P-GPS,
0.0316457545925823,36.8843818196887,16900,2018-04-12 05:55:30,1848.915195865276,45.4000014528,0.35999970196000003,1.0168800325401601,1848.915195865276,45.4000014528,0.35999970196000003,1.0168800325401601,1684,-16.6,99,P-GPS,
0.0316457458449883,36.8843817377558,17000,2018-04-12 05:55:31,1849.4151958812758,45.9000014688,0.35999970196000003,1.02601003283232,1849.4151958812758,45.9000014688,0.35999970196000003,1.02601003283232,1678,-16.6,99,P-GPS,
0.0316457201587269,36.8843816895501,17100,2018-04-12 05:55:31,1849.915195897276,46.4000014848,0.35999970196000003,1.03181003301792,1849.915195897276,46.4000014848,0.35999970196000003,1.03181003301792,1678,-16.6,99,P-GPS,
0.0316457020178608,36.8843815778789,17200,2018-04-12 05:55:31,1850.415195913276,46.9000015008,0.35999970196000003,1.04439003342048,1850.415195913276,46.9000015008,0.35999970196000003,1.04439003342048,1678,-16.6,99,P-GPS,
0.0316456951018591,36.8843815266692,17300,2018-04-12 05:55:31,1850.915195929276,47.4000015168,0.35999970196000003,1.0501300336041601,1850.915195929276,47.4000015168,0.35999970196000003,1.0501300336041601,1674,-16.6,99,P-GPS,
0.0316456788438813,36.8843814203423,17400,2018-04-12 05:55:31,1851.5151959484758,48.000001536000006,0.35999970196000003,1.06208003398656,1851.5151959484758,48.000001536000006,0.35999970196000003,1.06208003398656,1668,-16.6,99,P-GPS,
0.0316456539897548,36.8843813611782,17500,2018-04-12 05:55:31,1852.015195964476,48.50000155200001,0.35999970196000003,1.0690700342102402,1852.015195964476,48.50000155200001,0.35999970196000003,1.0690700342102402,1663,-16.6,99,P-GPS,
0.0316456527256752,36.8843812695866,17600,2018-04-12 05:55:31,1852.515195980476,49.000001568,0.35999970196000003,1.07909003453088,1852.515195980476,49.000001568,0.35999970196000003,1.07909003453088,1645,-16.6,99,P-GPS,
0.0316456675099111,36.8843812314101,17700,2018-04-12 05:55:31,1853.0151959964758,49.500001584,0.35999970196000003,1.0829500346544,1853.0151959964758,49.500001584,0.35999970196000003,1.0829500346544,1627,-16.6,99,P-GPS,
0.0316456865973103,36.8843811502373,17800,2018-04-12 05:55:31,1853.515196012476,50.000001600000004,0.35999970196000003,1.09143003492576,1853.515196012476,50.000001600000004,0.35999970196000003,1.09143003492576,1642,-16.6,99,P-GPS,
0.031645690619567,36.8843811189595,17900,2018-04-12 05:55:31,1854.0151960284759,50.500001616000006,0.35999970196000003,1.0947600350323201,1854.0151960284759,50.500001616000006,0.35999970196000003,1.0947600350323201,1676,-16.6,99,P-GPS,
0.0316457019388812,36.8843810597441,18000,2018-04-12 05:55:32,1854.515196044476,51.00000163200001,0.35999970196000003,1.10101003523232,1854.515196044476,51.00000163200001,0.35999970196000003,1.10101003523232,1684,-16.6,99,P-GPS,
0.0316457049225977,36.8843810553483,18100,2018-04-12 05:55:32,1855.015196060476,51.500001648,0.35999970196000003,1.10143003524576,1855.015196060476,51.500001648,0.35999970196000003,1.10143003524576,1684,-16.6,99,P-GPS,
0.0316457903601334,36.8843810317037,18200,2018-04-12 05:55:32,1855.515196076476,52.000001664,0.35999970196000003,1.1023500352752,1855.515196076476,52.000001664,0.35999970196000003,1.1023500352752,1684,-16.6,99,P-GPS,
0.0316459021072173,36.8843810434478,18300,2018-04-12 05:55:32,1856.015196092476,52.500001680000004,0.35999970196000003,1.09899003516768,1856.015196092476,52.500001680000004,0.35999970196000003,1.1023500352752,1684,-16.6,99,P-GPS,
0.0316460630528513,36.8843810420261,18400,2018-04-12 05:55:32,1856.615196111676,53.1000016992,0.35999970196000003,1.09641003508512,1856.615196111676,53.1000016992,0.35999970196000003,1.1023500352752,1684,-16.6,99,P-GPS,
0.0316461818368489,36.8843810788409,18500,2018-04-12 05:55:32,1857.115196127676,53.6000017152,0.35999970196000003,1.09052003489664,1857.115196127676,53.6000017152,0.35999970196000003,1.1023500352752,1684,-16.6,99,P-GPS,
0.0316462970264635,36.8843810508177,18600,2018-04-12 05:55:32,1857.6151961436758,54.1000017312,0.35999970196000003,1.0919700349430401,1857.6151961436758,54.1000017312,0.35999970196000003,1.1023500352752,1684,-16.6,99,P-GPS,
0.0316463557493753,36.8843810357419,18700,2018-04-12 05:55:32,1858.115196159676,54.6000017472,0.35999970196000003,1.09286003497152,1858.115196159676,54.6000017472,0.35999970196000003,1.1023500352752,1684,-16.6,99,P-GPS,
0.031646377618564,36.8843809465698,18800,2018-04-12 05:55:32,1858.615196175676,55.1000017632,0.35999970196000003,1.10243003527776,1858.615196175676,55.1000017632,0.35999970196000003,1.10243003527776,1684,-16.6,99,P-GPS,
0.0316463610047712,36.8843808944844,18900,2018-04-12 05:55:32,1859.215196194876,55.7000017824,0.35999970196000003,1.1084000354688,1859.215196194876,55.7000017824,0.35999970196000003,1.1084000354688,1684,-16.6,99,P-GPS,
0.0316463248455794,36.8843807926131,19000,2018-04-12 05:55:32,1859.715196210876,56.2000017984,0.35999970196000003,1.12011003584352,1859.715196210876,56.2000017984,0.35999970196000003,1.12011003584352,1684,-16.6,99,P-GPS,
0.0316462868898067,36.8843807485035,19100,2018-04-12 05:55:33,1860.2151962268758,56.700001814400004,0.35999970196000003,1.12548003601536,1860.2151962268758,56.700001814400004,0.35999970196000003,1.12548003601536,1684,-16.6,99,P-GPS,
0.0316462524962552,36.8843806413029,19200,2018-04-12 05:55:33,1860.715196242876,57.200001830400005,0.35999970196000003,1.13777003640864,1860.715196242876,57.200001830400005,0.35999970196000003,1.13777003640864,1684,-16.6,99,P-GPS,
0.0316462388816492,36.8843805962276,19300,2018-04-12 05:55:33,1861.215196258876,57.700001846400006,0.35999970196000003,1.14293003657376,1861.215196258876,57.700001846400006,0.35999970196000003,1.14293003657376,1684,-16.6,99,P-GPS,
0.0316462321508831,36.8843804986494,19400,2018-04-12 05:55:33,1861.715196274876,58.2000018624,0.35999970196000003,1.1538000369216002,1861.715196274876,58.2000018624,0.35999970196000003,1.1538000369216002,1684,-16.6,99,P-GPS,
0.0316462294643576,36.8843804602074,19500,2018-04-12 05:55:33,1862.2151962908758,58.7000018784,0.35999970196000003,1.15808003705856,1862.2151962908758,58.7000018784,0.35999970196000003,1.15808003705856,1684,-16.6,99,P-GPS,
0.0316462382038094,36.8843803503475,19600,2018-04-12 05:55:33,1862.7151963068761,59.2000018944,0.35999970196000003,1.17009003744288,1862.7151963068761,59.2000018944,0.35999970196000003,1.17009003744288,1684,-16.6,99,P-GPS,
0.0316462513429098,36.8843802874708,19700,2018-04-12 05:55:33,1863.215196322876,59.700001910400005,0.35999970196000003,1.17686003765952,1863.215196322876,59.700001910400005,0.35999970196000003,1.17686003765952,1684,-16.6,99,P-GPS,
0.0316462641412583,36.8843801780435,19800,2018-04-12 05:55:33,1863.7151963388758,60.2000019264,0.35999970196000003,1.18878003804096,1863.7151963388758,60.2000019264,0.35999970196000003,1.18878003804096,1684,-16.6,99,P-GPS,
0.0316462722309609,36.8843801429716,19900,2018-04-12 05:55:33,1864.215196354876,60.7000019424,0.35999970196000003,1.1925500381616,1864.215196354876,60.7000019424,0.35999970196000003,1.1925500381616,1684,-16.6,99,P-GPS,
0.031646280967563,36.8843800457959,20000,2018-04-12 05:55:34,1864.715196370876,61.2000019584,0.35999970196000003,1.2031800385017601,1864.715196370876,61.2000019584,0.35999970196000003,1.2031800385017601,1684,-16.6,99,P-GPS,
0.0316462832498272,36.8843799899977,20100,2018-04-12 05:55:34,1865.215196386876,61.7000019744,0.35999970196000003,1.2093200386982401,1865.215196386876,61.7000019744,0.35999970196000003,1.2093200386982401,1684,-16.6,99,P-GPS,
0.0316462902663853,36.8843798490228,20200,2018-04-12 05:55:34,1865.715196402876,62.200001990400004,0.35999970196000003,1.22481003919392,1865.715196402876,62.200001990400004,0.35999970196000003,1.22481003919392,1684,-16.6,99,P-GPS,
0.0316462985673786,36.8843797649017,20300,2018-04-12 05:55:34,1866.215196418876,62.7000020064,0.35999970196000003,1.23401003948832,1866.215196418876,62.7000020064,0.35999970196000003,1.23401003948832,1684,-16.6,98,P-GPS,
0.031646310514458,36.8843796231966,20400,2018-04-12 05:55:34,1866.715196434876,63.2000020224,0.35999970196000003,1.24954003998528,1866.715196434876,63.2000020224,0.35999970196000003,1.24954003998528,1684,-16.6,98,P-GPS,
0.0316463128687809,36.8843795516697,20500,2018-04-12 05:55:34,1867.2151964508757,63.7000020384,0.35999970196000003,1.2574200402374403,1867.2151964508757,63.7000020384,0.35999970196000003,1.2574200402374403,1684,-16.6,98,P-GPS,
0.0316463134151238,36.8843794264386,20600,2018-04-12 05:55:34,1867.715196466876,64.2000020544,0.35999970196000003,1.2712700406806399,1867.715196466876,64.2000020544,0.35999970196000003,1.2712700406806399,1684,-16.6,98,P-GPS,
0.0316463033155142,36.8843793582026,20700,2018-04-12 05:55:34,1868.2151964828759,64.7000020704,0.35999970196000003,1.2789300409257602,1868.2151964828759,64.7000020704,0.35999970196000003,1.2789300409257602,1684,-16.6,98,P-GPS,
0.0316463139435539,36.8843792221116,20800,2018-04-12 05:55:34,1868.715196498876,65.2000020864,0.35999970196000003,1.29387004140384,1868.715196498876,65.2000020864,0.35999970196000003,1.29387004140384,1684,-16.6,98,P-GPS,
0.0316463216587145,36.8843791737625,20900,2018-04-12 05:55:34,1869.215196514876,65.7000021024,0.35999970196000003,1.29913004157216,1869.215196514876,65.7000021024,0.35999970196000003,1.29913004157216,1684,-16.6,98,P-GPS,
0.0316463135694189,36.8843790682513,21000,2018-04-12 05:55:35,1869.715196530876,66.20000211840001,0.35999970196000003,1.3108900419484801,1869.715196530876,66.20000211840001,0.35999970196000003,1.3108900419484801,1684,-16.6,98,P-GPS,
0.0316462811755967,36.8843790164657,21100,2018-04-12 05:55:35,1870.2151965468759,66.70000213440001,0.35999970196000003,1.3169900421436802,1870.2151965468759,66.70000213440001,0.35999970196000003,1.3169900421436802,1684,-16.6,98,P-GPS,
0.0316462615805301,36.8843788947611,21200,2018-04-12 05:55:35,1870.7151965628761,67.20000215040001,0.35999970196000003,1.33067004258144,1870.7151965628761,67.20000215040001,0.35999970196000003,1.33067004258144,1684,-16.6,98,P-GPS,
0.0316462482944626,36.8843788440845,21300,2018-04-12 05:55:35,1871.215196578876,67.7000021664,0.35999970196000003,1.33643004276576,1871.215196578876,67.7000021664,0.35999970196000003,1.33643004276576,1684,-16.6,98,P-GPS,
0.0316462435182364,36.8843787258743,21400,2018-04-12 05:55:35,1871.7151965948758,68.2000021824,0.35999970196000003,1.34956004318592,1871.7151965948758,68.2000021824,0.35999970196000003,1.34956004318592,1684,-16.6,98,P-GPS,
0.0316462270823511,36.8843786645091,21500,2018-04-12 05:55:35,1872.215196610876,68.7000021984,0.35999970196000003,1.35654004340928,1872.215196610876,68.7000021984,0.35999970196000003,1.35654004340928,1684,-16.6,98,P-GPS,
0.0316462145250123,36.8843785462667,21600,2018-04-12 05:55:35,1872.715196626876,69.2000022144,0.35999970196000003,1.36976004383232,1872.715196626876,69.2000022144,0.35999970196000003,1.36976004383232,1684,-16.6,98,P-GPS,
0.0316461927490521,36.8843785089509,21700,2018-04-12 05:55:35,1873.215196642876,69.7000022304,0.35999970196000003,1.37414004397248,1873.215196642876,69.7000022304,0.35999970196000003,1.37414004397248,1684,-16.6,98,P-GPS,
0.0316461869884315,36.8843784093493,21800,2018-04-12 05:55:35,1873.7151966588758,70.2000022464,0.35999970196000003,1.38522004432704,1873.7151966588758,70.2000022464,0.35999970196000003,1.38522004432704,1684,-16.6,98,P-GPS,
0.0316461758791865,36.8843783743823,21900,2018-04-12 05:55:35,1874.215196674876,70.7000022624,0.35999970196000003,1.3892200444550402,1874.215196674876,70.7000022624,0.35999970196000003,1.3892200444550402,1684,-16.6,98,P-GPS,
0.0316461833427525,36.884378264621,22000,2018-04-12 05:55:36,1874.715196690876,71.2000022784,0.35999970196000003,1.40127004484064,1874.715196690876,71.2000022784,0.35999970196000003,1.40127004484064,1684,-16.6,98,P-GPS,
0.0316461821002497,36.8843782127369,22100,2018-04-12 05:55:36,1875.2151967068758,71.70000229440001,0.35999970196000003,1.40703004502496,1875.2151967068758,71.70000229440001,0.35999970196000003,1.40703004502496,1681,-16.6,98,P-GPS,
0.0316461917858275,36.8843781006053,22200,2018-04-12 05:55:36,1875.815196726076,72.3000023136,0.35999970196000003,1.4193200454182402,1875.815196726076,72.3000023136,0.35999970196000003,1.4193200454182402,1678,-16.6,98,P-GPS,
0.0316461841292909,36.8843780620455,22300,2018-04-12 05:55:36,1876.3151967420758,72.8000023296,0.35999970196000003,1.42367004555744,1876.3151967420758,72.8000023296,0.35999970196000003,1.42367004555744,1672,-16.6,98,P-GPS,
0.0316461669622343,36.8843779458029,22400,2018-04-12 05:55:36,1876.8151967580761,73.3000023456,0.35999970196000003,1.43673004597536,1876.8151967580761,73.3000023456,0.35999970196000003,1.43673004597536,1645,-16.6,98,P-GPS,
0.0316461290056474,36.8843778910004,22500,2018-04-12 05:55:36,1877.315196774076,73.80000236160001,0.35999970196000003,1.44323004618336,1877.315196774076,73.80000236160001,0.35999970196000003,1.44323004618336,1638,-16.6,98,P-GPS,
0.031646102076069,36.8843777629344,22600,2018-04-12 05:55:36,1877.8151967900758,74.30000237760001,0.35999970196000003,1.4577000466464,1877.8151967900758,74.30000237760001,0.35999970196000003,1.4577000466464,1641,-16.6,98,P-GPS,
0.0316460761614184,36.8843777057767,22700,2018-04-12 05:55:36,1878.2151968028759,74.7000023904,0.35999970196000003,1.46433004685856,1878.2151968028759,74.7000023904,0.35999970196000003,1.46433004685856,1644,-16.6,98,P-GPS,
0.0316460679927362,36.8843775717605,22800,2018-04-12 05:55:36,1878.7151968188762,75.2000024064,0.35999970196000003,1.4792500473360002,1878.7151968188762,75.2000024064,0.35999970196000003,1.4792500473360002,1642,-16.6,98,P-GPS,
0.0316460558718204,36.8843775151402,22900,2018-04-12 05:55:36,1879.115196831676,75.60000241920001,0.7199994039200001,1.4856500475408,1879.115196831676,75.60000241920001,0.7199994039200001,1.4856500475408,1643,-16.6,98,P-GPS,
0.0316460458841663,36.8843774180929,23000,2018-04-12 05:55:37,1879.615196847676,76.1000024352,0.7199994039200001,1.496500047888,1879.615196847676,76.1000024352,0.7199994039200001,1.496500047888,1635,-16.6,98,P-GPS,
0.0316460192212456,36.8843773974673,23100,2018-04-12 05:55:37,1880.115196863676,76.6000024512,0.7199994039200001,1.4991000479712002,1880.115196863676,76.6000024512,0.7199994039200001,1.4991000479712002,1627,-16.6,98,P-GPS,
0.031646008300493,36.8843773159947,23200,2018-04-12 05:55:37,1880.5151968764758,77.000002464,0.7199994039200001,1.5082400482636802,1880.5151968764758,77.000002464,0.7199994039200001,1.5082400482636802,1631,-16.6,98,P-GPS,
0.0316459774101317,36.8843772040237,23400,2018-04-12 05:55:37,1881.515196908476,78.00000249600001,0.7199994039200001,1.52099004867168,1881.515196908476,78.00000249600001,0.7199994039200001,1.52099004867168,1629,-16.6,98,P-GPS,
0.0316459473759249,36.8843771629759,23500,2018-04-12 05:55:37,1881.915196921276,78.4000025088,0.7199994039200001,1.5259000488288001,1881.915196921276,78.4000025088,0.7199994039200001,1.5259000488288001,1626,-16.6,98,P-GPS,
0.0316459565005037,36.8843770761783,23600,2018-04-12 05:55:37,1882.4151969372758,78.9000025248,0.7199994039200001,1.53538004913216,1882.4151969372758,78.9000025248,0.7199994039200001,1.53538004913216,1621,-16.6,98,P-GPS,
0.031645988843437,36.8843770526322,23700,2018-04-12 05:55:37,1882.815196950076,79.30000253760001,0.7199994039200001,1.53759004920288,1882.815196950076,79.30000253760001,0.7199994039200001,1.53759004920288,1615,-16.6,98,P-GPS,
0.0316460444043178,36.8843769510586,23800,2018-04-12 05:55:37,1883.315196966076,79.80000255360001,0.7199994039200001,1.54816004954112,1883.315196966076,79.80000255360001,0.7199994039200001,1.54816004954112,1615,-16.6,98,P-GPS,
0.0316460896966378,36.8843769111477,23900,2018-04-12 05:55:37,1883.715196978876,80.20000256640002,0.7199994039200001,1.5520600496659203,1883.715196978876,80.20000256640002,0.7199994039200001,1.5520600496659203,1615,-16.6,98,P-GPS,
0.0316461417323444,36.8843767951921,24000,2018-04-12 05:55:38,1884.1151969916762,80.6000025792,0.7199994039200001,1.5643300500585602,1884.1151969916762,80.6000025792,0.7199994039200001,1.5643300500585602,1614,-16.6,98,P-GPS,
0.0316461673787089,36.8843767686655,24100,2018-04-12 05:55:38,1884.615197007676,81.1000025952,0.7199994039200001,1.56699005014368,1884.615197007676,81.1000025952,0.7199994039200001,1.56699005014368,1612,-16.6,98,P-GPS,
0.0316461967810794,36.8843766706183,24200,2018-04-12 05:55:38,1885.0151970204759,81.500002608,0.7199994039200001,1.5775500504816002,1885.0151970204759,81.500002608,0.7199994039200001,1.5775500504816002,1612,-16.6,98,P-GPS,
0.0316462240660657,36.8843766294142,24300,2018-04-12 05:55:38,1885.415197033276,81.90000262080001,0.7199994039200001,1.5818400506188801,1885.415197033276,81.90000262080001,0.7199994039200001,1.5818400506188801,1607,-16.6,98,P-GPS,
0.0316462550455843,36.8843764956657,24400,2018-04-12 05:55:38,1885.9151970492758,82.4000026368,0.7199994039200001,1.5963500510832,1885.9151970492758,82.4000026368,0.7199994039200001,1.5963500510832,1553,-16.6,98,P-GPS,
0.0316462671453303,36.8843764477962,24500,2018-04-12 05:55:38,1886.3151970620759,82.8000026496,0.7199994039200001,1.6015400512492801,1886.3151970620759,82.8000026496,0.7199994039200001,1.6015400512492801,1521,-16.6,98,P-GPS,
0.0316462890898345,36.8843763293482,24600,2018-04-12 05:55:38,1886.7151970748757,83.20000266240001,0.7199994039200001,1.61446005166272,1886.7151970748757,83.20000266240001,0.7199994039200001,1.61446005166272,1512,-16.6,98,P-GPS,
0.0316463123509357,36.8843762930452,24700,2018-04-12 05:55:38,1887.1151970876758,83.60000267520002,0.7199994039200001,1.61827005178464,1887.1151970876758,83.60000267520002,0.7199994039200001,1.61827005178464,1514,-16.6,98,P-GPS,
0.0316463621438678,36.8843761775755,24800,2018-04-12 05:55:38,1887.5151971004757,84.000002688,0.7199994039200001,1.63063005218016,1887.5151971004757,84.000002688,0.7199994039200001,1.63063005218016,1524,-16.6,98,P-GPS,
0.0316464081270551,36.8843761339284,24900,2018-04-12 05:55:38,1887.915197113276,84.4000027008,0.7199994039200001,1.6350900523228802,1887.915197113276,84.4000027008,0.7199994039200001,1.6350900523228802,1538,-16.6,98,P-GPS,
0.0316464500806578,36.8843760419321,25000,2018-04-12 05:55:39,1888.215197122876,84.70000271040001,0.7199994039200001,1.6449600526387202,1888.215197122876,84.70000271040001,0.7199994039200001,1.6449600526387202,1551,-16.6,98,P-GPS,
0.0316464746538777,36.8843760109883,25100,2018-04-12 05:55:39,1888.5151971324758,85.00000272,0.7199994039200001,1.6482000527424001,1888.5151971324758,85.00000272,0.7199994039200001,1.6482000527424001,1584,-16.6,98,P-GPS,
0.0316465110101113,36.8843759035373,25200,2018-04-12 05:55:39,1888.915197145276,85.4000027328,0.7199994039200001,1.6598500531152,1888.915197145276,85.4000027328,0.7199994039200001,1.6598500531152,1613,-16.6,98,P-GPS,
0.0316465401625157,36.8843759060017,25300,2018-04-12 05:55:39,1889.215197154876,85.7000027424,0.7199994039200001,1.65937005309984,1889.215197154876,85.7000027424,0.7199994039200001,1.6598500531152,1622,-16.6,98,P-GPS,
0.0316465837400842,36.8843758301218,25400,2018-04-12 05:55:39,1889.615197167676,86.10000275520001,0.7199994039200001,1.6674900533596801,1889.615197167676,86.10000275520001,0.7199994039200001,1.6674900533596801,1622,-16.6,98,P-GPS,
0.0316466129128442,36.8843758115881,25500,2018-04-12 05:55:39,1890.015197180476,86.500002768,0.7199994039200001,1.6693500534192,1890.015197180476,86.500002768,0.7199994039200001,1.6693500534192,1622,-16.6,98,P-GPS,
0.0316466557576129,36.8843757104213,25600,2018-04-12 05:55:39,1890.4151971932758,86.90000278080001,0.7199994039200001,1.68031005376992,1890.4151971932758,86.90000278080001,0.7199994039200001,1.68031005376992,1623,-16.6,98,P-GPS,
0.0316466989752952,36.8843757073338,25700,2018-04-12 05:55:39,1890.815197206076,87.3000027936,0.7199994039200001,1.68039005377248,1890.815197206076,87.3000027936,0.7199994039200001,1.68039005377248,1622,-16.6,98,P-GPS,
0.0316467793398207,36.8843756294091,25800,2018-04-12 05:55:39,1891.3151972220758,87.8000028096,0.7199994039200001,1.6886000540352,1891.3151972220758,87.8000028096,0.7199994039200001,1.6886000540352,1619,-16.6,98,P-GPS,
0.031646865542725,36.8843756304583,25900,2018-04-12 05:55:39,1891.7151972348759,88.20000282240001,0.7199994039200001,1.6880700540182403,1891.7151972348759,88.20000282240001,0.7199994039200001,1.6886000540352,1615,-16.6,98,P-GPS,
0.0316469701690305,36.8843755112823,26000,2018-04-12 05:55:40,1892.215197250876,88.70000283840001,0.7199994039200001,1.7008700544278401,1892.215197250876,88.70000283840001,0.7199994039200001,1.7008700544278401,1611,-16.6,98,P-GPS,
0.0316470486030356,36.8843754820151,26100,2018-04-12 05:55:40,1892.615197263676,89.1000028512,0.7199994039200001,1.7038500545232,1892.615197263676,89.1000028512,0.7199994039200001,1.7038500545232,1607,-16.6,98,P-GPS,
0.0316471361856391,36.8843753434211,26200,2018-04-12 05:55:40,1893.1151972796758,89.6000028672,0.7199994039200001,1.719000055008,1893.1151972796758,89.6000028672,0.7199994039200001,1.719000055008,1608,-16.6,98,P-GPS,
0.0316472063988518,36.8843752748832,26300,2018-04-12 05:55:40,1893.515197292476,90.00000288,0.7199994039200001,1.72646005524672,1893.515197292476,90.00000288,0.7199994039200001,1.72646005524672,1612,-16.6,98,P-GPS,
0.0316472623855706,36.8843750781508,26400,2018-04-12 05:55:40,1893.9151973052758,90.4000028928,0.7199994039200001,1.74823005594336,1893.9151973052758,90.4000028928,0.7199994039200001,1.74823005594336,1612,-16.6,98,P-GPS,
0.0316472828148076,36.8843749770333,26500,2018-04-12 05:55:40,1894.315197318076,90.8000029056,0.7199994039200001,1.75944005630208,1894.315197318076,90.8000029056,0.7199994039200001,1.75944005630208,1613,-16.6,98,P-GPS,
0.0316473195386624,36.8843747596839,26600,2018-04-12 05:55:40,1894.815197334076,91.3000029216,0.7199994039200001,1.78356005707392,1894.815197334076,91.3000029216,0.7199994039200001,1.78356005707392,1613,-16.6,98,P-GPS,
0.0316473485274083,36.8843746531343,26700,2018-04-12 05:55:40,1895.215197346876,91.7000029344,0.7199994039200001,1.7953800574521601,1895.215197346876,91.7000029344,0.7199994039200001,1.7953800574521601,1614,-16.6,98,P-GPS,
0.031647370004549,36.8843744394334,26800,2018-04-12 05:55:40,1895.6151973596761,92.10000294720001,0.7199994039200001,1.8191300582121601,1895.6151973596761,92.10000294720001,0.7199994039200001,1.8191300582121601,1605,-16.6,98,P-GPS,
0.031647360464717,36.8843743463472,26900,2018-04-12 05:55:40,1896.015197372476,92.50000296000002,0.7199994039200001,1.8294800585433602,1896.015197372476,92.50000296000002,0.7199994039200001,1.8294800585433602,1596,-16.6,98,P-GPS,
0.0316473660987261,36.8843741489576,27000,2018-04-12 05:55:41,1896.5151973884758,93.00000297599999,0.7199994039200001,1.8514300592457602,1896.5151973884758,93.00000297599999,0.7199994039200001,1.8514300592457602,1534,-16.6,98,P-GPS,
0.0316473686728889,36.8843740591602,27100,2018-04-12 05:55:41,1896.915197401276,93.4000029888,0.7199994039200001,1.8614100595651202,1896.915197401276,93.4000029888,0.7199994039200001,1.8614100595651202,1417,-16.6,98,P-GPS,
0.0316473819882684,36.8843738199134,27200,2018-04-12 05:55:41,1897.315197414076,93.8000030016,0.7199994039200001,1.8880100604163201,1897.315197414076,93.8000030016,0.7199994039200001,1.8880100604163201,1279,-16.6,98,P-GPS,
0.0316473774103052,36.8843736697144,27300,2018-04-12 05:55:41,1897.7151974268759,94.20000301440001,0.7199994039200001,1.90471006095072,1897.7151974268759,94.20000301440001,0.7199994039200001,1.90471006095072,1279,-16.6,98,P-GPS,
0.0316474074050223,36.8843734274079,27400,2018-04-12 05:55:41,1898.015197436476,94.50000302400001,0.7199994039200001,1.9316400618124803,1898.015197436476,94.50000302400001,0.7199994039200001,1.9316400618124803,1180,-16.6,98,P-GPS,
0.0316474284888938,36.8843733052686,27500,2018-04-12 05:55:41,1898.2151974428757,94.7000030304,0.35999970196000003,1.94521006224672,1898.2151974428757,94.7000030304,0.7199994039200001,1.94521006224672,1134,-16.6,98,P-GPS,
0.0316474390057923,36.8843730644309,27600,2018-04-12 05:55:41,1898.3151974460761,94.8000030336,0.35999970196000003,1.9719900631036802,1898.3151974460761,94.8000030336,0.7199994039200001,1.9719900631036802,1087,-16.6,98,P-GPS,
0.0316474136716819,36.8843729296974,27700,2018-04-12 05:55:41,1898.4151974492759,94.9000030368,0.35999970196000003,1.9869900635836801,1898.4151974492759,94.9000030368,0.7199994039200001,1.9869900635836801,1058,-16.6,98,P-GPS,
0.0316473945281014,36.8843726998587,27800,2018-04-12 05:55:41,1898.5151974524758,95.00000304000001,0.7199994039200001,2.0125500644016,1898.5151974524758,95.00000304000001,0.7199994039200001,2.0125500644016,1025,-16.6,98,P-GPS,
0.0316473692611643,36.8843725796636,27900,2018-04-12 05:55:41,1898.5151974524758,95.00000304000001,0.7919993443119999,2.0259400648300803,1898.5151974524758,95.00000304000001,0.7919993443119999,2.0259400648300803,1024,-16.6,98,P-GPS,
0.0316473626834719,36.8843723857961,28000,2018-04-12 05:55:42,1898.5151974524758,95.00000304000001,0.7919993443119999,2.04750006552,1898.5151974524758,95.00000304000001,0.7919993443119999,2.04750006552,1024,-16.6,98,P-GPS,
0.0316473499343839,36.8843723060001,28100,2018-04-12 05:55:42,1898.5151974524758,95.00000304000001,0.7919993443119999,2.05639006580448,1898.5151974524758,95.00000304000001,0.7919993443119999,2.05639006580448,1024,-16.6,98,P-GPS,
0.0316473374727162,36.884372190766,28200,2018-04-12 05:55:42,1898.6151974556758,95.1000030432,0.7919993443119999,2.06921006621472,1898.6151974556758,95.1000030432,0.7919993443119999,2.06921006621472,1024,-16.6,98,P-GPS,
0.0316473164682313,36.8843722014203,28300,2018-04-12 05:55:42,1898.6151974556758,95.1000030432,1.151999046272,2.0680500661776002,1898.6151974556758,95.1000030432,1.151999046272,2.06921006621472,1024,-16.6,98,P-GPS,
0.0316473264131388,36.8843721439328,28400,2018-04-12 05:55:42,1898.6151974556758,95.1000030432,1.151999046272,2.07443006638176,1898.6151974556758,95.1000030432,1.151999046272,2.07443006638176,1024,-16.6,98,P-GPS,
