latitude,longitude,time_millisecond,datetime_utc,altitude_m,ascent_m,speed_kph,distance_m,max_altitude_m,max_ascent_m,max_speed_kph,max_distance_m,rc_throttle,gimbal_pitch_degrees,battery_percent,flycState,message
0.37900566449474604,36.9222657050561,0,2018-04-15 05:05:27,1621.073538174354,0.0,0.0,0.0,1621.073538174354,0.0,0.0,0.0,364,0.0,98,P-GPS,
0.379005641963595,36.9222656831629,100,2018-04-15 05:05:27,1621.073538174354,0.0,0.0,0.0034936201117958397,1621.073538174354,0.0,0.0,0.0034936201117958397,364,0.0,98,Motors_Started,
0.37900561547084705,36.9222656562265,200,2018-04-15 05:05:27,1621.073538174354,0.0,0.0,0.0076946002462272,1621.073538174354,0.0,0.0,0.0076946002462272,364,0.0,98,Motors_Started,
0.37900559964562797,36.922265643225295,300,2018-04-15 05:05:28,1621.073538174354,0.0,0.0,0.0099641503188528,1621.073538174354,0.0,0.0,0.0099641503188528,364,0.0,98,Motors_Started,
0.37900558200673,36.92226562562829,400,2018-04-15 05:05:28,1621.073538174354,0.0,0.0,0.0127343004074976,1621.073538174354,0.0,0.0,0.0127343004074976,364,0.0,98,Motors_Started,
0.37900557291919795,36.9222656194704,500,2018-04-15 05:05:28,1621.073538174354,0.0,0.0,0.0139388004460416,1621.073538174354,0.0,0.0,0.0139388004460416,418,0.0,98,Motors_Started,Setting new Return-To-Home altitude to 30m (98 ft). Setting new Maximum Flight Altitude to 150m (492 ft)
0.379005565060734,36.9222655977503,600,2018-04-15 05:05:28,1621.073538174354,0.0,0.0,0.016268500520592,1621.073538174354,0.0,0.0,0.016268500520592,1024,0.0,98,Motors_Started,
0.379005561173638,36.9222655665654,700,2018-04-15 05:05:28,1621.073538174354,0.0,0.0,0.0192146006148672,1621.073538174354,0.0,0.0,0.0192146006148672,1024,0.0,98,Motors_Started,
0.379005559756485,36.9222655160679,800,2018-04-15 05:05:28,1621.073538174354,0.0,0.0,0.024028000768896003,1621.073538174354,0.0,0.0,0.024028000768896003,1024,0.0,98,Motors_Started,
0.37900555912912703,36.9222654691016,900,2018-04-15 05:05:28,1621.073538174354,0.0,0.0,0.028736400919564805,1621.073538174354,0.0,0.0,0.028736400919564805,1024,0.0,98,Motors_Started,
0.37900554709573997,36.9222654058126,1000,2018-04-15 05:05:28,1621.073538174354,0.0,0.0,0.035746401143884804,1621.073538174354,0.0,0.0,0.035746401143884804,1024,0.0,98,Motors_Started,
0.379005518081346,36.9222653500214,1100,2018-04-15 05:05:28,1621.073538174354,0.0,0.0,0.0427068013666176,1621.073538174354,0.0,0.0,0.0427068013666176,1024,0.0,98,Motors_Started,
0.379005486526987,36.9222652907729,1200,2018-04-15 05:05:28,1621.073538174354,0.0,0.0,0.05014100160451201,1621.073538174354,0.0,0.0,0.05014100160451201,1024,0.0,98,Motors_Started,
0.37900547018677294,36.92226526165079,1300,2018-04-15 05:05:29,1621.073538174354,0.0,0.0,0.0538352017227264,1621.073538174354,0.0,0.0,0.0538352017227264,1024,0.0,98,Motors_Started,
0.37900545540335107,36.9222652227095,1400,2018-04-15 05:05:29,1621.073538174354,0.0,0.0,0.058461801870777604,1621.073538174354,0.0,0.0,0.058461801870777604,1024,0.0,98,Motors_Started,
0.37900544726723795,36.922265182182606,1500,2018-04-15 05:05:29,1621.073538174354,0.0,0.0,0.0629639020148448,1621.073538174354,0.0,0.0,0.0629639020148448,1024,0.0,98,Motors_Started,
0.379005443203456,36.922265146282896,1600,2018-04-15 05:05:29,1621.073538174354,0.0,0.0,0.0668333021386656,1621.073538174354,0.0,0.0,0.0668333021386656,1024,0.0,98,Assisted_Takeoff,
0.37900544202934794,36.9222651279825,1700,2018-04-15 05:05:29,1621.073538174354,0.0,0.0,0.0687763022008416,1621.073538174354,0.0,0.0,0.0687763022008416,1024,0.0,98,Assisted_Takeoff,
0.37900544369483896,36.922265117202,1800,2018-04-15 05:05:29,1621.073538174354,0.0,0.0,0.06983090223458881,1621.073538174354,0.0,0.0,0.06983090223458881,1024,0.0,98,Assisted_Takeoff,
0.37900544499596506,36.9222651152001,1900,2018-04-15 05:05:29,1621.073538174354,0.0,0.0,0.0699887022396384,1621.073538174354,0.0,0.0,0.0699887022396384,1024,0.0,98,Assisted_Takeoff,
0.379005449811274,36.9222651212135,2000,2018-04-15 05:05:29,1621.073538174354,0.0,0.0,0.0691758022136256,1621.073538174354,0.0,0.0,0.0699887022396384,1024,0.0,98,Assisted_Takeoff,
0.37900545275753705,36.9222651276957,2100,2018-04-15 05:05:29,1621.073538174354,0.0,0.0,0.0683862021883584,1621.073538174354,0.0,0.0,0.0699887022396384,1024,0.0,98,Assisted_Takeoff,
0.37900545889962,36.9222651407702,2200,2018-04-15 05:05:30,1621.073538174354,0.0,0.0,0.0667861021371552,1621.073538174354,0.0,0.0,0.0699887022396384,1024,0.0,98,Assisted_Takeoff,
0.37900546346944103,36.9222651517282,2300,2018-04-15 05:05:30,1621.073538174354,0.0,0.0,0.0654672020949504,1621.073538174354,0.0,0.0,0.0699887022396384,1024,0.0,98,Assisted_Takeoff,
0.379005469341203,36.9222651542411,2400,2018-04-15 05:05:30,1621.073538174354,0.0,0.0,0.0649837020794784,1621.073538174354,0.0,0.0,0.0699887022396384,1024,0.0,98,Assisted_Takeoff,
0.379005473336998,36.9222651371314,2500,2018-04-15 05:05:30,1621.073538174354,0.0,0.0,0.06663700213238401,1621.073538174354,0.0,0.0,0.0699887022396384,1024,0.0,98,Assisted_Takeoff,
0.379005465349073,36.9222651052638,2600,2018-04-15 05:05:30,1621.073538174354,0.0,0.0,0.0702796022489472,1621.073538174354,0.0,0.0,0.0702796022489472,1024,0.0,98,Assisted_Takeoff,
0.379005439475947,36.9222650690936,2700,2018-04-15 05:05:30,1621.073538174354,0.0,0.0,0.07501790240057281,1621.073538174354,0.0,0.0,0.07501790240057281,1024,0.0,98,Assisted_Takeoff,
0.379005409990526,36.9222650153447,2800,2018-04-15 05:05:30,1621.073538174354,0.0,0.0,0.08175380261612161,1621.073538174354,0.0,0.0,0.08175380261612161,1029,0.0,98,Assisted_Takeoff,
0.37900539470676503,36.92226496726521,2900,2018-04-15 05:05:30,1621.073538174354,0.0,0.0,0.08735850279547201,1621.073538174354,0.0,0.0,0.08735850279547201,1040,0.0,98,Assisted_Takeoff,
0.379005380493299,36.922264923080505,3000,2018-04-15 05:05:30,1621.073538174354,0.0,0.0,0.0925163029605216,1621.073538174354,0.0,0.0,0.0925163029605216,1053,0.0,98,Assisted_Takeoff,
0.379005372829027,36.922264894485394,3100,2018-04-15 05:05:30,1621.073538174354,0.0,0.0,0.095796503065488,1621.073538174354,0.0,0.0,0.095796503065488,1077,0.0,98,Assisted_Takeoff,
0.37900536669264295,36.9222648720801,3200,2018-04-15 05:05:30,1621.073538174354,0.0,0.0,0.0983721031479072,1621.073538174354,0.0,0.0,0.0983721031479072,1085,0.0,98,Assisted_Takeoff,
0.379005366404408,36.9222648624456,3300,2018-04-15 05:05:31,1621.073538174354,0.0,0.0,0.0993923031805536,1621.073538174354,0.0,0.0,0.0993923031805536,1104,0.0,98,Assisted_Takeoff,
0.379005368764838,36.9222648599173,3400,2018-04-15 05:05:31,1621.073538174354,0.0,0.0,0.0995704031862528,1621.073538174354,0.0,0.0,0.0995704031862528,1122,0.0,98,Assisted_Takeoff,
0.37900537125879996,36.9222648626562,3500,2018-04-15 05:05:31,1621.073538174354,0.0,0.0,0.099191503174128,1621.073538174354,0.0,0.0,0.0995704031862528,1111,0.0,98,Assisted_Takeoff,
0.37900537580460103,36.92226486983579,3600,2018-04-15 05:05:31,1621.073538174354,0.0,0.0,0.098271503144688,1621.073538174354,0.0,0.0,0.0995704031862528,1111,0.0,98,Assisted_Takeoff,
0.37900538008374496,36.9222648780519,3700,2018-04-15 05:05:31,1621.073538174354,0.0,0.0,0.09725260311208321,1621.073538174354,0.0,0.0,0.0995704031862528,1117,0.0,98,Assisted_Takeoff,
0.3790053859844121,36.9222648760866,3800,2018-04-15 05:05:31,1621.073538174354,0.0,0.0,0.0972483031119456,1621.073538174354,0.0,0.0,0.0995704031862528,1114,0.0,98,Assisted_Takeoff,
0.379005390779365,36.922264857240705,3900,2018-04-15 05:05:31,1621.073538174354,0.0,0.0,0.09907210317030721,1621.073538174354,0.0,0.0,0.0995704031862528,1105,0.0,98,Assisted_Takeoff,
0.37900538189864597,36.922264820150396,4000,2018-04-15 05:05:31,1621.073538174354,0.0,0.0,0.10330100330563202,1621.073538174354,0.0,0.0,0.10330100330563202,1117,0.0,98,Assisted_Takeoff,
0.379005357372651,36.9222647833978,4100,2018-04-15 05:05:31,1621.073538174354,0.0,0.0,0.108033003457056,1621.073538174354,0.0,0.0,0.108033003457056,1141,0.0,98,Assisted_Takeoff,
0.379005342844081,36.9222647427998,4200,2018-04-15 05:05:32,1621.073538174354,0.0,0.0,0.11282700361046401,1621.073538174354,0.0,0.0,0.11282700361046401,1159,0.0,98,Assisted_Takeoff,
0.379005343315108,36.9222647359885,4300,2018-04-15 05:05:32,1621.073538174354,0.0,0.0,0.11352900363292799,1621.073538174354,0.0,0.0,0.11352900363292799,1175,0.0,98,Assisted_Takeoff,
0.37900529373143105,36.9222647455384,4400,2018-04-15 05:05:32,1621.073538174354,0.0,0.0,0.11439100366051201,1621.073538174354,0.0,0.0,0.11439100366051201,1186,0.0,98,Assisted_Takeoff,
0.37900517893915703,36.9222647413156,4500,2018-04-15 05:05:32,1621.073538174354,0.0,0.35999970196000003,0.12000600384019201,1621.073538174354,0.0,0.35999970196000003,0.12000600384019201,1209,0.0,98,P-GPS,Home Point Recorded. RTH Altitude:  30m.
0.37900500397913395,36.9222646686851,4600,2018-04-15 05:05:32,1621.073538174354,0.0,0.35999970196000003,0.136666004373312,1621.073538174354,0.0,0.35999970196000003,0.136666004373312,1216,0.0,98,P-GPS,
0.379004808462855,36.9222645764574,4700,2018-04-15 05:05:32,1621.073538174354,0.0,0.35999970196000003,0.15752300504073602,1621.073538174354,0.0,0.35999970196000003,0.15752300504073602,1225,0.0,98,P-GPS,
0.379004609505674,36.9222644894503,4800,2018-04-15 05:05:32,1621.073538174354,0.0,0.35999970196000003,0.17899100572771198,1621.073538174354,0.0,0.35999970196000003,0.17899100572771198,1240,0.0,98,P-GPS,
0.37900444521399496,36.9222644459608,4900,2018-04-15 05:05:32,1621.173538177554,0.10000000320000002,0.35999970196000003,0.194909006237088,1621.173538177554,0.10000000320000002,0.35999970196000003,0.194909006237088,1259,0.0,98,P-GPS,
0.379004315854882,36.9222644336146,5000,2018-04-15 05:05:32,1621.2735381807543,0.20000000640000004,0.35999970196000003,0.206116006595712,1621.2735381807543,0.20000000640000004,0.35999970196000003,0.206116006595712,1249,0.0,98,P-GPS,
0.37900424826631396,36.922264470597796,5100,2018-04-15 05:05:32,1621.2735381807543,0.20000000640000004,0.0,0.208923006685536,1621.2735381807543,0.20000000640000004,0.35999970196000003,0.208923006685536,1240,0.0,98,P-GPS,
0.379004199168931,36.922264497259995,5200,2018-04-15 05:05:32,1621.3735381839542,0.3000000096,0.0,0.21117100675747197,1621.3735381839542,0.3000000096,0.35999970196000003,0.21117100675747197,1271,0.0,98,P-GPS,
0.379004153587562,36.922264476768795,5300,2018-04-15 05:05:33,1621.473538187154,0.4000000128000001,0.0,0.21653700692918398,1621.473538187154,0.4000000128000001,0.35999970196000003,0.21653700692918398,1290,0.0,98,P-GPS,
0.37900414074321004,36.922264449344894,5400,2018-04-15 05:05:33,1621.573538190354,0.500000016,0.0,0.21957400702636803,1621.573538190354,0.500000016,0.35999970196000003,0.21957400702636803,1281,0.0,98,P-GPS,
0.379004166100526,36.9222644301281,5500,2018-04-15 05:05:33,1621.6735381935541,0.6000000192,0.0,0.21878400700108802,1621.6735381935541,0.6000000192,0.35999970196000003,0.21957400702636803,1305,0.0,98,P-GPS,
0.37900420651484207,36.9222644285163,5700,2018-04-15 05:05:33,1621.873538199954,0.8000000256000002,0.0,0.21549900689596804,1621.873538199954,0.8000000256000002,0.35999970196000003,0.21957400702636803,1324,0.0,98,P-GPS,
0.379004205060234,36.9222644293014,5800,2018-04-15 05:05:33,1621.973538203154,0.9000000288000001,0.0,0.215563006898016,1621.973538203154,0.9000000288000001,0.35999970196000003,0.21957400702636803,1331,0.0,98,P-GPS,
0.379004196047204,36.9222644082864,5900,2018-04-15 05:05:33,1622.0735382063542,1.000000032,0.0,0.21785800697145602,1622.0735382063542,1.000000032,0.35999970196000003,0.21957400702636803,1387,0.0,98,P-GPS,
0.3790041862677871,36.922264353003605,6000,2018-04-15 05:05:33,1622.2735382127541,1.2000000384,0.0,0.22277700712886403,1622.2735382127541,1.2000000384,0.35999970196000003,0.22277700712886403,1417,0.0,98,P-GPS,
0.37900419261709006,36.922264274534506,6100,2018-04-15 05:05:33,1622.3735382159539,1.3000000416000002,0.0,0.22825000730400002,1622.3735382159539,1.3000000416000002,0.35999970196000003,0.22825000730400002,1437,0.0,98,P-GPS,
0.37900419345838504,36.922264162441294,6200,2018-04-15 05:05:34,1622.573538222354,1.5000000480000002,0.0,0.23704100758531196,1622.573538222354,1.5000000480000002,0.35999970196000003,0.23704100758531196,1444,0.0,98,P-GPS,
0.37900420942426005,36.9222640576784,6300,2018-04-15 05:05:34,1622.773538228754,1.7000000544000002,0.0,0.24442500782160004,1622.773538228754,1.7000000544000002,0.35999970196000003,0.24442500782160004,1464,0.0,98,P-GPS,
0.37900422331753403,36.9222639453228,6400,2018-04-15 05:05:34,1622.9735382351541,1.9000000607999998,0.0,0.252942008094144,1622.9735382351541,1.9000000607999998,0.35999970196000003,0.252942008094144,1435,0.0,98,P-GPS,
0.37900424509369796,36.9222638719394,6500,2018-04-15 05:05:34,1623.1735382415543,2.1000000672,0.0,0.257818008250176,1623.1735382415543,2.1000000672,0.35999970196000003,0.257818008250176,1401,0.0,98,P-GPS,
0.379004269207697,36.92226379079379,6600,2018-04-15 05:05:34,1623.473538251154,2.4000000768,0.0,0.26342200842950403,1623.473538251154,2.4000000768,0.35999970196000003,0.26342200842950403,1418,0.0,98,P-GPS,
0.379004312824348,36.9222637271292,6700,2018-04-15 05:05:34,1623.773538260754,2.7000000863999998,0.0,0.26640900852508803,1623.773538260754,2.7000000863999998,0.35999970196000003,0.26640900852508803,1444,0.0,98,P-GPS,
0.37900434507812397,36.9222636604348,6800,2018-04-15 05:05:34,1623.9735382671543,2.9000000928,0.0,0.270602008659264,1623.9735382671543,2.9000000928,0.35999970196000003,0.270602008659264,1468,0.0,98,P-GPS,
0.37900436931262704,36.922263611843704,6900,2018-04-15 05:05:34,1624.273538276754,3.2000001024000007,0.0,0.273731008759392,1624.273538276754,3.2000001024000007,0.35999970196000003,0.273731008759392,1507,0.0,98,P-GPS,
0.379004391459873,36.9222635665965,7000,2018-04-15 05:05:34,1624.473538283154,3.4000001088000005,0.0,0.27675400885612805,1624.473538283154,3.4000001088000005,0.35999970196000003,0.27675400885612805,1511,0.0,98,P-GPS,
0.379004426589888,36.9222635275623,7100,2018-04-15 05:05:34,1624.7735382927542,3.7000001184,0.0,0.278541008913312,1624.7735382927542,3.7000001184,0.35999970196000003,0.278541008913312,1504,0.0,98,P-GPS,
0.379004464633189,36.9222634946694,7200,2018-04-15 05:05:34,1625.0735383023539,4.000000128,0.0,0.27968400894988804,1625.0735383023539,4.000000128,0.35999970196000003,0.27968400894988804,1537,0.0,98,P-GPS,
0.37900447076631705,36.92226341817771,7300,2018-04-15 05:05:35,1625.273538308754,4.2000001344,0.0,0.28687200917990396,1625.273538308754,4.2000001344,0.35999970196000003,0.28687200917990396,1537,0.0,98,P-GPS,
0.37900447450196706,36.9222633200084,7400,2018-04-15 05:05:35,1625.5735383183542,4.5000001439999995,0.0,0.296407009485024,1625.5735383183542,4.5000001439999995,0.35999970196000003,0.296407009485024,1569,0.0,98,P-GPS,
0.3790044851194221,36.9222632124854,7500,2018-04-15 05:05:35,1625.973538331154,4.9000001568,0.0,0.306646009812672,1625.973538331154,4.9000001568,0.35999970196000003,0.306646009812672,1576,0.0,98,P-GPS,
0.37900448030126294,36.9222630909254,7600,2018-04-15 05:05:35,1626.2735383407542,5.200000166400001,0.0,0.31913801021241606,1626.2735383407542,5.200000166400001,0.35999970196000003,0.31913801021241606,1576,0.0,98,P-GPS,
0.3790044852102079,36.9222630113436,7700,2018-04-15 05:05:35,1626.573538350354,5.500000176000001,0.0,0.327000010464,1626.573538350354,5.500000176000001,0.35999970196000003,0.327000010464,1591,0.0,98,P-GPS,
0.37900447679685206,36.92226292683971,7800,2018-04-15 05:05:35,1626.973538363154,5.9000001888,0.0,0.335997010751904,1626.973538363154,5.9000001888,0.35999970196000003,0.335997010751904,1607,0.0,98,P-GPS,
0.37900447635513596,36.92226287268979,7900,2018-04-15 05:05:35,1627.373538375954,6.300000201600001,0.0,0.34156101092995206,1627.373538375954,6.300000201600001,0.35999970196000003,0.34156101092995206,1606,0.0,98,P-GPS,
0.37900447837074297,36.92226282884871,8000,2018-04-15 05:05:35,1627.773538388754,6.7000002144,0.0,0.345976011071232,1627.773538388754,6.7000002144,0.35999970196000003,0.345976011071232,1605,0.0,98,P-GPS,
0.37900449605768005,36.9222627399408,8100,2018-04-15 05:05:35,1628.1735384015542,7.100000227200002,0.0,0.35441001134112005,1628.1735384015542,7.100000227200002,0.35999970196000003,0.35441001134112005,1606,-0.6,98,P-GPS,
0.379004530365739,36.9222626585238,8200,2018-04-15 05:05:35,1628.5735384143543,7.50000024,0.0,0.36150001156800005,1628.5735384143543,7.50000024,0.35999970196000003,0.36150001156800005,1609,-1.8,98,P-GPS,
0.379004580994469,36.9222626146552,8300,2018-04-15 05:05:36,1628.9735384271542,7.9000002528,0.0,0.3641750116536,1628.9735384271542,7.9000002528,0.35999970196000003,0.3641750116536,1607,-1.8,98,P-GPS,
0.37900462704075893,36.9222626016599,8400,2018-04-15 05:05:36,1629.3735384399542,8.3000002656,0.0,0.36388301164425607,1629.3735384399542,8.3000002656,0.35999970196000003,0.3641750116536,1602,-6.8,98,P-GPS,
0.37900466787562104,36.9222626407079,8500,2018-04-15 05:05:36,1629.873538455954,8.8000002816,0.0,0.35833701146678404,1629.873538455954,8.8000002816,0.35999970196000003,0.3641750116536,1600,-9.6,98,P-GPS,
0.379004712863422,36.922262693800604,8600,2018-04-15 05:05:36,1630.2735384687542,9.2000002944,0.0,0.351187011237984,1630.2735384687542,9.2000002944,0.35999970196000003,0.3641750116536,1595,-12.5,98,P-GPS,
0.3790047549660271,36.922262738528204,8700,2018-04-15 05:05:36,1630.673538481554,9.6000003072,0.0,0.345046011041472,1630.673538481554,9.6000003072,0.35999970196000003,0.3641750116536,1594,-15.6,98,P-GPS,
0.37900479908383206,36.9222627664724,8800,2018-04-15 05:05:36,1631.0735384943541,10.00000032,0.0,0.3406580109010561,1631.0735384943541,10.00000032,0.35999970196000003,0.3641750116536,1588,-18.7,98,P-GPS,
0.379004841208421,36.922262758287204,8900,2018-04-15 05:05:36,1631.473538507154,10.400000332800001,0.0,0.340241010887712,1631.473538507154,10.400000332800001,0.35999970196000003,0.3641750116536,1581,-21.8,98,P-GPS,
0.37900488257863396,36.9222627550845,9000,2018-04-15 05:05:36,1631.873538519954,10.800000345599999,0.0,0.33937601086003194,1631.873538519954,10.800000345599999,0.35999970196000003,0.3641750116536,1567,-24.5,98,P-GPS,
0.37900489838675394,36.9222627190562,9100,2018-04-15 05:05:36,1632.273538532754,11.200000358400002,0.0,0.34280901096988803,1632.273538532754,11.200000358400002,0.35999970196000003,0.3641750116536,1569,-24.5,98,P-GPS,
0.3790049307520779,36.9222626952905,9200,2018-04-15 05:05:37,1632.673538545554,11.6000003712,0.0,0.344500011024,1632.673538545554,11.6000003712,0.35999970196000003,0.3641750116536,1569,-24.5,98,P-GPS,
0.37900498548286,36.9222626916082,9300,2018-04-15 05:05:37,1633.073538558354,12.000000384000002,0.0,0.34350901099228803,1633.073538558354,12.000000384000002,0.35999970196000003,0.3641750116536,1570,-24.5,98,P-GPS,
0.379005035307139,36.922262692791,9400,2018-04-15 05:05:37,1633.473538571154,12.4000003968,0.0,0.34220501095056,1633.473538571154,12.4000003968,0.35999970196000003,0.3641750116536,1566,-24.5,98,P-GPS,
0.379005085143632,36.9222626559978,9500,2018-04-15 05:05:37,1633.8735385839539,12.800000409600003,0.0,0.34513301104425603,1633.8735385839539,12.800000409600003,0.35999970196000003,0.3641750116536,1568,-24.5,98,P-GPS,
0.37900513324176094,36.922262625763004,9600,2018-04-15 05:05:37,1634.173538593554,13.100000419199999,0.0,0.3474880111196161,1634.173538593554,13.100000419199999,0.35999970196000003,0.3641750116536,1553,-24.5,98,P-GPS,
0.37900518708504105,36.9222625595253,9700,2018-04-15 05:05:37,1634.573538606354,13.500000432000002,0.0,0.353801011321632,1634.573538606354,13.500000432000002,0.35999970196000003,0.3641750116536,1537,-24.5,98,P-GPS,
0.37900524615684705,36.9222624902136,9800,2018-04-15 05:05:37,1634.973538619154,13.9000004448,0.0,0.360516011536512,1634.973538619154,13.9000004448,0.35999970196000003,0.3641750116536,1545,-24.5,98,P-GPS,
0.379005309674712,36.922262433959396,9900,2018-04-15 05:05:37,1635.373538631954,14.300000457600001,0.0,0.36589201170854396,1635.373538631954,14.300000457600001,0.35999970196000003,0.36589201170854396,1569,-24.5,98,P-GPS,
0.37900538002674894,36.9222623680329,10000,2018-04-15 05:05:37,1635.773538644754,14.7000004704,0.0,0.37243501191792,1635.773538644754,14.7000004704,0.35999970196000003,0.37243501191792,1594,-24.5,98,P-GPS,
0.37900544830007793,36.922262317701296,10100,2018-04-15 05:05:37,1636.073538654354,15.00000048,0.0,0.377453012078496,1636.073538654354,15.00000048,0.35999970196000003,0.377453012078496,1595,-24.5,98,P-GPS,
0.379005507995578,36.9222622561294,10200,2018-04-15 05:05:37,1636.4735386671541,15.4000004928,0.0,0.38392801228569606,1636.4735386671541,15.4000004928,0.35999970196000003,0.38392801228569606,1593,-24.5,98,P-GPS,
0.379005548502308,36.922262205535205,10300,2018-04-15 05:05:38,1636.873538679954,15.8000005056,0.0,0.389373012459936,1636.873538679954,15.8000005056,0.35999970196000003,0.389373012459936,1599,-24.5,98,P-GPS,
0.37900557799465096,36.922262146854,10400,2018-04-15 05:05:38,1637.273538692754,16.2000005184,0.0,0.39580201266566395,1637.273538692754,16.2000005184,0.35999970196000003,0.39580201266566395,1595,-24.5,98,P-GPS,
0.379005605128192,36.9222620988261,10500,2018-04-15 05:05:38,1637.673538705554,16.6000005312,0.0,0.40108001283456,1637.673538705554,16.6000005312,0.35999970196000003,0.40108001283456,1592,-24.5,98,P-GPS,
0.379005628800882,36.9222620588276,10600,2018-04-15 05:05:38,1638.073538718354,17.000000544000002,0.0,0.405493012975776,1638.073538718354,17.000000544000002,0.35999970196000003,0.405493012975776,1600,-24.5,98,P-GPS,
0.37900561942918704,36.922261963593,10700,2018-04-15 05:05:38,1638.473538731154,17.400000556800002,0.0,0.41609501331503995,1638.473538731154,17.400000556800002,0.35999970196000003,0.41609501331503995,1609,-24.5,98,P-GPS,
0.379005620700187,36.922261869412296,10800,2018-04-15 05:05:38,1638.8735387439542,17.8000005696,0.0,0.42656501365008004,1638.8735387439542,17.8000005696,0.35999970196000003,0.42656501365008004,1609,-24.5,98,P-GPS,
0.379005638860595,36.9222618002355,10900,2018-04-15 05:05:38,1639.2735387567543,18.2000005824,0.0,0.43424001389567995,1639.2735387567543,18.2000005824,0.35999970196000003,0.43424001389567995,1610,-24.5,98,P-GPS,
0.37900565528793106,36.922261745609,11000,2018-04-15 05:05:38,1639.7735387727541,18.7000005984,0.0,0.440306014089792,1639.7735387727541,18.7000005984,0.35999970196000003,0.440306014089792,1614,-24.5,98,P-GPS,
0.379005652474794,36.9222616458851,11100,2018-04-15 05:05:38,1640.173538785554,19.1000006112,0.0,0.451397014444704,1640.173538785554,19.1000006112,0.35999970196000003,0.451397014444704,1615,-24.5,98,P-GPS,
0.37900565382884494,36.92226157899,11200,2018-04-15 05:05:38,1640.573538798354,19.500000624000002,0.0,0.45883501468272,1640.573538798354,19.500000624000002,0.35999970196000003,0.45883501468272,1617,-24.5,98,P-GPS,
0.379005670919365,36.922261480829995,11300,2018-04-15 05:05:39,1640.9735388111542,19.900000636800005,0.0,0.46975001503200003,1640.9735388111542,19.900000636800005,0.35999970196000003,0.46975001503200003,1622,-24.5,98,P-GPS,
0.37900567071580893,36.922261422363704,11400,2018-04-15 05:05:39,1641.373538823954,20.3000006496,0.0,0.476252015240064,1641.373538823954,20.3000006496,0.35999970196000003,0.476252015240064,1625,-24.5,98,P-GPS,
0.379005611806033,36.9222613647715,11500,2018-04-15 05:05:39,1641.8735388399539,20.800000665600002,0.0,0.48269101544611204,1641.8735388399539,20.800000665600002,0.35999970196000003,0.48269101544611204,1632,-24.5,98,P-GPS,
0.3790055567849821,36.9222613373914,11600,2018-04-15 05:05:39,1642.273538852754,21.2000006784,0.0,0.48584801554713597,1642.273538852754,21.2000006784,0.35999970196000003,0.48584801554713597,1635,-24.5,98,P-GPS,
0.379005510351937,36.9222612541219,11700,2018-04-15 05:05:39,1642.7735388687543,21.700000694400003,0.0,0.49525701584822407,1642.7735388687543,21.700000694400003,0.35999970196000003,0.49525701584822407,1635,-24.5,98,P-GPS,
0.3790054657077371,36.922261215555004,11800,2018-04-15 05:05:39,1643.1735388815541,22.1000007072,0.0,0.4997380159916161,1643.1735388815541,22.1000007072,0.35999970196000003,0.4997380159916161,1635,-24.5,98,P-GPS,
0.37900536269521995,36.9222611168535,11900,2018-04-15 05:05:39,1643.673538897554,22.6000007232,0.0,0.5113280163624961,1643.673538897554,22.6000007232,0.35999970196000003,0.5113280163624961,1614,-24.5,98,P-GPS,
0.379005254506693,36.9222610443534,12000,2018-04-15 05:05:39,1644.173538913554,23.100000739200006,0.0,0.520289016649248,1644.173538913554,23.100000739200006,0.35999970196000003,0.520289016649248,1612,-24.5,98,P-GPS,
0.379005147960452,36.92226102552971,12100,2018-04-15 05:05:39,1644.5735389263539,23.500000752000002,0.0,0.523541016753312,1644.5735389263539,23.500000752000002,0.35999970196000003,0.523541016753312,1615,-24.5,98,P-GPS,
0.37900501434336603,36.922260985787794,12200,2018-04-15 05:05:39,1645.0735389423542,24.000000768000003,0.0,0.529757016952224,1645.0735389423542,24.000000768000003,0.35999970196000003,0.529757016952224,1616,-24.5,98,P-GPS,
0.379004883725058,36.9222609400866,12300,2018-04-15 05:05:40,1645.4735389551543,24.4000007808,0.0,0.536949017182368,1645.4735389551543,24.4000007808,0.35999970196000003,0.536949017182368,1633,-24.5,98,P-GPS,
0.379004735697871,36.922260865713206,12400,2018-04-15 05:05:40,1645.973538971154,24.9000007968,0.0,0.5479750175352001,1645.973538971154,24.9000007968,0.35999970196000003,0.5479750175352001,1652,-24.5,98,P-GPS,
0.379004611942641,36.922260813220205,12500,2018-04-15 05:05:40,1646.373538983954,25.3000008096,0.0,0.5564400178060801,1646.373538983954,25.3000008096,0.35999970196000003,0.5564400178060801,1665,-24.5,98,P-GPS,
0.37900449339436004,36.9222607521466,12600,2018-04-15 05:05:40,1646.873538999954,25.800000825599998,0.0,0.565969018111008,1646.873538999954,25.800000825599998,0.35999970196000003,0.565969018111008,1684,-24.5,98,P-GPS,
0.3790044003145371,36.92226074269271,12700,2018-04-15 05:05:40,1647.2735390127539,26.200000838399998,0.0,0.569459018222688,1647.2735390127539,26.200000838399998,0.35999970196000003,0.569459018222688,1684,-24.5,98,P-GPS,
0.37900431279910707,36.9222607487377,12800,2018-04-15 05:05:40,1647.7735390287542,26.700000854400002,0.0,0.571291018281312,1647.7735390287542,26.700000854400002,0.35999970196000003,0.571291018281312,1684,-24.5,98,P-GPS,
0.37900422615245094,36.922260711869896,12900,2018-04-15 05:05:40,1648.273539044754,27.200000870400004,0.0,0.5778400184908801,1648.273539044754,27.200000870400004,0.35999970196000003,0.5778400184908801,1684,-24.5,98,P-GPS,
0.379004127310176,36.922260661429604,13000,2018-04-15 05:05:40,1648.773539060754,27.700000886400005,0.0,0.586342018762944,1648.773539060754,27.700000886400005,0.35999970196000003,0.586342018762944,1684,-24.5,98,P-GPS,
0.379004015850308,36.9222606304564,13100,2018-04-15 05:05:40,1649.273539076754,28.200000902400003,0.0,0.5933500189872,1649.273539076754,28.200000902400003,0.35999970196000003,0.5933500189872,1684,-24.5,98,P-GPS,
0.379003911623175,36.9222606123235,13200,2018-04-15 05:05:40,1649.7735390927542,28.7000009184,0.0,0.598939019166048,1649.7735390927542,28.7000009184,0.35999970196000003,0.598939019166048,1684,-24.5,98,P-GPS,
0.37900379480532,36.9222605906307,13300,2018-04-15 05:05:41,1650.273539108754,29.200000934400002,0.0,0.605557019377824,1650.273539108754,29.200000934400002,0.35999970196000003,0.605557019377824,1684,-24.5,98,P-GPS,
0.379003684105529,36.9222605776901,13400,2018-04-15 05:05:41,1650.873539127954,29.8000009536,0.0,0.611236019559552,1650.873539127954,29.8000009536,0.35999970196000003,0.611236019559552,1684,-24.5,98,P-GPS,
0.37900358724588395,36.922260571334,13500,2018-04-15 05:05:41,1651.373539143954,30.300000969600003,0.0,0.615854019707328,1651.373539143954,30.300000969600003,0.35999970196000003,0.615854019707328,1684,-24.5,97,P-GPS,
0.3790035025800271,36.9222605622179,13600,2018-04-15 05:05:41,1651.873539159954,30.8000009856,0.0,0.6203820198522241,1651.873539159954,30.8000009856,0.35999970196000003,0.6203820198522241,1683,-24.5,97,P-GPS,
0.37900339245405895,36.9222605682094,13700,2018-04-15 05:05:41,1652.3735391759542,31.300001001600002,0.0,0.6246200199878401,1652.3735391759542,31.300001001600002,0.35999970196000003,0.6246200199878401,1684,-24.5,97,P-GPS,
0.379003265723866,36.922260555318296,13800,2018-04-15 05:05:41,1652.873539191954,31.800001017600003,0.0,0.6317520202160639,1652.873539191954,31.800001017600003,0.35999970196000003,0.6317520202160639,1684,-24.5,97,P-GPS,
0.379003140507311,36.922260523904,13900,2018-04-15 05:05:41,1653.373539207954,32.300001033600005,0.0,0.64089502050864,1653.373539207954,32.300001033600005,0.35999970196000003,0.64089502050864,1684,-24.5,97,P-GPS,
0.379002995387913,36.9222604619563,14000,2018-04-15 05:05:41,1653.8735392239541,32.800001049600006,0.0,0.654257020936224,1653.8735392239541,32.800001049600006,0.35999970196000003,0.654257020936224,1684,-24.5,97,P-GPS,
0.379002879132889,36.9222604201564,14100,2018-04-15 05:05:41,1654.373539239954,33.3000010656,0.0,0.6643310212585921,1654.373539239954,33.3000010656,0.35999970196000003,0.6643310212585921,1684,-24.5,97,P-GPS,
0.379002767879224,36.9222603817116,14200,2018-04-15 05:05:42,1654.9735392591542,33.9000010848,0.0,0.6739410215661121,1654.9735392591542,33.9000010848,0.35999970196000003,0.6739410215661121,1684,-24.5,97,P-GPS,
0.37900263121022904,36.922260313748005,14300,2018-04-15 05:05:42,1655.473539275154,34.4000011008,0.0,0.687913022013216,1655.473539275154,34.4000011008,0.35999970196000003,0.687913022013216,1684,-24.5,97,P-GPS,
0.379002521005689,36.922260271803296,14400,2018-04-15 05:05:42,1655.973539291154,34.9000011168,0.0,0.698038022337216,1655.973539291154,34.9000011168,0.35999970196000003,0.698038022337216,1684,-24.5,97,P-GPS,
0.37900235428396395,36.9222601845725,14500,2018-04-15 05:05:42,1656.473539307154,35.40000113280001,0.0,0.715807022905824,1656.473539307154,35.40000113280001,0.35999970196000003,0.715807022905824,1684,-24.5,97,P-GPS,
0.37900206468321396,36.9222600587299,14700,2018-04-15 05:05:42,1657.473539339154,36.4000011648,0.0,0.7446510238288321,1657.473539339154,36.4000011648,0.35999970196000003,0.7446510238288321,1684,-24.5,97,P-GPS,
0.37900192721536596,36.9222599831638,14800,2018-04-15 05:05:42,1657.973539355154,36.900001180800004,0.0,0.7600010243200321,1657.973539355154,36.900001180800004,0.35999970196000003,0.7600010243200321,1684,-24.5,97,P-GPS,
0.379001713626514,36.922259889934296,15000,2018-04-15 05:05:42,1658.973539387154,37.90000121280001,0.0,0.7818000250176,1658.973539387154,37.90000121280001,0.35999970196000003,0.7818000250176,1684,-24.5,97,P-GPS,
0.37900159720019805,36.922259831068104,15100,2018-04-15 05:05:42,1659.5735394063543,38.500001232,0.0,0.794522025424704,1659.5735394063543,38.500001232,0.35999970196000003,0.794522025424704,1684,-24.5,97,P-GPS,
0.37900150993656606,36.9222597813472,15200,2018-04-15 05:05:42,1660.073539422354,39.000001248000004,0.0,0.804606025747392,1660.073539422354,39.000001248000004,0.35999970196000003,0.804606025747392,1684,-24.5,97,P-GPS,
0.379001420650712,36.9222597785526,15300,2018-04-15 05:05:43,1660.573539438354,39.500001264000005,0.0,0.8106010259392321,1660.573539438354,39.500001264000005,0.35999970196000003,0.8106010259392321,1684,-24.5,97,P-GPS,
0.37900136180256205,36.9222597873852,15400,2018-04-15 05:05:43,1661.0735394543542,40.00000128,0.0,0.813634026036288,1661.0735394543542,40.00000128,0.35999970196000003,0.813634026036288,1684,-24.6,97,P-GPS,
0.379001323404057,36.922259720564,15500,2018-04-15 05:05:43,1661.573539470354,40.500001296,0.0,0.8221560263089921,1661.573539470354,40.500001296,0.35999970196000003,0.8221560263089921,1684,-24.8,97,P-GPS,
0.37900129952165296,36.9222596832575,15600,2018-04-15 05:05:43,1662.073539486354,41.000001311999995,0.0,0.8270730264663361,1662.073539486354,41.000001311999995,0.35999970196000003,0.8270730264663361,1684,-24.8,97,P-GPS,
0.379001237071386,36.9222596207239,15700,2018-04-15 05:05:43,1662.573539502354,41.500001328,0.0,0.8367810267769922,1662.573539502354,41.500001328,0.35999970196000003,0.8367810267769922,1684,-25.1,97,P-GPS,
0.37900120038513796,36.922259590181106,15800,2018-04-15 05:05:43,1663.0735395183542,42.000001344,0.0,0.8419290269417281,1663.0735395183542,42.000001344,0.35999970196000003,0.8419290269417281,1684,-25.6,97,P-GPS,
0.379001153610323,36.922259490676105,15900,2018-04-15 05:05:43,1663.573539534354,42.50000136,0.0,0.8539360273259521,1663.573539534354,42.50000136,0.35999970196000003,0.8539360273259521,1684,-26.0,97,P-GPS,
0.37900110787542207,36.922259410394794,16000,2018-04-15 05:05:43,1664.073539550354,43.000001376,0.0,0.864149027652768,1664.073539550354,43.000001376,0.35999970196000003,0.864149027652768,1684,-26.6,97,P-GPS,
0.3790010800502,36.9222593821977,16100,2018-04-15 05:05:43,1664.5735395663542,43.500001391999994,0.0,0.8685040277921279,1664.5735395663542,43.500001391999994,0.35999970196000003,0.8685040277921279,1684,-27.2,97,P-GPS,
0.379001039834096,36.9222593399101,16200,2018-04-15 05:05:43,1665.073539582354,44.00000140800001,0.0,0.874937027997984,1665.073539582354,44.00000140800001,0.35999970196000003,0.874937027997984,1684,-27.9,97,P-GPS,
0.37900100576975704,36.9222593007418,16300,2018-04-15 05:05:44,1665.573539598354,44.500001424,0.0,0.880687028181984,1665.573539598354,44.500001424,0.35999970196000003,0.880687028181984,1682,-29.3,97,P-GPS,
0.379000969321033,36.9222592036329,16500,2018-04-15 05:05:44,1666.6735396335541,45.6000014592,0.0,0.8918100285379201,1666.6735396335541,45.6000014592,0.35999970196000003,0.8918100285379201,1681,-29.6,97,P-GPS,
0.379000966761208,36.9222591498774,16600,2018-04-15 05:05:44,1667.173539649554,46.1000014752,0.0,0.896829028698528,1667.173539649554,46.1000014752,0.35999970196000003,0.896829028698528,1681,-29.6,97,P-GPS,
0.37900097756617607,36.922259112216004,16700,2018-04-15 05:05:44,1667.6735396655542,46.600001491200004,0.0,0.8995390287852479,1667.6735396655542,46.600001491200004,0.35999970196000003,0.8995390287852479,1684,-29.6,97,P-GPS,
0.37900098814825,36.922259061838204,16800,2018-04-15 05:05:44,1668.173539681554,47.1000015072,0.0,0.903433028909856,1668.173539681554,47.1000015072,0.35999970196000003,0.903433028909856,1684,-29.6,97,P-GPS,
0.37900100050810204,36.9222590234135,16900,2018-04-15 05:05:44,1668.673539697554,47.60000152320001,0.0,0.9061430289965762,1668.673539697554,47.60000152320001,0.35999970196000003,0.9061430289965762,1684,-29.6,97,P-GPS,
0.379001008325651,36.9222589844684,17000,2018-04-15 05:05:44,1669.1735397135542,48.1000015392,0.0,0.9092020290944641,1669.1735397135542,48.1000015392,0.35999970196000003,0.9092020290944641,1684,-29.6,97,P-GPS,
0.379000998107076,36.9222589107173,17100,2018-04-15 05:05:44,1669.673539729554,48.6000015552,0.0,0.9165990293311679,1669.673539729554,48.6000015552,0.35999970196000003,0.9165990293311679,1684,-29.6,97,P-GPS,
0.379000993707707,36.9222588716358,17200,2018-04-15 05:05:44,1670.173539745554,49.1000015712,0.0,0.9204600294547199,1670.173539745554,49.1000015712,0.35999970196000003,0.9204600294547199,1684,-29.6,97,P-GPS,
0.37900100661955105,36.922258817078294,17300,2018-04-15 05:05:45,1670.6735397615541,49.6000015872,0.0,0.92467002958944,1670.6735397615541,49.6000015872,0.35999970196000003,0.92467002958944,1684,-29.6,97,P-GPS,
0.37900101365509004,36.9222587870199,17400,2018-04-15 05:05:45,1671.273539780754,50.200001606399994,0.0,0.9270040296641279,1671.273539780754,50.200001606399994,0.35999970196000003,0.9270040296641279,1684,-29.6,97,P-GPS,
0.379000968040186,36.9222586890936,17500,2018-04-15 05:05:45,1671.773539796754,50.7000016224,0.0,0.938874030043968,1671.773539796754,50.7000016224,0.35999970196000003,0.938874030043968,1684,-29.6,97,P-GPS,
0.37900093589145706,36.922258638578796,17600,2018-04-15 05:05:45,1672.273539812754,51.20000163840001,0.0,0.94553003025696,1672.273539812754,51.20000163840001,0.35999970196000003,0.94553003025696,1684,-29.6,97,P-GPS,
0.379000914315077,36.9222585270619,17700,2018-04-15 05:05:45,1672.773539828754,51.700001654400005,0.0,0.9571840306298879,1672.773539828754,51.700001654400005,0.35999970196000003,0.9571840306298879,1684,-29.6,97,P-GPS,
0.379000906351833,36.922258470150204,17800,2018-04-15 05:05:45,1673.273539844754,52.200001670400006,0.0,0.962954030814528,1673.273539844754,52.200001670400006,0.35999970196000003,0.962954030814528,1684,-29.6,97,P-GPS,
0.37900090497038397,36.9222583570707,17900,2018-04-15 05:05:45,1673.7735398607542,52.7000016864,0.0,0.973569031154208,1673.7735398607542,52.7000016864,0.35999970196000003,0.973569031154208,1684,-29.6,97,P-GPS,
0.37900090279331394,36.9222582964658,18000,2018-04-15 05:05:45,1674.273539876754,53.2000017024,0.0,0.979363031339616,1674.273539876754,53.2000017024,0.35999970196000003,0.979363031339616,1684,-29.6,97,P-GPS,
0.379000862942369,36.9222582045371,18100,2018-04-15 05:05:46,1674.7735398927541,53.7000017184,0.0,0.99036003169152,1674.7735398927541,53.7000017184,0.35999970196000003,0.99036003169152,1684,-29.6,97,P-GPS,
0.379000839202638,36.9222581464134,18200,2018-04-15 05:05:46,1675.2735399087542,54.200001734400004,0.0,0.9972280319112962,1675.2735399087542,54.200001734400004,0.35999970196000003,0.9972280319112962,1684,-29.6,97,P-GPS,
0.379000823180606,36.9222580613153,18300,2018-04-15 05:05:46,1675.773539924754,54.700001750400006,0.0,1.0061700321974398,1675.773539924754,54.700001750400006,0.35999970196000003,1.0061700321974398,1684,-29.6,97,P-GPS,
0.379000815384655,36.9222580184651,18400,2018-04-15 05:05:46,1676.273539940754,55.2000017664,0.0,1.0106600323411201,1676.273539940754,55.2000017664,0.35999970196000003,1.0106600323411201,1684,-29.6,97,P-GPS,
0.379000812655608,36.9222579558726,18500,2018-04-15 05:05:46,1676.7735399567541,55.7000017824,0.0,1.01672003253504,1676.7735399567541,55.7000017824,0.35999970196000003,1.01672003253504,1684,-29.6,97,P-GPS,
0.37900081063720503,36.9222578952292,18600,2018-04-15 05:05:46,1677.2735399727542,56.2000017984,0.0,1.02256003272192,1677.2735399727542,56.2000017984,0.35999970196000003,1.02256003272192,1684,-29.6,97,P-GPS,
0.379000808863729,36.9222578597331,18700,2018-04-15 05:05:46,1677.773539988754,56.700001814400004,0.0,1.02601003283232,1677.773539988754,56.700001814400004,0.35999970196000003,1.02601003283232,1684,-29.6,97,P-GPS,
0.37900080586493395,36.922257808739296,18800,2018-04-15 05:05:46,1678.273540004754,57.200001830400005,0.0,1.03102003299264,1678.273540004754,57.200001830400005,0.35999970196000003,1.03102003299264,1684,-29.6,97,P-GPS,
0.37900080572091,36.922257773073504,18900,2018-04-15 05:05:46,1678.7735400207541,57.7000018464,0.0,1.0344000331008,1678.7735400207541,57.7000018464,0.35999970196000003,1.0344000331008,1684,-29.6,97,P-GPS,
0.37900082654509,36.92225768935489,19100,2018-04-15 05:05:46,1679.773540052754,58.7000018784,0.0,1.04116003331712,1679.773540052754,58.7000018784,0.35999970196000003,1.04116003331712,1684,-29.6,97,P-GPS,
0.379000845860364,36.922257675935704,19200,2018-04-15 05:05:47,1680.273540068754,59.2000018944,0.0,1.0413300333225601,1680.273540068754,59.2000018944,0.35999970196000003,1.0413300333225601,1684,-29.7,97,P-GPS,
0.37900086149682,36.9222575847093,19300,2018-04-15 05:05:47,1680.7735400847541,59.700001910400005,0.0,1.0491500335728001,1680.7735400847541,59.700001910400005,0.35999970196000003,1.0491500335728001,1684,-29.8,97,P-GPS,
0.37900087786121295,36.922257542666394,19400,2018-04-15 05:05:47,1681.273540100754,60.2000019264,0.0,1.05226003367232,1681.273540100754,60.2000019264,0.35999970196000003,1.05226003367232,1684,-30.0,97,P-GPS,
0.37900088325268605,36.922257464387606,19500,2018-04-15 05:05:47,1681.7735401167542,60.7000019424,0.0,1.05947003390304,1681.7735401167542,60.7000019424,0.35999970196000003,1.05947003390304,1684,-30.1,97,P-GPS,
0.37900090149815396,36.9222574383671,19600,2018-04-15 05:05:47,1682.273540132754,61.2000019584,0.0,1.06096003395072,1682.273540132754,61.2000019584,0.35999970196000003,1.06096003395072,1684,-30.3,97,P-GPS,
0.379000911628799,36.9222573846233,19700,2018-04-15 05:05:47,1682.8735401519539,61.80000197760001,0.0,1.0655900340988802,1682.8735401519539,61.80000197760001,0.35999970196000003,1.0655900340988802,1684,-30.4,97,P-GPS,
0.379000934593447,36.9222573821197,19800,2018-04-15 05:05:47,1683.273540164754,62.200001990400004,0.35999970196000003,1.06456003406592,1683.273540164754,62.200001990400004,0.35999970196000003,1.0655900340988802,1684,-30.4,97,P-GPS,
0.37900098213374506,36.9222573337606,19900,2018-04-15 05:05:47,1683.873540183954,62.80000200960001,0.35999970196000003,1.0666500341328,1683.873540183954,62.80000200960001,0.35999970196000003,1.0666500341328,1684,-30.4,97,P-GPS,
0.37900102053059703,36.9222573251828,20000,2018-04-15 05:05:47,1684.373540199954,63.3000020256,0.0,1.06541003409312,1684.373540199954,63.3000020256,0.35999970196000003,1.0666500341328,1684,-30.4,97,P-GPS,
0.37900101986165,36.9222572953289,20100,2018-04-15 05:05:48,1684.873540215954,63.8000020416,0.0,1.0683500341872,1684.873540215954,63.8000020416,0.35999970196000003,1.0683500341872,1684,-30.4,97,P-GPS,
0.379001010981376,36.9222572764174,20200,2018-04-15 05:05:48,1685.3735402319542,64.30000205760001,0.0,1.07067003426144,1685.3735402319542,64.30000205760001,0.35999970196000003,1.07067003426144,1684,-30.4,97,P-GPS,
0.3790010074747,36.922257284603894,20300,2018-04-15 05:05:48,1685.873540247954,64.8000020736,0.0,1.0700600342419202,1685.873540247954,64.8000020736,0.35999970196000003,1.07067003426144,1684,-30.4,97,P-GPS,
0.379000998274399,36.9222572631486,20400,2018-04-15 05:05:48,1686.3735402639543,65.3000020896,0.0,1.0726400343244802,1686.3735402639543,65.3000020896,0.35999970196000003,1.0726400343244802,1684,-30.4,97,P-GPS,
0.379000998149416,36.922257245314604,20500,2018-04-15 05:05:48,1686.873540279954,65.8000021056,0.0,1.0743800343801602,1686.873540279954,65.8000021056,0.35999970196000003,1.0743800343801602,1682,-30.4,97,P-GPS,
0.379001000018806,36.922257244695295,20600,2018-04-15 05:05:48,1687.373540295954,66.3000021216,0.0,1.07434003437888,1687.373540295954,66.3000021216,0.35999970196000003,1.0743800343801602,1666,-30.4,97,P-GPS,
0.379000988903111,36.9222572173189,20700,2018-04-15 05:05:48,1687.8735403119542,66.8000021376,0.0,1.0776100344835202,1687.8735403119542,66.8000021376,0.35999970196000003,1.0776100344835202,1662,-30.4,97,P-GPS,
0.37900098722984604,36.922257226262296,20800,2018-04-15 05:05:48,1688.373540327954,67.30000215359999,0.0,1.0768300344585602,1688.373540327954,67.30000215359999,0.35999970196000003,1.0776100344835202,1657,-30.4,97,P-GPS,
0.379000936717002,36.922257160661395,20900,2018-04-15 05:05:48,1688.8735403439541,67.8000021696,0.0,1.08593003474976,1688.8735403439541,67.8000021696,0.35999970196000003,1.08593003474976,1658,-30.4,97,P-GPS,
0.379000906305651,36.9222571409678,21000,2018-04-15 05:05:48,1689.373540359954,68.30000218560001,0.0,1.0894800348633602,1689.373540359954,68.30000218560001,0.35999970196000003,1.0894800348633602,1658,-30.4,97,P-GPS,
0.37900087600497107,36.9222570985431,21100,2018-04-15 05:05:48,1689.773540372754,68.7000021984,0.0,1.09524003504768,1689.773540372754,68.7000021984,0.35999970196000003,1.09524003504768,1658,-30.4,97,P-GPS,
0.379000828183918,36.9222570279231,21200,2018-04-15 05:05:48,1690.273540388754,69.2000022144,0.0,1.10469003535008,1690.273540388754,69.2000022144,0.35999970196000003,1.10469003535008,1650,-30.4,97,P-GPS,
0.37900078725457503,36.9222569941722,21300,2018-04-15 05:05:49,1690.7735404047542,69.7000022304,0.0,1.1101900355260799,1690.7735404047542,69.7000022304,0.35999970196000003,1.1101900355260799,1646,-30.4,97,P-GPS,
0.37900075345290707,36.922256975630496,21400,2018-04-15 05:05:49,1691.273540420754,70.2000022464,0.0,1.1138300356425601,1691.273540420754,70.2000022464,0.35999970196000003,1.1138300356425601,1640,-30.4,97,P-GPS,
0.37900068479231397,36.9222568930918,21500,2018-04-15 05:05:49,1691.7735404367543,70.7000022624,0.0,1.12557003601824,1691.7735404367543,70.7000022624,0.35999970196000003,1.12557003601824,1613,-30.4,97,P-GPS,
0.37900062427605197,36.9222568183295,21600,2018-04-15 05:05:49,1692.1735404495541,71.10000227520001,0.0,1.13612003635584,1692.1735404495541,71.10000227520001,0.35999970196000003,1.13612003635584,1617,-30.4,97,P-GPS,
0.379000581758245,36.92225677483479,21700,2018-04-15 05:05:49,1692.673540465554,71.6000022912,0.0,1.14266003656512,1692.673540465554,71.6000022912,0.35999970196000003,1.14266003656512,1617,-30.4,97,P-GPS,
0.379000540443577,36.922256704357096,21800,2018-04-15 05:05:49,1693.073540478354,72.00000230399999,0.0,1.151750036856,1693.073540478354,72.00000230399999,0.35999970196000003,1.151750036856,1592,-30.4,97,P-GPS,
0.379000527055936,36.9222566665699,21900,2018-04-15 05:05:49,1693.573540494354,72.50000232,0.0,1.15614003699648,1693.573540494354,72.50000232,0.35999970196000003,1.15614003699648,1497,-30.4,97,P-GPS,
0.37900051382197797,36.922256636641606,22000,2018-04-15 05:05:49,1693.973540507154,72.9000023328,0.0,1.15976003711232,1693.973540507154,72.9000023328,0.35999970196000003,1.15976003711232,1459,-30.4,97,P-GPS,
0.379000472510975,36.9222565884785,22100,2018-04-15 05:05:49,1694.3735405199538,73.3000023456,0.0,1.16668003733376,1694.3735405199538,73.3000023456,0.35999970196000003,1.16668003733376,1422,-30.4,97,P-GPS,
0.37900046106225,36.922256584737205,22200,2018-04-15 05:05:50,1694.7735405327542,73.7000023584,0.0,1.16768003736576,1694.7735405327542,73.7000023584,0.35999970196000003,1.16768003736576,1346,-30.4,97,P-GPS,
0.37900042485929397,36.9222565506769,22300,2018-04-15 05:05:50,1695.073540542354,74.00000236800001,0.0,1.17296003753472,1695.073540542354,74.00000236800001,0.35999970196000003,1.17296003753472,1265,-30.4,97,P-GPS,
0.37900040873095603,36.922256556736606,22400,2018-04-15 05:05:50,1695.373540551954,74.30000237760001,0.0,1.17327003754464,1695.373540551954,74.30000237760001,0.35999970196000003,1.17327003754464,1259,-30.4,97,P-GPS,
0.379000398703965,36.9222565084969,22500,2018-04-15 05:05:50,1695.5735405583541,74.500002384,0.0,1.17848003771136,1695.5735405583541,74.500002384,0.35999970196000003,1.17848003771136,1253,-30.4,97,P-GPS,
0.379000406666471,36.922256505902205,22600,2018-04-15 05:05:50,1695.773540564754,74.7000023904,0.0,1.17829003770528,1695.773540564754,74.7000023904,0.35999970196000003,1.17848003771136,1240,-30.4,97,P-GPS,
0.37900037379113793,36.9222564379753,22700,2018-04-15 05:05:50,1695.9735405711542,74.9000023968,0.0,1.18666003797312,1695.9735405711542,74.9000023968,0.35999970196000003,1.18666003797312,1208,-30.4,97,P-GPS,
0.37900037537876896,36.9222564043224,22800,2018-04-15 05:05:50,1696.0735405743542,75.0000024,0.0,1.1898300380745601,1696.0735405743542,75.0000024,0.35999970196000003,1.1898300380745601,1172,-30.4,97,P-GPS,
0.37900038218195,36.9222563069019,22900,2018-04-15 05:05:50,1696.173540577554,75.1000024032,0.0,1.19888003836416,1696.173540577554,75.1000024032,0.35999970196000003,1.19888003836416,1093,-30.4,97,P-GPS,
0.37900041668796597,36.9222562538738,23000,2018-04-15 05:05:50,1696.273540580754,75.20000240640002,0.0,1.20216003846912,1696.273540580754,75.20000240640002,0.35999970196000003,1.20216003846912,1030,-30.4,97,P-GPS,
0.379000443251144,36.9222561939493,23100,2018-04-15 05:05:50,1696.373540583954,75.30000240960001,0.0,1.20657003861024,1696.373540583954,75.30000240960001,0.35999970196000003,1.20657003861024,1024,-30.4,97,P-GPS,
0.37900049645090794,36.9222561596315,23200,2018-04-15 05:05:51,1696.473540587154,75.40000241279999,0.0,1.20708003862656,1696.473540587154,75.40000241279999,0.35999970196000003,1.20708003862656,1024,-30.4,97,P-GPS,
0.37900057056839204,36.922256127252,23300,2018-04-15 05:05:51,1696.473540587154,75.40000241279999,0.0,1.20636003860352,1696.473540587154,75.40000241279999,0.35999970196000003,1.20708003862656,1024,-30.4,97,P-GPS,
0.37900067892990297,36.9222561191726,23400,2018-04-15 05:05:51,1696.473540587154,75.40000241279999,0.0,1.2015500384496,1696.473540587154,75.40000241279999,0.35999970196000003,1.20708003862656,1024,-30.4,97,P-GPS,
0.379000792597399,36.92225602274289,23500,2018-04-15 05:05:51,1696.473540587154,75.40000241279999,0.0,1.20533003857056,1696.473540587154,75.40000241279999,0.35999970196000003,1.20708003862656,1024,-30.4,97,P-GPS,
0.379000940732516,36.922255929608205,23600,2018-04-15 05:05:51,1696.473540587154,75.40000241279999,0.0,1.20734003863488,1696.473540587154,75.40000241279999,0.35999970196000003,1.20734003863488,1024,-30.4,97,P-GPS,
0.37900112936134206,36.9222558647336,23700,2018-04-15 05:05:51,1696.473540587154,75.40000241279999,0.0,1.20491003855712,1696.473540587154,75.40000241279999,0.35999970196000003,1.20734003863488,1024,-30.4,97,P-GPS,
0.379001336411864,36.9222557652501,23800,2018-04-15 05:05:51,1696.473540587154,75.40000241279999,0.0,1.20559003857888,1696.473540587154,75.40000241279999,0.35999970196000003,1.20734003863488,1024,-30.4,97,P-GPS,
0.37900157162726594,36.92225567505999,23900,2018-04-15 05:05:51,1696.473540587154,75.40000241279999,0.0,1.20467003854944,1696.473540587154,75.40000241279999,0.35999970196000003,1.20734003863488,1024,-30.4,97,P-GPS,
0.37900183438886703,36.9222555969788,24000,2018-04-15 05:05:51,1696.473540587154,75.40000241279999,0.0,1.2020500384655999,1696.473540587154,75.40000241279999,0.35999970196000003,1.20734003863488,1024,-30.4,97,P-GPS,
0.379002099965998,36.9222554625345,24100,2018-04-15 05:05:51,1696.473540587154,75.40000241279999,0.35999970196000003,1.20601003859232,1696.473540587154,75.40000241279999,0.35999970196000003,1.20734003863488,1024,-30.4,97,P-GPS,
0.379002386035772,36.922255336467295,24200,2018-04-15 05:05:52,1696.473540587154,75.40000241279999,0.35999970196000003,1.20929003869728,1696.473540587154,75.40000241279999,0.35999970196000003,1.20929003869728,1024,-30.4,97,P-GPS,
0.37900269842588397,36.922255247824296,24300,2018-04-15 05:05:52,1696.473540587154,75.40000241279999,0.35999970196000003,1.2087600386803201,1696.473540587154,75.40000241279999,0.35999970196000003,1.20929003869728,1024,-30.4,97,P-GPS,
0.37900302491628496,36.9222551760373,24400,2018-04-15 05:05:52,1696.473540587154,75.40000241279999,0.35999970196000003,1.2071000386272,1696.473540587154,75.40000241279999,0.35999970196000003,1.20929003869728,1024,-30.4,97,P-GPS,
0.37900330371709295,36.922255017531704,24500,2018-04-15 05:05:52,1696.473540587154,75.40000241279999,0.35999970196000003,1.21714003894848,1696.473540587154,75.40000241279999,0.35999970196000003,1.21714003894848,1024,-30.4,97,P-GPS,
0.379003589366118,36.9222548617279,24600,2018-04-15 05:05:52,1696.473540587154,75.40000241279999,0.35999970196000003,1.2277000392864,1696.473540587154,75.40000241279999,0.35999970196000003,1.2277000392864,1024,-30.4,97,P-GPS,
0.379003888134703,36.922254740125204,24700,2018-04-15 05:05:52,1696.473540587154,75.40000241279999,0.35999970196000003,1.2352400395276801,1696.473540587154,75.40000241279999,0.35999970196000003,1.2352400395276801,1024,-30.4,97,P-GPS,
0.37900418372314,36.922254641153394,24800,2018-04-15 05:05:52,1696.473540587154,75.40000241279999,0.35999970196000003,1.24132003972224,1696.473540587154,75.40000241279999,0.35999970196000003,1.24132003972224,1024,-30.4,97,P-GPS,
0.379004437421076,36.9222545035631,24900,2018-04-15 05:05:52,1696.473540587154,75.40000241279999,0.35999970196000003,1.2531000400992,1696.473540587154,75.40000241279999,0.35999970196000003,1.2531000400992,1024,-30.4,97,P-GPS,
0.3790047000178479,36.9222544295165,25000,2018-04-15 05:05:52,1696.473540587154,75.40000241279999,0.35999970196000003,1.2584600402707202,1696.473540587154,75.40000241279999,0.35999970196000003,1.2584600402707202,1024,-30.4,97,P-GPS,
0.37900494077108005,36.922254277818496,25100,2018-04-15 05:05:52,1696.373540583954,75.30000240960001,0.35999970196000003,1.2733000407455999,1696.473540587154,75.40000241279999,0.35999970196000003,1.2733000407455999,1024,-30.4,97,P-GPS,
0.3790051853491189,36.9222541991168,25200,2018-04-15 05:05:53,1696.373540583954,75.30000240960001,0.35999970196000003,1.28061004097952,1696.473540587154,75.40000241279999,0.35999970196000003,1.28061004097952,1024,-30.4,97,P-GPS,
0.379005426143469,36.9222540014376,25300,2018-04-15 05:05:53,1696.373540583954,75.30000240960001,0.35999970196000003,1.30176004165632,1696.473540587154,75.40000241279999,0.35999970196000003,1.30176004165632,1024,-30.4,97,P-GPS,
0.379005661459326,36.9222539006618,25400,2018-04-15 05:05:53,1696.373540583954,75.30000240960001,0.35999970196000003,1.31269004200608,1696.473540587154,75.40000241279999,0.35999970196000003,1.31269004200608,1024,-30.4,97,P-GPS,
0.379005865191105,36.9222536791451,25500,2018-04-15 05:05:53,1696.373540583954,75.30000240960001,0.35999970196000003,1.3375100428003202,1696.473540587154,75.40000241279999,0.35999970196000003,1.3375100428003202,1024,-30.4,96,P-GPS,
0.379006062366768,36.922253562822796,25600,2018-04-15 05:05:53,1696.373540583954,75.30000240960001,0.35999970196000003,1.3509900432316801,1696.473540587154,75.40000241279999,0.35999970196000003,1.3509900432316801,1024,-30.4,96,P-GPS,
0.37900624790841997,36.922253322986606,25700,2018-04-15 05:05:53,1696.373540583954,75.30000240960001,0.503999582744,1.37846004411072,1696.473540587154,75.40000241279999,0.503999582744,1.37846004411072,1024,-30.4,96,P-GPS,
0.37900641622887,36.9222531918982,25800,2018-04-15 05:05:53,1696.373540583954,75.30000240960001,0.503999582744,1.39402004460864,1696.473540587154,75.40000241279999,0.503999582744,1.39402004460864,1024,-30.4,96,P-GPS,
0.3790065942454821,36.9222529753824,25900,2018-04-15 05:05:53,1696.373540583954,75.30000240960001,0.503999582744,1.4193600454195203,1696.473540587154,75.40000241279999,0.503999582744,1.4193600454195203,1024,-30.4,96,P-GPS,
0.379006744131539,36.9222527785747,26000,2018-04-15 05:05:53,1696.373540583954,75.30000240960001,0.503999582744,1.44248004615936,1696.473540587154,75.40000241279999,0.503999582744,1.44248004615936,1024,-30.4,96,P-GPS,
0.3790068576809029,36.9222526558029,26100,2018-04-15 05:05:53,1696.373540583954,75.30000240960001,0.35999970196000003,1.4571800466297602,1696.473540587154,75.40000241279999,0.503999582744,1.4571800466297602,1024,-30.4,96,P-GPS,
0.3790069530218211,36.922252483474004,26200,2018-04-15 05:05:54,1696.373540583954,75.30000240960001,0.35999970196000003,1.477250047272,1696.473540587154,75.40000241279999,0.503999582744,1.477250047272,1024,-30.4,96,P-GPS,
0.37900703712932504,36.922252369820704,26300,2018-04-15 05:05:54,1696.373540583954,75.30000240960001,0.35999970196000003,1.4907600477043201,1696.473540587154,75.40000241279999,0.503999582744,1.4907600477043201,1024,-30.4,96,P-GPS,
0.37900711957093103,36.9222522088896,26400,2018-04-15 05:05:54,1696.373540583954,75.30000240960001,0.35999970196000003,1.50952004830464,1696.473540587154,75.40000241279999,0.503999582744,1.50952004830464,1024,-30.4,96,P-GPS,
0.379007206885655,36.9222521278658,26500,2018-04-15 05:05:54,1696.373540583954,75.30000240960001,0.35999970196000003,1.5195400486252801,1696.473540587154,75.40000241279999,0.503999582744,1.5195400486252801,1024,-30.4,96,P-GPS,
0.37900728383452,36.9222520169222,26600,2018-04-15 05:05:54,1696.373540583954,75.30000240960001,0.35999970196000003,1.53279004904928,1696.473540587154,75.40000241279999,0.503999582744,1.53279004904928,1024,-30.4,96,P-GPS,
0.379007328475055,36.922251955884796,26700,2018-04-15 05:05:54,1696.373540583954,75.30000240960001,0.35999970196000003,1.54012004928384,1696.473540587154,75.40000241279999,0.503999582744,1.54012004928384,1024,-30.4,96,P-GPS,
0.3790073567114601,36.9222518572128,26800,2018-04-15 05:05:54,1696.373540583954,75.30000240960001,0.35999970196000003,1.5513900496444801,1696.473540587154,75.40000241279999,0.503999582744,1.5513900496444801,1024,-30.4,96,P-GPS,
0.37900737070264295,36.9222518078055,26900,2018-04-15 05:05:54,1696.373540583954,75.30000240960001,0.35999970196000003,1.55703004982496,1696.473540587154,75.40000241279999,0.503999582744,1.55703004982496,1024,-30.4,96,P-GPS,
0.3790073756799821,36.922251786548294,27000,2018-04-15 05:05:54,1696.373540583954,75.30000240960001,0.35999970196000003,1.55944004990208,1696.473540587154,75.40000241279999,0.503999582744,1.55944004990208,1024,-30.4,96,P-GPS,
0.379007344205824,36.922251720849296,27100,2018-04-15 05:05:54,1696.373540583954,75.30000240960001,0.35999970196000003,1.5662700501206401,1696.473540587154,75.40000241279999,0.503999582744,1.5662700501206401,1024,-30.4,96,P-GPS,
0.37900730344017103,36.9222516358685,27200,2018-04-15 05:05:55,1696.373540583954,75.30000240960001,0.35999970196000003,1.57513005040416,1696.473540587154,75.40000241279999,0.503999582744,1.57513005040416,1024,-30.4,96,P-GPS,
0.37900727027975895,36.9222516249384,27300,2018-04-15 05:05:55,1696.373540583954,75.30000240960001,0.35999970196000003,1.5759100504291201,1696.473540587154,75.40000241279999,0.503999582744,1.5759100504291201,1024,-30.4,96,P-GPS,
0.37900723199015507,36.9222515770408,27400,2018-04-15 05:05:55,1696.373540583954,75.30000240960001,0.35999970196000003,1.5807300505833601,1696.473540587154,75.40000241279999,0.503999582744,1.5807300505833601,1024,-30.4,96,P-GPS,
0.37900720132940396,36.9222515665059,27500,2018-04-15 05:05:55,1696.373540583954,75.30000240960001,0.35999970196000003,1.5815200506086402,1696.473540587154,75.40000241279999,0.503999582744,1.5815200506086402,1024,-30.4,96,P-GPS,
0.379007145125288,36.9222515275319,27600,2018-04-15 05:05:55,1696.373540583954,75.30000240960001,0.35999970196000003,1.58517005072544,1696.473540587154,75.40000241279999,0.503999582744,1.58517005072544,1024,-30.4,96,P-GPS,
0.37900706300326503,36.922251544362105,27700,2018-04-15 05:05:55,1696.373540583954,75.30000240960001,0.35999970196000003,1.58238005063616,1696.473540587154,75.40000241279999,0.503999582744,1.58517005072544,1024,-30.4,96,P-GPS,
0.379006961038651,36.9222515205621,27800,2018-04-15 05:05:55,1696.373540583954,75.30000240960001,0.35999970196000003,1.58394005068608,1696.473540587154,75.40000241279999,0.503999582744,1.58517005072544,1024,-30.4,96,P-GPS,
0.379006865545067,36.9222515217537,27900,2018-04-15 05:05:55,1696.373540583954,75.30000240960001,0.7199994039200001,1.58288005065216,1696.473540587154,75.40000241279999,0.7199994039200001,1.58517005072544,1024,-30.4,96,P-GPS,
0.379006750358302,36.9222514904079,28000,2018-04-15 05:05:55,1696.373540583954,75.30000240960001,0.7199994039200001,1.58533005073056,1696.473540587154,75.40000241279999,0.7199994039200001,1.58533005073056,1024,-30.4,96,P-GPS,
0.37900665130738104,36.9222515129628,28100,2018-04-15 05:05:55,1696.373540583954,75.30000240960001,0.7199994039200001,1.5820200506246402,1696.473540587154,75.40000241279999,0.7199994039200001,1.58533005073056,1024,-30.4,96,P-GPS,
0.379006522754755,36.922251500220206,28200,2018-04-15 05:05:55,1696.373540583954,75.30000240960001,0.7199994039200001,1.5825100506403198,1696.473540587154,75.40000241279999,0.7199994039200001,1.58533005073056,1024,-30.4,96,P-GPS,
0.37900639290466703,36.922251529061796,28300,2018-04-15 05:05:56,1696.373540583954,75.30000240960001,0.7199994039200001,1.5785000505120002,1696.473540587154,75.40000241279999,0.7199994039200001,1.58533005073056,1024,-30.4,96,P-GPS,
0.37900626951624394,36.922251579988206,28400,2018-04-15 05:05:56,1696.373540583954,75.30000240960001,0.7199994039200001,1.5722000503104,1696.473540587154,75.40000241279999,0.7199994039200001,1.58533005073056,1024,-30.4,96,P-GPS,
0.3790061266329029,36.9222515500386,28500,2018-04-15 05:05:56,1696.373540583954,75.30000240960001,0.7199994039200001,1.5749300503977601,1696.473540587154,75.40000241279999,0.7199994039200001,1.58533005073056,1024,-30.4,96,P-GPS,
0.379006016286281,36.9222515901603,28600,2018-04-15 05:05:56,1696.373540583954,75.30000240960001,0.7199994039200001,1.57012005024384,1696.473540587154,75.40000241279999,0.7199994039200001,1.58533005073056,1024,-30.4,96,P-GPS,
0.379005854173053,36.9222515591528,28700,2018-04-15 05:05:56,1696.373540583954,75.30000240960001,0.7199994039200001,1.5732200503430402,1696.473540587154,75.40000241279999,0.7199994039200001,1.58533005073056,1024,-30.4,96,P-GPS,
0.379005693577127,36.9222515375401,28800,2018-04-15 05:05:56,1696.473540587154,75.40000241279999,0.7199994039200001,1.57548005041536,1696.473540587154,75.40000241279999,0.7199994039200001,1.58533005073056,1024,-30.4,96,P-GPS,
