latitude,longitude,time_millisecond,datetime_utc,altitude_m,ascent_m,speed_kph,distance_m,max_altitude_m,max_ascent_m,max_speed_kph,max_distance_m,rc_throttle,gimbal_pitch_degrees,battery_percent,flycState,message
0.353886341316019,36.8971847364538,0,2018-04-15 06:21:03,1769.5814775266188,0.0,0.0,0.0,1769.5814775266188,0.0,0.0,0.0,364,0.0,99,Motors_Started,
0.35388635570607,36.8971847295593,100,2018-04-15 06:21:03,1769.5814775266188,0.0,0.0,0.00177444005678208,1769.5814775266188,0.0,0.0,0.00177444005678208,364,0.0,99,Motors_Started,
0.353886416239506,36.8971847601095,200,2018-04-15 06:21:03,1769.5814775266188,0.0,0.0,0.00873736027959552,1769.5814775266188,0.0,0.0,0.00873736027959552,364,0.0,99,Motors_Started,
0.353886457011062,36.8971847823401,300,2018-04-15 06:21:03,1769.5814775266188,0.0,0.0,0.0138409004429088,1769.5814775266188,0.0,0.0,0.0138409004429088,364,0.0,99,Motors_Started,
0.353886492477911,36.8971847568921,400,2018-04-15 06:21:03,1769.5814775266188,0.0,0.0,0.0169631005428192,1769.5814775266188,0.0,0.0,0.0169631005428192,364,0.0,99,Motors_Started,
0.353886519980243,36.8971847397697,500,2018-04-15 06:21:03,1769.5814775266188,0.0,0.0,0.019872000635904,1769.5814775266188,0.0,0.0,0.019872000635904,364,0.0,99,Motors_Started,Setting new Return-To-Home altitude to 30m (98 ft). Setting new Maximum Flight Altitude to 150m (492 ft)
0.353886537092696,36.8971847213686,600,2018-04-15 06:21:03,1769.5814775266188,0.0,0.0,0.0218361006987552,1769.5814775266188,0.0,0.0,0.0218361006987552,364,0.0,99,Motors_Started,
0.353886552644845,36.8971847075367,700,2018-04-15 06:21:03,1769.5814775266188,0.0,0.0,0.023720000759040002,1769.5814775266188,0.0,0.0,0.023720000759040002,364,0.0,99,Motors_Started,
0.353886556890301,36.8971846536408,800,2018-04-15 06:21:03,1769.5814775266188,0.0,0.0,0.025681100821795203,1769.5814775266188,0.0,0.0,0.025681100821795203,364,0.0,99,Motors_Started,
0.353886559975642,36.8971846083517,900,2018-04-15 06:21:03,1769.5814775266188,0.0,0.0,0.0281818009018176,1769.5814775266188,0.0,0.0,0.0281818009018176,364,0.0,99,Motors_Started,
0.353886562244574,36.8971845831907,1000,2018-04-15 06:21:04,1769.5814775266188,0.0,0.0,0.029901400956844803,1769.5814775266188,0.0,0.0,0.029901400956844803,364,0.0,99,Motors_Started,
0.353886563270799,36.897184547499,1100,2018-04-15 06:21:04,1769.5814775266188,0.0,0.0,0.032415501037296,1769.5814775266188,0.0,0.0,0.032415501037296,364,0.0,99,Motors_Started,
0.353886565630719,36.8971845076399,1200,2018-04-15 06:21:04,1769.5814775266188,0.0,0.0,0.035633001140256,1769.5814775266188,0.0,0.0,0.035633001140256,364,0.0,99,Motors_Started,
0.353886561976287,36.8971844601087,1300,2018-04-15 06:21:04,1769.5814775266188,0.0,0.0,0.039325901258428796,1769.5814775266188,0.0,0.0,0.039325901258428796,364,0.0,99,Motors_Started,
0.353886543759342,36.8971843861989,1400,2018-04-15 06:21:04,1769.5814775266188,0.0,0.0,0.0449879014396128,1769.5814775266188,0.0,0.0,0.0449879014396128,408,0.0,99,Motors_Started,
0.353886525785697,36.8971843193763,1500,2018-04-15 06:21:04,1769.5814775266188,0.0,0.0,0.050714901622876805,1769.5814775266188,0.0,0.0,0.050714901622876805,444,0.0,99,Motors_Started,
0.353886503964904,36.8971842651212,1600,2018-04-15 06:21:04,1769.5814775266188,0.0,0.0,0.0554472017743104,1769.5814775266188,0.0,0.0,0.0554472017743104,519,0.0,99,Assisted_Takeoff,
0.353886479806835,36.8971842105112,1700,2018-04-15 06:21:04,1769.5814775266188,0.0,0.0,0.06048070193538241,1769.5814775266188,0.0,0.0,0.06048070193538241,792,0.0,99,Assisted_Takeoff,
0.353886471636423,36.8971841688699,1800,2018-04-15 06:21:04,1769.5814775266188,0.0,0.0,0.06476000207232001,1769.5814775266188,0.0,0.0,0.06476000207232001,1024,0.0,99,Assisted_Takeoff,
0.353886465457496,36.8971841311429,1900,2018-04-15 06:21:05,1769.5814775266188,0.0,0.0,0.0687141021988512,1769.5814775266188,0.0,0.0,0.0687141021988512,1061,0.0,99,Assisted_Takeoff,
0.353886448104084,36.8971840932076,2000,2018-04-15 06:21:05,1769.5814775266188,0.0,0.0,0.07251060232033919,1769.5814775266188,0.0,0.0,0.07251060232033919,1024,0.0,99,Assisted_Takeoff,
0.353886430282342,36.8971840587026,2100,2018-04-15 06:21:05,1769.5814775266188,0.0,0.0,0.0760152024324864,1769.5814775266188,0.0,0.0,0.0760152024324864,1024,0.0,99,Assisted_Takeoff,
0.353886433525236,36.8971840334319,2200,2018-04-15 06:21:05,1769.5814775266188,0.0,0.0,0.07884850252315201,1769.5814775266188,0.0,0.0,0.07884850252315201,1024,0.0,99,Assisted_Takeoff,
0.353886445941154,36.8971840194424,2300,2018-04-15 06:21:05,1769.5814775266188,0.0,0.0,0.0805789025785248,1769.5814775266188,0.0,0.0,0.0805789025785248,1024,0.0,99,Assisted_Takeoff,
0.35388642920818,36.8971839881509,2400,2018-04-15 06:21:05,1769.5814775266188,0.0,0.0,0.08378630268116159,1769.5814775266188,0.0,0.0,0.08378630268116159,1024,0.0,99,Assisted_Takeoff,
0.353886413864828,36.8971839603377,2500,2018-04-15 06:21:05,1769.5814775266188,0.0,0.0,0.086683502773872,1769.5814775266188,0.0,0.0,0.086683502773872,1025,0.0,99,Assisted_Takeoff,
0.353886429199783,36.8971839465515,2600,2018-04-15 06:21:05,1769.5814775266188,0.0,0.0,0.0883823028282336,1769.5814775266188,0.0,0.0,0.0883823028282336,1067,0.0,99,Assisted_Takeoff,
0.353886458011232,36.8971839495444,2700,2018-04-15 06:21:05,1769.5814775266188,0.0,0.0,0.08846450283086402,1769.5814775266188,0.0,0.0,0.08846450283086402,1171,0.0,99,Assisted_Takeoff,
0.353886470123904,36.8971839484431,2800,2018-04-15 06:21:05,1769.5814775266188,0.0,0.0,0.0887929028413728,1769.5814775266188,0.0,0.0,0.0887929028413728,1245,0.0,99,Assisted_Takeoff,
0.353886482399369,36.8971839579088,2900,2018-04-15 06:21:05,1769.5814775266188,0.0,0.0,0.0879874028155968,1769.5814775266188,0.0,0.0,0.0887929028413728,1271,0.0,99,Assisted_Takeoff,
0.353886494935385,36.8971839656771,3000,2018-04-15 06:21:06,1769.5814775266188,0.0,0.0,0.0873993027967776,1769.5814775266188,0.0,0.0,0.0887929028413728,1276,0.0,99,Assisted_Takeoff,
0.353886525548657,36.8971839738003,3100,2018-04-15 06:21:06,1769.5814775266188,0.0,0.0,0.0872497027919904,1769.5814775266188,0.0,0.0,0.0887929028413728,1278,0.0,99,Assisted_Takeoff,
0.353886570258859,36.8971839594284,3200,2018-04-15 06:21:06,1769.5814775266188,0.0,0.0,0.0900811028825952,1769.5814775266188,0.0,0.0,0.0900811028825952,1282,0.0,99,Assisted_Takeoff,
0.353886617187612,36.8971839583309,3300,2018-04-15 06:21:06,1769.5814775266188,0.0,0.0,0.0918078029378496,1769.5814775266188,0.0,0.0,0.0918078029378496,1287,0.0,99,Assisted_Takeoff,
0.353886650776204,36.8971839866954,3400,2018-04-15 06:21:06,1769.5814775266188,0.0,0.0,0.09019920288637441,1769.5814775266188,0.0,0.0,0.0918078029378496,1291,0.0,99,Assisted_Takeoff,
0.353886749044606,36.8971840540815,3500,2018-04-15 06:21:06,1769.5814775266188,0.0,0.503999582744,0.0883971028287072,1769.5814775266188,0.0,0.503999582744,0.0918078029378496,1292,0.0,99,P-GPS,Obstacle Avoided. Revise Flight Route
0.353886894443663,36.8971841363744,3600,2018-04-15 06:21:06,1769.5814775266188,0.0,0.503999582744,0.09075610290419521,1769.5814775266188,0.0,0.503999582744,0.0918078029378496,1291,0.0,99,P-GPS,Home Point Recorded. RTH Altitude:  30m.
0.353887056579244,36.8971842164455,3700,2018-04-15 06:21:06,1769.6814775298192,0.1000000032,0.503999582744,0.0983404031468928,1769.6814775298192,0.1000000032,0.503999582744,0.0983404031468928,1291,0.0,99,P-GPS,
0.353887213849995,36.897184295215,3800,2018-04-15 06:21:06,1769.781477533019,0.2000000064,0.503999582744,0.10873200347942401,1769.781477533019,0.2000000064,0.503999582744,0.10873200347942401,1287,0.0,99,P-GPS,
0.35388735112605,36.8971843716367,3900,2018-04-15 06:21:07,1769.781477533019,0.2000000064,0.35999970196000003,0.1194000038208,1769.781477533019,0.2000000064,0.503999582744,0.1194000038208,1279,0.0,99,P-GPS,
0.353887478596346,36.8971844625857,4000,2018-04-15 06:21:07,1769.8814775362189,0.3000000096,0.35999970196000003,0.13008800416281602,1769.8814775362189,0.3000000096,0.503999582744,0.13008800416281602,1270,0.0,99,P-GPS,
0.353887589517554,36.8971845422974,4100,2018-04-15 06:21:07,1769.9814775394188,0.4000000128,0.0,0.140477004495264,1769.9814775394188,0.4000000128,0.503999582744,0.140477004495264,1270,0.0,99,P-GPS,
0.35388758660442,36.8971845073809,4200,2018-04-15 06:21:07,1770.181477545819,0.6000000192,0.0,0.140807004505824,1770.181477545819,0.6000000192,0.503999582744,0.140807004505824,1269,0.0,99,P-GPS,
0.353887597441359,36.8971844767171,4300,2018-04-15 06:21:07,1770.281477549019,0.7000000224,0.0,0.14264400456460802,1770.281477549019,0.7000000224,0.503999582744,0.14264400456460802,1256,0.0,99,P-GPS,
0.35388760347683,36.8971844820022,4400,2018-04-15 06:21:07,1770.381477552219,0.8000000256,0.0,0.143184004581888,1770.381477552219,0.8000000256,0.503999582744,0.143184004581888,1245,0.0,99,P-GPS,
0.353887605088914,36.897184505174,4500,2018-04-15 06:21:07,1770.4814775554191,0.9000000288000001,0.0,0.142873004571936,1770.4814775554191,0.9000000288000001,0.503999582744,0.143184004581888,1241,0.0,99,P-GPS,
0.353887600664431,36.8971845561465,4600,2018-04-15 06:21:07,1770.5814775586189,1.000000032,0.0,0.1414750045272,1770.5814775586189,1.000000032,0.503999582744,0.143184004581888,1231,0.0,99,P-GPS,
0.353887619450009,36.8971845965124,4700,2018-04-15 06:21:07,1770.6814775618188,1.1000000352000001,0.0,0.14298600457555202,1770.6814775618188,1.1000000352000001,0.503999582744,0.143184004581888,1230,0.0,99,P-GPS,
0.353887635840857,36.8971846960939,4800,2018-04-15 06:21:07,1770.881477568219,1.3000000416000002,0.0,0.144029004608928,1770.881477568219,1.3000000416000002,0.503999582744,0.144029004608928,1216,0.0,99,P-GPS,
0.353887663163399,36.8971847809616,4900,2018-04-15 06:21:07,1770.981477571419,1.4000000448,0.0,0.147081004706592,1770.981477571419,1.4000000448,0.503999582744,0.147081004706592,1207,0.0,99,P-GPS,
0.353887707015666,36.8971849015916,5000,2018-04-15 06:21:08,1771.081477574619,1.5000000480000002,0.0,0.15298000489536,1771.081477574619,1.5000000480000002,0.503999582744,0.15298000489536,1233,0.0,99,P-GPS,
0.353887743142544,36.8971849813272,5100,2018-04-15 06:21:08,1771.1814775778191,1.6000000512,0.0,0.158252005064064,1771.1814775778191,1.6000000512,0.503999582744,0.158252005064064,1259,0.0,99,P-GPS,
0.353887818544793,36.8971850475715,5200,2018-04-15 06:21:08,1771.1814775778191,1.6000000512,0.0,0.167881005372192,1771.1814775778191,1.6000000512,0.503999582744,0.167881005372192,1290,0.0,99,P-GPS,
0.353887871081399,36.8971850986418,5300,2018-04-15 06:21:08,1771.281477581019,1.7000000544000002,0.0,0.17482200559430403,1771.281477581019,1.7000000544000002,0.503999582744,0.17482200559430403,1306,0.0,99,P-GPS,
0.353887883752423,36.8971852317212,5400,2018-04-15 06:21:08,1771.381477584219,1.8000000576000001,0.0,0.18015400576492802,1771.381477584219,1.8000000576000001,0.503999582744,0.18015400576492802,1307,0.0,99,P-GPS,
0.353887907260386,36.8971853338923,5500,2018-04-15 06:21:08,1771.4814775874188,1.9000000608000003,0.0,0.186386005964352,1771.4814775874188,1.9000000608000003,0.503999582744,0.186386005964352,1307,0.0,99,P-GPS,
0.353887954138862,36.8971854712136,5600,2018-04-15 06:21:08,1771.581477590619,2.000000064,0.0,0.197091006306912,1771.581477590619,2.000000064,0.503999582744,0.197091006306912,1320,0.0,99,P-GPS,
0.353887989128983,36.8971855770415,5700,2018-04-15 06:21:08,1771.681477593819,2.1000000672000003,0.0,0.20571200658278402,1771.681477593819,2.1000000672000003,0.503999582744,0.20571200658278402,1327,0.0,99,P-GPS,
0.353887991969499,36.8971856307393,5800,2018-04-15 06:21:08,1771.881477600219,2.3000000736,0.0,0.208771006680672,1771.881477600219,2.3000000736,0.503999582744,0.208771006680672,1331,0.0,99,P-GPS,
0.353888003264437,36.8971856747022,5900,2018-04-15 06:21:09,1771.981477603419,2.4000000768,0.0,0.21223600679155202,1771.981477603419,2.4000000768,0.503999582744,0.21223600679155202,1336,0.0,99,P-GPS,
0.35388803949813,36.8971856751338,6000,2018-04-15 06:21:09,1772.181477609819,2.6000000832000003,0.0,0.215777006904864,1772.181477609819,2.6000000832000003,0.503999582744,0.215777006904864,1363,0.0,99,P-GPS,
0.353888063253108,36.897185685567,6100,2018-04-15 06:21:09,1772.381477616219,2.8000000896,0.0,0.21865100699683201,1772.381477616219,2.8000000896,0.503999582744,0.21865100699683201,1379,0.0,99,P-GPS,
0.35388815225027,36.8971856753202,6300,2018-04-15 06:21:09,1772.6814776258188,3.1000000992000003,0.0,0.22684200725894402,1772.6814776258188,3.1000000992000003,0.503999582744,0.22684200725894402,1414,0.0,99,P-GPS,
0.353888180925743,36.8971856602501,6400,2018-04-15 06:21:09,1772.881477632219,3.3000001056,0.0,0.22892100732547202,1772.881477632219,3.3000001056,0.503999582744,0.22892100732547202,1445,0.0,99,P-GPS,
0.353888186584485,36.897185644219,6500,2018-04-15 06:21:09,1773.0814776386192,3.500000112,0.0,0.228691007318112,1773.0814776386192,3.500000112,0.503999582744,0.22892100732547202,1467,0.0,99,P-GPS,
0.353888195929616,36.8971856001639,6600,2018-04-15 06:21:09,1773.2814776450189,3.7000001184,0.0,0.227513007280416,1773.2814776450189,3.7000001184,0.503999582744,0.22892100732547202,1482,0.0,99,P-GPS,
0.353888197603147,36.8971855683864,6700,2018-04-15 06:21:09,1773.481477651419,3.9000001248,0.0,0.226213007238816,1773.481477651419,3.9000001248,0.503999582744,0.22892100732547202,1482,0.0,99,P-GPS,
0.353888189642702,36.8971855117835,6800,2018-04-15 06:21:09,1773.781477661019,4.200000134400001,0.0,0.22289600713267202,1773.781477661019,4.200000134400001,0.503999582744,0.22892100732547202,1500,0.0,99,P-GPS,
0.353888188638461,36.897185454508,6900,2018-04-15 06:21:09,1774.0814776706188,4.500000144,0.0,0.22040700705302402,1774.0814776706188,4.500000144,0.503999582744,0.22892100732547202,1519,0.0,99,P-GPS,
0.353888188753979,36.8971854144797,7000,2018-04-15 06:21:10,1774.281477677019,4.7000001504,0.0,0.21884500700304,1774.281477677019,4.7000001504,0.503999582744,0.22892100732547202,1537,0.0,99,P-GPS,
0.35388817683957,36.8971853748231,7100,2018-04-15 06:21:10,1774.681477689819,5.1000001632,0.0,0.21611300691561602,1774.681477689819,5.1000001632,0.503999582744,0.22892100732547202,1547,0.0,99,P-GPS,
0.353888191578413,36.8971853475574,7200,2018-04-15 06:21:10,1774.9814776994187,5.4000001728,0.0,0.216692006934144,1774.9814776994187,5.4000001728,0.503999582744,0.22892100732547202,1562,0.0,99,P-GPS,
0.353888186506421,36.8971853007926,7300,2018-04-15 06:21:10,1775.2814777090189,5.7000001824,0.0,0.21457900686652803,1775.2814777090189,5.7000001824,0.503999582744,0.22892100732547202,1584,0.0,99,P-GPS,
0.353888177690534,36.8971852856288,7400,2018-04-15 06:21:10,1775.581477718619,6.000000192000001,0.0,0.213152006820864,1775.581477718619,6.000000192000001,0.503999582744,0.22892100732547202,1596,0.0,99,P-GPS,
0.353888146916505,36.8971852592164,7500,2018-04-15 06:21:10,1775.9814777314189,6.4000002048,0.0,0.20904000668928,1775.9814777314189,6.4000002048,0.503999582744,0.22892100732547202,1611,0.0,99,P-GPS,
0.353888156821617,36.8971853115798,7600,2018-04-15 06:21:10,1776.381477744219,6.800000217600001,0.0,0.21178300677705603,1776.381477744219,6.800000217600001,0.503999582744,0.22892100732547202,1619,0.0,99,P-GPS,
0.353888128452901,36.8971853304313,7700,2018-04-15 06:21:10,1776.7814777570188,7.200000230400001,0.0,0.20943000670176,1776.7814777570188,7.200000230400001,0.503999582744,0.22892100732547202,1627,0.0,99,P-GPS,
0.35388807237957,36.8971852853059,7800,2018-04-15 06:21:10,1777.181477769819,7.600000243200001,0.0,0.20194900646236802,1777.181477769819,7.600000243200001,0.503999582744,0.22892100732547202,1644,0.0,99,P-GPS,
0.353887995275444,36.897185230051,7900,2018-04-15 06:21:10,1777.5814777826188,8.000000256,0.0,0.191946006142272,1777.5814777826188,8.000000256,0.503999582744,0.22892100732547202,1660,0.0,99,P-GPS,
0.353887921336097,36.8971851590566,8000,2018-04-15 06:21:11,1777.9814777954189,8.400000268800001,0.0,0.181884005820288,1777.9814777954189,8.400000268800001,0.503999582744,0.22892100732547202,1670,0.0,99,P-GPS,
0.353887832030396,36.8971850918683,8100,2018-04-15 06:21:11,1778.4814778114192,8.9000002848,0.0,0.170423005453536,1778.4814778114192,8.9000002848,0.503999582744,0.22892100732547202,1676,0.0,99,P-GPS,
0.353887775152307,36.8971850418154,8200,2018-04-15 06:21:11,1778.881477824219,9.3000002976,0.0,0.163027005216864,1778.881477824219,9.3000002976,0.503999582744,0.22892100732547202,1684,0.0,99,P-GPS,
0.353887722201619,36.8971849985205,8300,2018-04-15 06:21:11,1779.381477840219,9.8000003136,0.0,0.156304005001728,1779.381477840219,9.8000003136,0.503999582744,0.22892100732547202,1684,0.0,99,P-GPS,
0.353887660210318,36.897184948496,8400,2018-04-15 06:21:11,1779.881477856219,10.3000003296,0.0,0.148552004753664,1779.881477856219,10.3000003296,0.503999582744,0.22892100732547202,1684,0.0,99,P-GPS,
0.353887578278619,36.8971848825093,8500,2018-04-15 06:21:11,1780.3814778722192,10.8000003456,0.0,0.13851300443241601,1780.3814778722192,10.8000003456,0.503999582744,0.22892100732547202,1684,0.0,99,P-GPS,
0.353887464889071,36.8971847877473,8600,2018-04-15 06:21:11,1780.881477888219,11.3000003616,0.0,0.125078004002496,1780.881477888219,11.3000003616,0.503999582744,0.22892100732547202,1684,0.0,99,P-GPS,
0.353887363119018,36.8971847230067,8700,2018-04-15 06:21:11,1781.3814779042189,11.8000003776,0.0,0.11364100363651201,1781.3814779042189,11.8000003776,0.503999582744,0.22892100732547202,1684,0.0,99,P-GPS,
0.353887233662881,36.8971847124844,8800,2018-04-15 06:21:11,1781.781477917019,12.200000390400001,0.0,0.09927020317664641,1781.781477917019,12.200000390400001,0.503999582744,0.22892100732547202,1684,0.0,99,P-GPS,
0.353887119770893,36.8971846837067,8900,2018-04-15 06:21:11,1782.281477933019,12.700000406400001,0.0,0.0867674027765568,1782.281477933019,12.700000406400001,0.503999582744,0.22892100732547202,1684,0.0,99,P-GPS,
0.353887039353945,36.8971846795992,9000,2018-04-15 06:21:12,1782.781477949019,13.2000004224,0.0,0.0778831024922592,1782.781477949019,13.2000004224,0.503999582744,0.22892100732547202,1684,0.0,99,P-GPS,
0.353886931352779,36.8971846561744,9100,2018-04-15 06:21:12,1783.281477965019,13.7000004384,0.0,0.0662202021190464,1783.281477965019,13.7000004384,0.503999582744,0.22892100732547202,1684,0.0,99,P-GPS,
0.353886786190686,36.8971846257989,9200,2018-04-15 06:21:12,1783.7814779810187,14.2000004544,0.0,0.0509801016313632,1783.7814779810187,14.2000004544,0.503999582744,0.22892100732547202,1684,0.0,99,P-GPS,
0.353886629645871,36.8971845997534,9300,2018-04-15 06:21:12,1784.281477997019,14.7000004704,0.0,0.0354851011355232,1784.281477997019,14.7000004704,0.503999582744,0.22892100732547202,1684,0.0,99,P-GPS,
0.353886470836043,36.8971846135508,9400,2018-04-15 06:21:12,1784.7814780130188,15.200000486400002,0.0,0.0198558006353856,1784.7814780130188,15.200000486400002,0.503999582744,0.22892100732547202,1684,0.0,99,P-GPS,
0.353886328845802,36.8971846145546,9500,2018-04-15 06:21:12,1785.281478029019,15.700000502400002,0.0,0.013626400436044801,1785.281478029019,15.700000502400002,0.503999582744,0.22892100732547202,1684,0.0,99,P-GPS,
0.353886193322215,36.8971846439313,9600,2018-04-15 06:21:12,1785.781478045019,16.2000005184,0.0,0.0194093006210976,1785.781478045019,16.2000005184,0.503999582744,0.22892100732547202,1684,-0.2,99,P-GPS,
0.353886065366617,36.8971846684952,9700,2018-04-15 06:21:12,1786.281478061019,16.7000005344,0.0,0.0316041010113312,1786.281478061019,16.7000005344,0.503999582744,0.22892100732547202,1684,-1.0,99,P-GPS,
0.353885963819292,36.897184725053,9800,2018-04-15 06:21:12,1786.7814780770188,17.2000005504,0.0,0.0419991013439712,1786.7814780770188,17.2000005504,0.503999582744,0.22892100732547202,1684,-2.4,99,P-GPS,
0.353885867930606,36.8971847858979,9900,2018-04-15 06:21:12,1787.381478096219,17.8000005696,0.0,0.0529297016937504,1787.381478096219,17.8000005696,0.503999582744,0.22892100732547202,1684,-3.8,99,P-GPS,
0.353885805155719,36.8971848648729,10000,2018-04-15 06:21:13,1787.881478112219,18.3000005856,0.0,0.06131060196193921,1787.881478112219,18.3000005856,0.503999582744,0.22892100732547202,1684,-5.2,99,P-GPS,
0.353885747249573,36.897184952182,10100,2018-04-15 06:21:13,1788.3814781282188,18.8000006016,0.0,0.0702847022491104,1788.3814781282188,18.8000006016,0.503999582744,0.22892100732547202,1684,-6.6,99,P-GPS,
0.353885689122977,36.8971850513099,10200,2018-04-15 06:21:13,1788.881478144219,19.300000617600002,0.0,0.080537002577184,1788.881478144219,19.300000617600002,0.503999582744,0.22892100732547202,1684,-8.1,99,P-GPS,
0.353885624709875,36.8971851437023,10300,2018-04-15 06:21:13,1789.3814781602189,19.800000633600003,0.0,0.09166040293313281,1789.3814781602189,19.800000633600003,0.503999582744,0.22892100732547202,1684,-9.5,99,P-GPS,
0.3538855498787,36.8971852498631,10400,2018-04-15 06:21:13,1789.881478176219,20.3000006496,0.0,0.104909003357088,1789.881478176219,20.3000006496,0.503999582744,0.22892100732547202,1684,-10.8,99,P-GPS,
0.353885485442698,36.8971853412039,10500,2018-04-15 06:21:13,1790.381478192219,20.800000665600002,0.0,0.11654000372928001,1790.381478192219,20.800000665600002,0.503999582744,0.22892100732547202,1684,-12.1,99,P-GPS,
0.353885399816059,36.8971854021198,10600,2018-04-15 06:21:13,1790.881478208219,21.3000006816,0.0,0.128226004103232,1790.881478208219,21.3000006816,0.503999582744,0.22892100732547202,1684,-12.1,99,P-GPS,
0.353885328432606,36.8971854565602,10700,2018-04-15 06:21:13,1791.3814782242189,21.8000006976,0.0,0.138203004422496,1791.3814782242189,21.8000006976,0.503999582744,0.22892100732547202,1684,-13.4,99,P-GPS,
0.35388528892574,36.8971854888412,10800,2018-04-15 06:21:13,1791.8814782402192,22.300000713600003,0.0,0.143864004603648,1791.8814782402192,22.300000713600003,0.503999582744,0.22892100732547202,1684,-14.7,99,P-GPS,
0.353885263222991,36.897185528087,10900,2018-04-15 06:21:14,1792.481478259419,22.900000732800002,0.0,0.14874000475968,1792.481478259419,22.900000732800002,0.503999582744,0.22892100732547202,1684,-15.9,99,P-GPS,
0.353885238362147,36.8971856152604,11000,2018-04-15 06:21:14,1792.981478275419,23.4000007488,0.0,0.15682700501846403,1792.981478275419,23.4000007488,0.503999582744,0.22892100732547202,1684,-17.1,99,P-GPS,
0.353885210685317,36.8971857025394,11100,2018-04-15 06:21:14,1793.481478291419,23.9000007648,0.0,0.16538000529216,1793.481478291419,23.9000007648,0.503999582744,0.22892100732547202,1684,-18.3,99,P-GPS,
0.353885216113938,36.8971857833933,11200,2018-04-15 06:21:14,1793.981478307419,24.400000780800003,0.0,0.17091500546928,1793.981478307419,24.400000780800003,0.503999582744,0.22892100732547202,1684,-19.5,99,P-GPS,
0.35388524268017,36.8971858630163,11300,2018-04-15 06:21:14,1794.5814783266192,25.000000800000002,0.0,0.17499000559968,1794.5814783266192,25.000000800000002,0.503999582744,0.22892100732547202,1684,-20.4,99,P-GPS,
0.353885297563007,36.8971859603687,11400,2018-04-15 06:21:14,1795.081478342619,25.500000816000004,0.0,0.178877005724064,1795.081478342619,25.500000816000004,0.503999582744,0.22892100732547202,1684,-20.4,99,P-GPS,
0.353885343828323,36.8971860333282,11500,2018-04-15 06:21:14,1795.5814783586188,26.000000832,0.0,0.18194400582220802,1795.5814783586188,26.000000832,0.503999582744,0.22892100732547202,1684,-20.4,99,P-GPS,
0.353885382405957,36.8971861103117,11600,2018-04-15 06:21:14,1796.081478374619,26.500000848000003,0.0,0.186313005962016,1796.081478374619,26.500000848000003,0.503999582744,0.22892100732547202,1684,-20.3,99,P-GPS,
0.353885423560808,36.8971861734502,11700,2018-04-15 06:21:14,1796.681478393819,27.100000867200002,0.0,0.189611006067552,1796.681478393819,27.100000867200002,0.503999582744,0.22892100732547202,1684,-20.4,99,P-GPS,
0.353885487805163,36.897186301833,11800,2018-04-15 06:21:14,1797.1814784098187,27.600000883200003,0.0,0.198271006344672,1797.1814784098187,27.600000883200003,0.503999582744,0.22892100732547202,1684,-20.4,99,P-GPS,
0.353885586119416,36.8971865584114,12000,2018-04-15 06:21:15,1798.1814784418189,28.600000915200003,0.0,0.21932500701840002,1798.1814784418189,28.600000915200003,0.503999582744,0.22892100732547202,1684,-20.4,99,P-GPS,
0.35388562728933,36.8971866729814,12100,2018-04-15 06:21:15,1798.781478461019,29.200000934400002,0.0,0.229522007344704,1798.781478461019,29.200000934400002,0.503999582744,0.229522007344704,1684,-20.4,99,P-GPS,
0.353885711721709,36.8971868300529,12200,2018-04-15 06:21:15,1799.281478477019,29.700000950400003,0.0,0.243116007779712,1799.281478477019,29.700000950400003,0.503999582744,0.243116007779712,1684,-20.4,99,P-GPS,
0.353885788664466,36.897186940664,12300,2018-04-15 06:21:15,1799.781478493019,30.2000009664,0.0,0.25270400808652804,1799.781478493019,30.2000009664,0.503999582744,0.25270400808652804,1684,-20.4,99,P-GPS,
0.35388585520625,36.8971870440659,12400,2018-04-15 06:21:15,1800.281478509019,30.700000982400002,0.0,0.262248008391936,1800.281478509019,30.700000982400002,0.503999582744,0.262248008391936,1684,-20.4,99,P-GPS,
0.353885915332677,36.8971871195099,12500,2018-04-15 06:21:15,1800.781478525019,31.2000009984,0.0,0.26920600861459204,1800.781478525019,31.2000009984,0.503999582744,0.26920600861459204,1684,-20.4,99,P-GPS,
0.353886001531714,36.8971872127262,12600,2018-04-15 06:21:15,1801.281478541019,31.7000010144,0.0,0.27795200889446403,1801.281478541019,31.7000010144,0.503999582744,0.27795200889446403,1684,-20.4,99,P-GPS,
0.353886072680061,36.8971872825186,12700,2018-04-15 06:21:15,1801.881478560219,32.3000010336,0.0,0.284704009110528,1801.881478560219,32.3000010336,0.503999582744,0.284704009110528,1684,-20.4,99,P-GPS,
0.353886168214254,36.8971873460613,12800,2018-04-15 06:21:15,1802.381478576219,32.800001049600006,0.0,0.290836009306752,1802.381478576219,32.800001049600006,0.503999582744,0.290836009306752,1684,-20.4,99,P-GPS,
0.353886240515336,36.8971873922064,12900,2018-04-15 06:21:15,1802.8814785922189,33.3000010656,0.0,0.29554300945737605,1802.8814785922189,33.3000010656,0.503999582744,0.29554300945737605,1684,-20.4,99,P-GPS,
0.353886287350199,36.897187477821,13000,2018-04-15 06:21:16,1803.3814786082191,33.8000010816,0.0,0.30491000975712,1803.3814786082191,33.8000010816,0.503999582744,0.30491000975712,1684,-20.4,99,P-GPS,
0.353886314255453,36.8971875434682,13100,2018-04-15 06:21:16,1803.981478627419,34.4000011008,0.0,0.31216600998931204,1803.981478627419,34.4000011008,0.503999582744,0.31216600998931204,1684,-20.4,99,P-GPS,
0.353886340055705,36.8971876144641,13200,2018-04-15 06:21:16,1804.481478643419,34.900001116800006,0.0,0.320046010241472,1804.481478643419,34.900001116800006,0.503999582744,0.320046010241472,1684,-20.4,99,P-GPS,
0.353886354024294,36.8971876626899,13300,2018-04-15 06:21:16,1804.981478659419,35.4000011328,0.0,0.325412010413184,1804.981478659419,35.4000011328,0.503999582744,0.325412010413184,1684,-20.4,99,P-GPS,
0.353886384068425,36.8971876714916,13400,2018-04-15 06:21:16,1805.4814786754189,35.9000011488,0.0,0.326422010445504,1805.4814786754189,35.9000011488,0.503999582744,0.326422010445504,1684,-20.4,99,P-GPS,
0.353886401939529,36.8971876719433,13500,2018-04-15 06:21:16,1805.981478691419,36.4000011648,0.0,0.326508010448256,1805.981478691419,36.4000011648,0.503999582744,0.326508010448256,1684,-20.4,99,P-GPS,
0.353886444108951,36.8971877249961,13600,2018-04-15 06:21:16,1806.481478707419,36.900001180800004,0.0,0.332534010641088,1806.481478707419,36.900001180800004,0.503999582744,0.332534010641088,1684,-20.4,99,P-GPS,
0.353886468510065,36.8971877633778,13700,2018-04-15 06:21:16,1807.0814787266188,37.5000012,0.0,0.336903010780896,1807.0814787266188,37.5000012,0.503999582744,0.336903010780896,1684,-20.5,99,P-GPS,
0.353886559408791,36.897187825997,13800,2018-04-15 06:21:16,1807.481478739419,37.9000012128,0.0,0.344424011021568,1807.481478739419,37.9000012128,0.503999582744,0.344424011021568,1684,-20.6,99,P-GPS,
0.353886622929964,36.8971878668384,13900,2018-04-15 06:21:17,1807.981478755419,38.4000012288,0.0,0.34951701118454404,1807.981478755419,38.4000012288,0.503999582744,0.34951701118454404,1684,-20.7,99,P-GPS,
0.353886709717073,36.8971879361639,14000,2018-04-15 06:21:17,1808.481478771419,38.9000012448,0.0,0.358171011461472,1808.481478771419,38.9000012448,0.503999582744,0.358171011461472,1684,-20.9,99,P-GPS,
0.353886752793589,36.8971879720088,14100,2018-04-15 06:21:17,1809.081478790619,39.500001264,0.0,0.36270501160656005,1809.081478790619,39.500001264,0.503999582744,0.36270501160656005,1684,-21.2,99,P-GPS,
0.35388682961859,36.89718802612,14200,2018-04-15 06:21:17,1809.581478806619,40.00000128,0.0,0.369832011834624,1809.581478806619,40.00000128,0.503999582744,0.369832011834624,1684,-21.4,99,P-GPS,
0.353886863831715,36.8971880672116,14300,2018-04-15 06:21:17,1810.081478822619,40.500001296,0.0,0.37492401199756803,1810.081478822619,40.500001296,0.503999582744,0.37492401199756803,1684,-21.7,99,P-GPS,
0.353886921710457,36.8971881258046,14400,2018-04-15 06:21:17,1810.5814788386188,41.000001312,0.0,0.382396012236672,1810.5814788386188,41.000001312,0.503999582744,0.382396012236672,1684,-22.0,99,P-GPS,
0.353886957680367,36.8971881594144,14500,2018-04-15 06:21:17,1811.181478857819,41.600001331200005,0.0,0.38676901237660805,1811.181478857819,41.600001331200005,0.503999582744,0.38676901237660805,1684,-22.2,99,P-GPS,
0.353887007312491,36.8971881706819,14600,2018-04-15 06:21:17,1811.6814788738188,42.100001347200006,0.0,0.38901501244848,1811.6814788738188,42.100001347200006,0.503999582744,0.38901501244848,1684,-22.5,99,P-GPS,
0.353887050804896,36.8971881614148,14700,2018-04-15 06:21:17,1812.1814788898191,42.6000013632,0.0,0.38895601244659206,1812.1814788898191,42.6000013632,0.503999582744,0.38901501244848,1684,-22.7,99,P-GPS,
0.353887184851433,36.8971881850694,14800,2018-04-15 06:21:17,1812.681478905819,43.1000013792,0.0,0.394806012633792,1812.681478905819,43.1000013792,0.503999582744,0.394806012633792,1684,-23.0,99,P-GPS,
0.353887288221885,36.8971881918251,14900,2018-04-15 06:21:17,1813.181478921819,43.6000013952,0.0,0.398419012749408,1813.181478921819,43.6000013952,0.503999582744,0.398419012749408,1684,-23.0,99,P-GPS,
0.353887381189327,36.8971882012408,15000,2018-04-15 06:21:18,1813.681478937819,44.100001411200004,0.0,0.402278012872896,1813.681478937819,44.100001411200004,0.503999582744,0.402278012872896,1684,-23.3,99,P-GPS,
0.353887424868966,36.8971881960746,15100,2018-04-15 06:21:18,1814.181478953819,44.600001427200006,0.0,0.403152012900864,1814.181478953819,44.600001427200006,0.503999582744,0.403152012900864,1684,-23.5,99,P-GPS,
0.353887450568585,36.897188238789,15200,2018-04-15 06:21:18,1814.681478969819,45.1000014432,0.0,0.40854201307334403,1814.681478969819,45.1000014432,0.503999582744,0.40854201307334403,1684,-23.7,99,P-GPS,
0.353887449695918,36.8971882712669,15300,2018-04-15 06:21:18,1815.1814789858188,45.6000014592,0.0,0.411957013182624,1815.1814789858188,45.6000014592,0.503999582744,0.411957013182624,1684,-24.0,99,P-GPS,
0.353887471596734,36.8971883141178,15400,2018-04-15 06:21:18,1815.781479005019,46.2000014784,0.0,0.417234013351488,1815.781479005019,46.2000014784,0.503999582744,0.417234013351488,1684,-24.2,99,P-GPS,
0.353887475695451,36.89718834072,15500,2018-04-15 06:21:18,1816.2814790210189,46.7000014944,0.0,0.420192013446144,1816.2814790210189,46.7000014944,0.503999582744,0.420192013446144,1684,-24.3,99,P-GPS,
0.353887485532601,36.8971883661007,15600,2018-04-15 06:21:18,1816.681479033819,47.100001507200005,0.0,0.42321301354281604,1816.681479033819,47.100001507200005,0.503999582744,0.42321301354281604,1684,-24.5,99,P-GPS,
0.353887486010651,36.897188379349,15700,2018-04-15 06:21:18,1817.181479049819,47.6000015232,0.0,0.42463401358828806,1817.181479049819,47.6000015232,0.503999582744,0.42463401358828806,1684,-24.5,99,P-GPS,
0.353887538784475,36.8971883771021,15800,2018-04-15 06:21:18,1817.681479065819,48.1000015392,0.0,0.426193013638176,1817.681479065819,48.1000015392,0.503999582744,0.426193013638176,1684,-24.5,99,P-GPS,
0.353887585241871,36.897188363479,15900,2018-04-15 06:21:19,1818.181479081819,48.6000015552,0.0,0.426402013644864,1818.181479081819,48.6000015552,0.503999582744,0.426402013644864,1684,-24.5,99,P-GPS,
0.353887641744526,36.8971883423508,16000,2018-04-15 06:21:19,1818.681479097819,49.1000015712,0.0,0.426271013640672,1818.681479097819,49.1000015712,0.503999582744,0.426402013644864,1684,-24.5,99,P-GPS,
0.353887665142061,36.8971883136556,16100,2018-04-15 06:21:19,1819.181479113819,49.600001587200005,0.0,0.424166013573312,1819.181479113819,49.600001587200005,0.503999582744,0.426402013644864,1684,-24.5,99,P-GPS,
0.353887657171794,36.8971883025101,16200,2018-04-15 06:21:19,1819.6814791298189,50.1000016032,0.0,0.422697013526304,1819.6814791298189,50.1000016032,0.503999582744,0.426402013644864,1684,-24.5,99,P-GPS,
0.353887627941555,36.8971883018373,16300,2018-04-15 06:21:19,1820.1814791458191,50.6000016192,0.0,0.42151201348838396,1820.1814791458191,50.6000016192,0.503999582744,0.426402013644864,1684,-24.5,99,P-GPS,
0.353887640596168,36.8971883652067,16400,2018-04-15 06:21:19,1820.781479165019,51.2000016384,0.0,0.428619013715808,1820.781479165019,51.2000016384,0.503999582744,0.428619013715808,1684,-24.5,99,P-GPS,
0.353887651527607,36.8971884123189,16500,2018-04-15 06:21:19,1821.2814791810188,51.700001654400005,0.0,0.433962013886784,1821.2814791810188,51.700001654400005,0.503999582744,0.433962013886784,1684,-24.5,99,P-GPS,
0.353887686293004,36.8971884647099,16600,2018-04-15 06:21:19,1821.781479197019,52.200001670400006,0.0,0.440751014104032,1821.781479197019,52.200001670400006,0.503999582744,0.440751014104032,1684,-24.5,99,P-GPS,
0.353887705717491,36.8971885030206,16700,2018-04-15 06:21:19,1822.2814792130189,52.70000168640001,0.0,0.445492014255744,1822.2814792130189,52.70000168640001,0.503999582744,0.445492014255744,1684,-24.5,99,P-GPS,
0.353887728070582,36.8971885197937,16800,2018-04-15 06:21:19,1822.781479229019,53.2000017024,0.0,0.44809601433907204,1822.781479229019,53.2000017024,0.503999582744,0.44809601433907204,1684,-24.5,99,P-GPS,
0.353887729270898,36.8971885223631,16900,2018-04-15 06:21:20,1823.281479245019,53.7000017184,0.0,0.44841001434912003,1823.281479245019,53.7000017184,0.503999582744,0.44841001434912003,1684,-24.5,99,P-GPS,
0.353887697727072,36.8971885577517,17100,2018-04-15 06:21:20,1824.281479277019,54.700001750400006,0.0,0.450921014429472,1824.281479277019,54.700001750400006,0.503999582744,0.450921014429472,1684,-24.5,99,P-GPS,
0.353887681888521,36.8971886010694,17200,2018-04-15 06:21:20,1824.7814792930192,55.20000176640001,0.0,0.454883014556256,1824.7814792930192,55.20000176640001,0.503999582744,0.454883014556256,1684,-24.5,99,P-GPS,
0.353887661498163,36.8971886262038,17300,2018-04-15 06:21:20,1825.281479309019,55.7000017824,0.0,0.45679101461731203,1825.281479309019,55.7000017824,0.503999582744,0.45679101461731203,1684,-24.5,99,P-GPS,
0.353887668023491,36.8971886449301,17400,2018-04-15 06:21:20,1825.7814793250188,56.2000017984,0.0,0.458996014687872,1825.7814793250188,56.2000017984,0.503999582744,0.458996014687872,1684,-24.5,99,P-GPS,
0.353887665374368,36.8971886527573,17500,2018-04-15 06:21:20,1826.281479341019,56.700001814400004,0.0,0.45972601471123203,1826.281479341019,56.700001814400004,0.503999582744,0.45972601471123203,1684,-24.5,99,P-GPS,
0.353887717487324,36.8971886633862,17600,2018-04-15 06:21:20,1826.881479360219,57.3000018336,0.0,0.46273001480736003,1826.881479360219,57.3000018336,0.503999582744,0.46273001480736003,1684,-24.5,99,P-GPS,
0.353887741162101,36.8971886713736,17700,2018-04-15 06:21:20,1827.381479376219,57.8000018496,0.0,0.46444501486224005,1827.381479376219,57.8000018496,0.503999582744,0.46444501486224005,1684,-24.5,99,P-GPS,
0.353887766367717,36.8971887232095,17800,2018-04-15 06:21:20,1827.881479392219,58.30000186560001,0.0,0.47081601506611204,1827.881479392219,58.30000186560001,0.503999582744,0.47081601506611204,1684,-24.5,99,P-GPS,
0.353887777664589,36.8971887671345,17900,2018-04-15 06:21:21,1828.381479408219,58.8000018816,0.0,0.475838015226816,1828.381479408219,58.8000018816,0.503999582744,0.475838015226816,1684,-24.5,99,P-GPS,
0.35388779637363,36.897188842118,18000,2018-04-15 06:21:21,1828.881479424219,59.3000018976,0.0,0.48439201550054406,1828.881479424219,59.3000018976,0.503999582744,0.48439201550054406,1684,-24.5,99,P-GPS,
0.353887792760113,36.8971888961396,18100,2018-04-15 06:21:21,1829.381479440219,59.800001913600006,0.0,0.48992601567763205,1829.381479440219,59.800001913600006,0.503999582744,0.48992601567763205,1684,-24.5,99,P-GPS,
0.353887796315209,36.8971889685973,18200,2018-04-15 06:21:21,1829.881479456219,60.30000192960001,0.0,0.4976690159254081,1829.881479456219,60.30000192960001,0.503999582744,0.4976690159254081,1684,-24.5,99,P-GPS,
0.353887796869796,36.8971890228592,18300,2018-04-15 06:21:21,1830.3814794722189,60.80000194560001,0.0,0.503399016108768,1830.3814794722189,60.80000194560001,0.503999582744,0.503399016108768,1684,-24.5,99,P-GPS,
0.353887817029882,36.8971890954218,18400,2018-04-15 06:21:21,1830.781479485019,61.2000019584,0.0,0.511761016376352,1830.781479485019,61.2000019584,0.503999582744,0.511761016376352,1684,-24.5,99,P-GPS,
0.353887828619009,36.8971891557117,18500,2018-04-15 06:21:21,1831.281479501019,61.7000019744,0.0,0.5185250165928,1831.281479501019,61.7000019744,0.503999582744,0.5185250165928,1684,-24.5,99,P-GPS,
0.353887850226222,36.8971892313877,18600,2018-04-15 06:21:21,1831.781479517019,62.200001990400004,0.0,0.5272680168725761,1831.781479517019,62.200001990400004,0.503999582744,0.5272680168725761,1684,-24.5,99,P-GPS,
0.353887865907629,36.8971892968105,18700,2018-04-15 06:21:21,1832.281479533019,62.7000020064,0.0,0.53472001711104,1832.281479533019,62.7000020064,0.503999582744,0.53472001711104,1684,-24.5,99,P-GPS,
0.353887882071055,36.89718940447,18800,2018-04-15 06:21:21,1832.7814795490187,63.2000020224,0.0,0.5466490174927681,1832.7814795490187,63.2000020224,0.503999582744,0.5466490174927681,1684,-24.5,99,P-GPS,
0.353887886180688,36.8971894878144,18900,2018-04-15 06:21:21,1833.381479568219,63.8000020416,0.0,0.555599017779168,1833.381479568219,63.8000020416,0.503999582744,0.555599017779168,1684,-24.5,99,P-GPS,
0.35388792121035,36.8971895998191,19000,2018-04-15 06:21:22,1833.8814795842188,64.3000020576,0.0,0.568648018196736,1833.8814795842188,64.3000020576,0.503999582744,0.568648018196736,1684,-24.5,99,P-GPS,
0.353887943874983,36.8971896855788,19100,2018-04-15 06:21:22,1834.381479600219,64.8000020736,0.0,0.578497018511904,1834.381479600219,64.8000020736,0.503999582744,0.578497018511904,1684,-24.5,99,P-GPS,
0.353887960130569,36.8971897616969,19200,2018-04-15 06:21:22,1834.881479616219,65.3000020896,0.0,0.587108018787456,1834.881479616219,65.3000020896,0.503999582744,0.587108018787456,1684,-24.5,99,P-GPS,
0.353887962384539,36.8971898173182,19300,2018-04-15 06:21:22,1835.381479632219,65.8000021056,0.0,0.5930740189783681,1835.381479632219,65.8000021056,0.503999582744,0.5930740189783681,1684,-24.5,99,P-GPS,
0.353887997548395,36.8971899028147,19400,2018-04-15 06:21:22,1835.881479648219,66.3000021216,0.0,0.603321019306272,1835.881479648219,66.3000021216,0.503999582744,0.603321019306272,1684,-24.5,99,P-GPS,
0.353888015452017,36.8971899703273,19500,2018-04-15 06:21:22,1836.3814796642191,66.8000021376,0.0,0.611078019554496,1836.3814796642191,66.8000021376,0.503999582744,0.611078019554496,1684,-24.5,98,P-GPS,
0.353888076318878,36.8971900440115,19600,2018-04-15 06:21:22,1836.881479680219,67.3000021536,0.0,0.620958019870656,1836.881479680219,67.3000021536,0.503999582744,0.620958019870656,1684,-24.5,98,P-GPS,
0.353888129304374,36.8971901106494,19700,2018-04-15 06:21:22,1837.3814796962188,67.8000021696,0.0,0.629841020154912,1837.3814796962188,67.8000021696,0.503999582744,0.629841020154912,1684,-24.5,98,P-GPS,
0.35388818559093,36.8971901834463,19800,2018-04-15 06:21:22,1837.881479712219,68.3000021856,0.0,0.639507020464224,1837.881479712219,68.3000021856,0.503999582744,0.639507020464224,1684,-24.5,98,P-GPS,
0.353888230535476,36.8971902357267,19900,2018-04-15 06:21:23,1838.4814797314189,68.9000022048,0.0,0.646623020691936,1838.4814797314189,68.9000022048,0.503999582744,0.646623020691936,1684,-24.5,98,P-GPS,
0.353888298324342,36.8971903157367,20000,2018-04-15 06:21:23,1838.9814797474191,69.4000022208,0.0,0.657501021040032,1838.9814797474191,69.4000022208,0.503999582744,0.657501021040032,1684,-24.5,98,P-GPS,
0.353888348680818,36.8971903797488,20100,2018-04-15 06:21:23,1839.481479763419,69.9000022368,0.0,0.6660780213144961,1839.481479763419,69.9000022368,0.503999582744,0.6660780213144961,1684,-24.5,98,P-GPS,
0.353888413390704,36.8971904485855,20200,2018-04-15 06:21:23,1839.881479776219,70.30000224960001,0.0,0.67571502162288,1839.881479776219,70.30000224960001,0.503999582744,0.67571502162288,1684,-24.5,98,P-GPS,
0.353888460306379,36.8971905088944,20300,2018-04-15 06:21:23,1840.381479792219,70.8000022656,0.0,0.683804021881728,1840.381479792219,70.8000022656,0.503999582744,0.683804021881728,1684,-24.5,98,P-GPS,
0.353888511684805,36.8971906206743,20400,2018-04-15 06:21:23,1840.8814798082192,71.3000022816,0.0,0.697443022318176,1840.8814798082192,71.3000022816,0.503999582744,0.697443022318176,1684,-24.5,98,P-GPS,
0.353888543501954,36.8971907149543,20500,2018-04-15 06:21:23,1841.381479824219,71.8000022976,0.0,0.7085040226721281,1841.381479824219,71.8000022976,0.503999582744,0.7085040226721281,1684,-24.5,98,P-GPS,
0.35388858641695,36.8971908460115,20600,2018-04-15 06:21:23,1841.8814798402188,72.3000023136,0.0,0.7238290231625281,1841.8814798402188,72.3000023136,0.503999582744,0.7238290231625281,1684,-24.5,98,P-GPS,
0.353888619608913,36.8971909480345,20700,2018-04-15 06:21:23,1842.3814798562191,72.8000023296,0.0,0.735752023544064,1842.3814798562191,72.8000023296,0.503999582744,0.735752023544064,1684,-24.5,98,P-GPS,
0.353888644154755,36.8971910667771,20800,2018-04-15 06:21:23,1842.881479872219,73.3000023456,0.0,0.749091023970912,1842.881479872219,73.3000023456,0.503999582744,0.749091023970912,1684,-24.5,98,P-GPS,
0.353888662668026,36.8971911573191,20900,2018-04-15 06:21:23,1843.381479888219,73.80000236160001,0.0,0.759258024296256,1843.381479888219,73.80000236160001,0.503999582744,0.759258024296256,1684,-24.5,98,P-GPS,
0.353888699154535,36.8971912185407,21000,2018-04-15 06:21:24,1843.8814799042188,74.30000237760001,0.0,0.767042024545344,1843.8814799042188,74.30000237760001,0.503999582744,0.767042024545344,1684,-24.5,98,P-GPS,
0.353888712277656,36.8971912579365,21100,2018-04-15 06:21:24,1844.3814799202191,74.80000239360001,0.0,0.771658024693056,1844.3814799202191,74.80000239360001,0.503999582744,0.771658024693056,1684,-24.5,98,P-GPS,
0.353888734125675,36.8971913143944,21200,2018-04-15 06:21:24,1844.881479936219,75.3000024096,0.0,0.778389024908448,1844.881479936219,75.3000024096,0.503999582744,0.778389024908448,1684,-24.5,98,P-GPS,
0.353888736739633,36.897191345779,21300,2018-04-15 06:21:24,1845.3814799522188,75.8000024256,0.0,0.781768025016576,1845.3814799522188,75.8000024256,0.503999582744,0.781768025016576,1684,-24.5,98,P-GPS,
0.353888763534356,36.8971914190656,21400,2018-04-15 06:21:24,1845.881479968219,76.3000024416,0.0,0.790446025294272,1845.881479968219,76.3000024416,0.503999582744,0.790446025294272,1684,-24.5,98,P-GPS,
0.353888767293008,36.8971914646624,21500,2018-04-15 06:21:24,1846.381479984219,76.8000024576,0.0,0.7953560254513921,1846.381479984219,76.8000024576,0.503999582744,0.7953560254513921,1684,-24.5,98,P-GPS,
0.353888773948764,36.8971915666448,21600,2018-04-15 06:21:24,1846.881480000219,77.3000024736,0.0,0.806282025801024,1846.881480000219,77.3000024736,0.503999582744,0.806282025801024,1684,-24.5,98,P-GPS,
0.353888772786666,36.8971916468228,21700,2018-04-15 06:21:24,1847.381480016219,77.8000024896,0.0,0.8146440260686081,1847.381480016219,77.8000024896,0.503999582744,0.8146440260686081,1684,-24.5,98,P-GPS,
0.353888747615501,36.8971917541282,21800,2018-04-15 06:21:24,1847.881480032219,78.3000025056,0.0,0.824997026399904,1847.881480032219,78.3000025056,0.503999582744,0.824997026399904,1684,-24.5,98,P-GPS,
0.353888720948611,36.8971918365305,21900,2018-04-15 06:21:25,1848.381480048219,78.8000025216,0.0,0.832724026647168,1848.381480048219,78.8000025216,0.503999582744,0.832724026647168,1684,-24.5,98,P-GPS,
0.353888704802996,36.8971919191683,22000,2018-04-15 06:21:25,1848.8814800642192,79.30000253760001,0.0,0.840879026908128,1848.8814800642192,79.30000253760001,0.503999582744,0.840879026908128,1684,-24.5,98,P-GPS,
0.3538886745919,36.8971919778793,22100,2018-04-15 06:21:25,1849.381480080219,79.80000255360001,0.0,0.8460470270735041,1849.381480080219,79.80000255360001,0.503999582744,0.8460470270735041,1684,-24.5,98,P-GPS,
0.35388865453405,36.8971920794907,22200,2018-04-15 06:21:25,1849.8814800962189,80.30000256960001,0.0,0.8561360273963521,1849.8814800962189,80.30000256960001,0.503999582744,0.8561360273963521,1684,-24.5,98,P-GPS,
0.353888628886464,36.8971921591527,22300,2018-04-15 06:21:25,1850.381480112219,80.80000258560001,0.0,0.8637450276398401,1850.381480112219,80.80000258560001,0.503999582744,0.8637450276398401,1684,-24.5,98,P-GPS,
0.353888630835711,36.8971922720285,22400,2018-04-15 06:21:25,1850.881480128219,81.3000026016,0.0,0.875812028025984,1850.881480128219,81.3000026016,0.503999582744,0.875812028025984,1684,-24.5,98,P-GPS,
0.353888628843615,36.8971923517055,22500,2018-04-15 06:21:25,1851.381480144219,81.8000026176,0.0,0.8842290282953281,1851.381480144219,81.8000026176,0.503999582744,0.8842290282953281,1684,-24.5,98,P-GPS,
0.353888609990203,36.8971924223066,22600,2018-04-15 06:21:25,1851.8814801602189,82.3000026336,0.0,0.8911550285169599,1851.8814801602189,82.3000026336,0.503999582744,0.8911550285169599,1684,-24.5,98,P-GPS,
0.353888579149204,36.8971924665752,22700,2018-04-15 06:21:25,1852.3814801762192,82.8000026496,0.0,0.8949180286373761,1852.3814801762192,82.8000026496,0.503999582744,0.8949180286373761,1684,-24.5,98,P-GPS,
0.353888564856453,36.8971925062301,22800,2018-04-15 06:21:25,1852.881480192219,83.3000026656,0.0,0.898716028758912,1852.881480192219,83.3000026656,0.503999582744,0.898716028758912,1684,-24.5,98,P-GPS,
0.353888541706188,36.8971925301205,22900,2018-04-15 06:21:25,1853.3814802082188,83.8000026816,0.0,0.900568028818176,1853.3814802082188,83.8000026816,0.503999582744,0.900568028818176,1684,-24.5,98,P-GPS,
0.353888503697185,36.8971926075985,23000,2018-04-15 06:21:26,1853.881480224219,84.30000269760001,0.0,0.9077340290474881,1853.881480224219,84.30000269760001,0.503999582744,0.9077340290474881,1684,-24.5,98,P-GPS,
0.353888464435604,36.8971926604073,23100,2018-04-15 06:21:26,1854.381480240219,84.80000271360001,0.0,0.9122580291922561,1854.381480240219,84.80000271360001,0.503999582744,0.9122580291922561,1684,-24.5,98,P-GPS,
0.353888420204114,36.897192730169,23200,2018-04-15 06:21:26,1854.881480256219,85.30000272960001,0.0,0.918503029392096,1854.881480256219,85.30000272960001,0.503999582744,0.918503029392096,1684,-24.5,98,P-GPS,
0.35388839033041,36.8971927846228,23300,2018-04-15 06:21:26,1855.3814802722188,85.80000274560001,0.0,0.92354002955328,1855.3814802722188,85.80000274560001,0.503999582744,0.92354002955328,1684,-24.5,98,P-GPS,
0.35388840436831,36.8971929102841,23400,2018-04-15 06:21:26,1855.881480288219,86.3000027616,0.0,0.937469029999008,1855.881480288219,86.3000027616,0.503999582744,0.937469029999008,1684,-24.5,98,P-GPS,
0.353888420334796,36.8971929996956,23500,2018-04-15 06:21:26,1856.381480304219,86.8000027776,0.0,0.9475440303214081,1856.381480304219,86.8000027776,0.503999582744,0.9475440303214081,1684,-24.5,98,P-GPS,
0.3538884109344,36.8971930787324,23600,2018-04-15 06:21:26,1856.8814803202188,87.3000027936,0.0,0.955818030586176,1856.8814803202188,87.3000027936,0.503999582744,0.955818030586176,1684,-24.5,98,P-GPS,
0.353888390884183,36.8971931598976,23800,2018-04-15 06:21:26,1857.881480352219,88.3000028256,0.35999970196000003,0.964051030849632,1857.881480352219,88.3000028256,0.503999582744,0.964051030849632,1684,-24.5,98,P-GPS,
0.353888372915423,36.8971931748474,23900,2018-04-15 06:21:26,1858.381480368219,88.8000028416,0.35999970196000003,0.965197030886304,1858.381480368219,88.8000028416,0.503999582744,0.965197030886304,1684,-24.5,98,P-GPS,
0.353888357505458,36.8971932109977,24000,2018-04-15 06:21:27,1858.881480384219,89.3000028576,0.0,0.968708030998656,1858.881480384219,89.3000028576,0.503999582744,0.968708030998656,1684,-24.5,98,P-GPS,
0.353888359541623,36.8971932331687,24100,2018-04-15 06:21:27,1859.381480400219,89.80000287360001,0.0,0.971159031077088,1859.381480400219,89.80000287360001,0.503999582744,0.971159031077088,1684,-24.5,98,P-GPS,
0.353888381160337,36.8971933175799,24200,2018-04-15 06:21:27,1859.881480416219,90.30000288960001,0.0,0.980847031387104,1859.881480416219,90.30000288960001,0.503999582744,0.980847031387104,1684,-24.5,98,P-GPS,
0.353888397829904,36.8971933790509,24300,2018-04-15 06:21:27,1860.3814804322192,90.8000029056,0.0,0.9879260316136321,1860.3814804322192,90.8000029056,0.503999582744,0.9879260316136321,1684,-24.5,98,P-GPS,
0.353888421211713,36.8971934887812,24400,2018-04-15 06:21:27,1860.881480448219,91.3000029216,0.0,1.0004000320128,1860.881480448219,91.3000029216,0.503999582744,1.0004000320128,1684,-24.5,98,P-GPS,
0.35388843673221,36.8971935593368,24500,2018-04-15 06:21:27,1861.3814804642188,91.8000029376,0.0,1.00843003226976,1861.3814804642188,91.8000029376,0.503999582744,1.00843003226976,1684,-24.5,98,P-GPS,
0.353888440962398,36.8971936785729,24600,2018-04-15 06:21:27,1861.881480480219,92.3000029536,0.0,1.02144003268608,1861.881480480219,92.3000029536,0.503999582744,1.02144003268608,1684,-24.5,98,P-GPS,
0.353888449889528,36.8971937603692,24700,2018-04-15 06:21:27,1862.381480496219,92.8000029696,0.0,1.03053003297696,1862.381480496219,92.8000029696,0.503999582744,1.03053003297696,1684,-24.5,98,P-GPS,
0.353888493680321,36.8971938392792,24800,2018-04-15 06:21:27,1862.881480512219,93.3000029856,0.0,1.04018003328576,1862.881480512219,93.3000029856,0.503999582744,1.04018003328576,1684,-24.5,98,P-GPS,
0.353888535625578,36.8971938884827,24900,2018-04-15 06:21:28,1863.3814805282188,93.8000030016,0.0,1.04659003349088,1863.3814805282188,93.8000030016,0.503999582744,1.04659003349088,1684,-24.5,98,P-GPS,
0.353888560651098,36.8971939400255,25000,2018-04-15 06:21:28,1863.8814805442191,94.3000030176,0.0,1.05281003368992,1863.8814805442191,94.3000030176,0.503999582744,1.05281003368992,1684,-24.5,98,P-GPS,
0.353888570794574,36.8971939663419,25100,2018-04-15 06:21:28,1864.381480560219,94.8000030336,0.0,1.05592003378944,1864.381480560219,94.8000030336,0.503999582744,1.05592003378944,1684,-24.5,98,P-GPS,
0.35388859638435,36.8971940128427,25200,2018-04-15 06:21:28,1864.8814805762188,95.30000304960001,0.0,1.06162003397184,1864.8814805762188,95.30000304960001,0.503999582744,1.06162003397184,1684,-24.5,98,P-GPS,
0.353888616645349,36.897194034821,25300,2018-04-15 06:21:28,1865.381480592219,95.8000030656,0.0,1.0645200340646401,1865.381480592219,95.8000030656,0.503999582744,1.0645200340646401,1684,-24.5,98,P-GPS,
0.353888664024723,36.8971941186225,25400,2018-04-15 06:21:28,1865.881480608219,96.3000030816,0.0,1.07483003439456,1865.881480608219,96.3000030816,0.503999582744,1.07483003439456,1684,-24.5,98,P-GPS,
0.353888702651008,36.8971941564419,25500,2018-04-15 06:21:28,1866.381480624219,96.8000030976,0.35999970196000003,1.0799500345584,1866.381480624219,96.8000030976,0.503999582744,1.0799500345584,1684,-24.5,98,P-GPS,
0.353888724815454,36.8971942133843,25600,2018-04-15 06:21:28,1866.881480640219,97.3000031136,0.35999970196000003,1.08669003477408,1866.881480640219,97.3000031136,0.503999582744,1.08669003477408,1684,-24.5,98,P-GPS,
0.353888733750726,36.8971942409987,25700,2018-04-15 06:21:28,1867.381480656219,97.8000031296,0.0,1.08991003487712,1867.381480656219,97.8000031296,0.503999582744,1.08991003487712,1684,-24.5,98,P-GPS,
0.353888754776686,36.897194289758,25800,2018-04-15 06:21:28,1867.881480672219,98.3000031456,0.0,1.09574003506368,1867.881480672219,98.3000031456,0.503999582744,1.09574003506368,1684,-24.5,98,P-GPS,
0.353888756492964,36.8971943451999,25900,2018-04-15 06:21:28,1868.3814806882187,98.8000031616,0.0,1.10177003525664,1868.3814806882187,98.8000031616,0.503999582744,1.10177003525664,1684,-24.5,98,P-GPS,
0.353888779254235,36.8971944470116,26000,2018-04-15 06:21:29,1868.881480704219,99.3000031776,0.0,1.11337003562784,1868.881480704219,99.3000031776,0.503999582744,1.11337003562784,1684,-24.5,98,P-GPS,
0.353888781267704,36.8971944997594,26100,2018-04-15 06:21:29,1869.3814807202189,99.8000031936,0.0,1.11911003581152,1869.3814807202189,99.8000031936,0.503999582744,1.11911003581152,1684,-24.5,98,P-GPS,
0.353888781148827,36.8971945815203,26200,2018-04-15 06:21:29,1869.881480736219,100.30000320959999,0.0,1.12793003609376,1869.881480736219,100.30000320959999,0.503999582744,1.12793003609376,1684,-24.5,98,P-GPS,
0.353888766541685,36.8971946281577,26300,2018-04-15 06:21:29,1870.381480752219,100.8000032256,0.0,1.13258003624256,1870.381480752219,100.8000032256,0.503999582744,1.13258003624256,1684,-24.5,98,P-GPS,
0.353888773540839,36.8971947330269,26400,2018-04-15 06:21:29,1870.881480768219,101.3000032416,0.0,1.1440900366108802,1870.881480768219,101.3000032416,0.503999582744,1.1440900366108802,1684,-24.5,98,P-GPS,
0.353888778907172,36.8971948045728,26500,2018-04-15 06:21:29,1871.3814807842189,101.8000032576,0.0,1.15196003686272,1871.3814807842189,101.8000032576,0.503999582744,1.15196003686272,1684,-24.5,98,P-GPS,
0.353888801364738,36.8971948544315,26600,2018-04-15 06:21:29,1871.8814808002192,102.3000032736,0.0,1.15794003705408,1871.8814808002192,102.3000032736,0.503999582744,1.15794003705408,1684,-24.5,98,P-GPS,
0.353888812939922,36.8971948713513,26700,2018-04-15 06:21:29,1872.381480816219,102.8000032896,0.0,1.16007003712224,1872.381480816219,102.8000032896,0.503999582744,1.16007003712224,1684,-24.5,98,P-GPS,
0.35388882970343,36.8971949359136,26800,2018-04-15 06:21:29,1872.8814808322188,103.30000330560001,0.0,1.1674900373596802,1872.8814808322188,103.30000330560001,0.503999582744,1.1674900373596802,1684,-24.5,98,P-GPS,
0.353888836164994,36.8971949599913,26900,2018-04-15 06:21:30,1873.381480848219,103.80000332160002,0.0,1.17026003744832,1873.381480848219,103.80000332160002,0.503999582744,1.17026003744832,1684,-24.5,98,P-GPS,
0.353888845001847,36.8971949705474,27000,2018-04-15 06:21:30,1873.881480864219,104.30000333760002,0.0,1.17163003749216,1873.881480864219,104.30000333760002,0.503999582744,1.17163003749216,1684,-24.5,98,P-GPS,
0.353888842494959,36.897194967751,27100,2018-04-15 06:21:30,1874.481480883419,104.90000335680001,0.0,1.17127003748064,1874.481480883419,104.90000335680001,0.503999582744,1.17163003749216,1684,-24.5,98,P-GPS,
0.353888835929887,36.897195013867,27200,2018-04-15 06:21:30,1874.981480899419,105.40000337280001,0.0,1.1760800376345601,1874.981480899419,105.40000337280001,0.503999582744,1.1760800376345601,1684,-24.5,98,P-GPS,
0.35388881531287,36.8971950282451,27300,2018-04-15 06:21:30,1875.481480915419,105.90000338880002,0.0,1.17709003766688,1875.481480915419,105.90000338880002,0.503999582744,1.17709003766688,1684,-24.5,98,P-GPS,
0.353888799183539,36.897195087477,27400,2018-04-15 06:21:30,1875.981480931419,106.4000034048,0.0,1.18308003785856,1875.981480931419,106.4000034048,0.503999582744,1.18308003785856,1684,-24.5,98,P-GPS,
0.353888781209894,36.897195121477,27500,2018-04-15 06:21:30,1876.4814809474192,106.9000034208,0.0,1.1863000379616,1876.4814809474192,106.9000034208,0.503999582744,1.1863000379616,1684,-24.5,98,P-GPS,
0.353888753527262,36.8971951968909,27600,2018-04-15 06:21:30,1876.981480963419,107.4000034368,0.0,1.19377003820064,1876.981480963419,107.4000034368,0.503999582744,1.19377003820064,1684,-24.5,98,P-GPS,
0.353888726205839,36.8971952295023,27700,2018-04-15 06:21:30,1877.4814809794188,107.90000345280001,0.0,1.19663003829216,1877.4814809794188,107.90000345280001,0.503999582744,1.19663003829216,1684,-24.5,98,P-GPS,
0.353888710557816,36.8971952906409,27800,2018-04-15 06:21:30,1877.9814809954191,108.40000346880001,0.0,1.20288003849216,1877.9814809954191,108.40000346880001,0.503999582744,1.20288003849216,1684,-24.5,98,P-GPS,
0.353888688754375,36.8971953094278,27900,2018-04-15 06:21:30,1878.481481011419,108.90000348480001,0.35999970196000003,1.20439003854048,1878.481481011419,108.90000348480001,0.503999582744,1.20439003854048,1684,-24.5,98,P-GPS,
0.353888642501782,36.8971953605648,28000,2018-04-15 06:21:31,1878.981481027419,109.40000350080001,0.35999970196000003,1.2088400386828801,1878.981481027419,109.40000350080001,0.503999582744,1.2088400386828801,1684,-24.5,98,P-GPS,
0.353888601698879,36.8971953886263,28100,2018-04-15 06:21:31,1879.4814810434189,109.90000351680001,0.0,1.21094003875008,1879.4814810434189,109.90000351680001,0.503999582744,1.21094003875008,1684,-24.5,98,P-GPS,
0.35388859399125,36.8971954262577,28200,2018-04-15 06:21:31,1879.9814810594191,110.40000353280001,0.0,1.21486003887552,1879.9814810594191,110.40000353280001,0.503999582744,1.21486003887552,1684,-24.5,98,P-GPS,
0.353888588465329,36.8971954339361,28300,2018-04-15 06:21:31,1880.481481075419,110.9000035488,0.35999970196000003,1.21557003889824,1880.481481075419,110.9000035488,0.503999582744,1.21557003889824,1684,-24.5,98,P-GPS,
0.353888605944131,36.8971954737066,28400,2018-04-15 06:21:31,1880.881481088219,111.30000356160001,0.35999970196000003,1.2202900390492801,1880.881481088219,111.30000356160001,0.503999582744,1.2202900390492801,1684,-24.5,98,P-GPS,
0.353888613861524,36.8971954752161,28500,2018-04-15 06:21:31,1881.381481104219,111.80000357760001,0.35999970196000003,1.22064003906048,1881.381481104219,111.80000357760001,0.503999582744,1.22064003906048,1684,-24.5,98,P-GPS,
0.353888590255498,36.8971954824512,28600,2018-04-15 06:21:31,1881.881481120219,112.30000359360001,0.35999970196000003,1.22089003906848,1881.881481120219,112.30000359360001,0.503999582744,1.22089003906848,1684,-24.5,98,P-GPS,
0.353888566438995,36.8971954609943,28700,2018-04-15 06:21:31,1882.381481136219,112.80000360960001,0.35999970196000003,1.21801003897632,1882.381481136219,112.80000360960001,0.503999582744,1.22089003906848,1684,-24.5,98,P-GPS,
0.353888548707479,36.8971954538192,28800,2018-04-15 06:21:31,1882.8814811522188,113.30000362560001,0.35999970196000003,1.21683003893856,1882.8814811522188,113.30000362560001,0.503999582744,1.22089003906848,1684,-24.5,98,P-GPS,
0.353888529643184,36.8971954160485,28900,2018-04-15 06:21:32,1883.3814811682191,113.80000364160001,0.35999970196000003,1.21229003879328,1883.3814811682191,113.80000364160001,0.503999582744,1.22089003906848,1684,-24.5,98,P-GPS,
0.353888525521185,36.8971954072654,29000,2018-04-15 06:21:32,1883.881481184219,114.30000365760002,0.35999970196000003,1.2112400387596802,1883.881481184219,114.30000365760002,0.503999582744,1.22089003906848,1684,-24.5,98,P-GPS,
0.35388851540814,36.8971953722247,29100,2018-04-15 06:21:32,1884.381481200219,114.8000036736,0.35999970196000003,1.2072000386304,1884.381481200219,114.8000036736,0.503999582744,1.22089003906848,1684,-24.5,98,P-GPS,
0.353888515638463,36.8971953717354,29200,2018-04-15 06:21:32,1884.881481216219,115.3000036896,0.35999970196000003,1.2071500386288,1884.881481216219,115.3000036896,0.503999582744,1.22089003906848,1684,-24.5,98,P-GPS,
0.353888507512833,36.8971953405597,29300,2018-04-15 06:21:32,1885.4814812354189,115.9000037088,0.35999970196000003,1.20357003851424,1885.4814812354189,115.9000037088,0.503999582744,1.22089003906848,1684,-24.5,98,P-GPS,
0.353888507581533,36.8971953480731,29400,2018-04-15 06:21:32,1885.981481251419,116.4000037248,0.35999970196000003,1.20439003854048,1885.981481251419,116.4000037248,0.503999582744,1.22089003906848,1684,-24.5,98,P-GPS,
0.353888496238098,36.8971953224173,29500,2018-04-15 06:21:32,1886.3814812642188,116.80000373760001,0.35999970196000003,1.2013500384432,1886.3814812642188,116.80000373760001,0.503999582744,1.22089003906848,1684,-24.5,98,P-GPS,
0.353888463439302,36.8971953424407,29600,2018-04-15 06:21:32,1886.981481283419,117.4000037568,0.35999970196000003,1.20281003848992,1886.981481283419,117.4000037568,0.503999582744,1.22089003906848,1684,-24.5,98,P-GPS,
