latitude,longitude,time_millisecond,datetime_utc,altitude_m,ascent_m,speed_kph,distance_m,max_altitude_m,max_ascent_m,max_speed_kph,max_distance_m,rc_throttle,gimbal_pitch_degrees,battery_percent,flycState,message
0.08051374837988,36.8784515384398,0,2018-04-11 08:17:21,1808.9104582851219,0.0,0.0,0.0,1808.9104582851219,0.0,0.0,0.0,364,0.0,98,Motors_Started,
0.0805137382777259,36.8784515533322,100,2018-04-11 08:17:21,1808.9104582851219,0.0,0.0,0.0020012000640384003,1808.9104582851219,0.0,0.0,0.0020012000640384003,364,0.0,98,Motors_Started,
0.0805137271680739,36.8784515590789,200,2018-04-11 08:17:21,1808.9104582851219,0.0,0.0,0.00329123010531936,1808.9104582851219,0.0,0.0,0.00329123010531936,364,0.0,98,Motors_Started,
0.0805137197695439,36.8784515652057,300,2018-04-11 08:17:21,1808.9104582851219,0.0,0.0,0.0043569001394208,1808.9104582851219,0.0,0.0,0.0043569001394208,364,0.0,98,Motors_Started,
0.0805137128597507,36.8784515639412,400,2018-04-11 08:17:22,1808.9104582851219,0.0,0.0,0.0048626401556044795,1808.9104582851219,0.0,0.0,0.0048626401556044795,364,0.0,98,Motors_Started,
0.0805137077780894,36.878451565818,500,2018-04-11 08:17:22,1808.9104582851219,0.0,0.0,0.005445770174264641,1808.9104582851219,0.0,0.0,0.005445770174264641,364,0.0,98,Motors_Started,
0.0805137038702309,36.8784515922072,600,2018-04-11 08:17:22,1808.9104582851219,0.0,0.0,0.007762180248389761,1808.9104582851219,0.0,0.0,0.007762180248389761,364,0.0,98,Motors_Started,
0.080513700720922,36.8784516212467,700,2018-04-11 08:17:22,1808.9104582851219,0.0,0.0,0.0106249003399968,1808.9104582851219,0.0,0.0,0.0106249003399968,364,0.0,98,Motors_Started,Setting new Return-To-Home altitude to 30m (98 ft). Setting new Maximum Flight Altitude to 150m (492 ft)
0.080513699279342,36.8784516419422,800,2018-04-11 08:17:22,1808.9104582851219,0.0,0.0,0.0127396004076672,1808.9104582851219,0.0,0.0,0.0127396004076672,364,0.0,98,Motors_Started,
0.0805136981030965,36.8784516581882,900,2018-04-11 08:17:22,1808.9104582851219,0.0,0.0,0.014442800462169602,1808.9104582851219,0.0,0.0,0.014442800462169602,364,0.0,98,Motors_Started,
0.0805136994974517,36.8784516650877,1000,2018-04-11 08:17:22,1808.9104582851219,0.0,0.0,0.0150967004830944,1808.9104582851219,0.0,0.0,0.0150967004830944,364,0.0,98,Motors_Started,
0.0805136999345871,36.8784516726824,1100,2018-04-11 08:17:22,1808.9104582851219,0.0,0.0,0.0158709005078688,1808.9104582851219,0.0,0.0,0.0158709005078688,373,0.0,98,Motors_Started,
0.0805136975678473,36.8784516719401,1200,2018-04-11 08:17:23,1808.9104582851219,0.0,0.0,0.01588500050832,1808.9104582851219,0.0,0.0,0.01588500050832,429,0.0,98,Motors_Started,
0.0805137012021272,36.8784516957529,1400,2018-04-11 08:17:23,1808.9104582851219,0.0,0.0,0.0182639005844448,1808.9104582851219,0.0,0.0,0.0182639005844448,463,0.0,98,Motors_Started,
0.080513704485681,36.8784517231501,1500,2018-04-11 08:17:23,1808.9104582851219,0.0,0.0,0.021112900675612802,1808.9104582851219,0.0,0.0,0.021112900675612802,564,0.0,98,Assisted_Takeoff,
0.0805137022674349,36.8784517426788,1600,2018-04-11 08:17:23,1808.9104582851219,0.0,0.0,0.023284300745097603,1808.9104582851219,0.0,0.0,0.023284300745097603,615,0.0,98,Assisted_Takeoff,
0.0805137053876354,36.8784517577097,1700,2018-04-11 08:17:23,1808.9104582851219,0.0,0.0,0.0248484007951488,1808.9104582851219,0.0,0.0,0.0248484007951488,744,0.0,98,Assisted_Takeoff,
0.0805137043950988,36.8784517637426,1800,2018-04-11 08:17:23,1808.9104582851219,0.0,0.0,0.025528000816896,1808.9104582851219,0.0,0.0,0.025528000816896,852,0.0,98,Assisted_Takeoff,
0.0805137062814476,36.8784517704033,1900,2018-04-11 08:17:23,1808.9104582851219,0.0,0.0,0.026217100838947204,1808.9104582851219,0.0,0.0,0.026217100838947204,1024,0.0,98,Assisted_Takeoff,
0.0805137070280892,36.8784517675232,2000,2018-04-11 08:17:23,1808.9104582851219,0.0,0.0,0.025887200828390404,1808.9104582851219,0.0,0.0,0.026217100838947204,1024,0.0,98,Assisted_Takeoff,
0.0805137080467827,36.8784517677816,2100,2018-04-11 08:17:23,1808.9104582851219,0.0,0.0,0.0258956008286592,1808.9104582851219,0.0,0.0,0.026217100838947204,1024,0.0,98,Assisted_Takeoff,
0.0805137091917823,36.8784517602077,2200,2018-04-11 08:17:23,1808.9104582851219,0.0,0.0,0.025044000801408003,1808.9104582851219,0.0,0.0,0.026217100838947204,1024,0.0,98,Assisted_Takeoff,
0.080513709882039,36.8784517568929,2300,2018-04-11 08:17:23,1808.9104582851219,0.0,0.0,0.024667600789363205,1808.9104582851219,0.0,0.0,0.026217100838947204,1024,0.0,98,Assisted_Takeoff,
0.0805137110589969,36.878451782674,2400,2018-04-11 08:17:24,1808.9104582851219,0.0,0.0,0.0274756008792192,1808.9104582851219,0.0,0.0,0.0274756008792192,1024,0.0,98,Assisted_Takeoff,
0.0805137124455152,36.8784518085708,2500,2018-04-11 08:17:24,1808.9104582851219,0.0,0.0,0.030304800969753604,1808.9104582851219,0.0,0.0,0.030304800969753604,1024,0.0,98,Assisted_Takeoff,
0.0805137138832277,36.8784518268758,2600,2018-04-11 08:17:24,1808.9104582851219,0.0,0.0,0.0323044010337408,1808.9104582851219,0.0,0.0,0.0323044010337408,1024,0.0,98,Assisted_Takeoff,
0.0805137155833233,36.8784518426659,2700,2018-04-11 08:17:24,1808.9104582851219,0.0,0.0,0.0340278010888896,1808.9104582851219,0.0,0.0,0.0340278010888896,1024,0.0,98,Assisted_Takeoff,
0.0805137167510194,36.8784518512195,2800,2018-04-11 08:17:24,1808.9104582851219,0.0,0.0,0.0349604011187328,1808.9104582851219,0.0,0.0,0.0349604011187328,1024,0.0,98,Assisted_Takeoff,
0.0805137176397427,36.8784518600833,2900,2018-04-11 08:17:24,1808.9104582851219,0.0,0.0,0.0359317011498144,1808.9104582851219,0.0,0.0,0.0359317011498144,1024,0.0,98,Assisted_Takeoff,
0.0805137170802704,36.8784518608117,3000,2018-04-11 08:17:24,1808.9104582851219,0.0,0.0,0.0360183011525856,1808.9104582851219,0.0,0.0,0.0360183011525856,1024,0.0,98,Assisted_Takeoff,
0.0805137169786962,36.8784518639771,3100,2018-04-11 08:17:24,1808.9104582851219,0.0,0.0,0.036369701163830405,1808.9104582851219,0.0,0.0,0.036369701163830405,1024,0.0,98,Assisted_Takeoff,
0.0805137163685386,36.8784518612297,3200,2018-04-11 08:17:24,1808.9104582851219,0.0,0.0,0.036072301154313605,1808.9104582851219,0.0,0.0,0.036369701163830405,1024,0.0,98,Assisted_Takeoff,
0.0805137159944036,36.8784518597729,3300,2018-04-11 08:17:25,1808.9104582851219,0.0,0.0,0.0359152011492864,1808.9104582851219,0.0,0.0,0.036369701163830405,1024,0.0,98,Assisted_Takeoff,
0.0805137150104163,36.8784518519202,3400,2018-04-11 08:17:25,1808.9104582851219,0.0,0.0,0.0350578011218496,1808.9104582851219,0.0,0.0,0.036369701163830405,1024,0.0,98,Assisted_Takeoff,
0.0805137148840083,36.8784518509078,3500,2018-04-11 08:17:25,1808.9104582851219,0.0,0.0,0.034947401118316804,1808.9104582851219,0.0,0.0,0.036369701163830405,1024,0.0,98,Assisted_Takeoff,
0.0805137146572475,36.8784518456424,3600,2018-04-11 08:17:25,1808.9104582851219,0.0,0.0,0.034368001099776,1808.9104582851219,0.0,0.0,0.036369701163830405,1024,0.0,98,Assisted_Takeoff,
0.0805137145697186,36.878451844518,3700,2018-04-11 08:17:25,1808.9104582851219,0.0,0.0,0.0342448010958336,1808.9104582851219,0.0,0.0,0.036369701163830405,1024,0.0,98,Assisted_Takeoff,
0.080513714382244,36.8784518397885,3800,2018-04-11 08:17:25,1808.9104582851219,0.0,0.0,0.0337244010791808,1808.9104582851219,0.0,0.0,0.036369701163830405,1024,0.0,98,Assisted_Takeoff,
0.0805137148450275,36.8784518388033,3900,2018-04-11 08:17:25,1808.9104582851219,0.0,0.0,0.033609801075513604,1808.9104582851219,0.0,0.0,0.036369701163830405,1024,0.0,98,Assisted_Takeoff,
0.0805137152674051,36.8784518354939,4000,2018-04-11 08:17:25,1808.9104582851219,0.0,0.0,0.033238801063641604,1808.9104582851219,0.0,0.0,0.036369701163830405,1024,0.0,98,Assisted_Takeoff,
0.0805137166114821,36.8784518351235,4100,2018-04-11 08:17:25,1808.9104582851219,0.0,0.0,0.0331816010618112,1808.9104582851219,0.0,0.0,0.036369701163830405,1024,0.0,98,Assisted_Takeoff,
0.0805137173788863,36.8784518326155,4200,2018-04-11 08:17:25,1808.9104582851219,0.0,0.0,0.0328953010526496,1808.9104582851219,0.0,0.0,0.036369701163830405,1024,0.0,98,Assisted_Takeoff,
0.0805137184499954,36.8784518323723,4300,2018-04-11 08:17:25,1808.9104582851219,0.0,0.0,0.032856101051395206,1808.9104582851219,0.0,0.0,0.036369701163830405,1024,0.0,98,Assisted_Takeoff,
0.0805137188831615,36.8784518585169,4400,2018-04-11 08:17:26,1808.9104582851219,0.0,0.0,0.035745301143849606,1808.9104582851219,0.0,0.0,0.036369701163830405,1024,0.0,98,Assisted_Takeoff,
0.0805137197935634,36.8784518880738,4500,2018-04-11 08:17:26,1808.9104582851219,0.0,0.0,0.039011101248355204,1808.9104582851219,0.0,0.0,0.039011101248355204,1024,0.0,98,Assisted_Takeoff,
0.0805137198466914,36.8784519148295,4600,2018-04-11 08:17:26,1808.9104582851219,0.0,0.0,0.0419769013432608,1808.9104582851219,0.0,0.0,0.0419769013432608,1024,0.0,98,Assisted_Takeoff,
0.0805137208668098,36.8784519332893,4700,2018-04-11 08:17:26,1808.9104582851219,0.0,0.0,0.0440161014085152,1808.9104582851219,0.0,0.0,0.0440161014085152,1024,0.0,98,Assisted_Takeoff,
0.0805136915390423,36.8784519448421,4800,2018-04-11 08:17:26,1808.9104582851219,0.0,0.0,0.0456343014602976,1808.9104582851219,0.0,0.0,0.0456343014602976,1024,0.0,98,Assisted_Takeoff,
0.0805136627223009,36.8784519547143,4900,2018-04-11 08:17:26,1808.9104582851219,0.0,0.0,0.0472621015123872,1808.9104582851219,0.0,0.0,0.0472621015123872,1024,0.0,98,Assisted_Takeoff,
0.0805136327299247,36.8784519569197,5000,2018-04-11 08:17:26,1808.9104582851219,0.0,0.0,0.0482819015450208,1808.9104582851219,0.0,0.0,0.0482819015450208,1024,0.0,98,Assisted_Takeoff,
0.0805136147801972,36.8784519618249,5100,2018-04-11 08:17:26,1808.9104582851219,0.0,0.0,0.0493714015798848,1808.9104582851219,0.0,0.0,0.0493714015798848,1024,0.0,98,Assisted_Takeoff,
0.08051360208383,36.8784519606612,5200,2018-04-11 08:17:26,1808.9104582851219,0.0,0.0,0.049692201590150406,1808.9104582851219,0.0,0.0,0.049692201590150406,1024,0.0,98,Assisted_Takeoff,
0.0805135914910054,36.8784519610347,5300,2018-04-11 08:17:26,1808.9104582851219,0.0,0.0,0.05012920160413441,1808.9104582851219,0.0,0.0,0.05012920160413441,1024,0.0,98,Assisted_Takeoff,
0.0805136146382172,36.8784519551749,5400,2018-04-11 08:17:27,1808.9104582851219,0.0,0.0,0.048671501557488006,1808.9104582851219,0.0,0.0,0.05012920160413441,1024,0.0,98,Assisted_Takeoff,
0.0805136390327154,36.8784519534169,5500,2018-04-11 08:17:27,1808.9104582851219,0.0,0.0,0.047723201527142406,1808.9104582851219,0.0,0.0,0.05012920160413441,1024,0.0,98,Assisted_Takeoff,
0.0805136361605473,36.8784519468264,5600,2018-04-11 08:17:27,1808.9104582851219,0.0,0.0,0.0470984015071488,1808.9104582851219,0.0,0.0,0.05012920160413441,1024,0.0,98,Assisted_Takeoff,
0.0805136240215151,36.8784519445133,5700,2018-04-11 08:17:27,1808.9104582851219,0.0,0.0,0.0472279015112928,1808.9104582851219,0.0,0.0,0.05012920160413441,1024,0.0,98,Assisted_Takeoff,
0.0805136139350347,36.8784519388306,5800,2018-04-11 08:17:27,1808.9104582851219,0.0,0.0,0.046969001503008,1808.9104582851219,0.0,0.0,0.05012920160413441,1024,0.0,98,Assisted_Takeoff,
0.0805136075751467,36.878451937472,5900,2018-04-11 08:17:27,1808.9104582851219,0.0,0.0,0.047056401505804805,1808.9104582851219,0.0,0.0,0.05012920160413441,1024,0.0,98,Assisted_Takeoff,
0.0805136039944019,36.8784519338595,6000,2018-04-11 08:17:27,1808.9104582851219,0.0,0.0,0.0468128014980096,1808.9104582851219,0.0,0.0,0.05012920160413441,1024,0.0,98,Assisted_Takeoff,
0.0805136016800777,36.8784519337605,6100,2018-04-11 08:17:27,1808.9104582851219,0.0,0.0,0.04689140150052481,1808.9104582851219,0.0,0.0,0.05012920160413441,1024,0.0,98,Assisted_Takeoff,
0.0805136010059019,36.878451931823,6200,2018-04-11 08:17:27,1808.9104582851219,0.0,0.0,0.0467157014949024,1808.9104582851219,0.0,0.0,0.05012920160413441,1024,0.0,98,Assisted_Takeoff,
0.080513600158195,36.8784519325404,6300,2018-04-11 08:17:27,1808.9104582851219,0.0,0.0,0.046823501498352,1808.9104582851219,0.0,0.0,0.05012920160413441,1024,0.0,98,Assisted_Takeoff,
0.0805136010601494,36.8784519308484,6400,2018-04-11 08:17:28,1808.9104582851219,0.0,0.0,0.0466121014915872,1808.9104582851219,0.0,0.0,0.05012920160413441,1024,0.0,98,Assisted_Takeoff,
0.0805136017327985,36.8784519315375,6500,2018-04-11 08:17:28,1808.9104582851219,0.0,0.0,0.046657701493046405,1808.9104582851219,0.0,0.0,0.05012920160413441,1024,0.0,98,Assisted_Takeoff,
0.0805136043730151,36.8784519304456,6600,2018-04-11 08:17:28,1808.9104582851219,0.0,0.0,0.046441901486140795,1808.9104582851219,0.0,0.0,0.05012920160413441,1024,0.0,98,Assisted_Takeoff,
0.080513606787794,36.8784519320813,6700,2018-04-11 08:17:28,1808.9104582851219,0.0,0.0,0.0465211014886752,1808.9104582851219,0.0,0.0,0.05012920160413441,1024,0.0,98,Assisted_Takeoff,
0.0805135790455203,36.8784519318403,6800,2018-04-11 08:17:28,1808.9104582851219,0.0,0.0,0.0476292015241344,1808.9104582851219,0.0,0.0,0.05012920160413441,1024,0.0,98,Assisted_Takeoff,
0.0805135521552282,36.8784519341721,6900,2018-04-11 08:17:28,1808.9104582851219,0.0,0.0,0.049120901571868804,1808.9104582851219,0.0,0.0,0.05012920160413441,1024,0.0,98,Assisted_Takeoff,
0.0805135584791886,36.8784519339919,7000,2018-04-11 08:17:28,1808.9104582851219,0.0,0.0,0.0487944015614208,1808.9104582851219,0.0,0.0,0.05012920160413441,1024,0.0,98,Assisted_Takeoff,
0.0805135721116058,36.878451936016,7100,2018-04-11 08:17:28,1808.9104582851219,0.0,0.0,0.048363401547628804,1808.9104582851219,0.0,0.0,0.05012920160413441,1034,0.0,98,Assisted_Takeoff,
0.0805135870351755,36.8784519350848,7200,2018-04-11 08:17:28,1808.9104582851219,0.0,0.0,0.0476189015238048,1808.9104582851219,0.0,0.0,0.05012920160413441,1024,0.0,98,Assisted_Takeoff,
0.0805135983413604,36.8784519356782,7300,2018-04-11 08:17:28,1808.9104582851219,0.0,0.0,0.04722130151108161,1808.9104582851219,0.0,0.0,0.05012920160413441,1024,0.0,98,Assisted_Takeoff,
0.0805136096245435,36.8784519334314,7400,2018-04-11 08:17:29,1808.9104582851219,0.0,0.0,0.04655690148982081,1808.9104582851219,0.0,0.0,0.05012920160413441,1024,0.0,98,Assisted_Takeoff,
0.0805136177521075,36.8784519340797,7500,2018-04-11 08:17:29,1808.9104582851219,0.0,0.0,0.04633360148267521,1808.9104582851219,0.0,0.0,0.05012920160413441,1024,0.0,98,Assisted_Takeoff,
0.0805136240741342,36.8784519318482,7600,2018-04-11 08:17:29,1808.9104582851219,0.0,0.0,0.0458813014682016,1808.9104582851219,0.0,0.0,0.05012920160413441,1024,0.0,98,Assisted_Takeoff,
0.0805136292599141,36.8784519336996,7700,2018-04-11 08:17:29,1808.9104582851219,0.0,0.0,0.045908001469056,1808.9104582851219,0.0,0.0,0.05012920160413441,1242,0.0,98,Assisted_Takeoff,
0.0805136314846739,36.8784519334292,7800,2018-04-11 08:17:29,1808.9104582851219,0.0,0.0,0.0458084014658688,1808.9104582851219,0.0,0.0,0.05012920160413441,1242,0.0,98,Assisted_Takeoff,
0.0805136343554171,36.8784519348161,7900,2018-04-11 08:17:29,1808.9104582851219,0.0,0.0,0.045867001467744,1808.9104582851219,0.0,0.0,0.05012920160413441,1616,0.0,98,Assisted_Takeoff,
0.0805136352142178,36.878451964999,8000,2018-04-11 08:17:29,1808.9104582851219,0.0,0.0,0.0490769015704608,1808.9104582851219,0.0,0.0,0.05012920160413441,1616,0.0,98,Assisted_Takeoff,
0.0805136394477651,36.878451996383,8100,2018-04-11 08:17:29,1808.9104582851219,0.0,0.0,0.052347001675104005,1808.9104582851219,0.0,0.0,0.052347001675104005,1684,0.0,98,Assisted_Takeoff,
0.0805136399025081,36.8784520208825,8200,2018-04-11 08:17:29,1808.9104582851219,0.0,0.0,0.05499000175968,1808.9104582851219,0.0,0.0,0.05499000175968,1684,0.0,98,Assisted_Takeoff,
0.0805136422809523,36.8784520357105,8300,2018-04-11 08:17:30,1808.9104582851219,0.0,0.0,0.056544201809414406,1808.9104582851219,0.0,0.0,0.056544201809414406,1684,0.0,98,Assisted_Takeoff,
0.0805136490538544,36.8784520248053,8400,2018-04-11 08:17:30,1808.9104582851219,0.0,0.0,0.0552031017664992,1808.9104582851219,0.0,0.0,0.056544201809414406,1684,0.0,98,Assisted_Takeoff,
0.0805136967804947,36.8784519716775,8500,2018-04-11 08:17:30,1808.9104582851219,0.0,0.0,0.0485191015526112,1808.9104582851219,0.0,0.0,0.056544201809414406,1684,0.0,98,P-GPS,
0.0805137813303247,36.8784518529717,8600,2018-04-11 08:17:30,1808.9104582851219,0.0,0.503999582744,0.035169201125414405,1808.9104582851219,0.0,0.503999582744,0.056544201809414406,1684,0.0,98,P-GPS,
0.0805138733137981,36.8784517353628,8700,2018-04-11 08:17:30,1809.0104582883218,0.1000000032,0.35999970196000003,0.0259344008299008,1809.0104582883218,0.1000000032,0.503999582744,0.056544201809414406,1684,0.0,98,P-GPS,
0.0805139536496223,36.8784516412078,8800,2018-04-11 08:17:30,1809.1104582915218,0.2000000064,0.35999970196000003,0.025528300816905602,1809.1104582915218,0.2000000064,0.503999582744,0.056544201809414406,1684,0.0,98,P-GPS,Home Point Recorded. RTH Altitude:  30m.
0.0805140272065394,36.8784515687658,8900,2018-04-11 08:17:30,1809.310458297922,0.4000000128,0.0,0.031190100998083205,1809.310458297922,0.4000000128,0.503999582744,0.056544201809414406,1684,0.0,98,P-GPS,
0.0805141010667542,36.8784515603423,9000,2018-04-11 08:17:30,1809.5104583043221,0.6000000192,0.0,0.039296501257488,1809.5104583043221,0.6000000192,0.503999582744,0.056544201809414406,1684,0.0,98,P-GPS,
0.0805141785855738,36.8784515719254,9100,2018-04-11 08:17:30,1809.8104583139218,0.9000000288000001,0.0,0.0479862015355584,1809.8104583139218,0.9000000288000001,0.503999582744,0.056544201809414406,1684,0.0,98,P-GPS,
0.0805142641610183,36.8784516030495,9200,2018-04-11 08:17:30,1810.110458323522,1.2000000384,0.0,0.0578063018498016,1810.110458323522,1.2000000384,0.503999582744,0.0578063018498016,1684,0.0,98,P-GPS,
0.0805143373336226,36.878451627402,9300,2018-04-11 08:17:30,1810.410458333122,1.5000000480000002,0.0,0.0662382021196224,1810.410458333122,1.5000000480000002,0.503999582744,0.0662382021196224,1684,0.0,98,P-GPS,
0.0805143757415429,36.8784515862858,9400,2018-04-11 08:17:31,1810.9104583491219,2.000000064,0.0,0.06996900223900801,1810.9104583491219,2.000000064,0.503999582744,0.06996900223900801,1684,0.0,98,P-GPS,
0.0805144031747685,36.8784515389623,9500,2018-04-11 08:17:31,1811.310458361922,2.4000000768,0.0,0.0728172023301504,1811.310458361922,2.4000000768,0.503999582744,0.0728172023301504,1684,0.0,98,P-GPS,
0.0805144657196384,36.8784515137651,9600,2018-04-11 08:17:31,1811.810458377922,2.9000000928,0.0,0.0798197025542304,1811.810458377922,2.9000000928,0.503999582744,0.0798197025542304,1684,0.0,98,P-GPS,
0.0805145135950777,36.8784515266239,9700,2018-04-11 08:17:31,1812.310458393922,3.4000001088000005,0.0,0.0851067027234144,1812.310458393922,3.4000001088000005,0.503999582744,0.0851067027234144,1684,0.0,98,P-GPS,
0.0805144979190142,36.8784515210532,9800,2018-04-11 08:17:31,1812.810458409922,3.9000001248,0.0,0.08337570266802241,1812.810458409922,3.9000001248,0.503999582744,0.0851067027234144,1684,0.0,98,P-GPS,
0.080514447215782,36.8784515474919,9900,2018-04-11 08:17:31,1813.410458429122,4.500000144,0.0,0.0777213024870816,1813.410458429122,4.500000144,0.503999582744,0.0851067027234144,1684,0.0,98,P-GPS,
0.0805143344277661,36.8784515656419,10000,2018-04-11 08:17:31,1813.910458445122,5.00000016,0.0,0.06524230208775361,1813.910458445122,5.00000016,0.503999582744,0.0851067027234144,1684,0.0,98,P-GPS,
0.0805142264078851,36.8784516007555,10100,2018-04-11 08:17:31,1814.4104584611218,5.5000001759999995,0.0,0.053609401715500805,1814.4104584611218,5.5000001759999995,0.503999582744,0.0851067027234144,1684,0.0,98,P-GPS,
0.0805141843510798,36.8784516008475,10200,2018-04-11 08:17:31,1814.9104584771221,6.000000192000001,0.0,0.0489769015672608,1814.9104584771221,6.000000192000001,0.503999582744,0.0851067027234144,1684,0.0,98,P-GPS,
0.0805141652219517,36.8784516377619,10300,2018-04-11 08:17:31,1815.410458493122,6.500000208,0.0,0.047653101524899204,1815.410458493122,6.500000208,0.503999582744,0.0851067027234144,1684,0.0,98,P-GPS,
0.0805142192903635,36.8784516753212,10400,2018-04-11 08:17:32,1815.9104585091218,7.000000224,0.0,0.0545356017451392,1815.9104585091218,7.000000224,0.503999582744,0.0851067027234144,1684,0.0,98,P-GPS,
0.0805142510931623,36.8784517372238,10500,2018-04-11 08:17:32,1816.410458525122,7.50000024,0.0,0.0601167019237344,1816.410458525122,7.50000024,0.503999582744,0.0851067027234144,1684,0.0,98,P-GPS,
0.0805142670959832,36.8784518544792,10600,2018-04-11 08:17:32,1816.910458541122,8.000000256,0.0,0.0675477021615264,1816.910458541122,8.000000256,0.503999582744,0.0851067027234144,1684,0.0,98,P-GPS,
0.0805142896370068,36.8784521443002,10800,2018-04-11 08:17:32,1817.9104585731218,9.000000288,0.0,0.090346002891072,1817.9104585731218,9.000000288,0.503999582744,0.090346002891072,1684,0.0,98,P-GPS,
0.0805143152214905,36.8784523016857,10900,2018-04-11 08:17:32,1818.410458589122,9.500000304,0.0,0.10572500338320001,1818.410458589122,9.500000304,0.503999582744,0.10572500338320001,1684,0.0,98,P-GPS,
0.0805143479391695,36.8784524512537,11000,2018-04-11 08:17:32,1818.910458605122,10.00000032,0.0,0.121449003886368,1818.910458605122,10.00000032,0.503999582744,0.121449003886368,1684,0.0,98,P-GPS,
0.0805143641076337,36.8784525858794,11100,2018-04-11 08:17:32,1819.4104586211217,10.500000336,0.0,0.135116004323712,1819.4104586211217,10.500000336,0.503999582744,0.135116004323712,1684,0.0,98,P-GPS,
0.080514316114692,36.8784527377563,11200,2018-04-11 08:17:32,1819.910458637122,11.000000351999999,0.0,0.14756000472192002,1819.910458637122,11.000000351999999,0.503999582744,0.14756000472192002,1684,0.0,98,P-GPS,
0.080514274169944,36.8784528889887,11300,2018-04-11 08:17:33,1820.4104586531219,11.500000368000002,0.0,0.16117000515743998,1820.4104586531219,11.500000368000002,0.503999582744,0.16117000515743998,1684,0.0,98,P-GPS,
0.0805142578309511,36.8784532162851,11500,2018-04-11 08:17:33,1821.410458685122,12.500000400000001,0.0,0.194998006239936,1821.410458685122,12.500000400000001,0.503999582744,0.194998006239936,1684,-3.4,98,P-GPS,
0.080514235238428,36.8784533850686,11600,2018-04-11 08:17:33,1821.910458701122,13.000000416,0.0,0.21237300679593601,1821.910458701122,13.000000416,0.503999582744,0.21237300679593601,1684,-8.9,98,P-GPS,
0.0805142170727281,36.8784535482003,11700,2018-04-11 08:17:33,1822.4104587171219,13.500000432,0.0,0.22949500734383999,1822.4104587171219,13.500000432,0.503999582744,0.22949500734383999,1684,-14.6,98,P-GPS,
0.0805141542521423,36.8784537042055,11800,2018-04-11 08:17:33,1822.9104587331221,14.000000448,0.0,0.24503900784124802,1822.9104587331221,14.000000448,0.503999582744,0.24503900784124802,1684,-20.2,98,P-GPS,
0.0805141025004974,36.8784538272915,11900,2018-04-11 08:17:33,1823.310458745922,14.400000460800001,0.0,0.25756200824198405,1823.310458745922,14.400000460800001,0.503999582744,0.25756200824198405,1684,-25.6,98,P-GPS,
0.0805140490606649,36.8784539406348,12000,2018-04-11 08:17:33,1823.810458761922,14.9000004768,0.0,0.269223008615136,1823.810458761922,14.9000004768,0.503999582744,0.269223008615136,1684,-25.8,98,P-GPS,
0.0805140063936002,36.878454048656,12100,2018-04-11 08:17:33,1824.310458777922,15.4000004928,0.0,0.280622008979904,1824.310458777922,15.4000004928,0.503999582744,0.280622008979904,1684,-25.8,98,P-GPS,
0.0805139699989964,36.8784541891222,12200,2018-04-11 08:17:33,1824.8104587939217,15.900000508800002,0.0,0.29580000946560003,1824.8104587939217,15.900000508800002,0.503999582744,0.29580000946560003,1684,-25.8,98,P-GPS,
0.0805139513711238,36.8784543268123,12300,2018-04-11 08:17:34,1825.310458809922,16.400000524800003,0.0,0.310904009948928,1825.310458809922,16.400000524800003,0.503999582744,0.310904009948928,1684,-25.8,98,P-GPS,
0.080513908149065,36.8784544248775,12400,2018-04-11 08:17:34,1825.8104588259218,16.9000005408,0.0,0.321481010287392,1825.8104588259218,16.9000005408,0.503999582744,0.321481010287392,1684,-25.8,98,P-GPS,
0.0805138868339544,36.8784545053632,12500,2018-04-11 08:17:34,1826.310458841922,17.400000556800002,0.0,0.330299010569568,1826.310458841922,17.400000556800002,0.503999582744,0.330299010569568,1684,-25.8,98,P-GPS,
0.0805139267641137,36.8784546607972,12700,2018-04-11 08:17:34,1827.310458873922,18.4000005888,0.0,0.347791011129312,1827.310458873922,18.4000005888,0.503999582744,0.347791011129312,1684,-25.8,98,P-GPS,
0.0805139450793251,36.8784548359546,12900,2018-04-11 08:17:34,1828.3104589059221,19.4000006208,0.0,0.36735501175536,1828.3104589059221,19.4000006208,0.503999582744,0.36735501175536,1684,-25.8,98,P-GPS,
0.0805139453883223,36.8784548990403,13000,2018-04-11 08:17:34,1828.810458921922,19.900000636799998,0.0,0.374361011979552,1828.810458921922,19.900000636799998,0.503999582744,0.374361011979552,1684,-25.8,98,P-GPS,
0.0805139445173083,36.878454945852,13100,2018-04-11 08:17:34,1829.4104589411218,20.500000656,0.0,0.37955201214566403,1829.4104589411218,20.500000656,0.503999582744,0.37955201214566403,1684,-25.8,98,P-GPS,
0.0805139150779924,36.8784549800832,13200,2018-04-11 08:17:34,1829.910458957122,21.000000672,0.0,0.38318001226176,1829.910458957122,21.000000672,0.503999582744,0.38318001226176,1684,-25.8,98,P-GPS,
0.0805138805987441,36.8784549992174,13300,2018-04-11 08:17:34,1830.4104589731219,21.500000688,0.0,0.38514001232448003,1830.4104589731219,21.500000688,0.503999582744,0.38514001232448003,1684,-25.8,98,P-GPS,
0.0805138666445057,36.8784550162933,13400,2018-04-11 08:17:35,1830.810458985922,21.900000700800003,0.0,0.386982012383424,1830.810458985922,21.900000700800003,0.503999582744,0.386982012383424,1684,-25.8,98,P-GPS,
0.0805138614388792,36.8784550311694,13500,2018-04-11 08:17:35,1831.3104590019218,22.4000007168,0.0,0.388616012435712,1831.3104590019218,22.4000007168,0.503999582744,0.388616012435712,1684,-25.8,98,P-GPS,
0.0805138181579928,36.8784550415129,13600,2018-04-11 08:17:35,1831.810459017922,22.900000732800002,0.0,0.38964001246848007,1831.810459017922,22.900000732800002,0.503999582744,0.38964001246848007,1684,-25.8,98,P-GPS,
0.0805137650132141,36.878455045238,13700,2018-04-11 08:17:35,1832.310459033922,23.4000007488,0.0,0.389981012479392,1832.310459033922,23.4000007488,0.503999582744,0.389981012479392,1684,-25.8,98,P-GPS,
0.0805137231656638,36.878455066336,13800,2018-04-11 08:17:35,1832.8104590499217,23.9000007648,0.0,0.39233301255465597,1832.8104590499217,23.9000007648,0.503999582744,0.39233301255465597,1684,-25.8,98,P-GPS,
0.0805136934215236,36.8784550733482,13900,2018-04-11 08:17:35,1833.410459069122,24.500000784,0.0,0.3931500125808,1833.410459069122,24.500000784,0.503999582744,0.3931500125808,1684,-25.8,98,P-GPS,
0.0805136879112762,36.8784550303354,14000,2018-04-11 08:17:35,1833.9104590851218,25.000000800000002,0.0,0.388378012428096,1833.9104590851218,25.000000800000002,0.503999582744,0.3931500125808,1684,-25.8,98,P-GPS,
0.0805136868717183,36.8784549831439,14100,2018-04-11 08:17:35,1834.4104591011221,25.500000816000004,0.0,0.38313301226025603,1834.4104591011221,25.500000816000004,0.503999582744,0.3931500125808,1684,-25.8,98,P-GPS,
0.0805136763759896,36.8784549158584,14200,2018-04-11 08:17:35,1834.910459117122,26.000000832,0.0,0.37567501202160003,1834.910459117122,26.000000832,0.503999582744,0.3931500125808,1684,-25.8,98,P-GPS,
0.0805136602817722,36.8784548481655,14300,2018-04-11 08:17:35,1835.4104591331218,26.500000848000003,0.0,0.368192011782144,1835.4104591331218,26.500000848000003,0.503999582744,0.3931500125808,1684,-25.8,98,P-GPS,
0.0805137184745238,36.8784547867173,14400,2018-04-11 08:17:36,1835.9104591491218,27.000000864,0.0,0.361243011559776,1835.9104591491218,27.000000864,0.503999582744,0.3931500125808,1684,-25.8,98,P-GPS,
0.0805137849395673,36.8784547306119,14500,2018-04-11 08:17:36,1836.410459165122,27.50000088,0.0,0.355012011360384,1836.410459165122,27.50000088,0.503999582744,0.3931500125808,1684,-25.8,98,P-GPS,
0.0805138524973985,36.8784546778557,14600,2018-04-11 08:17:36,1836.910459181122,28.000000896,0.0,0.349314011178048,1836.910459181122,28.000000896,0.503999582744,0.3931500125808,1684,-25.8,98,P-GPS,
0.0805138948365353,36.8784546327012,14700,2018-04-11 08:17:36,1837.4104591971218,28.500000912,0.0,0.34448601102355203,1837.4104591971218,28.500000912,0.503999582744,0.3931500125808,1684,-25.8,98,P-GPS,
0.0805139290732473,36.8784545990663,14800,2018-04-11 08:17:36,1837.910459213122,29.000000928000002,0.0,0.34095301091049607,1837.910459213122,29.000000928000002,0.503999582744,0.3931500125808,1684,-25.8,98,P-GPS,
0.0805139438210467,36.8784545750468,14900,2018-04-11 08:17:36,1838.410459229122,29.500000944,0.0,0.338388010828416,1838.410459229122,29.500000944,0.503999582744,0.3931500125808,1684,-25.8,98,P-GPS,
0.0805139391236983,36.8784545244843,15000,2018-04-11 08:17:36,1838.910459245122,30.00000096,0.0,0.332743010647776,1838.910459245122,30.00000096,0.503999582744,0.3931500125808,1684,-25.8,98,P-GPS,
0.0805139298666048,36.8784544728735,15100,2018-04-11 08:17:36,1839.410459261122,30.500000976,0.0,0.3269500104624,1839.410459261122,30.500000976,0.503999582744,0.3931500125808,1684,-25.8,98,P-GPS,
0.0805139393043538,36.878454434405,15200,2018-04-11 08:17:36,1839.9104592771218,31.000000992,0.0,0.32274801032793604,1839.9104592771218,31.000000992,0.503999582744,0.3931500125808,1684,-25.8,98,P-GPS,
0.0805139450085895,36.8784544013941,15300,2018-04-11 08:17:36,1840.410459293122,31.500001007999998,0.0,0.319128010212096,1840.410459293122,31.500001007999998,0.503999582744,0.3931500125808,1684,-25.8,98,P-GPS,
0.0805139471959969,36.8784543560592,15400,2018-04-11 08:17:37,1841.010459312322,32.1000010272,0.0,0.31411501005168,1841.010459312322,32.1000010272,0.503999582744,0.3931500125808,1684,-25.8,98,P-GPS,
0.0805139365385434,36.8784543165911,15500,2018-04-11 08:17:37,1841.510459328322,32.6000010432,0.0,0.30965500990896,1841.510459328322,32.6000010432,0.503999582744,0.3931500125808,1684,-25.8,98,P-GPS,
0.0805139073802359,36.8784542823404,15600,2018-04-11 08:17:37,1842.0104593443218,33.100001059200004,0.0,0.30565000978080004,1842.0104593443218,33.100001059200004,0.503999582744,0.3931500125808,1684,-25.8,98,P-GPS,
0.0805138826524156,36.8784542660037,15700,2018-04-11 08:17:37,1842.510459360322,33.600001075200005,0.0,0.303689009718048,1842.510459360322,33.600001075200005,0.503999582744,0.3931500125808,1684,-25.8,97,P-GPS,
0.0805138536245871,36.8784541829102,15800,2018-04-11 08:17:37,1843.010459376322,34.1000010912,0.0,0.29431400941804803,1843.010459376322,34.1000010912,0.503999582744,0.3931500125808,1684,-25.8,97,P-GPS,
0.0805138435295574,36.8784541046342,15900,2018-04-11 08:17:37,1843.5104593923218,34.6000011072,0.0,0.285572009138304,1843.5104593923218,34.6000011072,0.503999582744,0.3931500125808,1684,-25.8,97,P-GPS,
0.0805138258245036,36.8784540108299,16000,2018-04-11 08:17:37,1844.010459408322,35.1000011232,0.0,0.275079008802528,1844.010459408322,35.1000011232,0.503999582744,0.3931500125808,1684,-25.8,97,P-GPS,
0.080513799266414,36.8784539491648,16100,2018-04-11 08:17:37,1844.5104594243219,35.6000011392,0.0,0.268147008580704,1844.5104594243219,35.6000011392,0.503999582744,0.3931500125808,1684,-25.8,97,P-GPS,
0.0805137649916372,36.8784538748593,16200,2018-04-11 08:17:38,1845.010459440322,36.1000011552,0.0,0.25983000831456,1845.010459440322,36.1000011552,0.503999582744,0.3931500125808,1684,-25.8,97,P-GPS,
0.08051367020551,36.8784537441474,16400,2018-04-11 08:17:38,1846.010459472322,37.10000118720001,0.0,0.245442007854144,1846.010459472322,37.10000118720001,0.503999582744,0.3931500125808,1684,-25.8,97,P-GPS,
0.0805136208075773,36.8784536742347,16500,2018-04-11 08:17:38,1846.5104594883219,37.6000012032,0.0,0.23793600761395203,1846.5104594883219,37.6000012032,0.503999582744,0.3931500125808,1684,-25.8,97,P-GPS,
0.0805136046668475,36.8784535800385,16600,2018-04-11 08:17:38,1847.0104595043217,38.1000012192,0.0,0.2276000072832,1847.0104595043217,38.1000012192,0.503999582744,0.3931500125808,1684,-25.8,97,P-GPS,
0.0805135953926554,36.8784534985546,16700,2018-04-11 08:17:38,1847.510459520322,38.600001235200004,0.0,0.218639006996448,1847.510459520322,38.600001235200004,0.503999582744,0.3931500125808,1684,-25.8,97,P-GPS,
0.0805135736108938,36.8784533869804,16800,2018-04-11 08:17:38,1848.0104595363218,39.100001251200005,0.0,0.20648500660752,1848.0104595363218,39.100001251200005,0.503999582744,0.3931500125808,1684,-25.8,97,P-GPS,
0.0805135519934015,36.8784532957361,16900,2018-04-11 08:17:38,1848.510459552322,39.60000126720001,0.0,0.196638006292416,1848.510459552322,39.60000126720001,0.503999582744,0.3931500125808,1684,-25.8,97,P-GPS,
0.0805135220714556,36.8784531950542,17000,2018-04-11 08:17:38,1848.9104595651218,40.00000128,0.0,0.18593600594995202,1848.9104595651218,40.00000128,0.503999582744,0.3931500125808,1684,-25.8,97,P-GPS,
0.0805134961859133,36.8784531268544,17100,2018-04-11 08:17:38,1849.410459581122,40.500001296,0.0,0.17885400572332802,1849.410459581122,40.500001296,0.503999582744,0.3931500125808,1684,-25.8,97,P-GPS,
0.0805135111642394,36.8784530568825,17200,2018-04-11 08:17:38,1850.0104596003218,41.100001315200004,0.0,0.17090800546905602,1850.0104596003218,41.100001315200004,0.503999582744,0.3931500125808,1684,-25.8,97,P-GPS,
0.0805135427090316,36.8784530112626,17300,2018-04-11 08:17:38,1850.5104596163221,41.600001331200005,0.0,0.16537600529203203,1850.5104596163221,41.600001331200005,0.503999582744,0.3931500125808,1684,-25.8,97,P-GPS,
0.0805135447354267,36.8784529642941,17400,2018-04-11 08:17:39,1851.010459632322,42.100001347200006,0.0,0.160173005125536,1851.010459632322,42.100001347200006,0.503999582744,0.3931500125808,1684,-25.8,97,P-GPS,
0.0805135260916767,36.8784529432603,17500,2018-04-11 08:17:39,1851.5104596483218,42.6000013632,0.0,0.158168005061376,1851.5104596483218,42.6000013632,0.503999582744,0.3931500125808,1684,-25.8,97,P-GPS,
0.08051349841851,36.8784529104506,17600,2018-04-11 08:17:39,1852.010459664322,43.1000013792,0.0,0.15508700496278402,1852.010459664322,43.1000013792,0.503999582744,0.3931500125808,1684,-25.8,97,P-GPS,
0.0805134948788835,36.8784528872503,17700,2018-04-11 08:17:39,1852.4104596771222,43.500001392,0.0,0.152622004883904,1852.4104596771222,43.500001392,0.503999582744,0.3931500125808,1684,-25.8,97,P-GPS,
0.0805135029659399,36.8784528683168,17800,2018-04-11 08:17:39,1853.010459696322,44.100001411200004,0.0,0.150387004812384,1853.010459696322,44.100001411200004,0.503999582744,0.3931500125808,1684,-25.8,97,P-GPS,
0.0805135341867736,36.8784528789523,17900,2018-04-11 08:17:39,1853.5104597123218,44.600001427200006,0.0,0.15096400483084801,1853.5104597123218,44.600001427200006,0.503999582744,0.3931500125808,1684,-25.8,97,P-GPS,
0.0805135501010478,36.8784528664789,18000,2018-04-11 08:17:39,1854.010459728322,45.1000014432,0.0,0.14932300477833602,1854.010459728322,45.1000014432,0.503999582744,0.3931500125808,1684,-25.8,97,P-GPS,
0.080513553607902,36.8784528227627,18100,2018-04-11 08:17:39,1854.510459744322,45.6000014592,0.0,0.144457004622624,1854.510459744322,45.6000014592,0.503999582744,0.3931500125808,1684,-25.8,97,P-GPS,
0.0805135488692317,36.8784527563328,18200,2018-04-11 08:17:39,1855.0104597603217,46.1000014752,0.0,0.137242004391744,1855.0104597603217,46.1000014752,0.503999582744,0.3931500125808,1684,-25.8,97,P-GPS,
0.0805135388790331,36.8784526949455,18300,2018-04-11 08:17:40,1855.4104597731218,46.500001487999995,0.0,0.130704004182528,1855.4104597731218,46.500001487999995,0.503999582744,0.3931500125808,1684,-25.8,97,P-GPS,
0.0805135271295044,36.8784526263837,18400,2018-04-11 08:17:40,1855.9104597891221,47.000001504000004,0.0,0.123462003950784,1855.9104597891221,47.000001504000004,0.503999582744,0.3931500125808,1684,-25.8,97,P-GPS,
0.0805135366700489,36.8784525769166,18500,2018-04-11 08:17:40,1856.410459805122,47.500001520000005,0.0,0.11786000377152,1856.410459805122,47.500001520000005,0.503999582744,0.3931500125808,1684,-25.8,97,P-GPS,
0.0805135506484086,36.8784525081537,18600,2018-04-11 08:17:40,1856.9104598211218,48.000001536000006,0.0,0.110057003521824,1856.9104598211218,48.000001536000006,0.503999582744,0.3931500125808,1684,-25.8,97,P-GPS,
0.0805135645221408,36.8784524446887,18700,2018-04-11 08:17:40,1857.410459837122,48.50000155200001,0.0,0.102833003290656,1857.410459837122,48.50000155200001,0.503999582744,0.3931500125808,1684,-25.8,97,P-GPS,
0.0805135706111982,36.8784523987142,18800,2018-04-11 08:17:40,1857.910459853122,49.000001568,0.0,0.09768890312604481,1857.910459853122,49.000001568,0.503999582744,0.3931500125808,1684,-25.8,97,P-GPS,
0.080513574998837,36.8784523579148,18900,2018-04-11 08:17:40,1858.5104598723217,49.600001587200005,0.0,0.0931479029807328,1858.5104598723217,49.600001587200005,0.503999582744,0.3931500125808,1684,-25.8,97,P-GPS,
0.0805136046423191,36.8784523087961,19000,2018-04-11 08:17:40,1859.010459888322,50.1000016032,0.0,0.08714670278869441,1859.010459888322,50.1000016032,0.503999582744,0.3931500125808,1684,-25.8,97,P-GPS,
0.0805136422441087,36.8784522659647,19100,2018-04-11 08:17:40,1859.5104599043218,50.6000016192,0.0,0.08176150261636801,1859.5104599043218,50.6000016192,0.503999582744,0.3931500125808,1684,-25.8,97,P-GPS,
0.0805137016702031,36.8784522395901,19200,2018-04-11 08:17:40,1860.0104599203219,51.1000016352,0.0,0.07814490250063681,1860.0104599203219,51.1000016352,0.503999582744,0.3931500125808,1684,-25.8,97,P-GPS,
0.0805137484960084,36.8784522265535,19300,2018-04-11 08:17:40,1860.510459936322,51.6000016512,0.0,0.0765224024487168,1860.510459936322,51.6000016512,0.503999582744,0.3931500125808,1684,-25.8,97,P-GPS,
0.0805137599179146,36.8784522018078,19400,2018-04-11 08:17:41,1861.010459952322,52.1000016672,0.0,0.0737816023610112,1861.010459952322,52.1000016672,0.503999582744,0.3931500125808,1684,-25.8,97,P-GPS,
0.0805137529975365,36.8784521827281,19500,2018-04-11 08:17:41,1861.5104599683218,52.6000016832,0.0,0.0716506022928192,1861.5104599683218,52.6000016832,0.503999582744,0.3931500125808,1684,-25.8,97,P-GPS,
0.0805137558093504,36.8784522101576,19600,2018-04-11 08:17:41,1862.010459984322,53.1000016992,0.0,0.07470360239051521,1862.010459984322,53.1000016992,0.503999582744,0.3931500125808,1684,-25.8,97,P-GPS,
0.0805137511112895,36.8784522488166,19700,2018-04-11 08:17:41,1862.510460000322,53.6000017152,0.0,0.0789987025279584,1862.510460000322,53.6000017152,0.503999582744,0.3931500125808,1684,-25.8,97,P-GPS,
0.0805137083711484,36.8784522591495,19800,2018-04-11 08:17:41,1863.0104600163218,54.1000017312,0.0,0.0802706025686592,1863.0104600163218,54.1000017312,0.503999582744,0.3931500125808,1684,-25.8,97,P-GPS,
0.0805136471811438,36.8784522537461,19900,2018-04-11 08:17:41,1863.510460032322,54.6000017472,0.0,0.08033850257083201,1863.510460032322,54.6000017472,0.503999582744,0.3931500125808,1684,-25.8,97,P-GPS,
0.0805135972310669,36.8784522454493,20000,2018-04-11 08:17:41,1864.0104600483219,55.1000017632,0.0,0.0804003025728096,1864.0104600483219,55.1000017632,0.503999582744,0.3931500125808,1684,-25.8,97,P-GPS,
0.0805135568918629,36.8784522481253,20100,2018-04-11 08:17:41,1864.510460064322,55.6000017792,0.0,0.0817437026157984,1864.510460064322,55.6000017792,0.503999582744,0.3931500125808,1684,-25.8,97,P-GPS,
0.0805134815660485,36.8784522541495,20200,2018-04-11 08:17:41,1865.0104600803218,56.10000179520001,0.0,0.084942002718144,1865.0104600803218,56.10000179520001,0.503999582744,0.3931500125808,1684,-25.8,97,P-GPS,
0.0805134051494819,36.8784522707397,20300,2018-04-11 08:17:42,1865.510460096322,56.60000181120001,0.0,0.0899374028779968,1865.510460096322,56.60000181120001,0.503999582744,0.3931500125808,1684,-25.8,97,P-GPS,
0.0805133284906843,36.8784522775231,20400,2018-04-11 08:17:42,1866.0104601123219,57.100001827199996,0.0,0.094528503024912,1866.0104601123219,57.100001827199996,0.503999582744,0.3931500125808,1684,-25.8,97,P-GPS,
0.0805132733827146,36.8784522722688,20500,2018-04-11 08:17:42,1866.510460128322,57.600001843200005,0.0,0.09721000311072,1866.510460128322,57.600001843200005,0.503999582744,0.3931500125808,1684,-25.8,97,P-GPS,
0.0805132581638876,36.8784522373218,20600,2018-04-11 08:17:42,1867.010460144322,58.100001859200006,0.0,0.0949329030378528,1867.010460144322,58.100001859200006,0.503999582744,0.3931500125808,1684,-25.8,97,P-GPS,
0.0805132499133761,36.8784522055351,20700,2018-04-11 08:17:42,1867.5104601603218,58.60000187520001,0.0,0.0926076029634432,1867.5104601603218,58.60000187520001,0.503999582744,0.3931500125808,1684,-25.8,97,P-GPS,
0.0805132314977101,36.8784521832356,20800,2018-04-11 08:17:42,1868.0104601763219,59.10000189120001,0.0,0.09190010294080321,1868.0104601763219,59.10000189120001,0.503999582744,0.3931500125808,1684,-25.8,97,P-GPS,
0.0805131987812524,36.8784521821092,20900,2018-04-11 08:17:42,1868.510460192322,59.6000019072,0.0,0.09412320301194241,1868.510460192322,59.6000019072,0.503999582744,0.3931500125808,1684,-25.8,97,P-GPS,
0.0805131530329681,36.8784522058845,21000,2018-04-11 08:17:42,1869.010460208322,60.100001923200004,0.0,0.09946080318274561,1869.010460208322,60.100001923200004,0.503999582744,0.3931500125808,1684,-25.8,97,P-GPS,
0.080513117122114,36.8784522382359,21100,2018-04-11 08:17:42,1869.5104602243218,60.600001939200006,0.0,0.10480500335376,1869.5104602243218,60.600001939200006,0.503999582744,0.3931500125808,1684,-25.8,97,P-GPS,
0.0805130857405732,36.8784522602297,21200,2018-04-11 08:17:42,1870.110460243522,61.2000019584,0.0,0.108963003486816,1870.110460243522,61.2000019584,0.503999582744,0.3931500125808,1684,-25.8,97,P-GPS,
0.0805130352115845,36.8784522954382,21400,2018-04-11 08:17:43,1871.1104602755217,62.200001990400004,0.0,0.11565700370102401,1871.1104602755217,62.200001990400004,0.503999582744,0.3931500125808,1684,-25.8,97,P-GPS,
0.0805130139449201,36.8784523170752,21500,2018-04-11 08:17:43,1871.610460291522,62.7000020064,0.0,0.11903000380896,1871.610460291522,62.7000020064,0.503999582744,0.3931500125808,1684,-25.8,97,P-GPS,
0.080512998853926,36.8784523256115,21600,2018-04-11 08:17:43,1872.1104603075219,63.2000020224,0.0,0.12087400386796801,1872.1104603075219,63.2000020224,0.503999582744,0.3931500125808,1684,-25.8,97,P-GPS,
0.0805129878285459,36.8784523300121,21700,2018-04-11 08:17:43,1872.610460323522,63.7000020384,0.0,0.1220750039064,1872.610460323522,63.7000020384,0.503999582744,0.3931500125808,1684,-25.8,97,P-GPS,
0.080512972233752,36.8784523363047,21800,2018-04-11 08:17:43,1873.110460339522,64.2000020544,0.0,0.123783003961056,1873.110460339522,64.2000020544,0.503999582744,0.3931500125808,1684,-25.8,97,P-GPS,
0.0805129472169846,36.8784523460448,21900,2018-04-11 08:17:43,1873.610460355522,64.7000020704,0.0,0.126506004048192,1873.610460355522,64.7000020704,0.503999582744,0.3931500125808,1684,-25.8,97,P-GPS,
0.080512897161466,36.8784523206796,22000,2018-04-11 08:17:43,1874.1104603715219,65.2000020864,0.0,0.12856100411395202,1874.1104603715219,65.2000020864,0.503999582744,0.3931500125808,1684,-25.8,97,P-GPS,
0.0805128519283806,36.8784522984399,22100,2018-04-11 08:17:43,1874.6104603875222,65.7000021024,0.0,0.130696004182272,1874.6104603875222,65.7000021024,0.503999582744,0.3931500125808,1684,-25.8,97,P-GPS,
0.0805128312921276,36.8784522968383,22200,2018-04-11 08:17:43,1875.110460403522,66.20000211840001,0.0,0.13234100423491202,1875.110460403522,66.20000211840001,0.503999582744,0.3931500125808,1684,-25.8,97,P-GPS,
0.0805128243753117,36.8784523031077,22300,2018-04-11 08:17:44,1875.6104604195218,66.70000213440001,0.0,0.133378004268096,1875.6104604195218,66.70000213440001,0.503999582744,0.3931500125808,1684,-25.8,97,P-GPS,
0.0805128042465226,36.8784523040724,22400,2018-04-11 08:17:44,1876.1104604355219,67.20000215040001,0.0,0.135177004325664,1876.1104604355219,67.20000215040001,0.503999582744,0.3931500125808,1684,-25.8,97,P-GPS,
0.0805127591113474,36.8784523230476,22600,2018-04-11 08:17:44,1877.110460467522,68.2000021824,0.0,0.140413004493216,1877.110460467522,68.2000021824,0.503999582744,0.3931500125808,1684,-25.8,97,P-GPS,
0.0805127469977597,36.8784523424618,22700,2018-04-11 08:17:44,1877.710460486722,68.8000022016,0.0,0.142813004570016,1877.710460486722,68.8000022016,0.503999582744,0.3931500125808,1684,-25.8,97,P-GPS,
0.0805127579649229,36.8784523615394,22800,2018-04-11 08:17:44,1878.2104605027218,69.30000221760001,0.0,0.14321100458275202,1878.2104605027218,69.30000221760001,0.503999582744,0.3931500125808,1684,-25.8,97,P-GPS,
0.0805127815409244,36.8784523725812,22900,2018-04-11 08:17:44,1878.710460518722,69.80000223360001,0.0,0.142003004544096,1878.710460518722,69.80000223360001,0.503999582744,0.3931500125808,1684,-25.8,97,P-GPS,
0.0805127930167728,36.8784523832171,23000,2018-04-11 08:17:44,1879.210460534722,70.30000224960001,0.0,0.14182000453824,1879.210460534722,70.30000224960001,0.503999582744,0.3931500125808,1684,-25.8,97,P-GPS,
0.0805128060827968,36.8784523810631,23100,2018-04-11 08:17:44,1879.710460550722,70.8000022656,0.0,0.1405750044984,1879.710460550722,70.8000022656,0.503999582744,0.3931500125808,1684,-25.8,97,P-GPS,
0.080512818535508,36.8784523687462,23200,2018-04-11 08:17:44,1880.2104605667218,71.3000022816,0.0,0.13863000443616,1880.2104605667218,71.3000022816,0.503999582744,0.3931500125808,1684,-25.8,97,P-GPS,
0.0805128492046045,36.8784523336834,23300,2018-04-11 08:17:44,1880.710460582722,71.8000022976,0.0,0.13349000427168,1880.710460582722,71.8000022976,0.503999582744,0.3931500125808,1684,-25.8,97,P-GPS,
0.0805128994936013,36.8784522834087,23400,2018-04-11 08:17:45,1881.210460598722,72.3000023136,0.0,0.125598004019136,1881.210460598722,72.3000023136,0.503999582744,0.3931500125808,1684,-25.8,97,P-GPS,
0.0805129425895575,36.8784522330429,23500,2018-04-11 08:17:45,1881.710460614722,72.8000023296,0.0,0.11830600378579201,1881.710460614722,72.8000023296,0.503999582744,0.3931500125808,1684,-25.8,97,P-GPS,
0.0805129375314069,36.878452163894,23700,2018-04-11 08:17:45,1882.710460646722,73.80000236160001,0.0,0.11388000364416001,1882.710460646722,73.80000236160001,0.503999582744,0.3931500125808,1684,-25.8,97,P-GPS,
0.0805129284902858,36.8784521783557,23800,2018-04-11 08:17:45,1883.210460662722,74.30000237760001,0.0,0.11566000370112,1883.210460662722,74.30000237760001,0.503999582744,0.3931500125808,1684,-25.8,97,P-GPS,
0.0805129303131253,36.878452197554,23900,2018-04-11 08:17:45,1883.7104606787218,74.80000239360001,0.0,0.116828003738496,1883.7104606787218,74.80000239360001,0.503999582744,0.3931500125808,1684,-25.8,97,P-GPS,
0.080512939431801,36.8784521607437,24000,2018-04-11 08:17:45,1884.210460694722,75.3000024096,0.0,0.113499003631968,1884.210460694722,75.3000024096,0.503999582744,0.3931500125808,1684,-25.8,97,P-GPS,
0.0805129593126595,36.8784521025492,24100,2018-04-11 08:17:45,1884.710460710722,75.8000024256,0.0,0.107867003451744,1884.710460710722,75.8000024256,0.503999582744,0.3931500125808,1684,-25.8,97,P-GPS,
0.0805129854709661,36.8784520255267,24200,2018-04-11 08:17:45,1885.210460726722,76.3000024416,0.0,0.100657003221024,1885.210460726722,76.3000024416,0.503999582744,0.3931500125808,1684,-25.8,97,P-GPS,
0.0805130124654787,36.8784519647939,24300,2018-04-11 08:17:45,1885.710460742722,76.8000024576,0.0,0.09458060302657921,1885.710460742722,76.8000024576,0.503999582744,0.3931500125808,1684,-25.8,97,P-GPS,
0.0805130242193839,36.8784518965624,24400,2018-04-11 08:17:46,1886.210460758722,77.3000024736,0.0,0.089840502874896,1886.210460758722,77.3000024736,0.503999582744,0.3931500125808,1684,-25.8,97,P-GPS,
0.0805130365711316,36.878451825309,24500,2018-04-11 08:17:46,1886.710460774722,77.8000024896,0.0,0.08534410273101121,1886.710460774722,77.8000024896,0.503999582744,0.3931500125808,1675,-25.8,97,P-GPS,
0.0805130602918611,36.8784517575333,24600,2018-04-11 08:17:46,1887.2104607907218,78.3000025056,0.0,0.08030490256975681,1887.2104607907218,78.3000025056,0.503999582744,0.3931500125808,1627,-25.8,97,P-GPS,
0.0805130869252663,36.878451696804,24700,2018-04-11 08:17:46,1887.710460806722,78.8000025216,0.0,0.07563660242037121,1887.710460806722,78.8000025216,0.503999582744,0.3931500125808,1586,-25.8,97,P-GPS,
0.0805131501247707,36.8784517036163,24800,2018-04-11 08:17:46,1888.2104608227219,79.30000253760001,0.0,0.0690188022086016,1888.2104608227219,79.30000253760001,0.503999582744,0.3931500125808,1556,-25.8,97,P-GPS,
0.0805132132774573,36.8784517263347,24900,2018-04-11 08:17:46,1888.710460838722,79.80000255360001,0.0,0.0630686020181952,1888.710460838722,79.80000255360001,0.503999582744,0.3931500125808,1516,-25.8,97,P-GPS,
0.0805132575412114,36.8784517439514,25000,2018-04-11 08:17:46,1889.210460854722,80.30000256960001,0.0,0.0591756018936192,1889.210460854722,80.30000256960001,0.503999582744,0.3931500125808,1501,-25.8,97,P-GPS,
0.0805132788530651,36.8784517512247,25100,2018-04-11 08:17:46,1889.610460867522,80.7000025824,0.0,0.0573259018344288,1889.610460867522,80.7000025824,0.503999582744,0.3931500125808,1516,-25.8,97,P-GPS,
0.080513337112481,36.8784517752313,25200,2018-04-11 08:17:46,1890.010460880322,81.1000025952,0.0,0.0527744016887808,1890.010460880322,81.1000025952,0.503999582744,0.3931500125808,1571,-25.8,97,P-GPS,
0.0805133979672297,36.8784518084242,25300,2018-04-11 08:17:46,1890.410460893122,81.500002608,0.0,0.049192901574172804,1890.410460893122,81.500002608,0.503999582744,0.3931500125808,1585,-25.8,97,P-GPS,
0.0805134274143824,36.8784517799735,25400,2018-04-11 08:17:47,1890.7104609027222,81.8000026176,0.0,0.044670701429462396,1890.7104609027222,81.8000026176,0.503999582744,0.3931500125808,1586,-25.8,97,P-GPS,
0.080513444049345,36.8784517227966,25500,2018-04-11 08:17:47,1891.0104609123218,82.10000262720001,0.0,0.0395688012662016,1891.0104609123218,82.10000262720001,0.503999582744,0.3931500125808,1585,-25.8,97,P-GPS,
0.0805134818783026,36.8784516397118,25600,2018-04-11 08:17:47,1891.410460925122,82.50000264,0.0,0.031704301014537604,1891.410460925122,82.50000264,0.503999582744,0.3931500125808,1575,-25.8,97,P-GPS,
0.0805135183287824,36.8784515752961,25700,2018-04-11 08:17:47,1891.8104609379218,82.9000026528,0.0,0.025909300829097603,1891.8104609379218,82.9000026528,0.503999582744,0.3931500125808,1547,-25.8,97,P-GPS,
0.0805135103495085,36.8784514978184,25800,2018-04-11 08:17:47,1892.110460947522,83.20000266240001,0.0,0.0268531008592992,1892.110460947522,83.20000266240001,0.503999582744,0.3931500125808,1517,-25.8,97,P-GPS,
0.0805134747349294,36.8784514472438,25900,2018-04-11 08:17:47,1892.5104609603218,83.60000267520002,0.0,0.0320764010264448,1892.5104609603218,83.60000267520002,0.503999582744,0.3931500125808,1487,-25.8,97,P-GPS,
0.0805134175873336,36.8784514018929,26000,2018-04-11 08:17:47,1892.9104609731219,84.000002688,0.0,0.039797001273504,1892.9104609731219,84.000002688,0.503999582744,0.3931500125808,1441,-25.8,97,P-GPS,
0.0805133596741655,36.8784513718669,26100,2018-04-11 08:17:47,1893.3104609859217,84.4000027008,0.0,0.047028301504905605,1893.3104609859217,84.4000027008,0.503999582744,0.3931500125808,1343,-25.8,97,P-GPS,
0.0805132827692693,36.8784513371978,26200,2018-04-11 08:17:47,1893.6104609955219,84.70000271040001,0.0,0.05640810180505921,1893.6104609955219,84.70000271040001,0.503999582744,0.3931500125808,1251,-25.8,97,P-GPS,
0.0805132099668307,36.8784513135275,26300,2018-04-11 08:17:48,1893.910461005122,85.00000272,0.0,0.06488890207644481,1893.910461005122,85.00000272,0.503999582744,0.3931500125808,1251,-25.8,97,P-GPS,
0.0805131589674251,36.8784513002191,26400,2018-04-11 08:17:48,1894.2104610147221,85.30000272960001,0.0,0.0706974022623168,1894.2104610147221,85.30000272960001,0.503999582744,0.3931500125808,1024,-25.8,97,P-GPS,
0.08051311124852,36.8784513013303,26500,2018-04-11 08:17:48,1894.4104610211218,85.500002736,0.0,0.0756003024192096,1894.4104610211218,85.500002736,0.503999582744,0.3931500125808,1024,-25.8,97,P-GPS,
0.0805130675522787,36.8784512486954,26600,2018-04-11 08:17:48,1894.610461027522,85.7000027424,0.0,0.08228330263306562,1894.610461027522,85.7000027424,0.503999582744,0.3931500125808,1024,-25.8,97,P-GPS,
0.0805130168518962,36.8784511987267,26700,2018-04-11 08:17:48,1894.710461030722,85.80000274560001,0.0,0.08969430287021761,1894.710461030722,85.80000274560001,0.503999582744,0.3931500125808,1024,-25.8,97,P-GPS,
0.0805129496012302,36.8784511488982,26800,2018-04-11 08:17:48,1894.710461030722,85.80000274560001,0.0,0.098829003162528,1894.710461030722,85.80000274560001,0.503999582744,0.3931500125808,1024,-25.8,97,P-GPS,
0.0805128871479603,36.8784511146793,26900,2018-04-11 08:17:48,1894.710461030722,85.80000274560001,0.0,0.10674000341568002,1894.710461030722,85.80000274560001,0.503999582744,0.3931500125808,1024,-25.8,97,P-GPS,
0.0805128051908166,36.8784510789147,27000,2018-04-11 08:17:48,1894.710461030722,85.80000274560001,0.0,0.1166750037336,1894.710461030722,85.80000274560001,0.503999582744,0.3931500125808,1024,-25.8,97,P-GPS,
0.0805127370451171,36.8784510490742,27100,2018-04-11 08:17:48,1894.810461033922,85.9000027488,0.0,0.124941003998112,1894.810461033922,85.9000027488,0.503999582744,0.3931500125808,1024,-25.8,97,P-GPS,
0.0805126992418075,36.8784510089542,27200,2018-04-11 08:17:48,1894.810461033922,85.9000027488,0.0,0.130687004181984,1894.810461033922,85.9000027488,0.503999582744,0.3931500125808,1024,-25.8,97,P-GPS,
0.0805126709172632,36.8784509705892,27300,2018-04-11 08:17:48,1894.810461033922,85.9000027488,0.0,0.135442004334144,1894.810461033922,85.9000027488,0.503999582744,0.3931500125808,1024,-25.8,97,P-GPS,
0.0805126579013139,36.8784509783924,27400,2018-04-11 08:17:49,1894.810461033922,85.9000027488,0.0,0.136326004362432,1894.810461033922,85.9000027488,0.503999582744,0.3931500125808,1024,-25.8,97,P-GPS,
0.0805126250916278,36.8784510057952,27500,2018-04-11 08:17:49,1894.810461033922,85.9000027488,0.0,0.138249004423968,1894.810461033922,85.9000027488,0.503999582744,0.3931500125808,1024,-25.8,97,P-GPS,
0.0805126277315391,36.8784510505339,27600,2018-04-11 08:17:49,1894.810461033922,85.9000027488,0.0,0.135922004349504,1894.810461033922,85.9000027488,0.503999582744,0.3931500125808,1024,-25.8,97,P-GPS,
0.0805126050241089,36.8784510939017,27700,2018-04-11 08:17:49,1894.810461033922,85.9000027488,0.0,0.13642000436544,1894.810461033922,85.9000027488,0.503999582744,0.3931500125808,1024,-25.8,97,P-GPS,
0.0805125413517451,36.8784511441296,27800,2018-04-11 08:17:49,1894.810461033922,85.9000027488,0.0,0.14121000451872,1894.810461033922,85.9000027488,0.503999582744,0.3931500125808,1024,-25.8,97,P-GPS,
0.0805124424072843,36.8784511902267,27900,2018-04-11 08:17:49,1894.810461033922,85.9000027488,0.0,0.150306004809792,1894.810461033922,85.9000027488,0.503999582744,0.3931500125808,1024,-25.8,97,P-GPS,
0.0805123223718275,36.8784512457695,28000,2018-04-11 08:17:49,1894.810461033922,85.9000027488,0.0,0.161886005180352,1894.810461033922,85.9000027488,0.503999582744,0.3931500125808,1024,-25.8,97,P-GPS,
0.080512171308813,36.8784513080666,28100,2018-04-11 08:17:49,1894.810461033922,85.9000027488,0.0,0.177241005671712,1894.810461033922,85.9000027488,0.503999582744,0.3931500125808,1024,-25.8,97,P-GPS,
0.080511911482024,36.8784513780926,28200,2018-04-11 08:17:49,1894.810461033922,85.9000027488,0.7919993443119999,0.20505100656163203,1894.810461033922,85.9000027488,0.7919993443119999,0.3931500125808,1024,-25.8,97,P-GPS,
0.080511520441935,36.8784514995374,28300,2018-04-11 08:17:50,1894.810461033922,85.9000027488,1.475998778036,0.247798007929536,1894.810461033922,85.9000027488,1.475998778036,0.3931500125808,1024,-25.8,97,P-GPS,
0.0805100798263327,36.8784520260632,28500,2018-04-11 08:17:50,1894.810461033922,85.9000027488,3.5279970792079998,0.41155401316972806,1894.810461033922,85.9000027488,3.5279970792079998,0.41155401316972806,1024,-25.8,97,P-GPS,
0.0805089058346446,36.8784525281069,28600,2018-04-11 08:17:50,1894.810461033922,85.9000027488,5.1479957380279995,0.5496520175888641,1894.810461033922,85.9000027488,5.1479957380279995,0.5496520175888641,1024,-25.8,97,P-GPS,
0.0805073698821956,36.8784532190999,28700,2018-04-11 08:17:50,1894.810461033922,85.9000027488,7.091994128611999,0.733538023473216,1894.810461033922,85.9000027488,7.091994128611999,0.733538023473216,1024,-25.8,96,P-GPS,
0.0805054354942828,36.8784540792363,28800,2018-04-11 08:17:50,1894.810461033922,85.9000027488,8.711992787432,0.96666003093312,1894.810461033922,85.9000027488,8.711992787432,0.96666003093312,1024,-25.8,96,P-GPS,
0.0805031864152671,36.8784551019005,28900,2018-04-11 08:17:50,1894.810461033922,85.9000027488,9.971991744292,1.2396000396672,1894.810461033922,85.9000027488,9.971991744292,1.2396000396672,1024,-25.8,96,P-GPS,
0.0805005653051928,36.8784562406589,29000,2018-04-11 08:17:50,1894.810461033922,85.9000027488,11.591990403112,1.55651004980832,1894.810461033922,85.9000027488,11.591990403112,1.55651004980832,1024,-25.8,96,P-GPS,
0.0804976870450843,36.8784575265883,29100,2018-04-11 08:17:50,1894.810461033922,85.9000027488,12.707989479188,1.90622006099904,1894.810461033922,85.9000027488,12.707989479188,1.90622006099904,1024,-25.8,96,P-GPS,
0.0804945705908439,36.8784588701032,29200,2018-04-11 08:17:50,1894.810461033922,85.9000027488,14.003988406244,2.28322007306304,1894.810461033922,85.9000027488,14.003988406244,2.28322007306304,1024,-25.8,96,P-GPS,
0.0804912247458398,36.8784603604343,29300,2018-04-11 08:17:50,1894.810461033922,85.9000027488,14.795987750556,2.69004008608128,1894.810461033922,85.9000027488,14.795987750556,2.69004008608128,1024,-25.8,96,P-GPS,
0.0804874808537558,36.8784619689609,29400,2018-04-11 08:17:51,1894.810461033922,85.9000027488,15.947986796828001,3.14298010057536,1894.810461033922,85.9000027488,15.947986796828001,3.14298010057536,1024,-25.8,96,P-GPS,
0.0804835064212268,36.8784637455027,29500,2018-04-11 08:17:51,1894.810461033922,85.9000027488,17.243985723884002,3.62673011605536,1894.810461033922,85.9000027488,17.243985723884002,3.62673011605536,1024,-25.8,96,P-GPS,
0.0804792472129253,36.8784656262805,29600,2018-04-11 08:17:51,1894.810461033922,85.9000027488,18.35998479996,4.14427013261664,1894.810461033922,85.9000027488,18.35998479996,4.14427013261664,1024,-25.8,96,P-GPS,
0.0804748029873307,36.8784676463628,29700,2018-04-11 08:17:51,1894.810461033922,85.9000027488,19.475983876036,4.686790149977281,1894.810461033922,85.9000027488,19.475983876036,4.686790149977281,1024,-25.8,96,P-GPS,
0.0804700236247046,36.8784697288465,29800,2018-04-11 08:17:51,1894.810461033922,85.9000027488,20.303983190544,5.266460168526721,1894.810461033922,85.9000027488,20.303983190544,5.266460168526721,1024,-25.8,96,P-GPS,
0.0804650520568336,36.8784719390383,29900,2018-04-11 08:17:51,1894.810461033922,85.9000027488,21.41998226662,5.871340187882881,1894.810461033922,85.9000027488,21.41998226662,5.871340187882881,1024,-25.8,96,P-GPS,
0.0804597505368968,36.8784742531995,30000,2018-04-11 08:17:51,1894.810461033922,85.9000027488,22.715981193676,6.51456020846592,1894.810461033922,85.9000027488,22.715981193676,6.51456020846592,1024,-25.8,96,P-GPS,
0.0804542677418312,36.8784766991692,30100,2018-04-11 08:17:51,1894.810461033922,85.9000027488,23.831980269752,7.182060229825921,1894.810461033922,85.9000027488,23.831980269752,7.182060229825921,1024,-25.8,96,P-GPS,
0.0804484721943252,36.8784792659504,30200,2018-04-11 08:17:51,1894.810461033922,85.9000027488,23.831980269752,7.8868502523792,1894.810461033922,85.9000027488,23.831980269752,7.8868502523792,1024,-25.8,96,P-GPS,
0.0804425107409449,36.878481963553,30300,2018-04-11 08:17:51,1894.810461033922,85.9000027488,25.775978660335998,8.614340275658881,1894.810461033922,85.9000027488,25.775978660335998,8.614340275658881,1024,-25.8,96,P-GPS,
0.080436223546655,36.8784848136025,30400,2018-04-11 08:17:52,1894.810461033922,85.9000027488,26.711977885432,9.38182030021824,1894.810461033922,85.9000027488,26.711977885432,9.38182030021824,1024,-25.8,96,P-GPS,
0.0804297805102746,36.8784877826094,30500,2018-04-11 08:17:52,1894.810461033922,85.9000027488,27.863976931704002,10.170500325456,1894.810461033922,85.9000027488,27.863976931704002,10.170500325456,1024,-25.8,96,P-GPS,
0.0804229032851282,36.8784909202972,30600,2018-04-11 08:17:52,1894.810461033922,85.9000027488,28.655976276016,11.011000352352001,1894.810461033922,85.9000027488,28.655976276016,11.011000352352001,1024,-25.8,96,P-GPS,
0.0804159029496156,36.8784941584772,30700,2018-04-11 08:17:52,1894.810461033922,85.9000027488,29.951975203072,11.868500379792001,1894.810461033922,85.9000027488,29.951975203072,11.868500379792001,1024,-25.8,96,P-GPS,
