latitude,longitude,time_millisecond,datetime_utc,altitude_m,ascent_m,speed_kph,distance_m,max_altitude_m,max_ascent_m,max_speed_kph,max_distance_m,rc_throttle,gimbal_pitch_degrees,battery_percent,flycState,message
0.312134026836451,36.8829007450628,100,2017-11-07 08:30:41,1768.176814381671,0.0,0.0,0.0,1768.176814381671,0.0,0.0,0.0,1024,0.0,97,Motors_Started,
0.312134082026657,36.8829008425736,200,2017-11-07 08:30:41,1768.176814381671,0.0,0.0,0.0124601003987232,1768.176814381671,0.0,0.0,0.0124601003987232,1024,0.0,97,Motors_Started,
0.312134116332069,36.8829009281988,300,2017-11-07 08:30:41,1768.176814381671,0.0,0.0,0.0226673007253536,1768.176814381671,0.0,0.0,0.0226673007253536,1024,0.0,97,Motors_Started,
0.312134135046962,36.8829010003367,400,2017-11-07 08:30:41,1768.176814381671,0.0,0.0,0.0308328009866496,1768.176814381671,0.0,0.0,0.0308328009866496,1024,0.0,97,Motors_Started,Setting new Return-To-Home altitude to 30m (98 ft). Setting new Maximum Flight Altitude to 100m (328 ft)
0.312134146196104,36.8829010732276,500,2017-11-07 08:30:41,1768.176814381671,0.0,0.0,0.03883240124263681,1768.176814381671,0.0,0.0,0.03883240124263681,1024,0.0,97,Motors_Started,
0.312134172050706,36.8829011575493,600,2017-11-07 08:30:41,1768.176814381671,0.0,0.0,0.048629901556156804,1768.176814381671,0.0,0.0,0.048629901556156804,1024,0.0,97,Motors_Started,
0.312134195360253,36.8829012457634,700,2017-11-07 08:30:41,1768.176814381671,0.0,0.0,0.058749401879980796,1768.176814381671,0.0,0.0,0.058749401879980796,1024,0.0,97,Motors_Started,
0.312134229402264,36.8829013380843,800,2017-11-07 08:30:41,1768.176814381671,0.0,0.0,0.0696879022300128,1768.176814381671,0.0,0.0,0.0696879022300128,1024,0.0,97,Motors_Started,
0.312134264256054,36.8829014193471,900,2017-11-07 08:30:41,1768.176814381671,0.0,0.0,0.0794959025438688,1768.176814381671,0.0,0.0,0.0794959025438688,364,0.0,97,Motors_Started,
0.312134304875758,36.8829014870741,1000,2017-11-07 08:30:42,1768.176814381671,0.0,0.0,0.08811780281976961,1768.176814381671,0.0,0.0,0.08811780281976961,624,0.0,97,Motors_Started,
0.31213433218741,36.8829015577123,1100,2017-11-07 08:30:42,1768.176814381671,0.0,0.0,0.09653940308926082,1768.176814381671,0.0,0.0,0.09653940308926082,838,0.0,97,Motors_Started,
0.312134343010049,36.8829016453225,1200,2017-11-07 08:30:42,1768.176814381671,0.0,0.0,0.10610800339545601,1768.176814381671,0.0,0.0,0.10610800339545601,975,0.0,97,Motors_Started,
0.312134360574853,36.88290171686,1300,2017-11-07 08:30:42,1768.176814381671,0.0,0.0,0.11426400365644801,1768.176814381671,0.0,0.0,0.11426400365644801,1024,0.0,97,Motors_Started,
0.312134389584768,36.8829017816697,1400,2017-11-07 08:30:42,1768.176814381671,0.0,0.0,0.12213000390816,1768.176814381671,0.0,0.0,0.12213000390816,1024,0.0,97,Motors_Started,
0.312134423381699,36.8829018328694,1500,2017-11-07 08:30:42,1768.176814381671,0.0,0.0,0.128756004120192,1768.176814381671,0.0,0.0,0.128756004120192,1024,0.0,97,Assisted_Takeoff,
0.312134461294725,36.8829018868599,1600,2017-11-07 08:30:42,1768.176814381671,0.0,0.0,0.135854004347328,1768.176814381671,0.0,0.0,0.135854004347328,1024,0.0,97,Assisted_Takeoff,
0.312134501563906,36.8829019465355,1700,2017-11-07 08:30:42,1768.176814381671,0.0,0.0,0.143661004597152,1768.176814381671,0.0,0.0,0.143661004597152,1024,0.0,97,Assisted_Takeoff,
0.312134554664004,36.8829020159604,1800,2017-11-07 08:30:42,1768.176814381671,0.0,0.0,0.153034004897088,1768.176814381671,0.0,0.0,0.153034004897088,1024,0.0,97,Assisted_Takeoff,
0.312134582570445,36.8829020886747,1900,2017-11-07 08:30:42,1768.176814381671,0.0,0.0,0.161692005174144,1768.176814381671,0.0,0.0,0.161692005174144,1024,0.0,97,Assisted_Takeoff,
0.312134612077443,36.8829021413002,2000,2017-11-07 08:30:43,1768.176814381671,0.0,0.0,0.16835600538739198,1768.176814381671,0.0,0.0,0.16835600538739198,1024,0.0,97,Assisted_Takeoff,
0.312134632967734,36.8829021933291,2100,2017-11-07 08:30:43,1768.176814381671,0.0,0.0,0.17459000558688,1768.176814381671,0.0,0.0,0.17459000558688,1024,0.0,97,Assisted_Takeoff,
0.312134669489051,36.8829022405976,2200,2017-11-07 08:30:43,1768.176814381671,0.0,0.0,0.18101500579248,1768.176814381671,0.0,0.0,0.18101500579248,1024,0.0,97,Assisted_Takeoff,
0.312134695815087,36.8829022962976,2300,2017-11-07 08:30:43,1768.176814381671,0.0,0.0,0.18786200601158398,1768.176814381671,0.0,0.0,0.18786200601158398,1024,0.0,97,Assisted_Takeoff,
0.312134706664595,36.8829023741302,2400,2017-11-07 08:30:43,1768.176814381671,0.0,0.0,0.19630200628166403,1768.176814381671,0.0,0.0,0.19630200628166403,1024,0.0,97,Assisted_Takeoff,
0.31213471155298,36.882902442655,2500,2017-11-07 08:30:43,1768.176814381671,0.0,0.0,0.203558006513856,1768.176814381671,0.0,0.0,0.203558006513856,1024,0.0,97,Assisted_Takeoff,
0.312134708210803,36.8829025079499,2600,2017-11-07 08:30:43,1768.176814381671,0.0,0.0,0.2101750067256,1768.176814381671,0.0,0.0,0.2101750067256,1024,0.0,97,Assisted_Takeoff,
0.31213471263956,36.8829025645009,2700,2017-11-07 08:30:43,1768.176814381671,0.0,0.0,0.216226006919232,1768.176814381671,0.0,0.0,0.216226006919232,1024,0.0,97,Assisted_Takeoff,
0.312134735260275,36.8829026181087,2800,2017-11-07 08:30:43,1768.176814381671,0.0,0.0,0.22269200712614404,1768.176814381671,0.0,0.0,0.22269200712614404,1024,0.0,97,Assisted_Takeoff,
0.312134766157354,36.8829026499869,2900,2017-11-07 08:30:43,1768.176814381671,0.0,0.0,0.22723100727139203,1768.176814381671,0.0,0.0,0.22723100727139203,1024,0.0,97,Assisted_Takeoff,
0.31213484047221,36.8829026765876,3100,2017-11-07 08:30:44,1768.176814381671,0.0,0.0,0.233074007458368,1768.176814381671,0.0,0.0,0.233074007458368,1024,0.0,97,Assisted_Takeoff,
0.312134860641914,36.882902701055,3200,2017-11-07 08:30:44,1768.176814381671,0.0,0.0,0.236454007566528,1768.176814381671,0.0,0.0,0.236454007566528,1024,0.0,97,Assisted_Takeoff,
0.312134871561648,36.8829027225714,3300,2017-11-07 08:30:44,1768.176814381671,0.0,0.0,0.239132007652224,1768.176814381671,0.0,0.0,0.239132007652224,1024,0.0,97,Assisted_Takeoff,
0.312134878001534,36.882902757738,3400,2017-11-07 08:30:44,1768.176814381671,0.0,0.0,0.243011007776352,1768.176814381671,0.0,0.0,0.243011007776352,1024,0.0,97,Assisted_Takeoff,
0.312134875688533,36.8829027778458,3500,2017-11-07 08:30:44,1768.176814381671,0.0,0.0,0.244973007839136,1768.176814381671,0.0,0.0,0.244973007839136,1024,0.0,97,Assisted_Takeoff,
0.312134873433138,36.8829027887297,3600,2017-11-07 08:30:44,1768.176814381671,0.0,0.0,0.24599400787180803,1768.176814381671,0.0,0.0,0.24599400787180803,1024,0.0,97,Assisted_Takeoff,
0.312134877891207,36.8829027976729,3700,2017-11-07 08:30:44,1768.176814381671,0.0,0.0,0.247102007907264,1768.176814381671,0.0,0.0,0.247102007907264,1024,0.0,97,Assisted_Takeoff,
0.312134901791676,36.8829028250713,3800,2017-11-07 08:30:44,1768.176814381671,0.0,0.0,0.250938008030016,1768.176814381671,0.0,0.0,0.250938008030016,1024,0.0,97,Assisted_Takeoff,
0.312134923076864,36.8829028419553,3900,2017-11-07 08:30:44,1768.176814381671,0.0,0.0,0.25359100811491203,1768.176814381671,0.0,0.0,0.25359100811491203,1024,0.0,97,Assisted_Takeoff,
0.312134934162089,36.8829028512197,4000,2017-11-07 08:30:45,1768.176814381671,0.0,0.0,0.255024008160768,1768.176814381671,0.0,0.0,0.255024008160768,1024,0.0,97,Assisted_Takeoff,
0.312134939959146,36.8829028615501,4100,2017-11-07 08:30:45,1768.176814381671,0.0,0.0,0.256334008202688,1768.176814381671,0.0,0.0,0.256334008202688,1024,0.0,97,Assisted_Takeoff,
0.312134942648521,36.8829028906645,4200,2017-11-07 08:30:45,1768.176814381671,0.0,0.0,0.25942700830166404,1768.176814381671,0.0,0.0,0.25942700830166404,1024,0.0,97,Assisted_Takeoff,
0.312134939314486,36.8829029101528,4300,2017-11-07 08:30:45,1768.176814381671,0.0,0.0,0.26127700836086404,1768.176814381671,0.0,0.0,0.26127700836086404,1024,0.0,97,Assisted_Takeoff,
0.312134936341761,36.8829029262095,4400,2017-11-07 08:30:45,1768.176814381671,0.0,0.0,0.262796008409472,1768.176814381671,0.0,0.0,0.262796008409472,1024,0.0,97,Assisted_Takeoff,
0.312134929976988,36.8829029246074,4500,2017-11-07 08:30:45,1768.176814381671,0.0,0.0,0.26236000839552,1768.176814381671,0.0,0.0,0.262796008409472,1024,0.0,97,Assisted_Takeoff,
0.31213492386157,36.8829029268005,4600,2017-11-07 08:30:45,1768.176814381671,0.0,0.0,0.26232600839443204,1768.176814381671,0.0,0.0,0.262796008409472,1024,0.0,97,Assisted_Takeoff,
0.312134913931319,36.882902934531,4700,2017-11-07 08:30:45,1768.176814381671,0.0,0.0,0.26270500840656,1768.176814381671,0.0,0.0,0.262796008409472,1024,0.0,97,Assisted_Takeoff,
0.312134905793984,36.8829029610276,4800,2017-11-07 08:30:45,1768.176814381671,0.0,0.0,0.26510300848329604,1768.176814381671,0.0,0.0,0.26510300848329604,1024,0.0,97,Assisted_Takeoff,
0.312134896004593,36.8829029810284,4900,2017-11-07 08:30:45,1768.176814381671,0.0,0.0,0.2667750085368,1768.176814381671,0.0,0.0,0.2667750085368,1024,0.0,97,Assisted_Takeoff,
0.312134888574206,36.8829029943918,5000,2017-11-07 08:30:46,1768.176814381671,0.0,0.0,0.267864008571648,1768.176814381671,0.0,0.0,0.267864008571648,1024,0.0,97,Assisted_Takeoff,
0.312134880712689,36.8829029993944,5100,2017-11-07 08:30:46,1768.176814381671,0.0,0.0,0.268073008578336,1768.176814381671,0.0,0.0,0.268073008578336,1024,0.0,97,Assisted_Takeoff,
0.312134875535459,36.8829030036554,5200,2017-11-07 08:30:46,1768.176814381671,0.0,0.0,0.268313008586016,1768.176814381671,0.0,0.0,0.268313008586016,1024,0.0,97,Assisted_Takeoff,
0.312134885451665,36.8829030159535,5300,2017-11-07 08:30:46,1768.176814381671,0.0,0.0,0.269982008639424,1768.176814381671,0.0,0.0,0.269982008639424,1024,0.0,97,Assisted_Takeoff,
0.312134912366791,36.8829030453581,5400,2017-11-07 08:30:46,1768.176814381671,0.0,0.0,0.274104008771328,1768.176814381671,0.0,0.0,0.274104008771328,1024,0.0,97,Assisted_Takeoff,
0.312134944881729,36.8829030702435,5500,2017-11-07 08:30:46,1768.176814381671,0.0,0.0,0.27799500889584,1768.176814381671,0.0,0.0,0.27799500889584,1132,0.0,97,Assisted_Takeoff,
0.312134961711494,36.8829030862745,5600,2017-11-07 08:30:46,1768.176814381671,0.0,0.0,0.280343008970976,1768.176814381671,0.0,0.0,0.280343008970976,1495,0.0,97,Assisted_Takeoff,
0.312134979632317,36.8829030946128,5700,2017-11-07 08:30:46,1768.176814381671,0.0,0.0,0.281947009022304,1768.176814381671,0.0,0.0,0.281947009022304,1617,0.0,97,Assisted_Takeoff,
0.312134991120378,36.8829030978843,5800,2017-11-07 08:30:46,1768.176814381671,0.0,0.0,0.282766009048512,1768.176814381671,0.0,0.0,0.282766009048512,1684,0.0,97,Assisted_Takeoff,
0.312135001158718,36.8829030938597,5900,2017-11-07 08:30:46,1768.176814381671,0.0,0.0,0.282778009048896,1768.176814381671,0.0,0.0,0.282778009048896,1684,0.0,97,Assisted_Takeoff,
0.312135004231592,36.882903091923,6000,2017-11-07 08:30:47,1768.176814381671,0.0,0.0,0.282711009046752,1768.176814381671,0.0,0.0,0.282778009048896,1684,0.0,97,Assisted_Takeoff,
0.312134987567928,36.8829030811796,6100,2017-11-07 08:30:47,1768.176814381671,0.0,0.0,0.280898008988736,1768.176814381671,0.0,0.0,0.282778009048896,1684,0.0,97,Assisted_Takeoff,Obstacle Avoided. Revise Flight Route
0.312134948531886,36.882903061857,6200,2017-11-07 08:30:47,1768.176814381671,0.0,0.0,0.277278008872896,1768.176814381671,0.0,0.0,0.282778009048896,1684,0.0,97,GPS_Atti,
0.312134907525834,36.8829029880236,6300,2017-11-07 08:30:47,1768.176814381671,0.0,0.35999970196000003,0.267966008574912,1768.176814381671,0.0,0.35999970196000003,0.282778009048896,1684,0.0,97,GPS_Atti,
0.312134857861753,36.8829028692974,6400,2017-11-07 08:30:47,1768.176814381671,0.0,0.35999970196000003,0.253658008117056,1768.176814381671,0.0,0.35999970196000003,0.282778009048896,1684,0.0,97,GPS_Atti,
0.31213479331125,36.8829027298777,6500,2017-11-07 08:30:47,1768.276814384871,0.1000000032,0.35999970196000003,0.236607007571424,1768.276814384871,0.1000000032,0.35999970196000003,0.282778009048896,1684,0.0,97,GPS_Atti,Home Point Recorded. RTH Altitude:  30m.
0.312134709866523,36.8829025954552,6600,2017-11-07 08:30:47,1768.4768143912709,0.3000000096,0.35999970196000003,0.21934300701897602,1768.4768143912709,0.3000000096,0.35999970196000003,0.282778009048896,1684,0.0,97,GPS_Atti,
0.312134597312749,36.8829024688781,6700,2017-11-07 08:30:47,1768.676814397671,0.500000016,0.5075995797636,0.201921006461472,1768.676814397671,0.500000016,0.5075995797636,0.282778009048896,1684,0.0,97,GPS_Atti,
0.312134466900847,36.8829023696567,6800,2017-11-07 08:30:47,1768.876814404071,0.7000000224,0.35999970196000003,0.18717300598953598,1768.876814404071,0.7000000224,0.5075995797636,0.282778009048896,1684,0.0,97,GPS_Atti,
0.312134353917367,36.8829022852293,6900,2017-11-07 08:30:47,1769.0768144104711,0.9000000288000001,0.0,0.175093005602976,1769.0768144104711,0.9000000288000001,0.5075995797636,0.282778009048896,1684,0.0,97,GPS_Atti,
0.312134277361975,36.8829022226719,7000,2017-11-07 08:30:48,1769.476814423271,1.3000000416000002,0.0,0.16666200533318398,1769.476814423271,1.3000000416000002,0.5075995797636,0.282778009048896,1684,0.0,97,GPS_Atti,
0.312134113348353,36.882902163993,7200,2017-11-07 08:30:48,1770.276814448871,2.1000000672000003,0.35999970196000003,0.15808400505868803,1770.276814448871,2.1000000672000003,0.5075995797636,0.282778009048896,1684,0.0,97,GPS_Atti,
0.312134020855176,36.8829021596298,7300,2017-11-07 08:30:48,1770.676814461671,2.50000008,0.35999970196000003,0.157308005033856,1770.676814461671,2.50000008,0.5075995797636,0.282778009048896,1684,0.0,97,GPS_Atti,
0.312133904506517,36.8829021438739,7400,2017-11-07 08:30:48,1771.1768144776709,3.0000000960000004,0.35999970196000003,0.156148004996736,1771.1768144776709,3.0000000960000004,0.5075995797636,0.282778009048896,1684,0.0,97,GPS_Atti,
0.312133778978726,36.8829021307332,7500,2017-11-07 08:30:48,1771.676814493671,3.500000112,0.5075995797636,0.156538005009216,1771.676814493671,3.500000112,0.5075995797636,0.282778009048896,1684,0.0,97,GPS_Atti,
0.312133649055255,36.8829021071087,7600,2017-11-07 08:30:48,1772.276814512871,4.100000131200001,0.5075995797636,0.15718400502988802,1772.276814512871,4.100000131200001,0.5075995797636,0.282778009048896,1684,0.0,97,GPS_Atti,
0.312133503703906,36.8829020991387,7700,2017-11-07 08:30:48,1772.776814528871,4.6000001472,0.0,0.16142600516563202,1772.776814528871,4.6000001472,0.5075995797636,0.282778009048896,1684,0.0,97,GPS_Atti,
0.312133367301569,36.8829021104016,7800,2017-11-07 08:30:48,1773.276814544871,5.1000001632,0.0,0.168619005395808,1773.276814544871,5.1000001632,0.5075995797636,0.282778009048896,1684,0.0,97,GPS_Atti,
0.312133256161895,36.8829021444103,7900,2017-11-07 08:30:48,1773.7768145608711,5.6000001792,0.0,0.177653005684896,1773.7768145608711,5.6000001792,0.5075995797636,0.282778009048896,1684,0.0,97,GPS_Atti,
0.312133144398221,36.8829021932379,8000,2017-11-07 08:30:49,1774.276814576871,6.100000195200001,0.35999970196000003,0.188587006034784,1774.276814576871,6.100000195200001,0.5075995797636,0.282778009048896,1684,0.0,97,GPS_Atti,
0.312132989383787,36.8829022228515,8100,2017-11-07 08:30:49,1774.7768145928708,6.6000002112,0.5075995797636,0.200791006425312,1774.7768145928708,6.6000002112,0.5075995797636,0.282778009048896,1684,0.0,97,GPS_Atti,
0.312132813145589,36.8829022185951,8200,2017-11-07 08:30:49,1775.276814608871,7.1000002272,0.5075995797636,0.212292006793344,1775.276814608871,7.1000002272,0.5075995797636,0.282778009048896,1684,0.0,97,GPS_Atti,
0.312132656056415,36.8829022076041,8300,2017-11-07 08:30:49,1775.776814624871,7.600000243200001,0.35999970196000003,0.22291200713318401,1775.776814624871,7.600000243200001,0.5075995797636,0.282778009048896,1684,0.0,97,GPS_Atti,
0.312132535848471,36.8829022031746,8400,2017-11-07 08:30:49,1776.276814640871,8.1000002592,0.0,0.23191400742124801,1776.276814640871,8.1000002592,0.5075995797636,0.282778009048896,1684,0.0,97,GPS_Atti,
0.312132448698194,36.8829022239561,8500,2017-11-07 08:30:49,1776.776814656871,8.6000002752,0.0,0.240513007696416,1776.776814656871,8.6000002752,0.5075995797636,0.282778009048896,1684,0.0,97,GPS_Atti,
0.31213236344812,36.8829022538738,8600,2017-11-07 08:30:49,1777.276814672871,9.1000002912,0.0,0.24973900799164803,1777.276814672871,9.1000002912,0.5075995797636,0.282778009048896,1684,0.0,97,GPS_Atti,
0.312132260104647,36.8829022693888,8700,2017-11-07 08:30:49,1777.776814688871,9.6000003072,0.35999970196000003,0.25949000830368,1777.776814688871,9.6000003072,0.5075995797636,0.282778009048896,1684,0.0,97,GPS_Atti,
0.312132162683668,36.8829022752928,8800,2017-11-07 08:30:49,1778.2768147048712,10.100000323200002,0.35999970196000003,0.268203008582496,1778.2768147048712,10.100000323200002,0.5075995797636,0.282778009048896,1684,0.0,97,GPS_Atti,
0.312132113966747,36.8829022694728,8900,2017-11-07 08:30:49,1778.776814720871,10.600000339200001,0.0,0.272008008704256,1778.776814720871,10.600000339200001,0.5075995797636,0.282778009048896,1684,0.0,97,GPS_Atti,
0.312132108252066,36.8829022875573,9000,2017-11-07 08:30:50,1779.2768147368708,11.1000003552,0.0,0.27376100876035203,1779.2768147368708,11.1000003552,0.5075995797636,0.282778009048896,1684,0.0,97,GPS_Atti,
0.312132127381875,36.8829023432768,9100,2017-11-07 08:30:50,1779.7768147528711,11.6000003712,0.0,0.276054008833728,1779.7768147528711,11.6000003712,0.5075995797636,0.282778009048896,1684,0.0,97,GPS_Atti,
0.312132162152843,36.8829024388188,9200,2017-11-07 08:30:50,1780.276814768871,12.1000003872,0.35999970196000003,0.28013700896438404,1780.276814768871,12.1000003872,0.5075995797636,0.282778009048896,1684,0.0,97,GPS_Atti,
0.312132214670539,36.8829025459197,9300,2017-11-07 08:30:50,1780.776814784871,12.6000004032,0.0,0.284108009091456,1780.776814784871,12.6000004032,0.5075995797636,0.284108009091456,1684,0.0,97,GPS_Atti,
0.312132239731931,36.8829026548766,9400,2017-11-07 08:30:50,1781.2768148008709,13.100000419200002,0.0,0.290863009307616,1781.2768148008709,13.100000419200002,0.5075995797636,0.290863009307616,1684,0.0,97,GPS_Atti,
0.312132214709091,36.88290277943,9500,2017-11-07 08:30:50,1781.7768148168711,13.600000435200002,0.0,0.302969009695008,1781.7768148168711,13.600000435200002,0.5075995797636,0.302969009695008,1684,0.0,97,GPS_Atti,
0.312132136754486,36.8829028999249,9600,2017-11-07 08:30:50,1782.276814832871,14.100000451200001,0.0,0.318751010200032,1782.276814832871,14.100000451200001,0.5075995797636,0.318751010200032,1684,0.0,97,GPS_Atti,
0.312132020310887,36.8829029879656,9700,2017-11-07 08:30:50,1782.7768148488708,14.600000467200001,0.0,0.334666010709312,1782.7768148488708,14.600000467200001,0.5075995797636,0.334666010709312,1684,0.0,97,GPS_Atti,
0.312131888821769,36.8829030595973,9800,2017-11-07 08:30:50,1783.276814864871,15.1000004832,0.0,0.350397011212704,1783.276814864871,15.1000004832,0.5075995797636,0.350397011212704,1684,0.0,97,GPS_Atti,
0.312131772514711,36.8829031398106,9900,2017-11-07 08:30:50,1783.776814880871,15.6000004992,0.0,0.36574101170371204,1783.776814880871,15.6000004992,0.5075995797636,0.36574101170371204,1684,0.0,97,GPS_Atti,
0.312131708331016,36.8829032187868,10000,2017-11-07 08:30:51,1784.276814896871,16.1000005152,0.0,0.37703001206496,1784.276814896871,16.1000005152,0.5075995797636,0.37703001206496,1684,0.0,97,GPS_Atti,
0.31213167932222,36.8829033123434,10100,2017-11-07 08:30:51,1784.776814912871,16.600000531200003,0.0,0.38685601237939204,1784.776814912871,16.600000531200003,0.5075995797636,0.38685601237939204,1684,0.0,97,GPS_Atti,
0.312131664614979,36.8829034192918,10200,2017-11-07 08:30:51,1785.276814928871,17.1000005472,0.0,0.39679501269744005,1785.276814928871,17.1000005472,0.5075995797636,0.39679501269744005,1684,0.0,97,GPS_Atti,
0.312131664539205,36.8829035200367,10300,2017-11-07 08:30:51,1785.776814944871,17.600000563200002,0.0,0.40526501296848005,1785.776814944871,17.600000563200002,0.5075995797636,0.40526501296848005,1684,0.0,97,GPS_Atti,
0.312131679081363,36.8829035992294,10400,2017-11-07 08:30:51,1786.2768149608712,18.1000005792,0.0,0.410981013151392,1786.2768149608712,18.1000005792,0.5075995797636,0.410981013151392,1684,0.0,97,GPS_Atti,
0.312131701593329,36.8829036637444,10500,2017-11-07 08:30:51,1786.776814976871,18.6000005952,0.0,0.414982013279424,1786.776814976871,18.6000005952,0.5075995797636,0.414982013279424,1684,0.0,97,GPS_Atti,
0.312131690425104,36.8829037185003,10600,2017-11-07 08:30:51,1787.2768149928709,19.1000006112,0.0,0.42052801345689605,1787.2768149928709,19.1000006112,0.5075995797636,0.42052801345689605,1684,0.0,97,GPS_Atti,
0.312131669953425,36.8829037696628,10700,2017-11-07 08:30:51,1787.8768150120711,19.7000006304,0.0,0.426412013645184,1787.8768150120711,19.7000006304,0.5075995797636,0.426412013645184,1684,0.0,97,GPS_Atti,
0.312131650267624,36.8829038197494,10800,2017-11-07 08:30:51,1788.376815028071,20.200000646400003,0.0,0.432154013828928,1788.376815028071,20.200000646400003,0.5075995797636,0.432154013828928,1684,0.0,97,GPS_Atti,
0.312131640334624,36.8829038708664,10900,2017-11-07 08:30:51,1788.8768150440708,20.7000006624,0.0,0.43733501399472,1788.8768150440708,20.7000006624,0.5075995797636,0.43733501399472,1684,0.0,97,GPS_Atti,
0.312131626776861,36.882903915538,11000,2017-11-07 08:30:52,1789.376815060071,21.200000678400002,0.0,0.44220201415046406,1789.376815060071,21.200000678400002,0.5075995797636,0.44220201415046406,1684,0.0,97,GPS_Atti,
0.312131613014881,36.8829039680194,11100,2017-11-07 08:30:52,1789.876815076071,21.7000006944,0.0,0.44778501432912,1789.876815076071,21.7000006944,0.5075995797636,0.44778501432912,1684,0.0,97,GPS_Atti,
0.312131604303214,36.8829040244038,11200,2017-11-07 08:30:52,1790.376815092071,22.2000007104,0.0,0.45339401450860806,1790.376815092071,22.2000007104,0.5075995797636,0.45339401450860806,1684,0.0,97,GPS_Atti,
0.312131600070329,36.8829040679372,11300,2017-11-07 08:30:52,1790.876815108071,22.7000007264,0.0,0.457574014642368,1790.876815108071,22.7000007264,0.5075995797636,0.457574014642368,1684,0.0,97,GPS_Atti,
0.312131603637333,36.8829040817222,11400,2017-11-07 08:30:52,1791.376815124071,23.2000007424,0.0,0.45858001467456,1791.376815124071,23.2000007424,0.5075995797636,0.45858001467456,1684,0.0,97,GPS_Atti,
0.312131606989943,36.8829040908126,11500,2017-11-07 08:30:52,1791.9768151432709,23.8000007616,0.0,0.45918001469376,1791.9768151432709,23.8000007616,0.5075995797636,0.45918001469376,1684,0.0,97,GPS_Atti,
0.312131607890422,36.8829041058919,11600,2017-11-07 08:30:52,1792.4768151592712,24.3000007776,0.0,0.46048101473539205,1792.4768151592712,24.3000007776,0.5075995797636,0.46048101473539205,1684,0.0,97,GPS_Atti,
0.312131601347487,36.882904134193,11700,2017-11-07 08:30:52,1792.976815175271,24.800000793600002,0.0,0.46346201483078403,1792.976815175271,24.800000793600002,0.5075995797636,0.46346201483078403,1684,0.0,97,GPS_Atti,
0.312131589154614,36.8829041746956,11800,2017-11-07 08:30:52,1793.4768151912708,25.3000008096,0.0,0.46791601497331203,1793.4768151912708,25.3000008096,0.5075995797636,0.46791601497331203,1684,0.0,97,GPS_Atti,
0.312131572428866,36.8829042176178,11900,2017-11-07 08:30:52,1794.076815210471,25.9000008288,0.0,0.472886015132352,1794.076815210471,25.9000008288,0.5075995797636,0.472886015132352,1684,0.0,97,GPS_Atti,
0.312131560214773,36.8829042362825,12000,2017-11-07 08:30:53,1794.576815226471,26.4000008448,0.0,0.47536501521168,1794.576815226471,26.4000008448,0.5075995797636,0.47536501521168,1684,0.0,97,GPS_Atti,
0.312131564596814,36.8829042478797,12100,2017-11-07 08:30:53,1795.0768152424707,26.900000860800002,0.0,0.476139015236448,1795.0768152424707,26.900000860800002,0.5075995797636,0.476139015236448,1684,0.0,97,GPS_Atti,
0.31213158298047,36.8829042563566,12200,2017-11-07 08:30:53,1795.576815258471,27.4000008768,0.0,0.47573901522364803,1795.576815258471,27.4000008768,0.5075995797636,0.476139015236448,1684,0.0,97,GPS_Atti,
0.312131619033966,36.882904265652,12300,2017-11-07 08:30:53,1796.1768152776708,28.000000896,0.0,0.474313015178016,1796.1768152776708,28.000000896,0.5075995797636,0.476139015236448,1684,0.0,97,GPS_Atti,
0.312131664476866,36.882904277731,12400,2017-11-07 08:30:53,1796.676815293671,28.500000912,0.0,0.47259501512304003,1796.676815293671,28.500000912,0.5075995797636,0.476139015236448,1684,0.0,97,GPS_Atti,
0.312131716695875,36.8829042959198,12500,2017-11-07 08:30:53,1797.176815309671,29.000000928000002,0.0,0.471086015074752,1797.176815309671,29.000000928000002,0.5075995797636,0.476139015236448,1684,0.0,97,GPS_Atti,
0.312131758853542,36.8829043084746,12600,2017-11-07 08:30:53,1797.676815325671,29.500000944,0.0,0.469723015031136,1797.676815325671,29.500000944,0.5075995797636,0.476139015236448,1684,0.0,97,GPS_Atti,
0.312131815269712,36.8829043189354,12700,2017-11-07 08:30:53,1798.276815344871,30.1000009632,0.0,0.46737301495593603,1798.276815344871,30.1000009632,0.5075995797636,0.476139015236448,1684,0.0,97,GPS_Atti,
0.312131874630567,36.8829043200301,12800,2017-11-07 08:30:53,1798.7768153608708,30.6000009792,0.0,0.464037014849184,1798.7768153608708,30.6000009792,0.5075995797636,0.476139015236448,1684,0.0,97,GPS_Atti,
0.312131925122381,36.8829043246598,12900,2017-11-07 08:30:53,1799.276815376871,31.100000995200002,0.0,0.46161001477151997,1799.276815376871,31.100000995200002,0.5075995797636,0.476139015236448,1684,0.0,97,GPS_Atti,
0.312131941794365,36.8829043340382,13000,2017-11-07 08:30:54,1799.776815392871,31.6000010112,0.0,0.46157601477043203,1799.776815392871,31.6000010112,0.5075995797636,0.476139015236448,1684,0.0,97,GPS_Atti,
0.312131958421262,36.8829043248044,13100,2017-11-07 08:30:54,1800.276815408871,32.1000010272,0.0,0.45976001471232,1800.276815408871,32.1000010272,0.5075995797636,0.476139015236448,1684,0.0,97,GPS_Atti,
0.312131978109608,36.8829042903602,13200,2017-11-07 08:30:54,1800.7768154248708,32.6000010432,0.0,0.455348014571136,1800.7768154248708,32.6000010432,0.5075995797636,0.476139015236448,1684,0.0,97,GPS_Atti,
0.312132015886073,36.8829042538027,13300,2017-11-07 08:30:54,1801.376815444071,33.200001062400005,0.0,0.44973001439136,1801.376815444071,33.200001062400005,0.5075995797636,0.476139015236448,1684,0.0,97,GPS_Atti,
0.312132060990232,36.882904232727,13400,2017-11-07 08:30:54,1801.876815460071,33.7000010784,0.0,0.44521301424681603,1801.876815460071,33.7000010784,0.5075995797636,0.476139015236448,1684,0.0,97,GPS_Atti,
0.312132120857482,36.8829042305564,13500,2017-11-07 08:30:54,1802.376815476071,34.2000010944,0.0,0.44177001413664,1802.376815476071,34.2000010944,0.5075995797636,0.476139015236448,1684,0.0,97,GPS_Atti,
0.312132177173356,36.8829042446047,13600,2017-11-07 08:30:54,1802.876815492071,34.7000011104,0.0,0.440181014085792,1802.876815492071,34.7000011104,0.5075995797636,0.476139015236448,1684,0.0,97,GPS_Atti,
0.312132242241497,36.8829042646928,13700,2017-11-07 08:30:54,1803.3768155080709,35.200001126400004,0.0,0.43883701404278397,1803.3768155080709,35.200001126400004,0.5075995797636,0.476139015236448,1684,0.0,97,GPS_Atti,
0.312132297498046,36.882904279892,13800,2017-11-07 08:30:54,1803.876815524071,35.700001142400005,0.0,0.43761101400355207,1803.876815524071,35.700001142400005,0.5075995797636,0.476139015236448,1684,0.0,97,GPS_Atti,
0.312132358950981,36.8829042798802,13900,2017-11-07 08:30:54,1804.476815543271,36.3000011616,0.0,0.43464901390876803,1804.476815543271,36.3000011616,0.5075995797636,0.476139015236448,1684,0.0,97,GPS_Atti,
0.312132404197984,36.8829042574427,14000,2017-11-07 08:30:55,1804.9768155592708,36.8000011776,0.0,0.43026001376832,1804.9768155592708,36.8000011776,0.5075995797636,0.476139015236448,1684,0.0,97,GPS_Atti,
0.312132474000626,36.8829042167822,14100,2017-11-07 08:30:55,1805.476815575271,37.3000011936,0.0,0.422931013533792,1805.476815575271,37.3000011936,0.5075995797636,0.476139015236448,1684,0.0,97,GPS_Atti,
0.312132557347468,36.882904176787,14200,2017-11-07 08:30:55,1806.0768155944709,37.9000012128,0.0,0.41514001328448,1806.0768155944709,37.9000012128,0.5075995797636,0.476139015236448,1684,0.0,97,GPS_Atti,
0.312132647761783,36.8829041439685,14300,2017-11-07 08:30:55,1806.5768156104712,38.4000012288,0.0,0.40790201305286405,1806.5768156104712,38.4000012288,0.5075995797636,0.476139015236448,1684,0.0,97,GPS_Atti,
0.312132698394178,36.8829041360044,14400,2017-11-07 08:30:55,1807.076815626471,38.9000012448,0.0,0.404993012959776,1807.076815626471,38.9000012448,0.5075995797636,0.476139015236448,1684,0.0,97,GPS_Atti,
0.312132751834367,36.8829041253381,14500,2017-11-07 08:30:55,1807.576815642471,39.4000012608,0.0,0.401754012856128,1807.576815642471,39.4000012608,0.5075995797636,0.476139015236448,1684,0.0,97,GPS_Atti,
0.312132795134591,36.8829041076487,14600,2017-11-07 08:30:55,1808.0768156584709,39.900001276800005,0.0,0.398232012743424,1808.0768156584709,39.900001276800005,0.5075995797636,0.476139015236448,1684,0.0,97,GPS_Atti,
0.312132849107841,36.8829040879504,14700,2017-11-07 08:30:55,1808.676815677671,40.500001296,0.0,0.394141012612512,1808.676815677671,40.500001296,0.5075995797636,0.476139015236448,1684,0.0,97,GPS_Atti,
0.312132892535083,36.882904066736,14800,2017-11-07 08:30:55,1809.176815693671,41.000001312,0.0,0.39032901249052804,1809.176815693671,41.000001312,0.5075995797636,0.476139015236448,1684,0.0,97,GPS_Atti,
0.312132975726486,36.8829040230607,14900,2017-11-07 08:30:55,1809.676815709671,41.500001328,0.0,0.38281001224992006,1809.676815709671,41.500001328,0.5075995797636,0.476139015236448,1684,0.0,97,GPS_Atti,
0.312133066469339,36.8829039564228,15000,2017-11-07 08:30:56,1810.176815725671,42.000001344,0.0,0.37274501192784,1810.176815725671,42.000001344,0.5075995797636,0.476139015236448,1684,0.0,97,GPS_Atti,
0.312133144954131,36.8829038694661,15100,2017-11-07 08:30:56,1810.7768157448709,42.6000013632,0.0,0.361023011552736,1810.7768157448709,42.6000013632,0.5075995797636,0.476139015236448,1684,0.0,97,GPS_Atti,
0.312133177452886,36.8829037738852,15200,2017-11-07 08:30:56,1811.276815760871,43.1000013792,0.0,0.349812011193984,1811.276815760871,43.1000013792,0.5075995797636,0.476139015236448,1684,0.0,97,GPS_Atti,
0.312133186101247,36.8829036739787,15300,2017-11-07 08:30:56,1811.876815780071,43.7000013984,0.0,0.338862010843584,1811.876815780071,43.7000013984,0.5075995797636,0.476139015236448,1684,0.0,97,GPS_Atti,
0.312133153899072,36.8829036136589,15400,2017-11-07 08:30:56,1812.376815796071,44.2000014144,0.0,0.333444010670208,1812.376815796071,44.2000014144,0.5075995797636,0.476139015236448,1684,0.0,97,GPS_Atti,
0.312133125935229,36.8829035604258,15500,2017-11-07 08:30:56,1812.9768158152708,44.8000014336,0.0,0.32872001051904,1812.9768158152708,44.8000014336,0.5075995797636,0.476139015236448,1684,0.0,97,GPS_Atti,
0.312133101387351,36.8829035007912,15600,2017-11-07 08:30:56,1813.476815831271,45.3000014496,0.0,0.32326901034460803,1813.476815831271,45.3000014496,0.5075995797636,0.476139015236448,1684,0.0,97,GPS_Atti,
0.31213309901308,36.8829034289079,15700,2017-11-07 08:30:56,1814.076815850471,45.9000014688,0.0,0.315787010105184,1814.076815850471,45.9000014688,0.5075995797636,0.476139015236448,1684,0.0,97,GPS_Atti,
0.31213309474157,36.8829033640667,15800,2017-11-07 08:30:56,1814.576815866471,46.4000014848,0.0,0.30914100989251203,1814.576815866471,46.4000014848,0.5075995797636,0.476139015236448,1684,0.0,97,GPS_Atti,
0.3121330795833,36.882903306309,15900,2017-11-07 08:30:56,1815.076815882471,46.9000015008,0.0,0.30367800971769604,1815.076815882471,46.9000015008,0.5075995797636,0.476139015236448,1684,0.0,97,GPS_Atti,
0.312133036467803,36.8829032688811,16000,2017-11-07 08:30:57,1815.576815898471,47.4000015168,0.0,0.30149600964787204,1815.576815898471,47.4000015168,0.5075995797636,0.476139015236448,1684,0.0,97,GPS_Atti,
0.312133002833361,36.8829032541214,16100,2017-11-07 08:30:57,1816.076815914471,47.9000015328,0.0,0.301362009643584,1816.076815914471,47.9000015328,0.5075995797636,0.476139015236448,1684,0.0,97,GPS_Atti,
0.312132983498845,36.882903264599,16200,2017-11-07 08:30:57,1816.5768159304712,48.4000015488,0.0,0.30325700970422403,1816.5768159304712,48.4000015488,0.5075995797636,0.476139015236448,1684,0.0,97,GPS_Atti,
0.31213299445064,36.882903282453,16300,2017-11-07 08:30:57,1817.076815946471,48.9000015648,0.0,0.304631009748192,1817.076815946471,48.9000015648,0.5075995797636,0.476139015236448,1684,0.0,97,GPS_Atti,
0.312133013057852,36.8829033046831,16400,2017-11-07 08:30:57,1817.5768159624708,49.4000015808,0.0,0.30615400979692803,1817.5768159624708,49.4000015808,0.5075995797636,0.476139015236448,1684,0.0,96,GPS_Atti,
0.312133027363224,36.8829033135939,16500,2017-11-07 08:30:57,1818.0768159784711,49.9000015968,0.0,0.30649500980784006,1818.0768159784711,49.9000015968,0.5075995797636,0.476139015236448,1684,0.0,96,GPS_Atti,
0.312133011486861,36.8829032992399,16600,2017-11-07 08:30:57,1818.576815994471,50.4000016128,0.0,0.30565600978099206,1818.576815994471,50.4000016128,0.5075995797636,0.476139015236448,1684,0.0,96,GPS_Atti,
0.31213301438427,36.8829032696083,16700,2017-11-07 08:30:57,1819.076816010471,50.9000016288,0.0,0.30247600967923205,1819.076816010471,50.9000016288,0.5075995797636,0.476139015236448,1684,0.0,96,GPS_Atti,
0.31213303237191,36.8829032489044,16800,2017-11-07 08:30:57,1819.5768160264709,51.4000016448,0.0,0.299597009587104,1819.5768160264709,51.4000016448,0.5075995797636,0.476139015236448,1684,0.0,96,GPS_Atti,
0.312133067133744,36.8829032230654,16900,2017-11-07 08:30:57,1820.0768160424711,51.90000166080001,0.0,0.29551000945632,1820.0768160424711,51.90000166080001,0.5075995797636,0.476139015236448,1684,0.0,96,GPS_Atti,
0.312133095578895,36.882903214616,17000,2017-11-07 08:30:58,1820.576816058471,52.40000167680001,0.0,0.293503009392096,1820.576816058471,52.40000167680001,0.5075995797636,0.476139015236448,1684,0.0,96,GPS_Atti,
0.312133127097429,36.8829031977226,17100,2017-11-07 08:30:58,1821.0768160744708,52.9000016928,0.0,0.29052000929664,1821.0768160744708,52.9000016928,0.5075995797636,0.476139015236448,1684,0.0,96,GPS_Atti,
0.312133124846614,36.8829031848822,17200,2017-11-07 08:30:58,1821.676816093671,53.500001712,0.0,0.289267009256544,1821.676816093671,53.500001712,0.5075995797636,0.476139015236448,1684,0.0,96,GPS_Atti,
0.312133085827264,36.8829031966975,17300,2017-11-07 08:30:58,1822.1768161096709,54.000001728,0.0,0.292026009344832,1822.1768161096709,54.000001728,0.5075995797636,0.476139015236448,1684,0.0,96,GPS_Atti,
0.31213301903643,36.8829032442048,17400,2017-11-07 08:30:58,1822.6768161256712,54.500001744,0.0,0.299663009589216,1822.6768161256712,54.500001744,0.5075995797636,0.476139015236448,1684,0.0,96,GPS_Atti,
0.312132965485558,36.8829032852138,17500,2017-11-07 08:30:58,1823.176816141671,55.00000176,0.0,0.30614300979657605,1823.176816141671,55.00000176,0.5075995797636,0.476139015236448,1684,0.0,96,GPS_Atti,
0.312132928507615,36.8829033144704,17600,2017-11-07 08:30:58,1823.6768161576708,55.500001776000005,0.0,0.310741009943712,1823.6768161576708,55.500001776000005,0.5075995797636,0.476139015236448,1684,0.0,96,GPS_Atti,
0.312132925079587,36.88290332635,17700,2017-11-07 08:30:58,1824.1768161736709,56.000001792,0.0,0.31210500998736007,1824.1768161736709,56.000001792,0.5075995797636,0.476139015236448,1684,0.0,96,GPS_Atti,
0.312132945765203,36.8829033267747,17800,2017-11-07 08:30:58,1824.676816189671,56.500001808,0.0,0.311253009960096,1824.676816189671,56.500001808,0.5075995797636,0.476139015236448,1684,0.0,96,GPS_Atti,
0.31213298264091,36.8829033221629,17900,2017-11-07 08:30:58,1825.176816205671,57.000001824,0.0,0.30921700989494405,1825.176816205671,57.000001824,0.5075995797636,0.476139015236448,1684,0.0,96,GPS_Atti,
0.312133010882963,36.8829033315225,18000,2017-11-07 08:30:59,1825.5768162184709,57.4000018368,0.0,0.30902000988864003,1825.5768162184709,57.4000018368,0.5075995797636,0.476139015236448,1684,0.0,96,GPS_Atti,
0.312133058356075,36.8829033387921,18100,2017-11-07 08:30:59,1826.076816234471,57.9000018528,0.0,0.307886009852352,1826.076816234471,57.9000018528,0.5075995797636,0.476139015236448,1684,0.0,96,GPS_Atti,
0.312133106299553,36.8829033484323,18200,2017-11-07 08:30:59,1826.576816250471,58.400001868800004,0.0,0.307072009826304,1826.576816250471,58.400001868800004,0.5075995797636,0.476139015236448,1684,0.0,96,GPS_Atti,
0.312133174555172,36.8829033595635,18300,2017-11-07 08:30:59,1827.076816266471,58.900001884800005,0.0,0.305802009785664,1827.076816266471,58.900001884800005,0.5075995797636,0.476139015236448,1684,0.0,96,GPS_Atti,
0.312133233530391,36.8829033771616,18400,2017-11-07 08:30:59,1827.5768162824709,59.40000190080001,0.0,0.305707009782624,1827.5768162824709,59.40000190080001,0.5075995797636,0.476139015236448,1684,0.0,96,GPS_Atti,
0.312133292175545,36.8829033879138,18500,2017-11-07 08:30:59,1828.0768162984712,59.9000019168,0.0,0.305041009761312,1828.0768162984712,59.9000019168,0.5075995797636,0.476139015236448,1684,0.0,96,GPS_Atti,
0.3121333207068,36.8829033960129,18600,2017-11-07 08:30:59,1828.576816314471,60.4000019328,0.0,0.305077009762464,1828.576816314471,60.4000019328,0.5075995797636,0.476139015236448,1684,0.0,96,GPS_Atti,
0.312133335556071,36.882903412372,18700,2017-11-07 08:30:59,1829.0768163304708,60.9000019488,0.0,0.306417009805344,1829.0768163304708,60.9000019488,0.5075995797636,0.476139015236448,1684,0.0,96,GPS_Atti,
0.312133326205139,36.882903445888,18800,2017-11-07 08:30:59,1829.576816346471,61.400001964800005,0.0,0.31028500992912,1829.576816346471,61.400001964800005,0.5075995797636,0.476139015236448,1684,0.0,96,GPS_Atti,
0.312133317836667,36.8829034716454,18900,2017-11-07 08:30:59,1830.076816362471,61.900001980800006,0.0,0.313292010025344,1830.076816362471,61.900001980800006,0.5075995797636,0.476139015236448,1684,0.0,96,GPS_Atti,
0.312133303446209,36.8829034983802,19000,2017-11-07 08:31:00,1830.576816378471,62.4000019968,0.0,0.316573010130336,1830.576816378471,62.4000019968,0.5075995797636,0.476139015236448,1684,0.0,96,GPS_Atti,
0.312133277347239,36.8829035374937,19100,2017-11-07 08:31:00,1831.076816394471,62.9000020128,0.0,0.321522010288704,1831.076816394471,62.9000020128,0.5075995797636,0.476139015236448,1684,0.0,96,GPS_Atti,
0.312133225689433,36.8829035786168,19200,2017-11-07 08:31:00,1831.576816410471,63.4000020288,0.0,0.327457010478624,1831.576816410471,63.4000020288,0.5075995797636,0.476139015236448,1684,0.0,96,GPS_Atti,
0.312133204789779,36.8829036109288,19300,2017-11-07 08:31:00,1832.076816426471,63.900002044800004,0.0,0.33154901060956804,1832.076816426471,63.900002044800004,0.5075995797636,0.476139015236448,1684,0.0,96,GPS_Atti,
0.312133209903297,36.882903637881,19400,2017-11-07 08:31:00,1832.5768164424708,64.4000020608,0.0,0.334276010696832,1832.5768164424708,64.4000020608,0.5075995797636,0.476139015236448,1684,0.0,96,GPS_Atti,
0.312133264898497,36.88290364852,19500,2017-11-07 08:31:00,1833.076816458471,64.9000020768,0.0,0.33381001068192,1833.076816458471,64.9000020768,0.5075995797636,0.476139015236448,1684,0.0,96,GPS_Atti,
0.312133333823814,36.8829036341409,19600,2017-11-07 08:31:00,1833.576816474471,65.40000209280001,0.0,0.330392010572544,1833.576816474471,65.40000209280001,0.5075995797636,0.476139015236448,1684,0.0,96,GPS_Atti,
0.312133435846645,36.8829036141235,19700,2017-11-07 08:31:00,1834.076816490471,65.90000210880001,0.0,0.32575101042403204,1834.076816490471,65.90000210880001,0.5075995797636,0.476139015236448,1684,0.0,96,GPS_Atti,
0.312133516126084,36.8829036140999,19800,2017-11-07 08:31:00,1834.576816506471,66.40000212480001,0.0,0.32406501037008,1834.576816506471,66.40000212480001,0.5075995797636,0.476139015236448,1684,0.0,96,GPS_Atti,
0.312133598917805,36.8829036237454,19900,2017-11-07 08:31:00,1835.076816522471,66.9000021408,0.0,0.32364001035648,1835.076816522471,66.9000021408,0.5075995797636,0.476139015236448,1684,0.0,96,GPS_Atti,
0.312133648500261,36.8829036410971,20000,2017-11-07 08:31:01,1835.576816538471,67.4000021568,0.0,0.324789010393248,1835.576816538471,67.4000021568,0.5075995797636,0.476139015236448,1684,0.0,96,GPS_Atti,
0.312133703410986,36.8829036607574,20100,2017-11-07 08:31:01,1836.0768165544712,67.9000021728,0.0,0.326227010439264,1836.0768165544712,67.9000021728,0.5075995797636,0.476139015236448,1684,0.0,96,GPS_Atti,
0.312133748405402,36.8829036856214,20200,2017-11-07 08:31:01,1836.576816570471,68.4000021888,0.0,0.328466010510912,1836.576816570471,68.4000021888,0.5075995797636,0.476139015236448,1684,0.0,96,GPS_Atti,
0.31213379170013,36.8829037047785,20300,2017-11-07 08:31:01,1837.0768165864708,68.9000022048,0.0,0.330171010565472,1837.0768165864708,68.9000022048,0.5075995797636,0.476139015236448,1684,0.0,96,GPS_Atti,
0.312133808189856,36.882903704603,20400,2017-11-07 08:31:01,1837.576816602471,69.4000022208,0.0,0.33001101056035204,1837.576816602471,69.4000022208,0.5075995797636,0.476139015236448,1684,0.0,96,GPS_Atti,
0.312133828154579,36.8829036949516,20500,2017-11-07 08:31:01,1838.076816618471,69.9000022368,0.0,0.328784010521088,1838.076816618471,69.9000022368,0.5075995797636,0.476139015236448,1684,0.0,96,GPS_Atti,
0.312133850146614,36.8829036790833,20600,2017-11-07 08:31:01,1838.576816634471,70.40000225280001,0.0,0.32686701045974403,1838.576816634471,70.40000225280001,0.5075995797636,0.476139015236448,1684,0.0,96,GPS_Atti,
0.312133885085694,36.8829036703381,20700,2017-11-07 08:31:01,1839.0768166504708,70.90000226880001,0.0,0.32568501042192005,1839.0768166504708,70.90000226880001,0.5075995797636,0.476139015236448,1684,0.0,96,GPS_Atti,
0.312133915714079,36.8829036775668,20800,2017-11-07 08:31:01,1839.5768166664711,71.40000228480001,0.0,0.32634201044294403,1839.5768166664711,71.40000228480001,0.5075995797636,0.476139015236448,1684,0.0,96,GPS_Atti,
0.312133954166934,36.8829036941213,20900,2017-11-07 08:31:01,1840.076816682471,71.9000023008,0.0,0.328048010497536,1840.076816682471,71.9000023008,0.5075995797636,0.476139015236448,1684,0.0,96,GPS_Atti,
0.312133976846681,36.8829037120516,21000,2017-11-07 08:31:02,1840.5768166984708,72.4000023168,0.0,0.329989010559648,1840.5768166984708,72.4000023168,0.5075995797636,0.476139015236448,1684,0.0,96,GPS_Atti,
0.312134008080237,36.8829037291468,21100,2017-11-07 08:31:02,1841.076816714471,72.9000023328,0.0,0.3318500106192,1841.076816714471,72.9000023328,0.5075995797636,0.476139015236448,1684,0.0,96,GPS_Atti,
0.312134027873363,36.8829037522138,21200,2017-11-07 08:31:02,1841.576816730471,73.4000023488,0.0,0.334409010701088,1841.576816730471,73.4000023488,0.5075995797636,0.476139015236448,1684,0.0,96,GPS_Atti,
0.312134076186854,36.8829037834943,21300,2017-11-07 08:31:02,1842.076816746471,73.9000023648,0.0,0.337932010813824,1842.076816746471,73.9000023648,0.5075995797636,0.476139015236448,1684,0.0,96,GPS_Atti,
0.312134128301947,36.8829038169279,21400,2017-11-07 08:31:02,1842.4768167592708,74.30000237760001,0.0,0.341791010937312,1842.4768167592708,74.30000237760001,0.5075995797636,0.476139015236448,1684,0.0,96,GPS_Atti,
0.312134213127391,36.88290383042,21500,2017-11-07 08:31:02,1843.076816778471,74.9000023968,0.0,0.34373001099936,1843.076816778471,74.9000023968,0.5075995797636,0.476139015236448,1684,0.0,96,GPS_Atti,
0.312134286385998,36.8829038305051,21600,2017-11-07 08:31:02,1843.576816794471,75.4000024128,0.0,0.344327011018464,1843.576816794471,75.4000024128,0.5075995797636,0.476139015236448,1148,0.0,96,GPS_Atti,
0.312134372515215,36.882903822715,21700,2017-11-07 08:31:02,1844.0768168104707,75.90000242880001,0.0,0.344401011020832,1844.0768168104707,75.90000242880001,0.5075995797636,0.476139015236448,1048,0.0,96,GPS_Atti,
0.312134432217025,36.8829038255815,21800,2017-11-07 08:31:02,1844.576816826471,76.4000024448,0.0,0.345521011056672,1844.576816826471,76.4000024448,0.5075995797636,0.476139015236448,1024,0.0,96,GPS_Atti,
0.312134487410488,36.8829038167127,21900,2017-11-07 08:31:02,1844.9768168392711,76.8000024576,0.0,0.3454000110528,1844.9768168392711,76.8000024576,0.5075995797636,0.476139015236448,1024,0.0,96,GPS_Atti,
0.312134542591942,36.8829038137552,22100,2017-11-07 08:31:03,1845.676816861671,77.50000248,0.0,0.34603901107324797,1845.676816861671,77.50000248,0.5075995797636,0.476139015236448,1024,0.0,96,GPS_Atti,
0.312134551260149,36.8829038104733,22200,2017-11-07 08:31:03,1845.8768168680708,77.70000248640001,0.0,0.34584001106688006,1845.8768168680708,77.70000248640001,0.5075995797636,0.476139015236448,1024,0.0,96,GPS_Atti,
0.312134551716317,36.8829037927271,22300,2017-11-07 08:31:03,1845.9768168712708,77.8000024896,0.0,0.34390401100492807,1845.9768168712708,77.8000024896,0.5075995797636,0.476139015236448,1024,0.0,96,GPS_Atti,
0.312134527797324,36.8829037726717,22400,2017-11-07 08:31:03,1846.076816874471,77.9000024928,0.0,0.341262010920384,1846.076816874471,77.9000024928,0.5075995797636,0.476139015236448,1024,0.0,96,GPS_Atti,
0.312134511994293,36.8829037322542,22500,2017-11-07 08:31:03,1846.076816874471,77.9000024928,0.35999970196000003,0.33654201076934404,1846.076816874471,77.9000024928,0.5075995797636,0.476139015236448,1024,0.0,96,GPS_Atti,
0.312134484954184,36.8829036727405,22600,2017-11-07 08:31:03,1846.076816874471,77.9000024928,0.35999970196000003,0.329533010545056,1846.076816874471,77.9000024928,0.5075995797636,0.476139015236448,1024,0.0,96,GPS_Atti,
0.312134469610985,36.8829035960016,22700,2017-11-07 08:31:03,1846.176816877671,78.00000249600001,0.5075995797636,0.320838010266816,1846.176816877671,78.00000249600001,0.5075995797636,0.476139015236448,1024,0.0,96,GPS_Atti,
0.312134460155221,36.8829035290093,22800,2017-11-07 08:31:03,1846.176816877671,78.00000249600001,0.5075995797636,0.31331501002608003,1846.176816877671,78.00000249600001,0.5075995797636,0.476139015236448,1024,0.0,96,GPS_Atti,
0.312134462685212,36.8829034653492,22900,2017-11-07 08:31:03,1846.176816877671,78.00000249600001,0.5075995797636,0.30636600980371204,1846.176816877671,78.00000249600001,0.5075995797636,0.476139015236448,1024,0.0,96,GPS_Atti,
0.312134460466661,36.8829034280974,23000,2017-11-07 08:31:04,1846.176816877671,78.00000249600001,0.35999970196000003,0.302237009671584,1846.176816877671,78.00000249600001,0.5075995797636,0.476139015236448,1024,0.0,96,GPS_Atti,
0.312134499939329,36.8829033948411,23100,2017-11-07 08:31:04,1846.176816877671,78.00000249600001,0.0,0.29932700957846403,1846.176816877671,78.00000249600001,0.5075995797636,0.476139015236448,1024,0.0,96,GPS_Atti,
0.312134571441862,36.8829033805476,23200,2017-11-07 08:31:04,1846.276816880871,78.1000024992,0.0,0.29927000957664,1846.276816880871,78.1000024992,0.5075995797636,0.476139015236448,1024,0.0,96,GPS_Atti,
0.312134680372553,36.8829033859054,23300,2017-11-07 08:31:04,1846.276816880871,78.1000024992,0.0,0.302533009681056,1846.276816880871,78.1000024992,0.5075995797636,0.476139015236448,1024,0.0,96,GPS_Atti,
0.312134791249233,36.8829034344691,23400,2017-11-07 08:31:04,1846.276816880871,78.1000024992,0.0,0.31092000994944,1846.276816880871,78.1000024992,0.5075995797636,0.476139015236448,1024,0.0,96,GPS_Atti,
0.312134935731502,36.8829035093281,23500,2017-11-07 08:31:04,1846.276816880871,78.1000024992,0.0,0.32358901035484805,1846.276816880871,78.1000024992,0.5075995797636,0.476139015236448,1024,0.0,96,GPS_Atti,
0.312135075040204,36.8829036143108,23600,2017-11-07 08:31:04,1846.276816880871,78.1000024992,0.0,0.339699010870368,1846.276816880871,78.1000024992,0.5075995797636,0.476139015236448,1024,0.0,96,GPS_Atti,
0.312135242752634,36.8829037238774,23700,2017-11-07 08:31:04,1846.276816880871,78.1000024992,0.0,0.357792011449344,1846.276816880871,78.1000024992,0.5075995797636,0.476139015236448,1024,0.0,96,GPS_Atti,
0.312135397652669,36.8829038367643,23800,2017-11-07 08:31:04,1846.276816880871,78.1000024992,0.0,0.376092012034944,1846.276816880871,78.1000024992,0.5075995797636,0.476139015236448,1024,0.0,96,GPS_Atti,
0.312135585846039,36.8829039761222,23900,2017-11-07 08:31:04,1846.276816880871,78.1000024992,0.0,0.398949012766368,1846.276816880871,78.1000024992,0.5075995797636,0.476139015236448,1024,0.0,96,GPS_Atti,
0.312135760482205,36.882904145614,24000,2017-11-07 08:31:05,1846.276816880871,78.1000024992,0.0,0.424466013582912,1846.276816880871,78.1000024992,0.5075995797636,0.476139015236448,1024,0.0,96,GPS_Atti,
0.312135950773214,36.8829043288849,24100,2017-11-07 08:31:05,1846.276816880871,78.1000024992,0.0,0.452336014474752,1846.276816880871,78.1000024992,0.5075995797636,0.476139015236448,1015,0.0,96,GPS_Atti,
0.312136100812344,36.8829045098717,24200,2017-11-07 08:31:05,1846.276816880871,78.1000024992,0.0,0.477989015295648,1846.276816880871,78.1000024992,0.5075995797636,0.477989015295648,910,0.0,96,GPS_Atti,
0.312136279757577,36.8829047040744,24300,2017-11-07 08:31:05,1846.276816880871,78.1000024992,0.0,0.5065550162097601,1846.276816880871,78.1000024992,0.5075995797636,0.5065550162097601,854,0.0,96,GPS_Atti,
0.312136629117031,36.8829050867275,24500,2017-11-07 08:31:05,1846.276816880871,78.1000024992,0.0,0.5628980180127361,1846.276816880871,78.1000024992,0.5075995797636,0.5628980180127361,850,0.0,96,GPS_Atti,
0.312136790812157,36.8829052651278,24600,2017-11-07 08:31:05,1846.276816880871,78.1000024992,0.0,0.589182018853824,1846.276816880871,78.1000024992,0.5075995797636,0.589182018853824,849,0.0,96,GPS_Atti,
0.312136987069377,36.8829054575442,24700,2017-11-07 08:31:05,1846.176816877671,78.00000249600001,0.0,0.618868019803776,1846.276816880871,78.1000024992,0.5075995797636,0.618868019803776,847,0.0,96,GPS_Atti,
0.312137159764642,36.8829056366906,24800,2017-11-07 08:31:05,1846.176816877671,78.00000249600001,0.0,0.645978020671296,1846.276816880871,78.1000024992,0.5075995797636,0.645978020671296,855,0.0,96,GPS_Atti,
0.312137346564267,36.882905818043,24900,2017-11-07 08:31:05,1846.076816874471,77.9000024928,0.0,0.6741970215743041,1846.276816880871,78.1000024992,0.5075995797636,0.6741970215743041,887,0.0,96,GPS_Atti,
0.312137501479366,36.8829059821385,25000,2017-11-07 08:31:06,1846.076816874471,77.9000024928,0.0,0.6989130223652161,1846.276816880871,78.1000024992,0.5075995797636,0.6989130223652161,1019,0.0,96,GPS_Atti,
0.312137668923305,36.8829061405064,25100,2017-11-07 08:31:06,1845.9768168712708,77.8000024896,0.0,0.723906023164992,1846.276816880871,78.1000024992,0.5075995797636,0.723906023164992,1024,0.0,96,GPS_Atti,
0.312137779722635,36.8829062630672,25200,2017-11-07 08:31:06,1845.9768168712708,77.8000024896,0.0,0.7421010237472321,1846.276816880871,78.1000024992,0.5075995797636,0.7421010237472321,1024,0.0,96,GPS_Atti,
0.312137900289779,36.8829063747915,25300,2017-11-07 08:31:06,1845.9768168712708,77.8000024896,0.0,0.7599250243176,1846.276816880871,78.1000024992,0.5075995797636,0.7599250243176,1024,0.0,96,GPS_Atti,
0.312137999705063,36.882906460479,25400,2017-11-07 08:31:06,1845.9768168712708,77.8000024896,0.0,0.7740510247696321,1846.276816880871,78.1000024992,0.5075995797636,0.7740510247696321,1024,0.0,96,GPS_Atti,
0.312138128508877,36.882906555546,25500,2017-11-07 08:31:06,1845.9768168712708,77.8000024896,0.0,0.7909280253096961,1846.276816880871,78.1000024992,0.5075995797636,0.7909280253096961,1024,0.0,96,GPS_Atti,
0.312138249196118,36.8829066485879,25600,2017-11-07 08:31:06,1845.9768168712708,77.8000024896,0.0,0.807136025828352,1846.276816880871,78.1000024992,0.5075995797636,0.807136025828352,1024,0.0,96,GPS_Atti,
0.312138415339339,36.8829067546707,25700,2017-11-07 08:31:06,1845.9768168712708,77.8000024896,0.0,0.82752002648064,1846.276816880871,78.1000024992,0.5075995797636,0.82752002648064,913,0.0,96,GPS_Atti,
0.312138572487034,36.8829068484027,25800,2017-11-07 08:31:06,1845.9768168712708,77.8000024896,0.0,0.846282027081024,1846.276816880871,78.1000024992,0.5075995797636,0.846282027081024,771,0.0,96,GPS_Atti,
0.312138752020542,36.8829069538918,25900,2017-11-07 08:31:06,1845.8768168680708,77.70000248640001,0.0,0.867663027765216,1846.276816880871,78.1000024992,0.5075995797636,0.867663027765216,797,0.0,96,GPS_Atti,
0.312138852872114,36.8829070321072,26000,2017-11-07 08:31:07,1845.8768168680708,77.70000248640001,0.0,0.8813840282042881,1846.276816880871,78.1000024992,0.5075995797636,0.8813840282042881,810,0.0,96,GPS_Atti,
0.312138980358924,36.8829071327235,26100,2017-11-07 08:31:07,1845.776816864871,77.6000024832,0.0,0.898903028764896,1846.276816880871,78.1000024992,0.5075995797636,0.898903028764896,819,0.0,96,GPS_Atti,
0.312139075029737,36.8829072363033,26200,2017-11-07 08:31:07,1845.776816864871,77.6000024832,0.0,0.9144580292626561,1846.276816880871,78.1000024992,0.5075995797636,0.9144580292626561,928,0.0,96,GPS_Atti,
0.312139165706384,36.8829073182742,26300,2017-11-07 08:31:07,1845.676816861671,77.50000248,0.0,0.927847029691104,1846.276816880871,78.1000024992,0.5075995797636,0.927847029691104,1024,0.0,96,GPS_Atti,
0.312139184114315,36.8829073487122,26400,2017-11-07 08:31:07,1845.676816861671,77.50000248,0.35999970196000003,0.931774029816768,1846.276816880871,78.1000024992,0.5075995797636,0.931774029816768,1024,0.0,96,GPS_Atti,
0.312139201315569,36.8829073789875,26500,2017-11-07 08:31:07,1845.576816858471,77.4000024768,0.35999970196000003,0.93560502993936,1846.276816880871,78.1000024992,0.5075995797636,0.93560502993936,1024,0.0,96,GPS_Atti,
0.31213917997481,36.8829073878948,26600,2017-11-07 08:31:07,1845.576816858471,77.4000024768,0.35999970196000003,0.9349300299177601,1846.276816880871,78.1000024992,0.5075995797636,0.93560502993936,1024,0.0,96,GPS_Atti,
0.31213921612871,36.8829073886962,26700,2017-11-07 08:31:07,1845.576816858471,77.4000024768,0.0,0.93747002999904,1846.276816880871,78.1000024992,0.5075995797636,0.93747002999904,1024,0.0,96,GPS_Atti,
0.312139264661226,36.8829073664247,26800,2017-11-07 08:31:07,1845.676816861671,77.50000248,0.0,0.9388580300434561,1846.276816880871,78.1000024992,0.5075995797636,0.9388580300434561,1024,0.0,96,GPS_Atti,
0.31213936461919,36.8829073510504,26900,2017-11-07 08:31:07,1845.676816861671,77.50000248,0.0,0.9444650302228801,1846.276816880871,78.1000024992,0.5075995797636,0.9444650302228801,995,0.0,96,GPS_Atti,
0.312139435547696,36.8829073375524,27000,2017-11-07 08:31:08,1845.676816861671,77.50000248,0.0,0.9482810303449921,1846.276816880871,78.1000024992,0.5075995797636,0.9482810303449921,843,0.0,96,GPS_Atti,
0.312139526975056,36.8829073394425,27100,2017-11-07 08:31:08,1845.576816858471,77.4000024768,0.0,0.9549240305575681,1846.276816880871,78.1000024992,0.5075995797636,0.9549240305575681,804,0.0,96,GPS_Atti,
0.312139563492913,36.8829073345151,27200,2017-11-07 08:31:08,1845.576816858471,77.4000024768,0.0,0.9571100306275201,1846.276816880871,78.1000024992,0.5075995797636,0.9571100306275201,805,0.0,96,GPS_Atti,
0.312139615980105,36.8829073309099,27300,2017-11-07 08:31:08,1845.576816858471,77.4000024768,0.0,0.96057003073824,1846.276816880871,78.1000024992,0.5075995797636,0.96057003073824,804,0.0,96,GPS_Atti,
0.312139631613982,36.8829073285385,27400,2017-11-07 08:31:08,1845.476816855271,77.3000024736,0.0,0.96149503076784,1846.276816880871,78.1000024992,0.5075995797636,0.96149503076784,796,0.0,96,GPS_Atti,
0.312139670101442,36.8829073393264,27500,2017-11-07 08:31:08,1845.376816852071,77.20000247040001,0.0,0.965186030885952,1846.276816880871,78.1000024992,0.5075995797636,0.965186030885952,795,0.0,96,GPS_Atti,
0.312139673455222,36.8829073295519,27600,2017-11-07 08:31:08,1845.376816852071,77.20000247040001,0.35999970196000003,0.964603030867296,1846.276816880871,78.1000024992,0.5075995797636,0.965186030885952,794,0.0,96,GPS_Atti,
0.312139667626207,36.8829073071278,27700,2017-11-07 08:31:08,1845.276816848871,77.1000024672,0.35999970196000003,0.962289030793248,1846.276816880871,78.1000024992,0.5075995797636,0.965186030885952,788,0.0,96,GPS_Atti,
0.312139593777086,36.8829072581562,27800,2017-11-07 08:31:08,1845.1768168456708,77.000002464,0.35999970196000003,0.9528100304899201,1846.276816880871,78.1000024992,0.5075995797636,0.965186030885952,779,0.0,96,GPS_Atti,
0.312139528688993,36.882907200909,27900,2017-11-07 08:31:08,1845.1768168456708,77.000002464,0.7199994039200001,0.9432680301845761,1846.276816880871,78.1000024992,0.7199994039200001,0.965186030885952,890,0.0,96,GPS_Atti,
0.312139446624372,36.8829071363122,28000,2017-11-07 08:31:09,1845.1768168456708,77.000002464,0.35999970196000003,0.9318840298202881,1846.276816880871,78.1000024992,0.7199994039200001,0.965186030885952,1024,0.0,96,GPS_Atti,
0.312139404383349,36.8829070714503,28100,2017-11-07 08:31:09,1845.0768168424709,76.9000024608,0.35999970196000003,0.9233460295470721,1846.276816880871,78.1000024992,0.7199994039200001,0.965186030885952,1024,0.0,96,GPS_Atti,
0.312139372976364,36.8829070206716,28200,2017-11-07 08:31:09,1844.9768168392711,76.8000024576,0.35999970196000003,0.9167820293370241,1846.276816880871,78.1000024992,0.7199994039200001,0.965186030885952,1024,0.0,96,GPS_Atti,
0.312139414395837,36.8829069651534,28300,2017-11-07 08:31:09,1844.9768168392711,76.8000024576,0.35999970196000003,0.9151000292832001,1846.276816880871,78.1000024992,0.7199994039200001,0.965186030885952,1024,0.0,96,GPS_Atti,
0.31213945930588,36.8829068953594,28400,2017-11-07 08:31:09,1844.9768168392711,76.8000024576,0.35999970196000003,0.9125460292014721,1846.276816880871,78.1000024992,0.7199994039200001,0.965186030885952,1024,0.0,95,GPS_Atti,
0.312139578755504,36.8829068372187,28500,2017-11-07 08:31:09,1844.9768168392711,76.8000024576,0.0,0.91660502933136,1846.276816880871,78.1000024992,0.7199994039200001,0.965186030885952,1024,0.0,95,GPS_Atti,
0.312139686834518,36.88290679792,28600,2017-11-07 08:31:09,1844.9768168392711,76.8000024576,0.0,0.9215460294894721,1846.276816880871,78.1000024992,0.7199994039200001,0.965186030885952,1024,0.0,95,GPS_Atti,
0.312139832843249,36.8829067798511,28700,2017-11-07 08:31:09,1844.9768168392711,76.8000024576,0.0,0.9312630298004161,1846.276816880871,78.1000024992,0.7199994039200001,0.965186030885952,1024,0.0,95,GPS_Atti,
0.312139919322582,36.882906774079,28800,2017-11-07 08:31:09,1844.9768168392711,76.8000024576,0.0,0.9374970299999041,1846.276816880871,78.1000024992,0.7199994039200001,0.965186030885952,1024,0.0,95,GPS_Atti,
0.312139992612333,36.8829067715947,28900,2017-11-07 08:31:09,1844.9768168392711,76.8000024576,0.0,0.94301503017648,1846.276816880871,78.1000024992,0.7199994039200001,0.965186030885952,1024,0.0,95,GPS_Atti,
0.312139989167359,36.8829067663386,29000,2017-11-07 08:31:10,1844.9768168392711,76.8000024576,0.35999970196000003,0.9423300301545601,1846.276816880871,78.1000024992,0.7199994039200001,0.965186030885952,1024,0.0,95,GPS_Atti,
0.312139992413662,36.8829067496058,29100,2017-11-07 08:31:10,1844.9768168392711,76.8000024576,0.35999970196000003,0.941263030120416,1846.276816880871,78.1000024992,0.7199994039200001,0.965186030885952,1024,0.0,95,GPS_Atti,
0.312139969303599,36.882906718041,29200,2017-11-07 08:31:10,1844.8768168360712,76.7000024544,0.35999970196000003,0.936962029982784,1846.276816880871,78.1000024992,0.7199994039200001,0.965186030885952,1024,0.0,95,GPS_Atti,
0.312139945618696,36.8829066575054,29300,2017-11-07 08:31:10,1844.8768168360712,76.7000024544,0.35999970196000003,0.930337029770784,1846.276816880871,78.1000024992,0.7199994039200001,0.965186030885952,1024,0.0,95,GPS_Atti,
0.312139869226759,36.8829065889474,29400,2017-11-07 08:31:10,1844.8768168360712,76.7000024544,0.35999970196000003,0.9189390294060481,1846.276816880871,78.1000024992,0.7199994039200001,0.965186030885952,845,0.0,95,GPS_Atti,
0.312139799592866,36.8829065093682,29500,2017-11-07 08:31:10,1844.8768168360712,76.7000024544,0.35999970196000003,0.9072060290305921,1846.276816880871,78.1000024992,0.7199994039200001,0.965186030885952,800,0.0,95,GPS_Atti,
0.31213971233188,36.8829064422993,29600,2017-11-07 08:31:10,1844.8768168360712,76.7000024544,0.35999970196000003,0.8950700286422401,1846.276816880871,78.1000024992,0.7199994039200001,0.965186030885952,879,0.0,95,GPS_Atti,
0.312139650472178,36.8829063764686,29700,2017-11-07 08:31:10,1844.776816832871,76.6000024512,0.35999970196000003,0.8850290283209281,1846.276816880871,78.1000024992,0.7199994039200001,0.965186030885952,979,0.0,95,GPS_Atti,
0.312139574374176,36.882906343071,29800,2017-11-07 08:31:10,1844.676816829671,76.500002448,0.35999970196000003,0.876428028045696,1846.276816880871,78.1000024992,0.7199994039200001,0.965186030885952,991,0.0,95,GPS_Atti,
