latitude,longitude,time_millisecond,datetime_utc,altitude_m,ascent_m,speed_kph,distance_m,max_altitude_m,max_ascent_m,max_speed_kph,max_distance_m,rc_throttle,gimbal_pitch_degrees,battery_percent,flycState,message
0.359801264423224,36.8939980972101,100,2017-11-07 06:34:33,1761.0040846521376,0.0,0.0,0.0,1761.0040846521376,0.0,0.0,0.0,1024,0.0,99,Motors_Started,
0.3598013408452871,36.893998270861104,200,2017-11-07 06:34:33,1761.0040846521376,0.0,0.0,0.021098100675139203,1761.0040846521376,0.0,0.0,0.021098100675139203,1024,0.0,99,Motors_Started,
0.359801407786548,36.8939984858222,300,2017-11-07 06:34:33,1761.0040846521376,0.0,0.0,0.046062201473990406,1761.0040846521376,0.0,0.0,0.046062201473990406,1024,0.0,99,Motors_Started,Setting new Return-To-Home altitude to 30m (98 ft). Setting new Maximum Flight Altitude to 100m (328 ft)
0.35980148664313505,36.8939986601841,400,2017-11-07 06:34:33,1761.0040846521376,0.0,0.0,0.06730580215378561,1761.0040846521376,0.0,0.0,0.06730580215378561,1024,0.0,99,Motors_Started,
0.3598015732258739,36.8939988595059,500,2017-11-07 06:34:33,1761.0040846521376,0.0,0.0,0.0914619029267808,1761.0040846521376,0.0,0.0,0.0914619029267808,1024,0.0,99,Motors_Started,
0.35980165662826097,36.8939990097237,600,2017-11-07 06:34:33,1761.0040846521376,0.0,0.0,0.110451003534432,1761.0040846521376,0.0,0.0,0.110451003534432,1024,0.0,99,Motors_Started,
0.359801727590151,36.8939991871796,700,2017-11-07 06:34:33,1761.0040846521376,0.0,0.0,0.13169900421436803,1761.0040846521376,0.0,0.0,0.13169900421436803,1024,0.0,99,Motors_Started,
0.35980178995304296,36.8939993278926,800,2017-11-07 06:34:33,1761.0040846521376,0.0,0.0,0.14881300476201598,1761.0040846521376,0.0,0.0,0.14881300476201598,1024,0.0,99,Motors_Started,
0.35980184714399605,36.893999486994204,900,2017-11-07 06:34:34,1761.0040846521376,0.0,0.0,0.16758500536272003,1761.0040846521376,0.0,0.0,0.16758500536272003,1024,0.0,99,Motors_Started,
0.35980191349168894,36.8939996359144,1000,2017-11-07 06:34:34,1761.0040846521376,0.0,0.0,0.185711005942752,1761.0040846521376,0.0,0.0,0.185711005942752,1024,0.0,99,Motors_Started,
0.359801993498772,36.89399982459229,1100,2017-11-07 06:34:34,1761.0040846521376,0.0,0.0,0.20850100667203197,1761.0040846521376,0.0,0.0,0.20850100667203197,1024,0.0,99,Motors_Started,
0.3598020679382029,36.8939999840322,1200,2017-11-07 06:34:34,1761.0040846521376,0.0,0.0,0.228056007297792,1761.0040846521376,0.0,0.0,0.228056007297792,1024,0.0,99,Motors_Started,
0.35980213215670703,36.8940001359865,1300,2017-11-07 06:34:34,1761.0040846521376,0.0,0.0,0.24640100788483202,1761.0040846521376,0.0,0.0,0.24640100788483202,397,0.0,99,Motors_Started,
0.359802205167993,36.8940002556836,1400,2017-11-07 06:34:34,1761.0040846521376,0.0,0.0,0.26183800837881605,1761.0040846521376,0.0,0.0,0.26183800837881605,686,0.0,99,Motors_Started,
0.3598022891183521,36.894000391489,1500,2017-11-07 06:34:34,1761.0040846521376,0.0,0.0,0.279424008941568,1761.0040846521376,0.0,0.0,0.279424008941568,809,0.0,99,Assisted_Takeoff,
0.359802367480706,36.8940005225516,1600,2017-11-07 06:34:34,1761.0040846521376,0.0,0.0,0.296292009481344,1761.0040846521376,0.0,0.0,0.296292009481344,1024,0.0,99,Assisted_Takeoff,
0.359802435246775,36.8940006788247,1700,2017-11-07 06:34:34,1761.0040846521376,0.0,0.0,0.315232010087424,1761.0040846521376,0.0,0.0,0.315232010087424,1024,0.0,99,Assisted_Takeoff,
0.359802494602744,36.8940008199552,1800,2017-11-07 06:34:34,1761.0040846521376,0.0,0.0,0.332251010632032,1761.0040846521376,0.0,0.0,0.332251010632032,1024,0.0,99,Assisted_Takeoff,
0.35980254999345207,36.8940009618266,1900,2017-11-07 06:34:35,1761.0040846521376,0.0,0.0,0.349166011173312,1761.0040846521376,0.0,0.0,0.349166011173312,1024,0.0,99,Assisted_Takeoff,
0.359802612892916,36.89400109012279,2000,2017-11-07 06:34:35,1761.0040846521376,0.0,0.0,0.365047011681504,1761.0040846521376,0.0,0.0,0.365047011681504,1024,0.0,99,Assisted_Takeoff,
0.359802691991326,36.894001226403496,2100,2017-11-07 06:34:35,1761.0040846521376,0.0,0.0,0.38248101223939207,1761.0040846521376,0.0,0.0,0.38248101223939207,1024,0.0,99,Assisted_Takeoff,
0.359802765301432,36.8940013363432,2200,2017-11-07 06:34:35,1761.0040846521376,0.0,0.0,0.39699501270384,1761.0040846521376,0.0,0.0,0.39699501270384,1024,0.0,99,Assisted_Takeoff,
0.359802829760945,36.894001440090605,2300,2017-11-07 06:34:35,1761.0040846521376,0.0,0.0,0.41048001313536,1761.0040846521376,0.0,0.0,0.41048001313536,1024,0.0,99,Assisted_Takeoff,
0.359802886331461,36.8940015341534,2400,2017-11-07 06:34:35,1761.0040846521376,0.0,0.0,0.4226230135239361,1761.0040846521376,0.0,0.0,0.4226230135239361,1024,0.0,99,Assisted_Takeoff,
0.35980294076383,36.894001648763,2500,2017-11-07 06:34:35,1761.0040846521376,0.0,0.0,0.43673201397542405,1761.0040846521376,0.0,0.0,0.43673201397542405,1024,0.0,99,Assisted_Takeoff,
0.359803003698305,36.8940017446394,2600,2017-11-07 06:34:35,1761.0040846521376,0.0,0.0,0.44936501437967996,1761.0040846521376,0.0,0.0,0.44936501437967996,1024,0.0,99,Assisted_Takeoff,
0.35980308230574,36.8940018423786,2700,2017-11-07 06:34:35,1761.0040846521376,0.0,0.0,0.462949014814368,1761.0040846521376,0.0,0.0,0.462949014814368,1099,0.0,99,Assisted_Takeoff,
0.35980315540252,36.8940019405417,2800,2017-11-07 06:34:35,1761.0040846521376,0.0,0.0,0.47632601524243207,1761.0040846521376,0.0,0.0,0.47632601524243207,1170,0.0,99,Assisted_Takeoff,
0.35980321865779796,36.8940020551642,2900,2017-11-07 06:34:36,1761.0040846521376,0.0,0.0,0.490869015707808,1761.0040846521376,0.0,0.0,0.490869015707808,1249,0.0,99,Assisted_Takeoff,
0.359803292139705,36.8940021599308,3000,2017-11-07 06:34:36,1761.0040846521376,0.0,0.0,0.504938016158016,1761.0040846521376,0.0,0.0,0.504938016158016,1272,0.0,99,Assisted_Takeoff,
0.359803376649435,36.894002261188,3100,2017-11-07 06:34:36,1761.0040846521376,0.0,0.0,0.519221016615072,1761.0040846521376,0.0,0.0,0.519221016615072,1302,0.0,99,Assisted_Takeoff,
0.359803456874728,36.8940023537861,3200,2017-11-07 06:34:36,1761.0040846521376,0.0,0.0,0.5324500170384001,1761.0040846521376,0.0,0.0,0.5324500170384001,1362,0.0,99,Assisted_Takeoff,
0.35980352628552503,36.89400244762621,3300,2017-11-07 06:34:36,1761.0040846521376,0.0,0.0,0.545266017448512,1761.0040846521376,0.0,0.0,0.545266017448512,1447,0.0,99,Assisted_Takeoff,
0.359803590496701,36.8940025328736,3400,2017-11-07 06:34:36,1761.0040846521376,0.0,0.0,0.556974017823168,1761.0040846521376,0.0,0.0,0.556974017823168,1486,0.0,99,Assisted_Takeoff,
0.35980365604482795,36.894002609444996,3500,2017-11-07 06:34:36,1761.0040846521376,0.0,0.0,0.567906018172992,1761.0040846521376,0.0,0.0,0.567906018172992,1499,0.0,99,Assisted_Takeoff,
0.35980368843295096,36.894002679036,3600,2017-11-07 06:34:36,1761.0040846521376,0.0,0.0,0.5764310184457921,1761.0040846521376,0.0,0.0,0.5764310184457921,1499,0.0,99,GPS_Atti,Obstacle Avoided. Revise Flight Route
0.359803681419243,36.894002743087704,3700,2017-11-07 06:34:36,1761.0040846521376,0.0,0.0,0.5823760186360322,1761.0040846521376,0.0,0.0,0.5823760186360322,1496,0.0,99,GPS_Atti,
0.359803654349618,36.894002848907796,3900,2017-11-07 06:34:37,1761.2040846585376,0.20000000640000004,0.0,0.5914810189273921,1761.2040846585376,0.20000000640000004,0.0,0.5914810189273921,1494,0.0,99,GPS_Atti,Obstacle Avoided. Revise Flight Route
0.359803653159226,36.89400287347161,4000,2017-11-07 06:34:37,1761.4040846649375,0.4000000128000001,0.0,0.5938640190036479,1761.4040846649375,0.4000000128000001,0.0,0.5938640190036479,1494,0.0,99,GPS_Atti,
0.359803663794593,36.8940028688359,4100,2017-11-07 06:34:37,1761.6040846713377,0.6000000192,0.0,0.593933019005856,1761.6040846713377,0.6000000192,0.0,0.593933019005856,1499,0.0,99,GPS_Atti,
0.359803684203882,36.8940028670202,4200,2017-11-07 06:34:37,1761.8040846777376,0.8000000256000002,0.0,0.5947760190328321,1761.8040846777376,0.8000000256000002,0.0,0.5947760190328321,1484,0.0,99,GPS_Atti,
0.359803727023817,36.8940028721483,4300,2017-11-07 06:34:37,1762.0040846841378,1.000000032,0.0,0.597452019118464,1762.0040846841378,1.000000032,0.0,0.597452019118464,1484,0.0,99,GPS_Atti,
0.359803782241096,36.8940028982452,4400,2017-11-07 06:34:37,1762.3040846937374,1.3000000416000002,0.0,0.602861019291552,1762.3040846937374,1.3000000416000002,0.0,0.602861019291552,1489,0.0,99,GPS_Atti,Home Point Recorded. RTH Altitude:  30m.
0.35980384576181107,36.8940029507516,4500,2017-11-07 06:34:37,1762.7040847065375,1.7000000544000002,0.0,0.611323019562336,1762.7040847065375,1.7000000544000002,0.0,0.611323019562336,1490,0.0,99,GPS_Atti,
0.3598039149315979,36.894003003879,4600,2017-11-07 06:34:37,1763.0040847161376,2.000000064,0.0,0.6201640198452479,1763.0040847161376,2.000000064,0.0,0.6201640198452479,1496,0.0,99,GPS_Atti,
0.359804003401704,36.89400303118779,4700,2017-11-07 06:34:37,1763.3040847257375,2.3000000736,0.0,0.6275530200816961,1763.3040847257375,2.3000000736,0.0,0.6275530200816961,1496,0.0,99,GPS_Atti,
0.35980410505406296,36.8940030360184,4800,2017-11-07 06:34:37,1763.6040847353377,2.6000000832000003,0.0,0.633583020274656,1763.6040847353377,2.6000000832000003,0.0,0.633583020274656,1499,0.0,99,GPS_Atti,
0.35980420065186797,36.8940030239506,4900,2017-11-07 06:34:38,1764.0040847481378,3.0000000960000004,0.0,0.6377960204094721,1764.0040847481378,3.0000000960000004,0.0,0.6377960204094721,1507,0.0,99,GPS_Atti,
0.359804278579427,36.89400299623279,5000,2017-11-07 06:34:38,1764.3040847577377,3.3000001056,0.0,0.639649020468768,1764.3040847577377,3.3000001056,0.0,0.639649020468768,1513,0.0,99,GPS_Atti,
0.359804350322156,36.89400297593421,5100,2017-11-07 06:34:38,1764.6040847673376,3.6000001152000003,0.0,0.6419570205426239,1764.6040847673376,3.6000001152000003,0.0,0.6419570205426239,1519,0.0,99,GPS_Atti,
0.359804415564136,36.894002989548,5200,2017-11-07 06:34:38,1765.0040847801374,4.000000128,0.0,0.647137020708384,1765.0040847801374,4.000000128,0.0,0.647137020708384,1526,0.0,99,GPS_Atti,
0.35980447059251597,36.8940030280895,5300,2017-11-07 06:34:38,1765.3040847897375,4.3000001376,0.0,0.65406002092992,1765.3040847897375,4.3000001376,0.0,0.65406002092992,1525,0.0,99,GPS_Atti,
0.35980449995498903,36.894003073504294,5400,2017-11-07 06:34:38,1765.6040847993377,4.6000001472,0.0,0.660073021122336,1765.6040847993377,4.6000001472,0.0,0.660073021122336,1545,0.0,99,GPS_Atti,
0.359804524593347,36.8940031025582,5500,2017-11-07 06:34:38,1765.9040848089376,4.9000001568,0.0,0.6642760212568322,1765.9040848089376,4.9000001568,0.0,0.6642760212568322,1569,0.0,99,GPS_Atti,
0.359804545733807,36.8940031498572,5600,2017-11-07 06:34:38,1766.3040848217377,5.3000001696,0.0,0.669967021438944,1766.3040848217377,5.3000001696,0.0,0.669967021438944,1588,0.0,99,GPS_Atti,
0.359804563272149,36.894003200368,5700,2017-11-07 06:34:38,1766.6040848313378,5.600000179200001,0.0,0.6757410216237121,1766.6040848313378,5.600000179200001,0.0,0.6757410216237121,1626,0.0,99,GPS_Atti,
0.35980459858170005,36.8940032613707,5800,2017-11-07 06:34:38,1767.0040848441377,6.000000192000001,0.0,0.68357002187424,1767.0040848441377,6.000000192000001,0.0,0.68357002187424,1666,0.0,99,GPS_Atti,
0.359804659306377,36.8940033061388,5900,2017-11-07 06:34:39,1767.3040848537375,6.300000201600001,0.0,0.6914220221255041,1767.3040848537375,6.300000201600001,0.0,0.6914220221255041,1684,0.0,99,GPS_Atti,
0.359804708579835,36.8940033520568,6000,2017-11-07 06:34:39,1767.7040848665374,6.7000002144,0.0,0.698694022358208,1767.7040848665374,6.7000002144,0.0,0.698694022358208,1684,0.0,99,GPS_Atti,
0.35980474324615097,36.894003402597605,6100,2017-11-07 06:34:39,1768.2040848825377,7.200000230400001,0.0,0.7055080225762561,1768.2040848825377,7.200000230400001,0.0,0.7055080225762561,1684,0.0,99,GPS_Atti,
0.35980478431225205,36.894003480560706,6200,2017-11-07 06:34:39,1768.6040848953376,7.600000243199999,0.0,0.715263022888416,1768.6040848953376,7.600000243199999,0.0,0.715263022888416,1684,0.0,99,GPS_Atti,
0.359804835603352,36.894003563283604,6300,2017-11-07 06:34:39,1769.1040849113376,8.1000002592,0.0,0.7260840232346879,1769.1040849113376,8.1000002592,0.0,0.7260840232346879,1684,0.0,99,GPS_Atti,
0.359804869543382,36.894003661596706,6400,2017-11-07 06:34:39,1769.6040849273375,8.6000002752,0.0,0.7373060235937922,1769.6040849273375,8.6000002752,0.0,0.7373060235937922,1684,0.0,99,GPS_Atti,
0.359804891128407,36.894003756676504,6500,2017-11-07 06:34:39,1770.1040849433377,9.1000002912,0.0,0.7474940239198079,1770.1040849433377,9.1000002912,0.0,0.7474940239198079,1684,0.0,99,GPS_Atti,
0.359804908155418,36.894003858616706,6600,2017-11-07 06:34:39,1770.6040849593376,9.6000003072,0.0,0.7580740242583681,1770.6040849593376,9.6000003072,0.0,0.7580740242583681,1684,0.0,99,GPS_Atti,
0.35980493962509796,36.8940039494419,6700,2017-11-07 06:34:39,1771.1040849753376,10.100000323200002,0.0,0.7684850245915201,1771.1040849753376,10.100000323200002,0.0,0.7684850245915201,1684,0.0,99,GPS_Atti,
0.359804963757009,36.894004032229205,6800,2017-11-07 06:34:39,1771.6040849913377,10.6000003392,0.0,0.777713024886816,1771.6040849913377,10.6000003392,0.0,0.777713024886816,1684,0.0,99,GPS_Atti,
0.35980498326251203,36.8940040835793,6900,2017-11-07 06:34:40,1772.1040850073375,11.1000003552,0.0,0.783707025078624,1772.1040850073375,11.1000003552,0.0,0.783707025078624,1684,0.0,99,GPS_Atti,
0.35980499148452505,36.8940041120144,7000,2017-11-07 06:34:40,1772.6040850233376,11.6000003712,0.0,0.7868760251800322,1772.6040850233376,11.6000003712,0.0,0.7868760251800322,1684,0.0,99,GPS_Atti,
0.35980498820809603,36.894004133893205,7100,2017-11-07 06:34:40,1773.1040850393376,12.1000003872,0.0,0.788754025240128,1773.1040850393376,12.1000003872,0.0,0.788754025240128,1684,0.0,99,GPS_Atti,
0.359804946923784,36.8940041657649,7200,2017-11-07 06:34:40,1773.6040850553377,12.600000403200003,0.0,0.789381025260192,1773.6040850553377,12.600000403200003,0.0,0.789381025260192,1684,0.0,99,GPS_Atti,
0.359804907295599,36.894004196214794,7300,2017-11-07 06:34:40,1774.1040850713375,13.100000419199999,0.0,0.7900090252802879,1774.1040850713375,13.100000419199999,0.0,0.7900090252802879,1684,0.0,99,GPS_Atti,
0.35980490280597904,36.8940041961955,7400,2017-11-07 06:34:40,1774.6040850873376,13.600000435200002,0.0,0.7897510252720321,1774.6040850873376,13.600000435200002,0.0,0.7900090252802879,1684,0.0,99,GPS_Atti,
0.35980494167693705,36.894004167036705,7500,2017-11-07 06:34:40,1775.1040851033376,14.100000451200001,0.0,0.7891990252543679,1775.1040851033376,14.100000451200001,0.0,0.7900090252802879,1684,0.0,99,GPS_Atti,
0.35980497399992206,36.8940041199326,7600,2017-11-07 06:34:40,1775.6040851193377,14.600000467200001,0.0,0.7866030251712961,1775.6040851193377,14.600000467200001,0.0,0.7900090252802879,1684,0.0,99,GPS_Atti,
0.35980498820809603,36.894004077575396,7700,2017-11-07 06:34:40,1776.1040851353375,15.100000483200002,0.0,0.7834300250697601,1776.1040851353375,15.100000483200002,0.0,0.7900090252802879,1684,0.0,99,GPS_Atti,
0.359804986047151,36.8940040338736,7800,2017-11-07 06:34:40,1776.6040851513376,15.6000004992,0.0,0.779182024933824,1776.6040851513376,15.6000004992,0.0,0.7900090252802879,1684,0.0,99,GPS_Atti,
0.35980497971738895,36.8940040002932,7900,2017-11-07 06:34:41,1777.1040851673376,16.1000005152,0.0,0.77564502482064,1777.1040851673376,16.1000005152,0.0,0.7900090252802879,1684,0.0,99,GPS_Atti,
0.359804970155166,36.89400395682271,8000,2017-11-07 06:34:41,1777.6040851833375,16.6000005312,0.0,0.7709890246716479,1777.6040851833375,16.6000005312,0.0,0.7900090252802879,1684,0.0,99,GPS_Atti,
0.35980495973149607,36.894003902068,8100,2017-11-07 06:34:41,1778.1040851993378,17.1000005472,0.0,0.765227024487264,1778.1040851993378,17.1000005472,0.0,0.7900090252802879,1684,0.0,99,GPS_Atti,
0.35980494283801795,36.8940038639889,8200,2017-11-07 06:34:41,1778.6040852153376,17.6000005632,0.0,0.7606460243406722,1778.6040852153376,17.6000005632,0.0,0.7900090252802879,1684,0.0,99,GPS_Atti,
0.359804934749537,36.8940038547861,8300,2017-11-07 06:34:41,1779.1040852313376,18.100000579200003,0.0,0.7593000242976,1779.1040852313376,18.100000579200003,0.0,0.7900090252802879,1684,0.0,99,GPS_Atti,
0.35980491045152396,36.8940038635992,8400,2017-11-07 06:34:41,1779.6040852473377,18.6000005952,0.0,0.758679024277728,1779.6040852473377,18.6000005952,0.0,0.7900090252802879,1684,0.0,99,GPS_Atti,
0.359804879766753,36.8940038819129,8500,2017-11-07 06:34:41,1780.1040852633378,19.1000006112,0.0,0.7585870242747841,1780.1040852633378,19.1000006112,0.0,0.7900090252802879,1684,0.0,99,GPS_Atti,
0.35980483795482504,36.8940039193068,8600,2017-11-07 06:34:41,1780.6040852793376,19.6000006272,0.0,0.759674024309568,1780.6040852793376,19.6000006272,0.0,0.7900090252802879,1684,0.0,99,GPS_Atti,
0.35980480996513003,36.89400397146839,8700,2017-11-07 06:34:41,1781.1040852953374,20.1000006432,0.0,0.7630100244163202,1781.1040852953374,20.1000006432,0.0,0.7900090252802879,1684,0.0,99,GPS_Atti,
0.359804778896047,36.894004032599604,8800,2017-11-07 06:34:41,1781.6040853113377,20.600000659200003,0.0,0.767072024546304,1781.6040853113377,20.600000659200003,0.0,0.7900090252802879,1684,0.0,99,GPS_Atti,
0.35980475846396,36.894004093589395,8900,2017-11-07 06:34:42,1782.2040853305375,21.2000006784,0.0,0.771769024696608,1782.2040853305375,21.2000006784,0.0,0.7900090252802879,1684,0.0,99,GPS_Atti,
0.359804748760062,36.894004155834,9000,2017-11-07 06:34:42,1782.7040853465378,21.700000694400003,0.0,0.777219024871008,1782.7040853465378,21.700000694400003,0.0,0.7900090252802879,1684,0.0,99,GPS_Atti,
0.35980475875382295,36.8940042058052,9100,2017-11-07 06:34:42,1783.2040853625376,22.2000007104,0.0,0.782592025042944,1783.2040853625376,22.2000007104,0.0,0.7900090252802879,1684,0.0,99,GPS_Atti,
0.359804760784493,36.8940042557379,9200,2017-11-07 06:34:42,1783.7040853785375,22.700000726400003,0.0,0.7875290252009279,1783.7040853785375,22.700000726400003,0.0,0.7900090252802879,1684,0.0,99,GPS_Atti,
0.359804768706873,36.8940043086769,9300,2017-11-07 06:34:42,1784.2040853945377,23.2000007424,0.0,0.7930860253787522,1784.2040853945377,23.2000007424,0.0,0.7930860253787522,1684,0.0,99,GPS_Atti,
0.359804794835257,36.894004357975795,9400,2017-11-07 06:34:42,1784.7040854105376,23.700000758399998,0.0,0.7992880255772161,1784.7040854105376,23.700000758399998,0.0,0.7992880255772161,1684,0.0,99,GPS_Atti,
0.359804835065966,36.8940043982624,9500,2017-11-07 06:34:42,1785.3040854297376,24.3000007776,0.0,0.8053900257724801,1785.3040854297376,24.3000007776,0.0,0.8053900257724801,1684,0.0,99,GPS_Atti,
0.35980485512351,36.8940044370159,9600,2017-11-07 06:34:42,1785.8040854457377,24.8000007936,0.0,0.8102390259276481,1785.8040854457377,24.8000007936,0.0,0.8102390259276481,1684,0.0,99,GPS_Atti,
0.35980484359901205,36.8940044825056,9700,2017-11-07 06:34:42,1786.3040854617377,25.3000008096,0.0,0.814017026048544,1786.3040854617377,25.3000008096,0.0,0.814017026048544,1684,0.0,99,GPS_Atti,
0.359804811420959,36.8940045329672,9800,2017-11-07 06:34:42,1786.8040854777375,25.800000825599998,0.0,0.817183026149856,1786.8040854777375,25.800000825599998,0.0,0.817183026149856,1684,0.0,99,GPS_Atti,
0.359804776376844,36.894004600455496,9900,2017-11-07 06:34:43,1787.3040854937376,26.300000841600003,0.0,0.82190502630096,1787.3040854937376,26.300000841600003,0.0,0.82190502630096,1684,0.0,99,GPS_Atti,
0.35980473016974607,36.8940046624068,10000,2017-11-07 06:34:43,1787.8040855097377,26.8000008576,0.0,0.825562026417984,1787.8040855097377,26.8000008576,0.0,0.825562026417984,1684,0.0,99,GPS_Atti,
0.359804678766282,36.8940047037083,10100,2017-11-07 06:34:43,1788.4040855289377,27.4000008768,0.0,0.826986026463552,1788.4040855289377,27.4000008768,0.0,0.826986026463552,1684,0.0,99,GPS_Atti,
0.35980462380955397,36.89400475788911,10200,2017-11-07 06:34:43,1788.9040855449377,27.9000008928,0.0,0.8295730265463361,1788.9040855449377,27.9000008928,0.0,0.8295730265463361,1684,0.0,99,GPS_Atti,
0.359804583505565,36.894004823384,10300,2017-11-07 06:34:43,1789.4040855609376,28.400000908800006,0.0,0.8340900266908801,1789.4040855609376,28.400000908800006,0.0,0.8340900266908801,1684,0.0,99,GPS_Atti,
0.359804539594573,36.894004901674705,10400,2017-11-07 06:34:43,1790.0040855801376,29.000000928,0.0,0.8397770268728642,1790.0040855801376,29.000000928,0.0,0.8397770268728642,1684,0.0,99,GPS_Atti,
0.359804504260595,36.894004978154,10500,2017-11-07 06:34:43,1790.5040855961377,29.500000944,0.0,0.8457670270645439,1790.5040855961377,29.500000944,0.0,0.8457670270645439,1684,0.0,99,GPS_Atti,
0.35980447707860796,36.894005073908296,10600,2017-11-07 06:34:43,1791.0040856121375,30.00000096,0.0,0.8541440273326079,1791.0040856121375,30.00000096,0.0,0.8541440273326079,1684,0.0,99,GPS_Atti,
0.35980447440958796,36.894005166515,10700,2017-11-07 06:34:43,1791.5040856281378,30.500000976,0.0,0.8633860276283521,1791.5040856281378,30.500000976,0.0,0.8633860276283521,1684,0.0,99,GPS_Atti,
0.359804462725503,36.8940052748381,10800,2017-11-07 06:34:43,1792.1040856473376,31.100000995200002,0.0,0.8738380279628161,1792.1040856473376,31.100000995200002,0.0,0.8738380279628161,1684,0.0,99,GPS_Atti,
0.35980444161923997,36.8940053878076,10900,2017-11-07 06:34:44,1792.6040856633379,31.6000010112,0.0,0.8843880283004161,1792.6040856633379,31.6000010112,0.0,0.8843880283004161,1684,0.0,99,GPS_Atti,
0.359804416088495,36.8940055191101,11000,2017-11-07 06:34:44,1793.1040856793377,32.1000010272,0.0,0.8966790286937281,1793.1040856793377,32.1000010272,0.0,0.8966790286937281,1684,0.0,99,GPS_Atti,
0.35980439638269396,36.8940056366639,11100,2017-11-07 06:34:44,1793.6040856953375,32.6000010432,0.0,0.907882029052224,1793.6040856953375,32.6000010432,0.0,0.907882029052224,1684,0.0,99,GPS_Atti,
0.35980436102429,36.894005754329,11200,2017-11-07 06:34:44,1794.1040857113376,33.100001059200004,0.0,0.9184980293919361,1794.1040857113376,33.100001059200004,0.0,0.9184980293919361,1684,0.0,99,GPS_Atti,
0.359804318451878,36.8940058634315,11300,2017-11-07 06:34:44,1794.7040857305376,33.70000107840001,0.0,0.928014029696448,1794.7040857305376,33.70000107840001,0.0,0.928014029696448,1684,0.0,99,GPS_Atti,
0.359804262684185,36.8940060060459,11400,2017-11-07 06:34:44,1795.2040857465374,34.2000010944,0.0,0.9405750300984,1795.2040857465374,34.2000010944,0.0,0.9405750300984,1684,0.0,99,GPS_Atti,
0.359804214102815,36.894006149780104,11500,2017-11-07 06:34:44,1795.7040857625377,34.7000011104,0.0,0.953666030517312,1795.7040857625377,34.7000011104,0.0,0.953666030517312,1684,0.0,99,GPS_Atti,
0.359804176008625,36.894006304085394,11600,2017-11-07 06:34:44,1796.2040857785375,35.2000011264,0.0,0.9683710309878722,1796.2040857785375,35.2000011264,0.0,0.9683710309878722,1684,0.0,99,GPS_Atti,
0.35980416935480297,36.8940064359039,11700,2017-11-07 06:34:44,1796.8040857977376,35.8000011456,0.0,0.9819550314225601,1796.8040857977376,35.8000011456,0.0,0.9819550314225601,1684,0.0,99,GPS_Atti,
0.359804170623361,36.8940065816166,11800,2017-11-07 06:34:44,1797.3040858137376,36.3000011616,0.0,0.9973170319141441,1797.3040858137376,36.3000011616,0.0,0.9973170319141441,1684,0.0,99,GPS_Atti,
0.359804181835198,36.8940067097501,11900,2017-11-07 06:34:45,1797.8040858297377,36.8000011776,0.0,1.0112100323587199,1797.8040858297377,36.8000011776,0.0,1.0112100323587199,1684,0.0,99,GPS_Atti,
0.35980418474034204,36.8940068340936,12000,2017-11-07 06:34:45,1798.3040858457375,37.3000011936,0.0,1.02442003278144,1798.3040858457375,37.3000011936,0.0,1.02442003278144,1684,0.0,99,GPS_Atti,
0.359804164813073,36.8940069224715,12100,2017-11-07 06:34:45,1798.8040858617378,37.800001209600005,0.0,1.0330500330576,1798.8040858617378,37.800001209600005,0.0,1.0330500330576,1684,0.0,99,GPS_Atti,
0.359804136803836,36.8940070311672,12200,2017-11-07 06:34:45,1799.3040858777376,38.3000012256,0.0,1.0435800333945602,1799.3040858777376,38.3000012256,0.0,1.0435800333945602,1684,0.0,99,GPS_Atti,
0.35980411916127397,36.8940071448861,12300,2017-11-07 06:34:45,1799.8040858937375,38.8000012416,0.0,1.0550300337609602,1799.8040858937375,38.8000012416,0.0,1.0550300337609602,1684,0.0,99,GPS_Atti,
0.35980409691021503,36.8940072724735,12400,2017-11-07 06:34:45,1800.4040859129377,39.4000012608,0.0,1.06784003417088,1800.4040859129377,39.4000012608,0.0,1.06784003417088,1684,0.0,99,GPS_Atti,
0.35980407391495706,36.8940073708551,12500,2017-11-07 06:34:45,1800.9040859289375,39.900001276800005,0.0,1.0775500344816,1800.9040859289375,39.900001276800005,0.0,1.0775500344816,1684,0.0,99,GPS_Atti,
0.359804051673669,36.894007479550794,12600,2017-11-07 06:34:45,1801.4040859449374,40.400001292800006,0.0,1.08842003482944,1801.4040859449374,40.400001292800006,0.0,1.08842003482944,1684,0.0,99,GPS_Atti,
0.359804042300345,36.894007583685706,12700,2017-11-07 06:34:45,1801.9040859609377,40.90000130880001,0.0,1.09923003517536,1801.9040859609377,40.90000130880001,0.0,1.09923003517536,1684,0.0,99,GPS_Atti,
0.35980404638122604,36.8940077072777,12800,2017-11-07 06:34:45,1802.4040859769375,41.4000013248,0.0,1.11256003560192,1802.4040859769375,41.4000013248,0.0,1.11256003560192,1684,0.0,99,GPS_Atti,
0.3598040589137311,36.8940078084064,12900,2017-11-07 06:34:46,1802.9040859929376,41.9000013408,0.0,1.1237500359600001,1802.9040859929376,41.9000013408,0.0,1.1237500359600001,1684,0.0,99,GPS_Atti,
0.35980406406612797,36.894007933694205,13000,2017-11-07 06:34:46,1803.4040860089376,42.4000013568,0.0,1.1373000363936001,1803.4040860089376,42.4000013568,0.0,1.1373000363936001,1684,0.0,99,GPS_Atti,
0.35980405715826796,36.8940080508091,13100,2017-11-07 06:34:46,1803.9040860249377,42.900001372800006,0.0,1.14962003678784,1803.9040860249377,42.900001372800006,0.0,1.14962003678784,1684,0.0,99,GPS_Atti,
0.359804055015236,36.894008181865296,13200,2017-11-07 06:34:46,1804.4040860409375,43.40000138880001,0.0,1.1636000372352,1804.4040860409375,43.40000138880001,0.0,1.1636000372352,1684,0.0,99,GPS_Atti,
0.359804066463197,36.8940082939012,13300,2017-11-07 06:34:46,1804.9040860569378,43.9000014048,0.0,1.1759500376304002,1804.9040860569378,43.9000014048,0.0,1.1759500376304002,1684,0.0,99,GPS_Atti,
0.35980407075089,36.894008422799104,13400,2017-11-07 06:34:46,1805.3040860697377,44.30000141760001,0.0,1.1899000380768001,1805.3040860697377,44.30000141760001,0.0,1.1899000380768001,1684,0.0,99,GPS_Atti,
0.35980406871859205,36.8940085399632,13500,2017-11-07 06:34:46,1805.9040860889374,44.9000014368,0.0,1.20242003847744,1805.9040860889374,44.9000014368,0.0,1.20242003847744,1684,0.0,99,GPS_Atti,
0.35980405248951897,36.894008688675704,13600,2017-11-07 06:34:46,1806.4040861049377,45.400001452800005,0.0,1.21794003897408,1806.4040861049377,45.400001452800005,0.0,1.21794003897408,1684,0.0,99,GPS_Atti,
0.35980403480136103,36.8940088279284,13700,2017-11-07 06:34:46,1806.9040861209376,45.9000014688,0.0,1.2324300394377599,1806.9040861209376,45.9000014688,0.0,1.2324300394377599,1684,0.0,99,GPS_Atti,
0.359804016263154,36.8940089616161,13800,2017-11-07 06:34:46,1807.4040861369376,46.4000014848,0.0,1.24632003988224,1807.4040861369376,46.4000014848,0.0,1.24632003988224,1684,0.0,99,GPS_Atti,
0.35980399478723496,36.8940091104592,13900,2017-11-07 06:34:47,1807.9040861529375,46.9000015008,0.0,1.2617900403772802,1807.9040861529375,46.9000015008,0.0,1.2617900403772802,1684,-0.5,99,GPS_Atti,
0.359803982067459,36.8940092471596,14000,2017-11-07 06:34:47,1808.5040861721377,47.500001520000005,0.0,1.27622004083904,1808.5040861721377,47.500001520000005,0.0,1.27622004083904,1684,-1.9,99,GPS_Atti,
0.359803974498451,36.8940093530932,14100,2017-11-07 06:34:47,1809.0040861881375,48.000001536000006,0.0,1.2874700411990403,1809.0040861881375,48.000001536000006,0.0,1.2874700411990403,1684,-3.4,99,GPS_Atti,
0.359803936353779,36.894009475895096,14200,2017-11-07 06:34:47,1809.5040862041378,48.500001552,0.0,1.29977004159264,1809.5040862041378,48.500001552,0.0,1.29977004159264,1684,-5.5,99,GPS_Atti,
0.359803875036349,36.8940096011807,14300,2017-11-07 06:34:47,1810.0040862201377,49.00000156800001,0.0,1.31181004197792,1810.0040862201377,49.00000156800001,0.0,1.31181004197792,1684,-7.8,99,GPS_Atti,
0.35980380977482707,36.8940097433155,14400,2017-11-07 06:34:47,1810.5040862361375,49.500001584,0.0,1.32566004242112,1810.5040862361375,49.500001584,0.0,1.32566004242112,1684,-10.0,99,GPS_Atti,
0.359803762590662,36.8940098589957,14500,2017-11-07 06:34:47,1811.0040862521378,50.000001600000004,0.0,1.33713004278816,1811.0040862521378,50.000001600000004,0.0,1.33713004278816,1684,-10.6,99,GPS_Atti,
0.359803720386279,36.894009966134796,14600,2017-11-07 06:34:47,1811.5040862681376,50.500001616000006,0.0,1.3478300431305603,1811.5040862681376,50.500001616000006,0.0,1.3478300431305603,1684,-10.6,99,GPS_Atti,
0.359803700252198,36.8940100390896,14700,2017-11-07 06:34:47,1812.1040862873374,51.1000016352,0.0,1.35533004337056,1812.1040862873374,51.1000016352,0.0,1.35533004337056,1684,-10.6,99,GPS_Atti,
0.359803680878599,36.8940101084943,14800,2017-11-07 06:34:47,1812.6040863033377,51.600001651199996,0.0,1.36247004359904,1812.6040863033377,51.600001651199996,0.0,1.36247004359904,1684,-10.6,99,GPS_Atti,
0.359803664473654,36.894010173424,14900,2017-11-07 06:34:48,1813.1040863193375,52.1000016672,0.0,1.3691900438140798,1813.1040863193375,52.1000016672,0.0,1.3691900438140798,1684,-10.6,99,GPS_Atti,
0.3598036635226429,36.894010232855,15000,2017-11-07 06:34:48,1813.6040863353376,52.600001683200006,0.0,1.3756500440208002,1813.6040863353376,52.600001683200006,0.0,1.3756500440208002,1684,-10.6,99,GPS_Atti,
0.35980368234419896,36.894010269484504,15100,2017-11-07 06:34:48,1814.1040863513376,53.1000016992,0.0,1.3800500441616,1814.1040863513376,53.1000016992,0.0,1.3800500441616,1684,-12.7,99,GPS_Atti,
0.35980372016155393,36.89401030227479,15200,2017-11-07 06:34:48,1814.6040863673377,53.6000017152,0.0,1.3844500443024002,1814.6040863673377,53.6000017152,0.0,1.3844500443024002,1684,-18.4,99,GPS_Atti,
0.359803779519966,36.894010323515396,15300,2017-11-07 06:34:48,1815.1040863833375,54.100001731199995,0.0,1.3880800444185601,1815.1040863833375,54.100001731199995,0.0,1.3880800444185601,1684,-24.0,99,GPS_Atti,
0.35980382914191106,36.8940103640268,15400,2017-11-07 06:34:48,1815.5040863961376,54.500001744,0.0,1.39362004459584,1815.5040863961376,54.500001744,0.0,1.39362004459584,1684,-29.7,99,GPS_Atti,
0.359803864303274,36.894010424978106,15500,2017-11-07 06:34:48,1816.1040864153376,55.1000017632,0.0,1.4010500448336,1816.1040864153376,55.1000017632,0.0,1.4010500448336,1684,-33.6,99,GPS_Atti,
0.359803902480515,36.894010478379606,15600,2017-11-07 06:34:48,1816.5040864281377,55.500001776,0.0,1.4077400450476802,1816.5040864281377,55.500001776,0.0,1.4077400450476802,1684,-33.6,99,GPS_Atti,
0.35980394769100604,36.8940105487436,15700,2017-11-07 06:34:48,1817.1040864473377,56.10000179520001,0.0,1.4164500453264002,1817.1040864473377,56.10000179520001,0.0,1.4164500453264002,1684,-33.6,99,GPS_Atti,
0.35980400006502206,36.8940105972245,15800,2017-11-07 06:34:48,1817.5040864601378,56.50000180800001,0.0,1.4229500455344002,1817.5040864601378,56.50000180800001,0.0,1.4229500455344002,1684,-33.6,99,GPS_Atti,
0.359804052610024,36.89401060945929,15900,2017-11-07 06:34:49,1818.0040864761377,57.000001824,0.0,1.4255400456172802,1818.0040864761377,57.000001824,0.0,1.4255400456172802,1684,-33.6,99,GPS_Atti,
0.359804098354645,36.89401062882,16000,2017-11-07 06:34:49,1818.6040864953375,57.600001843200005,0.0,1.42875004572,1818.6040864953375,57.600001843200005,0.0,1.42875004572,1684,-33.6,99,GPS_Atti,
0.35980414296423907,36.894010643041796,16100,2017-11-07 06:34:49,1819.1040865113378,58.100001859200006,0.0,1.4314000458048002,1819.1040865113378,58.100001859200006,0.0,1.4314000458048002,1684,-33.6,99,GPS_Atti,
0.35980422254141203,36.894010652343205,16200,2017-11-07 06:34:49,1819.6040865273376,58.60000187520001,0.0,1.43441004590112,1819.6040865273376,58.60000187520001,0.0,1.43441004590112,1684,-33.6,99,GPS_Atti,
0.359804339178714,36.8940106357703,16300,2017-11-07 06:34:49,1820.1040865433374,59.1000018912,0.35999970196000003,1.4356500459408001,1820.1040865433374,59.1000018912,0.35999970196000003,1.4356500459408001,1684,-33.6,99,GPS_Atti,
0.359804461289215,36.8940106263534,16400,2017-11-07 06:34:49,1820.6040865593377,59.6000019072,0.35999970196000003,1.43793004601376,1820.6040865593377,59.6000019072,0.35999970196000003,1.43793004601376,1684,-33.6,99,GPS_Atti,
0.35980456685798295,36.894010608148896,16500,2017-11-07 06:34:49,1821.1040865753375,60.100001923200004,0.35999970196000003,1.4389200460454399,1821.1040865753375,60.100001923200004,0.35999970196000003,1.4389200460454399,1684,-33.6,99,GPS_Atti,
0.359804672695443,36.8940105758554,16600,2017-11-07 06:34:49,1821.6040865913376,60.600001939200006,0.35999970196000003,1.438500046032,1821.6040865913376,60.600001939200006,0.35999970196000003,1.4389200460454399,1684,-33.6,99,GPS_Atti,
0.35980478465422494,36.894010488134896,16700,2017-11-07 06:34:49,1822.1040866073376,61.10000195520001,0.35999970196000003,1.4324500458384002,1822.1040866073376,61.10000195520001,0.35999970196000003,1.4389200460454399,1684,-33.6,99,GPS_Atti,
0.359804904045225,36.8940104060328,16800,2017-11-07 06:34:49,1822.6040866233377,61.6000019712,0.35999970196000003,1.42738004567616,1822.6040866233377,61.6000019712,0.35999970196000003,1.4389200460454399,1684,-33.6,99,GPS_Atti,
0.35980501762593703,36.8940103303201,16900,2017-11-07 06:34:50,1823.1040866393375,62.1000019872,0.35999970196000003,1.42296004553472,1823.1040866393375,62.1000019872,0.35999970196000003,1.4389200460454399,1684,-33.6,99,GPS_Atti,
0.35980512203362397,36.894010283869,17000,2017-11-07 06:34:50,1823.6040866553376,62.600002003200004,0.35999970196000003,1.42148004548736,1823.6040866553376,62.600002003200004,0.35999970196000003,1.4389200460454399,1684,-33.6,99,GPS_Atti,
0.35980519716188697,36.894010237931795,17100,2017-11-07 06:34:50,1824.1040866713377,63.100002019200005,0.35999970196000003,1.41916004541312,1824.1040866713377,63.100002019200005,0.35999970196000003,1.4389200460454399,1684,-33.6,99,GPS_Atti,
0.35980522683539395,36.89401020826121,17200,2017-11-07 06:34:50,1824.6040866873375,63.600002035200006,0.35999970196000003,1.4170500453456,1824.6040866873375,63.600002035200006,0.35999970196000003,1.4389200460454399,1684,-33.6,99,GPS_Atti,
0.3598052330658211,36.894010172150004,17300,2017-11-07 06:34:50,1825.1040867033375,64.1000020512,0.35999970196000003,1.4134500452304,1825.1040867033375,64.1000020512,0.35999970196000003,1.4389200460454399,1684,-33.6,99,GPS_Atti,
0.359805242005978,36.89401014125679,17400,2017-11-07 06:34:50,1825.6040867193376,64.60000206720001,0.35999970196000003,1.4105000451360001,1825.6040867193376,64.60000206720001,0.35999970196000003,1.4389200460454399,1684,-33.6,99,GPS_Atti,
0.35980528252492205,36.894010082406,17500,2017-11-07 06:34:50,1826.1040867353377,65.1000020832,0.35999970196000003,1.4057100449827198,1826.1040867353377,65.1000020832,0.35999970196000003,1.4389200460454399,1684,-33.6,99,GPS_Atti,
0.359805356767312,36.894010030458496,17600,2017-11-07 06:34:50,1826.6040867513375,65.60000209920001,0.35999970196000003,1.4028900448924801,1826.6040867513375,65.60000209920001,0.35999970196000003,1.4389200460454399,1684,-33.6,99,GPS_Atti,
0.359805444626751,36.8940099887651,17700,2017-11-07 06:34:50,1827.1040867673378,66.10000211520001,0.0,1.40172004485504,1827.1040867673378,66.10000211520001,0.35999970196000003,1.4389200460454399,1684,-33.6,99,GPS_Atti,
0.35980552428534596,36.8940099824014,17800,2017-11-07 06:34:50,1827.7040867865376,66.7000021344,0.0,1.40401004492832,1827.7040867865376,66.7000021344,0.35999970196000003,1.4389200460454399,1684,-33.6,99,GPS_Atti,
0.359805586128764,36.8940099931631,17900,2017-11-07 06:34:51,1828.2040868025374,67.2000021504,0.0,1.40747004503904,1828.2040868025374,67.2000021504,0.35999970196000003,1.4389200460454399,1684,-33.6,99,GPS_Atti,
0.35980563828456796,36.8940100157313,18000,2017-11-07 06:34:51,1828.7040868185377,67.70000216640001,0.0,1.4118200451782401,1828.7040868185377,67.70000216640001,0.35999970196000003,1.4389200460454399,1684,-33.6,99,GPS_Atti,
0.359805684022675,36.894010017911,18100,2017-11-07 06:34:51,1829.2040868345375,68.2000021824,0.0,1.4138100452419202,1829.2040868345375,68.2000021824,0.35999970196000003,1.4389200460454399,1684,-33.6,99,GPS_Atti,
0.359805725813433,36.894010009650295,18200,2017-11-07 06:34:51,1829.7040868505376,68.7000021984,0.0,1.41457004526624,1829.7040868505376,68.7000021984,0.35999970196000003,1.4389200460454399,1684,-33.6,99,GPS_Atti,
0.359805763518425,36.894009965687296,18300,2017-11-07 06:34:51,1830.2040868665376,69.2000022144,0.0,1.41147004516704,1830.2040868665376,69.2000022144,0.35999970196000003,1.4389200460454399,1684,-33.6,99,GPS_Atti,
0.359805796276205,36.894009932736395,18400,2017-11-07 06:34:51,1830.7040868825377,69.7000022304,0.0,1.4093500450992,1830.7040868825377,69.7000022304,0.35999970196000003,1.4389200460454399,1684,-33.6,99,GPS_Atti,
0.359805826065331,36.8940099163391,18500,2017-11-07 06:34:51,1831.2040868985375,70.2000022464,0.0,1.4088300450825604,1831.2040868985375,70.2000022464,0.35999970196000003,1.4389200460454399,1684,-33.6,99,GPS_Atti,
0.35980585065809206,36.894009925203704,18600,2017-11-07 06:34:51,1831.7040869145378,70.7000022624,0.0,1.4107400451436802,1831.7040869145378,70.7000022624,0.35999970196000003,1.4389200460454399,1684,-33.6,99,GPS_Atti,
0.359805881380316,36.8940099416052,18700,2017-11-07 06:34:51,1832.2040869305376,71.2000022784,0.0,1.41368004523776,1832.2040869305376,71.2000022784,0.35999970196000003,1.4389200460454399,1684,-33.6,99,GPS_Atti,
0.35980590211040797,36.8940099711859,18800,2017-11-07 06:34:51,1832.7040869465375,71.7000022944,0.0,1.4175800453625602,1832.7040869465375,71.7000022944,0.35999970196000003,1.4389200460454399,1684,-33.6,99,GPS_Atti,
0.359805909681045,36.8940099814015,18900,2017-11-07 06:34:52,1833.2040869625378,72.2000023104,0.0,1.41894004540608,1833.2040869625378,72.2000023104,0.35999970196000003,1.4389200460454399,1684,-33.6,99,GPS_Atti,
0.359805902421441,36.8940099984776,19000,2017-11-07 06:34:52,1833.7040869785376,72.70000232640001,0.0,1.4204200454534401,1833.7040869785376,72.70000232640001,0.35999970196000003,1.4389200460454399,1684,-33.6,99,GPS_Atti,
0.35980589214433095,36.8940100109415,19100,2017-11-07 06:34:52,1834.2040869945376,73.2000023424,0.0,1.4213000454816003,1834.2040869945376,73.2000023424,0.35999970196000003,1.4389200460454399,1684,-33.6,99,GPS_Atti,
0.35980587279190296,36.8940100408326,19200,2017-11-07 06:34:52,1834.7040870105375,73.7000023584,0.0,1.42362004555584,1834.7040870105375,73.7000023584,0.35999970196000003,1.4389200460454399,1684,-33.6,99,GPS_Atti,
0.359805863011468,36.894010077273606,19300,2017-11-07 06:34:52,1835.2040870265378,74.2000023744,0.0,1.42701004566432,1835.2040870265378,74.2000023744,0.35999970196000003,1.4389200460454399,1684,-33.6,99,GPS_Atti,
0.359805863977135,36.8940101208491,19400,2017-11-07 06:34:52,1835.7040870425376,74.7000023904,0.0,1.43157004581024,1835.7040870425376,74.7000023904,0.35999970196000003,1.4389200460454399,1680,-33.6,99,GPS_Atti,
0.359805894114748,36.894010144153796,19500,2017-11-07 06:34:52,1836.2040870585374,75.20000240640002,0.0,1.43519004592608,1836.2040870585374,75.20000240640002,0.35999970196000003,1.4389200460454399,1643,-33.6,99,GPS_Atti,
0.35980592847491705,36.8940101741499,19600,2017-11-07 06:34:52,1836.7040870745377,75.7000024224,0.0,1.4396800460697603,1836.7040870745377,75.7000024224,0.35999970196000003,1.4396800460697603,1643,-33.6,99,GPS_Atti,
0.359805949657716,36.894010191061,19700,2017-11-07 06:34:52,1837.2040870905375,76.2000024384,0.0,1.4422800461529601,1837.2040870905375,76.2000024384,0.35999970196000003,1.4422800461529601,987,-33.6,99,GPS_Atti,
0.359805965743486,36.894010200407294,19800,2017-11-07 06:34:52,1837.7040871065376,76.70000245439999,0.0,1.4439000462048,1837.7040871065376,76.70000245439999,0.35999970196000003,1.4439000462048,987,-33.6,99,GPS_Atti,
0.35980596494717704,36.8940102389253,19900,2017-11-07 06:34:53,1838.1040871193375,77.1000024672,0.0,1.44786004633152,1838.1040871193375,77.1000024672,0.35999970196000003,1.44786004633152,1024,-33.6,99,GPS_Atti,
0.35980596891569505,36.89401025595,20000,2017-11-07 06:34:53,1838.5040871321376,77.50000248,0.0,1.44979004639328,1838.5040871321376,77.50000248,0.35999970196000003,1.44979004639328,1024,-33.6,99,GPS_Atti,
0.35980595888936495,36.8940102516911,20100,2017-11-07 06:34:53,1838.9040871449374,77.9000024928,0.0,1.44894004636608,1838.9040871449374,77.9000024928,0.35999970196000003,1.44979004639328,1024,-33.6,99,GPS_Atti,
0.35980595537029797,36.894010233617294,20200,2017-11-07 06:34:53,1839.1040871513376,78.1000024992,0.0,1.44693004630176,1839.1040871513376,78.1000024992,0.35999970196000003,1.44979004639328,1024,-33.6,99,GPS_Atti,
0.359805946174475,36.8940102500424,20300,2017-11-07 06:34:53,1839.3040871577375,78.3000025056,0.0,1.44826004634432,1839.3040871577375,78.3000025056,0.35999970196000003,1.44979004639328,1024,-33.6,99,GPS_Atti,
0.35980594195029103,36.8940102450941,20400,2017-11-07 06:34:53,1839.4040871609377,78.4000025088,0.0,1.4475800463225603,1839.4040871609377,78.4000025088,0.35999970196000003,1.44979004639328,1024,-33.6,99,GPS_Atti,
0.359805931272584,36.8940102862971,20500,2017-11-07 06:34:53,1839.4040871609377,78.4000025088,0.0,1.4514300464457601,1839.4040871609377,78.4000025088,0.35999970196000003,1.4514300464457601,1024,-33.6,99,GPS_Atti,
0.35980592247410104,36.894010294823396,20600,2017-11-07 06:34:53,1839.5040871641377,78.500002512,0.0,1.45197004646304,1839.5040871641377,78.500002512,0.35999970196000003,1.45197004646304,1024,-33.6,99,GPS_Atti,
0.359805906828011,36.894010308148104,20700,2017-11-07 06:34:53,1839.5040871641377,78.500002512,0.0,1.45273004648736,1839.5040871641377,78.500002512,0.35999970196000003,1.45273004648736,1024,-33.6,99,GPS_Atti,
0.35980588083967296,36.894010314436706,20800,2017-11-07 06:34:53,1839.5040871641377,78.500002512,0.0,1.4523600464755202,1839.5040871641377,78.500002512,0.35999970196000003,1.45273004648736,1024,-33.6,99,GPS_Atti,
0.35980585262362397,36.894010304747795,20900,2017-11-07 06:34:54,1839.5040871641377,78.500002512,0.0,1.450250046408,1839.5040871641377,78.500002512,0.35999970196000003,1.45273004648736,1024,-33.6,99,GPS_Atti,
0.35980583616494,36.8940103246888,21000,2017-11-07 06:34:54,1839.5040871641377,78.500002512,0.0,1.45168004645376,1839.5040871641377,78.500002512,0.35999970196000003,1.45273004648736,1024,-33.6,99,GPS_Atti,
0.359805855385465,36.894010356258605,21100,2017-11-07 06:34:54,1839.5040871641377,78.500002512,0.0,1.45572004658304,1839.5040871641377,78.500002512,0.35999970196000003,1.45572004658304,1009,-33.6,99,GPS_Atti,
0.359805895178122,36.8940104099684,21200,2017-11-07 06:34:54,1839.5040871641377,78.500002512,0.0,1.46287004681184,1839.5040871641377,78.500002512,0.35999970196000003,1.46287004681184,935,-33.6,99,GPS_Atti,
0.35980596014489596,36.8940104424674,21300,2017-11-07 06:34:54,1839.5040871641377,78.500002512,0.0,1.4688000470016,1839.5040871641377,78.500002512,0.35999970196000003,1.4688000470016,844,-33.6,98,GPS_Atti,
0.35980602675802603,36.8940105052987,21400,2017-11-07 06:34:54,1839.5040871641377,78.500002512,0.0,1.4779700472950401,1839.5040871641377,78.500002512,0.35999970196000003,1.4779700472950401,768,-33.6,98,GPS_Atti,
0.359806105776642,36.894010555604,21500,2017-11-07 06:34:54,1839.5040871641377,78.500002512,0.0,1.4863600475635201,1839.5040871641377,78.500002512,0.35999970196000003,1.4863600475635201,740,-33.6,98,GPS_Atti,
0.35980620566214,36.894010596213896,21600,2017-11-07 06:34:54,1839.5040871641377,78.500002512,0.0,1.4946100478275202,1839.5040871641377,78.500002512,0.35999970196000003,1.4946100478275202,713,-33.6,98,GPS_Atti,
0.35980632608720203,36.894010679232295,21700,2017-11-07 06:34:54,1839.4040871609377,78.4000025088,0.0,1.5081500482608001,1839.5040871641377,78.500002512,0.35999970196000003,1.5081500482608001,697,-33.6,98,GPS_Atti,
0.35980645479615897,36.894010772901105,21800,2017-11-07 06:34:54,1839.3040871577375,78.3000025056,0.0,1.52319004874208,1839.5040871641377,78.500002512,0.35999970196000003,1.52319004874208,690,-33.6,98,GPS_Atti,
0.35980659211632704,36.8940108597523,21900,2017-11-07 06:34:55,1839.2040871545375,78.20000250240001,0.0,1.5379500492144003,1839.5040871641377,78.500002512,0.35999970196000003,1.5379500492144003,680,-33.6,98,GPS_Atti,
0.35980672600373603,36.8940109733256,22000,2017-11-07 06:34:55,1839.1040871513376,78.1000024992,0.0,1.55536004977152,1839.5040871641377,78.500002512,0.35999970196000003,1.55536004977152,663,-33.6,98,GPS_Atti,
0.359806860825871,36.894011063962495,22100,2017-11-07 06:34:55,1839.0040871481376,78.00000249600001,0.0,1.57053005025696,1839.5040871641377,78.500002512,0.35999970196000003,1.57053005025696,646,-33.6,98,GPS_Atti,
0.359807012974651,36.8940111786407,22200,2017-11-07 06:34:55,1838.9040871449374,77.9000024928,0.0,1.5889700508470401,1839.5040871641377,78.500002512,0.35999970196000003,1.5889700508470401,665,-33.6,98,GPS_Atti,
0.3598072022210129,36.894011268446704,22300,2017-11-07 06:34:55,1838.8040871417377,77.8000024896,0.0,1.6066600514131202,1839.5040871641377,78.500002512,0.35999970196000003,1.6066600514131202,679,-33.6,98,GPS_Atti,
0.3598073788583329,36.8940113791594,22400,2017-11-07 06:34:55,1838.6040871353377,77.6000024832,0.0,1.6260000520320002,1839.5040871641377,78.500002512,0.35999970196000003,1.6260000520320002,685,-33.6,98,GPS_Atti,
0.359807524457511,36.894011460978795,22500,2017-11-07 06:34:55,1838.5040871321376,77.50000248,0.0,1.6410800525145604,1839.5040871641377,78.500002512,0.35999970196000003,1.6410800525145604,684,-33.6,98,GPS_Atti,
0.35980765910540297,36.8940115517013,22600,2017-11-07 06:34:55,1838.4040871289376,77.40000247680001,0.0,1.65659005301088,1839.5040871641377,78.500002512,0.35999970196000003,1.65659005301088,686,-33.6,98,GPS_Atti,
0.3598078001595929,36.894011598131,22700,2017-11-07 06:34:55,1838.3040871257376,77.3000024736,0.0,1.66803005337696,1839.5040871641377,78.500002512,0.35999970196000003,1.66803005337696,690,-33.6,98,GPS_Atti,
0.35980794657787896,36.894011666606396,22800,2017-11-07 06:34:55,1838.1040871193375,77.1000024672,0.0,1.6820200538246397,1839.5040871641377,78.500002512,0.35999970196000003,1.6820200538246397,705,-33.6,98,GPS_Atti,
0.3598081170987629,36.8940117293992,22900,2017-11-07 06:34:56,1838.0040871161375,77.000002464,0.0,1.6967200542950402,1839.5040871641377,78.500002512,0.35999970196000003,1.6967200542950402,704,-33.6,98,GPS_Atti,
0.359808299429124,36.8940118333542,23000,2017-11-07 06:34:56,1837.9040871129378,76.9000024608,0.0,1.7162000549184,1839.5040871641377,78.500002512,0.35999970196000003,1.7162000549184,706,-33.6,98,GPS_Atti,
0.35980848875853705,36.8940119392449,23100,2017-11-07 06:34:56,1837.8040871097378,76.8000024576,0.0,1.7363300555625603,1839.5040871641377,78.500002512,0.35999970196000003,1.7363300555625603,703,-33.6,98,GPS_Atti,
0.359808668869328,36.8940120797545,23200,2017-11-07 06:34:56,1837.6040871033376,76.6000024512,0.0,1.7594800563033601,1839.5040871641377,78.500002512,0.35999970196000003,1.7594800563033601,702,-33.6,98,GPS_Atti,
0.359808819234961,36.8940121758514,23300,2017-11-07 06:34:56,1837.5040871001377,76.500002448,0.0,1.77678005685696,1839.5040871641377,78.500002512,0.35999970196000003,1.77678005685696,694,-33.6,98,GPS_Atti,
0.35980895385679795,36.8940122935572,23400,2017-11-07 06:34:56,1837.4040870969377,76.4000024448,0.0,1.7954000574528002,1839.5040871641377,78.500002512,0.35999970196000003,1.7954000574528002,708,-33.6,98,GPS_Atti,
0.359809073627226,36.8940123713983,23500,2017-11-07 06:34:56,1837.3040870937375,76.3000024416,0.0,1.80938005790016,1839.5040871641377,78.500002512,0.35999970196000003,1.80938005790016,702,-33.6,98,GPS_Atti,
0.359809171508109,36.8940124772119,23600,2017-11-07 06:34:56,1837.2040870905375,76.2000024384,0.0,1.82493005839776,1839.5040871641377,78.500002512,0.35999970196000003,1.82493005839776,686,-33.6,98,GPS_Atti,
0.359809250083789,36.894012547010604,23700,2017-11-07 06:34:56,1837.1040870873378,76.10000243520001,0.0,1.8359400587500803,1839.5040871641377,78.500002512,0.35999970196000003,1.8359400587500803,683,-33.6,98,GPS_Atti,
0.359809319903325,36.8940125921685,23800,2017-11-07 06:34:56,1836.9040870809376,75.90000242880001,0.0,1.8441000590112,1839.5040871641377,78.500002512,0.35999970196000003,1.8441000590112,683,-33.6,98,GPS_Atti,
0.35980940813567797,36.894012654837,23900,2017-11-07 06:34:57,1836.8040870777377,75.80000242560001,0.35999970196000003,1.85496005935872,1839.5040871641377,78.500002512,0.35999970196000003,1.85496005935872,686,-33.6,98,GPS_Atti,
0.359809464702937,36.8940127204176,24000,2017-11-07 06:34:57,1836.7040870745377,75.7000024224,0.35999970196000003,1.8644000596608001,1839.5040871641377,78.500002512,0.35999970196000003,1.8644000596608001,673,-33.6,98,GPS_Atti,
0.359809486607137,36.8940127703545,24100,2017-11-07 06:34:57,1836.6040870713375,75.60000241920001,0.35999970196000003,1.8704400598540802,1839.5040871641377,78.500002512,0.35999970196000003,1.8704400598540802,652,-33.6,98,GPS_Atti,
0.35980950473986106,36.8940128456904,24200,2017-11-07 06:34:57,1836.5040870681376,75.50000241600002,0.35999970196000003,1.8787300601193604,1839.5040871641377,78.500002512,0.35999970196000003,1.8787300601193604,657,-33.6,98,GPS_Atti,
0.359809553642034,36.8940128823734,24300,2017-11-07 06:34:57,1836.3040870617376,75.30000240960001,0.35999970196000003,1.8849500603183997,1839.5040871641377,78.500002512,0.35999970196000003,1.8849500603183997,707,-33.6,98,GPS_Atti,
0.359809595032195,36.8940129277367,24400,2017-11-07 06:34:57,1836.2040870585374,75.20000240640002,0.35999970196000003,1.8916000605312002,1839.5040871641377,78.500002512,0.35999970196000003,1.8916000605312002,880,-33.6,98,GPS_Atti,
0.35980962486040396,36.89401291973721,24500,2017-11-07 06:34:57,1836.1040870553377,75.1000024032,0.35999970196000003,1.8924500605583998,1839.5040871641377,78.500002512,0.35999970196000003,1.8924500605583998,1024,-33.6,98,GPS_Atti,
0.359809627890938,36.8940129301991,24600,2017-11-07 06:34:57,1836.0040870521377,75.0000024,0.35999970196000003,1.89363006059616,1839.5040871641377,78.500002512,0.35999970196000003,1.89363006059616,1024,-33.6,98,GPS_Atti,
0.35980960465467104,36.894012927441295,24700,2017-11-07 06:34:57,1835.9040870489378,74.9000023968,0.35999970196000003,1.8920900605468798,1839.5040871641377,78.500002512,0.35999970196000003,1.89363006059616,1024,-33.6,98,GPS_Atti,
0.35980955475751797,36.8940129417316,24800,2017-11-07 06:34:57,1835.9040870489378,74.9000023968,0.35999970196000003,1.89077006050464,1839.5040871641377,78.500002512,0.35999970196000003,1.89363006059616,1024,-33.6,98,GPS_Atti,
0.359809504156878,36.8940129264734,24900,2017-11-07 06:34:58,1835.8040870457376,74.8000023936,0.35999970196000003,1.8865500603696002,1839.5040871641377,78.500002512,0.35999970196000003,1.89363006059616,1024,-33.6,98,GPS_Atti,
0.3598094304811861,36.894012935504996,25000,2017-11-07 06:34:58,1835.8040870457376,74.8000023936,0.35999970196000003,1.88346006027072,1839.5040871641377,78.500002512,0.35999970196000003,1.89363006059616,1024,-33.6,98,GPS_Atti,
0.359809354131589,36.89401292468771,25100,2017-11-07 06:34:58,1835.8040870457376,74.8000023936,0.35999970196000003,1.87833006010656,1839.5040871641377,78.500002512,0.35999970196000003,1.89363006059616,1024,-33.6,98,GPS_Atti,
0.3598092577961,36.8940129388667,25200,2017-11-07 06:34:58,1835.8040870457376,74.8000023936,0.35999970196000003,1.87461005998752,1839.5040871641377,78.500002512,0.35999970196000003,1.89363006059616,1024,-33.6,98,GPS_Atti,
0.359809165606628,36.894012933260996,25300,2017-11-07 06:34:58,1835.8040870457376,74.8000023936,0.35999970196000003,1.8692200598150401,1839.5040871641377,78.500002512,0.35999970196000003,1.89363006059616,1024,-33.6,98,GPS_Atti,
0.359809059407653,36.894012938798205,25400,2017-11-07 06:34:58,1835.8040870457376,74.8000023936,0.35999970196000003,1.86424005965568,1839.5040871641377,78.500002512,0.35999970196000003,1.89363006059616,1024,-33.6,98,GPS_Atti,
0.35980897063954204,36.8940129045219,25500,2017-11-07 06:34:58,1835.8040870457376,74.8000023936,0.35999970196000003,1.8562900594012801,1839.5040871641377,78.500002512,0.35999970196000003,1.89363006059616,1024,-33.6,98,GPS_Atti,
0.359808876259813,36.8940128985865,25600,2017-11-07 06:34:58,1835.7040870425376,74.7000023904,0.35999970196000003,1.85088005922816,1839.5040871641377,78.500002512,0.35999970196000003,1.89363006059616,1024,-33.6,98,GPS_Atti,
0.35980881121976005,36.8940129003466,25700,2017-11-07 06:34:58,1835.7040870425376,74.7000023904,0.35999970196000003,1.84776005912832,1839.5040871641377,78.500002512,0.35999970196000003,1.89363006059616,1100,-33.6,98,GPS_Atti,
0.3598087342546111,36.8940129155019,25800,2017-11-07 06:34:58,1835.7040870425376,74.7000023904,0.35999970196000003,1.84539005905248,1839.5040871641377,78.500002512,0.35999970196000003,1.89363006059616,1252,-33.6,98,GPS_Atti,
0.35980866166672,36.8940128830714,25900,2017-11-07 06:34:59,1835.7040870425376,74.7000023904,0.35999970196000003,1.83854005883328,1839.5040871641377,78.500002512,0.35999970196000003,1.89363006059616,1252,-33.6,98,GPS_Atti,
0.35980857241984704,36.8940128658176,26000,2017-11-07 06:34:59,1835.7040870425376,74.7000023904,0.35999970196000003,1.8324100586371201,1839.5040871641377,78.500002512,0.35999970196000003,1.89363006059616,1107,-33.6,98,GPS_Atti,
0.359808487499749,36.894012833485604,26100,2017-11-07 06:34:59,1835.7040870425376,74.7000023904,0.35999970196000003,1.8250100584003202,1839.5040871641377,78.500002512,0.35999970196000003,1.89363006059616,1024,-33.6,98,GPS_Atti,
0.35980838457231795,36.894012818797,26200,2017-11-07 06:34:59,1835.8040870457376,74.8000023936,0.35999970196000003,1.8185300581929602,1839.5040871641377,78.500002512,0.35999970196000003,1.89363006059616,1024,-33.6,98,GPS_Atti,
0.359808287727125,36.894012788392,26300,2017-11-07 06:34:59,1835.8040870457376,74.8000023936,0.35999970196000003,1.8108100579459199,1839.5040871641377,78.500002512,0.35999970196000003,1.89363006059616,1024,-33.6,98,GPS_Atti,
0.3598081467722701,36.89401278788671,26400,2017-11-07 06:34:59,1835.9040870489378,74.9000023968,0.35999970196000003,1.80406005772992,1839.5040871641377,78.500002512,0.35999970196000003,1.89363006059616,1024,-33.6,98,GPS_Atti,
0.35980799912125294,36.894012771425096,26500,2017-11-07 06:34:59,1835.9040870489378,74.9000023968,0.35999970196000003,1.79549005745568,1839.5040871641377,78.500002512,0.35999970196000003,1.89363006059616,1024,-33.6,98,GPS_Atti,
0.359807822705401,36.894012781356004,26600,2017-11-07 06:34:59,1835.9040870489378,74.9000023968,0.35999970196000003,1.7884000572288001,1839.5040871641377,78.500002512,0.35999970196000003,1.89363006059616,1024,-33.6,98,GPS_Atti,
0.35980768523215795,36.8940127561241,26700,2017-11-07 06:34:59,1835.9040870489378,74.9000023968,0.35999970196000003,1.7796500569488,1839.5040871641377,78.500002512,0.35999970196000003,1.89363006059616,1024,-33.6,98,GPS_Atti,
0.35980754477234994,36.894012754257005,26800,2017-11-07 06:34:59,1835.9040870489378,74.9000023968,0.35999970196000003,1.7732500567440002,1839.5040871641377,78.500002512,0.35999970196000003,1.89363006059616,1024,-33.6,98,GPS_Atti,
0.35980743668438003,36.8940127423605,26900,2017-11-07 06:35:00,1835.9040870489378,74.9000023968,0.35999970196000003,1.7673300565545602,1839.5040871641377,78.500002512,0.35999970196000003,1.89363006059616,1024,-33.6,98,GPS_Atti,
0.35980734380119106,36.8940127198823,27000,2017-11-07 06:35:00,1835.9040870489378,74.9000023968,0.35999970196000003,1.76104005635328,1839.5040871641377,78.500002512,0.35999970196000003,1.89363006059616,1024,-33.6,98,GPS_Atti,
0.35980721909820707,36.894012716940296,27100,2017-11-07 06:35:00,1835.9040870489378,74.9000023968,0.35999970196000003,1.75546005617472,1839.5040871641377,78.500002512,0.35999970196000003,1.89363006059616,1024,-33.6,98,GPS_Atti,
0.359807133510447,36.8940126841671,27200,2017-11-07 06:35:00,1835.9040870489378,74.9000023968,0.35999970196000003,1.7485100559523201,1839.5040871641377,78.500002512,0.35999970196000003,1.89363006059616,1024,-33.6,98,GPS_Atti,
0.359807040444872,36.894012744390395,27300,2017-11-07 06:35:00,1835.9040870489378,74.9000023968,0.35999970196000003,1.7509000560288002,1839.5040871641377,78.500002512,0.35999970196000003,1.89363006059616,1072,-33.6,98,GPS_Atti,
0.35980694591532697,36.894012789586796,27400,2017-11-07 06:35:00,1835.9040870489378,74.9000023968,0.35999970196000003,1.7517600560563202,1839.5040871641377,78.500002512,0.35999970196000003,1.89363006059616,1249,-33.6,98,GPS_Atti,
0.3598068663007,36.894012787407,27500,2017-11-07 06:35:00,1835.9040870489378,74.9000023968,0.35999970196000003,1.74836005594752,1839.5040871641377,78.500002512,0.35999970196000003,1.89363006059616,1327,-33.6,98,GPS_Atti,
0.359806801775235,36.8940127698706,27600,2017-11-07 06:35:00,1836.0040870521377,75.0000024,0.35999970196000003,1.74399005580768,1839.5040871641377,78.500002512,0.35999970196000003,1.89363006059616,1375,-33.6,98,GPS_Atti,
0.35980671130540004,36.894012787775296,27700,2017-11-07 06:35:00,1836.1040870553377,75.1000024032,0.35999970196000003,1.7423300557545602,1839.5040871641377,78.500002512,0.35999970196000003,1.89363006059616,1380,-33.6,98,GPS_Atti,
0.359806653855525,36.89401276532271,27800,2017-11-07 06:35:00,1836.2040870585374,75.20000240640002,0.35999970196000003,1.73777005560864,1839.5040871641377,78.500002512,0.35999970196000003,1.89363006059616,1289,-33.6,98,GPS_Atti,
0.35980656999717203,36.8940127900664,27900,2017-11-07 06:35:01,1836.3040870617376,75.30000240960001,0.35999970196000003,1.73717005558944,1839.5040871641377,78.500002512,0.35999970196000003,1.89363006059616,1102,-33.6,98,GPS_Atti,
0.35980651790324897,36.894012776529706,28000,2017-11-07 06:35:01,1836.5040870681376,75.50000241600002,0.35999970196000003,1.7337900554812802,1839.5040871641377,78.500002512,0.35999970196000003,1.89363006059616,1102,-33.6,98,GPS_Atti,
0.359806411113149,36.8940128011835,28100,2017-11-07 06:35:01,1836.6040870713375,75.60000241920001,0.35999970196000003,1.7324100554371202,1839.5040871641377,78.500002512,0.35999970196000003,1.89363006059616,1024,-33.6,98,GPS_Atti,
0.359806337986242,36.89401277490239,28200,2017-11-07 06:35:01,1836.7040870745377,75.7000024224,0.35999970196000003,1.7269800552633603,1839.5040871641377,78.500002512,0.35999970196000003,1.89363006059616,1024,-33.6,98,GPS_Atti,
0.35980625015122997,36.89401278667471,28300,2017-11-07 06:35:01,1836.8040870777377,75.80000242560001,0.35999970196000003,1.7250500552016002,1839.5040871641377,78.500002512,0.35999970196000003,1.89363006059616,1024,-33.6,98,GPS_Atti,
0.359806191449081,36.894012755546,28400,2017-11-07 06:35:01,1836.8040870777377,75.80000242560001,0.35999970196000003,1.7196900550300802,1839.5040871641377,78.500002512,0.35999970196000003,1.89363006059616,1024,-33.6,98,GPS_Atti,
0.35980609222636,36.894012774778204,28500,2017-11-07 06:35:01,1836.8040870777377,75.80000242560001,0.35999970196000003,1.7182300549833602,1839.5040871641377,78.500002512,0.35999970196000003,1.89363006059616,1024,-33.6,98,GPS_Atti,
0.35980603918793896,36.894012757049104,28600,2017-11-07 06:35:01,1836.8040870777377,75.80000242560001,0.35999970196000003,1.71453005486496,1839.5040871641377,78.500002512,0.35999970196000003,1.89363006059616,1024,-33.6,98,GPS_Atti,
0.359806029671312,36.8940128306378,28700,2017-11-07 06:35:01,1836.8040870777377,75.80000242560001,0.35999970196000003,1.7219800551033602,1839.5040871641377,78.500002512,0.35999970196000003,1.89363006059616,1024,-33.6,98,GPS_Atti,
0.359806040200831,36.8940128459216,28800,2017-11-07 06:35:01,1836.8040870777377,75.80000242560001,0.35999970196000003,1.72396005516672,1839.5040871641377,78.500002512,0.35999970196000003,1.89363006059616,1024,-33.6,98,GPS_Atti,
0.359806027443601,36.894012893683204,28900,2017-11-07 06:35:02,1836.8040870777377,75.80000242560001,0.35999970196000003,1.7285800553145603,1839.5040871641377,78.500002512,0.35999970196000003,1.89363006059616,1024,-33.6,98,GPS_Atti,
0.359806041588265,36.8940128880218,29000,2017-11-07 06:35:02,1836.8040870777377,75.80000242560001,0.35999970196000003,1.72846005531072,1839.5040871641377,78.500002512,0.35999970196000003,1.89363006059616,1024,-33.6,98,GPS_Atti,
