latitude,longitude,time_millisecond,datetime_utc,altitude_m,ascent_m,speed_kph,distance_m,max_altitude_m,max_ascent_m,max_speed_kph,max_distance_m,rc_throttle,gimbal_pitch_degrees,battery_percent,flycState,message
0.297830024171167,36.8800306331347,0,2017-11-15 12:42:09,1737.669855405424,0.0,0.0,0.0,1737.669855405424,0.0,0.0,0.0,1024,0.0,100,Motors_Started,
0.297830009559546,36.880030648657204,100,2017-11-15 12:42:09,1737.669855405424,0.0,0.0,0.0023706500758608,1737.669855405424,0.0,0.0,0.0023706500758608,1024,0.0,100,Motors_Started,
0.29783000002582105,36.8800306431212,200,2017-11-15 12:42:09,1737.669855405424,0.0,0.0,0.00290571009298272,1737.669855405424,0.0,0.0,0.00290571009298272,1024,0.0,100,Motors_Started,
0.29782999310249103,36.8800306398355,300,2017-11-15 12:42:09,1737.669855405424,0.0,0.0,0.0035344701131030396,1737.669855405424,0.0,0.0,0.0035344701131030396,1024,0.0,100,Motors_Started,
0.29782999253864195,36.8800306416073,400,2017-11-15 12:42:09,1737.669855405424,0.0,0.0,0.0036417301165353605,1737.669855405424,0.0,0.0,0.0036417301165353605,1024,0.0,100,Motors_Started,
0.297829991640963,36.8800306589585,500,2017-11-15 12:42:09,1737.669855405424,0.0,0.0,0.00461882014780224,1737.669855405424,0.0,0.0,0.00461882014780224,1024,0.0,100,Motors_Started,Setting new Return-To-Home altitude to 30m (98 ft). Setting new Maximum Flight Altitude to 120m (394 ft)
0.297829974620466,36.8800306650759,600,2017-11-15 12:42:09,1737.669855405424,0.0,0.0,0.006555960209790721,1737.669855405424,0.0,0.0,0.006555960209790721,1024,0.0,100,Motors_Started,
0.297829947449878,36.8800306680767,700,2017-11-15 12:42:09,1737.669855405424,0.0,0.0,0.009375060300001922,1737.669855405424,0.0,0.0,0.009375060300001922,1024,0.0,100,Motors_Started,
0.297829921394367,36.880030660528,800,2017-11-15 12:42:09,1737.669855405424,0.0,0.0,0.011828400378508802,1737.669855405424,0.0,0.0,0.011828400378508802,1024,0.0,100,Motors_Started,
0.29782990509364193,36.8800306572937,900,2017-11-15 12:42:09,1737.669855405424,0.0,0.0,0.0135119004323808,1737.669855405424,0.0,0.0,0.0135119004323808,1024,0.0,100,Motors_Started,
0.29782989386715003,36.880030646284794,1000,2017-11-15 12:42:10,1737.669855405424,0.0,0.0,0.014564200466054401,1737.669855405424,0.0,0.0,0.014564200466054401,463,0.0,100,Motors_Started,
0.29782988544443,36.880030640143794,1100,2017-11-15 12:42:10,1737.669855405424,0.0,0.0,0.015446900494300801,1737.669855405424,0.0,0.0,0.015446900494300801,923,0.0,100,Motors_Started,
0.297829891416748,36.8800306464946,1200,2017-11-15 12:42:10,1737.669855405424,0.0,0.0,0.0148377004748064,1737.669855405424,0.0,0.0,0.015446900494300801,1017,0.0,100,Motors_Started,
0.297829887214956,36.8800306682288,1300,2017-11-15 12:42:10,1737.669855405424,0.0,0.0,0.0157224005031168,1737.669855405424,0.0,0.0,0.0157224005031168,1024,0.0,100,Motors_Started,
0.29782989067621396,36.880030688173896,1400,2017-11-15 12:42:10,1737.669855405424,0.0,0.0,0.0160577005138464,1737.669855405424,0.0,0.0,0.0160577005138464,1024,0.0,100,Motors_Started,
0.297829888756685,36.880030700357295,1500,2017-11-15 12:42:10,1737.669855405424,0.0,0.0,0.0168123005379936,1737.669855405424,0.0,0.0,0.0168123005379936,1024,0.0,100,Assisted_Takeoff,
0.29782987463522603,36.8800307258696,1600,2017-11-15 12:42:10,1737.669855405424,0.0,0.0,0.019567400626156802,1737.669855405424,0.0,0.0,0.019567400626156802,1024,0.0,100,Assisted_Takeoff,
0.29782985843790805,36.880030756374005,1700,2017-11-15 12:42:10,1737.669855405424,0.0,0.0,0.02296750073496,1737.669855405424,0.0,0.0,0.02296750073496,1024,0.0,100,Assisted_Takeoff,
0.29782983086143,36.8800307860606,1800,2017-11-15 12:42:10,1737.669855405424,0.0,0.0,0.027410500877136007,1737.669855405424,0.0,0.0,0.027410500877136007,1024,0.0,100,Assisted_Takeoff,
0.29782981062190694,36.880030804644,1900,2017-11-15 12:42:10,1737.669855405424,0.0,0.0,0.030458700974678402,1737.669855405424,0.0,0.0,0.030458700974678402,1024,0.0,100,Assisted_Takeoff,
0.297829785887471,36.880030835031704,2000,2017-11-15 12:42:11,1737.669855405424,0.0,0.0,0.034731301111401595,1737.669855405424,0.0,0.0,0.034731301111401595,1024,0.0,100,Assisted_Takeoff,
0.297829744963859,36.8800308717606,2100,2017-11-15 12:42:11,1737.669855405424,0.0,0.0,0.040844201307014404,1737.669855405424,0.0,0.0,0.040844201307014404,1025,0.0,100,Assisted_Takeoff,
0.297829708879575,36.8800309046835,2200,2017-11-15 12:42:11,1737.669855405424,0.0,0.0,0.046273701480758406,1737.669855405424,0.0,0.0,0.046273701480758406,1024,0.0,100,Assisted_Takeoff,
0.29782969483546695,36.8800309213431,2300,2017-11-15 12:42:11,1737.669855405424,0.0,0.0,0.0486676015573632,1737.669855405424,0.0,0.0,0.0486676015573632,1027,0.0,100,Assisted_Takeoff,
0.297829680041054,36.880030953872,2400,2017-11-15 12:42:11,1737.669855405424,0.0,0.0,0.052313601674035204,1737.669855405424,0.0,0.0,0.052313601674035204,1121,0.0,100,Assisted_Takeoff,
0.297829670111209,36.8800309904596,2500,2017-11-15 12:42:11,1737.669855405424,0.0,0.0,0.055939701790070406,1737.669855405424,0.0,0.0,0.055939701790070406,1459,0.0,100,Assisted_Takeoff,
0.297829675293732,36.880031038926504,2600,2017-11-15 12:42:11,1737.669855405424,0.0,0.0,0.05951120190435841,1737.669855405424,0.0,0.0,0.05951120190435841,1630,0.0,100,Assisted_Takeoff,
0.29782966892040996,36.88003108749621,2700,2017-11-15 12:42:11,1737.669855405424,0.0,0.0,0.0641382020524224,1737.669855405424,0.0,0.0,0.0641382020524224,1684,0.0,100,Assisted_Takeoff,
0.29782967078294204,36.8800311312353,2800,2017-11-15 12:42:11,1737.669855405424,0.0,0.0,0.067916002173312,1737.669855405424,0.0,0.0,0.067916002173312,1684,0.0,100,Assisted_Takeoff,
0.29782966621637796,36.880031163360705,2900,2017-11-15 12:42:11,1737.669855405424,0.0,0.0,0.07114270227656641,1737.669855405424,0.0,0.0,0.07114270227656641,1684,0.0,100,Assisted_Takeoff,
0.297829622366453,36.8800312580194,3000,2017-11-15 12:42:11,1737.669855405424,0.0,0.0,0.0826163026437216,1737.669855405424,0.0,0.0,0.0826163026437216,1684,0.0,100,Assisted_Takeoff,
0.297829540814791,36.8800314084369,3100,2017-11-15 12:42:12,1737.669855405424,0.0,0.35999970196000003,0.101601003251232,1737.669855405424,0.0,0.35999970196000003,0.101601003251232,1684,0.0,100,GPS_Atti,
0.29782943302157,36.8800315825125,3200,2017-11-15 12:42:12,1737.669855405424,0.0,0.35999970196000003,0.12437000397984001,1737.669855405424,0.0,0.35999970196000003,0.12437000397984001,1684,0.0,100,GPS_Atti,
0.297829342013534,36.880031739417795,3300,2017-11-15 12:42:12,1737.769855408624,0.10000000320000002,0.35999970196000003,0.144532004625024,1737.769855408624,0.10000000320000002,0.35999970196000003,0.144532004625024,1684,0.0,100,GPS_Atti,
0.297829262428219,36.880031886340795,3400,2017-11-15 12:42:12,1737.8698554118237,0.20000000640000004,0.0,0.163088005218816,1737.8698554118237,0.20000000640000004,0.35999970196000003,0.163088005218816,1684,0.0,100,GPS_Atti,
0.297829185605559,36.8800319856,3500,2017-11-15 12:42:12,1737.9698554150236,0.3000000096,0.0,0.17696500566288,1737.9698554150236,0.3000000096,0.35999970196000003,0.17696500566288,1684,0.0,100,GPS_Atti,
0.297829139602016,36.8800319953895,3600,2017-11-15 12:42:12,1738.1698554214238,0.500000016,0.0,0.18062500578,1738.1698554214238,0.500000016,0.35999970196000003,0.18062500578,1684,0.0,100,GPS_Atti,Home Point Recorded. RTH Altitude:  30m.
0.297829199771394,36.8800318631271,3800,2017-11-15 12:42:13,1738.5698554342239,0.9000000288000001,0.0,0.16466300526921604,1738.5698554342239,0.9000000288000001,0.35999970196000003,0.18062500578,1684,0.0,100,GPS_Atti,
0.297829173496857,36.880031860900296,4000,2017-11-15 12:42:13,1739.3698554598238,1.7000000544000002,0.0,0.166104005315328,1739.3698554598238,1.7000000544000002,0.35999970196000003,0.18062500578,1684,0.0,100,GPS_Atti,
0.297829049288105,36.880031857772,4100,2017-11-15 12:42:13,1739.7698554726237,2.1000000672,0.35999970196000003,0.17406800557017602,1739.7698554726237,2.1000000672,0.35999970196000003,0.18062500578,1684,0.0,100,GPS_Atti,
0.29782882808475103,36.8800318836419,4200,2017-11-15 12:42:13,1740.2698554886238,2.6000000832000003,0.7199994039200001,0.192433006157856,1740.2698554886238,2.6000000832000003,0.7199994039200001,0.192433006157856,1684,0.0,100,GPS_Atti,
0.29782858111656296,36.8800319572185,4300,2017-11-15 12:42:13,1740.7698555046238,3.1000000992,0.7199994039200001,0.217792006969344,1740.7698555046238,3.1000000992,0.7199994039200001,0.217792006969344,1684,0.0,100,GPS_Atti,
0.29782832141638504,36.8800321438489,4400,2017-11-15 12:42:13,1741.2698555206239,3.6000001152000003,0.7199994039200001,0.25313900810044804,1741.2698555206239,3.6000001152000003,0.7199994039200001,0.25313900810044804,1684,0.0,100,GPS_Atti,
0.29782808597920896,36.8800323160583,4500,2017-11-15 12:42:13,1741.7698555366237,4.100000131200001,0.35999970196000003,0.2854500091344,1741.7698555366237,4.100000131200001,0.7199994039200001,0.2854500091344,1684,0.0,100,GPS_Atti,
0.29782788422395395,36.8800324527465,4600,2017-11-15 12:42:13,1742.269855552624,4.6000001472,0.35999970196000003,0.31237400999596804,1742.269855552624,4.6000001472,0.7199994039200001,0.31237400999596804,1684,0.0,100,GPS_Atti,
0.297827712866456,36.8800324748928,4700,2017-11-15 12:42:13,1742.7698555686238,5.1000001632,0.5075995797636,0.32865301051689605,1742.7698555686238,5.1000001632,0.7199994039200001,0.32865301051689605,1684,0.0,100,GPS_Atti,
0.297827544544785,36.880032375084504,4800,2017-11-15 12:42:13,1743.2698555846237,5.600000179200001,0.8063993323904,0.33699001078368,1743.2698555846237,5.600000179200001,0.8063993323904,0.33699001078368,1684,0.0,100,GPS_Atti,
0.29782738471545,36.8800322251306,4900,2017-11-15 12:42:13,1743.769855600624,6.1000001952,0.5075995797636,0.34278001096896,1743.769855600624,6.1000001952,0.8063993323904,0.34278001096896,1684,0.0,100,GPS_Atti,
0.297827256091172,36.8800320730044,5000,2017-11-15 12:42:14,1744.1698556134238,6.500000208,0.5075995797636,0.346981011103392,1744.1698556134238,6.500000208,0.8063993323904,0.346981011103392,1684,0.0,100,GPS_Atti,
0.297827123280165,36.8800319654043,5100,2017-11-15 12:42:14,1744.6698556294239,7.000000224,0.35999970196000003,0.354991011359712,1744.6698556294239,7.000000224,0.8063993323904,0.354991011359712,1684,0.0,100,GPS_Atti,
0.297827016679779,36.880031863506105,5200,2017-11-15 12:42:14,1745.1698556454237,7.50000024,0.5075995797636,0.361356011563392,1745.1698556454237,7.50000024,0.8063993323904,0.361356011563392,1684,0.0,100,GPS_Atti,
0.297826953385417,36.88003177134821,5300,2017-11-15 12:42:14,1745.669855661424,8.000000256,0.35999970196000003,0.36419301165417606,1745.669855661424,8.000000256,0.8063993323904,0.36419301165417606,1684,0.0,100,GPS_Atti,
0.297826952201538,36.880031680379794,5400,2017-11-15 12:42:14,1746.1698556774238,8.500000272000001,0.35999970196000003,0.36092701154966395,1746.1698556774238,8.500000272000001,0.8063993323904,0.36419301165417606,1684,0.0,100,GPS_Atti,
0.297827005886452,36.8800316272151,5500,2017-11-15 12:42:14,1746.569855690224,8.9000002848,0.35999970196000003,0.35338701130838396,1746.569855690224,8.9000002848,0.8063993323904,0.36419301165417606,1684,0.0,100,GPS_Atti,
0.297827167765184,36.8800316043793,5600,2017-11-15 12:42:14,1747.0698557062237,9.400000300800002,0.0,0.33551001073632003,1747.0698557062237,9.400000300800002,0.8063993323904,0.36419301165417606,1684,0.0,100,GPS_Atti,
0.29782730683674397,36.8800316138156,5700,2017-11-15 12:42:14,1747.5698557222236,9.900000316799998,0.0,0.321261010280352,1747.5698557222236,9.900000316799998,0.8063993323904,0.36419301165417606,1684,0.0,100,GPS_Atti,
0.29782741804155605,36.880031680189205,5800,2017-11-15 12:42:14,1747.9698557350239,10.300000329600001,0.0,0.312333009994656,1747.9698557350239,10.300000329600001,0.8063993323904,0.36419301165417606,1684,0.0,100,GPS_Atti,
0.29782755424949703,36.880031801345204,5900,2017-11-15 12:42:14,1748.469855751024,10.800000345599999,0.0,0.303843009722976,1748.469855751024,10.800000345599999,0.8063993323904,0.36419301165417606,1684,0.0,100,GPS_Atti,
0.297827729945577,36.880031944136896,6000,2017-11-15 12:42:14,1748.9698557670238,11.3000003616,0.0,0.29384800940313605,1748.9698557670238,11.3000003616,0.8063993323904,0.36419301165417606,1684,0.0,100,GPS_Atti,
0.29782786615433304,36.8800319985499,6100,2017-11-15 12:42:15,1749.4698557830236,11.8000003776,0.35999970196000003,0.283986009087552,1749.4698557830236,11.8000003776,0.8063993323904,0.36419301165417606,1684,0.0,100,GPS_Atti,
0.297827899990956,36.880031908651,6200,2017-11-15 12:42:15,1749.8698557958237,12.2000003904,0.8063993323904,0.27553600881715196,1749.8698557958237,12.2000003904,0.8063993323904,0.36419301165417606,1684,0.0,100,GPS_Atti,
0.297827905500796,36.880031739489496,6300,2017-11-15 12:42:15,1750.3698558118238,12.700000406400001,0.8063993323904,0.26579800850553603,1750.3698558118238,12.700000406400001,0.8063993323904,0.36419301165417606,1684,0.0,100,GPS_Atti,
0.29782794754477804,36.8800315784164,6400,2017-11-15 12:42:15,1750.8698558278238,13.2000004224,0.35999970196000003,0.25373300811945604,1750.8698558278238,13.2000004224,0.8063993323904,0.36419301165417606,1684,0.0,100,GPS_Atti,
0.29782801049187296,36.880031522433896,6500,2017-11-15 12:42:15,1751.3698558438236,13.7000004384,0.35999970196000003,0.24479800783353603,1751.3698558438236,13.7000004384,0.8063993323904,0.36419301165417606,1684,0.0,100,GPS_Atti,
0.29782806824464003,36.8800315865079,6600,2017-11-15 12:42:15,1751.869855859824,14.200000454400003,0.35999970196000003,0.241973007743136,1751.869855859824,14.200000454400003,0.8063993323904,0.36419301165417606,1684,0.0,100,GPS_Atti,
0.297828114937422,36.8800317296015,6700,2017-11-15 12:42:15,1752.2698558726238,14.600000467200001,0.35999970196000003,0.24484000783488002,1752.2698558726238,14.600000467200001,0.8063993323904,0.36419301165417606,1684,0.0,100,GPS_Atti,
0.297828226796868,36.880031882322896,6800,2017-11-15 12:42:15,1752.7698558886239,15.100000483200002,0.35999970196000003,0.24341100778915198,1752.7698558886239,15.100000483200002,0.8063993323904,0.36419301165417606,1684,0.0,100,GPS_Atti,
0.297828374800851,36.880032044436604,6900,2017-11-15 12:42:15,1753.2698559046237,15.6000004992,0.0,0.24140000772479997,1753.2698559046237,15.6000004992,0.8063993323904,0.36419301165417606,1684,0.0,100,GPS_Atti,
0.297828532337744,36.8800322077355,7000,2017-11-15 12:42:16,1753.769855920624,16.1000005152,0.0,0.24121400771884804,1753.769855920624,16.1000005152,0.8063993323904,0.36419301165417606,1684,0.0,100,GPS_Atti,
0.297828685451784,36.8800323347541,7100,2017-11-15 12:42:16,1754.3698559398238,16.7000005344,0.0,0.240771007704672,1754.3698559398238,16.7000005344,0.8063993323904,0.36419301165417606,1684,0.0,100,GPS_Atti,
0.297828885134437,36.88003245700529,7200,2017-11-15 12:42:16,1754.8698559558238,17.2000005504,0.0,0.239127007652064,1754.8698559558238,17.2000005504,0.8063993323904,0.36419301165417606,1684,0.0,100,GPS_Atti,
0.297829100783983,36.8800325878031,7300,2017-11-15 12:42:16,1755.3698559718239,17.700000566400004,0.0,0.240403007692896,1755.3698559718239,17.700000566400004,0.8063993323904,0.36419301165417606,1684,0.0,100,GPS_Atti,
0.297829311588094,36.880032770216395,7400,2017-11-15 12:42:16,1755.8698559878237,18.2000005824,0.35999970196000003,0.25051700801654403,1755.8698559878237,18.2000005824,0.8063993323904,0.36419301165417606,1684,0.0,100,GPS_Atti,
0.297829448547969,36.880032945612,7500,2017-11-15 12:42:16,1756.469856007024,18.800000601600004,0.0,0.265006008480192,1756.469856007024,18.800000601600004,0.8063993323904,0.36419301165417606,1684,0.0,100,GPS_Atti,
0.297829559671766,36.8800330985068,7600,2017-11-15 12:42:16,1756.9698560230238,19.300000617600002,0.0,0.27898400892748804,1756.9698560230238,19.300000617600002,0.8063993323904,0.36419301165417606,1684,0.0,100,GPS_Atti,
0.297829669160198,36.8800332146171,7700,2017-11-15 12:42:16,1757.5698560422238,19.900000636800005,0.0,0.2897750092728,1757.5698560422238,19.900000636800005,0.8063993323904,0.36419301165417606,1684,0.0,100,GPS_Atti,
0.297829795649585,36.8800333367805,7800,2017-11-15 12:42:16,1758.1698560614238,20.500000655999997,0.0,0.30173000965535995,1758.1698560614238,20.500000655999997,0.8063993323904,0.36419301165417606,1684,0.0,100,GPS_Atti,
0.29782992124658597,36.8800334055941,7900,2017-11-15 12:42:16,1758.6698560774237,21.000000672,0.0,0.308523009872736,1758.6698560774237,21.000000672,0.8063993323904,0.36419301165417606,1684,0.0,100,GPS_Atti,
0.29783010140175203,36.8800334439557,8000,2017-11-15 12:42:17,1759.2698560966237,21.600000691199998,0.35999970196000003,0.312694010006208,1759.2698560966237,21.600000691199998,0.8063993323904,0.36419301165417606,1684,0.0,100,GPS_Atti,
0.29783029201967104,36.8800334004949,8100,2017-11-15 12:42:17,1759.869856115824,22.2000007104,0.35999970196000003,0.309181009893792,1759.869856115824,22.2000007104,0.8063993323904,0.36419301165417606,1684,0.0,100,GPS_Atti,
0.29783054036755896,36.8800333500431,8200,2017-11-15 12:42:17,1760.3698561318238,22.700000726400003,0.35999970196000003,0.30753800984121604,1760.3698561318238,22.700000726400003,0.8063993323904,0.36419301165417606,1684,0.0,100,GPS_Atti,
0.29783075923002506,36.8800333310646,8300,2017-11-15 12:42:17,1760.9698561510236,23.300000745600002,0.0,0.31095900995068804,1760.9698561510236,23.300000745600002,0.8063993323904,0.36419301165417606,1684,0.0,100,GPS_Atti,
0.29783094892217304,36.8800334255436,8400,2017-11-15 12:42:17,1761.4698561670239,23.800000761600003,0.0,0.32711401046764804,1761.4698561670239,23.800000761600003,0.8063993323904,0.36419301165417606,1684,0.0,100,GPS_Atti,
0.29783105847289304,36.8800335653097,8500,2017-11-15 12:42:17,1762.0698561862237,24.4000007808,0.0,0.34576301106441604,1762.0698561862237,24.4000007808,0.8063993323904,0.36419301165417606,1684,0.0,99,GPS_Atti,
0.297831189566299,36.880033771833894,8600,2017-11-15 12:42:17,1762.669856205424,25.000000800000002,0.0,0.372321011914272,1762.669856205424,25.000000800000002,0.8063993323904,0.372321011914272,1684,0.0,99,GPS_Atti,
0.29783129377226303,36.8800339610979,8700,2017-11-15 12:42:17,1763.1698562214237,25.500000816,0.0,0.39610201267526396,1763.1698562214237,25.500000816,0.8063993323904,0.39610201267526396,1684,0.0,99,GPS_Atti,
0.297831422516231,36.8800341815152,8800,2017-11-15 12:42:17,1763.7698562406238,26.100000835200003,0.0,0.42413201357222396,1763.7698562406238,26.100000835200003,0.8063993323904,0.42413201357222396,1684,0.0,99,GPS_Atti,
0.297831525867057,36.880034340514605,8900,2017-11-15 12:42:17,1764.2698562566238,26.6000008512,0.0,0.44481601423411204,1764.2698562566238,26.6000008512,0.8063993323904,0.44481601423411204,1684,0.0,99,GPS_Atti,
0.297831641342057,36.8800344692654,9000,2017-11-15 12:42:17,1764.8698562758238,27.200000870400004,0.0,0.4629530148144961,1764.8698562758238,27.200000870400004,0.8063993323904,0.4629530148144961,1684,0.0,99,GPS_Atti,
0.297831690806654,36.8800345237522,9100,2017-11-15 12:42:18,1765.4698562950236,27.8000008896,0.0,0.470681015061792,1765.4698562950236,27.8000008896,0.8063993323904,0.470681015061792,1684,0.0,99,GPS_Atti,
0.297831717227344,36.880034567425,9200,2017-11-15 12:42:18,1766.069856314224,28.400000908800006,0.0,0.4763030152416961,1766.069856314224,28.400000908800006,0.8063993323904,0.4763030152416961,1684,0.0,99,GPS_Atti,
0.29783170804190195,36.880034581377004,9300,2017-11-15 12:42:18,1766.6698563334237,29.000000928,0.0,0.47732701527446403,1766.6698563334237,29.000000928,0.8063993323904,0.47732701527446403,1684,0.0,99,GPS_Atti,
0.297831716480906,36.8800345818149,9400,2017-11-15 12:42:18,1767.2698563526237,29.6000009472,0.35999970196000003,0.477741015287712,1767.2698563526237,29.6000009472,0.8063993323904,0.477741015287712,1684,0.0,99,GPS_Atti,
0.29783171107141804,36.8800345306394,9500,2017-11-15 12:42:18,1767.869856371824,30.200000966400005,0.5075995797636,0.472276015112832,1767.869856371824,30.200000966400005,0.8063993323904,0.477741015287712,1684,0.0,99,GPS_Atti,
0.297831727877367,36.880034476553995,9600,2017-11-15 12:42:18,1768.3698563878238,30.700000982400002,0.5075995797636,0.46751701496054404,1768.3698563878238,30.700000982400002,0.8063993323904,0.477741015287712,1684,0.0,99,GPS_Atti,
0.297831694944734,36.880034403817795,9700,2017-11-15 12:42:18,1768.9698564070236,31.300001001600002,0.5075995797636,0.458638014676416,1768.9698564070236,31.300001001600002,0.8063993323904,0.477741015287712,1684,0.0,99,GPS_Atti,
0.297831702129632,36.880034355816605,9800,2017-11-15 12:42:18,1769.5698564262239,31.9000010208,0.35999970196000003,0.45409001453088005,1769.5698564262239,31.9000010208,0.8063993323904,0.477741015287712,1684,0.0,99,GPS_Atti,
0.297831684432924,36.8800343562577,9900,2017-11-15 12:42:18,1770.0698564422237,32.4000010368,0.35999970196000003,0.45333001450656,1770.0698564422237,32.4000010368,0.8063993323904,0.477741015287712,1684,0.0,99,GPS_Atti,
0.297831664454766,36.880034407343295,10000,2017-11-15 12:42:19,1770.669856461424,33.000001056,0.35999970196000003,0.45763401464428805,1770.669856461424,33.000001056,0.8063993323904,0.477741015287712,1684,0.0,99,GPS_Atti,
0.297831618616917,36.880034449145704,10100,2017-11-15 12:42:19,1771.2698564806237,33.6000010752,0.35999970196000003,0.45991201471718396,1771.2698564806237,33.6000010752,0.8063993323904,0.477741015287712,1684,0.0,99,GPS_Atti,
0.29783159782128005,36.880034488998604,10200,2017-11-15 12:42:19,1771.7698564966238,34.1000010912,0.35999970196000003,0.463126014820032,1771.7698564966238,34.1000010912,0.8063993323904,0.477741015287712,1684,0.0,99,GPS_Atti,
0.297831576832266,36.8800345280025,10300,2017-11-15 12:42:19,1772.3698565158238,34.7000011104,0.0,0.4662750149208,1772.3698565158238,34.7000011104,0.8063993323904,0.477741015287712,1684,0.0,99,GPS_Atti,
0.297831568634068,36.8800345556324,10400,2017-11-15 12:42:19,1772.9698565350238,35.300001129600005,0.0,0.468796015001472,1772.9698565350238,35.300001129600005,0.8063993323904,0.477741015287712,1684,0.0,99,GPS_Atti,
0.29783152675109903,36.880034425300295,10600,2017-11-15 12:42:19,1774.069856570224,36.4000011648,0.35999970196000003,0.45360501451536,1774.069856570224,36.4000011648,0.8063993323904,0.477741015287712,1684,0.0,99,GPS_Atti,
0.29783153440091803,36.8800342807872,10700,2017-11-15 12:42:19,1774.5698565862238,36.900001180800004,0.35999970196000003,0.439029014048928,1774.5698565862238,36.900001180800004,0.8063993323904,0.477741015287712,1684,0.0,99,GPS_Atti,
0.29783162443371897,36.8800338918872,10900,2017-11-15 12:42:19,1775.6698566214238,38.000001216,0.7199994039200001,0.403726012919232,1775.6698566214238,38.000001216,0.8063993323904,0.477741015287712,1684,0.0,99,GPS_Atti,
0.29783168322787607,36.880033686305104,11000,2017-11-15 12:42:20,1776.2698566406236,38.600001235200004,0.35999970196000003,0.386416012365312,1776.2698566406236,38.600001235200004,0.8063993323904,0.477741015287712,1684,0.0,99,GPS_Atti,
0.297831737503914,36.880033505214,11100,2017-11-15 12:42:20,1776.769856656624,39.100001251200005,0.35999970196000003,0.3719030119008961,1776.769856656624,39.100001251200005,0.8063993323904,0.477741015287712,1684,0.0,99,GPS_Atti,
0.29783178758711604,36.880033349345105,11200,2017-11-15 12:42:20,1777.2698566726237,39.60000126719999,0.35999970196000003,0.36013001152416,1777.2698566726237,39.60000126719999,0.8063993323904,0.477741015287712,1684,0.0,99,GPS_Atti,
0.297831814459699,36.8800332278304,11300,2017-11-15 12:42:20,1777.869856691824,40.2000012864,0.35999970196000003,0.350562011217984,1777.869856691824,40.2000012864,0.8063993323904,0.477741015287712,1684,0.0,99,GPS_Atti,
0.29783184549661995,36.8800331435682,11400,2017-11-15 12:42:20,1778.3698567078238,40.7000013024,0.35999970196000003,0.34490601103699203,1778.3698567078238,40.7000013024,0.8063993323904,0.477741015287712,1684,0.0,99,GPS_Atti,
0.297831882173047,36.8800330400962,11500,2017-11-15 12:42:20,1778.9698567270236,41.30000132160001,0.35999970196000003,0.33813701082038394,1778.9698567270236,41.30000132160001,0.8063993323904,0.477741015287712,1684,0.0,99,GPS_Atti,
0.29783194409422303,36.880032887226,11600,2017-11-15 12:42:20,1779.469856743024,41.80000133760001,0.7199994039200001,0.329269010536608,1779.469856743024,41.80000133760001,0.8063993323904,0.477741015287712,1684,0.0,99,GPS_Atti,
0.297832021212648,36.8800326892259,11700,2017-11-15 12:42:20,1779.9698567590237,42.30000135360001,0.7199994039200001,0.318748010199936,1779.9698567590237,42.30000135360001,0.8063993323904,0.477741015287712,1684,0.0,99,GPS_Atti,
0.29783211241752194,36.88003246551229,11800,2017-11-15 12:42:20,1780.569856778224,42.900001372800006,0.7199994039200001,0.30895100988643204,1780.569856778224,42.900001372800006,0.8063993323904,0.477741015287712,1684,0.0,99,GPS_Atti,
0.29783219834094504,36.8800322540516,11900,2017-11-15 12:42:20,1781.0698567942238,43.40000138880001,0.35999970196000003,0.301578009650496,1781.0698567942238,43.40000138880001,0.8063993323904,0.477741015287712,1684,0.0,99,GPS_Atti,
0.297832282397967,36.880032081961005,12000,2017-11-15 12:42:21,1781.5698568102237,43.9000014048,0.35999970196000003,0.29836900954780804,1781.5698568102237,43.9000014048,0.8063993323904,0.477741015287712,1684,0.0,99,GPS_Atti,
0.297832316364866,36.8800319864457,12100,2017-11-15 12:42:21,1782.069856826224,44.4000014208,0.0,0.296016009472512,1782.069856826224,44.4000014208,0.8063993323904,0.477741015287712,1684,0.0,99,GPS_Atti,
0.297832315671352,36.8800319284484,12200,2017-11-15 12:42:21,1782.5698568422238,44.9000014368,0.0,0.292723009367136,1782.5698568422238,44.9000014368,0.8063993323904,0.477741015287712,1684,0.0,99,GPS_Atti,
0.297832327837661,36.8800319001033,12300,2017-11-15 12:42:21,1783.0698568582238,45.400001452800005,0.0,0.292369009355808,1783.0698568582238,45.400001452800005,0.8063993323904,0.477741015287712,1684,0.0,99,GPS_Atti,
0.297832424287956,36.8800318710816,12400,2017-11-15 12:42:21,1783.569856874224,45.9000014688,0.35999970196000003,0.300319009610208,1783.569856874224,45.9000014688,0.8063993323904,0.477741015287712,1684,0.0,99,GPS_Atti,
0.29783262742128197,36.88003186074079,12500,2017-11-15 12:42:21,1784.069856890224,46.4000014848,0.7199994039200001,0.320071010242272,1784.069856890224,46.4000014848,0.8063993323904,0.477741015287712,1684,0.0,99,GPS_Atti,
0.29783290464372,36.880031841640296,12600,2017-11-15 12:42:21,1784.5698569062238,46.9000015008,0.7199994039200001,0.347376011116032,1784.5698569062238,46.9000015008,0.8063993323904,0.477741015287712,1684,0.0,99,GPS_Atti,
0.297833134016469,36.8800318408256,12700,2017-11-15 12:42:21,1784.9698569190236,47.30000151360001,0.35999970196000003,0.37099601187187203,1784.9698569190236,47.30000151360001,0.8063993323904,0.477741015287712,1684,0.0,99,GPS_Atti,
0.29783333482559804,36.8800318966432,12800,2017-11-15 12:42:21,1785.4698569350237,47.8000015296,0.35999970196000003,0.394066012610112,1785.4698569350237,47.8000015296,0.8063993323904,0.477741015287712,1684,0.0,99,GPS_Atti,
0.29783358106424296,36.880031980941794,12900,2017-11-15 12:42:21,1785.9698569510238,48.300001545600004,0.7199994039200001,0.422993013535776,1785.9698569510238,48.300001545600004,0.8063993323904,0.477741015287712,1684,0.0,99,GPS_Atti,
0.29783387830249797,36.8800320300007,13000,2017-11-15 12:42:22,1786.4698569670238,48.8000015616,0.7199994039200001,0.45588401458828803,1786.4698569670238,48.8000015616,0.8063993323904,0.477741015287712,1684,0.0,99,GPS_Atti,
0.297834155076554,36.8800320716212,13100,2017-11-15 12:42:22,1786.9698569830236,49.30000157760001,0.7199994039200001,0.486437015565984,1786.9698569830236,49.30000157760001,0.8063993323904,0.486437015565984,1684,0.0,99,GPS_Atti,
0.297834437292158,36.8800321173902,13200,2017-11-15 12:42:22,1787.469856999024,49.8000015936,0.7199994039200001,0.517779016568928,1787.469856999024,49.8000015936,0.8063993323904,0.517779016568928,1684,0.0,99,GPS_Atti,
0.297834685657497,36.88003218555821,13300,2017-11-15 12:42:22,1787.9698570150238,50.3000016096,0.35999970196000003,0.5463760174840321,1787.9698570150238,50.3000016096,0.8063993323904,0.5463760174840321,1684,0.0,99,GPS_Atti,
0.29783489422452397,36.880032252657706,13400,2017-11-15 12:42:22,1788.4698570310238,50.800001625600004,0.35999970196000003,0.57074001826368,1788.4698570310238,50.800001625600004,0.8063993323904,0.57074001826368,1684,0.0,99,GPS_Atti,
0.29783507000992604,36.880032317059296,13500,2017-11-15 12:42:22,1788.9698570470239,51.3000016416,0.35999970196000003,0.5915500189296,1788.9698570470239,51.3000016416,0.8063993323904,0.5915500189296,1684,0.0,99,GPS_Atti,
0.29783529684963,36.880032342810296,13600,2017-11-15 12:42:22,1789.4698570630237,51.800001657600006,0.35999970196000003,0.6164070197250241,1789.4698570630237,51.800001657600006,0.8063993323904,0.6164070197250241,1684,0.0,99,GPS_Atti,
0.297835487289489,36.880032407045995,13700,2017-11-15 12:42:22,1790.0698570822237,52.400001676799995,0.35999970196000003,0.638756020440192,1790.0698570822237,52.400001676799995,0.8063993323904,0.638756020440192,1684,0.0,99,GPS_Atti,
0.297835572057175,36.8800325494266,13800,2017-11-15 12:42:22,1790.5698570982238,52.90000169280001,0.7199994039200001,0.6527250208872,1790.5698570982238,52.90000169280001,0.8063993323904,0.6527250208872,1684,0.0,99,GPS_Atti,
0.29783548702054197,36.8800329063094,14000,2017-11-15 12:42:22,1791.5698571302237,53.900001724800006,0.35999970196000003,0.657997021055904,1791.5698571302237,53.900001724800006,0.8063993323904,0.657997021055904,1684,0.0,99,GPS_Atti,
0.297835500110687,36.8800330148655,14100,2017-11-15 12:42:23,1792.069857146224,54.40000174080001,0.0,0.6640630212500159,1792.069857146224,54.40000174080001,0.8063993323904,0.6640630212500159,1684,0.0,99,GPS_Atti,
0.297835640687336,36.8800330440607,14200,2017-11-15 12:42:23,1792.5698571622238,54.9000017568,0.35999970196000003,0.679702021750464,1792.5698571622238,54.9000017568,0.8063993323904,0.679702021750464,1684,0.0,99,GPS_Atti,
0.297835802149594,36.8800330499939,14300,2017-11-15 12:42:23,1793.0698571782236,55.40000177280001,0.0,0.696492022287744,1793.0698571782236,55.40000177280001,0.8063993323904,0.696492022287744,1684,0.0,99,GPS_Atti,
0.297835943947984,36.8800330813281,14400,2017-11-15 12:42:23,1793.569857194224,55.900001788800004,0.35999970196000003,0.7123900227964801,1793.569857194224,55.900001788800004,0.8063993323904,0.7123900227964801,1684,0.0,99,GPS_Atti,
0.297836018293068,36.880033175914,14500,2017-11-15 12:42:23,1794.0698572102237,56.400001804800006,0.35999970196000003,0.724079023170528,1794.0698572102237,56.400001804800006,0.8063993323904,0.724079023170528,1684,0.0,99,GPS_Atti,
0.29783607077832697,36.8800333218458,14600,2017-11-15 12:42:23,1794.5698572262238,56.90000182080001,0.35999970196000003,0.735899023548768,1794.5698572262238,56.90000182080001,0.8063993323904,0.735899023548768,1684,0.0,99,GPS_Atti,
0.297836053964133,36.8800334689519,14700,2017-11-15 12:42:23,1795.1698572454238,57.50000184,0.5075995797636,0.741004023712128,1795.1698572454238,57.50000184,0.8063993323904,0.741004023712128,1684,0.0,99,GPS_Atti,
0.29783600810257105,36.8800336215309,14800,2017-11-15 12:42:23,1795.6698572614237,58.000001856,0.5075995797636,0.7438160238021121,1795.6698572614237,58.000001856,0.8063993323904,0.7438160238021121,1684,0.0,99,GPS_Atti,
0.29783592205426695,36.88003378461679,14900,2017-11-15 12:42:23,1796.1698572774237,58.500001872,0.5075995797636,0.7436400237964801,1796.1698572774237,58.500001872,0.8063993323904,0.7438160238021121,1684,0.0,99,GPS_Atti,
0.297835834944421,36.8800339304211,15000,2017-11-15 12:42:24,1796.6698572934238,59.000001888,0.5075995797636,0.742977023775264,1796.6698572934238,59.000001888,0.8063993323904,0.7438160238021121,1684,0.0,99,GPS_Atti,
0.297835738384307,36.8800340181028,15100,2017-11-15 12:42:24,1797.2698573126238,59.6000019072,0.35999970196000003,0.7385790236345279,1797.2698573126238,59.6000019072,0.8063993323904,0.7438160238021121,1684,0.0,99,GPS_Atti,
0.29783570543315,36.8800340497068,15200,2017-11-15 12:42:24,1797.7698573286239,60.100001923200004,0.35999970196000003,0.737233023591456,1797.7698573286239,60.100001923200004,0.8063993323904,0.7438160238021121,1684,0.0,99,GPS_Atti,
0.297835708599761,36.880034041946004,15300,2017-11-15 12:42:24,1798.269857344624,60.600001939200006,0.0,0.737091023586912,1798.269857344624,60.600001939200006,0.8063993323904,0.7438160238021121,1684,0.0,99,GPS_Atti,
0.29783579705561797,36.8800339961984,15400,2017-11-15 12:42:24,1798.7698573606237,61.10000195520001,0.0,0.7429710237750721,1798.7698573606237,61.10000195520001,0.8063993323904,0.7438160238021121,1684,0.0,99,GPS_Atti,
0.29783592549262394,36.8800339211979,15500,2017-11-15 12:42:24,1799.3698573798238,61.7000019744,0.0,0.751252024040064,1799.3698573798238,61.7000019744,0.8063993323904,0.751252024040064,1684,0.0,99,GPS_Atti,
0.29783610411511996,36.880033842599104,15600,2017-11-15 12:42:24,1799.8698573958238,62.200001990400004,0.0,0.7645460244654722,1799.8698573958238,62.200001990400004,0.8063993323904,0.7645460244654722,1684,0.0,99,GPS_Atti,
0.297836277018418,36.8800337333899,15700,2017-11-15 12:42:24,1800.3698574118237,62.7000020064,0.5075995797636,0.7761310248361921,1800.3698574118237,62.7000020064,0.8063993323904,0.7761310248361921,1684,0.0,99,GPS_Atti,
0.29783650046037397,36.880033615037796,15800,2017-11-15 12:42:24,1800.7698574246238,63.100002019200005,0.5075995797636,0.7928760253720321,1800.7698574246238,63.100002019200005,0.8063993323904,0.7928760253720321,1684,0.0,99,GPS_Atti,
0.29783676693121397,36.8800334949513,15900,2017-11-15 12:42:24,1801.2698574406238,63.600002035200006,0.5075995797636,0.814577026066464,1801.2698574406238,63.600002035200006,0.8063993323904,0.814577026066464,1684,0.0,99,GPS_Atti,
0.29783704959143503,36.8800334253476,16000,2017-11-15 12:42:25,1801.7698574566239,64.1000020512,0.5075995797636,0.8407120269027839,1801.7698574566239,64.1000020512,0.8063993323904,0.8407120269027839,1684,0.0,99,GPS_Atti,
0.2978372901806,36.8800333587331,16100,2017-11-15 12:42:25,1802.369857475824,64.7000020704,0.0,0.8630020276160639,1802.369857475824,64.7000020704,0.8063993323904,0.8630020276160639,1684,0.0,99,GPS_Atti,
0.297837436961418,36.880033328242604,16200,2017-11-15 12:42:25,1802.8698574918237,65.2000020864,0.0,0.87714002806848,1802.8698574918237,65.2000020864,0.8063993323904,0.87714002806848,1684,0.0,99,GPS_Atti,
0.297837516805859,36.8800332792789,16300,2017-11-15 12:42:25,1803.3698575078238,65.7000021024,0.0,0.883662028277184,1803.3698575078238,65.7000021024,0.8063993323904,0.883662028277184,1684,0.0,99,GPS_Atti,
0.297837587950542,36.880033236251705,16400,2017-11-15 12:42:25,1803.8698575238238,66.20000211840001,0.0,0.8895570284658241,1803.8698575238238,66.20000211840001,0.8063993323904,0.8895570284658241,1684,0.0,99,GPS_Atti,
0.297837647900079,36.8800331564496,16500,2017-11-15 12:42:25,1804.369857539824,66.7000021344,0.35999970196000003,0.89303502857712,1804.369857539824,66.7000021344,0.8063993323904,0.89303502857712,1684,0.0,99,GPS_Atti,
0.297837676945617,36.8800330254794,16600,2017-11-15 12:42:25,1804.8698575558237,67.2000021504,0.35999970196000003,0.891649028532768,1804.8698575558237,67.2000021504,0.8063993323904,0.89303502857712,1684,0.0,99,GPS_Atti,
0.297837646853193,36.880032872160605,16700,2017-11-15 12:42:25,1805.3698575718236,67.70000216640001,0.5075995797636,0.883500028272,1805.3698575718236,67.70000216640001,0.8063993323904,0.89303502857712,1684,0.0,99,GPS_Atti,
0.297837406028513,36.880032584392204,16900,2017-11-15 12:42:25,1806.4698576070236,68.8000022016,0.8063993323904,0.8491010271712321,1806.4698576070236,68.8000022016,0.8063993323904,0.89303502857712,1684,0.0,99,GPS_Atti,
0.29783728016343103,36.8800324027455,17000,2017-11-15 12:42:26,1806.969857623024,69.30000221760001,0.5075995797636,0.83056002657792,1806.969857623024,69.30000221760001,0.8063993323904,0.89303502857712,1684,0.0,99,GPS_Atti,
0.297837165511406,36.8800322408865,17100,2017-11-15 12:42:26,1807.4698576390238,69.8000022336,0.5075995797636,0.8140370260491839,1807.4698576390238,69.8000022336,0.8063993323904,0.89303502857712,1684,0.0,99,GPS_Atti,
0.29783702603741696,36.880031967646104,17300,2017-11-15 12:42:26,1808.3698576678237,70.7000022624,0.35999970196000003,0.792666025365312,1808.3698576678237,70.7000022624,0.8063993323904,0.89303502857712,1684,0.0,99,GPS_Atti,
0.297836985178739,36.880031902569996,17400,2017-11-15 12:42:26,1808.869857683824,71.2000022784,0.35999970196000003,0.7868730251799361,1808.869857683824,71.2000022784,0.8063993323904,0.89303502857712,1684,0.0,99,GPS_Atti,
0.297836902863338,36.880031921239,17500,2017-11-15 12:42:26,1809.3698576998238,71.7000022944,0.35999970196000003,0.778249024903968,1809.3698576998238,71.7000022944,0.8063993323904,0.89303502857712,1684,0.0,99,GPS_Atti,
0.297836803366224,36.880031976476396,17600,2017-11-15 12:42:26,1809.8698577158236,72.2000023104,0.8063993323904,0.7685460245934721,1809.8698577158236,72.2000023104,0.8063993323904,0.89303502857712,1684,0.0,99,GPS_Atti,
0.297836647180328,36.880032044882,17700,2017-11-15 12:42:26,1810.4698577350239,72.8000023296,0.7199994039200001,0.7530650240980801,1810.4698577350239,72.8000023296,0.8063993323904,0.89303502857712,1684,0.0,99,GPS_Atti,
0.297836338999948,36.88003195805889,17900,2017-11-15 12:42:26,1811.3698577638238,73.7000023584,0.35999970196000003,0.7175370229611839,1811.3698577638238,73.7000023584,0.8063993323904,0.89303502857712,1684,0.0,99,GPS_Atti,
0.29783629478636997,36.8800318177981,18000,2017-11-15 12:42:27,1811.8698577798236,74.2000023744,0.35999970196000003,0.709666022709312,1811.8698577798236,74.2000023744,0.8063993323904,0.89303502857712,1684,0.0,99,GPS_Atti,
0.297836273730081,36.880031649742605,18100,2017-11-15 12:42:27,1812.369857795824,74.7000023904,0.35999970196000003,0.7041240225319679,1812.369857795824,74.7000023904,0.8063993323904,0.89303502857712,1684,0.0,99,GPS_Atti,
0.297836271308177,36.8800314544532,18200,2017-11-15 12:42:27,1812.8698578118237,75.20000240640002,0.35999970196000003,0.700698022422336,1812.8698578118237,75.20000240640002,0.8063993323904,0.89303502857712,1684,0.0,99,GPS_Atti,
0.297836233402276,36.880031292433706,18300,2017-11-15 12:42:27,1813.469857831024,75.80000242560001,0.5075995797636,0.6943860222203521,1813.469857831024,75.80000242560001,0.8063993323904,0.89303502857712,1684,0.0,99,GPS_Atti,
0.297836216196849,36.8800311167181,18400,2017-11-15 12:42:27,1813.9698578470238,76.3000024416,0.35999970196000003,0.690688022102016,1813.9698578470238,76.3000024416,0.8063993323904,0.89303502857712,1684,0.0,99,GPS_Atti,
0.29783618550098495,36.8800309815394,18500,2017-11-15 12:42:27,1814.4698578630237,76.8000024576,0.35999970196000003,0.6862720219607039,1814.4698578630237,76.8000024576,0.8063993323904,0.89303502857712,1684,0.0,99,GPS_Atti,
0.29783617441199395,36.880030867048895,18600,2017-11-15 12:42:27,1814.8698578758238,77.20000247040001,0.0,0.684439021902048,1814.8698578758238,77.20000247040001,0.8063993323904,0.89303502857712,1684,0.0,99,GPS_Atti,
0.29783614333487,36.880030795162796,18700,2017-11-15 12:42:27,1815.3698578918238,77.70000248640001,0.0,0.6807270217832639,1815.3698578918238,77.70000248640001,0.8063993323904,0.89303502857712,1684,0.0,99,GPS_Atti,
0.29783612720248603,36.8800307228366,18800,2017-11-15 12:42:27,1815.8698579078239,78.20000250240001,0.0,0.6787680217205759,1815.8698579078239,78.20000250240001,0.8063993323904,0.89303502857712,1684,0.0,99,GPS_Atti,
0.29783609810402395,36.8800306589595,18900,2017-11-15 12:42:27,1816.3698579238237,78.70000251840001,0.0,0.6754640216148479,1816.3698579238237,78.70000251840001,0.8063993323904,0.89303502857712,1684,0.0,99,GPS_Atti,
0.29783608395365996,36.880030580647706,19000,2017-11-15 12:42:28,1816.8698579398238,79.20000253439999,0.0,0.67391002156512,1816.8698579398238,79.20000253439999,0.8063993323904,0.89303502857712,1684,0.0,99,GPS_Atti,
0.29783605181377304,36.8800305190863,19100,2017-11-15 12:42:28,1817.3698579558238,79.70000255040001,0.0,0.6704310214537922,1817.3698579558238,79.70000255040001,0.8063993323904,0.89303502857712,1684,0.0,99,GPS_Atti,
0.29783602462975,36.8800304700328,19200,2017-11-15 12:42:28,1817.8698579718239,80.20000256640002,0.35999970196000003,0.667534021361088,1817.8698579718239,80.20000256640002,0.8063993323904,0.89303502857712,1684,0.0,99,GPS_Atti,
0.297835972347538,36.880030455149296,19300,2017-11-15 12:42:28,1818.3698579878237,80.7000025824,0.35999970196000003,0.6617700211766401,1818.3698579878237,80.7000025824,0.8063993323904,0.89303502857712,1684,0.0,99,GPS_Atti,
0.29783591921548197,36.8800304523123,19400,2017-11-15 12:42:28,1818.8698580038238,81.2000025984,0.35999970196000003,0.6558730209879361,1818.8698580038238,81.2000025984,0.8063993323904,0.89303502857712,1466,0.0,99,GPS_Atti,
0.29783584646881706,36.8800304749821,19500,2017-11-15 12:42:28,1819.3698580198238,81.7000026144,0.35999970196000003,0.6477140207268479,1819.3698580198238,81.7000026144,0.8063993323904,0.89303502857712,1024,0.0,99,GPS_Atti,
0.297835775175132,36.8800304828221,19600,2017-11-15 12:42:28,1819.8698580358237,82.20000263040001,0.35999970196000003,0.6397650204724801,1819.8698580358237,82.20000263040001,0.8063993323904,0.89303502857712,1024,0.0,99,GPS_Atti,
0.297835692102606,36.88003048298479,19700,2017-11-15 12:42:28,1820.2698580486237,82.60000264320001,0.35999970196000003,0.63053002017696,1820.2698580486237,82.60000264320001,0.8063993323904,0.89303502857712,1024,0.0,99,GPS_Atti,
0.297835638428074,36.8800304660555,19800,2017-11-15 12:42:28,1820.6698580614236,83.000002656,0.35999970196000003,0.6246160199877121,1820.6698580614236,83.000002656,0.8063993323904,0.89303502857712,1024,0.0,99,GPS_Atti,
0.297835561665158,36.880030437048795,19900,2017-11-15 12:42:28,1820.8698580678238,83.20000266240001,0.35999970196000003,0.616189019718048,1820.8698580678238,83.20000266240001,0.8063993323904,0.89303502857712,1024,0.0,99,GPS_Atti,
0.29783549082555394,36.880030370762896,20000,2017-11-15 12:42:29,1821.0698580742237,83.4000026688,0.35999970196000003,0.608625019476,1821.0698580742237,83.4000026688,0.8063993323904,0.89303502857712,1024,0.0,99,GPS_Atti,
0.29783539423623,36.8800302941404,20100,2017-11-15 12:42:29,1821.169858077424,83.500002672,0.35999970196000003,0.5983730191479361,1821.169858077424,83.500002672,0.8063993323904,0.89303502857712,1024,0.0,99,GPS_Atti,
0.29783532542236,36.880030187612,20200,2017-11-15 12:42:29,1821.2698580806239,83.60000267520002,0.35999970196000003,0.59161001893152,1821.2698580806239,83.60000267520002,0.8063993323904,0.89303502857712,1024,0.0,99,GPS_Atti,
0.297835248942538,36.880030085655,20300,2017-11-15 12:42:29,1821.2698580806239,83.60000267520002,0.35999970196000003,0.584207018694624,1821.2698580806239,83.60000267520002,0.8063993323904,0.89303502857712,1024,0.0,99,GPS_Atti,
0.29783517837437606,36.880029973129,20400,2017-11-15 12:42:29,1821.2698580806239,83.60000267520002,0.35999970196000003,0.577859018491488,1821.2698580806239,83.60000267520002,0.8063993323904,0.89303502857712,1024,0.0,99,GPS_Atti,
0.297835086730331,36.8800298985846,20500,2017-11-15 12:42:29,1821.2698580806239,83.60000267520002,0.0,0.5688830182042561,1821.2698580806239,83.60000267520002,0.8063993323904,0.89303502857712,1024,0.0,99,GPS_Atti,
0.297835035612024,36.880029849121996,20600,2017-11-15 12:42:29,1821.3698580838238,83.70000267840001,0.0,0.5640810180505921,1821.3698580838238,83.70000267840001,0.8063993323904,0.89303502857712,1047,0.0,99,GPS_Atti,
0.29783498750275,36.8800298319957,20700,2017-11-15 12:42:29,1821.3698580838238,83.70000267840001,0.0,0.559097017891104,1821.3698580838238,83.70000267840001,0.8063993323904,0.89303502857712,1182,0.0,99,GPS_Atti,
0.297834981947415,36.8800298137656,20800,2017-11-15 12:42:29,1821.3698580838238,83.70000267840001,0.0,0.558814017882048,1821.3698580838238,83.70000267840001,0.8063993323904,0.89303502857712,1241,0.0,99,GPS_Atti,
0.297834958550924,36.8800298217951,20900,2017-11-15 12:42:29,1821.3698580838238,83.70000267840001,0.35999970196000003,0.5561010177952321,1821.3698580838238,83.70000267840001,0.8063993323904,0.89303502857712,1250,0.0,99,GPS_Atti,
0.29783491410204904,36.8800297987313,21000,2017-11-15 12:42:30,1821.469858087024,83.8000026816,0.0,0.5516500176528,1821.469858087024,83.8000026816,0.8063993323904,0.89303502857712,1271,0.0,99,GPS_Atti,
0.297834765278927,36.8800297392704,21100,2017-11-15 12:42:30,1821.5698580902238,83.9000026848,0.35999970196000003,0.536529017168928,1821.5698580902238,83.9000026848,0.8063993323904,0.89303502857712,1273,0.0,99,GPS_Atti,
0.29783460042919396,36.880029666088795,21200,2017-11-15 12:42:30,1821.6698580934237,84.000002688,0.35999970196000003,0.5201460166446721,1821.6698580934237,84.000002688,0.8063993323904,0.89303502857712,1262,0.0,99,GPS_Atti,
0.297834417114999,36.880029612990604,21300,2017-11-15 12:42:30,1821.869858099824,84.2000026944,0.35999970196000003,0.501521016048672,1821.869858099824,84.2000026944,0.8063993323904,0.89303502857712,1126,0.0,99,GPS_Atti,
0.297834271122578,36.880029533709795,21400,2017-11-15 12:42:30,1822.0698581062238,84.4000027008,0.35999970196000003,0.48785501561136,1822.0698581062238,84.4000027008,0.8063993323904,0.89303502857712,1024,0.0,99,GPS_Atti,
0.297834116610671,36.8800294591439,21500,2017-11-15 12:42:30,1822.1698581094238,84.500002704,0.35999970196000003,0.47346001515071995,1822.1698581094238,84.500002704,0.8063993323904,0.89303502857712,1024,0.0,99,GPS_Atti,
0.29783402942607,36.880029368976295,21600,2017-11-15 12:42:30,1822.269858112624,84.60000270720002,0.35999970196000003,0.46706701494614394,1822.269858112624,84.60000270720002,0.8063993323904,0.89303502857712,1024,0.0,99,GPS_Atti,
0.297833981044541,36.880029345399706,21700,2017-11-15 12:42:30,1822.369858115824,84.70000271040001,0.0,0.46274401480780797,1822.369858115824,84.70000271040001,0.8063993323904,0.89303502857712,1024,0.0,99,GPS_Atti,
0.29783400200872195,36.880029280937,21800,2017-11-15 12:42:30,1822.369858115824,84.70000271040001,0.35999970196000003,0.46721901495100804,1822.369858115824,84.70000271040001,0.8063993323904,0.89303502857712,1024,0.0,99,GPS_Atti,
0.297833987645591,36.8800292012334,21900,2017-11-15 12:42:30,1822.369858115824,84.70000271040001,0.0,0.468644014996608,1822.369858115824,84.70000271040001,0.8063993323904,0.89303502857712,1024,0.0,99,GPS_Atti,
0.297834046595518,36.8800291282199,22000,2017-11-15 12:42:31,1822.269858112624,84.60000270720002,0.0,0.4775990152831681,1822.369858115824,84.70000271040001,0.8063993323904,0.89303502857712,1024,0.0,99,GPS_Atti,
0.297834070678882,36.88002910191,22100,2017-11-15 12:42:31,1822.269858112624,84.60000270720002,0.0,0.48113601539635203,1822.369858115824,84.70000271040001,0.8063993323904,0.89303502857712,1024,0.0,99,GPS_Atti,
0.29783414551718107,36.880029079173795,22200,2017-11-15 12:42:31,1822.269858112624,84.60000270720002,0.0,0.4898150156740801,1822.369858115824,84.70000271040001,0.8063993323904,0.89303502857712,1024,0.0,99,GPS_Atti,
0.297834178630012,36.880029087169,22300,2017-11-15 12:42:31,1822.269858112624,84.60000270720002,0.0,0.492951015774432,1822.369858115824,84.70000271040001,0.8063993323904,0.89303502857712,1024,0.0,99,GPS_Atti,
0.29783428480193996,36.8800290852922,22400,2017-11-15 12:42:31,1822.1698581094238,84.500002704,0.0,0.5041050161313599,1822.369858115824,84.70000271040001,0.8063993323904,0.89303502857712,1024,0.0,99,GPS_Atti,
0.297834359553677,36.88002910772121,22500,2017-11-15 12:42:31,1822.1698581094238,84.500002704,0.35999970196000003,0.5110930163549761,1822.369858115824,84.70000271040001,0.8063993323904,0.89303502857712,1024,0.0,98,GPS_Atti,
0.29783448542176194,36.8800291332024,22600,2017-11-15 12:42:31,1822.1698581094238,84.500002704,0.35999970196000003,0.523407016749024,1822.369858115824,84.70000271040001,0.8063993323904,0.89303502857712,1024,0.0,98,GPS_Atti,
0.297834567567398,36.8800291912458,22700,2017-11-15 12:42:31,1822.1698581094238,84.500002704,0.35999970196000003,0.530086016962752,1822.369858115824,84.70000271040001,0.8063993323904,0.89303502857712,1024,0.0,98,GPS_Atti,
0.297834709845174,36.88002922423829,22800,2017-11-15 12:42:31,1822.0698581062238,84.4000027008,0.35999970196000003,0.5441200174118401,1822.369858115824,84.70000271040001,0.8063993323904,0.89303502857712,1024,0.0,98,GPS_Atti,
0.29783480033245,36.8800292814862,22900,2017-11-15 12:42:31,1822.0698581062238,84.4000027008,0.35999970196000003,0.5519970176639041,1822.369858115824,84.70000271040001,0.8063993323904,0.89303502857712,1024,0.0,98,GPS_Atti,
0.29783492686718,36.880029331393104,23000,2017-11-15 12:42:32,1822.1698581094238,84.500002704,0.35999970196000003,0.5641000180512,1822.369858115824,84.70000271040001,0.8063993323904,0.89303502857712,1024,0.0,98,GPS_Atti,
0.29783500213480296,36.8800294041764,23100,2017-11-15 12:42:32,1822.1698581094238,84.500002704,0.35999970196000003,0.5702000182464001,1822.369858115824,84.70000271040001,0.8063993323904,0.89303502857712,1024,0.0,98,GPS_Atti,
0.29783513702874204,36.8800294819315,23200,2017-11-15 12:42:32,1822.1698581094238,84.500002704,0.35999970196000003,0.58281501865008,1822.369858115824,84.70000271040001,0.8063993323904,0.89303502857712,1024,0.0,98,GPS_Atti,
0.29783521923483397,36.8800295857043,23300,2017-11-15 12:42:32,1822.1698581094238,84.500002704,0.35999970196000003,0.589348018859136,1822.369858115824,84.70000271040001,0.8063993323904,0.89303502857712,1024,0.0,98,GPS_Atti,
0.297835347733416,36.8800296648459,23400,2017-11-15 12:42:32,1822.1698581094238,84.500002704,0.35999970196000003,0.6017250192552,1822.369858115824,84.70000271040001,0.8063993323904,0.89303502857712,1024,0.0,98,GPS_Atti,
0.297835410253096,36.8800297517825,23500,2017-11-15 12:42:32,1822.1698581094238,84.500002704,0.35999970196000003,0.6069310194217922,1822.369858115824,84.70000271040001,0.8063993323904,0.89303502857712,1024,0.0,98,GPS_Atti,
0.297835528969412,36.8800298377255,23600,2017-11-15 12:42:32,1822.1698581094238,84.500002704,0.5075995797636,0.6185240197927679,1822.369858115824,84.70000271040001,0.8063993323904,0.89303502857712,1024,0.0,98,GPS_Atti,
0.297835707651396,36.8800300606277,23800,2017-11-15 12:42:32,1822.1698581094238,84.500002704,0.5075995797636,0.6352360203275521,1822.369858115824,84.70000271040001,0.8063993323904,0.89303502857712,1024,0.0,98,GPS_Atti,
0.297835764192091,36.8800301793588,23900,2017-11-15 12:42:32,1822.1698581094238,84.500002704,0.5075995797636,0.6403170204901439,1822.369858115824,84.70000271040001,0.8063993323904,0.89303502857712,1024,0.0,98,GPS_Atti,
0.297835885320336,36.880030267848795,24000,2017-11-15 12:42:33,1822.1698581094238,84.500002704,0.35999970196000003,0.65306002089792,1822.369858115824,84.70000271040001,0.8063993323904,0.89303502857712,1024,0.0,98,GPS_Atti,
0.297835989059343,36.8800303542415,24100,2017-11-15 12:42:33,1822.1698581094238,84.500002704,0.35999970196000003,0.664057021249824,1822.369858115824,84.70000271040001,0.8063993323904,0.89303502857712,1024,0.0,98,GPS_Atti,
0.29783618733878603,36.880030419642,24200,2017-11-15 12:42:33,1822.1698581094238,84.500002704,0.35999970196000003,0.6857930219453761,1822.369858115824,84.70000271040001,0.8063993323904,0.89303502857712,1024,0.0,98,GPS_Atti,
0.29783632603325894,36.880030494028,24300,2017-11-15 12:42:33,1822.1698581094238,84.500002704,0.35999970196000003,0.7009760224312321,1822.369858115824,84.70000271040001,0.8063993323904,0.89303502857712,1024,0.0,98,GPS_Atti,
0.297836511845437,36.880030561691704,24400,2017-11-15 12:42:33,1822.1698581094238,84.500002704,0.35999970196000003,0.721513023088416,1822.369858115824,84.70000271040001,0.8063993323904,0.89303502857712,1024,0.0,98,GPS_Atti,
0.297836643184127,36.8800306485705,24500,2017-11-15 12:42:33,1822.1698581094238,84.500002704,0.35999970196000003,0.7360770235544639,1822.369858115824,84.70000271040001,0.8063993323904,0.89303502857712,1024,0.0,98,GPS_Atti,
0.2978368452038,36.8800307182459,24600,2017-11-15 12:42:33,1822.1698581094238,84.500002704,0.0,0.758599024275168,1822.369858115824,84.70000271040001,0.8063993323904,0.89303502857712,1024,0.0,98,GPS_Atti,
0.297836987238925,36.8800307690531,24700,2017-11-15 12:42:33,1822.269858112624,84.60000270720002,0.0,0.774483024783456,1822.369858115824,84.70000271040001,0.8063993323904,0.89303502857712,1024,0.0,98,GPS_Atti,
0.297837188138228,36.880030771338795,24800,2017-11-15 12:42:33,1822.269858112624,84.60000270720002,0.0,0.7968250254984001,1822.369858115824,84.70000271040001,0.8063993323904,0.89303502857712,1024,0.0,98,GPS_Atti,
0.297837320665072,36.8800307581459,24900,2017-11-15 12:42:33,1822.269858112624,84.60000270720002,0.0,0.811534025969088,1822.369858115824,84.70000271040001,0.8063993323904,0.89303502857712,1024,0.0,98,GPS_Atti,
0.297837497025557,36.8800307336603,25000,2017-11-15 12:42:34,1822.369858115824,84.70000271040001,0.35999970196000003,0.8311020265952641,1822.369858115824,84.70000271040001,0.8063993323904,0.89303502857712,1024,0.0,98,GPS_Atti,
0.29783758874909,36.8800307153831,25100,2017-11-15 12:42:34,1822.369858115824,84.70000271040001,0.35999970196000003,0.841277026920864,1822.369858115824,84.70000271040001,0.8063993323904,0.89303502857712,1024,0.0,98,GPS_Atti,
0.297837705248584,36.8800306600109,25200,2017-11-15 12:42:34,1822.369858115824,84.70000271040001,0.35999970196000003,0.854188027334016,1822.369858115824,84.70000271040001,0.8063993323904,0.89303502857712,1024,0.0,98,GPS_Atti,
0.29783773413555203,36.8800306007995,25300,2017-11-15 12:42:34,1822.369858115824,84.70000271040001,0.35999970196000003,0.857403027436896,1822.369858115824,84.70000271040001,0.8063993323904,0.89303502857712,1024,0.0,98,GPS_Atti,
0.297837793136521,36.8800305267561,25400,2017-11-15 12:42:34,1822.4698581190237,84.8000027136,0.35999970196000003,0.864037027649184,1822.4698581190237,84.8000027136,0.8063993323904,0.89303502857712,1024,0.0,98,GPS_Atti,
0.297837796853241,36.8800304663895,25500,2017-11-15 12:42:34,1822.4698581190237,84.8000027136,0.35999970196000003,0.864569027666208,1822.4698581190237,84.8000027136,0.8063993323904,0.89303502857712,1024,-0.2,98,GPS_Atti,
0.297837852671008,36.880030397444294,25600,2017-11-15 12:42:34,1822.4698581190237,84.8000027136,0.35999970196000003,0.8709710278710721,1822.4698581190237,84.8000027136,0.8063993323904,0.89303502857712,1024,-0.6,98,GPS_Atti,
0.297837855140747,36.880030352445004,25700,2017-11-15 12:42:34,1822.4698581190237,84.8000027136,0.35999970196000003,0.871411027885152,1822.4698581190237,84.8000027136,0.8063993323904,0.89303502857712,1024,-1.1,98,GPS_Atti,
0.29783794395099394,36.88003030537529,25800,2017-11-15 12:42:34,1822.4698581190237,84.8000027136,0.35999970196000003,0.8814820282074239,1822.4698581190237,84.8000027136,0.8063993323904,0.89303502857712,1024,-1.6,98,GPS_Atti,
0.29783799581856396,36.8800302789048,25900,2017-11-15 12:42:34,1822.4698581190237,84.8000027136,0.35999970196000003,0.8873710283958722,1822.4698581190237,84.8000027136,0.8063993323904,0.89303502857712,1024,-2.0,98,GPS_Atti,
0.297838112979206,36.8800302205745,26000,2017-11-15 12:42:35,1822.369858115824,84.70000271040001,0.35999970196000003,0.9006940288222081,1822.4698581190237,84.8000027136,0.8063993323904,0.9006940288222081,1024,-2.5,98,GPS_Atti,
0.297838169388303,36.8800301766245,26100,2017-11-15 12:42:35,1822.369858115824,84.70000271040001,0.35999970196000003,0.9072190290310079,1822.4698581190237,84.8000027136,0.8063993323904,0.9072190290310079,1024,-3.0,98,GPS_Atti,
0.297838274315463,36.880030125738,26200,2017-11-15 12:42:35,1822.369858115824,84.70000271040001,0.35999970196000003,0.9192000294144002,1822.4698581190237,84.8000027136,0.8063993323904,0.9192000294144002,1024,-3.0,98,GPS_Atti,
0.297838453968662,36.880030052871206,26400,2017-11-15 12:42:35,1822.369858115824,84.70000271040001,0.35999970196000003,0.9396630300692161,1822.4698581190237,84.8000027136,0.8063993323904,0.9396630300692161,1024,-3.9,98,GPS_Atti,
0.297838501868528,36.880030036347605,26500,2017-11-15 12:42:35,1822.369858115824,84.70000271040001,0.35999970196000003,0.9451050302433601,1822.4698581190237,84.8000027136,0.8063993323904,0.9451050302433601,1024,-4.4,98,GPS_Atti,
0.297838578746148,36.880029974372,26600,2017-11-15 12:42:35,1822.369858115824,84.70000271040001,0.35999970196000003,0.9541370305323842,1822.4698581190237,84.8000027136,0.8063993323904,0.9541370305323842,1024,-4.9,98,GPS_Atti,
0.29783861597767,36.8800299262027,26700,2017-11-15 12:42:35,1822.369858115824,84.70000271040001,0.35999970196000003,0.9586900306780799,1822.4698581190237,84.8000027136,0.8063993323904,0.9586900306780799,1024,-5.3,98,GPS_Atti,
0.297838697568007,36.880029855234,26800,2017-11-15 12:42:35,1822.369858115824,84.70000271040001,0.35999970196000003,0.9684060309889921,1822.4698581190237,84.8000027136,0.8063993323904,0.9684060309889921,1024,-5.8,98,GPS_Atti,
0.297838735806721,36.8800298160674,26900,2017-11-15 12:42:35,1822.369858115824,84.70000271040001,0.35999970196000003,0.973039031137248,1822.4698581190237,84.8000027136,0.8063993323904,0.973039031137248,1024,-6.3,98,GPS_Atti,
0.297838839089968,36.8800297477624,27000,2017-11-15 12:42:35,1822.269858112624,84.60000270720002,0.35999970196000003,0.9852050315265601,1822.4698581190237,84.8000027136,0.8063993323904,0.9852050315265601,1024,-6.7,98,GPS_Atti,
0.29783890579022,36.8800297093034,27100,2017-11-15 12:42:36,1822.269858112624,84.60000270720002,0.35999970196000003,0.9930190317766079,1822.4698581190237,84.8000027136,0.8063993323904,0.9930190317766079,1024,-7.2,98,GPS_Atti,
0.29783903024690195,36.8800296421974,27200,2017-11-15 12:42:36,1822.269858112624,84.60000270720002,0.35999970196000003,1.00757003224224,1822.4698581190237,84.8000027136,0.8063993323904,1.00757003224224,1024,-7.7,98,GPS_Atti,
0.29783910449580603,36.8800296004111,27300,2017-11-15 12:42:36,1822.369858115824,84.70000271040001,0.35999970196000003,1.0163000325216,1822.4698581190237,84.8000027136,0.8063993323904,1.0163000325216,1024,-8.2,98,GPS_Atti,
0.297839226033095,36.8800295148288,27400,2017-11-15 12:42:36,1822.369858115824,84.70000271040001,0.35999970196000003,1.03083003298656,1822.4698581190237,84.8000027136,0.8063993323904,1.03083003298656,1024,-8.6,98,GPS_Atti,
0.29783928872737503,36.88002945259829,27500,2017-11-15 12:42:36,1822.369858115824,84.70000271040001,0.35999970196000003,1.03861003323552,1822.4698581190237,84.8000027136,0.8063993323904,1.03861003323552,1024,-8.6,98,GPS_Atti,
0.297839406068978,36.880029358588295,27600,2017-11-15 12:42:36,1822.369858115824,84.70000271040001,0.35999970196000003,1.05291003369312,1822.4698581190237,84.8000027136,0.8063993323904,1.05291003369312,1024,-9.1,98,GPS_Atti,
0.297839472459826,36.8800293113976,27700,2017-11-15 12:42:36,1822.369858115824,84.70000271040001,0.35999970196000003,1.0609400339500799,1822.4698581190237,84.8000027136,0.8063993323904,1.0609400339500799,1024,-9.6,98,GPS_Atti,
0.297839565776587,36.880029245429704,27800,2017-11-15 12:42:36,1822.369858115824,84.70000271040001,0.35999970196000003,1.072250034312,1822.4698581190237,84.8000027136,0.8063993323904,1.072250034312,1024,-10.1,98,GPS_Atti,
0.297839580408971,36.8800292197975,27900,2017-11-15 12:42:36,1822.369858115824,84.70000271040001,0.35999970196000003,1.07427003437664,1822.4698581190237,84.8000027136,0.8063993323904,1.07427003437664,1024,-10.6,98,GPS_Atti,
0.29783962628101696,36.88002916658029,28000,2017-11-15 12:42:37,1822.269858112624,84.60000270720002,0.35999970196000003,1.0802000345664,1822.4698581190237,84.8000027136,0.8063993323904,1.0802000345664,1024,-11.0,98,GPS_Atti,
0.29783962645118894,36.880029141563796,28100,2017-11-15 12:42:37,1822.369858115824,84.70000271040001,0.35999970196000003,1.0806400345804799,1822.4698581190237,84.8000027136,0.8063993323904,1.0806400345804799,1024,-11.5,98,GPS_Atti,
0.29783970538512705,36.8800290811801,28200,2017-11-15 12:42:37,1822.369858115824,84.70000271040001,0.35999970196000003,1.0903600348915201,1822.4698581190237,84.8000027136,0.8063993323904,1.0903600348915201,1024,-12.0,98,GPS_Atti,
0.29783975055897804,36.8800290567887,28300,2017-11-15 12:42:37,1822.369858115824,84.70000271040001,0.35999970196000003,1.0957500350640001,1822.4698581190237,84.8000027136,0.8063993323904,1.0957500350640001,1024,-12.5,98,GPS_Atti,
0.29783984784385,36.88002900260479,28400,2017-11-15 12:42:37,1822.369858115824,84.70000271040001,0.35999970196000003,1.1074000354368,1822.4698581190237,84.8000027136,0.8063993323904,1.1074000354368,1024,-13.0,98,GPS_Atti,
