latitude,longitude,time_millisecond,datetime_utc,altitude_m,ascent_m,speed_kph,distance_m,max_altitude_m,max_ascent_m,max_speed_kph,max_distance_m,rc_throttle,gimbal_pitch_degrees,battery_percent,flycState,message
0.371722298812767,36.9135353453913,0,2018-04-18 06:33:56,1649.4291298817416,0.0,0.0,0.0,1649.4291298817416,0.0,0.0,0.0,364,0.0,99,Motors_Started,
0.37172226672784,36.9135353645291,100,2018-04-18 06:33:56,1649.4291298817416,0.0,0.0,0.00415453013294496,1649.4291298817416,0.0,0.0,0.00415453013294496,364,0.0,99,Motors_Started,
0.371722258936652,36.913535372941,200,2018-04-18 06:33:56,1649.4291298817416,0.0,0.0,0.005389840172474881,1649.4291298817416,0.0,0.0,0.005389840172474881,364,0.0,99,Motors_Started,
0.371722267905714,36.9135353798922,300,2018-04-18 06:33:56,1649.4291298817416,0.0,0.0,0.00515103016483296,1649.4291298817416,0.0,0.0,0.005389840172474881,364,0.0,99,Motors_Started,Setting new Return-To-Home altitude to 30m (98 ft). Setting new Maximum Flight Altitude to 150m (492 ft)
0.37172227905567,36.9135354018493,400,2018-04-18 06:33:57,1649.4291298817416,0.0,0.0,0.00665168021285376,1649.4291298817416,0.0,0.0,0.00665168021285376,364,0.0,99,Motors_Started,
0.371722287050414,36.9135354319487,500,2018-04-18 06:33:57,1649.4291298817416,0.0,0.0,0.00971398031084736,1649.4291298817416,0.0,0.0,0.00971398031084736,364,0.0,99,Motors_Started,
0.371722295888692,36.9135354542679,600,2018-04-18 06:33:57,1649.4291298817416,0.0,0.0,0.012111900387580801,1649.4291298817416,0.0,0.0,0.012111900387580801,364,0.0,99,Motors_Started,
0.371722300816669,36.9135354695909,700,2018-04-18 06:33:57,1649.4291298817416,0.0,0.0,0.0138133004420256,1649.4291298817416,0.0,0.0,0.0138133004420256,364,0.0,99,Motors_Started,
0.371722305438702,36.9135354982321,800,2018-04-18 06:33:57,1649.4291298817416,0.0,0.0,0.017012400544396802,1649.4291298817416,0.0,0.0,0.017012400544396802,711,0.0,99,Motors_Started,
0.371722308028437,36.9135355304778,900,2018-04-18 06:33:57,1649.4291298817416,0.0,0.0,0.0206078006594496,1649.4291298817416,0.0,0.0,0.0206078006594496,928,0.0,99,Motors_Started,
0.371722308677779,36.9135355508345,1000,2018-04-18 06:33:57,1649.4291298817416,0.0,0.0,0.022872400731916803,1649.4291298817416,0.0,0.0,0.022872400731916803,1024,0.0,99,Motors_Started,
0.371722307111216,36.9135355621245,1100,2018-04-18 06:33:57,1649.4291298817416,0.0,0.0,0.024119200771814397,1649.4291298817416,0.0,0.0,0.024119200771814397,1024,0.0,99,Motors_Started,
0.371722304570945,36.9135355852384,1200,2018-04-18 06:33:57,1649.4291298817416,0.0,0.0,0.0266796008537472,1649.4291298817416,0.0,0.0,0.0266796008537472,1024,0.0,99,Motors_Started,
0.371722305500176,36.9135356197029,1300,2018-04-18 06:33:57,1649.4291298817416,0.0,0.0,0.030513600976435202,1649.4291298817416,0.0,0.0,0.030513600976435202,1024,0.0,99,Motors_Started,
0.371722309269209,36.9135356503791,1400,2018-04-18 06:33:58,1649.4291298817416,0.0,0.0,0.0339357010859424,1649.4291298817416,0.0,0.0,0.0339357010859424,1024,0.0,99,Motors_Started,
0.371722312583297,36.9135356703625,1500,2018-04-18 06:33:58,1649.4291298817416,0.0,0.0,0.036170501157456,1649.4291298817416,0.0,0.0,0.036170501157456,1024,0.0,99,Motors_Started,
0.371722313191724,36.913535699012,1600,2018-04-18 06:33:58,1649.4291298817416,0.0,0.0,0.039356501259408,1649.4291298817416,0.0,0.0,0.039356501259408,1024,0.0,99,Assisted_Takeoff,
0.371722311040346,36.9135357278882,1700,2018-04-18 06:33:58,1649.4291298817416,0.0,0.0,0.04255680136181761,1649.4291298817416,0.0,0.0,0.04255680136181761,1024,0.0,99,Assisted_Takeoff,
0.371722312036546,36.9135357536323,1800,2018-04-18 06:33:58,1649.4291298817416,0.0,0.0,0.045421801453497605,1649.4291298817416,0.0,0.0,0.045421801453497605,1026,0.0,99,Assisted_Takeoff,
0.371722315633169,36.9135357738055,1900,2018-04-18 06:33:58,1649.4291298817416,0.0,0.0,0.047678001525696005,1649.4291298817416,0.0,0.0,0.047678001525696005,1044,0.0,99,Assisted_Takeoff,
0.371722342443972,36.9135357827403,2000,2018-04-18 06:33:58,1649.4291298817416,0.0,0.0,0.048876301564041595,1649.4291298817416,0.0,0.0,0.048876301564041595,1044,0.0,99,Assisted_Takeoff,
0.371722374991479,36.9135357883105,2100,2018-04-18 06:33:58,1649.4291298817416,0.0,0.0,0.04997750159928,1649.4291298817416,0.0,0.0,0.04997750159928,1042,0.0,99,Assisted_Takeoff,
0.371722378722753,36.9135358043917,2200,2018-04-18 06:33:58,1649.4291298817416,0.0,0.0,0.051810401657932804,1649.4291298817416,0.0,0.0,0.051810401657932804,1046,0.0,99,Assisted_Takeoff,
0.371722366118088,36.9135358258376,2300,2018-04-18 06:33:58,1649.4291298817416,0.0,0.0,0.0539492017263744,1649.4291298817416,0.0,0.0,0.0539492017263744,1055,0.0,99,Assisted_Takeoff,
0.371722349599661,36.9135358380656,2400,2018-04-18 06:33:59,1649.4291298817416,0.0,0.0,0.055077601762483205,1649.4291298817416,0.0,0.0,0.055077601762483205,1062,0.0,99,Assisted_Takeoff,
0.371722338412149,36.9135358456933,2500,2018-04-18 06:33:59,1649.4291298817416,0.0,0.0,0.055809501785904,1649.4291298817416,0.0,0.0,0.055809501785904,1072,0.0,99,Assisted_Takeoff,
0.371722326788112,36.9135358494209,2600,2018-04-18 06:33:59,1649.4291298817416,0.0,0.0,0.0561363017963616,1649.4291298817416,0.0,0.0,0.0561363017963616,1072,0.0,99,Assisted_Takeoff,
0.371722320787703,36.913535854493,2700,2018-04-18 06:33:59,1649.4291298817416,0.0,0.0,0.05666670181333441,1649.4291298817416,0.0,0.0,0.05666670181333441,1101,0.0,99,Assisted_Takeoff,
0.37172231412299,36.9135358751064,2800,2018-04-18 06:33:59,1649.4291298817416,0.0,0.0,0.058930901885788804,1649.4291298817416,0.0,0.0,0.058930901885788804,1105,0.0,99,Assisted_Takeoff,
0.371722309091302,36.9135359002833,2900,2018-04-18 06:33:59,1649.4291298817416,0.0,0.0,0.0617167019749344,1649.4291298817416,0.0,0.0,0.0617167019749344,1115,0.0,99,Assisted_Takeoff,
0.37172230327796,36.9135359181402,3000,2018-04-18 06:33:59,1649.4291298817416,0.0,0.0,0.0636938020382016,1649.4291298817416,0.0,0.0,0.0636938020382016,1132,0.0,99,Assisted_Takeoff,
0.371722300274906,36.9135359294599,3100,2018-04-18 06:33:59,1649.4291298817416,0.0,0.0,0.0649508020784256,1649.4291298817416,0.0,0.0,0.0649508020784256,1147,0.0,99,Assisted_Takeoff,
0.371722275182416,36.9135359370257,3200,2018-04-18 06:33:59,1649.4291298817416,0.0,0.0,0.0658444021070208,1649.4291298817416,0.0,0.0,0.0658444021070208,1147,0.0,99,Assisted_Takeoff,
0.371722243626632,36.9135359408127,3300,2018-04-18 06:33:59,1649.4291298817416,0.0,0.0,0.06649690212790081,1649.4291298817416,0.0,0.0,0.06649690212790081,1174,0.0,99,Assisted_Takeoff,
0.371722212694949,36.9135359402884,3400,2018-04-18 06:34:00,1649.4291298817416,0.0,0.0,0.0668444021390208,1649.4291298817416,0.0,0.0,0.0668444021390208,1174,0.0,99,Assisted_Takeoff,
0.371722191953865,36.913535938626,3500,2018-04-18 06:34:00,1649.4291298817416,0.0,0.0,0.0670317021450144,1649.4291298817416,0.0,0.0,0.0670317021450144,1193,0.0,99,Assisted_Takeoff,
0.371722175367247,36.9135359597803,3600,2018-04-18 06:34:00,1649.4291298817416,0.0,0.0,0.0696879022300128,1649.4291298817416,0.0,0.0,0.0696879022300128,1193,0.0,99,Assisted_Takeoff,
0.371722174574398,36.9135359791366,3700,2018-04-18 06:34:00,1649.4291298817416,0.0,0.0,0.0718164022981248,1649.4291298817416,0.0,0.0,0.0718164022981248,1215,0.0,99,Assisted_Takeoff,
0.371722163156665,36.9135359687875,3800,2018-04-18 06:34:00,1649.4291298817416,0.0,0.0,0.0709464022702848,1649.4291298817416,0.0,0.0,0.0718164022981248,1222,0.0,99,P-GPS,Obstacle Avoided. Revise Flight Route
0.371722150796368,36.9135359005732,3900,2018-04-18 06:34:00,1649.4291298817416,0.0,0.0,0.0638949020446368,1649.4291298817416,0.0,0.0,0.0718164022981248,1238,0.0,99,P-GPS,
0.371722175788098,36.9135357837585,4000,2018-04-18 06:34:00,1649.4291298817416,0.0,0.35999970196000003,0.050631501620208,1649.4291298817416,0.0,0.35999970196000003,0.0718164022981248,1245,0.0,99,P-GPS,
0.371722224155734,36.9135356633432,4100,2018-04-18 06:34:00,1649.4291298817416,0.0,0.35999970196000003,0.0363191011622112,1649.4291298817416,0.0,0.35999970196000003,0.0718164022981248,1250,0.0,99,P-GPS,
0.371722304830885,36.9135355373236,4200,2018-04-18 06:34:00,1649.5291298849413,0.1000000032,0.35999970196000003,0.0213541006833312,1649.5291298849413,0.1000000032,0.35999970196000003,0.0718164022981248,1251,0.0,99,P-GPS,
0.371722388802109,36.9135354326253,4300,2018-04-18 06:34:01,1649.6291298881415,0.2000000064,0.0,0.013937400445996801,1649.6291298881415,0.2000000064,0.35999970196000003,0.0718164022981248,1258,0.0,99,P-GPS,
0.371722444333067,36.913535358046,4400,2018-04-18 06:34:01,1649.7291298913415,0.3000000096,0.0,0.0162438005198016,1649.7291298913415,0.3000000096,0.35999970196000003,0.0718164022981248,1266,0.0,99,P-GPS,Home Point Recorded. RTH Altitude:  30m.
0.371722470382573,36.9135353183485,4500,2018-04-18 06:34:01,1649.7291298913415,0.3000000096,0.0,0.019315200618086403,1649.7291298913415,0.3000000096,0.35999970196000003,0.0718164022981248,1269,0.0,99,P-GPS,
0.371722507196807,36.9135353369031,4600,2018-04-18 06:34:01,1649.8291298945414,0.4000000128,0.0,0.023192800742169603,1649.8291298945414,0.4000000128,0.35999970196000003,0.0718164022981248,1268,0.0,99,P-GPS,
0.371722542976775,36.9135353754561,4700,2018-04-18 06:34:01,1649.9291298977414,0.500000016,0.0,0.0273576008754432,1649.9291298977414,0.500000016,0.35999970196000003,0.0718164022981248,1274,0.0,99,P-GPS,
0.371722578471459,36.913535424059,4800,2018-04-18 06:34:01,1650.0291299009416,0.6000000192,0.0,0.0323067010338144,1650.0291299009416,0.6000000192,0.35999970196000003,0.0718164022981248,1284,0.0,99,P-GPS,
0.371722601966751,36.9135354477585,4900,2018-04-18 06:34:01,1650.1291299041416,0.7000000224,0.0,0.0355826011386432,1650.1291299041416,0.7000000224,0.35999970196000003,0.0718164022981248,1282,0.0,99,P-GPS,
0.371722658640877,36.9135354676699,5000,2018-04-18 06:34:01,1650.3291299105417,0.9000000288000001,0.0,0.042262401352396804,1650.3291299105417,0.9000000288000001,0.35999970196000003,0.0718164022981248,1282,0.0,99,P-GPS,
0.371722722736433,36.9135354746479,5100,2018-04-18 06:34:01,1650.4291299137417,1.000000032,0.0,0.049285501577136,1650.4291299137417,1.000000032,0.35999970196000003,0.0718164022981248,1282,0.0,99,P-GPS,
0.371722714964938,36.9135355051627,5200,2018-04-18 06:34:01,1650.5291299169414,1.1000000352000001,0.0,0.049572001586304,1650.5291299169414,1.1000000352000001,0.35999970196000003,0.0718164022981248,1284,0.0,99,P-GPS,
0.3717226469659,36.9135355411883,5300,2018-04-18 06:34:01,1650.6291299201414,1.2000000384,0.0,0.044419201421414395,1650.6291299201414,1.2000000384,0.35999970196000003,0.0718164022981248,1287,0.0,99,P-GPS,
0.371722604626102,36.9135355728521,5400,2018-04-18 06:34:02,1650.8291299265416,1.4000000448,0.0,0.042383701356278405,1650.8291299265416,1.4000000448,0.35999970196000003,0.0718164022981248,1287,0.0,99,P-GPS,
0.37172259419032,36.9135355871069,5500,2018-04-18 06:34:02,1650.9291299297415,1.5000000480000002,0.0,0.042444001358208,1650.9291299297415,1.5000000480000002,0.35999970196000003,0.0718164022981248,1289,0.0,99,P-GPS,
0.371722464644344,36.9135356036495,5700,2018-04-18 06:34:02,1651.1291299361417,1.7000000544000002,0.0,0.0341304010921728,1651.1291299361417,1.7000000544000002,0.35999970196000003,0.0718164022981248,1292,0.0,99,P-GPS,
0.371722326624453,36.913535621611,5800,2018-04-18 06:34:02,1651.3291299425414,1.9000000608000003,0.0,0.030872000987904002,1651.3291299425414,1.9000000608000003,0.35999970196000003,0.0718164022981248,1295,0.0,99,P-GPS,
0.371722176052211,36.9135356426447,5900,2018-04-18 06:34:02,1651.4291299457414,2.000000064,0.0,0.0357638011444416,1651.4291299457414,2.000000064,0.35999970196000003,0.0718164022981248,1298,0.0,99,P-GPS,
0.371721962370334,36.913535638018,6000,2018-04-18 06:34:02,1651.5291299489415,2.1000000672000003,0.0,0.049586001586752,1651.5291299489415,2.1000000672000003,0.35999970196000003,0.0718164022981248,1296,0.0,99,P-GPS,
0.371721618373957,36.9135355471297,6200,2018-04-18 06:34:02,1651.8291299585414,2.4000000768,0.0,0.078924502525584,1651.8291299585414,2.4000000768,0.35999970196000003,0.078924502525584,1294,0.0,99,P-GPS,
0.371721539823111,36.9135354896425,6300,2018-04-18 06:34:02,1651.9291299617416,2.50000008,0.0,0.0859151027492832,1651.9291299617416,2.50000008,0.35999970196000003,0.0859151027492832,1295,0.0,99,P-GPS,Obstacle Avoided. Revise Flight Route
0.371721403854754,36.9135354508901,6400,2018-04-18 06:34:02,1652.1291299681416,2.7000000864,0.0,0.100214003206848,1652.1291299681416,2.7000000864,0.35999970196000003,0.100214003206848,1299,0.0,99,P-GPS,
0.371721256086896,36.9135354404534,6500,2018-04-18 06:34:03,1652.2291299713413,2.8000000896,0.0,0.11643800372601601,1652.2291299713413,2.8000000896,0.35999970196000003,0.11643800372601601,1300,0.0,99,P-GPS,
0.371721129205461,36.9135354424338,6600,2018-04-18 06:34:03,1652.4291299777415,3.0000000960000004,0.0,0.130514004176448,1652.4291299777415,3.0000000960000004,0.35999970196000003,0.130514004176448,1301,0.0,99,P-GPS,
0.371721053943868,36.9135354426841,6700,2018-04-18 06:34:03,1652.5291299809414,3.1000000992000003,0.0,0.138859004443488,1652.5291299809414,3.1000000992000003,0.35999970196000003,0.138859004443488,1302,0.0,99,P-GPS,
0.371720894189441,36.9135354619523,6800,2018-04-18 06:34:03,1652.6291299841416,3.2000001024,0.0,0.15674000501568,1652.6291299841416,3.2000001024,0.35999970196000003,0.15674000501568,1307,0.0,99,P-GPS,
0.371720700547501,36.9135354820266,6900,2018-04-18 06:34:03,1652.8291299905416,3.4000001088000005,0.0,0.17838500570832003,1652.8291299905416,3.4000001088000005,0.35999970196000003,0.17838500570832003,1314,0.0,99,P-GPS,
0.371720417521492,36.9135354866887,7000,2018-04-18 06:34:03,1652.9291299937415,3.500000112,0.0,0.20980000671360002,1652.9291299937415,3.500000112,0.35999970196000003,0.20980000671360002,1322,0.0,99,P-GPS,
0.371720163379397,36.913535472743,7100,2018-04-18 06:34:03,1653.1291300001417,3.7000001184,0.0,0.23789500761264,1653.1291300001417,3.7000001184,0.35999970196000003,0.23789500761264,1334,0.0,99,P-GPS,
0.371719827193648,36.9135354891714,7200,2018-04-18 06:34:03,1653.2291300033414,3.8000001216000006,0.0,0.275324008810368,1653.2291300033414,3.8000001216000006,0.35999970196000003,0.275324008810368,1346,0.0,99,P-GPS,
0.371719530140222,36.9135355161379,7300,2018-04-18 06:34:03,1653.3291300065414,3.9000001248,0.0,0.30847800987129603,1653.3291300065414,3.9000001248,0.35999970196000003,0.30847800987129603,1348,0.0,99,P-GPS,
0.371719209349782,36.9135355521677,7400,2018-04-18 06:34:04,1653.5291300129416,4.100000131200001,0.0,0.344336011018752,1653.5291300129416,4.100000131200001,0.35999970196000003,0.344336011018752,1349,0.0,99,P-GPS,
0.371718956794403,36.9135355827888,7500,2018-04-18 06:34:04,1653.7291300193415,4.3000001376,0.0,0.372589011922848,1653.7291300193415,4.3000001376,0.35999970196000003,0.372589011922848,1355,0.0,99,P-GPS,
0.371718645990396,36.9135356140088,7600,2018-04-18 06:34:04,1653.8291300225417,4.4000001408000005,0.0,0.407313013034016,1653.8291300225417,4.4000001408000005,0.35999970196000003,0.407313013034016,1357,0.0,99,P-GPS,
0.371718349937649,36.9135356364354,7700,2018-04-18 06:34:04,1654.0291300289414,4.6000001472,0.0,0.44033001409056,1654.0291300289414,4.6000001472,0.35999970196000003,0.44033001409056,1356,0.0,99,P-GPS,
0.371718003770352,36.9135356985267,7800,2018-04-18 06:34:04,1654.2291300353415,4.8000001536,0.0,0.479247015335904,1654.2291300353415,4.8000001536,0.35999970196000003,0.479247015335904,1356,0.0,99,P-GPS,
0.371717688083048,36.9135357684272,7900,2018-04-18 06:34:04,1654.4291300417415,5.00000016,0.0,0.51489501647664,1654.4291300417415,5.00000016,0.35999970196000003,0.51489501647664,1357,0.0,99,P-GPS,
0.371717331581239,36.9135358284882,8000,2018-04-18 06:34:04,1654.6291300481416,5.200000166400001,0.0,0.554993017759776,1654.6291300481416,5.200000166400001,0.35999970196000003,0.554993017759776,1358,0.0,99,P-GPS,
0.371717010008739,36.9135358634316,8100,2018-04-18 06:34:04,1654.7291300513416,5.3000001696000005,0.0,0.590962018910784,1654.7291300513416,5.3000001696000005,0.35999970196000003,0.590962018910784,1359,0.0,99,P-GPS,
0.371716675294288,36.9135359322036,8200,2018-04-18 06:34:04,1654.9291300577418,5.5000001759999995,0.0,0.6287650201204801,1654.9291300577418,5.5000001759999995,0.35999970196000003,0.6287650201204801,1358,0.0,99,P-GPS,
0.371716378113844,36.9135360152331,8300,2018-04-18 06:34:04,1655.1291300641415,5.7000001824,0.0,0.662618021203776,1655.1291300641415,5.7000001824,0.35999970196000003,0.662618021203776,1360,0.0,99,P-GPS,
0.371716088929874,36.9135360881024,8400,2018-04-18 06:34:05,1655.3291300705416,5.9000001888,0.0,0.695498022255936,1655.3291300705416,5.9000001888,0.35999970196000003,0.695498022255936,1361,0.0,99,P-GPS,
0.371715824874423,36.9135361339447,8500,2018-04-18 06:34:05,1655.5291300769416,6.100000195200001,0.0,0.7252620232083841,1655.5291300769416,6.100000195200001,0.35999970196000003,0.7252620232083841,1361,0.0,99,P-GPS,
0.37171551715876,36.9135361950891,8600,2018-04-18 06:34:05,1655.7291300833417,6.3000002016,0.0,0.760058024321856,1655.7291300833417,6.3000002016,0.35999970196000003,0.760058024321856,1364,0.0,99,P-GPS,
0.371715202000293,36.9135362608484,8700,2018-04-18 06:34:05,1655.9291300897414,6.500000208,0.0,0.7957480254639361,1655.9291300897414,6.500000208,0.35999970196000003,0.7957480254639361,1368,0.0,99,P-GPS,
0.371714928179878,36.9135363238897,8800,2018-04-18 06:34:05,1656.1291300961416,6.7000002144,0.0,0.8268500264592001,1656.1291300961416,6.7000002144,0.35999970196000003,0.8268500264592001,1369,0.0,99,P-GPS,
0.371714694376031,36.9135363686119,8900,2018-04-18 06:34:05,1656.2291300993415,6.800000217600001,0.0,0.8532800273049601,1656.2291300993415,6.800000217600001,0.35999970196000003,0.8532800273049601,1373,0.0,99,P-GPS,
0.371714493525377,36.9135364209518,9000,2018-04-18 06:34:05,1656.4291301057415,7.000000224,0.0,0.8761970280383041,1656.4291301057415,7.000000224,0.35999970196000003,0.8761970280383041,1381,0.0,99,P-GPS,
0.371714298151994,36.9135364712023,9100,2018-04-18 06:34:05,1656.6291301121416,7.200000230400001,0.0,0.898487028751584,1656.6291301121416,7.200000230400001,0.35999970196000003,0.898487028751584,1384,0.0,99,P-GPS,
0.371714178657588,36.9135365036295,9200,2018-04-18 06:34:05,1656.8291301185413,7.4000002368,0.0,0.9121500291888001,1656.8291301185413,7.4000002368,0.35999970196000003,0.9121500291888001,1415,0.0,99,P-GPS,
0.371714055872096,36.9135365177968,9300,2018-04-18 06:34:05,1657.0291301249415,7.600000243200001,0.0,0.9258900296284801,1657.0291301249415,7.600000243200001,0.35999970196000003,0.9258900296284801,1415,0.0,99,P-GPS,
0.371713995522776,36.9135365350458,9400,2018-04-18 06:34:06,1657.2291301313417,7.8000002496,0.0,0.93280502984976,1657.2291301313417,7.8000002496,0.35999970196000003,0.93280502984976,1417,0.0,99,P-GPS,
0.3717139094188,36.9135365625885,9500,2018-04-18 06:34:06,1657.5291301409413,8.1000002592,0.0,0.94272003016704,1657.5291301409413,8.1000002592,0.35999970196000003,0.94272003016704,1420,0.0,99,P-GPS,
0.371713884907461,36.9135365838711,9600,2018-04-18 06:34:06,1657.7291301473415,8.300000265600001,0.0,0.9457590302642881,1657.7291301473415,8.300000265600001,0.35999970196000003,0.9457590302642881,1420,0.0,99,P-GPS,
0.371713838583929,36.9135366019405,9700,2018-04-18 06:34:06,1657.9291301537414,8.500000272,0.0,0.9511490304367681,1657.9291301537414,8.500000272,0.35999970196000003,0.9511490304367681,1434,0.0,99,P-GPS,
0.371713859049398,36.9135366075535,9800,2018-04-18 06:34:06,1658.1291301601416,8.700000278400001,0.0,0.94899003036768,1658.1291301601416,8.700000278400001,0.35999970196000003,0.9511490304367681,1434,0.0,99,P-GPS,
0.37171386661922,36.9135366154702,9900,2018-04-18 06:34:06,1658.4291301697417,9.000000288,0.0,0.948288030345216,1658.4291301697417,9.000000288,0.35999970196000003,0.9511490304367681,1436,0.0,99,P-GPS,
0.371713937984964,36.9135366343618,10000,2018-04-18 06:34:06,1658.6291301761414,9.2000002944,0.0,0.940759030104288,1658.6291301761414,9.2000002944,0.35999970196000003,0.9511490304367681,1434,0.0,99,P-GPS,
0.371713964104392,36.9135366707155,10100,2018-04-18 06:34:06,1658.9291301857415,9.500000304,0.0,0.93851503003248,1658.9291301857415,9.500000304,0.35999970196000003,0.9511490304367681,1437,0.0,99,P-GPS,
0.371714029006027,36.9135366985302,10200,2018-04-18 06:34:06,1659.1291301921415,9.7000003104,0.0,0.931882029820224,1659.1291301921415,9.7000003104,0.35999970196000003,0.9511490304367681,1437,0.0,99,P-GPS,
0.37171406117431,36.9135367240511,10300,2018-04-18 06:34:06,1659.4291302017414,10.00000032,0.0,0.9288160297221121,1659.4291302017414,10.00000032,0.35999970196000003,0.9511490304367681,1436,0.0,99,P-GPS,
0.371714133859908,36.9135367536537,10400,2018-04-18 06:34:07,1659.6291302081415,10.2000003264,0.0,0.921399029484768,1659.6291302081415,10.2000003264,0.35999970196000003,0.9511490304367681,1437,0.0,99,P-GPS,
0.371714194789768,36.913536788816,10500,2018-04-18 06:34:07,1659.9291302177417,10.500000336,0.0,0.9154000292928001,1659.9291302177417,10.500000336,0.35999970196000003,0.9511490304367681,1442,0.0,99,P-GPS,
0.371714288751801,36.9135368258225,10600,2018-04-18 06:34:07,1660.1291302241416,10.700000342400001,0.0,0.905853028987296,1660.1291302241416,10.700000342400001,0.35999970196000003,0.9511490304367681,1443,0.0,99,P-GPS,
0.371714357383388,36.9135368663792,10700,2018-04-18 06:34:07,1660.4291302337415,11.000000351999999,0.0,0.899186028773952,1660.4291302337415,11.000000351999999,0.35999970196000003,0.9511490304367681,1443,0.0,99,P-GPS,
0.371714427583166,36.9135368994645,10800,2018-04-18 06:34:07,1660.7291302433416,11.3000003616,0.0,0.8922260285512321,1660.7291302433416,11.3000003616,0.35999970196000003,0.9511490304367681,1446,0.0,99,P-GPS,
0.37171446782446,36.9135369215707,10900,2018-04-18 06:34:07,1660.9291302497415,11.500000368000002,0.0,0.888318028426176,1660.9291302497415,11.500000368000002,0.35999970196000003,0.9511490304367681,1447,0.0,99,P-GPS,
0.371714520741561,36.9135369490021,11000,2018-04-18 06:34:07,1661.2291302593414,11.8000003776,0.0,0.8831600282611201,1661.2291302593414,11.8000003776,0.35999970196000003,0.9511490304367681,1447,0.0,99,P-GPS,
0.371714568771703,36.9135369873902,11100,2018-04-18 06:34:07,1661.4291302657414,12.000000384000002,0.0,0.8788070281218241,1661.4291302657414,12.000000384000002,0.35999970196000003,0.9511490304367681,1448,0.0,99,P-GPS,
0.371714651833746,36.9135370298906,11200,2018-04-18 06:34:07,1661.7291302753415,12.300000393600001,0.0,0.8707780278648961,1661.7291302753415,12.300000393600001,0.35999970196000003,0.9511490304367681,1448,0.0,99,P-GPS,
0.37171474728092,36.9135370638812,11300,2018-04-18 06:34:07,1662.0291302849414,12.6000004032,0.0,0.8612460275598721,1662.0291302849414,12.6000004032,0.35999970196000003,0.9511490304367681,1454,0.0,99,P-GPS,
0.371714864092464,36.9135370977839,11400,2018-04-18 06:34:08,1662.2291302913416,12.8000004096,0.0,0.849441027182112,1662.2291302913416,12.8000004096,0.35999970196000003,0.9511490304367681,1454,0.0,99,P-GPS,
0.371714962426055,36.9135371273614,11500,2018-04-18 06:34:08,1662.5291303009415,13.100000419200002,0.0,0.839572026866304,1662.5291303009415,13.100000419200002,0.35999970196000003,0.9511490304367681,1455,0.0,99,P-GPS,
0.371715063016669,36.9135371703773,11600,2018-04-18 06:34:08,1662.8291303105416,13.4000004288,0.0,0.829863026555616,1662.8291303105416,13.4000004288,0.35999970196000003,0.9511490304367681,1457,0.0,99,P-GPS,
0.371715151164343,36.9135372176344,11700,2018-04-18 06:34:08,1663.0291303169415,13.600000435200002,0.0,0.821677026293664,1663.0291303169415,13.600000435200002,0.35999970196000003,0.9511490304367681,1457,0.0,99,P-GPS,
0.37171523044351,36.9135372608146,11800,2018-04-18 06:34:08,1663.3291303265414,13.9000004448,0.0,0.8143940260606081,1663.3291303265414,13.9000004448,0.35999970196000003,0.9511490304367681,1458,0.0,99,P-GPS,
0.371715295512876,36.9135372946237,11900,2018-04-18 06:34:08,1663.6291303361415,14.2000004544,0.0,0.808412025869184,1663.6291303361415,14.2000004544,0.35999970196000003,0.9511490304367681,1465,0.0,99,P-GPS,
0.371715295210799,36.9135373393756,12000,2018-04-18 06:34:08,1663.9291303457414,14.500000464000001,0.0,0.8097930259133761,1663.9291303457414,14.500000464000001,0.35999970196000003,0.9511490304367681,1469,0.0,99,P-GPS,
0.371715259394802,36.9135373814558,12100,2018-04-18 06:34:08,1664.1291303521416,14.7000004704,0.0,0.814912026077184,1664.1291303521416,14.7000004704,0.35999970196000003,0.9511490304367681,1474,0.0,99,P-GPS,
0.371715134230968,36.9135374419554,12200,2018-04-18 06:34:08,1664.4291303617415,15.00000048,0.0,0.830157026565024,1664.4291303617415,15.00000048,0.35999970196000003,0.9511490304367681,1475,0.0,99,P-GPS,
0.371715008392958,36.9135375132372,12300,2018-04-18 06:34:08,1664.7291303713414,15.3000004896,0.0,0.8458210270662719,1664.7291303713414,15.3000004896,0.35999970196000003,0.9511490304367681,1475,0.0,99,P-GPS,
0.371714862995707,36.9135376031805,12400,2018-04-18 06:34:09,1665.0291303809415,15.6000004992,0.0,0.86418502765392,1665.0291303809415,15.6000004992,0.35999970196000003,0.9511490304367681,1480,0.0,99,P-GPS,
0.371714771379448,36.9135376781121,12500,2018-04-18 06:34:09,1665.3291303905416,15.900000508800002,0.0,0.876369028043808,1665.3291303905416,15.900000508800002,0.35999970196000003,0.9511490304367681,1488,0.0,99,P-GPS,
0.371714662971489,36.9135377517653,12600,2018-04-18 06:34:09,1665.6291304001413,16.2000005184,0.0,0.890319028490208,1665.6291304001413,16.2000005184,0.35999970196000003,0.9511490304367681,1492,0.0,99,P-GPS,
0.371714579437197,36.9135378012638,12700,2018-04-18 06:34:09,1665.9291304097414,16.500000528,0.0,0.9008370288267841,1665.9291304097414,16.500000528,0.35999970196000003,0.9511490304367681,1491,0.0,99,P-GPS,
0.371714469921895,36.9135378436833,12800,2018-04-18 06:34:09,1666.2291304193416,16.800000537600003,0.0,0.9138730292439361,1666.2291304193416,16.800000537600003,0.35999970196000003,0.9511490304367681,1495,0.0,99,P-GPS,
0.371714365089999,36.9135378785165,12900,2018-04-18 06:34:09,1666.5291304289415,17.1000005472,0.0,0.9261570296370241,1666.5291304289415,17.1000005472,0.35999970196000003,0.9511490304367681,1499,0.0,99,P-GPS,
0.371714244497207,36.9135378999594,13000,2018-04-18 06:34:09,1666.8291304385416,17.400000556800002,0.0,0.939659030069088,1666.8291304385416,17.400000556800002,0.35999970196000003,0.9511490304367681,1500,0.0,99,P-GPS,
0.37171413171769,36.9135379189875,13100,2018-04-18 06:34:09,1667.1291304481415,17.7000005664,0.0,0.95225503047216,1667.1291304481415,17.7000005664,0.35999970196000003,0.95225503047216,1501,0.0,99,P-GPS,
0.371714030732178,36.9135379568912,13200,2018-04-18 06:34:09,1667.4291304577414,18.000000576,0.0,0.964233030855456,1667.4291304577414,18.000000576,0.35999970196000003,0.964233030855456,1511,0.0,99,P-GPS,
0.371713944856184,36.9135380135446,13300,2018-04-18 06:34:09,1667.7291304673415,18.3000005856,0.0,0.975242031207744,1667.7291304673415,18.3000005856,0.35999970196000003,0.975242031207744,1513,0.0,99,P-GPS,
0.371713859112094,36.9135380784573,13400,2018-04-18 06:34:10,1668.0291304769416,18.6000005952,0.0,0.98653003156896,1668.0291304769416,18.6000005952,0.35999970196000003,0.98653003156896,1521,0.0,99,P-GPS,
0.371713766822473,36.9135381434819,13500,2018-04-18 06:34:10,1668.3291304865418,18.900000604800002,0.0,0.9985280319528961,1668.3291304865418,18.900000604800002,0.35999970196000003,0.9985280319528961,1534,0.0,99,P-GPS,
0.371713671221411,36.9135382077699,13600,2018-04-18 06:34:10,1668.7291304993416,19.300000617600002,0.0,1.01086003234752,1668.7291304993416,19.300000617600002,0.35999970196000003,1.01086003234752,1539,0.0,99,P-GPS,
0.371713574894877,36.9135382632521,13700,2018-04-18 06:34:10,1669.0291305089415,19.6000006272,0.0,1.02298003273536,1669.0291305089415,19.6000006272,0.35999970196000003,1.02298003273536,1545,0.0,99,P-GPS,
0.371713476037742,36.9135383132655,13800,2018-04-18 06:34:10,1669.3291305185414,19.900000636799998,0.0,1.03517003312544,1669.3291305185414,19.900000636799998,0.35999970196000003,1.03517003312544,1547,0.0,99,P-GPS,
0.371713362382936,36.9135383685834,13900,2018-04-18 06:34:10,1669.7291305313415,20.3000006496,0.0,1.04911003357152,1669.7291305313415,20.3000006496,0.35999970196000003,1.04911003357152,1547,0.0,99,P-GPS,
0.371713216186933,36.9135384538357,14000,2018-04-18 06:34:10,1670.1291305441414,20.7000006624,0.0,1.06756003416192,1670.1291305441414,20.7000006624,0.35999970196000003,1.06756003416192,1554,0.0,99,P-GPS,
0.371713052450146,36.9135385510715,14100,2018-04-18 06:34:10,1670.4291305537415,21.000000672,0.0,1.0882900348252802,1670.4291305537415,21.000000672,0.35999970196000003,1.0882900348252802,1555,0.0,99,P-GPS,
0.371712868098073,36.9135386411283,14200,2018-04-18 06:34:10,1670.8291305665416,21.400000684800002,0.0,1.1109500355504,1670.8291305665416,21.400000684800002,0.35999970196000003,1.1109500355504,1558,0.0,99,P-GPS,
0.371712691899618,36.9135387126082,14300,2018-04-18 06:34:10,1671.2291305793415,21.8000006976,0.0,1.1320700362262401,1671.2291305793415,21.8000006976,0.35999970196000003,1.1320700362262401,1560,0.0,99,P-GPS,
0.371712489417263,36.9135387731142,14400,2018-04-18 06:34:11,1671.5291305889416,22.1000007072,0.0,1.1555400369772801,1671.5291305889416,22.1000007072,0.35999970196000003,1.1555400369772801,1568,0.0,99,P-GPS,
0.371712285080924,36.91353883088,14500,2018-04-18 06:34:11,1671.9291306017415,22.50000072,0.0,1.17911003773152,1671.9291306017415,22.50000072,0.35999970196000003,1.17911003773152,1569,0.0,99,P-GPS,
0.371712090555961,36.9135389020066,14600,2018-04-18 06:34:11,1672.3291306145416,22.900000732800002,0.0,1.2021500384688002,1672.3291306145416,22.900000732800002,0.35999970196000003,1.2021500384688002,1574,0.0,99,P-GPS,
0.371711923471093,36.9135389885143,14700,2018-04-18 06:34:11,1672.7291306273414,23.300000745600002,0.0,1.22286003913152,1672.7291306273414,23.300000745600002,0.35999970196000003,1.22286003913152,1585,0.0,99,P-GPS,
0.371711744988746,36.9135390625604,14800,2018-04-18 06:34:11,1673.0291306369415,23.6000007552,0.0,1.2443200398182401,1673.0291306369415,23.6000007552,0.35999970196000003,1.2443200398182401,1586,0.0,99,P-GPS,
0.37171156924137,36.9135391217657,14900,2018-04-18 06:34:11,1673.4291306497416,24.000000768000003,0.0,1.2649400404780802,1673.4291306497416,24.000000768000003,0.35999970196000003,1.2649400404780802,1587,0.0,99,P-GPS,
0.371711377102891,36.9135391836517,15000,2018-04-18 06:34:11,1673.8291306625415,24.400000780800003,0.0,1.2873800411961602,1673.8291306625415,24.400000780800003,0.35999970196000003,1.2873800411961602,1596,0.0,99,P-GPS,
0.371711188626783,36.9135392450089,15100,2018-04-18 06:34:11,1674.2291306753416,24.800000793600002,0.0,1.30941004190112,1674.2291306753416,24.800000793600002,0.35999970196000003,1.30941004190112,1602,0.0,99,P-GPS,
0.371710982830544,36.9135393009617,15200,2018-04-18 06:34:11,1674.7291306913414,25.3000008096,0.0,1.33307004265824,1674.7291306913414,25.3000008096,0.35999970196000003,1.33307004265824,1602,0.0,99,P-GPS,
0.371710788498552,36.9135393487782,15300,2018-04-18 06:34:11,1675.1291307041415,25.7000008224,0.0,1.3552300433673599,1675.1291307041415,25.7000008224,0.35999970196000003,1.3552300433673599,1601,0.0,99,P-GPS,
0.371710562911019,36.9135394126513,15400,2018-04-18 06:34:12,1675.5291307169414,26.100000835200003,0.0,1.38126004420032,1675.5291307169414,26.100000835200003,0.35999970196000003,1.38126004420032,1601,0.0,99,P-GPS,
0.371710338704407,36.9135394841452,15500,2018-04-18 06:34:12,1675.9291307297415,26.500000848000003,0.0,1.4074200450374401,1675.9291307297415,26.500000848000003,0.35999970196000003,1.4074200450374401,1600,0.0,99,P-GPS,
0.371710101887124,36.913539557527,15600,2018-04-18 06:34:12,1676.3291307425413,26.900000860800002,0.0,1.4349700459190402,1676.3291307425413,26.900000860800002,0.35999970196000003,1.4349700459190402,1602,0.0,99,P-GPS,
0.371709894565034,36.9135396145991,15700,2018-04-18 06:34:12,1676.7291307553414,27.3000008736,0.0,1.4588400466828801,1676.7291307553414,27.3000008736,0.35999970196000003,1.4588400466828801,1607,0.0,99,P-GPS,
0.371709680819546,36.913539667235,15800,2018-04-18 06:34:12,1677.2291307713415,27.8000008896,0.0,1.4832200474630401,1677.2291307713415,27.8000008896,0.35999970196000003,1.4832200474630401,1607,0.0,99,P-GPS,
0.371709489622308,36.9135397137577,15900,2018-04-18 06:34:12,1677.6291307841416,28.200000902400003,0.0,1.50501004816032,1677.6291307841416,28.200000902400003,0.35999970196000003,1.50501004816032,1607,0.0,99,P-GPS,
0.37170925707562,36.9135397674615,16000,2018-04-18 06:34:12,1678.0291307969417,28.600000915200003,0.0,1.5314200490054402,1678.0291307969417,28.600000915200003,0.35999970196000003,1.5314200490054402,1608,0.0,99,P-GPS,
0.371709028683092,36.9135398229223,16100,2018-04-18 06:34:12,1678.4291308097415,29.000000928000002,0.0,1.55746004983872,1678.4291308097415,29.000000928000002,0.35999970196000003,1.55746004983872,1608,0.0,99,P-GPS,
0.37170878781017,36.9135398986659,16200,2018-04-18 06:34:12,1678.8291308225416,29.4000009408,0.0,1.58553005073696,1678.8291308225416,29.4000009408,0.35999970196000003,1.58553005073696,1610,0.0,99,P-GPS,
0.371708573990588,36.9135399827106,16300,2018-04-18 06:34:12,1679.2291308353415,29.8000009536,0.0,1.6110500515536001,1679.2291308353415,29.8000009536,0.35999970196000003,1.6110500515536001,1610,0.0,99,P-GPS,
0.37170834610125,36.9135400710094,16400,2018-04-18 06:34:12,1679.6291308481416,30.2000009664,0.0,1.6382000524224,1679.6291308481416,30.2000009664,0.35999970196000003,1.6382000524224,1611,0.0,99,P-GPS,
0.371708140917306,36.9135401409974,16500,2018-04-18 06:34:13,1680.1291308641414,30.700000982400002,0.0,1.6623100531939201,1680.1291308641414,30.700000982400002,0.35999970196000003,1.6623100531939201,1615,0.0,99,P-GPS,
0.37170793861408,36.9135402252321,16600,2018-04-18 06:34:13,1680.5291308769415,31.100000995200002,0.0,1.6866200539718401,1680.5291308769415,31.100000995200002,0.35999970196000003,1.6866200539718401,1614,0.0,99,P-GPS,
0.371707760188728,36.9135403056474,16700,2018-04-18 06:34:13,1680.9291308897414,31.500001007999998,0.0,1.70829005466528,1680.9291308897414,31.500001007999998,0.35999970196000003,1.70829005466528,1617,0.0,99,P-GPS,
0.371707561977781,36.91354037575,16800,2018-04-18 06:34:13,1681.4291309057417,32.000001024,0.0,1.73167005541344,1681.4291309057417,32.000001024,0.35999970196000003,1.73167005541344,1617,0.0,99,P-GPS,
0.371707370208959,36.9135404210532,16900,2018-04-18 06:34:13,1681.8291309185415,32.4000010368,0.0,1.7534800561113602,1681.8291309185415,32.4000010368,0.35999970196000003,1.7534800561113602,1617,0.0,99,P-GPS,
0.371707160450717,36.9135404648212,17000,2018-04-18 06:34:13,1682.2291309313416,32.800001049600006,0.0,1.77713005686816,1682.2291309313416,32.800001049600006,0.35999970196000003,1.77713005686816,1621,0.0,99,P-GPS,
0.371706968431114,36.9135405031976,17100,2018-04-18 06:34:13,1682.7291309473414,33.3000010656,0.0,1.79873005755936,1682.7291309473414,33.3000010656,0.35999970196000003,1.79873005755936,1623,0.0,99,P-GPS,
0.371706755622796,36.913540541265,17200,2018-04-18 06:34:13,1683.1291309601415,33.7000010784,0.0,1.8225100583203202,1683.1291309601415,33.7000010784,0.35999970196000003,1.8225100583203202,1624,0.0,99,P-GPS,
0.371706566943132,36.9135405774193,17300,2018-04-18 06:34:13,1683.5291309729414,34.1000010912,0.0,1.84369005899808,1683.5291309729414,34.1000010912,0.35999970196000003,1.84369005899808,1625,0.0,98,P-GPS,
0.371706373453045,36.9135406200134,17400,2018-04-18 06:34:14,1684.0291309889417,34.6000011072,0.0,1.8656000596992002,1684.0291309889417,34.6000011072,0.35999970196000003,1.8656000596992002,1626,0.0,98,P-GPS,
0.371706218102745,36.9135406551126,17500,2018-04-18 06:34:14,1684.4291310017416,35.00000112,0.0,1.88323006026336,1684.4291310017416,35.00000112,0.35999970196000003,1.88323006026336,1626,0.0,98,P-GPS,
0.371706060291865,36.9135406878976,17600,2018-04-18 06:34:14,1684.9291310177416,35.500001136,0.0,1.9010400608332803,1684.9291310177416,35.500001136,0.35999970196000003,1.9010400608332803,1626,0.0,98,P-GPS,
0.371705902873441,36.9135407076869,17700,2018-04-18 06:34:14,1685.3291310305415,35.9000011488,0.0,1.91836006138752,1685.3291310305415,35.9000011488,0.35999970196000003,1.91836006138752,1626,0.0,98,P-GPS,
0.371705729859409,36.9135407130357,17800,2018-04-18 06:34:14,1685.8291310465415,36.4000011648,0.0,1.9368400619788801,1685.8291310465415,36.4000011648,0.35999970196000003,1.9368400619788801,1627,0.0,98,P-GPS,
0.371705590892883,36.9135407072608,17900,2018-04-18 06:34:14,1686.2291310593414,36.8000011776,0.0,1.9513500624432,1686.2291310593414,36.8000011776,0.35999970196000003,1.9513500624432,1628,0.0,98,P-GPS,
0.371705428717774,36.9135407345284,18000,2018-04-18 06:34:14,1686.7291310753417,37.3000011936,0.0,1.9694500630224,1686.7291310753417,37.3000011936,0.35999970196000003,1.9694500630224,1627,0.0,98,P-GPS,
0.37170527890744,36.9135407721372,18100,2018-04-18 06:34:14,1687.1291310881415,37.7000012064,0.0,1.9866000635712002,1687.1291310881415,37.7000012064,0.35999970196000003,1.9866000635712002,1629,0.0,98,P-GPS,
0.371705134816201,36.9135408121847,18200,2018-04-18 06:34:14,1687.5291311009416,38.1000012192,0.0,2.00321006410272,1687.5291311009416,38.1000012192,0.35999970196000003,2.00321006410272,1633,0.0,98,P-GPS,
0.371705024270909,36.9135408484016,18300,2018-04-18 06:34:14,1688.0291311169415,38.600001235200004,0.0,2.0161500645168,1688.0291311169415,38.600001235200004,0.35999970196000003,2.0161500645168,1634,0.0,98,P-GPS,
0.371704905501975,36.9135408959575,18400,2018-04-18 06:34:14,1688.4291311297416,39.000001248000004,0.0,2.03034006497088,1688.4291311297416,39.000001248000004,0.35999970196000003,2.03034006497088,1634,0.0,98,P-GPS,
0.371704810011647,36.9135409453783,18500,2018-04-18 06:34:15,1688.9291311457414,39.500001264,0.0,2.04213006534816,1688.9291311457414,39.500001264,0.35999970196000003,2.04213006534816,1634,0.0,98,P-GPS,
0.371704716317493,36.9135410063903,18600,2018-04-18 06:34:15,1689.3291311585415,39.900001276800005,0.0,2.05412006573184,1689.3291311585415,39.900001276800005,0.35999970196000003,2.05412006573184,1636,0.0,98,P-GPS,
0.371704653755932,36.9135410597317,18700,2018-04-18 06:34:15,1689.8291311745415,40.400001292800006,0.0,2.06257006600224,1689.8291311745415,40.400001292800006,0.35999970196000003,2.06257006600224,1636,0.0,98,P-GPS,
0.371704589699459,36.9135411009945,18800,2018-04-18 06:34:15,1690.2291311873416,40.8000013056,0.0,2.07076006626432,1690.2291311873416,40.8000013056,0.35999970196000003,2.07076006626432,1637,0.0,98,P-GPS,
0.371704547609067,36.913541125714,18900,2018-04-18 06:34:15,1690.7291312033415,41.30000132160001,0.35999970196000003,2.07606006643392,1690.7291312033415,41.30000132160001,0.35999970196000003,2.07606006643392,1638,0.0,98,P-GPS,
0.371704498552191,36.9135411471237,19000,2018-04-18 06:34:15,1691.1291312161416,41.7000013344,0.0,2.08198006662336,1691.1291312161416,41.7000013344,0.35999970196000003,2.08198006662336,1638,0.0,98,P-GPS,
0.37170446633017,36.9135411665886,19100,2018-04-18 06:34:15,1691.6291312321414,42.2000013504,0.0,2.08606006675392,1691.6291312321414,42.2000013504,0.35999970196000003,2.08606006675392,1639,0.0,98,P-GPS,
0.371704437897538,36.9135411904206,19200,2018-04-18 06:34:15,1692.0291312449415,42.6000013632,0.0,2.0898900668764804,1692.0291312449415,42.6000013632,0.35999970196000003,2.0898900668764804,1640,0.0,98,P-GPS,
0.371704428294604,36.91354121203,19300,2018-04-18 06:34:15,1692.5291312609415,43.1000013792,0.0,2.0916500669328,1692.5291312609415,43.1000013792,0.35999970196000003,2.0916500669328,1640,0.0,98,P-GPS,
0.371704426055493,36.9135412230328,19400,2018-04-18 06:34:16,1693.0291312769416,43.6000013952,0.0,2.09227006695264,1693.0291312769416,43.6000013952,0.35999970196000003,2.09227006695264,1641,0.0,98,P-GPS,
0.371704433103399,36.9135412227512,19500,2018-04-18 06:34:16,1693.4291312897415,44.000001407999996,0.0,2.09152006692864,1693.4291312897415,44.000001407999996,0.35999970196000003,2.09227006695264,1641,0.0,98,P-GPS,
0.371704423194317,36.9135412375857,19600,2018-04-18 06:34:16,1693.9291313057415,44.500001424,0.0,2.09308006697856,1693.9291313057415,44.500001424,0.35999970196000003,2.09308006697856,1643,0.0,98,P-GPS,
0.371704404818955,36.9135412603663,19700,2018-04-18 06:34:16,1694.3291313185414,44.900001436800004,0.0,2.09582006706624,1694.3291313185414,44.900001436800004,0.35999970196000003,2.09582006706624,1647,0.0,98,P-GPS,
0.371704380227822,36.9135412836105,19800,2018-04-18 06:34:16,1694.8291313345417,45.4000014528,0.0,2.09922006717504,1694.8291313345417,45.4000014528,0.35999970196000003,2.09922006717504,1648,0.0,98,P-GPS,
0.371704370157524,36.9135412977481,19900,2018-04-18 06:34:16,1695.2291313473415,45.800001465600005,0.0,2.10078006722496,1695.2291313473415,45.800001465600005,0.35999970196000003,2.10078006722496,1648,0.0,98,P-GPS,
0.371704368239217,36.9135413052188,20000,2018-04-18 06:34:16,1695.7291313633416,46.300001481600006,0.0,2.10125006724,1695.7291313633416,46.300001481600006,0.35999970196000003,2.10125006724,1648,0.0,98,P-GPS,
0.371704383417944,36.9135413031932,20100,2018-04-18 06:34:16,1696.1291313761415,46.7000014944,0.0,2.09957006718624,1696.1291313761415,46.7000014944,0.35999970196000003,2.10125006724,1649,0.0,98,P-GPS,
0.371704387327838,36.9135413020209,20200,2018-04-18 06:34:16,1696.6291313921415,47.2000015104,0.35999970196000003,2.09912006717184,1696.6291313921415,47.2000015104,0.35999970196000003,2.10125006724,1651,0.0,98,P-GPS,
0.371704386056023,36.9135413055797,20300,2018-04-18 06:34:16,1697.0291314049414,47.6000015232,0.35999970196000003,2.09938006718016,1697.0291314049414,47.6000015232,0.35999970196000003,2.10125006724,1652,0.0,98,P-GPS,
0.371704391377778,36.9135412974622,20400,2018-04-18 06:34:16,1697.5291314209417,48.1000015392,0.35999970196000003,2.09853006715296,1697.5291314209417,48.1000015392,0.35999970196000003,2.10125006724,1652,0.0,98,P-GPS,
0.371704419364217,36.9135412824018,20500,2018-04-18 06:34:17,1698.0291314369415,48.6000015552,0.35999970196000003,2.0950500670416,1698.0291314369415,48.6000015552,0.35999970196000003,2.10125006724,1661,0.0,98,P-GPS,
0.371704457453522,36.9135412714344,20600,2018-04-18 06:34:17,1698.5291314529413,49.1000015712,0.35999970196000003,2.0906500669008,1698.5291314529413,49.1000015712,0.35999970196000003,2.10125006724,1664,0.0,98,P-GPS,
0.371704496689251,36.9135412613984,20700,2018-04-18 06:34:17,1699.0291314689416,49.600001587200005,0.0,2.0861500667568,1699.0291314689416,49.600001587200005,0.35999970196000003,2.10125006724,1665,0.0,98,P-GPS,
0.371704531819674,36.9135412537328,20800,2018-04-18 06:34:17,1699.4291314817417,50.000001600000004,0.0,2.08218006662976,1699.4291314817417,50.000001600000004,0.35999970196000003,2.10125006724,1666,0.0,98,P-GPS,
0.3717045477312,36.9135412455714,20900,2018-04-18 06:34:17,1699.9291314977415,50.500001616000006,0.0,2.0802100665667203,1699.9291314977415,50.500001616000006,0.35999970196000003,2.10125006724,1670,0.0,98,P-GPS,
0.371704549113749,36.9135412200586,21000,2018-04-18 06:34:17,1700.4291315137414,51.00000163200001,0.0,2.07917006653344,1700.4291315137414,51.00000163200001,0.35999970196000003,2.10125006724,1672,0.0,98,P-GPS,
0.371704541595223,36.9135411830055,21100,2018-04-18 06:34:17,1700.9291315297417,51.500001648,0.0,2.07868006651776,1700.9291315297417,51.500001648,0.35999970196000003,2.10125006724,1671,0.0,98,P-GPS,
0.37170450189213,36.9135411414714,21200,2018-04-18 06:34:17,1701.4291315457415,52.000001664,0.0,2.08144006660608,1701.4291315457415,52.000001664,0.35999970196000003,2.10125006724,1671,0.0,98,P-GPS,
0.37170444009268,36.9135411114384,21300,2018-04-18 06:34:17,1701.9291315617415,52.500001680000004,0.0,2.08694006678208,1701.9291315617415,52.500001680000004,0.35999970196000003,2.10125006724,1673,0.0,98,P-GPS,
0.37170438308737,36.9135410764869,21400,2018-04-18 06:34:18,1702.4291315777416,53.000001696000005,0.0,2.09179006693728,1702.4291315777416,53.000001696000005,0.35999970196000003,2.10125006724,1673,0.0,98,P-GPS,
0.371704338230251,36.9135410437104,21500,2018-04-18 06:34:18,1702.8291315905417,53.400001708800005,0.0,2.09544006705408,1702.8291315905417,53.400001708800005,0.35999970196000003,2.10125006724,1672,0.0,98,P-GPS,
0.371704281325904,36.9135410067136,21600,2018-04-18 06:34:18,1703.3291316065415,53.900001724800006,0.0,2.1002300672073604,1703.3291316065415,53.900001724800006,0.35999970196000003,2.10125006724,1675,0.0,98,P-GPS,
0.371704230523337,36.9135409761415,21700,2018-04-18 06:34:18,1703.8291316225414,54.40000174080001,0.0,2.10461006734752,1703.8291316225414,54.40000174080001,0.35999970196000003,2.10461006734752,1680,0.0,98,P-GPS,
0.371704178284482,36.9135409395756,21800,2018-04-18 06:34:18,1704.3291316385416,54.9000017568,0.0,2.1089500674864,1704.3291316385416,54.9000017568,0.35999970196000003,2.1089500674864,1684,0.0,98,P-GPS,
0.371704118489647,36.9135409061123,21900,2018-04-18 06:34:18,1704.9291316577414,55.500001776000005,0.0,2.1142200676550402,1704.9291316577414,55.500001776000005,0.35999970196000003,2.1142200676550402,1684,0.0,98,P-GPS,
0.37170405037672,36.9135408703975,22000,2018-04-18 06:34:18,1705.4291316737415,56.000001792,0.0,2.1203100678499203,1705.4291316737415,56.000001792,0.35999970196000003,2.1203100678499203,1684,0.0,98,P-GPS,
0.371703997444148,36.9135408416289,22100,2018-04-18 06:34:18,1705.9291316897416,56.500001808,0.0,2.1250200680006404,1705.9291316897416,56.500001808,0.35999970196000003,2.1250200680006404,1684,0.0,98,P-GPS,
0.371703937190091,36.9135408102378,22200,2018-04-18 06:34:18,1706.4291317057416,57.000001824,0.0,2.1304400681740803,1706.4291317057416,57.000001824,0.35999970196000003,2.1304400681740803,1684,0.0,98,P-GPS,
0.371703871799923,36.9135407781642,22300,2018-04-18 06:34:18,1706.9291317217414,57.50000184,0.0,2.1364000683648,1706.9291317217414,57.50000184,0.35999970196000003,2.1364000683648,1684,0.0,98,P-GPS,
0.371703802937911,36.9135407569092,22400,2018-04-18 06:34:18,1707.4291317377417,58.000001856000004,0.0,2.14308006857856,1707.4291317377417,58.000001856000004,0.35999970196000003,2.14308006857856,1684,0.0,98,P-GPS,
0.371703755193562,36.9135407641064,22500,2018-04-18 06:34:19,1707.9291317537416,58.500001872,0.0,2.1484000687488,1707.9291317537416,58.500001872,0.35999970196000003,2.1484000687488,1684,0.0,98,P-GPS,
0.371703744219478,36.9135407731264,22600,2018-04-18 06:34:19,1708.4291317697414,59.000001888,0.35999970196000003,2.1498500687952,1708.4291317697414,59.000001888,0.35999970196000003,2.1498500687952,1684,0.0,98,P-GPS,
0.371703754740854,36.9135407637023,22700,2018-04-18 06:34:19,1708.9291317857417,59.500001904,0.0,2.14844006875008,1708.9291317857417,59.500001904,0.35999970196000003,2.1498500687952,1684,0.0,98,P-GPS,
0.371703745082553,36.9135407261867,22800,2018-04-18 06:34:19,1709.4291318017415,60.00000192,0.0,2.1483000687456,1709.4291318017415,60.00000192,0.35999970196000003,2.1498500687952,1684,0.0,98,P-GPS,
0.37170372975401,36.9135406840969,22900,2018-04-18 06:34:19,1709.9291318177416,60.500001936000004,0.0,2.14864006875648,1709.9291318177416,60.500001936000004,0.35999970196000003,2.1498500687952,1684,0.0,98,P-GPS,
0.371703699036671,36.913540646227,23000,2018-04-18 06:34:19,1710.4291318337414,61.000001952,0.0,2.1507700688246403,1710.4291318337414,61.000001952,0.35999970196000003,2.1507700688246403,1684,0.0,98,P-GPS,
0.37170367307276,36.9135406262588,23100,2018-04-18 06:34:19,1710.9291318497417,61.500001968,0.0,2.1529400688940803,1710.9291318497417,61.500001968,0.35999970196000003,2.1529400688940803,1684,0.0,98,P-GPS,
0.371703641013583,36.9135406303893,23200,2018-04-18 06:34:19,1711.4291318657415,62.000001984,0.0,2.1564900690076803,1711.4291318657415,62.000001984,0.35999970196000003,2.1564900690076803,1684,0.0,98,P-GPS,
0.371703628976125,36.9135406556436,23300,2018-04-18 06:34:19,1711.9291318817413,62.50000200000001,0.0,2.1585500690736,1711.9291318817413,62.50000200000001,0.35999970196000003,2.1585500690736,1684,0.0,98,P-GPS,
0.371703604528295,36.9135406923771,23400,2018-04-18 06:34:20,1712.4291318977416,63.000002015999996,0.0,2.1622800691929602,1712.4291318977416,63.000002015999996,0.35999970196000003,2.1622800691929602,1684,0.0,98,P-GPS,
0.371703595109375,36.9135407306378,23500,2018-04-18 06:34:20,1712.9291319137415,63.500002032,0.0,2.16446006926272,1712.9291319137415,63.500002032,0.35999970196000003,2.16446006926272,1684,0.0,98,P-GPS,
0.371703576082635,36.9135407713149,23600,2018-04-18 06:34:20,1713.4291319297415,64.000002048,0.0,2.167750069368,1713.4291319297415,64.000002048,0.35999970196000003,2.167750069368,1684,0.0,98,P-GPS,
0.371703562862927,36.9135408062706,23700,2018-04-18 06:34:20,1713.9291319457416,64.500002064,0.0,2.170250069448,1713.9291319457416,64.500002064,0.35999970196000003,2.170250069448,1684,0.0,98,P-GPS,
0.371703528466933,36.9135408202235,23800,2018-04-18 06:34:20,1714.4291319617416,65.00000208,0.0,2.1743500695792,1714.4291319617416,65.00000208,0.35999970196000003,2.1743500695792,1684,0.0,98,P-GPS,
0.371703503125087,36.9135408238556,23900,2018-04-18 06:34:20,1714.9291319777415,65.500002096,0.0,2.17717006966944,1714.9291319777415,65.500002096,0.35999970196000003,2.17717006966944,1684,0.0,98,P-GPS,
0.371703456877278,36.9135408240376,24000,2018-04-18 06:34:20,1715.4291319937417,66.000002112,0.0,2.18211006982752,1715.4291319937417,66.000002112,0.35999970196000003,2.18211006982752,1684,0.0,98,P-GPS,
0.371703420662312,36.9135408268437,24100,2018-04-18 06:34:20,1715.9291320097416,66.500002128,0.0,2.18607006995424,1715.9291320097416,66.500002128,0.35999970196000003,2.18607006995424,1684,0.0,98,P-GPS,
0.371703371681973,36.9135408119877,24200,2018-04-18 06:34:20,1716.4291320257414,67.000002144,0.0,2.19084007010688,1716.4291320257414,67.000002144,0.35999970196000003,2.19084007010688,1684,0.0,98,P-GPS,
0.371703334615331,36.9135407904485,24300,2018-04-18 06:34:20,1716.9291320417415,67.50000216000001,0.0,2.1941400702124803,1716.9291320417415,67.50000216000001,0.35999970196000003,2.1941400702124803,1684,0.0,98,P-GPS,
0.371703258215252,36.9135407949264,24400,2018-04-18 06:34:21,1717.4291320577415,68.000002176,0.0,2.20244007047808,1717.4291320577415,68.000002176,0.35999970196000003,2.20244007047808,1684,0.0,98,P-GPS,
0.371703181307099,36.9135408208509,24500,2018-04-18 06:34:21,1717.9291320737416,68.500002192,0.0,2.2114600707667202,1717.9291320737416,68.500002192,0.35999970196000003,2.2114600707667202,1684,0.0,98,P-GPS,
0.371703123396374,36.913540838886,24600,2018-04-18 06:34:21,1718.4291320897414,69.000002208,0.0,2.2182000709824,1718.4291320897414,69.000002208,0.35999970196000003,2.2182000709824,1684,0.0,98,P-GPS,
0.371703119522306,36.9135408458985,24700,2018-04-18 06:34:21,1718.9291321057417,69.500002224,0.0,2.21883007100256,1718.9291321057417,69.500002224,0.35999970196000003,2.21883007100256,1684,0.0,98,P-GPS,
0.371703110657056,36.9135408712005,24800,2018-04-18 06:34:21,1719.4291321217415,70.00000224,0.0,2.2205600710579203,1719.4291321217415,70.00000224,0.35999970196000003,2.2205600710579203,1684,0.0,98,P-GPS,
0.371703088432053,36.9135408976116,24900,2018-04-18 06:34:21,1719.9291321377414,70.500002256,0.0,2.22375007116,1719.9291321377414,70.500002256,0.35999970196000003,2.22375007116,1684,0.0,98,P-GPS,
0.371703019999951,36.9135408942804,25000,2018-04-18 06:34:21,1720.5291321569416,71.1000022752,0.0,2.2309500713904002,1720.5291321569416,71.1000022752,0.35999970196000003,2.2309500713904002,1684,0.0,98,P-GPS,
0.37170294719222,36.9135408659079,25100,2018-04-18 06:34:21,1721.0291321729414,71.6000022912,0.0,2.23787007161184,1721.0291321729414,71.6000022912,0.35999970196000003,2.23787007161184,1684,0.0,98,P-GPS,
0.371702869639203,36.9135408288436,25200,2018-04-18 06:34:21,1721.5291321889415,72.1000023072,0.0,2.2450400718412804,1721.5291321889415,72.1000023072,0.35999970196000003,2.2450400718412804,1684,0.0,98,P-GPS,
0.371702840970446,36.9135408123801,25300,2018-04-18 06:34:21,1722.0291322049416,72.6000023232,0.0,2.24761007192352,1722.0291322049416,72.6000023232,0.35999970196000003,2.24761007192352,1684,0.0,98,P-GPS,
0.371702822665107,36.9135408215703,25400,2018-04-18 06:34:22,1722.5291322209414,73.1000023392,0.0,2.2498500719952004,1722.5291322209414,73.1000023392,0.35999970196000003,2.2498500719952004,1684,0.0,98,P-GPS,
0.371702815141696,36.9135408450271,25500,2018-04-18 06:34:22,1723.0291322369415,73.6000023552,0.0,2.25136007204352,1723.0291322369415,73.6000023552,0.35999970196000003,2.25136007204352,1684,0.0,98,P-GPS,
0.37170278358408,36.9135408684784,25600,2018-04-18 06:34:22,1723.5291322529415,74.1000023712,0.0,2.2554500721744,1723.5291322529415,74.1000023712,0.35999970196000003,2.2554500721744,1684,0.0,98,P-GPS,
0.371702779853314,36.91354090018,25700,2018-04-18 06:34:22,1724.0291322689416,74.6000023872,0.0,2.2568100722179203,1724.0291322689416,74.6000023872,0.35999970196000003,2.2568100722179203,1684,0.0,98,P-GPS,
0.371702771706209,36.9135409365297,25800,2018-04-18 06:34:22,1724.5291322849414,75.10000240320001,0.0,2.25879007228128,1724.5291322849414,75.10000240320001,0.35999970196000003,2.25879007228128,1684,0.0,98,P-GPS,
0.371702776192572,36.913540958669,25900,2018-04-18 06:34:22,1725.0291323009417,75.60000241920001,0.0,2.25899007228768,1725.0291323009417,75.60000241920001,0.35999970196000003,2.25899007228768,1684,0.0,98,P-GPS,
0.371702750780704,36.9135409819625,26000,2018-04-18 06:34:22,1725.5291323169415,76.1000024352,0.0,2.26242007239744,1725.5291323169415,76.1000024352,0.35999970196000003,2.26242007239744,1684,0.0,98,P-GPS,
0.371702734427869,36.9135409895376,26100,2018-04-18 06:34:22,1726.0291323329416,76.6000024512,0.0,2.2644000724608,1726.0291323329416,76.6000024512,0.35999970196000003,2.2644000724608,1667,0.0,98,P-GPS,
0.371702685380764,36.9135409764172,26200,2018-04-18 06:34:22,1726.5291323489416,77.1000024672,0.0,2.26924007261568,1726.5291323489416,77.1000024672,0.35999970196000003,2.26924007261568,1667,0.0,98,P-GPS,
0.371702656508452,36.9135409433875,26300,2018-04-18 06:34:22,1727.0291323649415,77.6000024832,0.0,2.27132007268224,1727.0291323649415,77.6000024832,0.35999970196000003,2.27132007268224,1541,0.0,98,P-GPS,
0.371702599052063,36.9135409090003,26400,2018-04-18 06:34:23,1727.5291323809415,78.1000024992,0.0,2.2764200728454402,1727.5291323809415,78.1000024992,0.35999970196000003,2.2764200728454402,1417,0.0,98,P-GPS,
0.371702541025718,36.9135408738198,26500,2018-04-18 06:34:23,1727.9291323937414,78.500002512,0.0,2.28158007301056,1727.9291323937414,78.500002512,0.35999970196000003,2.28158007301056,1417,0.0,98,P-GPS,
0.371702472440542,36.9135408651932,26600,2018-04-18 06:34:23,1728.4291324097414,79.000002528,0.0,2.28866007323712,1728.4291324097414,79.000002528,0.35999970196000003,2.28866007323712,1251,0.0,98,P-GPS,
0.371702454482062,36.9135408740392,26700,2018-04-18 06:34:23,1728.8291324225418,79.4000025408,0.0,2.2908500733072,1728.8291324225418,79.4000025408,0.35999970196000003,2.2908500733072,1207,0.0,98,P-GPS,
0.371702458510832,36.9135408693531,26800,2018-04-18 06:34:23,1729.1291324321414,79.70000255040001,0.0,2.29028007328896,1729.1291324321414,79.70000255040001,0.35999970196000003,2.2908500733072,1144,0.0,98,P-GPS,
0.371702494162356,36.913540838446,26900,2018-04-18 06:34:23,1729.3291324385416,79.9000025568,0.0,2.28554007313728,1729.3291324385416,79.9000025568,0.35999970196000003,2.2908500733072,1044,0.0,98,P-GPS,
0.371702509113101,36.9135408072133,27000,2018-04-18 06:34:23,1729.4291324417416,80.00000256,0.0,2.28301007305632,1729.4291324417416,80.00000256,0.35999970196000003,2.2908500733072,1024,0.0,98,P-GPS,
0.371702517317202,36.9135407728395,27100,2018-04-18 06:34:23,1729.5291324449415,80.1000025632,0.0,2.28112007299584,1729.5291324449415,80.1000025632,0.35999970196000003,2.2908500733072,1024,0.0,98,P-GPS,
0.371702523938455,36.9135407282107,27200,2018-04-18 06:34:23,1729.6291324481417,80.20000256640002,0.0,2.2791000729312,1729.6291324481417,80.20000256640002,0.35999970196000003,2.2908500733072,1024,0.0,98,P-GPS,
0.371702556647381,36.9135406680772,27300,2018-04-18 06:34:23,1729.6291324481417,80.20000256640002,0.0,2.27384007276288,1729.6291324481417,80.20000256640002,0.35999970196000003,2.2908500733072,1024,0.0,98,P-GPS,
0.371702591158995,36.9135406020286,27400,2018-04-18 06:34:24,1729.7291324513415,80.30000256960001,0.0,2.26823007258336,1729.7291324513415,80.30000256960001,0.35999970196000003,2.2908500733072,1024,0.0,98,P-GPS,
0.371702668091574,36.9135405366148,27500,2018-04-18 06:34:24,1729.7291324513415,80.30000256960001,0.35999970196000003,2.25809007225888,1729.7291324513415,80.30000256960001,0.35999970196000003,2.2908500733072,1024,0.0,98,P-GPS,
0.371702799279023,36.9135404476758,27600,2018-04-18 06:34:24,1729.7291324513415,80.30000256960001,0.35999970196000003,2.24147007172704,1729.7291324513415,80.30000256960001,0.35999970196000003,2.2908500733072,1024,0.0,98,P-GPS,
0.371703017130632,36.9135403369357,27700,2018-04-18 06:34:24,1729.7291324513415,80.30000256960001,0.35999970196000003,2.21492007087744,1729.7291324513415,80.30000256960001,0.35999970196000003,2.2908500733072,1024,0.0,98,P-GPS,
0.371703292875054,36.9135402277272,27800,2018-04-18 06:34:24,1729.7291324513415,80.30000256960001,0.35999970196000003,2.1822000698304,1729.7291324513415,80.30000256960001,0.35999970196000003,2.2908500733072,1024,0.0,98,P-GPS,
0.371703635613662,36.9135401346262,27900,2018-04-18 06:34:24,1729.7291324513415,80.30000256960001,0.0,2.1427000685664,1729.7291324513415,80.30000256960001,0.35999970196000003,2.2908500733072,1024,0.0,98,P-GPS,
0.371704052448101,36.9135400376286,28000,2018-04-18 06:34:24,1729.7291324513415,80.30000256960001,0.0,2.0951200670438404,1729.7291324513415,80.30000256960001,0.35999970196000003,2.2908500733072,1024,0.0,98,P-GPS,
0.371704565953488,36.913539916253,28100,2018-04-18 06:34:24,1729.7291324513415,80.30000256960001,0.0,2.03646006516672,1729.7291324513415,80.30000256960001,0.35999970196000003,2.2908500733072,1024,0.0,98,P-GPS,
0.371705129691488,36.9135398157085,28200,2018-04-18 06:34:24,1729.7291324513415,80.30000256960001,0.35999970196000003,1.97297006313504,1729.7291324513415,80.30000256960001,0.35999970196000003,2.2908500733072,1024,0.0,98,P-GPS,
0.371705759677847,36.913539707979,28300,2018-04-18 06:34:24,1729.7291324513415,80.30000256960001,0.35999970196000003,1.90216006086912,1729.7291324513415,80.30000256960001,0.35999970196000003,2.2908500733072,1024,0.0,98,P-GPS,
0.371706416623095,36.913539576152,28400,2018-04-18 06:34:25,1729.7291324513415,80.30000256960001,0.7199994039200001,1.82778005848896,1729.7291324513415,80.30000256960001,0.7199994039200001,2.2908500733072,1024,0.0,98,P-GPS,
0.371707119226657,36.9135394025725,28500,2018-04-18 06:34:25,1729.7291324513415,80.30000256960001,0.7199994039200001,1.7473200559142401,1729.7291324513415,80.30000256960001,0.7199994039200001,2.2908500733072,1024,0.0,98,P-GPS,
0.371707856739172,36.9135392090533,28600,2018-04-18 06:34:25,1729.7291324513415,80.30000256960001,1.07999910588,1.6625200532006401,1729.7291324513415,80.30000256960001,1.07999910588,2.2908500733072,1024,0.0,98,P-GPS,
0.371708644650401,36.91353900079,28700,2018-04-18 06:34:25,1729.7291324513415,80.30000256960001,1.151999046272,1.5719000503008,1729.7291324513415,80.30000256960001,1.151999046272,2.2908500733072,1024,0.0,98,P-GPS,
0.371709418184098,36.9135388083708,28800,2018-04-18 06:34:25,1729.7291324513415,80.30000256960001,1.475998778036,1.48327004746464,1729.7291324513415,80.30000256960001,1.475998778036,2.2908500733072,1024,0.0,98,P-GPS,
0.371710193530253,36.9135386228415,28900,2018-04-18 06:34:25,1729.7291324513415,80.30000256960001,1.475998778036,1.3946500446288002,1729.7291324513415,80.30000256960001,1.475998778036,2.2908500733072,1024,0.0,98,P-GPS,
0.371710958668507,36.9135384469409,29000,2018-04-18 06:34:25,1729.7291324513415,80.30000256960001,1.475998778036,1.3074100418371202,1729.7291324513415,80.30000256960001,1.475998778036,2.2908500733072,1024,0.0,98,P-GPS,
0.371711734018733,36.913538278176,29100,2018-04-18 06:34:25,1729.7291324513415,80.30000256960001,1.4399988078400001,1.2193000390176,1729.7291324513415,80.30000256960001,1.475998778036,2.2908500733072,1024,0.0,98,P-GPS,
