latitude,longitude,time_millisecond,datetime_utc,altitude_m,ascent_m,speed_kph,distance_m,max_altitude_m,max_ascent_m,max_speed_kph,max_distance_m,rc_throttle,gimbal_pitch_degrees,battery_percent,flycState,message
0.373279819973254,36.914809951787,0,2018-03-30 06:21:52,1643.1383582804297,0.0,0.0,0.0,1643.1383582804297,0.0,0.0,0.0,1024,0.0,99,Motors_Started,Setting new Return-To-Home altitude to 45m (148 ft). Setting new Maximum Flight Altitude to 150m (492 ft)
0.37327984184447793,36.9148099705421,100,2018-03-30 06:21:52,1643.1383582804297,0.0,0.0,0.0032039901025276807,1643.1383582804297,0.0,0.0,0.0032039901025276807,364,0.0,99,Motors_Started,
0.373279856680825,36.914809982554495,200,2018-03-30 06:21:52,1643.1383582804297,0.0,0.0,0.0053263501704432,1643.1383582804297,0.0,0.0,0.0053263501704432,364,0.0,99,Motors_Started,
0.37327986663143203,36.9148100276404,300,2018-03-30 06:21:53,1643.1383582804297,0.0,0.0,0.009903270316904642,1643.1383582804297,0.0,0.0,0.009903270316904642,364,0.0,99,Motors_Started,
0.37327987458271705,36.914810064874395,400,2018-03-30 06:21:53,1643.1383582804297,0.0,0.0,0.0139653004468896,1643.1383582804297,0.0,0.0,0.0139653004468896,364,0.0,99,Motors_Started,
0.373279912165168,36.9148100960466,500,2018-03-30 06:21:53,1643.1383582804297,0.0,0.0,0.0190384006092288,1643.1383582804297,0.0,0.0,0.0190384006092288,364,0.0,99,Motors_Started,
0.373279945432651,36.9148101181249,600,2018-03-30 06:21:53,1643.1383582804297,0.0,0.0,0.023169100741411198,1643.1383582804297,0.0,0.0,0.023169100741411198,364,0.0,99,Motors_Started,
0.373279970011163,36.914810164277206,700,2018-03-30 06:21:53,1643.1383582804297,0.0,0.0,0.028926700925654403,1643.1383582804297,0.0,0.0,0.028926700925654403,364,0.0,99,Motors_Started,
0.37327998894386,36.9148102046525,800,2018-03-30 06:21:53,1643.1383582804297,0.0,0.0,0.033820101082243204,1643.1383582804297,0.0,0.0,0.033820101082243204,364,0.0,99,Motors_Started,
0.373279999082553,36.9148102342872,900,2018-03-30 06:21:53,1643.1383582804297,0.0,0.0,0.03719730119031361,1643.1383582804297,0.0,0.0,0.03719730119031361,364,0.0,99,Motors_Started,
0.37328000916099197,36.9148102559523,1000,2018-03-30 06:21:53,1643.1383582804297,0.0,0.0,0.0398336012746752,1643.1383582804297,0.0,0.0,0.0398336012746752,364,0.0,99,Motors_Started,
0.37328000960433605,36.9148102649241,1100,2018-03-30 06:21:53,1643.1383582804297,0.0,0.0,0.040709701302710406,1643.1383582804297,0.0,0.0,0.040709701302710406,364,0.0,99,Motors_Started,
0.373280010561861,36.914810272084395,1200,2018-03-30 06:21:53,1643.1383582804297,0.0,0.0,0.041447201326310405,1643.1383582804297,0.0,0.0,0.041447201326310405,364,0.0,99,Motors_Started,
0.37328000325055505,36.9148103004258,1300,2018-03-30 06:21:54,1643.1383582804297,0.0,0.0,0.0438009014016288,1643.1383582804297,0.0,0.0,0.0438009014016288,364,0.0,99,Motors_Started,
0.373280001116886,36.9148103305167,1400,2018-03-30 06:21:54,1643.1383582804297,0.0,0.0,0.046685801493945606,1643.1383582804297,0.0,0.0,0.046685801493945606,364,0.0,99,Motors_Started,
0.37328002570679797,36.9148103474539,1500,2018-03-30 06:21:54,1643.1383582804297,0.0,0.0,0.049592401586956804,1643.1383582804297,0.0,0.0,0.049592401586956804,678,0.0,99,Assisted_Takeoff,
0.373280048868564,36.9148103602949,1600,2018-03-30 06:21:54,1643.1383582804297,0.0,0.0,0.052073001666335994,1643.1383582804297,0.0,0.0,0.052073001666335994,1024,0.0,99,Assisted_Takeoff,
0.37328006650013396,36.914810362755205,1700,2018-03-30 06:21:54,1643.1383582804297,0.0,0.0,0.053293501705391995,1643.1383582804297,0.0,0.0,0.053293501705391995,1024,0.0,99,Assisted_Takeoff,
0.373280079931947,36.9148103642841,1800,2018-03-30 06:21:54,1643.1383582804297,0.0,0.0,0.054220801735065605,1643.1383582804297,0.0,0.0,0.054220801735065605,1024,0.0,99,Assisted_Takeoff,
0.37328008683777103,36.914810389313004,1900,2018-03-30 06:21:54,1643.1383582804297,0.0,0.0,0.0569911018237152,1643.1383582804297,0.0,0.0,0.0569911018237152,1024,0.0,99,Assisted_Takeoff,
0.373280093454139,36.914810416618096,2000,2018-03-30 06:21:54,1643.1383582804297,0.0,0.0,0.059974101919171206,1643.1383582804297,0.0,0.0,0.059974101919171206,1024,0.0,99,Assisted_Takeoff,
0.37328009251249106,36.9148104345189,2100,2018-03-30 06:21:54,1643.1383582804297,0.0,0.0,0.06164650197268799,1643.1383582804297,0.0,0.0,0.06164650197268799,1024,0.0,99,Assisted_Takeoff,
0.373280093787156,36.91481044772821,2200,2018-03-30 06:21:54,1643.1383582804297,0.0,0.0,0.0629982020159424,1643.1383582804297,0.0,0.0,0.0629982020159424,1024,0.0,99,Assisted_Takeoff,
0.37328012357017504,36.9148104863562,2300,2018-03-30 06:21:55,1643.1383582804297,0.0,0.35999970196000003,0.068364502187664,1643.1383582804297,0.0,0.35999970196000003,0.068364502187664,1024,0.0,99,Assisted_Takeoff,
0.373280151767497,36.914810520633104,2400,2018-03-30 06:21:55,1643.1383582804297,0.0,0.35999970196000003,0.07323240234343681,1643.1383582804297,0.0,0.35999970196000003,0.07323240234343681,1024,0.0,99,Assisted_Takeoff,
0.37328017257494,36.914810541557294,2500,2018-03-30 06:21:55,1643.1383582804297,0.0,0.35999970196000003,0.07641260244520322,1643.1383582804297,0.0,0.35999970196000003,0.07641260244520322,1024,0.0,99,Assisted_Takeoff,
0.3732801886945,36.9148105573939,2600,2018-03-30 06:21:55,1643.1383582804297,0.0,0.35999970196000003,0.07884660252309121,1643.1383582804297,0.0,0.35999970196000003,0.07884660252309121,1024,0.0,99,Assisted_Takeoff,
0.373280195524195,36.9148105603167,2700,2018-03-30 06:21:55,1643.1383582804297,0.0,0.35999970196000003,0.0795206025446592,1643.1383582804297,0.0,0.35999970196000003,0.0795206025446592,1024,0.0,99,Assisted_Takeoff,
0.37328020251144106,36.9148105633851,2800,2018-03-30 06:21:55,1643.1383582804297,0.0,0.0,0.080220502567056,1643.1383582804297,0.0,0.35999970196000003,0.080220502567056,1024,0.0,99,Assisted_Takeoff,
0.373280201111793,36.9148105556446,2900,2018-03-30 06:21:55,1643.1383582804297,0.0,0.0,0.0794089025410848,1643.1383582804297,0.0,0.35999970196000003,0.080220502567056,1024,0.0,99,Assisted_Takeoff,
0.37328020195451295,36.914810550422104,3000,2018-03-30 06:21:55,1643.1383582804297,0.0,0.0,0.0789687025269984,1643.1383582804297,0.0,0.35999970196000003,0.080220502567056,1025,0.0,99,Assisted_Takeoff,
0.373280195589739,36.914810538005,3100,2018-03-30 06:21:55,1643.1383582804297,0.0,0.0,0.07742410247757121,1643.1383582804297,0.0,0.35999970196000003,0.080220502567056,1025,0.0,99,Assisted_Takeoff,
0.373280192804693,36.9148105285814,3200,2018-03-30 06:21:55,1643.1383582804297,0.0,0.0,0.0763753024440096,1643.1383582804297,0.0,0.35999970196000003,0.080220502567056,1041,0.0,99,Assisted_Takeoff,
0.373280184899005,36.9148105156162,3300,2018-03-30 06:21:56,1643.1383582804297,0.0,0.35999970196000003,0.07468720238999041,1643.1383582804297,0.0,0.35999970196000003,0.080220502567056,1051,0.0,99,Assisted_Takeoff,
0.37328017983942896,36.914810505034204,3400,2018-03-30 06:21:56,1643.1383582804297,0.0,0.503999582744,0.07339380234860161,1643.1383582804297,0.0,0.503999582744,0.080220502567056,1088,0.0,99,Assisted_Takeoff,
0.373280170795865,36.914810495222994,3500,2018-03-30 06:21:56,1643.1383582804297,0.0,0.35999970196000003,0.07193120230179839,1643.1383582804297,0.0,0.503999582744,0.080220502567056,1143,0.0,99,Assisted_Takeoff,
0.3732801626263689,36.914810486945,3600,2018-03-30 06:21:56,1643.1383582804297,0.0,0.35999970196000003,0.0706656022612992,1643.1383582804297,0.0,0.503999582744,0.080220502567056,1220,0.0,99,Assisted_Takeoff,
0.373280185437205,36.9148104826004,3700,2018-03-30 06:21:56,1643.1383582804297,0.0,0.0,0.07166670229333441,1643.1383582804297,0.0,0.503999582744,0.080220502567056,1293,0.0,99,Assisted_Takeoff,
0.3732802032572679,36.914810478459295,3800,2018-03-30 06:21:56,1643.1383582804297,0.0,0.0,0.0724359023179488,1643.1383582804297,0.0,0.503999582744,0.080220502567056,1370,0.0,99,Assisted_Takeoff,
0.37328021858825394,36.91481051415371,3900,2018-03-30 06:21:56,1643.1383582804297,0.0,0.0,0.07665460245294721,1643.1383582804297,0.0,0.503999582744,0.080220502567056,1479,0.0,99,Assisted_Takeoff,
0.37328022746083095,36.9148105468055,4000,2018-03-30 06:21:56,1643.1383582804297,0.0,0.0,0.08019790256633282,1643.1383582804297,0.0,0.503999582744,0.080220502567056,1615,0.0,99,Assisted_Takeoff,
0.373280258043824,36.9148105814529,4100,2018-03-30 06:21:56,1643.1383582804297,0.0,0.0,0.08530080272962559,1643.1383582804297,0.0,0.503999582744,0.08530080272962559,1684,0.0,99,Assisted_Takeoff,
0.37328032886729606,36.9148106192394,4200,2018-03-30 06:21:56,1643.1383582804297,0.0,0.0,0.0933368029867776,1643.1383582804297,0.0,0.503999582744,0.0933368029867776,1684,0.0,99,P-GPS,Obstacle Avoided. Revise Flight Route
0.37328042627878005,36.9148106829434,4300,2018-03-30 06:21:57,1643.1383582804297,0.0,0.35999970196000003,0.10562700338006402,1643.1383582804297,0.0,0.503999582744,0.10562700338006402,1684,0.0,99,P-GPS,
0.3732804988967971,36.914810766212,4400,2018-03-30 06:21:57,1643.1383582804297,0.0,0.35999970196000003,0.11791000377312,1643.1383582804297,0.0,0.503999582744,0.11791000377312,1684,0.0,99,P-GPS,
0.373280560798432,36.9148108657989,4500,2018-03-30 06:21:57,1643.2383582836296,0.10000000320000002,0.35999970196000003,0.130836004186752,1643.2383582836296,0.10000000320000002,0.503999582744,0.130836004186752,1684,0.0,99,P-GPS,
0.37328061634628495,36.9148109558081,4600,2018-03-30 06:21:57,1643.4383582900296,0.3000000096,0.35999970196000003,0.14251000456032,1643.4383582900296,0.3000000096,0.503999582744,0.14251000456032,1684,0.0,99,P-GPS,
0.37328070211643005,36.9148110108637,4700,2018-03-30 06:21:57,1643.5383582932297,0.4000000128000001,0.0,0.15327800490489601,1643.5383582932297,0.4000000128000001,0.503999582744,0.15327800490489601,1684,0.0,99,P-GPS,
0.37328076973960295,36.9148110528127,4800,2018-03-30 06:21:57,1643.7383582996295,0.6000000192,0.0,0.16169900517436803,1643.7383582996295,0.6000000192,0.503999582744,0.16169900517436803,1684,0.0,99,P-GPS,
0.37328082986989797,36.9148111417855,4900,2018-03-30 06:21:57,1644.0383583092296,0.9000000288000001,0.0,0.17356400555404802,1644.0383583092296,0.9000000288000001,0.503999582744,0.17356400555404802,1684,0.0,99,P-GPS,
0.37328088033374895,36.9148112133308,5000,2018-03-30 06:21:57,1644.3383583188297,1.2000000384,0.0,0.18326400586444802,1644.3383583188297,1.2000000384,0.503999582744,0.18326400586444802,1684,0.0,99,P-GPS,
0.373280999856246,36.91481125716621,5100,2018-03-30 06:21:57,1644.7383583316296,1.6000000512000003,0.0,0.195674006261568,1644.7383583316296,1.6000000512000003,0.503999582744,0.195674006261568,1684,0.0,99,P-GPS,Home Point Recorded. RTH Altitude:  45m.
0.37328111043980605,36.914811274482396,5200,2018-03-30 06:21:57,1645.1383583444297,2.000000064,0.0,0.205498006575936,1645.1383583444297,2.000000064,0.503999582744,0.205498006575936,1684,0.0,99,P-GPS,
0.373281233287993,36.9148112466356,5300,2018-03-30 06:21:58,1645.5383583572295,2.4000000768,0.0,0.21315700682102404,1645.5383583572295,2.4000000768,0.503999582744,0.21315700682102404,1684,0.0,99,P-GPS,
0.373281333582637,36.91481121623,5400,2018-03-30 06:21:58,1646.0383583732296,2.9000000928,0.0,0.21932600701843202,1646.0383583732296,2.9000000928,0.503999582744,0.21932600701843202,1684,0.0,99,P-GPS,
0.37328144719673206,36.914811182897296,5500,2018-03-30 06:21:58,1646.5383583892296,3.4000001088000005,0.0,0.22691000726112,1646.5383583892296,3.4000001088000005,0.503999582744,0.22691000726112,1684,0.0,99,P-GPS,
0.37328154780729494,36.9148111518044,5600,2018-03-30 06:21:58,1647.0383584052297,3.9000001248,0.0,0.23394000748608,1647.0383584052297,3.9000001248,0.503999582744,0.23394000748608,1684,0.0,99,P-GPS,
0.37328165955275,36.9148111656475,5700,2018-03-30 06:21:58,1647.6383584244295,4.5000001439999995,0.0,0.24509400784300803,1647.6383584244295,4.5000001439999995,0.503999582744,0.24509400784300803,1684,0.0,99,P-GPS,
0.37328175159769805,36.914811178617,5800,2018-03-30 06:21:58,1648.1383584404298,5.00000016,0.0,0.254471008143072,1648.1383584404298,5.00000016,0.503999582744,0.254471008143072,1684,0.0,99,P-GPS,
0.373281828950823,36.9148111637354,5900,2018-03-30 06:21:58,1648.6383584564296,5.500000176000001,0.0,0.26091400834924805,1648.6383584564296,5.500000176000001,0.503999582744,0.26091400834924805,1684,0.0,99,P-GPS,
0.37328186239947,36.914811131541796,6000,2018-03-30 06:21:58,1649.0383584692295,5.9000001888,0.0,0.262297008393504,1649.0383584692295,5.9000001888,0.503999582744,0.262297008393504,1684,0.0,99,P-GPS,
0.373281872565439,36.914811076019504,6100,2018-03-30 06:21:58,1649.5383584852295,6.400000204800001,0.0,0.26025500832816,1649.5383584852295,6.400000204800001,0.503999582744,0.262297008393504,1684,0.0,99,P-GPS,
0.3732818839954871,36.914811032939795,6200,2018-03-30 06:21:58,1650.0383585012296,6.9000002208,0.0,0.259113008291616,1650.0383585012296,6.9000002208,0.503999582744,0.262297008393504,1684,0.0,99,P-GPS,
0.373281928594497,36.914811025332,6300,2018-03-30 06:21:58,1650.5383585172297,7.4000002368,0.0,0.263132008420224,1650.5383585172297,7.4000002368,0.503999582744,0.263132008420224,1684,0.0,99,P-GPS,
0.373281972180208,36.914811019681295,6400,2018-03-30 06:21:59,1650.9383585300295,7.8000002496,0.0,0.26718000854976004,1650.9383585300295,7.8000002496,0.503999582744,0.26718000854976004,1684,0.0,99,P-GPS,
0.37328201231483793,36.91481098951979,6500,2018-03-30 06:21:59,1651.4383585460296,8.3000002656,0.0,0.269734008631488,1651.4383585460296,8.3000002656,0.503999582744,0.269734008631488,1684,0.0,99,P-GPS,
0.373282052485295,36.9148109624631,6600,2018-03-30 06:21:59,1651.9383585620296,8.8000002816,0.0,0.272524008720768,1651.9383585620296,8.8000002816,0.503999582744,0.272524008720768,1684,0.0,99,P-GPS,
0.373282077933396,36.9148109152658,6700,2018-03-30 06:21:59,1652.3383585748297,9.2000002944,0.0,0.273002008736064,1652.3383585748297,9.2000002944,0.503999582744,0.273002008736064,1684,0.0,99,P-GPS,
0.373282110610161,36.914810876522296,6800,2018-03-30 06:21:59,1652.8383585908296,9.7000003104,0.0,0.274706008790592,1652.8383585908296,9.7000003104,0.503999582744,0.274706008790592,1684,0.0,99,P-GPS,
0.37328216016819,36.9148108138888,6900,2018-03-30 06:21:59,1653.3383586068296,10.2000003264,0.0,0.277341008874912,1653.3383586068296,10.2000003264,0.503999582744,0.277341008874912,1684,0.0,99,P-GPS,
0.37328228667386204,36.91481073639729,7100,2018-03-30 06:21:59,1654.2383586356298,11.1000003552,0.0,0.28785400921132803,1654.2383586356298,11.1000003552,0.503999582744,0.28785400921132803,1684,0.0,99,P-GPS,
0.37328235615061106,36.914810719173204,7200,2018-03-30 06:21:59,1654.7383586516296,11.6000003712,0.0,0.294666009429312,1654.7383586516296,11.6000003712,0.503999582744,0.294666009429312,1684,0.0,99,P-GPS,
0.373282452693727,36.9148106793911,7300,2018-03-30 06:22:00,1655.2383586676294,12.1000003872,0.0,0.30374900971996804,1655.2383586676294,12.1000003872,0.503999582744,0.30374900971996804,1684,0.0,99,P-GPS,
0.37328253613275497,36.9148106372108,7400,2018-03-30 06:22:00,1655.6383586804295,12.500000400000001,0.0,0.311522009968704,1655.6383586804295,12.500000400000001,0.503999582744,0.311522009968704,1684,0.0,99,P-GPS,
0.373282637702064,36.9148106109528,7500,2018-03-30 06:22:00,1656.1383586964298,13.000000416,0.0,0.32180801029785605,1656.1383586964298,13.000000416,0.503999582744,0.32180801029785605,1684,0.0,99,P-GPS,
0.37328273169503706,36.9148105973773,7600,2018-03-30 06:22:00,1656.6383587124296,13.500000432000002,0.0,0.331664010613248,1656.6383587124296,13.500000432000002,0.503999582744,0.331664010613248,1684,0.0,99,P-GPS,
0.373282844075586,36.9148106117108,7700,2018-03-30 06:22:00,1657.1383587284295,14.000000448,0.0,0.34421301101481605,1657.1383587284295,14.000000448,0.503999582744,0.34421301101481605,1684,0.0,99,P-GPS,
0.373282936786974,36.914810624568894,7800,2018-03-30 06:22:00,1657.6383587444298,14.500000464,0.0,0.354591011346912,1657.6383587444298,14.500000464,0.503999582744,0.354591011346912,1684,0.0,99,P-GPS,
0.373282999826483,36.914810647848505,7900,2018-03-30 06:22:00,1658.1383587604296,15.00000048,0.0,0.361992011583744,1658.1383587604296,15.00000048,0.503999582744,0.361992011583744,1684,0.0,99,P-GPS,
0.37328305023089603,36.9148106634175,8000,2018-03-30 06:22:00,1658.6383587764296,15.500000496,0.0,0.36783801177081604,1658.6383587764296,15.500000496,0.503999582744,0.36783801177081604,1684,0.0,99,P-GPS,
0.373283204511309,36.9148106796438,8200,2018-03-30 06:22:00,1659.7383588116295,16.6000005312,0.0,0.38498601231955204,1659.7383588116295,16.6000005312,0.503999582744,0.38498601231955204,1684,0.0,99,P-GPS,
0.37328330467608506,36.9148106738089,8300,2018-03-30 06:22:01,1660.2383588276296,17.1000005472,0.0,0.395751012664032,1660.2383588276296,17.1000005472,0.503999582744,0.395751012664032,1684,0.0,99,P-GPS,
0.373283384274428,36.9148106499598,8400,2018-03-30 06:22:01,1660.8383588468296,17.700000566400004,0.0,0.40390401292492806,1660.8383588468296,17.700000566400004,0.503999582744,0.40390401292492806,1684,0.0,99,P-GPS,
0.37328344193030105,36.9148106166485,8500,2018-03-30 06:22:01,1661.3383588628296,18.2000005824,0.0,0.40951301310441607,1661.3383588628296,18.2000005824,0.503999582744,0.40951301310441607,1684,0.0,99,P-GPS,
0.373283473161415,36.9148105781019,8600,2018-03-30 06:22:01,1661.9383588820297,18.800000601600004,0.0,0.412184013189888,1661.9383588820297,18.800000601600004,0.503999582744,0.412184013189888,1684,0.0,99,P-GPS,
0.37328349162797,36.914810560124,8700,2018-03-30 06:22:01,1662.5383589012295,19.4000006208,0.0,0.413877013244064,1662.5383589012295,19.4000006208,0.503999582744,0.413877013244064,1684,0.0,99,P-GPS,
0.37328350252470294,36.914810548717604,8800,2018-03-30 06:22:01,1663.0383589172297,19.900000636800005,0.0,0.41486701327574393,1663.0383589172297,19.900000636800005,0.503999582744,0.41486701327574393,1684,0.0,99,P-GPS,
0.37328352799519504,36.9148105421933,8900,2018-03-30 06:22:01,1663.6383589364295,20.500000655999997,0.0,0.417549013361568,1663.6383589364295,20.500000655999997,0.503999582744,0.417549013361568,1684,0.0,99,P-GPS,
0.373283550932643,36.9148105439791,9000,2018-03-30 06:22:01,1664.1383589524298,21.000000672,0.0,0.4200990134431681,1664.1383589524298,21.000000672,0.503999582744,0.4200990134431681,1684,0.0,99,P-GPS,
0.373283561266749,36.9148105639611,9100,2018-03-30 06:22:01,1664.7383589716296,21.600000691199998,0.0,0.42158701349078403,1664.7383589716296,21.600000691199998,0.503999582744,0.42158701349078403,1684,0.0,99,P-GPS,
0.37328355186167,36.9148105810268,9200,2018-03-30 06:22:01,1665.2383589876295,22.1000007072,0.0,0.42086601346771196,1665.2383589876295,22.1000007072,0.503999582744,0.42158701349078403,1684,0.0,99,P-GPS,
0.37328352200089293,36.914810595735,9300,2018-03-30 06:22:02,1665.8383590068297,22.700000726400003,0.0,0.4178700133718401,1665.8383590068297,22.700000726400003,0.503999582744,0.42158701349078403,1684,0.0,99,P-GPS,
0.373283491129666,36.9148106093105,9400,2018-03-30 06:22:02,1666.4383590260297,23.300000745600002,0.0,0.414751013272032,1666.4383590260297,23.300000745600002,0.503999582744,0.42158701349078403,1684,0.0,99,P-GPS,
0.37328340576581703,36.9148106215541,9500,2018-03-30 06:22:02,1666.9383590420296,23.800000761600003,0.0,0.4056580129810561,1666.9383590420296,23.800000761600003,0.503999582744,0.42158701349078403,1684,0.0,99,P-GPS,
0.373283328597927,36.914810641840205,9600,2018-03-30 06:22:02,1667.4383590580296,24.3000007776,0.0,0.39765501272496,1667.4383590580296,24.3000007776,0.503999582744,0.42158701349078403,1684,0.0,99,P-GPS,
0.373283277129326,36.914810665640104,9700,2018-03-30 06:22:02,1668.0383590772296,24.9000007968,0.0,0.392567012562144,1668.0383590772296,24.9000007968,0.503999582744,0.42158701349078403,1684,0.0,99,P-GPS,
0.373283247247379,36.9148106946367,9800,2018-03-30 06:22:02,1668.5383590932297,25.400000812800002,0.0,0.38998301247945605,1668.5383590932297,25.400000812800002,0.503999582744,0.42158701349078403,1684,0.0,99,P-GPS,
0.373283211796153,36.9148107133897,9900,2018-03-30 06:22:02,1669.0383591092295,25.900000828800003,0.0,0.38658301237065607,1669.0383591092295,25.900000828800003,0.503999582744,0.42158701349078403,1684,0.0,99,P-GPS,
0.373283180452677,36.914810736119,10000,2018-03-30 06:22:02,1669.6383591284296,26.500000848000003,0.0,0.38374901227996805,1669.6383591284296,26.500000848000003,0.503999582744,0.42158701349078403,1684,0.0,99,P-GPS,
0.3732831713993429,36.914810770072606,10100,2018-03-30 06:22:02,1670.1383591444296,27.000000864000004,0.0,0.383647012276704,1670.1383591444296,27.000000864000004,0.503999582744,0.42158701349078403,1684,0.0,99,P-GPS,
0.373283168930622,36.9148108097413,10200,2018-03-30 06:22:02,1670.6383591604297,27.50000088,0.0,0.384451012302432,1670.6383591604297,27.50000088,0.503999582744,0.42158701349078403,1684,0.0,99,P-GPS,
0.3732831836314,36.9148108176467,10300,2018-03-30 06:22:03,1671.1383591764297,28.000000896,0.0,0.386253012360096,1671.1383591764297,28.000000896,0.503999582744,0.42158701349078403,1684,0.0,99,P-GPS,
0.37328319552066996,36.9148108075443,10400,2018-03-30 06:22:03,1671.7383591956295,28.600000915200003,0.0,0.387256012392192,1671.7383591956295,28.600000915200003,0.503999582744,0.42158701349078403,1684,0.0,99,P-GPS,
0.37328317659245097,36.914810761175794,10500,2018-03-30 06:22:03,1672.2383592116296,29.1000009312,0.0,0.3839750122872,1672.2383592116296,29.1000009312,0.503999582744,0.42158701349078403,1684,0.0,99,P-GPS,
0.373283154829111,36.9148107125868,10600,2018-03-30 06:22:03,1672.7383592276296,29.6000009472,0.0,0.380384012172288,1672.7383592276296,29.6000009472,0.503999582744,0.42158701349078403,1684,0.0,99,P-GPS,
0.37328314019021397,36.9148106335857,10700,2018-03-30 06:22:03,1673.2383592436295,30.1000009632,0.0,0.376932012061824,1673.2383592436295,30.1000009632,0.503999582744,0.42158701349078403,1684,0.0,99,P-GPS,
0.37328311625045896,36.9148105688239,10800,2018-03-30 06:22:03,1673.7383592596298,30.6000009792,0.0,0.3729330119338561,1673.7383592596298,30.6000009792,0.503999582744,0.42158701349078403,1684,0.0,99,P-GPS,
0.373283048488461,36.914810486566,10900,2018-03-30 06:22:03,1674.3383592788296,31.2000009984,0.0,0.363922011645504,1674.3383592788296,31.2000009984,0.503999582744,0.42158701349078403,1684,0.0,99,P-GPS,
0.373282910591824,36.914810399349,11100,2018-03-30 06:22:03,1675.3383593108297,32.2000010304,0.0,0.34728101111299203,1675.3383593108297,32.2000010304,0.503999582744,0.42158701349078403,1684,0.0,99,P-GPS,
0.37328284085045205,36.91481038567721,11200,2018-03-30 06:22:03,1675.8383593268295,32.700001046400004,0.0,0.339387010860384,1675.8383593268295,32.700001046400004,0.503999582744,0.42158701349078403,1684,0.0,99,P-GPS,
0.37328277325455606,36.9148103599952,11300,2018-03-30 06:22:04,1676.3383593428296,33.2000010624,0.0,0.33154501060944,1676.3383593428296,33.2000010624,0.503999582744,0.42158701349078403,1684,0.0,99,P-GPS,
0.3732827162199339,36.9148103327543,11400,2018-03-30 06:22:04,1676.9383593620296,33.800001081599994,0.0,0.32485501039536,1676.9383593620296,33.800001081599994,0.503999582744,0.42158701349078403,1684,0.0,99,P-GPS,
0.373282629078639,36.9148103173502,11500,2018-03-30 06:22:04,1677.4383593780296,34.3000010976,0.0,0.315024010080768,1677.4383593780296,34.3000010976,0.503999582744,0.42158701349078403,1684,0.0,99,P-GPS,
0.37328256581440394,36.914810290606106,11600,2018-03-30 06:22:04,1677.9383593940297,34.800001113600004,0.0,0.30767000984544,1677.9383593940297,34.800001113600004,0.503999582744,0.42158701349078403,1684,0.0,99,P-GPS,
0.37328251063295,36.9148102335785,11700,2018-03-30 06:22:04,1678.4383594100295,35.300001129600005,0.0,0.300854009627328,1678.4383594100295,35.300001129600005,0.503999582744,0.42158701349078403,1684,0.0,99,P-GPS,
0.37328245132502,36.914810171570295,11800,2018-03-30 06:22:04,1678.9383594260296,35.8000011456,0.0,0.293641009396512,1678.9383594260296,35.8000011456,0.503999582744,0.42158701349078403,1684,0.0,99,P-GPS,
0.373282408352826,36.914810095804704,11900,2018-03-30 06:22:04,1679.5383594452296,36.4000011648,0.0,0.2882890092252481,1679.5383594452296,36.4000011648,0.503999582744,0.42158701349078403,1684,0.0,99,P-GPS,
0.37328237454958496,36.914810034299705,12000,2018-03-30 06:22:04,1680.0383594612297,36.900001180800004,0.0,0.284233009095456,1680.0383594612297,36.900001180800004,0.503999582744,0.42158701349078403,1684,0.0,99,P-GPS,
0.373282340740645,36.9148100218955,12100,2018-03-30 06:22:04,1680.5383594772295,37.4000011968,0.0,0.28043300897385603,1680.5383594772295,37.4000011968,0.503999582744,0.42158701349078403,1684,0.0,99,P-GPS,
0.37328231447547205,36.9148100138615,12200,2018-03-30 06:22:04,1681.0383594932298,37.90000121280001,0.0,0.27749000887968,1681.0383594932298,37.90000121280001,0.503999582744,0.42158701349078403,1684,0.0,99,P-GPS,
0.373282268745507,36.9148100070438,12300,2018-03-30 06:22:05,1681.5383595092296,38.4000012288,0.0,0.27238800871641605,1681.5383595092296,38.4000012288,0.503999582744,0.42158701349078403,1684,0.0,99,P-GPS,
0.3732822480968379,36.9148099871217,12400,2018-03-30 06:22:05,1682.0383595252295,38.9000012448,0.0,0.270051008641632,1682.0383595252295,38.9000012448,0.503999582744,0.42158701349078403,1684,0.0,99,P-GPS,
0.373282261477762,36.9148099444104,12500,2018-03-30 06:22:05,1682.5383595412297,39.4000012608,0.0,0.271511008688352,1682.5383595412297,39.4000012608,0.503999582744,0.42158701349078403,1684,0.0,99,P-GPS,
0.373282294684178,36.9148099036776,12600,2018-03-30 06:22:05,1683.0383595572296,39.900001276800005,0.0,0.27525500880816,1683.0383595572296,39.900001276800005,0.503999582744,0.42158701349078403,1684,0.0,99,P-GPS,
0.3732823376710279,36.9148098483694,12700,2018-03-30 06:22:05,1683.6383595764294,40.500001296,0.0,0.280219008967008,1683.6383595764294,40.500001296,0.503999582744,0.42158701349078403,1684,0.0,99,P-GPS,
0.373282387203409,36.9148098016796,12800,2018-03-30 06:22:05,1684.1383595924297,41.000001311999995,0.0,0.285979009151328,1684.1383595924297,41.000001311999995,0.503999582744,0.42158701349078403,1684,0.0,99,P-GPS,
0.373282410196224,36.914809753146294,12900,2018-03-30 06:22:05,1684.6383596084295,41.500001328,0.0,0.288894009244608,1684.6383596084295,41.500001328,0.503999582744,0.42158701349078403,1684,0.0,99,P-GPS,
0.37328242917818205,36.9148097155354,13000,2018-03-30 06:22:05,1685.1383596244295,42.000001344,0.0,0.291346009323072,1685.1383596244295,42.000001344,0.503999582744,0.42158701349078403,1684,0.0,99,P-GPS,
0.373282435003126,36.914809695568295,13100,2018-03-30 06:22:05,1685.7383596436296,42.60000136320001,0.0,0.2922000093504,1685.7383596436296,42.60000136320001,0.503999582744,0.42158701349078403,1684,0.0,99,P-GPS,
0.37328247520696506,36.914809666366104,13200,2018-03-30 06:22:05,1686.2383596596296,43.1000013792,0.0,0.296979009503328,1686.2383596596296,43.1000013792,0.503999582744,0.42158701349078403,1684,0.0,99,P-GPS,
0.373282545628212,36.9148096213679,13300,2018-03-30 06:22:06,1686.7383596756297,43.6000013952,0.35999970196000003,0.305328009770496,1686.7383596756297,43.6000013952,0.503999582744,0.42158701349078403,1684,0.0,99,P-GPS,
0.37328263737637496,36.914809588911,13400,2018-03-30 06:22:06,1687.2383596916297,44.100001411200004,0.35999970196000003,0.3159000101088,1687.2383596916297,44.100001411200004,0.503999582744,0.42158701349078403,1684,0.0,99,P-GPS,
0.37328274563940295,36.914809600820604,13500,2018-03-30 06:22:06,1687.7383597076296,44.6000014272,0.35999970196000003,0.32768401048588797,1687.7383597076296,44.6000014272,0.503999582744,0.42158701349078403,1684,0.0,99,P-GPS,
0.37328285907274106,36.914809636635,13600,2018-03-30 06:22:06,1688.3383597268296,45.2000014464,0.35999970196000003,0.339779010872928,1688.3383597268296,45.2000014464,0.503999582744,0.42158701349078403,1684,0.0,99,P-GPS,
0.37328298544569394,36.9148097019492,13700,2018-03-30 06:22:06,1688.8383597428297,45.700001462399996,0.35999970196000003,0.35311501129968,1688.8383597428297,45.700001462399996,0.503999582744,0.42158701349078403,1684,0.0,99,P-GPS,
0.37328311413592397,36.914809773316705,13800,2018-03-30 06:22:06,1689.3383597588295,46.20000147840001,0.35999970196000003,0.366868011739776,1689.3383597588295,46.20000147840001,0.503999582744,0.42158701349078403,1684,0.0,99,P-GPS,
0.37328326985588106,36.9148098639426,13900,2018-03-30 06:22:06,1689.8383597748298,46.7000014944,0.35999970196000003,0.383772012280704,1689.8383597748298,46.7000014944,0.503999582744,0.42158701349078403,1684,0.0,99,P-GPS,
0.373283412893517,36.914809944179204,14000,2018-03-30 06:22:06,1690.3383597908296,47.2000015104,0.35999970196000003,0.399556012785792,1690.3383597908296,47.2000015104,0.503999582744,0.42158701349078403,1684,0.0,99,P-GPS,
0.373283532628118,36.9148100126175,14100,2018-03-30 06:22:06,1690.8383598068294,47.700001526399994,0.35999970196000003,0.4129250132136,1690.8383598068294,47.700001526399994,0.503999582744,0.42158701349078403,1684,0.0,99,P-GPS,
0.37328363744128795,36.9148100688464,14200,2018-03-30 06:22:06,1691.4383598260297,48.300001545600004,0.35999970196000003,0.4247250135912001,1691.4383598260297,48.300001545600004,0.503999582744,0.4247250135912001,1684,0.0,99,P-GPS,
0.37328375258123503,36.9148101144185,14300,2018-03-30 06:22:07,1691.9383598420295,48.8000015616,0.0,0.43770401400652803,1691.9383598420295,48.8000015616,0.503999582744,0.43770401400652803,1684,0.0,99,P-GPS,
0.373283853283397,36.914810150038,14400,2018-03-30 06:22:07,1692.4383598580296,49.30000157760001,0.0,0.44907001437024,1692.4383598580296,49.30000157760001,0.503999582744,0.44907001437024,1684,0.0,99,P-GPS,
0.373283935452239,36.9148101567058,14500,2018-03-30 06:22:07,1692.9383598740296,49.8000015936,0.0,0.458233014663456,1692.9383598740296,49.8000015936,0.503999582744,0.458233014663456,1684,0.0,99,P-GPS,
0.37328398819184005,36.9148101364625,14600,2018-03-30 06:22:07,1693.5383598932294,50.40000161280001,0.0,0.46398601484755203,1693.5383598932294,50.40000161280001,0.503999582744,0.46398601484755203,1684,0.0,99,P-GPS,
0.37328402961131296,36.914810083548204,14700,2018-03-30 06:22:07,1694.0383599092297,50.9000016288,0.0,0.46836701498774397,1694.0383599092297,50.9000016288,0.503999582744,0.46836701498774397,1684,0.0,99,P-GPS,
0.3732840553391,36.914810038119604,14800,2018-03-30 06:22:07,1694.5383599252295,51.4000016448,0.0,0.4710960150750721,1694.5383599252295,51.4000016448,0.503999582744,0.4710960150750721,1684,0.0,99,P-GPS,
0.37328408917409495,36.9148100262143,14900,2018-03-30 06:22:07,1695.0383599412296,51.90000166080001,0.0,0.47483301519465604,1695.0383599412296,51.90000166080001,0.503999582744,0.47483301519465604,1684,0.0,99,P-GPS,
0.37328409337873797,36.914810033291104,15000,2018-03-30 06:22:07,1695.5383599572297,52.400001676799995,0.0,0.47531501521008007,1695.5383599572297,52.400001676799995,0.503999582744,0.47531501521008007,1684,0.0,99,P-GPS,
0.373284073663166,36.9148100335995,15100,2018-03-30 06:22:07,1696.0383599732297,52.90000169280001,0.0,0.47312401513996805,1696.0383599732297,52.90000169280001,0.503999582744,0.47531501521008007,1684,0.0,99,P-GPS,
0.373284050273011,36.914810042010295,15200,2018-03-30 06:22:07,1696.6383599924295,53.500001712,0.0,0.470542015057344,1696.6383599924295,53.500001712,0.503999582744,0.47531501521008007,1684,0.0,99,P-GPS,
0.373284048945015,36.9148100876615,15300,2018-03-30 06:22:08,1697.1383600084296,54.00000172800001,0.0,0.47053001505696007,1697.1383600084296,54.00000172800001,0.503999582744,0.47531501521008007,1684,0.0,99,P-GPS,
0.37328404424695394,36.914810117009395,15400,2018-03-30 06:22:08,1697.6383600244296,54.500001744,0.0,0.47012401504396806,1697.6383600244296,54.500001744,0.503999582744,0.47531501521008007,1684,0.0,99,P-GPS,
0.373284048336791,36.9148101139495,15500,2018-03-30 06:22:08,1698.1383600404295,55.00000176,0.0,0.47056501505808007,1698.1383600404295,55.00000176,0.503999582744,0.47531501521008007,1684,0.0,99,P-GPS,
0.37328403137736105,36.9148100950552,15600,2018-03-30 06:22:08,1698.7383600596297,55.6000017792,0.0,0.46860501499536,1698.7383600596297,55.6000017792,0.503999582744,0.47531501521008007,1684,0.0,99,P-GPS,
0.3732840135076311,36.914810060099505,15700,2018-03-30 06:22:08,1699.2383600756295,56.10000179520001,0.0,0.466502014928064,1699.2383600756295,56.10000179520001,0.503999582744,0.47531501521008007,1684,0.0,99,P-GPS,
0.373283978575878,36.914810042464204,15800,2018-03-30 06:22:08,1699.7383600916298,56.600001811199995,0.0,0.4625720148023039,1699.7383600916298,56.600001811199995,0.503999582744,0.47531501521008007,1684,0.0,99,P-GPS,
0.37328393039347707,36.914810053645795,15900,2018-03-30 06:22:08,1700.2383601076297,57.100001827199996,0.35999970196000003,0.45724401463180797,1700.2383601076297,57.100001827199996,0.503999582744,0.47531501521008007,1684,0.0,99,P-GPS,
0.37328385422301,36.9148100659922,16000,2018-03-30 06:22:08,1700.7383601236295,57.600001843200005,0.0,0.448813014362016,1700.7383601236295,57.600001843200005,0.503999582744,0.47531501521008007,1684,0.0,99,P-GPS,
0.373283790341594,36.9148100733752,16100,2018-03-30 06:22:08,1701.3383601428297,58.2000018624,0.0,0.441736014135552,1701.3383601428297,58.2000018624,0.503999582744,0.47531501521008007,1684,0.0,99,P-GPS,
0.37328374699241496,36.9148100712875,16200,2018-03-30 06:22:08,1701.8383601588296,58.7000018784,0.0,0.436911013981152,1701.8383601588296,58.7000018784,0.503999582744,0.47531501521008007,1684,0.0,99,P-GPS,
0.373283716899584,36.914810069638705,16300,2018-03-30 06:22:09,1702.3383601748296,59.2000018944,0.0,0.43356001387392,1702.3383601748296,59.2000018944,0.503999582744,0.47531501521008007,1684,0.0,99,P-GPS,
0.373283696240329,36.9148100765934,16400,2018-03-30 06:22:09,1702.8383601908297,59.700001910400005,0.0,0.431288013801216,1702.8383601908297,59.700001910400005,0.503999582744,0.47531501521008007,1684,0.0,99,P-GPS,
0.373283658976645,36.9148100987424,16500,2018-03-30 06:22:09,1703.3383602068295,60.2000019264,0.0,0.42723301367145605,1703.3383602068295,60.2000019264,0.503999582744,0.47531501521008007,1684,0.0,99,P-GPS,
0.373283592891945,36.914810120893605,16600,2018-03-30 06:22:09,1703.8383602228296,60.7000019424,0.0,0.419993013439776,1703.8383602228296,60.7000019424,0.503999582744,0.47531501521008007,1684,0.0,99,P-GPS,
0.37328349810347705,36.9148101353534,16700,2018-03-30 06:22:09,1704.3383602388296,61.2000019584,0.0,0.40954001310528004,1704.3383602388296,61.2000019584,0.503999582744,0.47531501521008007,1684,0.0,99,P-GPS,
0.373283402700271,36.9148101480445,16800,2018-03-30 06:22:09,1704.8383602548297,61.7000019744,0.0,0.39901801276857607,1704.8383602548297,61.7000019744,0.503999582744,0.47531501521008007,1684,0.0,99,P-GPS,
0.373283289305202,36.91481014195271,16900,2018-03-30 06:22:09,1705.3383602708295,62.200001990400004,0.0,0.38639001236448006,1705.3383602708295,62.200001990400004,0.503999582744,0.47531501521008007,1684,0.0,99,P-GPS,
0.37328317838211106,36.914810121030605,17000,2018-03-30 06:22:09,1705.8383602868296,62.7000020064,0.0,0.37394901196636804,1705.8383602868296,62.7000020064,0.503999582744,0.47531501521008007,1684,0.0,99,P-GPS,
0.37328305537108003,36.9148100852826,17100,2018-03-30 06:22:09,1706.4383603060296,63.3000020256,0.0,0.360102011523264,1706.4383603060296,63.3000020256,0.503999582744,0.47531501521008007,1684,0.0,99,P-GPS,
0.37328295236711206,36.9148100542196,17200,2018-03-30 06:22:09,1706.9383603220294,63.8000020416,0.0,0.348527011152864,1706.9383603220294,63.8000020416,0.503999582744,0.47531501521008007,1684,0.0,99,P-GPS,
0.37328287807424,36.9148100291329,17300,2018-03-30 06:22:10,1707.4383603380297,64.30000205760001,0.0,0.3401880108860161,1707.4383603380297,64.30000205760001,0.503999582744,0.47531501521008007,1684,0.0,99,P-GPS,
0.37328282976482,36.9148100088939,17400,2018-03-30 06:22:10,1707.9383603540296,64.8000020736,0.0,0.334767010712544,1707.9383603540296,64.8000020736,0.503999582744,0.47531501521008007,1684,0.0,99,P-GPS,
0.37328278204734006,36.914810002256,17500,2018-03-30 06:22:10,1708.4383603700296,65.3000020896,0.0,0.329448010542336,1708.4383603700296,65.3000020896,0.503999582744,0.47531501521008007,1684,0.0,99,P-GPS,
0.37328275332158795,36.914809994363395,17600,2018-03-30 06:22:10,1709.0383603892296,65.90000210880001,0.0,0.32624101043971204,1709.0383603892296,65.90000210880001,0.503999582744,0.47531501521008007,1684,0.0,99,P-GPS,
0.373282721901575,36.9148099613391,17700,2018-03-30 06:22:10,1709.5383604052295,66.4000021248,0.0,0.32271401032684804,1709.5383604052295,66.4000021248,0.503999582744,0.47531501521008007,1684,0.0,99,P-GPS,
0.37328268702763295,36.91480991640079,17800,2018-03-30 06:22:10,1710.0383604212295,66.9000021408,0.0,0.318858010203456,1710.0383604212295,66.9000021408,0.503999582744,0.47531501521008007,1684,0.0,99,P-GPS,
0.3732825817471,36.9148098555982,18000,2018-03-30 06:22:10,1711.0383604532296,67.9000021728,0.0,0.307312009833984,1711.0383604532296,67.9000021728,0.503999582744,0.47531501521008007,1684,0.0,99,P-GPS,
0.37328256007006705,36.9148098163664,18100,2018-03-30 06:22:10,1711.5383604692295,68.4000021888,0.0,0.305087009762784,1711.5383604692295,68.4000021888,0.503999582744,0.47531501521008007,1684,0.0,99,P-GPS,
0.37328253977965503,36.914809793984,18200,2018-03-30 06:22:10,1712.0383604852298,68.9000022048,0.0,0.302968009694976,1712.0383604852298,68.9000022048,0.503999582744,0.47531501521008007,1684,0.0,99,P-GPS,
0.373282492363437,36.9148098198887,18300,2018-03-30 06:22:11,1712.5383605012296,69.4000022208,0.0,0.29754800952153604,1712.5383605012296,69.4000022208,0.503999582744,0.47531501521008007,1684,0.0,99,P-GPS,
0.37328241665381895,36.9148098569729,18400,2018-03-30 06:22:11,1713.0383605172296,69.9000022368,0.0,0.28895900924668805,1713.0383605172296,69.9000022368,0.503999582744,0.47531501521008007,1684,0.0,99,P-GPS,
0.373282318335698,36.9148098702036,18500,2018-03-30 06:22:11,1713.5383605332297,70.4000022528,0.0,0.277981008895392,1713.5383605332297,70.4000022528,0.503999582744,0.47531501521008007,1684,0.0,99,P-GPS,
0.373282228501771,36.9148098800533,18600,2018-03-30 06:22:11,1714.0383605492295,70.90000226880001,0.0,0.267962008574784,1714.0383605492295,70.90000226880001,0.503999582744,0.47531501521008007,1684,0.0,99,P-GPS,
0.373282129380013,36.9148098801411,18700,2018-03-30 06:22:11,1714.5383605652296,71.4000022848,0.0,0.25694400822220803,1714.5383605652296,71.4000022848,0.503999582744,0.47531501521008007,1684,0.0,99,P-GPS,
0.37328205294492295,36.9148098794794,18800,2018-03-30 06:22:11,1715.1383605844296,72.00000230399999,0.0,0.2484500079504,1715.1383605844296,72.00000230399999,0.503999582744,0.47531501521008007,1684,0.0,99,P-GPS,
0.37328197426909404,36.914809892063495,18900,2018-03-30 06:22:11,1715.6383606004297,72.50000232,0.0,0.239663007669216,1715.6383606004297,72.50000232,0.503999582744,0.47531501521008007,1684,0.0,99,P-GPS,
0.37328190493483404,36.9148098964552,19000,2018-03-30 06:22:11,1716.1383606164295,73.00000233600001,0.0,0.23194200742214402,1716.1383606164295,73.00000233600001,0.503999582744,0.47531501521008007,1684,0.0,99,P-GPS,
0.373281840148818,36.914809885188,19100,2018-03-30 06:22:11,1716.6383606324298,73.50000235200001,0.0,0.224778007192896,1716.6383606324298,73.50000235200001,0.503999582744,0.47531501521008007,1684,0.0,99,P-GPS,
0.37328177847109495,36.9148098653558,19200,2018-03-30 06:22:11,1717.1383606484296,74.00000236800001,0.0,0.218009006976288,1717.1383606484296,74.00000236800001,0.503999582744,0.47531501521008007,1684,0.0,99,P-GPS,
0.373281722005206,36.914809834973795,19300,2018-03-30 06:22:12,1717.6383606644295,74.500002384,0.0,0.21191600678131198,1717.6383606644295,74.500002384,0.503999582744,0.47531501521008007,1684,0.0,99,P-GPS,
0.37328166191317996,36.9148097869051,19400,2018-03-30 06:22:12,1718.2383606836297,75.1000024032,0.0,0.205654006580928,1718.2383606836297,75.1000024032,0.503999582744,0.47531501521008007,1684,0.0,99,P-GPS,
0.37328156555489206,36.914809739660704,19500,2018-03-30 06:22:12,1718.7383606996295,75.60000241920001,0.0,0.195547006257504,1718.7383606996295,75.60000241920001,0.503999582744,0.47531501521008007,1684,0.0,99,P-GPS,
0.373281479387813,36.914809692287896,19600,2018-03-30 06:22:12,1719.2383607156296,76.10000243520001,0.0,0.18678000597696,1719.2383607156296,76.10000243520001,0.503999582744,0.47531501521008007,1684,0.0,99,P-GPS,
0.373281427992899,36.9148096530047,19700,2018-03-30 06:22:12,1719.7383607316297,76.6000024512,0.0,0.18188200582022399,1719.7383607316297,76.6000024512,0.503999582744,0.47531501521008007,1684,0.0,99,P-GPS,
0.373281412580491,36.9148096379668,19800,2018-03-30 06:22:12,1720.2383607476295,77.1000024672,0.0,0.18051300577641602,1720.2383607476295,77.1000024672,0.503999582744,0.47531501521008007,1684,0.0,99,P-GPS,
0.373281420949879,36.914809650548705,19900,2018-03-30 06:22:12,1720.7383607636295,77.6000024832,0.0,0.18116200579718403,1720.7383607636295,77.6000024832,0.503999582744,0.47531501521008007,1684,0.0,99,P-GPS,
0.37328143581635104,36.914809670562896,20000,2018-03-30 06:22:12,1721.3383607828296,78.20000250240001,0.0,0.18239300583657597,1721.3383607828296,78.20000250240001,0.503999582744,0.47531501521008007,1684,0.0,98,P-GPS,
0.373281459929129,36.9148097362733,20100,2018-03-30 06:22:12,1721.8383607988296,78.70000251840001,0.0,0.183941005886112,1721.8383607988296,78.70000251840001,0.503999582744,0.47531501521008007,1684,0.0,98,P-GPS,
0.373281480431239,36.9148097886073,20200,2018-03-30 06:22:12,1722.3383608148297,79.20000253439999,0.0,0.185543005937376,1722.3383608148297,79.20000253439999,0.503999582744,0.47531501521008007,1684,0.0,98,P-GPS,
0.373281462184117,36.9148098082575,20300,2018-03-30 06:22:13,1722.8383608308297,79.70000255040001,0.0,0.18332000586624003,1722.8383608308297,79.70000255040001,0.503999582744,0.47531501521008007,1684,0.0,98,P-GPS,
0.373281449941068,36.91480980205429,20400,2018-03-30 06:22:13,1723.3383608468296,80.20000256640002,0.0,0.182026005824832,1723.3383608468296,80.20000256640002,0.503999582744,0.47531501521008007,1684,0.0,98,P-GPS,
0.37328146068716994,36.9148097774708,20500,2018-03-30 06:22:13,1723.8383608628294,80.7000025824,0.0,0.18348400587148803,1723.8383608628294,80.7000025824,0.503999582744,0.47531501521008007,1684,0.0,98,P-GPS,
0.37328146544711105,36.9148097522983,20600,2018-03-30 06:22:13,1724.3383608788297,81.2000025984,0.0,0.184327005898464,1724.3383608788297,81.2000025984,0.503999582744,0.47531501521008007,1684,0.0,98,P-GPS,
0.37328146391881706,36.9148097724645,20700,2018-03-30 06:22:13,1724.8383608948295,81.7000026144,0.0,0.183901005884832,1724.8383608948295,81.7000026144,0.503999582744,0.47531501521008007,1684,0.0,98,P-GPS,
0.37328146454983896,36.9148097913738,20800,2018-03-30 06:22:13,1725.4383609140298,82.3000026336,0.0,0.18375500588016003,1725.4383609140298,82.3000026336,0.503999582744,0.47531501521008007,1684,0.0,98,P-GPS,
0.373281496113154,36.9148098213426,20900,2018-03-30 06:22:13,1725.9383609300296,82.8000026496,0.0,0.186961005982752,1725.9383609300296,82.8000026496,0.503999582744,0.47531501521008007,1160,0.0,98,P-GPS,
0.37328151622606603,36.9148098463073,21000,2018-03-30 06:22:13,1726.4383609460294,83.3000026656,0.0,0.18899800604793598,1726.4383609460294,83.3000026656,0.503999582744,0.47531501521008007,1025,0.0,98,P-GPS,
0.373281524962261,36.914809874424,21100,2018-03-30 06:22:13,1726.9383609620297,83.8000026816,0.0,0.1898000060736,1726.9383609620297,83.8000026816,0.503999582744,0.47531501521008007,1024,0.0,98,P-GPS,
0.37328152650561897,36.914809897649995,21200,2018-03-30 06:22:13,1727.4383609780296,84.30000269760001,0.0,0.18987200607590402,1727.4383609780296,84.30000269760001,0.503999582744,0.47531501521008007,1024,0.0,98,P-GPS,
0.373281538106654,36.9148099510118,21300,2018-03-30 06:22:14,1727.8383609908296,84.70000271040001,0.0,0.191067006114144,1727.8383609908296,84.70000271040001,0.503999582744,0.47531501521008007,1024,0.0,98,P-GPS,
0.373281552879491,36.9148099879911,21400,2018-03-30 06:22:14,1728.0383609972296,84.9000027168,0.0,0.192752006168064,1728.0383609972296,84.9000027168,0.503999582744,0.47531501521008007,1024,0.0,98,P-GPS,
0.373281565848419,36.9148100069817,21500,2018-03-30 06:22:14,1728.3383610068295,85.20000272640002,0.0,0.19424900621596802,1728.3383610068295,85.20000272640002,0.503999582744,0.47531501521008007,1024,0.0,98,P-GPS,
0.373281576423127,36.9148100189663,21600,2018-03-30 06:22:14,1728.4383610100294,85.30000272960001,0.0,0.195471006255072,1728.4383610100294,85.30000272960001,0.503999582744,0.47531501521008007,1024,0.0,98,P-GPS,
0.373281584510387,36.914810053982,21700,2018-03-30 06:22:14,1728.5383610132296,85.4000027328,0.0,0.196556006289792,1728.5383610132296,85.4000027328,0.503999582744,0.47531501521008007,1024,0.0,98,P-GPS,
0.37328159228295,36.9148100790537,21800,2018-03-30 06:22:14,1728.5383610132296,85.4000027328,0.0,0.197599006323168,1728.5383610132296,85.4000027328,0.503999582744,0.47531501521008007,1024,0.0,98,P-GPS,
0.37328159523613297,36.914810095203,21900,2018-03-30 06:22:14,1728.6383610164296,85.500002736,0.0,0.198063006338016,1728.6383610164296,85.500002736,0.503999582744,0.47531501521008007,1024,0.0,98,P-GPS,
0.37328159955435997,36.9148101010978,22000,2018-03-30 06:22:14,1728.6383610164296,85.500002736,0.0,0.198596006355072,1728.6383610164296,85.500002736,0.503999582744,0.47531501521008007,1024,0.0,98,P-GPS,
0.37328160145353295,36.914810090485794,22100,2018-03-30 06:22:14,1728.6383610164296,85.500002736,0.0,0.19871100635875202,1728.6383610164296,85.500002736,0.503999582744,0.47531501521008007,1024,0.0,98,P-GPS,
0.373281621130836,36.914810063598296,22200,2018-03-30 06:22:14,1728.6383610164296,85.500002736,0.0,0.20068500642192,1728.6383610164296,85.500002736,0.503999582744,0.47531501521008007,1024,0.0,98,P-GPS,
0.37328165010004,36.9148100197007,22300,2018-03-30 06:22:15,1728.6383610164296,85.500002736,0.0,0.203661006517152,1728.6383610164296,85.500002736,0.503999582744,0.47531501521008007,1024,0.0,98,P-GPS,
0.37328170313316905,36.9148099559131,22400,2018-03-30 06:22:15,1728.7383610196296,85.60000273920001,0.0,0.20941900670140803,1728.7383610196296,85.60000273920001,0.503999582744,0.47531501521008007,1024,0.0,98,P-GPS,
0.373281789720793,36.9148098618313,22500,2018-03-30 06:22:15,1728.7383610196296,85.60000273920001,0.0,0.21927600701683203,1728.7383610196296,85.60000273920001,0.503999582744,0.47531501521008007,1024,0.0,98,P-GPS,
0.373281902565041,36.9148097517887,22600,2018-03-30 06:22:15,1728.8383610228298,85.7000027424,0.0,0.232662007445184,1728.8383610228298,85.7000027424,0.503999582744,0.47531501521008007,1024,0.0,98,P-GPS,
0.373282063169516,36.9148096049425,22700,2018-03-30 06:22:15,1728.8383610228298,85.7000027424,0.0,0.252421008077472,1728.8383610228298,85.7000027424,0.503999582744,0.47531501521008007,1024,0.0,98,P-GPS,
0.37328223883913303,36.9148094465806,22800,2018-03-30 06:22:15,1728.8383610228298,85.7000027424,0.0,0.274797008793504,1728.8383610228298,85.7000027424,0.503999582744,0.47531501521008007,1024,0.0,98,P-GPS,
0.373282416359885,36.9148092417432,22900,2018-03-30 06:22:15,1728.8383610228298,85.7000027424,0.0,0.299336009578752,1728.8383610228298,85.7000027424,0.503999582744,0.47531501521008007,1024,0.0,98,P-GPS,
0.37328259572077793,36.914809032117894,23000,2018-03-30 06:22:15,1728.8383610228298,85.7000027424,0.0,0.325181010405792,1728.8383610228298,85.7000027424,0.503999582744,0.47531501521008007,1024,-0.2,98,P-GPS,
0.373282814444419,36.9148087737344,23100,2018-03-30 06:22:15,1728.8383610228298,85.7000027424,0.0,0.35784501145104003,1728.8383610228298,85.7000027424,0.503999582744,0.47531501521008007,1024,-1.2,98,P-GPS,
0.37328302981835104,36.914808526211296,23200,2018-03-30 06:22:15,1728.8383610228298,85.7000027424,0.0,0.39057401249836804,1728.8383610228298,85.7000027424,0.503999582744,0.47531501521008007,1024,-2.6,98,P-GPS,
0.373283277748949,36.914808309239504,23300,2018-03-30 06:22:16,1728.8383610228298,85.7000027424,0.0,0.425704013622528,1728.8383610228298,85.7000027424,0.503999582744,0.47531501521008007,1024,-4.4,98,P-GPS,
0.373283506752143,36.9148081071621,23400,2018-03-30 06:22:16,1728.8383610228298,85.7000027424,0.0,0.45844501467023996,1728.8383610228298,85.7000027424,0.503999582744,0.47531501521008007,1024,-6.3,98,P-GPS,
0.373283730937586,36.9148079158187,23500,2018-03-30 06:22:16,1728.8383610228298,85.7000027424,0.0,0.4903250156904001,1728.8383610228298,85.7000027424,0.503999582744,0.4903250156904001,1024,-8.2,98,P-GPS,
0.37328393375295704,36.9148077323658,23600,2018-03-30 06:22:16,1728.8383610228298,85.7000027424,0.0,0.519807016633824,1728.8383610228298,85.7000027424,0.503999582744,0.519807016633824,1024,-10.0,98,P-GPS,
0.373284165687351,36.9148075222266,23700,2018-03-30 06:22:16,1728.8383610228298,85.7000027424,0.0,0.55366501771728,1728.8383610228298,85.7000027424,0.503999582744,0.55366501771728,1024,-11.9,98,P-GPS,
0.3732843749432179,36.9148073231405,23800,2018-03-30 06:22:16,1728.8383610228298,85.7000027424,0.0,0.58483501871472,1728.8383610228298,85.7000027424,0.503999582744,0.58483501871472,1024,-13.7,98,P-GPS,
0.37328457104695795,36.9148071254805,23900,2018-03-30 06:22:16,1728.8383610228298,85.7000027424,0.0,0.6147630196724161,1728.8383610228298,85.7000027424,0.503999582744,0.6147630196724161,1024,-15.6,98,P-GPS,
0.37328473268468104,36.914806947003896,24000,2018-03-30 06:22:16,1728.7383610196296,85.60000273920001,0.0,0.640407020493024,1728.8383610228298,85.7000027424,0.503999582744,0.640407020493024,1024,-17.4,98,P-GPS,
0.373284897761677,36.9148067654224,24100,2018-03-30 06:22:16,1728.7383610196296,85.60000273920001,0.0,0.6666470213327039,1728.8383610228298,85.7000027424,0.503999582744,0.6666470213327039,1024,-20.9,98,P-GPS,
0.373285230358336,36.9148064289051,24300,2018-03-30 06:22:17,1728.7383610196296,85.60000273920001,0.0,0.7179680229749761,1728.8383610228298,85.7000027424,0.503999582744,0.7179680229749761,1024,-20.9,98,P-GPS,
0.373285387312654,36.9148062500666,24400,2018-03-30 06:22:17,1728.7383610196296,85.60000273920001,0.0,0.743481023791392,1728.8383610228298,85.7000027424,0.503999582744,0.743481023791392,1024,-21.8,98,P-GPS,
0.37328553719871094,36.914806040135105,24500,2018-03-30 06:22:17,1728.8383610228298,85.7000027424,0.0,0.770354024651328,1728.8383610228298,85.7000027424,0.503999582744,0.770354024651328,1024,-21.9,98,P-GPS,
0.37328577519010103,36.9148056943398,24700,2018-03-30 06:22:17,1728.8383610228298,85.7000027424,0.0,0.814084026050688,1728.8383610228298,85.7000027424,0.503999582744,0.814084026050688,1024,-21.8,98,P-GPS,
0.37328587439735206,36.9148055590926,24800,2018-03-30 06:22:17,1728.8383610228298,85.7000027424,0.0,0.8318260266184321,1728.8383610228298,85.7000027424,0.503999582744,0.8318260266184321,1024,-21.9,98,P-GPS,
0.373285989579639,36.9148053992855,24900,2018-03-30 06:22:17,1728.8383610228298,85.7000027424,0.0,0.8526570272850239,1728.8383610228298,85.7000027424,0.503999582744,0.8526570272850239,1024,-21.9,98,P-GPS,
0.373286081658376,36.9148052632867,25000,2018-03-30 06:22:17,1728.7383610196296,85.60000273920001,0.0,0.869898027836736,1728.8383610228298,85.7000027424,0.503999582744,0.869898027836736,1024,-21.8,98,P-GPS,
0.3732861765201239,36.9148051293971,25100,2018-03-30 06:22:17,1728.7383610196296,85.60000273920001,0.0,0.8872840283930882,1728.8383610228298,85.7000027424,0.503999582744,0.8872840283930882,1024,-21.9,98,P-GPS,
0.373286240810279,36.9148050274719,25200,2018-03-30 06:22:17,1728.7383610196296,85.60000273920001,0.0,0.899842028794944,1728.8383610228298,85.7000027424,0.503999582744,0.899842028794944,1024,-21.9,98,P-GPS,
0.37328631642463295,36.91480491724089,25300,2018-03-30 06:22:18,1728.7383610196296,85.60000273920001,0.0,0.913986029247552,1728.8383610228298,85.7000027424,0.503999582744,0.913986029247552,1024,-21.9,98,P-GPS,
0.373286355315947,36.9148048408179,25400,2018-03-30 06:22:18,1728.7383610196296,85.60000273920001,0.0,0.922619029523808,1728.8383610228298,85.7000027424,0.503999582744,0.922619029523808,1024,-21.9,98,P-GPS,
0.37328640014131104,36.9148047790945,25500,2018-03-30 06:22:18,1728.7383610196296,85.60000273920001,0.0,0.9307770297848641,1728.8383610228298,85.7000027424,0.503999582744,0.9307770297848641,1024,-21.9,98,P-GPS,
0.37328640482797293,36.9148047681185,25600,2018-03-30 06:22:18,1728.7383610196296,85.60000273920001,0.0,0.9319420298221441,1728.8383610228298,85.7000027424,0.503999582744,0.9319420298221441,1024,-21.9,98,P-GPS,
0.37328638632070704,36.9148047806191,25700,2018-03-30 06:22:18,1728.7383610196296,85.60000273920001,0.0,0.92946502974288,1728.8383610228298,85.7000027424,0.503999582744,0.9319420298221441,1024,-21.9,98,P-GPS,
0.37328634019828705,36.914804811495706,25800,2018-03-30 06:22:18,1728.7383610196296,85.60000273920001,0.0,0.923311029545952,1728.8383610228298,85.7000027424,0.503999582744,0.9319420298221441,1024,-21.9,98,P-GPS,
0.37328627129230796,36.9148048434966,25900,2018-03-30 06:22:18,1728.7383610196296,85.60000273920001,0.35999970196000003,0.9150920292829441,1728.8383610228298,85.7000027424,0.503999582744,0.9319420298221441,1024,-21.9,98,P-GPS,
0.37328618918209,36.9148048923169,26000,2018-03-30 06:22:18,1728.7383610196296,85.60000273920001,0.35999970196000003,0.904564028946048,1728.8383610228298,85.7000027424,0.503999582744,0.9319420298221441,1024,-21.9,98,P-GPS,
0.37328611070085993,36.91480492099021,26100,2018-03-30 06:22:18,1728.7383610196296,85.60000273920001,0.503999582744,0.895752028664064,1728.8383610228298,85.7000027424,0.503999582744,0.9319420298221441,1024,-21.9,98,P-GPS,
0.37328602849130804,36.914804969885395,26200,2018-03-30 06:22:18,1728.7383610196296,85.60000273920001,0.503999582744,0.885217028326944,1728.8383610228298,85.7000027424,0.503999582744,0.9319420298221441,1024,-21.9,98,P-GPS,
0.37328593336900895,36.9148049863965,26300,2018-03-30 06:22:19,1728.7383610196296,85.60000273920001,0.503999582744,0.875833028026656,1728.8383610228298,85.7000027424,0.503999582744,0.9319420298221441,1024,-21.9,98,P-GPS,
0.373285835790202,36.914805016151206,26400,2018-03-30 06:22:19,1728.7383610196296,85.60000273920001,0.503999582744,0.865334027690688,1728.8383610228298,85.7000027424,0.503999582744,0.9319420298221441,1024,-21.9,98,P-GPS,
0.37328573192153,36.9148050710548,26500,2018-03-30 06:22:19,1728.7383610196296,85.60000273920001,0.503999582744,0.8525360272811521,1728.8383610228298,85.7000027424,0.503999582744,0.9319420298221441,1024,-21.8,98,P-GPS,
0.373285636905894,36.9148051407264,26600,2018-03-30 06:22:19,1728.7383610196296,85.60000273920001,0.503999582744,0.8394550268625601,1728.8383610228298,85.7000027424,0.503999582744,0.9319420298221441,1024,-21.9,98,P-GPS,
0.37328554281928494,36.9148052020473,26700,2018-03-30 06:22:19,1728.7383610196296,85.60000273920001,0.35999970196000003,0.827048026465536,1728.8383610228298,85.7000027424,0.503999582744,0.9319420298221441,1024,-21.9,98,P-GPS,
0.373285489305358,36.914805288814605,26800,2018-03-30 06:22:19,1728.7383610196296,85.60000273920001,0.35999970196000003,0.816314026122048,1728.8383610228298,85.7000027424,0.503999582744,0.9319420298221441,1024,-21.9,98,P-GPS,
0.37328560083016,36.9148055709487,27000,2018-03-30 06:22:19,1728.7383610196296,85.60000273920001,0.7919993443119999,0.8066030258112961,1728.8383610228298,85.7000027424,0.7919993443119999,0.9319420298221441,1024,-21.9,98,P-GPS,
0.373285826211694,36.914805813681795,27100,2018-03-30 06:22:19,1728.7383610196296,85.60000273920001,1.511998748232,0.8111040259553279,1728.8383610228298,85.7000027424,1.511998748232,0.9319420298221441,1024,-21.9,98,P-GPS,
0.373286222535066,36.9148061520749,27200,2018-03-30 06:22:19,1728.7383610196296,85.60000273920001,2.303998092544,0.827944026494208,1728.8383610228298,85.7000027424,2.303998092544,0.9319420298221441,1024,-21.9,98,P-GPS,
0.373286856835173,36.9148066676791,27300,2018-03-30 06:22:20,1728.7383610196296,85.60000273920001,3.5999970196000004,0.8635660276341122,1728.8383610228298,85.7000027424,3.5999970196000004,0.9319420298221441,1024,-21.9,98,P-GPS,
0.373287717414901,36.9148072935465,27400,2018-03-30 06:22:20,1728.7383610196296,85.60000273920001,4.391996363911999,0.926658029653056,1728.8383610228298,85.7000027424,4.391996363911999,0.9319420298221441,1024,-21.9,98,P-GPS,
0.37329015478193894,36.9148090311586,27600,2018-03-30 06:22:20,1728.7383610196296,85.60000273920001,6.803994367043999,1.15384003692288,1728.8383610228298,85.7000027424,6.803994367043999,1.15384003692288,1024,-21.9,98,P-GPS,
0.373291762111531,36.9148101665769,27700,2018-03-30 06:22:20,1728.7383610196296,85.60000273920001,7.595993711356,1.328250042504,1728.8383610228298,85.7000027424,7.595993711356,1.328250042504,1024,-21.9,98,P-GPS,
0.373293585319059,36.9148113642796,27800,2018-03-30 06:22:20,1728.7383610196296,85.60000273920001,8.891992638411999,1.5388300492425602,1728.8383610228298,85.7000027424,8.891992638411999,1.5388300492425602,1024,-21.9,98,P-GPS,
0.37329561596592503,36.914812787365,27900,2018-03-30 06:22:20,1728.8383610228298,85.7000027424,9.683991982723999,1.7846900571100803,1728.8383610228298,85.7000027424,9.683991982723999,1.7846900571100803,1024,-21.9,98,P-GPS,
0.3732978267740639,36.9148142384685,28000,2018-03-30 06:22:20,1728.8383610228298,85.7000027424,10.511991297232,2.05842006586944,1728.8383610228298,85.7000027424,10.511991297232,2.05842006586944,1024,-21.9,98,P-GPS,
0.373300163110808,36.9148158849516,28100,2018-03-30 06:22:20,1728.8383610228298,85.7000027424,11.303990641543999,2.35653007540896,1728.8383610228298,85.7000027424,11.303990641543999,2.35653007540896,1024,-21.9,98,P-GPS,
0.37330531270669104,36.9148193120387,28300,2018-03-30 06:22:21,1728.8383610228298,85.7000027424,12.419989717619998,3.02000009664,1728.8383610228298,85.7000027424,12.419989717619998,3.02000009664,1024,-21.9,98,P-GPS,
0.37330813594004797,36.914821094554796,28400,2018-03-30 06:22:21,1728.8383610228298,85.7000027424,13.211989061932002,3.3839401082860805,1728.8383610228298,85.7000027424,13.211989061932002,3.3839401082860805,1024,-21.9,98,P-GPS,
0.373311002411851,36.914823020433396,28500,2018-03-30 06:22:21,1728.8383610228298,85.7000027424,14.003988406244,3.7599001203168,1728.8383610228298,85.7000027424,14.003988406244,3.7599001203168,1024,-21.9,98,P-GPS,
0.37331720308365396,36.91482713118629,28700,2018-03-30 06:22:21,1728.7383610196296,85.60000273920001,14.003988406244,4.57518014640576,1728.8383610228298,85.7000027424,14.003988406244,4.57518014640576,1024,-21.9,98,P-GPS,
0.373320530535383,36.914829272876204,28800,2018-03-30 06:22:21,1728.7383610196296,85.60000273920001,15.299987333299999,5.011240160359681,1728.8383610228298,85.7000027424,15.299987333299999,5.011240160359681,1024,-21.9,98,P-GPS,
0.37332399658398097,36.9148316090035,28900,2018-03-30 06:22:21,1728.7383610196296,85.60000273920001,15.803986916044,5.4712801750809605,1728.8383610228298,85.7000027424,15.803986916044,5.4712801750809605,1024,-21.9,98,P-GPS,
0.37332754281064706,36.9148339058048,29000,2018-03-30 06:22:21,1728.7383610196296,85.60000273920001,16.307986498787997,5.93807019001824,1728.8383610228298,85.7000027424,16.307986498787997,5.93807019001824,1024,-21.9,98,P-GPS,
0.373335108916458,36.914838959333,29200,2018-03-30 06:22:21,1728.6383610164296,85.500002736,17.27998569408,6.943280222184961,1728.8383610228298,85.7000027424,17.27998569408,6.943280222184961,1024,-21.9,98,P-GPS,
0.37333902688106296,36.9148416212714,29300,2018-03-30 06:22:22,1728.6383610164296,85.500002736,17.783985276823998,7.4668702389398405,1728.8383610228298,85.7000027424,17.783985276823998,7.4668702389398405,1024,-21.9,98,P-GPS,
0.373342982736303,36.9148442317002,29400,2018-03-30 06:22:22,1728.6383610164296,85.500002736,18.071985038392,7.99184025573888,1728.8383610228298,85.7000027424,18.071985038392,7.99184025573888,1024,-21.8,98,P-GPS,
0.37334709804877897,36.9148469938444,29500,2018-03-30 06:22:22,1728.6383610164296,85.500002736,18.575984621136,8.54074027330368,1728.8383610228298,85.7000027424,18.575984621136,8.54074027330368,1024,-21.9,98,P-GPS,
0.37335123629626,36.914849689498794,29600,2018-03-30 06:22:22,1728.6383610164296,85.500002736,18.8999843529,9.0885502908336,1728.8383610228298,85.7000027424,18.8999843529,9.0885502908336,1024,-21.8,98,P-GPS,
0.37335553190354204,36.914852567719706,29700,2018-03-30 06:22:22,1728.6383610164296,85.500002736,19.403983935644,9.66172030917504,1728.8383610228298,85.7000027424,19.403983935644,9.66172030917504,1024,-21.8,98,P-GPS,
