latitude,longitude,time_millisecond,datetime_utc,altitude_m,ascent_m,speed_kph,distance_m,max_altitude_m,max_ascent_m,max_speed_kph,max_distance_m,rc_throttle,gimbal_pitch_degrees,battery_percent,flycState,message
0.355592288340235,36.919342600701604,100,2017-11-06 07:36:28,1678.4293750097406,0.0,0.0,0.0,1678.4293750097406,0.0,0.0,0.0,1024,0.0,100,Motors_Started,
0.355592431478834,36.919342629887296,200,2017-11-06 07:36:28,1678.4293750097406,0.0,0.0,0.0162454005198528,1678.4293750097406,0.0,0.0,0.0162454005198528,1024,0.0,100,Motors_Started,
0.355592603794264,36.919342668609794,300,2017-11-06 07:36:28,1678.4293750097406,0.0,0.0,0.035884001148288,1678.4293750097406,0.0,0.0,0.035884001148288,1024,0.0,100,Motors_Started,
0.355592910044327,36.9193428000315,500,2017-11-06 07:36:28,1678.4293750097406,0.0,0.0,0.0726038023233216,1678.4293750097406,0.0,0.0,0.0726038023233216,1024,0.0,100,Motors_Started,
0.35559305718238504,36.9193428560321,600,2017-11-06 07:36:28,1678.4293750097406,0.0,0.0,0.09009130288292161,1678.4293750097406,0.0,0.0,0.09009130288292161,1024,0.0,100,Motors_Started,
0.355593226494964,36.9193429126031,700,2017-11-06 07:36:28,1678.4293750097406,0.0,0.0,0.109943003518176,1678.4293750097406,0.0,0.0,0.109943003518176,1024,0.0,100,Motors_Started,Setting new Return-To-Home altitude to 30m (98 ft). Setting new Maximum Flight Altitude to 100m (328 ft)
0.35559334689234207,36.919342998151606,800,2017-11-06 07:36:29,1678.4293750097406,0.0,0.0,0.12574100402371202,1678.4293750097406,0.0,0.0,0.12574100402371202,1024,0.0,100,Motors_Started,
0.355593488576741,36.9193430808079,900,2017-11-06 07:36:29,1678.4293750097406,0.0,0.0,0.14375600460019197,1678.4293750097406,0.0,0.0,0.14375600460019197,1024,0.0,100,Motors_Started,
0.35559363091414503,36.9193431514036,1000,2017-11-06 07:36:29,1678.4293750097406,0.0,0.0,0.16137400516396802,1678.4293750097406,0.0,0.0,0.16137400516396802,533,0.0,100,Motors_Started,
0.355593787510205,36.9193432193641,1100,2017-11-06 07:36:29,1678.4293750097406,0.0,0.0,0.180354005771328,1678.4293750097406,0.0,0.0,0.180354005771328,829,0.0,100,Motors_Started,
0.3555939285188,36.919343261142394,1200,2017-11-06 07:36:29,1678.4293750097406,0.0,0.0,0.196629006292128,1678.4293750097406,0.0,0.0,0.196629006292128,988,0.0,100,Motors_Started,
0.35559407553146705,36.9193433122409,1300,2017-11-06 07:36:29,1678.4293750097406,0.0,0.0,0.213918006845376,1678.4293750097406,0.0,0.0,0.213918006845376,1024,0.0,100,Motors_Started,
0.355594192696384,36.9193433659754,1400,2017-11-06 07:36:29,1678.4293750097406,0.0,0.0,0.22823500730351998,1678.4293750097406,0.0,0.0,0.22823500730351998,1024,0.0,100,Motors_Started,
0.35559433336463303,36.9193434113322,1500,2017-11-06 07:36:29,1678.4293750097406,0.0,0.0,0.244634007828288,1678.4293750097406,0.0,0.0,0.244634007828288,1024,0.0,100,Assisted_Takeoff,
0.35559449428258394,36.919343486799505,1600,2017-11-06 07:36:29,1678.4293750097406,0.0,0.0,0.26436500845968,1678.4293750097406,0.0,0.0,0.26436500845968,1024,0.0,100,Assisted_Takeoff,
0.35559466497608294,36.9193435543232,1700,2017-11-06 07:36:29,1678.4293750097406,0.0,0.0,0.284778009112896,1678.4293750097406,0.0,0.0,0.284778009112896,1024,0.0,100,Assisted_Takeoff,
0.35559485216083503,36.9193436243595,1800,2017-11-06 07:36:30,1678.4293750097406,0.0,0.0,0.306998009823936,1678.4293750097406,0.0,0.0,0.306998009823936,1024,0.0,100,Assisted_Takeoff,
0.355595040417104,36.9193436815571,1900,2017-11-06 07:36:30,1678.4293750097406,0.0,0.0,0.32880401052172803,1678.4293750097406,0.0,0.0,0.32880401052172803,1024,0.0,100,Assisted_Takeoff,
0.35559520742706296,36.9193437365559,2000,2017-11-06 07:36:30,1678.4293750097406,0.0,0.0,0.34832901114652803,1678.4293750097406,0.0,0.0,0.34832901114652803,1024,0.0,100,Assisted_Takeoff,
0.35559537323685897,36.919343792837296,2100,2017-11-06 07:36:30,1678.4293750097406,0.0,0.0,0.3677830117690561,1678.4293750097406,0.0,0.0,0.3677830117690561,1024,0.0,100,Assisted_Takeoff,
0.355595561644573,36.919343838522295,2200,2017-11-06 07:36:30,1678.4293750097406,0.0,0.0,0.38916801245337607,1678.4293750097406,0.0,0.0,0.38916801245337607,1024,0.0,100,Assisted_Takeoff,
0.355595746031658,36.919343888509005,2300,2017-11-06 07:36:30,1678.4293750097406,0.0,0.0,0.410319013130208,1678.4293750097406,0.0,0.0,0.410319013130208,1107,0.0,100,Assisted_Takeoff,
0.355595913004163,36.919343932302205,2400,2017-11-06 07:36:30,1678.4293750097406,0.0,0.0,0.42942401374156797,1678.4293750097406,0.0,0.0,0.42942401374156797,1353,0.0,100,Assisted_Takeoff,
0.35559608123708397,36.919343977962605,2500,2017-11-06 07:36:30,1678.4293750097406,0.0,0.0,0.4487390143596481,1678.4293750097406,0.0,0.0,0.4487390143596481,1317,0.0,100,Assisted_Takeoff,
0.35559618787899605,36.919344023058706,2600,2017-11-06 07:36:30,1678.4293750097406,0.0,0.0,0.46159801477113604,1678.4293750097406,0.0,0.0,0.46159801477113604,1316,0.0,100,Assisted_Takeoff,
0.35559630446418705,36.919344071085895,2700,2017-11-06 07:36:30,1678.4293750097406,0.0,0.0,0.47560901521948806,1678.4293750097406,0.0,0.0,0.47560901521948806,1332,0.0,100,Assisted_Takeoff,
0.35559641236163,36.9193441540936,2800,2017-11-06 07:36:31,1678.4293750097406,0.0,0.0,0.49007101568227196,1678.4293750097406,0.0,0.0,0.49007101568227196,1358,0.0,100,Assisted_Takeoff,
0.35559654481763603,36.9193442512149,2900,2017-11-06 07:36:31,1678.4293750097406,0.0,0.0,0.507686016245952,1678.4293750097406,0.0,0.0,0.507686016245952,1407,0.0,100,Assisted_Takeoff,
0.355596655058409,36.91934440458579,3000,2017-11-06 07:36:31,1678.4293750097406,0.0,0.35999970196000003,0.5254070168130239,1678.4293750097406,0.0,0.35999970196000003,0.5254070168130239,1471,0.0,100,Assisted_Takeoff,
0.355596771378164,36.919344612969105,3100,2017-11-06 07:36:31,1678.4293750097406,0.0,0.35999970196000003,0.546459017486688,1678.4293750097406,0.0,0.35999970196000003,0.546459017486688,1486,0.0,100,GPS_Atti,
0.355596855585003,36.919344869395104,3200,2017-11-06 07:36:31,1678.4293750097406,0.0,0.7199994039200001,0.567113018147616,1678.4293750097406,0.0,0.7199994039200001,0.567113018147616,1547,0.0,100,GPS_Atti,
0.35559692352857203,36.9193451177964,3300,2017-11-06 07:36:31,1678.5293750129408,0.10000000320000002,0.35999970196000003,0.586558018769856,1678.5293750129408,0.10000000320000002,0.7199994039200001,0.586558018769856,1642,0.0,100,GPS_Atti,
0.35559694978397494,36.9193453528733,3400,2017-11-06 07:36:31,1678.7293750193408,0.3000000096,0.35999970196000003,0.601986019263552,1678.7293750193408,0.3000000096,0.7199994039200001,0.601986019263552,1684,0.0,100,GPS_Atti,
0.35559698680502005,36.9193455575245,3500,2017-11-06 07:36:31,1678.829375022541,0.4000000128000001,0.35999970196000003,0.617349019755168,1678.829375022541,0.4000000128000001,0.7199994039200001,0.617349019755168,1684,0.0,100,GPS_Atti,
0.35559700694235896,36.9193456521924,3600,2017-11-06 07:36:31,1679.0293750289409,0.6000000192,0.35999970196000003,0.6249000199968,1679.0293750289409,0.6000000192,0.7199994039200001,0.6249000199968,1684,0.0,100,GPS_Atti,
0.355597063924871,36.919345763457606,3700,2017-11-06 07:36:31,1679.329375038541,0.9000000288000001,0.35999970196000003,0.636977020383264,1679.329375038541,0.9000000288000001,0.7199994039200001,0.636977020383264,1684,0.0,100,GPS_Atti,
0.355597204741309,36.9193457941511,3800,2017-11-06 07:36:32,1679.629375048141,1.2000000384,0.0,0.651944020862208,1679.629375048141,1.2000000384,0.7199994039200001,0.651944020862208,1684,0.0,100,GPS_Atti,Home Point Recorded. RTH Altitude:  30m.
0.35559734763889794,36.9193458256935,3900,2017-11-06 07:36:32,1680.029375060941,1.6000000512000003,0.0,0.6672060213505921,1680.029375060941,1.6000000512000003,0.7199994039200001,0.6672060213505921,1684,0.0,100,GPS_Atti,
0.355597512059632,36.91934576801629,4000,2017-11-06 07:36:32,1680.4293750737409,2.000000064,0.0,0.679348021739136,1680.4293750737409,2.000000064,0.7199994039200001,0.679348021739136,1684,0.0,100,GPS_Atti,
0.355597690349823,36.9193457289036,4100,2017-11-06 07:36:32,1680.829375086541,2.4000000768,0.0,0.694188022214016,1680.829375086541,2.4000000768,0.7199994039200001,0.694188022214016,1684,0.0,100,GPS_Atti,
0.355597818705407,36.919345643403204,4200,2017-11-06 07:36:32,1681.3293751025408,2.9000000928,0.0,0.701944022462208,1681.3293751025408,2.9000000928,0.7199994039200001,0.701944022462208,1684,0.0,100,GPS_Atti,
0.355597950532834,36.919345577333495,4300,2017-11-06 07:36:32,1681.8293751185408,3.4000001088000005,0.0,0.7113750227640001,1681.8293751185408,3.4000001088000005,0.7199994039200001,0.7113750227640001,1684,0.0,100,GPS_Atti,
0.35559806790619203,36.919345489503,4400,2017-11-06 07:36:32,1682.4293751377409,4.000000128,0.0,0.71853502299312,1682.4293751377409,4.000000128,0.7199994039200001,0.71853502299312,1684,0.0,100,GPS_Atti,
0.35559818432853796,36.919345420745394,4500,2017-11-06 07:36:32,1682.9293751537407,4.5000001439999995,0.0,0.726807023257824,1682.9293751537407,4.5000001439999995,0.7199994039200001,0.726807023257824,1684,0.0,100,GPS_Atti,
0.355598264579887,36.9193453649707,4600,2017-11-06 07:36:32,1683.429375169741,5.00000016,0.0,0.7322420234317439,1683.429375169741,5.00000016,0.7199994039200001,0.7322420234317439,1684,0.0,100,GPS_Atti,
0.355598355559425,36.919345314973,4700,2017-11-06 07:36:32,1683.9293751857408,5.500000176000001,0.0,0.7391500236528,1683.9293751857408,5.500000176000001,0.7199994039200001,0.7391500236528,1684,0.0,100,GPS_Atti,
0.35559845207892893,36.91934532149521,4800,2017-11-06 07:36:33,1684.4293752017409,6.000000192000001,0.0,0.749253023976096,1684.4293752017409,6.000000192000001,0.7199994039200001,0.749253023976096,1684,0.0,100,GPS_Atti,
0.355598545830078,36.9193453099128,4900,2017-11-06 07:36:33,1684.9293752177407,6.500000208,0.0,0.75829002426528,1684.9293752177407,6.500000208,0.7199994039200001,0.75829002426528,1684,0.0,100,GPS_Atti,
0.355598583750025,36.9193453113463,5000,2017-11-06 07:36:33,1685.429375233741,7.000000224,0.0,0.7622240243911681,1685.429375233741,7.000000224,0.7199994039200001,0.7622240243911681,1684,0.0,100,GPS_Atti,
0.35559863407383,36.91934529743371,5100,2017-11-06 07:36:33,1685.9293752497408,7.50000024,0.0,0.7667610245363521,1685.9293752497408,7.50000024,0.7199994039200001,0.7667610245363521,1684,0.0,100,GPS_Atti,
0.355598657770947,36.9193453007724,5200,2017-11-06 07:36:33,1686.4293752657406,8.000000256,0.0,0.7693320246186239,1686.4293752657406,8.000000256,0.7199994039200001,0.7693320246186239,1684,0.0,100,GPS_Atti,
0.355598696130574,36.9193452805255,5300,2017-11-06 07:36:33,1686.929375281741,8.500000272000001,0.0,0.77239002471648,1686.929375281741,8.500000272000001,0.7199994039200001,0.77239002471648,1684,0.0,100,GPS_Atti,
0.35559871656428904,36.9193453287641,5400,2017-11-06 07:36:33,1687.4293752977408,9.000000287999999,0.0,0.7765670248501441,1687.4293752977408,9.000000287999999,0.7199994039200001,0.7765670248501441,1684,0.0,100,GPS_Atti,
0.35559875983041705,36.9193453598853,5500,2017-11-06 07:36:33,1687.9293753137408,9.500000304,0.0,0.782349025035168,1687.9293753137408,9.500000304,0.7199994039200001,0.782349025035168,1684,0.0,100,GPS_Atti,
0.355598798639495,36.9193454071315,5600,2017-11-06 07:36:33,1688.4293753297409,10.00000032,0.0,0.7883860252283521,1688.4293753297409,10.00000032,0.7199994039200001,0.7883860252283521,1684,0.0,100,GPS_Atti,
0.35559885968009003,36.9193454033919,5700,2017-11-06 07:36:33,1688.929375345741,10.500000336,0.0,0.7944610254227521,1688.929375345741,10.500000336,0.7199994039200001,0.7944610254227521,1684,0.0,100,GPS_Atti,
0.35559887267181606,36.9193453552345,5800,2017-11-06 07:36:34,1689.3293753585408,10.9000003488,0.0,0.793708025398656,1689.3293753585408,10.9000003488,0.7199994039200001,0.7944610254227521,1684,0.0,100,GPS_Atti,
0.3555988620478471,36.9193452596828,5900,2017-11-06 07:36:34,1689.8293753745409,11.4000003648,0.0,0.788572025234304,1689.8293753745409,11.4000003648,0.7199994039200001,0.7944610254227521,1684,0.0,100,GPS_Atti,
0.355598796577885,36.919345209030396,6000,2017-11-06 07:36:34,1690.329375390541,11.900000380800002,0.0,0.7797150249508801,1690.329375390541,11.900000380800002,0.7199994039200001,0.7944610254227521,1684,0.0,100,GPS_Atti,
0.35559876129276,36.919345151153,6100,2017-11-06 07:36:34,1690.829375406541,12.4000003968,0.0,0.7736910247581121,1690.829375406541,12.4000003968,0.7199994039200001,0.7944610254227521,1684,0.0,100,GPS_Atti,
0.3555987364557321,36.919345075756,6200,2017-11-06 07:36:34,1691.3293754225408,12.900000412799999,0.0,0.768078024578496,1691.3293754225408,12.900000412799999,0.7199994039200001,0.7944610254227521,1684,0.0,100,GPS_Atti,
0.355598742759439,36.919344960932705,6300,2017-11-06 07:36:34,1691.8293754385406,13.4000004288,0.0,0.764254024456128,1691.8293754385406,13.4000004288,0.7199994039200001,0.7944610254227521,1684,0.0,100,GPS_Atti,
0.355598796791211,36.9193448308316,6400,2017-11-06 07:36:34,1692.329375454541,13.9000004448,0.0,0.7650880244828161,1692.329375454541,13.9000004448,0.7199994039200001,0.7944610254227521,1684,0.0,100,GPS_Atti,
0.355598850682937,36.919344719580295,6500,2017-11-06 07:36:34,1692.8293754705408,14.400000460800001,0.0,0.7668690245398081,1692.8293754705408,14.400000460800001,0.7199994039200001,0.7944610254227521,1684,0.0,100,GPS_Atti,
0.3555989121241289,36.919344578415,6700,2017-11-06 07:36:34,1693.8293755025409,15.4000004928,0.0,0.7687370245995839,1693.8293755025409,15.4000004928,0.7199994039200001,0.7944610254227521,1684,0.0,100,GPS_Atti,
0.355598960045979,36.9193444624819,6800,2017-11-06 07:36:35,1694.329375518541,15.900000508800002,0.0,0.7702800246489601,1694.329375518541,15.900000508800002,0.7199994039200001,0.7944610254227521,1684,0.0,100,GPS_Atti,
0.35559900624982,36.9193443177905,6900,2017-11-06 07:36:35,1694.8293755345408,16.400000524800003,0.0,0.771089024674848,1694.8293755345408,16.400000524800003,0.7199994039200001,0.7944610254227521,1684,0.0,100,GPS_Atti,
0.35559905260999203,36.919344173940104,7000,2017-11-06 07:36:35,1695.329375550541,16.900000540799997,0.0,0.7723050247137601,1695.329375550541,16.900000540799997,0.7199994039200001,0.7944610254227521,1684,0.0,100,GPS_Atti,
0.355599090733495,36.919344034320204,7100,2017-11-06 07:36:35,1695.8293755665409,17.400000556800002,0.0,0.7730840247386881,1695.8293755665409,17.400000556800002,0.7199994039200001,0.7944610254227521,1684,0.0,100,GPS_Atti,
0.355599120193675,36.9193439271164,7200,2017-11-06 07:36:35,1696.3293755825407,17.9000005728,0.0,0.77393002476576,1696.3293755825407,17.9000005728,0.7199994039200001,0.7944610254227521,1684,0.0,100,GPS_Atti,
0.355599142915354,36.919343752015,7400,2017-11-06 07:36:35,1697.3293756145408,18.900000604800002,0.0,0.772948024734336,1697.3293756145408,18.900000604800002,0.7199994039200001,0.7944610254227521,1684,0.0,100,GPS_Atti,
0.355599157962177,36.9193436556464,7500,2017-11-06 07:36:35,1697.8293756305409,19.4000006208,0.0,0.772899024732768,1697.8293756305409,19.4000006208,0.7199994039200001,0.7944610254227521,1684,0.0,100,GPS_Atti,
0.355599188629034,36.919343590329795,7600,2017-11-06 07:36:35,1698.3293756465407,19.900000636800005,0.0,0.77520502480656,1698.3293756465407,19.900000636800005,0.7199994039200001,0.7944610254227521,1684,0.0,100,GPS_Atti,
0.35559919915692406,36.919343524988605,7700,2017-11-06 07:36:35,1698.829375662541,20.4000006528,0.0,0.7753680248117761,1698.829375662541,20.4000006528,0.7199994039200001,0.7944610254227521,1684,0.0,100,GPS_Atti,
0.355599171683446,36.9193434645819,7800,2017-11-06 07:36:36,1699.4293756817408,21.000000672,0.0,0.771474024687168,1699.4293756817408,21.000000672,0.7199994039200001,0.7944610254227521,1684,0.0,100,GPS_Atti,
0.3555991508198211,36.919343405308105,7900,2017-11-06 07:36:36,1699.9293756977409,21.500000688,0.0,0.768377024588064,1699.9293756977409,21.500000688,0.7199994039200001,0.7944610254227521,1684,0.0,100,GPS_Atti,
0.35559914382891106,36.9193433862836,8000,2017-11-06 07:36:36,1700.429375713741,22.000000704000005,0.0,0.7673610245555521,1700.429375713741,22.000000704000005,0.7199994039200001,0.7944610254227521,1684,0.0,100,GPS_Atti,
0.355599155262216,36.91934336367,8100,2017-11-06 07:36:36,1700.9293757297407,22.50000072,0.0,0.7683420245869439,1700.9293757297407,22.50000072,0.7199994039200001,0.7944610254227521,1684,0.0,100,GPS_Atti,
0.355599171948882,36.919343346984,8200,2017-11-06 07:36:36,1701.429375745741,23.000000735999997,0.0,0.76998502463952,1701.429375745741,23.000000735999997,0.7199994039200001,0.7944610254227521,1684,0.0,100,GPS_Atti,
0.355599184118244,36.919343334302795,8300,2017-11-06 07:36:36,1702.0293757649408,23.6000007552,0.0,0.77118002467776,1702.0293757649408,23.6000007552,0.7199994039200001,0.7944610254227521,1684,0.0,100,GPS_Atti,
0.355599137779242,36.9193433795671,8400,2017-11-06 07:36:36,1702.5293757809407,24.100000771199998,0.0,0.766608024531456,1702.5293757809407,24.100000771199998,0.7199994039200001,0.7944610254227521,1684,0.0,100,GPS_Atti,
0.35559909990000604,36.919343444159104,8500,2017-11-06 07:36:36,1703.029375796941,24.600000787200003,0.0,0.763272024424704,1703.029375796941,24.600000787200003,0.7199994039200001,0.7944610254227521,1684,0.0,100,GPS_Atti,
0.355599070957671,36.9193435331124,8600,2017-11-06 07:36:36,1703.5293758129408,25.100000803199997,0.0,0.7613620243635839,1703.5293758129408,25.100000803199997,0.7199994039200001,0.7944610254227521,1684,0.0,100,GPS_Atti,
0.355599063264901,36.9193436146745,8700,2017-11-06 07:36:36,1704.129375832141,25.7000008224,0.0,0.761804024377728,1704.129375832141,25.7000008224,0.7199994039200001,0.7944610254227521,1684,0.0,100,GPS_Atti,
0.35559904116528795,36.9193437420458,8800,2017-11-06 07:36:37,1704.6293758481409,26.200000838399998,0.0,0.761606024371392,1704.6293758481409,26.200000838399998,0.7199994039200001,0.7944610254227521,1684,0.0,100,GPS_Atti,
0.35559904543018295,36.9193438429196,8900,2017-11-06 07:36:37,1705.1293758641407,26.700000854400002,0.0,0.764022024448704,1705.1293758641407,26.700000854400002,0.7199994039200001,0.7944610254227521,1684,0.0,100,GPS_Atti,
0.35559906060565205,36.919343946431106,9000,2017-11-06 07:36:37,1705.729375883341,27.3000008736,0.0,0.767842024570944,1705.729375883341,27.3000008736,0.7199994039200001,0.7944610254227521,1684,0.0,100,GPS_Atti,
0.35559909208673207,36.91934401076811,9100,2017-11-06 07:36:37,1706.2293758993408,27.8000008896,0.0,0.7726960247262721,1706.2293758993408,27.8000008896,0.7199994039200001,0.7944610254227521,1684,0.0,100,GPS_Atti,
0.355599106250937,36.9193440816564,9200,2017-11-06 07:36:37,1706.7293759153408,28.300000905599997,0.0,0.7758730248279361,1706.7293759153408,28.300000905599997,0.7199994039200001,0.7944610254227521,1684,0.0,100,GPS_Atti,
0.35559913697478995,36.919344128196,9300,2017-11-06 07:36:37,1707.3293759345408,28.9000009248,0.0,0.780323024970336,1707.3293759345408,28.9000009248,0.7199994039200001,0.7944610254227521,1684,0.0,100,GPS_Atti,
0.35559914591169106,36.9193442195167,9400,2017-11-06 07:36:37,1707.8293759505407,29.4000009408,0.0,0.783563025074016,1707.8293759505407,29.4000009408,0.7199994039200001,0.7944610254227521,1684,0.0,100,GPS_Atti,
0.35559916663038393,36.919344289771,9500,2017-11-06 07:36:37,1708.429375969741,30.00000096,0.0,0.787632025204224,1708.429375969741,30.00000096,0.7199994039200001,0.7944610254227521,1684,0.0,100,GPS_Atti,
0.355599188785365,36.919344404067104,9600,2017-11-06 07:36:37,1708.9293759857408,30.500000976,0.0,0.793143025380576,1708.9293759857408,30.500000976,0.7199994039200001,0.7944610254227521,1684,0.0,100,GPS_Atti,
0.35559921513521703,36.9193444815292,9700,2017-11-06 07:36:37,1709.529376004941,31.100000995200002,0.0,0.798192025542144,1709.529376004941,31.100000995200002,0.7199994039200001,0.798192025542144,1684,0.0,99,GPS_Atti,
0.355599204740859,36.9193445934186,9800,2017-11-06 07:36:38,1710.0293760209408,31.6000010112,0.0,0.800432025613824,1710.0293760209408,31.6000010112,0.7199994039200001,0.800432025613824,1684,0.0,99,GPS_Atti,
0.355599202563629,36.9193446771728,9900,2017-11-06 07:36:38,1710.6293760401409,32.2000010304,0.0,0.802828025690496,1710.6293760401409,32.2000010304,0.7199994039200001,0.802828025690496,1684,0.0,99,GPS_Atti,
0.355599181289637,36.919344825287396,10000,2017-11-06 07:36:38,1711.129376056141,32.700001046400004,0.0,0.805468025774976,1711.129376056141,32.700001046400004,0.7199994039200001,0.805468025774976,1684,0.0,99,GPS_Atti,
0.35559917901307203,36.919344932349404,10100,2017-11-06 07:36:38,1711.7293760753407,33.3000010656,0.0,0.8089640258868479,1711.7293760753407,33.3000010656,0.7199994039200001,0.8089640258868479,1684,0.0,99,GPS_Atti,
0.35559913525189707,36.919345098075105,10200,2017-11-06 07:36:38,1712.229376091341,33.800001081599994,0.0,0.810484025935488,1712.229376091341,33.800001081599994,0.7199994039200001,0.810484025935488,1684,0.0,99,GPS_Atti,
0.35559910864637895,36.9193451973682,10300,2017-11-06 07:36:38,1712.7293761073408,34.3000010976,0.0,0.8115680259701761,1712.7293761073408,34.3000010976,0.7199994039200001,0.8115680259701761,1684,0.0,99,GPS_Atti,
0.35559903743126603,36.9193453077769,10400,2017-11-06 07:36:38,1713.3293761265409,34.9000011168,0.0,0.808662025877184,1713.3293761265409,34.9000011168,0.7199994039200001,0.8115680259701761,1684,0.0,99,GPS_Atti,
0.355598999692076,36.9193453544551,10500,2017-11-06 07:36:38,1713.829376142541,35.40000113280001,0.0,0.806724025815168,1713.829376142541,35.40000113280001,0.7199994039200001,0.8115680259701761,1684,0.0,99,GPS_Atti,
0.355598966646062,36.91934544130871,10600,2017-11-06 07:36:38,1714.4293761617407,36.000001151999996,0.0,0.807057025825824,1714.4293761617407,36.000001151999996,0.7199994039200001,0.8115680259701761,1684,0.0,99,GPS_Atti,
0.355598962446305,36.9193454864437,10700,2017-11-06 07:36:38,1714.929376177741,36.500001168000004,0.0,0.808606025875392,1714.929376177741,36.500001168000004,0.7199994039200001,0.8115680259701761,1684,0.0,99,GPS_Atti,
0.355598923997114,36.9193455464329,10800,2017-11-06 07:36:39,1715.4293761937408,37.000001184000006,0.0,0.807367025835744,1715.4293761937408,37.000001184000006,0.7199994039200001,0.8115680259701761,1684,0.0,99,GPS_Atti,
0.35559890421151896,36.9193455397533,10900,2017-11-06 07:36:39,1716.0293762129409,37.60000120320001,0.35999970196000003,0.805054025761728,1716.0293762129409,37.60000120320001,0.7199994039200001,0.8115680259701761,1684,0.0,99,GPS_Atti,
0.355598879983529,36.9193456020395,11000,2017-11-06 07:36:39,1716.529376228941,38.1000012192,0.0,0.805438025774016,1716.529376228941,38.1000012192,0.7199994039200001,0.8115680259701761,1684,0.0,99,GPS_Atti,
0.355598884969825,36.9193456518932,11100,2017-11-06 07:36:39,1717.129376248141,38.700001238400006,0.0,0.8082540258641281,1717.129376248141,38.700001238400006,0.7199994039200001,0.8115680259701761,1684,0.0,99,GPS_Atti,
0.35559892479179395,36.91934574959689,11200,2017-11-06 07:36:39,1717.629376264141,39.2000012544,0.0,0.816874026139968,1717.629376264141,39.2000012544,0.7199994039200001,0.816874026139968,1684,0.0,99,GPS_Atti,
0.355598973311283,36.9193458152395,11300,2017-11-06 07:36:39,1718.1293762801408,39.7000012704,0.0,0.8248890263964481,1718.1293762801408,39.7000012704,0.7199994039200001,0.8248890263964481,1684,0.0,99,GPS_Atti,
0.355598992500867,36.9193459056641,11400,2017-11-06 07:36:39,1718.7293762993409,40.3000012896,0.0,0.83121002659872,1718.7293762993409,40.3000012896,0.7199994039200001,0.83121002659872,1684,0.0,99,GPS_Atti,
0.355599010483774,36.9193459402364,11500,2017-11-06 07:36:39,1719.229376315341,40.8000013056,0.0,0.834707026710624,1719.229376315341,40.8000013056,0.7199994039200001,0.834707026710624,1684,0.0,99,GPS_Atti,
0.355599032754375,36.9193460013985,11600,2017-11-06 07:36:39,1719.7293763313407,41.30000132160001,0.0,0.8399660268789121,1719.7293763313407,41.30000132160001,0.7199994039200001,0.8399660268789121,1684,0.0,99,GPS_Atti,
0.35559905683254706,36.919346043976795,11700,2017-11-06 07:36:39,1720.3293763505408,41.9000013408,0.0,0.844494027023808,1720.3293763505408,41.9000013408,0.7199994039200001,0.844494027023808,1684,0.0,99,GPS_Atti,
0.35559909107709603,36.9193461653304,11800,2017-11-06 07:36:40,1720.8293763665408,42.4000013568,0.0,0.8540690273302081,1720.8293763665408,42.4000013568,0.7199994039200001,0.8540690273302081,1684,0.0,99,GPS_Atti,
0.35559913110425,36.919346242972395,11900,2017-11-06 07:36:40,1721.3293763825409,42.900001372800006,0.0,0.8620380275852161,1721.3293763825409,42.900001372800006,0.7199994039200001,0.8620380275852161,1684,0.0,99,GPS_Atti,
0.355599160375531,36.9193463472695,12000,2017-11-06 07:36:40,1721.929376401741,43.500001391999994,0.0,0.870404027852928,1721.929376401741,43.500001391999994,0.7199994039200001,0.870404027852928,1684,0.0,99,GPS_Atti,
0.35559918452698297,36.9193464087972,12100,2017-11-06 07:36:40,1722.4293764177407,44.00000140800001,0.0,0.8760500280336,1722.4293764177407,44.00000140800001,0.7199994039200001,0.8760500280336,1684,0.0,99,GPS_Atti,
0.355599207155841,36.919346470102205,12200,2017-11-06 07:36:40,1722.929376433741,44.500001424,0.0,0.8815610282099522,1722.929376433741,44.500001424,0.7199994039200001,0.8815610282099522,1684,0.0,99,GPS_Atti,
0.355599219185157,36.919346487058604,12300,2017-11-06 07:36:40,1723.5293764529408,45.10000144320001,0.0,0.8836500282768001,1723.5293764529408,45.10000144320001,0.7199994039200001,0.8836500282768001,1684,0.0,99,GPS_Atti,
0.35559920107360293,36.919346516623605,12400,2017-11-06 07:36:40,1724.0293764689409,45.6000014592,0.0,0.8835090282722879,1724.0293764689409,45.6000014592,0.7199994039200001,0.8836500282768001,1684,0.0,99,GPS_Atti,
0.355599187161806,36.9193465140782,12500,2017-11-06 07:36:40,1724.529376484941,46.1000014752,0.0,0.882024028224768,1724.529376484941,46.1000014752,0.7199994039200001,0.8836500282768001,1684,0.0,99,GPS_Atti,
0.3555991725448929,36.919346512634505,12600,2017-11-06 07:36:40,1725.0293765009408,46.600001491200004,0.0,0.8805310281769921,1725.0293765009408,46.600001491200004,0.7199994039200001,0.8836500282768001,1684,0.0,99,GPS_Atti,
0.3555991664821961,36.9193464878305,12700,2017-11-06 07:36:40,1725.5293765169408,47.1000015072,0.0,0.87858502811472,1725.5293765169408,47.1000015072,0.7199994039200001,0.8836500282768001,1684,0.0,99,GPS_Atti,
0.35559915712841295,36.9193465081893,12800,2017-11-06 07:36:41,1726.029376532941,47.60000152320001,0.35999970196000003,0.8787960281214721,1726.029376532941,47.60000152320001,0.7199994039200001,0.8836500282768001,1684,0.0,99,GPS_Atti,
0.355599133983339,36.9193464948885,12900,2017-11-06 07:36:41,1726.5293765489407,48.1000015392,0.35999970196000003,0.875828028026496,1726.5293765489407,48.1000015392,0.7199994039200001,0.8836500282768001,1684,0.0,99,GPS_Atti,
0.35559909006094703,36.9193465065079,13000,2017-11-06 07:36:41,1727.0293765649408,48.6000015552,0.0,0.872228027911296,1727.0293765649408,48.6000015552,0.7199994039200001,0.8836500282768001,1684,0.0,99,GPS_Atti,
0.35559905178111406,36.9193464993155,13100,2017-11-06 07:36:41,1727.5293765809408,49.1000015712,0.0,0.86814002778048,1727.5293765809408,49.1000015712,0.7199994039200001,0.8836500282768001,1684,0.0,99,GPS_Atti,
0.35559900932432204,36.9193465415576,13200,2017-11-06 07:36:41,1728.029376596941,49.6000015872,0.0,0.8664190277254079,1728.029376596941,49.6000015872,0.7199994039200001,0.8836500282768001,1684,0.0,99,GPS_Atti,
0.35559899097013004,36.9193465652803,13300,2017-11-06 07:36:41,1728.5293766129407,50.100001603200006,0.0,0.8659990277119681,1728.5293766129407,50.100001603200006,0.7199994039200001,0.8836500282768001,1684,0.0,99,GPS_Atti,
0.355598961404101,36.919346633496104,13400,2017-11-06 07:36:41,1729.129376632141,50.7000016224,0.0,0.8670690277462081,1729.129376632141,50.7000016224,0.7199994039200001,0.8836500282768001,1684,0.0,99,GPS_Atti,
0.35559892573466395,36.919346629321204,13500,2017-11-06 07:36:41,1729.6293766481408,51.20000163840001,0.35999970196000003,0.8634360276299521,1729.6293766481408,51.20000163840001,0.7199994039200001,0.8836500282768001,1684,0.0,99,GPS_Atti,
0.3555988701933239,36.9193466048861,13600,2017-11-06 07:36:41,1730.1293766641406,51.700001654400005,0.35999970196000003,0.856747027415904,1730.1293766641406,51.700001654400005,0.7199994039200001,0.8836500282768001,1684,0.0,99,GPS_Atti,
0.35559885185867296,36.9193465572636,13700,2017-11-06 07:36:41,1730.629376680141,52.200001670400006,0.35999970196000003,0.852259027272288,1730.629376680141,52.200001670400006,0.7199994039200001,0.8836500282768001,1684,0.0,99,GPS_Atti,
0.35559887963829906,36.9193465707731,13800,2017-11-06 07:36:42,1731.1293766961408,52.7000016864,0.0,0.8556810273817921,1731.1293766961408,52.7000016864,0.7199994039200001,0.8836500282768001,1684,0.0,99,GPS_Atti,
0.35559894932756,36.9193465946093,13900,2017-11-06 07:36:42,1731.6293767121408,53.2000017024,0.35999970196000003,0.8636890276380481,1731.6293767121408,53.2000017024,0.7199994039200001,0.8836500282768001,1684,0.0,99,GPS_Atti,
0.35559900634752706,36.919346695665105,14000,2017-11-06 07:36:42,1732.1293767281409,53.7000017184,0.35999970196000003,0.8749290279977281,1732.1293767281409,53.7000017184,0.7199994039200001,0.8836500282768001,1684,0.0,99,GPS_Atti,
0.35559908047104,36.9193467957686,14100,2017-11-06 07:36:42,1732.629376744141,54.200001734400004,0.35999970196000003,0.8877770284088641,1732.629376744141,54.200001734400004,0.7199994039200001,0.8877770284088641,1684,0.0,99,GPS_Atti,
0.35559913005227506,36.9193469477985,14200,2017-11-06 07:36:42,1733.1293767601408,54.700001750400006,0.35999970196000003,0.9014250288456,1733.1293767601408,54.700001750400006,0.7199994039200001,0.9014250288456,1684,0.0,99,GPS_Atti,
0.35559915218445703,36.9193470540168,14300,2017-11-06 07:36:42,1733.629376776141,55.2000017664,0.0,0.9098780291160962,1733.629376776141,55.2000017664,0.7199994039200001,0.9098780291160962,1684,0.0,99,GPS_Atti,
0.35559912466049703,36.919347184047204,14400,2017-11-06 07:36:42,1734.1293767921409,55.7000017824,0.0,0.9152840292890881,1734.1293767921409,55.7000017824,0.7199994039200001,0.9152840292890881,1684,0.0,99,GPS_Atti,
0.35559910475439704,36.9193472869696,14500,2017-11-06 07:36:42,1734.6293768081407,56.2000017984,0.0,0.919882029436224,1734.6293768081407,56.2000017984,0.7199994039200001,0.919882029436224,1684,0.0,99,GPS_Atti,
0.35559907556128206,36.9193473765902,14600,2017-11-06 07:36:42,1735.129376824141,56.700001814400004,0.0,0.922907029533024,1735.129376824141,56.700001814400004,0.7199994039200001,0.922907029533024,1684,0.0,99,GPS_Atti,
0.355599091389758,36.919347469860504,14700,2017-11-06 07:36:42,1735.6293768401408,57.200001830400005,0.0,0.9303460297710722,1735.6293768401408,57.200001830400005,0.7199994039200001,0.9303460297710722,1684,0.0,99,GPS_Atti,
0.35559908005578705,36.919347647273604,14800,2017-11-06 07:36:43,1736.1293768561409,57.7000018464,0.0,0.940953030110496,1736.1293768561409,57.7000018464,0.7199994039200001,0.940953030110496,1684,0.0,99,GPS_Atti,
0.355599092547581,36.919347805239,14900,2017-11-06 07:36:43,1736.6293768721407,58.2000018624,0.0,0.9526370304843841,1736.6293768721407,58.2000018624,0.7199994039200001,0.9526370304843841,1684,0.0,99,GPS_Atti,
0.355599075769723,36.9193479636926,15000,2017-11-06 07:36:43,1737.129376888141,58.7000018784,0.0,0.9619790307833281,1737.129376888141,58.7000018784,0.7199994039200001,0.9619790307833281,1684,0.0,99,GPS_Atti,
0.355599067000552,36.9193480822846,15100,2017-11-06 07:36:43,1737.6293769041408,59.2000018944,0.0,0.969452031022464,1737.6293769041408,59.2000018944,0.7199994039200001,0.969452031022464,1684,0.0,99,GPS_Atti,
0.35559902292508705,36.9193482428714,15200,2017-11-06 07:36:43,1738.1293769201407,59.700001910400005,0.0,0.9770170312645439,1738.1293769201407,59.700001910400005,0.7199994039200001,0.9770170312645439,1684,0.0,99,GPS_Atti,
0.35559899668271205,36.9193483537651,15300,2017-11-06 07:36:43,1738.629376936141,60.2000019264,0.0,0.9827640314484481,1738.629376936141,60.2000019264,0.7199994039200001,0.9827640314484481,1684,0.0,99,GPS_Atti,
0.35559892603103993,36.919348482280505,15400,2017-11-06 07:36:43,1739.1293769521408,60.7000019424,0.0,0.9862330315594561,1739.1293769521408,60.7000019424,0.7199994039200001,0.9862330315594561,1684,0.0,99,GPS_Atti,
0.35559888385271204,36.9193485770417,15500,2017-11-06 07:36:43,1739.6293769681408,61.2000019584,0.0,0.989772031672704,1739.6293769681408,61.2000019584,0.7199994039200001,0.989772031672704,1684,0.0,99,GPS_Atti,
0.35559880157720797,36.91934869248279,15600,2017-11-06 07:36:43,1740.129376984141,61.7000019744,0.0,0.9917350317355201,1740.129376984141,61.7000019744,0.7199994039200001,0.9917350317355201,1684,0.0,99,GPS_Atti,
0.35559873519531704,36.9193487656614,15700,2017-11-06 07:36:43,1740.629377000141,62.200001990400004,0.0,0.9919630317428162,1740.629377000141,62.200001990400004,0.7199994039200001,0.9919630317428162,1684,0.0,99,GPS_Atti,
0.355598641507677,36.9193488899865,15800,2017-11-06 07:36:44,1741.2293770193407,62.80000200960001,0.0,0.9941370318123841,1741.2293770193407,62.80000200960001,0.7199994039200001,0.9941370318123841,1684,0.0,99,GPS_Atti,
0.35559857540587797,36.919348982206,15900,2017-11-06 07:36:44,1741.7293770353408,63.3000020256,0.0,0.9962060318785921,1741.7293770353408,63.3000020256,0.7199994039200001,0.9962060318785921,1684,0.0,99,GPS_Atti,
0.35559845692355,36.9193490990165,16000,2017-11-06 07:36:44,1742.2293770513409,63.8000020416,0.0,0.996384031884288,1742.2293770513409,63.8000020416,0.7199994039200001,0.996384031884288,1684,0.0,99,GPS_Atti,
0.35559836478130297,36.9193491637415,16100,2017-11-06 07:36:44,1742.7293770673407,64.30000205760001,0.0,0.994626031828032,1742.7293770673407,64.30000205760001,0.7199994039200001,0.996384031884288,1540,0.0,99,GPS_Atti,
0.355598259310242,36.919349252869104,16200,2017-11-06 07:36:44,1743.229377083341,64.8000020736,0.0,0.994049031809568,1743.229377083341,64.8000020736,0.7199994039200001,0.996384031884288,1255,0.0,99,GPS_Atti,
0.3555981527399821,36.9193492998477,16300,2017-11-06 07:36:44,1743.7293770993408,65.3000020896,0.0,0.990097031683104,1743.7293770993408,65.3000020896,0.7199994039200001,0.996384031884288,1169,0.0,99,GPS_Atti,
0.355598013092767,36.919349404032396,16400,2017-11-06 07:36:44,1744.129377112141,65.7000021024,0.0,0.9887740316407679,1744.129377112141,65.7000021024,0.7199994039200001,0.996384031884288,1169,0.0,99,GPS_Atti,
0.35559791571181604,36.919349464920295,16500,2017-11-06 07:36:44,1744.5293771249408,66.10000211520001,0.0,0.987063031586016,1744.5293771249408,66.10000211520001,0.7199994039200001,0.996384031884288,1122,0.0,99,GPS_Atti,
0.35559778973376,36.9193495742376,16600,2017-11-06 07:36:44,1744.829377134541,66.4000021248,0.0,0.9877560316081921,1744.829377134541,66.4000021248,0.7199994039200001,0.996384031884288,1037,0.0,99,GPS_Atti,
0.35559771283863395,36.919349646306,16700,2017-11-06 07:36:44,1745.129377144141,66.7000021344,0.0,0.9888210316422721,1745.129377144141,66.7000021344,0.7199994039200001,0.996384031884288,1031,0.0,99,GPS_Atti,
0.35559763695965796,36.9193497789465,16800,2017-11-06 07:36:45,1745.229377147341,66.8000021376,0.0,0.9954840318554878,1745.229377147341,66.8000021376,0.7199994039200001,0.996384031884288,1024,0.0,99,GPS_Atti,
0.35559759691296294,36.919349869897296,16900,2017-11-06 07:36:45,1745.3293771505407,66.9000021408,0.0,1.00098003203136,1745.3293771505407,66.9000021408,0.7199994039200001,1.00098003203136,1024,0.0,99,GPS_Atti,
0.355597523821883,36.919350002670605,17000,2017-11-06 07:36:45,1745.4293771537407,67.00000214399999,0.0,1.0082200322630401,1745.4293771537407,67.00000214399999,0.7199994039200001,1.0082200322630401,1024,0.0,99,GPS_Atti,
0.35559748905786,36.91935008360689,17100,2017-11-06 07:36:45,1745.5293771569409,67.10000214720002,0.35999970196000003,1.01337003242784,1745.5293771569409,67.10000214720002,0.7199994039200001,1.01337003242784,1024,0.0,99,GPS_Atti,
0.355597476772879,36.919350195261295,17200,2017-11-06 07:36:45,1745.6293771601408,67.2000021504,0.35999970196000003,1.0228200327302401,1745.6293771601408,67.2000021504,0.7199994039200001,1.0228200327302401,1024,0.0,99,GPS_Atti,
0.355597488626322,36.919350264017204,17300,2017-11-06 07:36:45,1745.6293771601408,67.2000021504,0.35999970196000003,1.02989003295648,1745.6293771601408,67.2000021504,0.7199994039200001,1.02989003295648,1024,0.0,99,GPS_Atti,
0.355597497159369,36.919350362984794,17400,2017-11-06 07:36:45,1745.7293771633408,67.30000215359999,0.35999970196000003,1.03954003326528,1745.7293771633408,67.30000215359999,0.7199994039200001,1.03954003326528,1024,0.0,99,GPS_Atti,
0.35559750884345503,36.9193503903347,17500,2017-11-06 07:36:45,1745.8293771665408,67.40000215680001,0.35999970196000003,1.0427900333692801,1745.8293771665408,67.40000215680001,0.7199994039200001,1.0427900333692801,1024,0.0,99,GPS_Atti,
0.355597490639079,36.9193504341261,17600,2017-11-06 07:36:45,1745.8293771665408,67.40000215680001,0.0,1.04572003346304,1745.8293771665408,67.40000215680001,0.7199994039200001,1.04572003346304,1024,0.0,99,GPS_Atti,
0.35559747337757297,36.9193503894044,17700,2017-11-06 07:36:45,1745.929377169741,67.50000216000001,0.0,1.04051003329632,1745.929377169741,67.50000216000001,0.7199994039200001,1.04572003346304,1024,0.0,99,GPS_Atti,
0.355597405513798,36.919350311671295,17800,2017-11-06 07:36:46,1745.929377169741,67.50000216000001,0.0,1.02914003293248,1745.929377169741,67.50000216000001,0.7199994039200001,1.04572003346304,1024,0.0,99,GPS_Atti,
0.355597359342525,36.919350141631,17900,2017-11-06 07:36:46,1745.929377169741,67.50000216000001,0.0,1.01056003233792,1745.929377169741,67.50000216000001,0.7199994039200001,1.04572003346304,1024,0.0,99,GPS_Atti,
0.35559723848104,36.9193499695255,18000,2017-11-06 07:36:46,1745.929377169741,67.50000216000001,0.35999970196000003,0.9871780315896961,1745.929377169741,67.50000216000001,0.7199994039200001,1.04572003346304,1024,0.0,99,GPS_Atti,
0.35559713129197096,36.919349741136706,18100,2017-11-06 07:36:46,1745.929377169741,67.50000216000001,0.35999970196000003,0.959458030702656,1745.929377169741,67.50000216000001,0.7199994039200001,1.04572003346304,1025,0.0,99,GPS_Atti,
0.355596965762267,36.91934953730671,18200,2017-11-06 07:36:46,1746.029377172941,67.60000216319999,0.35999970196000003,0.93037002977184,1746.029377172941,67.60000216319999,0.7199994039200001,1.04572003346304,1120,0.0,99,GPS_Atti,
0.35559683227871297,36.919349289847105,18300,2017-11-06 07:36:46,1746.029377172941,67.60000216319999,0.35999970196000003,0.89926002877632,1746.029377172941,67.60000216319999,0.7199994039200001,1.04572003346304,1216,0.0,99,GPS_Atti,
0.3555966633325329,36.91934906549879,18400,2017-11-06 07:36:46,1746.029377172941,67.60000216319999,0.35999970196000003,0.868067027778144,1746.029377172941,67.60000216319999,0.7199994039200001,1.04572003346304,1278,0.0,99,GPS_Atti,
0.355596521084693,36.9193487821114,18500,2017-11-06 07:36:46,1746.029377172941,67.60000216319999,0.7199994039200001,0.8331150266596802,1746.029377172941,67.60000216319999,0.7199994039200001,1.04572003346304,1298,0.0,99,GPS_Atti,
0.355596310461747,36.919348539219605,18600,2017-11-06 07:36:46,1746.1293771761407,67.70000216640001,0.7199994039200001,0.79760502552336,1746.1293771761407,67.70000216640001,0.7199994039200001,1.04572003346304,1322,0.0,99,GPS_Atti,
0.35559589533228897,36.9193480414417,18800,2017-11-06 07:36:47,1746.3293771825408,67.9000021728,0.7199994039200001,0.72592002322944,1746.3293771825408,67.9000021728,0.7199994039200001,1.04572003346304,1322,0.0,99,GPS_Atti,
0.355595678531026,36.919347783000795,18900,2017-11-06 07:36:47,1746.4293771857408,68.00000217600001,0.7199994039200001,0.688657022037024,1746.4293771857408,68.00000217600001,0.7199994039200001,1.04572003346304,1332,0.0,99,GPS_Atti,
0.355595367078084,36.9193475905161,19000,2017-11-06 07:36:47,1746.629377192141,68.2000021824,0.8063993323904,0.652012020864384,1746.629377192141,68.2000021824,0.8063993323904,1.04572003346304,1325,0.0,99,GPS_Atti,
0.35559511198558896,36.9193473686586,19100,2017-11-06 07:36:47,1746.729377195341,68.30000218560001,0.8063993323904,0.6162210197190721,1746.729377195341,68.30000218560001,0.8063993323904,1.04572003346304,1325,0.0,99,GPS_Atti,
0.35559478421563795,36.9193471592935,19200,2017-11-06 07:36:47,1746.829377198541,68.4000021888,0.8063993323904,0.577944018494208,1746.829377198541,68.4000021888,0.8063993323904,1.04572003346304,1335,0.0,99,GPS_Atti,
0.355594534607742,36.9193469353965,19300,2017-11-06 07:36:47,1746.9293772017409,68.500002192,0.7199994039200001,0.5429160173733121,1746.9293772017409,68.500002192,0.8063993323904,1.04572003346304,1346,0.0,99,GPS_Atti,
0.355594217466645,36.9193467456023,19400,2017-11-06 07:36:47,1747.029377204941,68.6000021952,0.7199994039200001,0.5084090162690881,1747.029377204941,68.6000021952,0.8063993323904,1.04572003346304,1372,0.0,99,GPS_Atti,
0.35559398674707104,36.9193465535464,19500,2017-11-06 07:36:47,1747.1293772081408,68.7000021984,0.7199994039200001,0.478431015309792,1747.1293772081408,68.7000021984,0.8063993323904,1.04572003346304,1393,0.0,99,GPS_Atti,
0.35559367692583005,36.9193464188663,19600,2017-11-06 07:36:47,1747.2293772113408,68.8000022016,0.7199994039200001,0.4518030144576961,1747.2293772113408,68.8000022016,0.8063993323904,1.04572003346304,1414,0.0,99,GPS_Atti,
0.355593447574149,36.9193462805975,19700,2017-11-06 07:36:47,1747.3293772145407,68.9000022048,0.7199994039200001,0.42904401372940804,1747.3293772145407,68.9000022048,0.8063993323904,1.04572003346304,1422,0.0,99,GPS_Atti,
0.35559315833644106,36.9193461735645,19800,2017-11-06 07:36:48,1747.529377220941,69.1000022112,0.7199994039200001,0.40892601308563203,1747.529377220941,69.1000022112,0.8063993323904,1.04572003346304,1420,0.0,99,GPS_Atti,
0.35559293303144296,36.919346063293396,19900,2017-11-06 07:36:48,1747.6293772241409,69.2000022144,0.7199994039200001,0.391671012533472,1747.6293772241409,69.2000022144,0.8063993323904,1.04572003346304,1424,0.0,99,GPS_Atti,
0.355592624097704,36.9193460209029,20000,2017-11-06 07:36:48,1747.829377230541,69.4000022208,0.35999970196000003,0.382168012229376,1747.829377230541,69.4000022208,0.8063993323904,1.04572003346304,1430,0.0,99,GPS_Atti,
0.35559240045046203,36.919345987773795,20100,2017-11-06 07:36:48,1748.0293772369407,69.60000222720001,0.35999970196000003,0.376862012059584,1748.0293772369407,69.60000222720001,0.8063993323904,1.04572003346304,1427,0.0,99,GPS_Atti,
0.3555921297639871,36.9193459959779,20200,2017-11-06 07:36:48,1748.2293772433409,69.8000022336,0.35999970196000003,0.37798001209536003,1748.2293772433409,69.8000022336,0.8063993323904,1.04572003346304,1431,0.0,99,GPS_Atti,
0.35559193806356,36.9193459956289,20300,2017-11-06 07:36:48,1748.4293772497408,70.00000224,0.35999970196000003,0.37953401214508803,1748.4293772497408,70.00000224,0.8063993323904,1.04572003346304,1435,0.0,99,GPS_Atti,
0.35559164032211604,36.919346021283495,20400,2017-11-06 07:36:48,1748.629377256141,70.2000022464,0.35999970196000003,0.38714801238873603,1748.629377256141,70.2000022464,0.8063993323904,1.04572003346304,1451,0.0,99,GPS_Atti,
0.35559142573553704,36.919346042325394,20500,2017-11-06 07:36:48,1748.8293772625407,70.4000022528,0.35999970196000003,0.394561012625952,1748.8293772625407,70.4000022528,0.8063993323904,1.04572003346304,1462,0.0,99,GPS_Atti,
0.355591178632188,36.919346087440005,20600,2017-11-06 07:36:48,1749.0293772689408,70.60000225920001,0.35999970196000003,0.40690401302092805,1749.0293772689408,70.60000225920001,0.8063993323904,1.04572003346304,1460,0.0,99,GPS_Atti,
0.35559102671464793,36.919346145002606,20700,2017-11-06 07:36:48,1749.2293772753408,70.80000226560001,0.0,0.41836701338774396,1749.2293772753408,70.80000226560001,0.8063993323904,1.04572003346304,1459,0.0,99,GPS_Atti,
0.35559080388325603,36.9193462577758,20800,2017-11-06 07:36:49,1749.529377284941,71.10000227520001,0.0,0.43890901404508803,1749.529377284941,71.10000227520001,0.8063993323904,1.04572003346304,1455,0.0,99,GPS_Atti,
0.35559069435737,36.9193463515691,20900,2017-11-06 07:36:49,1749.729377291341,71.3000022816,0.0,0.45321401450284804,1749.729377291341,71.3000022816,0.8063993323904,1.04572003346304,1453,0.0,99,GPS_Atti,
0.35559046620259493,36.919346493126795,21000,2017-11-06 07:36:49,1750.0293773009407,71.6000022912,0.0,0.47793501529392,1750.0293773009407,71.6000022912,0.8063993323904,1.04572003346304,1445,0.0,99,GPS_Atti,
0.35559033271415597,36.919346615273206,21100,2017-11-06 07:36:49,1750.3293773105408,71.9000023008,0.0,0.49659001589088003,1750.3293773105408,71.9000023008,0.8063993323904,1.04572003346304,1445,0.0,99,GPS_Atti,
0.355590089276434,36.9193467577805,21200,2017-11-06 07:36:49,1750.529377316941,72.1000023072,0.0,0.522982016735424,1750.529377316941,72.1000023072,0.8063993323904,1.04572003346304,1450,0.0,99,GPS_Atti,
0.355589962179637,36.919346878252504,21300,2017-11-06 07:36:49,1750.829377326541,72.40000231680001,0.0,0.541469017327008,1750.829377326541,72.40000231680001,0.8063993323904,1.04572003346304,1446,0.0,99,GPS_Atti,
0.35558972098428293,36.9193470500443,21400,2017-11-06 07:36:49,1751.1293773361408,72.70000232640001,0.0,0.571249018279968,1751.1293773361408,72.70000232640001,0.8063993323904,1.04572003346304,1445,0.0,99,GPS_Atti,
0.355589555899144,36.919347207248,21500,2017-11-06 07:36:49,1751.329377342541,72.9000023328,0.0,0.595609019059488,1751.329377342541,72.9000023328,0.8063993323904,1.04572003346304,1451,0.0,99,GPS_Atti,
0.35558930421009705,36.9193474320411,21600,2017-11-06 07:36:49,1751.6293773521409,73.2000023424,0.0,0.63149002020768,1751.6293773521409,73.2000023424,0.8063993323904,1.04572003346304,1443,0.0,99,GPS_Atti,
0.35558915244725897,36.919347615528295,21700,2017-11-06 07:36:49,1751.9293773617408,73.50000235200001,0.0,0.657729021047328,1751.9293773617408,73.50000235200001,0.8063993323904,1.04572003346304,1444,0.0,99,GPS_Atti,
0.35558890389947995,36.9193478036663,21800,2017-11-06 07:36:50,1752.129377368141,73.7000023584,0.0,0.6902330220874561,1752.129377368141,73.7000023584,0.8063993323904,1.04572003346304,1444,0.0,99,GPS_Atti,
0.355588754341555,36.9193479473754,21900,2017-11-06 07:36:50,1752.4293773777408,74.00000236800001,0.0,0.712717022806944,1752.4293773777408,74.00000236800001,0.8063993323904,1.04572003346304,1444,0.0,99,GPS_Atti,
0.355588509622248,36.9193481327202,22000,2017-11-06 07:36:50,1752.729377387341,74.30000237760001,0.0,0.745004023840128,1752.729377387341,74.30000237760001,0.8063993323904,1.04572003346304,1445,0.0,99,GPS_Atti,
0.3555883783061521,36.9193482718347,22100,2017-11-06 07:36:50,1752.9293773937409,74.500002384,0.0,0.7660230245127361,1752.9293773937409,74.500002384,0.8063993323904,1.04572003346304,1445,0.0,99,GPS_Atti,
0.355588183840627,36.9193484677491,22200,2017-11-06 07:36:50,1753.229377403341,74.8000023936,0.0,0.796253025480096,1753.229377403341,74.8000023936,0.8063993323904,1.04572003346304,1445,0.0,99,GPS_Atti,
0.35558808610304704,36.919348616602996,22300,2017-11-06 07:36:50,1753.529377412941,75.1000024032,0.35999970196000003,0.816047026113504,1753.529377412941,75.1000024032,0.8063993323904,1.04572003346304,1444,0.0,99,GPS_Atti,
0.355587951832954,36.9193487881122,22400,2017-11-06 07:36:50,1753.8293774225408,75.40000241279999,0.35999970196000003,0.8402350268875202,1753.8293774225408,75.40000241279999,0.8063993323904,1.04572003346304,1442,0.0,99,GPS_Atti,
0.3555878968990239,36.919348921994704,22500,2017-11-06 07:36:50,1754.029377428941,75.60000241920001,0.35999970196000003,0.85594002739008,1754.029377428941,75.60000241920001,0.8063993323904,1.04572003346304,1439,0.0,99,GPS_Atti,
0.3555877413012,36.919349131430394,22600,2017-11-06 07:36:50,1754.3293774385409,75.90000242880001,0.35999970196000003,0.8849400283180799,1754.3293774385409,75.90000242880001,0.8063993323904,1.04572003346304,1439,0.0,99,GPS_Atti,
0.35558766576419704,36.9193492971347,22700,2017-11-06 07:36:50,1754.5293774449408,76.10000243520001,0.35999970196000003,0.90487002895584,1754.5293774449408,76.10000243520001,0.8063993323904,1.04572003346304,1429,0.0,99,GPS_Atti,
0.35558757174109795,36.9193494975612,22800,2017-11-06 07:36:51,1754.829377454541,76.4000024448,0.35999970196000003,0.9291610297331521,1754.829377454541,76.4000024448,0.8063993323904,1.04572003346304,1372,0.0,99,GPS_Atti,
0.355587562056741,36.919349644032,22900,2017-11-06 07:36:51,1755.1293774641408,76.70000245439999,0.35999970196000003,0.9432500301840001,1755.1293774641408,76.70000245439999,0.8063993323904,1.04572003346304,1205,0.0,99,GPS_Atti,
0.355587483855604,36.9193498441062,23000,2017-11-06 07:36:51,1755.3293774705407,76.9000024608,0.35999970196000003,0.96658503093072,1755.3293774705407,76.9000024608,0.8063993323904,1.04572003346304,1024,0.0,99,GPS_Atti,
0.355587463232989,36.9193500050378,23100,2017-11-06 07:36:51,1755.529377476941,77.1000024672,0.35999970196000003,0.982799031449568,1755.529377476941,77.1000024672,0.8063993323904,1.04572003346304,1024,0.0,99,GPS_Atti,
0.35558737120880396,36.9193502342777,23200,2017-11-06 07:36:51,1755.7293774833408,77.3000024736,0.35999970196000003,1.00976003231232,1755.7293774833408,77.3000024736,0.8063993323904,1.04572003346304,1024,0.0,99,GPS_Atti,
0.355587346905906,36.919350397116,23300,2017-11-06 07:36:51,1755.829377486541,77.40000247680001,0.35999970196000003,1.0264700328470402,1755.829377486541,77.40000247680001,0.8063993323904,1.04572003346304,1024,0.0,99,GPS_Atti,
0.355587298250442,36.9193506038623,23400,2017-11-06 07:36:51,1755.829377486541,77.40000247680001,0.35999970196000003,1.0488200335622402,1755.829377486541,77.40000247680001,0.8063993323904,1.0488200335622402,1024,0.0,99,GPS_Atti,
0.355587312433375,36.9193507535685,23500,2017-11-06 07:36:51,1755.9293774897408,77.50000248,0.35999970196000003,1.0621600339891202,1755.9293774897408,77.50000248,0.8063993323904,1.0621600339891202,1024,0.0,99,GPS_Atti,
0.355587302083799,36.9193509592217,23600,2017-11-06 07:36:51,1755.9293774897408,77.50000248,0.35999970196000003,1.0823300346345601,1755.9293774897408,77.50000248,0.8063993323904,1.0823300346345601,1024,0.0,99,GPS_Atti,
0.355587352138911,36.9193510953921,23700,2017-11-06 07:36:51,1756.0293774929407,77.6000024832,0.7199994039200001,1.0925600349619202,1756.0293774929407,77.6000024832,0.8063993323904,1.0925600349619202,1024,0.0,99,GPS_Atti,
0.355587400189408,36.9193512904601,23800,2017-11-06 07:36:52,1756.1293774961407,77.70000248640001,0.7199994039200001,1.1087400354796801,1756.1293774961407,77.70000248640001,0.8063993323904,1.1087400354796801,1024,0.0,99,GPS_Atti,
0.355587505806214,36.9193513982549,23900,2017-11-06 07:36:52,1756.1293774961407,77.70000248640001,0.7199994039200001,1.11354003563328,1756.1293774961407,77.70000248640001,0.8063993323904,1.11354003563328,1024,0.0,99,GPS_Atti,
0.355587615142387,36.919351457118395,24000,2017-11-06 07:36:52,1756.1293774961407,77.70000248640001,0.7199994039200001,1.11357003563424,1756.1293774961407,77.70000248640001,0.8063993323904,1.11357003563424,1024,0.0,99,GPS_Atti,
0.35558774489843303,36.9193514378944,24100,2017-11-06 07:36:52,1756.229377499341,77.8000024896,0.7199994039200001,1.10501003536032,1756.229377499341,77.8000024896,0.8063993323904,1.11357003563424,1024,0.0,99,GPS_Atti,
0.355587811202159,36.919351395745394,24200,2017-11-06 07:36:52,1756.229377499341,77.8000024896,0.7199994039200001,1.0974800351193599,1756.229377499341,77.8000024896,0.8063993323904,1.11357003563424,1024,0.0,99,GPS_Atti,
0.355587901606856,36.9193512917149,24300,2017-11-06 07:36:52,1756.3293775025409,77.9000024928,0.7199994039200001,1.0826100346435201,1756.3293775025409,77.9000024928,0.8063993323904,1.11357003563424,1024,0.0,99,GPS_Atti,
0.35558796105646095,36.919351232969206,24400,2017-11-06 07:36:52,1756.3293775025409,77.9000024928,0.8063993323904,1.0738100343619201,1756.3293775025409,77.9000024928,0.8063993323904,1.11357003563424,1024,0.0,99,GPS_Atti,
0.35558804659699605,36.9193511169007,24500,2017-11-06 07:36:52,1756.3293775025409,77.9000024928,0.5075995797636,1.0580100338563199,1756.3293775025409,77.9000024928,0.8063993323904,1.11357003563424,1024,0.0,99,GPS_Atti,
0.355588069108605,36.9193510204169,24600,2017-11-06 07:36:52,1756.3293775025409,77.9000024928,0.5075995797636,1.0472900335132802,1756.3293775025409,77.9000024928,0.8063993323904,1.11357003563424,1024,0.0,99,GPS_Atti,
0.355588122371752,36.919350862540895,24700,2017-11-06 07:36:52,1756.3293775025409,77.9000024928,0.5075995797636,1.0289500329264,1756.3293775025409,77.9000024928,0.8063993323904,1.11357003563424,1024,0.0,98,GPS_Atti,
0.35558812634352704,36.9193507681706,24800,2017-11-06 07:36:53,1756.4293775057408,78.00000249600001,0.5075995797636,1.0193900326204801,1756.4293775057408,78.00000249600001,0.8063993323904,1.11357003563424,1024,0.0,98,GPS_Atti,
0.35558816424881706,36.919350624611894,24900,2017-11-06 07:36:53,1756.4293775057408,78.00000249600001,0.5075995797636,1.003250032104,1756.4293775057408,78.00000249600001,0.8063993323904,1.11357003563424,1024,0.0,98,GPS_Atti,
0.355588129365919,36.919350543767706,25000,2017-11-06 07:36:53,1756.4293775057408,78.00000249600001,0.5075995797636,0.9970600319059201,1756.4293775057408,78.00000249600001,0.8063993323904,1.11357003563424,1024,-0.2,98,GPS_Atti,
0.35558813717267895,36.9193504081251,25100,2017-11-06 07:36:53,1756.4293775057408,78.00000249600001,0.5075995797636,0.9833140314660479,1756.4293775057408,78.00000249600001,0.8063993323904,1.11357003563424,1024,-0.8,98,GPS_Atti,
0.35558809179120204,36.9193503200489,25200,2017-11-06 07:36:53,1756.4293775057408,78.00000249600001,0.5075995797636,0.9770770312664641,1756.4293775057408,78.00000249600001,0.8063993323904,1.11357003563424,1024,-0.8,98,GPS_Atti,
0.35558810193152296,36.9193501904928,25300,2017-11-06 07:36:53,1756.4293775057408,78.00000249600001,0.5075995797636,0.963899030844768,1756.4293775057408,78.00000249600001,0.8063993323904,1.11357003563424,1024,-2.6,98,GPS_Atti,
0.355588081810469,36.919350130668995,25400,2017-11-06 07:36:53,1756.4293775057408,78.00000249600001,0.5075995797636,0.959169030693408,1756.4293775057408,78.00000249600001,0.8063993323904,1.11357003563424,1024,-6.3,98,GPS_Atti,
0.35558810489366205,36.9193500389687,25500,2017-11-06 07:36:53,1756.4293775057408,78.00000249600001,0.5075995797636,0.9490180303685761,1756.4293775057408,78.00000249600001,0.8063993323904,1.11357003563424,1024,-11.7,98,GPS_Atti,
0.355588050780468,36.9193499702535,25600,2017-11-06 07:36:53,1756.4293775057408,78.00000249600001,0.5075995797636,0.9453510302512321,1756.4293775057408,78.00000249600001,0.8063993323904,1.11357003563424,1024,-17.3,98,GPS_Atti,
0.35558804018092605,36.9193498605969,25700,2017-11-06 07:36:53,1756.4293775057408,78.00000249600001,0.5075995797636,0.9353940299326079,1756.4293775057408,78.00000249600001,0.8063993323904,1.11357003563424,1024,-23.0,98,GPS_Atti,
0.355587943863349,36.9193497607407,25800,2017-11-06 07:36:54,1756.4293775057408,78.00000249600001,0.35999970196000003,0.9313380298028161,1756.4293775057408,78.00000249600001,0.8063993323904,1.11357003563424,1024,-28.6,98,GPS_Atti,
0.355587891331374,36.919349640812605,25900,2017-11-06 07:36:54,1756.4293775057408,78.00000249600001,0.35999970196000003,0.9230440295374079,1756.4293775057408,78.00000249600001,0.8063993323904,1.11357003563424,1024,-32.2,98,GPS_Atti,
0.355587756136325,36.919349604602296,26000,2017-11-06 07:36:54,1756.4293775057408,78.00000249600001,0.35999970196000003,0.927712029686784,1756.4293775057408,78.00000249600001,0.8063993323904,1.11357003563424,1024,-34.7,98,GPS_Atti,
0.35558768089407006,36.9193495347983,26100,2017-11-06 07:36:54,1756.4293775057408,78.00000249600001,0.35999970196000003,0.925809029625888,1756.4293775057408,78.00000249600001,0.8063993323904,1.11357003563424,1024,-36.9,98,GPS_Atti,
0.355587540301544,36.9193494833081,26200,2017-11-06 07:36:54,1756.4293775057408,78.00000249600001,0.35999970196000003,0.929834029754688,1756.4293775057408,78.00000249600001,0.8063993323904,1.11357003563424,1024,-38.2,98,GPS_Atti,
0.355587474510778,36.91934939064971,26300,2017-11-06 07:36:54,1756.3293775025409,77.9000024928,0.35999970196000003,0.925583029618656,1756.4293775057408,78.00000249600001,0.8063993323904,1.11357003563424,1024,-39.2,98,GPS_Atti,
0.355587320631776,36.9193492763348,26400,2017-11-06 07:36:54,1756.3293775025409,77.9000024928,0.35999970196000003,0.9253560296113922,1756.4293775057408,78.00000249600001,0.8063993323904,1.11357003563424,1024,-40.1,98,GPS_Atti,
0.355587245259246,36.9193491358991,26500,2017-11-06 07:36:54,1756.3293775025409,77.9000024928,0.35999970196000003,0.917971029375072,1756.4293775057408,78.00000249600001,0.8063993323904,1.11357003563424,1024,-40.6,98,GPS_Atti,
0.35558709517044795,36.9193490198446,26600,2017-11-06 07:36:54,1756.3293775025409,77.9000024928,0.35999970196000003,0.9181940293822081,1756.4293775057408,78.00000249600001,0.8063993323904,1.11357003563424,1024,-41.1,98,GPS_Atti,
0.355586993408169,36.91934888845879,26700,2017-11-06 07:36:54,1756.3293775025409,77.9000024928,0.35999970196000003,0.9141290292521279,1756.4293775057408,78.00000249600001,0.8063993323904,1.11357003563424,1024,-41.1,98,GPS_Atti,
0.355586848570288,36.9193487702801,26800,2017-11-06 07:36:55,1756.229377499341,77.8000024896,0.35999970196000003,0.9146880292700161,1756.4293775057408,78.00000249600001,0.8063993323904,1.11357003563424,1024,-41.1,98,GPS_Atti,
0.3555867870020779,36.919348624815704,26900,2017-11-06 07:36:55,1756.229377499341,77.8000024896,0.35999970196000003,0.9072210290310722,1756.4293775057408,78.00000249600001,0.8063993323904,1.11357003563424,1024,-41.1,98,GPS_Atti,
0.355586613144511,36.919348498828,27000,2017-11-06 07:36:55,1756.229377499341,77.8000024896,0.35999970196000003,0.910223029127136,1756.4293775057408,78.00000249600001,0.8063993323904,1.11357003563424,1024,-41.1,98,GPS_Atti,
0.35558649765281997,36.919348361642705,27100,2017-11-06 07:36:55,1756.1293774961407,77.70000248640001,0.35999970196000003,0.9083520290672641,1756.4293775057408,78.00000249600001,0.8063993323904,1.11357003563424,1024,-41.1,98,GPS_Atti,
0.355586316869482,36.9193482933251,27200,2017-11-06 07:36:55,1756.1293774961407,77.70000248640001,0.35999970196000003,0.91745502935856,1756.4293775057408,78.00000249600001,0.8063993323904,1.11357003563424,1024,-41.1,98,GPS_Atti,
0.35558617225551203,36.9193482516295,27300,2017-11-06 07:36:55,1756.1293774961407,77.70000248640001,0.0,0.9260090296322879,1756.4293775057408,78.00000249600001,0.8063993323904,1.11357003563424,1024,-41.1,98,GPS_Atti,
0.355585934722529,36.9193483069284,27400,2017-11-06 07:36:55,1756.0293774929407,77.6000024832,0.0,0.9496780303896961,1756.4293775057408,78.00000249600001,0.8063993323904,1.11357003563424,1024,-41.1,98,GPS_Atti,
0.355585773281848,36.9193483427741,27500,2017-11-06 07:36:55,1756.0293774929407,77.6000024832,0.0,0.9657410309037121,1756.4293775057408,78.00000249600001,0.8063993323904,1.11357003563424,1024,-41.1,98,GPS_Atti,
0.3555855096734051,36.9193484048061,27600,2017-11-06 07:36:55,1756.0293774929407,77.6000024832,0.0,0.9923960317566721,1756.4293775057408,78.00000249600001,0.8063993323904,1.11357003563424,1024,-41.1,98,GPS_Atti,
0.355585333916258,36.9193484378013,27700,2017-11-06 07:36:55,1756.0293774929407,77.6000024832,0.0,1.0096800323097601,1756.4293775057408,78.00000249600001,0.8063993323904,1.11357003563424,1024,-41.1,98,GPS_Atti,
0.35558510700398704,36.9193485116507,27800,2017-11-06 07:36:56,1756.0293774929407,77.6000024832,0.0,1.03433003309856,1756.4293775057408,78.00000249600001,0.8063993323904,1.11357003563424,1024,-41.1,98,GPS_Atti,
0.35558496412838103,36.9193485523972,27900,2017-11-06 07:36:56,1755.9293774897408,77.50000248,0.0,1.0495000335840001,1756.4293775057408,78.00000249600001,0.8063993323904,1.11357003563424,1024,-41.1,98,GPS_Atti,
0.35558475922208704,36.9193486220589,28000,2017-11-06 07:36:56,1755.9293774897408,77.50000248,0.0,1.0721000343072,1756.4293775057408,78.00000249600001,0.8063993323904,1.11357003563424,1024,-41.1,98,GPS_Atti,
0.35558465029384,36.919348654553104,28100,2017-11-06 07:36:56,1755.9293774897408,77.50000248,0.0,1.0838300346825602,1756.4293775057408,78.00000249600001,0.8063993323904,1.11357003563424,1024,-41.1,98,GPS_Atti,
0.35558446426854,36.9193487141981,28200,2017-11-06 07:36:56,1755.9293774897408,77.50000248,0.0,1.1041900353340801,1756.4293775057408,78.00000249600001,0.8063993323904,1.11357003563424,1024,-41.1,98,GPS_Atti,
