latitude,longitude,time_millisecond,datetime_utc,altitude_m,ascent_m,speed_kph,distance_m,max_altitude_m,max_ascent_m,max_speed_kph,max_distance_m,rc_throttle,gimbal_pitch_degrees,battery_percent,flycState,message
0.0606052534420595,36.9419011656779,100,2017-11-03 06:45:21,1794.7372400315949,0.0,0.0,0.0,1794.7372400315949,0.0,0.0,0.0,1024,0.0,100,Motors_Started,
0.0606052624632322,36.9419011578529,200,2017-11-03 06:45:21,1794.7372400315949,0.0,0.0,0.0013280200424966402,1794.7372400315949,0.0,0.0,0.0013280200424966402,1024,0.0,100,Motors_Started,
0.0606052635781056,36.9419011498252,300,2017-11-03 06:45:21,1794.7372400315949,0.0,0.0,0.0020924600669587202,1794.7372400315949,0.0,0.0,0.0020924600669587202,1024,0.0,100,Motors_Started,
0.0606052675919148,36.9419011546325,400,2017-11-03 06:45:21,1794.7372400315949,0.0,0.0,0.0019962000638784,1794.7372400315949,0.0,0.0,0.0020924600669587202,1024,0.0,100,Motors_Started,
0.0606052660159881,36.9419011476716,500,2017-11-03 06:45:21,1794.7372400315949,0.0,0.0,0.0024423000781536,1794.7372400315949,0.0,0.0,0.0024423000781536,1024,0.0,100,Motors_Started,
0.0606052438233497,36.9419011375506,600,2017-11-03 06:45:21,1794.7372400315949,0.0,0.0,0.00330576010578432,1794.7372400315949,0.0,0.0,0.00330576010578432,1024,0.0,100,Motors_Started,Setting new Return-To-Home altitude to 30m (98 ft). Setting new Maximum Flight Altitude to 100m (328 ft)
0.0606052088604536,36.9419011081167,700,2017-11-03 06:45:21,1794.7372400315949,0.0,0.0,0.00809654025908928,1794.7372400315949,0.0,0.0,0.00809654025908928,1024,0.0,100,Motors_Started,
0.0606052004500492,36.9419010879856,800,2017-11-03 06:45:21,1794.7372400315949,0.0,0.0,0.0104582003346624,1794.7372400315949,0.0,0.0,0.0104582003346624,1024,0.0,100,Motors_Started,
0.0606052046725027,36.9419010722194,900,2017-11-03 06:45:21,1794.7372400315949,0.0,0.0,0.0117231003751392,1794.7372400315949,0.0,0.0,0.0117231003751392,1024,0.0,100,Motors_Started,
0.0606051951670715,36.9419010663576,1000,2017-11-03 06:45:21,1794.7372400315949,0.0,0.0,0.0128058004097856,1794.7372400315949,0.0,0.0,0.0128058004097856,1024,0.0,100,Motors_Started,
0.0606051694875275,36.9419010574012,1100,2017-11-03 06:45:21,1794.7372400315949,0.0,0.0,0.015236500487568002,1794.7372400315949,0.0,0.0,0.015236500487568002,1024,0.0,100,Motors_Started,
0.0606051480347116,36.9419010652609,1200,2017-11-03 06:45:22,1794.7372400315949,0.0,0.0,0.0161897005180704,1794.7372400315949,0.0,0.0,0.0161897005180704,519,0.0,100,Motors_Started,
0.060605128492773,36.9419010689485,1300,2017-11-03 06:45:22,1794.7372400315949,0.0,0.0,0.0175723005623136,1794.7372400315949,0.0,0.0,0.0175723005623136,806,0.0,100,Motors_Started,
0.0606051185139735,36.9419010818599,1400,2017-11-03 06:45:22,1794.7372400315949,0.0,0.0,0.017664300565257602,1794.7372400315949,0.0,0.0,0.017664300565257602,1024,0.0,100,Motors_Started,
0.0606051075880303,36.9419010799923,1500,2017-11-03 06:45:22,1794.7372400315949,0.0,0.0,0.0188117006019744,1794.7372400315949,0.0,0.0,0.0188117006019744,1024,0.0,100,Motors_Started,
0.0606051068880029,36.9419010875443,1600,2017-11-03 06:45:22,1794.7372400315949,0.0,0.0,0.018469200591014402,1794.7372400315949,0.0,0.0,0.0188117006019744,1024,0.0,100,Assisted_Takeoff,
0.0606050999789221,36.9419010833476,1700,2017-11-03 06:45:22,1794.7372400315949,0.0,0.0,0.0193669006197408,1794.7372400315949,0.0,0.0,0.0193669006197408,1024,0.0,100,Assisted_Takeoff,
0.0606051021195118,36.9419010954547,1800,2017-11-03 06:45:22,1794.7372400315949,0.0,0.35999970196000003,0.0185517005936544,1794.7372400315949,0.0,0.35999970196000003,0.0193669006197408,1024,0.0,100,Assisted_Takeoff,
0.0606050973287313,36.9419010979256,1900,2017-11-03 06:45:22,1794.7372400315949,0.0,0.0,0.0189252006056064,1794.7372400315949,0.0,0.35999970196000003,0.0193669006197408,1024,0.0,100,Assisted_Takeoff,
0.0606051031267044,36.9419011062493,2000,2017-11-03 06:45:22,1794.7372400315949,0.0,0.0,0.0179750005752,1794.7372400315949,0.0,0.35999970196000003,0.0193669006197408,1024,0.0,100,Assisted_Takeoff,
0.0606051013243222,36.9419011067557,2100,2017-11-03 06:45:22,1794.7372400315949,0.0,0.0,0.018141100580515202,1794.7372400315949,0.0,0.35999970196000003,0.0193669006197408,1024,0.0,100,Assisted_Takeoff,
0.0606051096648053,36.9419011125904,2200,2017-11-03 06:45:23,1794.7372400315949,0.0,0.0,0.017044000545408,1794.7372400315949,0.0,0.35999970196000003,0.0193669006197408,1024,0.0,100,Assisted_Takeoff,
0.0606051099331932,36.9419011079296,2300,2017-11-03 06:45:23,1794.7372400315949,0.0,0.0,0.0172027005504864,1794.7372400315949,0.0,0.35999970196000003,0.0193669006197408,1024,0.0,100,Assisted_Takeoff,
0.0606051193708404,36.9419011102522,2400,2017-11-03 06:45:23,1794.7372400315949,0.0,0.0,0.0161334005162688,1794.7372400315949,0.0,0.35999970196000003,0.0193669006197408,1024,0.0,100,Assisted_Takeoff,
0.0606051201802788,36.9419011062125,2500,2017-11-03 06:45:23,1794.7372400315949,0.0,0.0,0.016228000519296,1794.7372400315949,0.0,0.35999970196000003,0.0193669006197408,1024,0.0,100,Assisted_Takeoff,
0.0606051287018245,36.9419011113241,2600,2017-11-03 06:45:23,1794.7372400315949,0.0,0.0,0.0151316004842112,1794.7372400315949,0.0,0.35999970196000003,0.0193669006197408,1024,0.0,100,Assisted_Takeoff,
0.0606051278897398,36.9419011054116,2700,2017-11-03 06:45:23,1794.7372400315949,0.0,0.0,0.015487400495596802,1794.7372400315949,0.0,0.35999970196000003,0.0193669006197408,1024,0.0,100,Assisted_Takeoff,
0.0606051332421299,36.9419011048326,2800,2017-11-03 06:45:23,1794.7372400315949,0.0,0.0,0.014982000479424,1794.7372400315949,0.0,0.35999970196000003,0.0193669006197408,1024,0.0,100,Assisted_Takeoff,
0.0606051311517167,36.9419010985405,2900,2017-11-03 06:45:23,1794.7372400315949,0.0,0.0,0.0155141004964512,1794.7372400315949,0.0,0.35999970196000003,0.0193669006197408,1024,0.0,100,Assisted_Takeoff,
0.0606051346560264,36.9419011018501,3000,2017-11-03 06:45:23,1794.7372400315949,0.0,0.0,0.014996000479872002,1794.7372400315949,0.0,0.35999970196000003,0.0193669006197408,1024,0.0,100,Assisted_Takeoff,
0.0606051305227302,36.941901097969,3100,2017-11-03 06:45:23,1794.7372400315949,0.0,0.0,0.015606000499392,1794.7372400315949,0.0,0.35999970196000003,0.0193669006197408,1024,0.0,100,Assisted_Takeoff,
0.060605133012214,36.9419010782513,3200,2017-11-03 06:45:24,1794.7372400315949,0.0,0.0,0.0165494005295808,1794.7372400315949,0.0,0.35999970196000003,0.0193669006197408,1024,0.0,100,Assisted_Takeoff,
0.0606051286528694,36.9419010433804,3300,2017-11-03 06:45:24,1794.7372400315949,0.0,0.0,0.019430500621776002,1794.7372400315949,0.0,0.35999970196000003,0.019430500621776002,1024,0.0,100,Assisted_Takeoff,
0.0606051307539692,36.9419010175732,3400,2017-11-03 06:45:24,1794.7372400315949,0.0,0.0,0.0213873006843936,1794.7372400315949,0.0,0.35999970196000003,0.0213873006843936,1024,0.0,100,Assisted_Takeoff,
0.060605124717938,36.9419009957707,3500,2017-11-03 06:45:24,1794.7372400315949,0.0,0.0,0.02370500075856,1794.7372400315949,0.0,0.35999970196000003,0.02370500075856,1024,0.0,100,Assisted_Takeoff,
0.0606051253266707,36.9419009834321,3600,2017-11-03 06:45:24,1794.7372400315949,0.0,0.0,0.024773500792752,1794.7372400315949,0.0,0.35999970196000003,0.024773500792752,1024,0.0,99,Assisted_Takeoff,
0.0606051190130916,36.9419009661287,3700,2017-11-03 06:45:24,1794.7372400315949,0.0,0.0,0.0267568008562176,1794.7372400315949,0.0,0.35999970196000003,0.0267568008562176,1024,0.0,99,Assisted_Takeoff,
0.0606051211657928,36.9419009597024,3800,2017-11-03 06:45:24,1794.7372400315949,0.0,0.0,0.027222300871113603,1794.7372400315949,0.0,0.35999970196000003,0.027222300871113603,1024,0.0,99,Assisted_Takeoff,
0.0606051166021802,36.9419009482393,3900,2017-11-03 06:45:24,1794.7372400315949,0.0,0.0,0.028570400914252798,1794.7372400315949,0.0,0.35999970196000003,0.028570400914252798,1024,0.0,99,Assisted_Takeoff,
0.0606051199129087,36.941900928636,4000,2017-11-03 06:45:24,1794.7372400315949,0.0,0.0,0.0302552009681664,1794.7372400315949,0.0,0.35999970196000003,0.0302552009681664,1024,0.0,99,Assisted_Takeoff,
0.0606051162004635,36.9419008931763,4100,2017-11-03 06:45:24,1794.7372400315949,0.0,0.35999970196000003,0.0339301010857632,1794.7372400315949,0.0,0.35999970196000003,0.0339301010857632,1024,0.0,99,Assisted_Takeoff,
0.0606051201732562,36.9419008663514,4200,2017-11-03 06:45:25,1794.7372400315949,0.0,0.0,0.0364371011659872,1794.7372400315949,0.0,0.35999970196000003,0.0364371011659872,1024,0.0,99,Assisted_Takeoff,
0.0606051178229026,36.9419008391049,4300,2017-11-03 06:45:25,1794.7372400315949,0.0,0.0,0.0393239012583648,1794.7372400315949,0.0,0.35999970196000003,0.0393239012583648,1024,0.0,99,Assisted_Takeoff,
0.0606051226473715,36.9419008291481,4400,2017-11-03 06:45:25,1794.7372400315949,0.0,0.0,0.0401513012848416,1794.7372400315949,0.0,0.35999970196000003,0.0401513012848416,1024,0.0,99,Assisted_Takeoff,
0.0606051175555324,36.9419008148003,4500,2017-11-03 06:45:25,1794.7372400315949,0.0,0.0,0.0418437013389984,1794.7372400315949,0.0,0.35999970196000003,0.0418437013389984,1024,0.0,99,Assisted_Takeoff,
0.0606051200839971,36.9419007960479,4600,2017-11-03 06:45:25,1794.7372400315949,0.0,0.0,0.043698501398352005,1794.7372400315949,0.0,0.35999970196000003,0.043698501398352005,1024,0.0,99,Assisted_Takeoff,
0.0606051155683219,36.9419007595264,4700,2017-11-03 06:45:25,1794.7372400315949,0.0,0.0,0.047698001526336,1794.7372400315949,0.0,0.35999970196000003,0.047698001526336,1024,0.0,99,Assisted_Takeoff,
0.0606051418322738,36.941900734682,4800,2017-11-03 06:45:25,1794.7372400315949,0.0,0.0,0.049510301584329605,1794.7372400315949,0.0,0.35999970196000003,0.049510301584329605,1024,0.0,99,Assisted_Takeoff,
0.0606051709065129,36.9419007075897,4900,2017-11-03 06:45:25,1794.7372400315949,0.0,0.0,0.0517624016563968,1794.7372400315949,0.0,0.35999970196000003,0.0517624016563968,1024,0.0,99,Assisted_Takeoff,
0.0606052099461168,36.9419006974573,5000,2017-11-03 06:45:25,1794.7372400315949,0.0,0.0,0.0522931016733792,1794.7372400315949,0.0,0.35999970196000003,0.0522931016733792,1024,0.0,99,Assisted_Takeoff,
0.0606052310171644,36.941900679478,5100,2017-11-03 06:45:25,1794.7372400315949,0.0,0.0,0.0541258017320256,1794.7372400315949,0.0,0.35999970196000003,0.0541258017320256,1024,0.0,99,Assisted_Takeoff,
0.0606052583887635,36.9419006824004,5200,2017-11-03 06:45:26,1794.7372400315949,0.0,0.0,0.0537462017198784,1794.7372400315949,0.0,0.35999970196000003,0.0541258017320256,1024,0.0,99,Assisted_Takeoff,
0.06060527339803,36.9419006680113,5300,2017-11-03 06:45:26,1794.7372400315949,0.0,0.0,0.055388001772416005,1794.7372400315949,0.0,0.35999970196000003,0.055388001772416005,1024,0.0,99,Assisted_Takeoff,
0.0606052911858292,36.9419006688005,5400,2017-11-03 06:45:26,1794.7372400315949,0.0,0.0,0.05541500177328001,1794.7372400315949,0.0,0.35999970196000003,0.05541500177328001,1024,0.0,99,Assisted_Takeoff,
0.0606053013572939,36.9419006562183,5500,2017-11-03 06:45:26,1794.7372400315949,0.0,0.0,0.05690500182096,1794.7372400315949,0.0,0.35999970196000003,0.05690500182096,1024,0.0,99,Assisted_Takeoff,
0.0606053099278965,36.9419006651509,5600,2017-11-03 06:45:26,1794.7372400315949,0.0,0.0,0.056014901792476805,1794.7372400315949,0.0,0.35999970196000003,0.05690500182096,1024,0.0,99,Assisted_Takeoff,
0.0606053138186563,36.9419006594915,5700,2017-11-03 06:45:26,1794.7372400315949,0.0,0.0,0.05669000181408,1794.7372400315949,0.0,0.35999970196000003,0.05690500182096,1024,0.0,99,Assisted_Takeoff,
0.0606053171670425,36.9419006688123,5800,2017-11-03 06:45:26,1794.7372400315949,0.0,0.0,0.055707001782624,1794.7372400315949,0.0,0.35999970196000003,0.05690500182096,1024,0.0,99,Assisted_Takeoff,
0.0606053184111737,36.9419006566253,5900,2017-11-03 06:45:26,1794.7372400315949,0.0,0.0,0.0570689018262048,1794.7372400315949,0.0,0.35999970196000003,0.0570689018262048,1024,0.0,99,Assisted_Takeoff,
0.0606053182961648,36.9419006419222,6000,2017-11-03 06:45:26,1794.7372400315949,0.0,0.0,0.0586896018780672,1794.7372400315949,0.0,0.35999970196000003,0.0586896018780672,1024,0.0,99,Assisted_Takeoff,
0.0606053154575834,36.9419006066799,6100,2017-11-03 06:45:26,1794.7372400315949,0.0,0.0,0.0625453020014496,1794.7372400315949,0.0,0.35999970196000003,0.0625453020014496,1024,0.0,99,Assisted_Takeoff,
0.0606053114184316,36.9419005882621,6200,2017-11-03 06:45:27,1794.7372400315949,0.0,0.0,0.06453500206512,1794.7372400315949,0.0,0.35999970196000003,0.06453500206512,1024,0.0,99,Assisted_Takeoff,
0.0606053065624116,36.9419005656969,6300,2017-11-03 06:45:27,1794.7372400315949,0.0,0.0,0.06698250214344,1794.7372400315949,0.0,0.35999970196000003,0.06698250214344,1024,0.0,99,Assisted_Takeoff,
0.0606053026188291,36.9419005601516,6400,2017-11-03 06:45:27,1794.7372400315949,0.0,0.0,0.0675599021619168,1794.7372400315949,0.0,0.35999970196000003,0.0675599021619168,1024,0.0,99,Assisted_Takeoff,
0.060605297766982,36.9419005456459,6500,2017-11-03 06:45:27,1794.7372400315949,0.0,0.0,0.06912730221207361,1794.7372400315949,0.0,0.35999970196000003,0.06912730221207361,1024,0.0,99,Assisted_Takeoff,
0.0606053145381232,36.9419005533812,6600,2017-11-03 06:45:27,1794.7372400315949,0.0,0.0,0.0684292021897344,1794.7372400315949,0.0,0.35999970196000003,0.06912730221207361,1024,0.0,99,Assisted_Takeoff,
0.0606053399812375,36.9419005452096,6700,2017-11-03 06:45:27,1794.7372400315949,0.0,0.0,0.0696677022293664,1794.7372400315949,0.0,0.35999970196000003,0.0696677022293664,1024,0.0,99,Assisted_Takeoff,
0.0606053686865323,36.9419005550624,6800,2017-11-03 06:45:27,1794.7372400315949,0.0,0.0,0.069103002211296,1794.7372400315949,0.0,0.35999970196000003,0.0696677022293664,1024,0.0,99,Assisted_Takeoff,
0.0606053823134534,36.9419005498273,6900,2017-11-03 06:45:27,1794.7372400315949,0.0,0.0,0.0699697022390304,1794.7372400315949,0.0,0.35999970196000003,0.0699697022390304,1024,0.0,99,Assisted_Takeoff,
0.0606053954366765,36.9419005894689,7000,2017-11-03 06:45:27,1794.7372400315949,0.0,0.0,0.0659949021118368,1794.7372400315949,0.0,0.35999970196000003,0.0699697022390304,1024,0.0,99,Assisted_Takeoff,
0.0606054000099579,36.9419006149253,7100,2017-11-03 06:45:27,1794.7372400315949,0.0,0.0,0.0633787020281184,1794.7372400315949,0.0,0.35999970196000003,0.0699697022390304,1024,0.0,99,Assisted_Takeoff,
0.0606054023766977,36.9419006615593,7200,2017-11-03 06:45:28,1794.7372400315949,0.0,0.0,0.0584564018706048,1794.7372400315949,0.0,0.35999970196000003,0.0699697022390304,1024,0.0,99,Assisted_Takeoff,
0.0606054002259303,36.9419006792643,7300,2017-11-03 06:45:28,1794.7372400315949,0.0,0.0,0.056501401808044804,1794.7372400315949,0.0,0.35999970196000003,0.0699697022390304,1024,0.0,99,Assisted_Takeoff,
0.0606053971906125,36.9419007118534,7400,2017-11-03 06:45:28,1794.7372400315949,0.0,0.0,0.0529393016940576,1794.7372400315949,0.0,0.35999970196000003,0.0699697022390304,1024,0.0,99,Assisted_Takeoff,
0.0606053909218155,36.9419007235421,7500,2017-11-03 06:45:28,1794.7372400315949,0.0,0.0,0.0514903016476896,1794.7372400315949,0.0,0.35999970196000003,0.0699697022390304,1024,0.0,99,Assisted_Takeoff,
0.0606053858824938,36.9419007445303,7600,2017-11-03 06:45:28,1794.7372400315949,0.0,0.0,0.0490954015710528,1794.7372400315949,0.0,0.35999970196000003,0.0699697022390304,1024,0.0,99,Assisted_Takeoff,
0.0606053793653591,36.9419007453823,7700,2017-11-03 06:45:28,1794.7372400315949,0.0,0.0,0.04879210156134721,1794.7372400315949,0.0,0.35999970196000003,0.0699697022390304,1024,0.0,99,Assisted_Takeoff,
0.0606053753895131,36.9419007575672,7800,2017-11-03 06:45:28,1794.7372400315949,0.0,0.0,0.0473672015157504,1794.7372400315949,0.0,0.35999970196000003,0.0699697022390304,1024,0.0,99,Assisted_Takeoff,
0.0606053686295368,36.9419007494561,7900,2017-11-03 06:45:28,1794.7372400315949,0.0,0.0,0.0480262015368384,1794.7372400315949,0.0,0.35999970196000003,0.0699697022390304,1024,0.0,99,Assisted_Takeoff,
0.0606053643363477,36.941900749674,8000,2017-11-03 06:45:28,1794.7372400315949,0.0,0.0,0.0478776015320832,1794.7372400315949,0.0,0.35999970196000003,0.0699697022390304,1024,0.0,99,Assisted_Takeoff,
0.060605357317347,36.9419007430348,8100,2017-11-03 06:45:28,1794.7372400315949,0.0,0.0,0.0483992015487744,1794.7372400315949,0.0,0.35999970196000003,0.0699697022390304,1024,0.0,99,Assisted_Takeoff,
0.0606053554373084,36.9419007453967,8200,2017-11-03 06:45:29,1794.7372400315949,0.0,0.0,0.0480944015390208,1794.7372400315949,0.0,0.35999970196000003,0.0699697022390304,1024,0.0,99,Assisted_Takeoff,
0.0606053502213005,36.9419007362156,8300,2017-11-03 06:45:29,1794.7372400315949,0.0,0.0,0.0489564015666048,1794.7372400315949,0.0,0.35999970196000003,0.0699697022390304,1024,0.0,99,Assisted_Takeoff,
0.0606053491600639,36.9419007403363,8400,2017-11-03 06:45:29,1794.7372400315949,0.0,0.0,0.048483501551472005,1794.7372400315949,0.0,0.35999970196000003,0.0699697022390304,1024,0.0,99,Assisted_Takeoff,
0.0606053439356084,36.9419007300633,8500,2017-11-03 06:45:29,1794.7372400315949,0.0,0.0,0.0494772015832704,1794.7372400315949,0.0,0.35999970196000003,0.0699697022390304,1024,0.0,99,Assisted_Takeoff,
0.0606053430810824,36.9419007333666,8600,2017-11-03 06:45:29,1794.7372400315949,0.0,0.0,0.0490982015711424,1794.7372400315949,0.0,0.35999970196000003,0.0699697022390304,1024,0.0,99,Assisted_Takeoff,
0.0606053360327697,36.9419007262655,8700,2017-11-03 06:45:29,1794.7372400315949,0.0,0.0,0.049721001591072005,1794.7372400315949,0.0,0.35999970196000003,0.0699697022390304,1024,0.0,99,Assisted_Takeoff,
0.0606053544798851,36.9419007320554,8800,2017-11-03 06:45:29,1794.7372400315949,0.0,0.0,0.049513201584422406,1794.7372400315949,0.0,0.35999970196000003,0.0699697022390304,1024,0.0,99,Assisted_Takeoff,
0.0606053752391874,36.9419007287822,8900,2017-11-03 06:45:29,1794.7372400315949,0.0,0.0,0.0504381016140192,1794.7372400315949,0.0,0.35999970196000003,0.0699697022390304,1024,0.0,99,Assisted_Takeoff,
0.0606053831894545,36.9419007376673,9000,2017-11-03 06:45:29,1794.7372400315949,0.0,0.0,0.04973630159156161,1794.7372400315949,0.0,0.35999970196000003,0.0699697022390304,1024,0.0,99,Assisted_Takeoff,
0.0606053633045249,36.9419007358838,9100,2017-11-03 06:45:29,1794.7372400315949,0.0,0.0,0.049332501578640005,1794.7372400315949,0.0,0.35999970196000003,0.0699697022390304,1024,0.0,99,Assisted_Takeoff,
0.0606053680718965,36.9419007451371,9200,2017-11-03 06:45:30,1794.7372400315949,0.0,0.0,0.048472901551132805,1794.7372400315949,0.0,0.35999970196000003,0.0699697022390304,1024,0.0,99,Assisted_Takeoff,
0.0606053812529293,36.9419007424969,9300,2017-11-03 06:45:30,1794.7372400315949,0.0,0.0,0.0491598015731136,1794.7372400315949,0.0,0.35999970196000003,0.0699697022390304,1024,0.0,99,Assisted_Takeoff,
0.0606054027480847,36.9419007510307,9400,2017-11-03 06:45:30,1794.7372400315949,0.0,0.0,0.049009501568304005,1794.7372400315949,0.0,0.35999970196000003,0.0699697022390304,1025,0.0,99,Assisted_Takeoff,
0.0606054088624848,36.9419007478055,9500,2017-11-03 06:45:30,1794.7372400315949,0.0,0.0,0.04958000158656,1794.7372400315949,0.0,0.35999970196000003,0.0699697022390304,1057,0.0,99,Assisted_Takeoff,
0.0606054223189282,36.9419007753746,9600,2017-11-03 06:45:30,1794.7372400315949,0.0,0.0,0.0472928015133696,1794.7372400315949,0.0,0.35999970196000003,0.0699697022390304,1149,0.0,99,Assisted_Takeoff,
0.0606054240195326,36.941900801556,9700,2017-11-03 06:45:30,1794.7372400315949,0.0,0.0,0.044715501430896004,1794.7372400315949,0.0,0.35999970196000003,0.0699697022390304,1248,0.0,99,Assisted_Takeoff,
0.0606054315942399,36.9419008178694,9800,2017-11-03 06:45:30,1794.7372400315949,0.0,0.0,0.0434571013906272,1794.7372400315949,0.0,0.35999970196000003,0.0699697022390304,1475,0.0,99,Assisted_Takeoff,
0.0606054306766117,36.9419007995106,9900,2017-11-03 06:45:30,1794.7372400315949,0.0,0.0,0.045239201447654406,1794.7372400315949,0.0,0.35999970196000003,0.0699697022390304,1578,0.0,99,Assisted_Takeoff,
0.0606054351378358,36.9419008092423,10000,2017-11-03 06:45:30,1794.7372400315949,0.0,0.0,0.0444907014237024,1794.7372400315949,0.0,0.35999970196000003,0.0699697022390304,1636,0.0,99,Assisted_Takeoff,
0.0606054309384859,36.9419008211002,10100,2017-11-03 06:45:30,1794.7372400315949,0.0,0.0,0.043104201379334406,1794.7372400315949,0.0,0.35999970196000003,0.0699697022390304,1684,0.0,99,Assisted_Takeoff,
0.0606054531994171,36.9419008399886,10200,2017-11-03 06:45:31,1794.7372400315949,0.0,0.0,0.0424884013596288,1794.7372400315949,0.0,0.35999970196000003,0.0699697022390304,1684,0.0,99,Assisted_Takeoff,
0.0606054931370061,36.9419008030337,10300,2017-11-03 06:45:31,1794.7372400315949,0.0,0.35999970196000003,0.0483413015469216,1794.7372400315949,0.0,0.35999970196000003,0.0699697022390304,1684,0.0,99,Assisted_Takeoff,
0.0606056073613605,36.9419007162399,10400,2017-11-03 06:45:31,1794.7372400315949,0.0,0.5075995797636,0.0636166020357312,1794.7372400315949,0.0,0.5075995797636,0.0699697022390304,1684,0.0,99,GPS_Atti,
0.0606057917070732,36.9419005919192,10500,2017-11-03 06:45:31,1794.7372400315949,0.0,0.8063993323904,0.08748800279961601,1794.7372400315949,0.0,0.8063993323904,0.08748800279961601,1684,0.0,99,GPS_Atti,
0.0606060748110442,36.9419004609797,10600,2017-11-03 06:45:31,1794.8372400347948,0.1000000032,1.1375990581936,0.120352003851264,1794.8372400347948,0.1000000032,1.1375990581936,0.120352003851264,1684,0.0,99,GPS_Atti,
0.0606063998515448,36.9419002963646,10700,2017-11-03 06:45:31,1794.937240037995,0.2000000064,1.2995989240756,0.159996005119872,1794.937240037995,0.2000000064,1.2995989240756,0.159996005119872,1684,0.0,99,GPS_Atti,Home Point Recorded. RTH Altitude:  30m.
0.0606067623430513,36.9419000885557,10800,2017-11-03 06:45:31,1795.0372400411948,0.3000000096,1.7999985098000002,0.206166006597312,1795.0372400411948,0.3000000096,1.7999985098000002,0.206166006597312,1684,0.0,99,GPS_Atti,
0.0606071513778641,36.9418998536881,10900,2017-11-03 06:45:31,1795.2372400475947,0.500000016,1.7999985098000002,0.25658200821062405,1795.2372400475947,0.500000016,1.7999985098000002,0.25658200821062405,1684,0.0,99,GPS_Atti,
0.0606076227985595,36.9418996761659,11000,2017-11-03 06:45:31,1795.5372400571948,0.8000000256,1.4831987720752,0.311228009959296,1795.5372400571948,0.8000000256,1.7999985098000002,0.311228009959296,1684,0.0,99,GPS_Atti,
0.0606080931093685,36.9418996041539,11100,2017-11-03 06:45:31,1795.837240066795,1.1000000352000001,1.4399988078400001,0.360384011532288,1795.837240066795,1.1000000352000001,1.7999985098000002,0.360384011532288,1684,0.0,99,GPS_Atti,
0.0606085441546672,36.9418996722684,11200,2017-11-03 06:45:32,1796.2372400795948,1.5000000480000002,1.4399988078400001,0.40186901285980803,1796.2372400795948,1.5000000480000002,1.7999985098000002,0.40186901285980803,1684,0.0,99,GPS_Atti,
0.0606088988574532,36.9418997554369,11300,2017-11-03 06:45:32,1796.637240092395,1.9000000608000003,1.07999910588,0.43467001390944,1796.637240092395,1.9000000608000003,1.7999985098000002,0.43467001390944,1684,0.0,99,GPS_Atti,
0.0606091176374793,36.9418998285554,11400,2017-11-03 06:45:32,1797.0372401051948,2.3000000736,0.5075995797636,0.454721014551072,1797.0372401051948,2.3000000736,1.7999985098000002,0.454721014551072,1684,0.0,99,GPS_Atti,
0.0606092568216055,36.9418998247823,11500,2017-11-03 06:45:32,1797.5372401211946,2.8000000896,0.8063993323904,0.46950901502428805,1797.5372401211946,2.8000000896,1.7999985098000002,0.46950901502428805,1684,0.0,99,GPS_Atti,
0.0606094049845648,36.9418997963296,11600,2017-11-03 06:45:32,1798.0372401371949,3.3000001056,0.8063993323904,0.486143015556576,1798.0372401371949,3.3000001056,1.7999985098000002,0.486143015556576,1684,0.0,99,GPS_Atti,
0.0606095835196331,36.9418997197328,11700,2017-11-03 06:45:32,1798.5372401531947,3.8000001216000006,0.8063993323904,0.5076690162454081,1798.5372401531947,3.8000001216000006,1.7999985098000002,0.5076690162454081,1684,0.0,99,GPS_Atti,
0.0606098093778946,36.9418996477468,11800,2017-11-03 06:45:32,1799.0372401691948,4.3000001376,0.8063993323904,0.534029017088928,1799.0372401691948,4.3000001376,1.7999985098000002,0.534029017088928,1684,0.0,99,GPS_Atti,
0.060610072193489,36.9418995669867,11900,2017-11-03 06:45:32,1799.5372401851948,4.8000001536,0.7199994039200001,0.564596018067072,1799.5372401851948,4.8000001536,1.7999985098000002,0.564596018067072,1684,0.0,99,GPS_Atti,
0.0606103735439715,36.9418994886892,12000,2017-11-03 06:45:32,1800.037240201195,5.3000001696000005,0.7199994039200001,0.5991490191727681,1800.037240201195,5.3000001696000005,1.7999985098000002,0.5991490191727681,1684,0.0,99,GPS_Atti,
0.0606106845531625,36.9418994023104,12100,2017-11-03 06:45:32,1800.5372402171947,5.8000001856,0.7199994039200001,0.635009020320288,1800.5372402171947,5.8000001856,1.7999985098000002,0.635009020320288,1684,0.0,99,GPS_Atti,
0.0606110266395787,36.9418993209075,12200,2017-11-03 06:45:33,1801.0372402331948,6.3000002016,0.7199994039200001,0.6739950215678401,1801.0372402331948,6.3000002016,1.7999985098000002,0.6739950215678401,1684,0.0,99,GPS_Atti,
0.0606113558905993,36.9418992225029,12300,2017-11-03 06:45:33,1801.5372402491948,6.800000217600001,0.7199994039200001,0.7122040227905281,1801.5372402491948,6.800000217600001,1.7999985098000002,0.7122040227905281,1684,0.0,99,GPS_Atti,
0.0606116886073559,36.9418991239581,12400,2017-11-03 06:45:33,1802.0372402651947,7.3000002336000005,0.7199994039200001,0.75078502402512,1802.0372402651947,7.3000002336000005,1.7999985098000002,0.75078502402512,1684,0.0,99,GPS_Atti,
0.0606119935929325,36.94189898166,12500,2017-11-03 06:45:33,1802.5372402811947,7.8000002496,0.8063993323904,0.787914025213248,1802.5372402811947,7.8000002496,1.7999985098000002,0.787914025213248,1684,0.0,99,GPS_Atti,
0.0606123248672948,36.9418988370958,12600,2017-11-03 06:45:33,1803.0372402971948,8.300000265600001,1.1375990581936,0.8279240264935681,1803.0372402971948,8.300000265600001,1.7999985098000002,0.8279240264935681,1684,0.0,99,GPS_Atti,
0.0606126652112759,36.9418986964015,12700,2017-11-03 06:45:33,1803.5372403131948,8.800000281600001,1.07999910588,0.8687730278007361,1803.5372403131948,8.800000281600001,1.7999985098000002,0.8687730278007361,1684,0.0,99,GPS_Atti,
0.0606130286331583,36.9418985788473,12800,2017-11-03 06:45:33,1804.0372403291947,9.3000002976,0.7199994039200001,0.9112470291599041,1804.0372403291947,9.3000002976,1.7999985098000002,0.9112470291599041,1684,0.0,99,GPS_Atti,
0.0606133648140223,36.9418984432912,12900,2017-11-03 06:45:33,1804.537240345195,9.8000003136,0.7199994039200001,0.9514830304474561,1804.537240345195,9.8000003136,1.7999985098000002,0.9514830304474561,1684,0.0,99,GPS_Atti,
0.0606137013189467,36.9418982960827,13000,2017-11-03 06:45:33,1805.0372403611948,10.3000003296,0.8063993323904,0.9921750317496001,1805.0372403611948,10.3000003296,1.7999985098000002,0.9921750317496001,1684,0.0,99,GPS_Atti,
0.0606140178290215,36.9418981303856,13100,2017-11-03 06:45:33,1805.5372403771948,10.8000003456,1.07999910588,1.0314500330064,1805.5372403771948,10.8000003456,1.7999985098000002,1.0314500330064,1684,0.0,99,GPS_Atti,
0.060614330802116,36.9418979814741,13200,2017-11-03 06:45:34,1806.037240393195,11.3000003616,1.07999910588,1.0697600342323201,1806.037240393195,11.3000003616,1.7999985098000002,1.0697600342323201,1684,0.0,99,GPS_Atti,
0.060614617740462,36.9418978346315,13300,2017-11-03 06:45:34,1806.5372404091947,11.8000003776,0.7199994039200001,1.10529003536928,1806.5372404091947,11.8000003776,1.7999985098000002,1.10529003536928,1684,0.0,99,GPS_Atti,
0.0606149209860462,36.9418977120159,13400,2017-11-03 06:45:34,1807.0372404251948,12.300000393600001,0.7199994039200001,1.14163003653216,1807.0372404251948,12.300000393600001,1.7999985098000002,1.14163003653216,1684,0.0,99,GPS_Atti,
0.0606152297219294,36.9418975893205,13500,2017-11-03 06:45:34,1807.5372404411946,12.8000004096,0.7199994039200001,1.17856003771392,1807.5372404411946,12.8000004096,1.7999985098000002,1.17856003771392,1684,0.0,99,GPS_Atti,
0.0606155537505301,36.9418974732857,13600,2017-11-03 06:45:34,1808.037240457195,13.3000004256,1.07999910588,1.21683003893856,1808.037240457195,13.3000004256,1.7999985098000002,1.21683003893856,1684,0.0,99,GPS_Atti,
0.0606158688715422,36.9418973327156,13700,2017-11-03 06:45:34,1808.5372404731947,13.800000441600002,1.07999910588,1.2551000401632,1808.5372404731947,13.800000441600002,1.7999985098000002,1.2551000401632,1684,0.0,99,GPS_Atti,
0.0606161854500116,36.941897198863,13800,2017-11-03 06:45:34,1809.0372404891948,14.300000457600001,1.07999910588,1.29327004138464,1809.0372404891948,14.300000457600001,1.7999985098000002,1.29327004138464,1684,0.0,99,GPS_Atti,
0.0606164740395998,36.94189705192,13900,2017-11-03 06:45:34,1809.5372405051949,14.8000004736,0.7199994039200001,1.32902004252864,1809.5372405051949,14.8000004736,1.7999985098000002,1.32902004252864,1684,0.0,99,GPS_Atti,
0.0606167465043356,36.9418969076604,14000,2017-11-03 06:45:34,1810.037240521195,15.3000004896,0.8063993323904,1.36299004361568,1810.037240521195,15.3000004896,1.7999985098000002,1.36299004361568,1684,0.0,99,GPS_Atti,
0.060617001061887,36.941896754849,14100,2017-11-03 06:45:34,1810.637240540395,15.900000508800002,0.8063993323904,1.39546004465472,1810.637240540395,15.900000508800002,1.7999985098000002,1.39546004465472,1684,0.0,99,GPS_Atti,
0.0606172414405765,36.9418966103127,14200,2017-11-03 06:45:35,1811.1372405563948,16.400000524800003,0.8063993323904,1.4261400456364801,1811.1372405563948,16.400000524800003,1.7999985098000002,1.4261400456364801,1684,0.0,99,GPS_Atti,
0.0606176760747219,36.9418963430089,14400,2017-11-03 06:45:35,1812.1372405883947,17.400000556800002,0.8063993323904,1.4819200474214402,1812.1372405883947,17.400000556800002,1.7999985098000002,1.4819200474214402,1684,0.0,99,GPS_Atti,
0.0606178868743547,36.9418962208197,14500,2017-11-03 06:45:35,1812.7372406075947,18.000000576,0.7199994039200001,1.5087000482784,1812.7372406075947,18.000000576,1.7999985098000002,1.5087000482784,1684,0.0,99,GPS_Atti,
0.0606184569095473,36.9418959413661,14800,2017-11-03 06:45:35,1814.2372406555949,19.500000624000002,0.35999970196000003,1.57907005053024,1814.2372406555949,19.500000624000002,1.7999985098000002,1.57907005053024,1684,0.0,99,GPS_Atti,
0.0606186124764308,36.9418958635478,14900,2017-11-03 06:45:35,1814.7372406715947,20.00000064,0.35999970196000003,1.59834005114688,1814.7372406715947,20.00000064,1.7999985098000002,1.59834005114688,1684,0.0,99,GPS_Atti,
0.0606187756294206,36.9418957950756,15000,2017-11-03 06:45:35,1815.337240690795,20.6000006592,0.35999970196000003,1.61801005177632,1815.337240690795,20.6000006592,1.7999985098000002,1.61801005177632,1684,0.0,99,GPS_Atti,
0.0606189275876722,36.9418957207142,15100,2017-11-03 06:45:35,1815.8372407067948,21.1000006752,0.35999970196000003,1.6367700523766402,1815.8372407067948,21.1000006752,1.7999985098000002,1.6367700523766402,1684,0.0,99,GPS_Atti,
0.060619229804894,36.941895640994,15300,2017-11-03 06:45:36,1816.837240738795,22.1000007072,0.35999970196000003,1.6712800534809602,1816.837240738795,22.1000007072,1.7999985098000002,1.6712800534809602,1684,0.0,99,GPS_Atti,
0.0606193731942733,36.9418956271242,15400,2017-11-03 06:45:36,1817.4372407579947,22.7000007264,0.35999970196000003,1.6866800539737603,1817.4372407579947,22.7000007264,1.7999985098000002,1.6866800539737603,1684,0.0,99,GPS_Atti,
0.0606195052040859,36.9418956120323,15500,2017-11-03 06:45:36,1817.937240773995,23.2000007424,0.35999970196000003,1.70097005443104,1817.937240773995,23.2000007424,1.7999985098000002,1.70097005443104,1684,0.0,99,GPS_Atti,
0.0606196129378696,36.9418956009428,15600,2017-11-03 06:45:36,1818.5372407931948,23.8000007616,0.0,1.71258005480256,1818.5372407931948,23.8000007616,1.7999985098000002,1.71258005480256,1684,0.0,99,GPS_Atti,
0.0606196884968569,36.941895579602,15700,2017-11-03 06:45:36,1819.037240809195,24.3000007776,0.0,1.7212700550806401,1819.037240809195,24.3000007776,1.7999985098000002,1.7212700550806401,1684,0.0,99,GPS_Atti,
0.0606197369430658,36.9418955796679,15800,2017-11-03 06:45:36,1819.6372408283949,24.9000007968,0.0,1.72629005524128,1819.6372408283949,24.9000007968,1.7999985098000002,1.72629005524128,1684,0.0,99,GPS_Atti,
0.0606197666931092,36.9418955938192,15900,2017-11-03 06:45:36,1820.1372408443947,25.400000812800002,0.0,1.7288200553222401,1820.1372408443947,25.400000812800002,1.7999985098000002,1.7288200553222401,1684,0.0,99,GPS_Atti,
0.0606197645020378,36.9418956274561,16000,2017-11-03 06:45:36,1820.637240860395,25.9000008288,0.0,1.727250055272,1820.637240860395,25.9000008288,1.7999985098000002,1.7288200553222401,1684,0.0,99,GPS_Atti,
0.0606197398498383,36.9418956554173,16100,2017-11-03 06:45:36,1821.1372408763948,26.4000008448,0.0,1.72358005515456,1821.1372408763948,26.4000008448,1.7999985098000002,1.7288200553222401,1684,0.0,99,GPS_Atti,
0.0606196716310624,36.9418956969207,16200,2017-11-03 06:45:37,1821.7372408955948,27.000000864,0.0,1.7148500548752001,1821.7372408955948,27.000000864,1.7999985098000002,1.7288200553222401,1684,0.0,99,GPS_Atti,
0.0606196023350708,36.9418957320157,16300,2017-11-03 06:45:37,1822.2372409115949,27.50000088,0.0,1.7062600546003202,1822.2372409115949,27.50000088,1.7999985098000002,1.7288200553222401,1684,0.0,99,GPS_Atti,
0.0606195408100139,36.9418957867749,16400,2017-11-03 06:45:37,1822.7372409275947,28.000000896,0.0,1.6977100543267203,1822.7372409275947,28.000000896,1.7999985098000002,1.7288200553222401,1684,0.0,99,GPS_Atti,
0.0606195067551788,36.9418958365041,16500,2017-11-03 06:45:37,1823.337240946795,28.600000915200003,0.0,1.6922200541510402,1823.337240946795,28.600000915200003,1.7999985098000002,1.7288200553222401,1684,0.0,99,GPS_Atti,
0.0606194557140444,36.9418959014621,16600,2017-11-03 06:45:37,1823.8372409627948,29.1000009312,0.0,1.68438005390016,1823.8372409627948,29.1000009312,1.7999985098000002,1.7288200553222401,1684,0.0,99,GPS_Atti,
0.0606193970526063,36.9418959574091,16700,2017-11-03 06:45:37,1824.3372409787946,29.6000009472,0.0,1.6761100536355202,1824.3372409787946,29.6000009472,1.7999985098000002,1.7288200553222401,1684,0.0,99,GPS_Atti,
0.0606193063034935,36.9418960247037,16800,2017-11-03 06:45:37,1824.9372409979949,30.2000009664,0.0,1.6640600532499201,1824.9372409979949,30.2000009664,1.7999985098000002,1.7288200553222401,1684,-0.4,99,GPS_Atti,
0.0606192387458658,36.9418960797434,16900,2017-11-03 06:45:37,1825.4372410139947,30.700000982400002,0.0,1.6549000529568,1825.4372410139947,30.700000982400002,1.7999985098000002,1.7288200553222401,1684,-0.4,99,GPS_Atti,
0.0606191904006204,36.941896165461,17000,2017-11-03 06:45:37,1826.037241033195,31.300001001600002,0.0,1.6466100526915202,1826.037241033195,31.300001001600002,1.7999985098000002,1.7288200553222401,1684,-1.5,99,GPS_Atti,
0.0606191539218465,36.941896228932,17100,2017-11-03 06:45:37,1826.5372410491948,31.800001017600003,0.0,1.64041005249312,1826.5372410491948,31.800001017600003,1.7999985098000002,1.7288200553222401,1684,-2.7,99,GPS_Atti,
0.0606190888573666,36.9418962780011,17200,2017-11-03 06:45:38,1827.0372410651946,32.3000010336,0.0,1.63177005221664,1827.0372410651946,32.3000010336,1.7999985098000002,1.7288200553222401,1684,-3.9,99,GPS_Atti,
0.0606190493553863,36.9418962856156,17300,2017-11-03 06:45:38,1827.6372410843949,32.9000010528,0.0,1.6273500520752,1827.6372410843949,32.9000010528,1.7999985098000002,1.7288200553222401,1684,-5.1,99,GPS_Atti,
0.0606190047156652,36.9418962974609,17400,2017-11-03 06:45:38,1828.1372411003947,33.4000010688,0.0,1.6222300519113602,1828.1372411003947,33.4000010688,1.7999985098000002,1.7288200553222401,1684,-5.9,99,GPS_Atti,
0.0606189753686617,36.9418962737574,17500,2017-11-03 06:45:38,1828.737241119595,34.000001088,0.0,1.62003005184096,1828.737241119595,34.000001088,1.7999985098000002,1.7288200553222401,1684,-5.9,99,GPS_Atti,
0.0606189264037934,36.9418962614378,17600,2017-11-03 06:45:38,1829.2372411355948,34.500001104,0.35999970196000003,1.6153700516918401,1829.2372411355948,34.500001104,1.7999985098000002,1.7288200553222401,1684,-5.9,99,GPS_Atti,
0.0606188924556214,36.9418962140617,17700,2017-11-03 06:45:38,1829.8372411547948,35.1000011232,0.35999970196000003,1.6136000516352,1829.8372411547948,35.1000011232,1.7999985098000002,1.7288200553222401,1684,-5.9,99,GPS_Atti,
0.0606188645074513,36.9418962030771,17800,2017-11-03 06:45:38,1830.3372411707949,35.6000011392,0.0,1.6111000515552,1830.3372411707949,35.6000011392,1.7999985098000002,1.7288200553222401,1684,-5.9,99,GPS_Atti,
0.0606188763584525,36.9418962010296,17900,2017-11-03 06:45:38,1830.937241189995,36.2000011584,0.0,1.61242005159744,1830.937241189995,36.2000011584,1.7999985098000002,1.7288200553222401,1684,-5.9,99,GPS_Atti,
0.0606188974028343,36.9418962666536,18000,2017-11-03 06:45:38,1831.437241205995,36.7000011744,0.0,1.61214005158848,1831.437241205995,36.7000011744,1.7999985098000002,1.7288200553222401,1684,-6.1,99,GPS_Atti,
0.0606189296924361,36.9418963306058,18100,2017-11-03 06:45:38,1831.9372412219948,37.2000011904,0.0,1.61313005162016,1831.9372412219948,37.2000011904,1.7999985098000002,1.7288200553222401,1684,-6.4,99,GPS_Atti,
0.0606189402480101,36.9418964407629,18200,2017-11-03 06:45:39,1832.5372412411948,37.800001209600005,0.0,1.6102000515264001,1832.5372412411948,37.800001209600005,1.7999985098000002,1.7288200553222401,1684,-6.8,99,GPS_Atti,
0.0606189459907178,36.9418965333133,18300,2017-11-03 06:45:39,1833.0372412571949,38.3000012256,0.0,1.6074800514393601,1833.0372412571949,38.3000012256,1.7999985098000002,1.7288200553222401,1684,-6.8,99,GPS_Atti,
0.0606189279076615,36.9418966485326,18400,2017-11-03 06:45:39,1833.5372412731947,38.8000012416,0.0,1.60151005124832,1833.5372412731947,38.8000012416,1.7999985098000002,1.7288200553222401,1684,-7.2,99,GPS_Atti,
0.0606189171477177,36.941896737494,18500,2017-11-03 06:45:39,1834.037241289195,39.3000012576,0.0,1.5972900511132802,1834.037241289195,39.3000012576,1.7999985098000002,1.7288200553222401,1684,-7.6,99,GPS_Atti,
0.0606188999668194,36.9418968528492,18600,2017-11-03 06:45:39,1834.5372413051948,39.800001273599996,0.0,1.5915600509299201,1834.5372413051948,39.800001273599996,1.7999985098000002,1.7288200553222401,1684,-8.0,99,GPS_Atti,
0.060618917141204,36.9418969559667,18700,2017-11-03 06:45:39,1835.1372413243948,40.400001292800006,0.0,1.5899700508790402,1835.1372413243948,40.400001292800006,1.7999985098000002,1.7288200553222401,1684,-8.4,99,GPS_Atti,
0.0606189471811104,36.9418970657282,18800,2017-11-03 06:45:39,1835.637241340395,40.9000013088,0.0,1.5896200508678402,1835.637241340395,40.9000013088,1.7999985098000002,1.7288200553222401,1684,-8.7,99,GPS_Atti,
0.0606189916604297,36.9418971267503,18900,2017-11-03 06:45:39,1836.1372413563947,41.4000013248,0.0,1.59243005095776,1836.1372413563947,41.4000013248,1.7999985098000002,1.7288200553222401,1684,-9.1,99,GPS_Atti,
0.060619004744163,36.9418971757943,19000,2017-11-03 06:45:39,1836.6372413723948,41.9000013408,0.0,1.5923000509536,1836.6372413723948,41.9000013408,1.7999985098000002,1.7288200553222401,1684,-9.5,99,GPS_Atti,
0.0606190150570988,36.9418971947905,19100,2017-11-03 06:45:39,1837.1372413883948,42.400001356800004,0.0,1.5928100509699201,1837.1372413883948,42.400001356800004,1.7999985098000002,1.7288200553222401,1684,-9.9,99,GPS_Atti,
0.0606190285300302,36.9418972190165,19200,2017-11-03 06:45:40,1837.7372414075946,43.000001376,0.0,1.5935100509923201,1837.7372414075946,43.000001376,1.7999985098000002,1.7288200553222401,1684,-10.2,99,GPS_Atti,
0.0606190771757235,36.9418972191327,19300,2017-11-03 06:45:40,1838.237241423595,43.500001392,0.0,1.5987000511584,1838.237241423595,43.500001392,1.7999985098000002,1.7288200553222401,1684,-10.6,99,GPS_Atti,
0.0606191228543919,36.9418972458397,19400,2017-11-03 06:45:40,1838.7372414395948,44.000001407999996,0.0,1.60278005128896,1838.7372414395948,44.000001407999996,1.7999985098000002,1.7288200553222401,1684,-11.0,99,GPS_Atti,
0.0606191701655753,36.9418972823521,19500,2017-11-03 06:45:40,1839.2372414555948,44.500001424,0.0,1.6067500514160002,1839.2372414555948,44.500001424,1.7999985098000002,1.7288200553222401,1684,-11.3,99,GPS_Atti,
0.0606191823504075,36.9418973602333,19600,2017-11-03 06:45:40,1839.7372414715949,45.00000144,0.0,1.605750051384,1839.7372414715949,45.00000144,1.7999985098000002,1.7288200553222401,1684,-11.3,99,GPS_Atti,
0.0606191904266755,36.9418974103406,19700,2017-11-03 06:45:40,1840.237241487595,45.50000145600001,0.0,1.6051600513651203,1840.237241487595,45.50000145600001,1.7999985098000002,1.7288200553222401,1684,-11.3,99,GPS_Atti,
0.0606192049011,36.9418974545933,19800,2017-11-03 06:45:40,1840.7372415035948,46.00000147200001,0.0,1.60544005137408,1840.7372415035948,46.00000147200001,1.7999985098000002,1.7288200553222401,1684,-11.3,99,GPS_Atti,
0.0606192328614834,36.9418974678181,19900,2017-11-03 06:45:40,1841.2372415195946,46.500001487999995,0.0,1.60807005145824,1841.2372415195946,46.500001487999995,1.7999985098000002,1.7288200553222401,1684,-11.3,99,GPS_Atti,
0.0606192529817232,36.9418974988582,20000,2017-11-03 06:45:40,1841.8372415387948,47.100001507200005,0.0,1.6093500514992,1841.8372415387948,47.100001507200005,1.7999985098000002,1.7288200553222401,1684,-11.3,99,GPS_Atti,
0.0606192823303552,36.9418974963504,20100,2017-11-03 06:45:40,1842.3372415547947,47.6000015232,0.0,1.6125800516025601,1842.3372415547947,47.6000015232,1.7999985098000002,1.7288200553222401,1684,-11.2,99,GPS_Atti,
0.0606192942017119,36.9418975096753,20200,2017-11-03 06:45:41,1842.837241570795,48.1000015392,0.0,1.61348005163136,1842.837241570795,48.1000015392,1.7999985098000002,1.7288200553222401,1684,-11.3,99,GPS_Atti,
0.0606192969562249,36.9418975133634,20300,2017-11-03 06:45:41,1843.3372415867948,48.6000015552,0.0,1.61368005163776,1843.3372415867948,48.6000015552,1.7999985098000002,1.7288200553222401,1684,-11.3,99,GPS_Atti,
0.0606193055153266,36.9418975455266,20400,2017-11-03 06:45:41,1843.8372416027948,49.1000015712,0.0,1.6137000516384,1843.8372416027948,49.1000015712,1.7999985098000002,1.7288200553222401,1684,-11.2,99,GPS_Atti,
0.060619322135226,36.941897559208,20500,2017-11-03 06:45:41,1844.337241618795,49.600001587200005,0.0,1.6151100516835202,1844.337241618795,49.600001587200005,1.7999985098000002,1.7288200553222401,1684,-11.3,99,GPS_Atti,
0.0606193127195628,36.9418975762553,20600,2017-11-03 06:45:41,1844.8372416347947,50.1000016032,0.0,1.6136300516361601,1844.8372416347947,50.1000016032,1.7999985098000002,1.7288200553222401,1684,-11.3,99,GPS_Atti,
0.0606192742003485,36.9418975540869,20700,2017-11-03 06:45:41,1845.3372416507948,50.6000016192,0.0,1.6100900515228802,1845.3372416507948,50.6000016192,1.7999985098000002,1.7288200553222401,1684,-11.3,99,GPS_Atti,
0.0606192013804041,36.9418974760973,20800,2017-11-03 06:45:41,1845.8372416667949,51.1000016352,0.35999970196000003,1.6044500513424,1845.8372416667949,51.1000016352,1.7999985098000002,1.7288200553222401,1684,-11.3,99,GPS_Atti,
0.0606191041525268,36.9418973302993,20900,2017-11-03 06:45:41,1846.337241682795,51.6000016512,0.35999970196000003,1.5982500511440003,1846.337241682795,51.6000016512,1.7999985098000002,1.7288200553222401,1684,-11.3,99,GPS_Atti,
0.0606190175844439,36.9418971974686,21000,2017-11-03 06:45:41,1846.8372416987947,52.1000016672,0.35999970196000003,1.593000050976,1846.8372416987947,52.1000016672,1.7999985098000002,1.7288200553222401,1684,-11.3,99,GPS_Atti,
0.0606189644906558,36.9418971098476,21100,2017-11-03 06:45:41,1847.3372417147948,52.6000016832,0.0,1.5900600508819203,1847.3372417147948,52.6000016832,1.7999985098000002,1.7288200553222401,1684,-11.3,99,GPS_Atti,
0.0606189193762434,36.9418970947557,21200,2017-11-03 06:45:42,1847.8372417307949,53.1000016992,0.0,1.58573005074336,1847.8372417307949,53.1000016992,1.7999985098000002,1.7288200553222401,1684,-11.3,99,GPS_Atti,
0.060618859114859,36.9418971233411,21300,2017-11-03 06:45:42,1848.337241746795,53.6000017152,0.0,1.5784000505088,1848.337241746795,53.6000017152,1.7999985098000002,1.7288200553222401,1684,-11.3,99,GPS_Atti,
0.0606187791134766,36.9418971770758,21400,2017-11-03 06:45:42,1848.8372417627947,54.1000017312,0.0,1.5681700501814402,1848.8372417627947,54.1000017312,1.7999985098000002,1.7288200553222401,1684,-11.3,99,GPS_Atti,
0.0606186904878547,36.9418972164589,21500,2017-11-03 06:45:42,1849.3372417787948,54.6000017472,0.0,1.5574800498393602,1849.3372417787948,54.6000017472,1.7999985098000002,1.7288200553222401,1684,-11.3,99,GPS_Atti,
0.0606186007394207,36.9418972757933,21600,2017-11-03 06:45:42,1849.8372417947949,55.1000017632,0.0,1.5460500494736003,1849.8372417947949,55.1000017632,1.7999985098000002,1.7288200553222401,1684,-11.3,99,GPS_Atti,
0.0606185136526784,36.9418973235871,21700,2017-11-03 06:45:42,1850.3372418107947,55.6000017792,0.0,1.5352700491286402,1850.3372418107947,55.6000017792,1.7999985098000002,1.7288200553222401,1684,-11.3,99,GPS_Atti,
0.0606184388362616,36.9418973688859,21800,2017-11-03 06:45:42,1850.837241826795,56.10000179520001,0.0,1.52588004882816,1850.837241826795,56.10000179520001,1.7999985098000002,1.7288200553222401,1684,-11.3,99,GPS_Atti,
0.0606183765401365,36.9418973913407,21900,2017-11-03 06:45:42,1851.3372418427948,56.60000181120001,0.0,1.5185300485929603,1851.3372418427948,56.60000181120001,1.7999985098000002,1.7288200553222401,1684,-11.3,99,GPS_Atti,
0.0606183259639229,36.9418974286092,22000,2017-11-03 06:45:42,1851.8372418587949,57.100001827199996,0.0,1.51198004838336,1851.8372418587949,57.100001827199996,1.7999985098000002,1.7288200553222401,1684,-11.3,99,GPS_Atti,
0.06061829202715,36.9418974692012,22100,2017-11-03 06:45:42,1852.437241877995,57.700001846400006,0.0,1.5071100482275201,1852.437241877995,57.700001846400006,1.7999985098000002,1.7288200553222401,1684,-11.3,99,GPS_Atti,
0.060618260558284,36.9418975123105,22200,2017-11-03 06:45:43,1852.9372418939947,58.2000018624,0.0,1.5024400480780802,1852.9372418939947,58.2000018624,1.7999985098000002,1.7288200553222401,1684,-11.3,99,GPS_Atti,
0.060618231451476,36.9418975371216,22300,2017-11-03 06:45:43,1853.4372419099948,58.7000018784,0.0,1.4985800479545601,1853.4372419099948,58.7000018784,1.7999985098000002,1.7288200553222401,1684,-11.3,99,GPS_Atti,
0.0606182130476161,36.9418975662925,22400,2017-11-03 06:45:43,1853.9372419259948,59.2000018944,0.0,1.4957400478636802,1853.9372419259948,59.2000018944,1.7999985098000002,1.7288200553222401,1684,-11.3,99,GPS_Atti,
0.0606181976588204,36.9418975854341,22500,2017-11-03 06:45:43,1854.437241941995,59.700001910400005,0.0,1.49352004779264,1854.437241941995,59.700001910400005,1.7999985098000002,1.7288200553222401,1684,-11.3,99,GPS_Atti,
0.0606181608160892,36.9418976072242,22600,2017-11-03 06:45:43,1854.9372419579947,60.2000019264,0.0,1.48893004764576,1854.9372419579947,60.2000019264,1.7999985098000002,1.7288200553222401,1684,-11.3,99,GPS_Atti,
0.0606181209224681,36.9418976084471,22700,2017-11-03 06:45:43,1855.437241973995,60.7000019424,0.0,1.4846200475078402,1855.437241973995,60.7000019424,1.7999985098000002,1.7288200553222401,1684,-11.3,99,GPS_Atti,
0.0606180783394718,36.9418976284877,22800,2017-11-03 06:45:43,1855.9372419899948,61.2000019584,0.0,1.47946004734272,1855.9372419899948,61.2000019584,1.7999985098000002,1.7288200553222401,1684,-11.3,99,GPS_Atti,
0.0606180525669029,36.9418976493237,22900,2017-11-03 06:45:43,1856.5372420091946,61.800001977600004,0.0,1.47608004723456,1856.5372420091946,61.800001977600004,1.7999985098000002,1.7288200553222401,1684,-11.3,99,GPS_Atti,
0.0606180347965078,36.9418977069614,23000,2017-11-03 06:45:43,1857.037242025195,62.300001993600006,0.0,1.47249004711968,1857.037242025195,62.300001993600006,1.7999985098000002,1.7288200553222401,1684,-11.2,99,GPS_Atti,
0.0606180261649404,36.9418977608656,23100,2017-11-03 06:45:43,1857.5372420411948,62.80000200960001,0.0,1.47000004704,1857.5372420411948,62.80000200960001,1.7999985098000002,1.7288200553222401,1684,-11.3,99,GPS_Atti,
0.0606180178053231,36.9418978471829,23200,2017-11-03 06:45:44,1858.0372420571948,63.30000202560001,0.0,1.46666004693312,1858.0372420571948,63.30000202560001,1.7999985098000002,1.7288200553222401,1684,-11.3,99,GPS_Atti,
0.0606180232076861,36.9418979167904,23300,2017-11-03 06:45:44,1858.5372420731949,63.8000020416,0.0,1.4653200468902399,1858.5372420731949,63.8000020416,1.7999985098000002,1.7288200553222401,1684,-11.3,99,GPS_Atti,
0.0606180004705368,36.9418980116369,23400,2017-11-03 06:45:44,1859.0372420891947,64.3000020576,0.0,1.4603000467296,1859.0372420891947,64.3000020576,1.7999985098000002,1.7288200553222401,1684,-11.3,99,GPS_Atti,
0.0606179735230455,36.9418980858182,23500,2017-11-03 06:45:44,1859.5372421051948,64.8000020736,0.0,1.45542004657344,1859.5372421051948,64.8000020736,1.7999985098000002,1.7288200553222401,1684,-11.3,99,GPS_Atti,
0.0606179372649257,36.9418981532691,23600,2017-11-03 06:45:44,1860.0372421211948,65.3000020896,0.0,1.4497500463920001,1860.0372421211948,65.3000020896,1.7999985098000002,1.7288200553222401,1684,-11.3,99,GPS_Atti,
0.0606178995615618,36.9418981808323,23700,2017-11-03 06:45:44,1860.5372421371949,65.8000021056,0.0,1.44497004623904,1860.5372421371949,65.8000021056,1.7999985098000002,1.7288200553222401,1684,-11.3,99,GPS_Atti,
0.0606178550667723,36.9418981928843,23800,2017-11-03 06:45:44,1861.1372421563947,66.40000212480001,0.0,1.4398400460748801,1861.1372421563947,66.40000212480001,1.7999985098000002,1.7288200553222401,1684,-11.3,99,GPS_Atti,
0.0606178084338358,36.9418981695739,23900,2017-11-03 06:45:44,1861.537242169195,66.8000021376,0.0,1.4354000459328,1861.537242169195,66.8000021376,1.7999985098000002,1.7288200553222401,1684,-11.3,99,GPS_Atti,
0.0606177439336117,36.9418981482305,24000,2017-11-03 06:45:44,1862.0372421851948,67.3000021536,0.0,1.42898004572736,1862.0372421851948,67.3000021536,1.7999985098000002,1.7288200553222401,1684,-11.3,99,GPS_Atti,
0.060617674343686,36.9418981123633,24100,2017-11-03 06:45:44,1862.5372422011949,67.8000021696,0.0,1.4224000455168002,1862.5372422011949,67.8000021696,1.7999985098000002,1.7288200553222401,1684,-11.3,99,GPS_Atti,
0.0606176139666821,36.9418980802459,24200,2017-11-03 06:45:45,1863.0372422171947,68.3000021856,0.0,1.4167400453356802,1863.0372422171947,68.3000021856,1.7999985098000002,1.7288200553222401,1684,-11.3,99,GPS_Atti,
0.0606175617424831,36.9418980293621,24300,2017-11-03 06:45:45,1863.5372422331948,68.8000022016,0.0,1.4125000452,1863.5372422331948,68.8000022016,1.7999985098000002,1.7288200553222401,1684,-11.3,99,GPS_Atti,
0.0606175238331211,36.9418979923359,24400,2017-11-03 06:45:45,1864.0372422491948,69.30000221760001,0.0,1.40944004510208,1864.0372422491948,69.30000221760001,1.7999985098000002,1.7288200553222401,1684,-11.3,99,GPS_Atti,
0.0606174783816207,36.9418979438673,24500,2017-11-03 06:45:45,1864.5372422651947,69.80000223360001,0.0,1.4059100449891202,1864.5372422651947,69.80000223360001,1.7999985098000002,1.7288200553222401,1684,-11.3,99,GPS_Atti,
0.0606174017519315,36.9418979159329,24600,2017-11-03 06:45:45,1865.037242281195,70.30000224960001,0.0,1.39847004475104,1865.037242281195,70.30000224960001,1.7999985098000002,1.7288200553222401,1684,-11.3,99,GPS_Atti,
0.0606173172576721,36.9418978909487,24700,2017-11-03 06:45:45,1865.5372422971948,70.8000022656,0.0,1.3901200444838402,1865.5372422971948,70.8000022656,1.7999985098000002,1.7288200553222401,1684,-11.3,99,GPS_Atti,
0.0606172584667727,36.94189789984,24800,2017-11-03 06:45:45,1866.0372423131948,71.3000022816,0.0,1.3835500442736002,1866.0372423131948,71.3000022816,1.7999985098000002,1.7288200553222401,1684,-11.3,99,GPS_Atti,
0.0606172235920161,36.9418978983369,24900,2017-11-03 06:45:45,1866.6372423323949,71.9000023008,0.0,1.3798500441552,1866.6372423323949,71.9000023008,1.7999985098000002,1.7288200553222401,1684,-11.3,99,GPS_Atti,
0.0606171936563301,36.9418979253863,25000,2017-11-03 06:45:45,1867.1372423483947,72.4000023168,0.0,1.3758500440272001,1867.1372423483947,72.4000023168,1.7999985098000002,1.7288200553222401,1684,-11.3,99,GPS_Atti,
0.0606171541201525,36.941897931491,25100,2017-11-03 06:45:45,1867.6372423643948,72.9000023328,0.0,1.3714300438857598,1867.6372423643948,72.9000023328,1.7999985098000002,1.7288200553222401,1684,-11.3,99,GPS_Atti,
0.0606170950695163,36.9418979246562,25200,2017-11-03 06:45:46,1868.1372423803948,73.4000023488,0.0,1.36529004368928,1868.1372423803948,73.4000023488,1.7999985098000002,1.7288200553222401,1684,-11.3,99,GPS_Atti,
0.0606170237347128,36.9418978746264,25300,2017-11-03 06:45:46,1868.6372423963949,73.9000023648,0.0,1.35913004349216,1868.6372423963949,73.9000023648,1.7999985098000002,1.7288200553222401,1684,-11.3,99,GPS_Atti,
0.0606169542799479,36.9418978121444,25400,2017-11-03 06:45:46,1869.0372424091947,74.30000237760001,0.35999970196000003,1.35359004331488,1869.0372424091947,74.30000237760001,1.7999985098000002,1.7288200553222401,1684,-11.2,99,GPS_Atti,
0.0606168833310856,36.941897716663,25500,2017-11-03 06:45:46,1869.5372424251948,74.80000239360001,0.35999970196000003,1.34899004316768,1869.5372424251948,74.80000239360001,1.7999985098000002,1.7288200553222401,1684,-11.2,99,GPS_Atti,
0.0606167943496487,36.9418976073829,25600,2017-11-03 06:45:46,1870.0372424411948,75.3000024096,0.5075995797636,1.34304004297728,1870.0372424411948,75.3000024096,1.7999985098000002,1.7288200553222401,1684,-11.2,99,GPS_Atti,
0.0606166961105077,36.9418974820398,25700,2017-11-03 06:45:46,1870.537242457195,75.8000024256,0.5075995797636,1.3368100427779201,1870.537242457195,75.8000024256,1.7999985098000002,1.7288200553222401,1684,-11.3,99,GPS_Atti,
0.0606166097907625,36.9418973992929,25800,2017-11-03 06:45:46,1871.0372424731947,76.3000024416,0.35999970196000003,1.33054004257728,1871.0372424731947,76.3000024416,1.7999985098000002,1.7288200553222401,1684,-11.3,99,GPS_Atti,
0.0606165432671968,36.9418973590701,25900,2017-11-03 06:45:46,1871.537242489195,76.8000024576,0.0,1.3249400423980802,1871.537242489195,76.8000024576,1.7999985098000002,1.7288200553222401,1684,-11.3,99,GPS_Atti,
0.0606165124936764,36.9418973753543,26000,2017-11-03 06:45:46,1872.0372425051949,77.3000024736,0.0,1.32112004227584,1872.0372425051949,77.3000024736,1.7999985098000002,1.7288200553222401,1684,-11.3,99,GPS_Atti,
0.0606165059041777,36.9418974153865,26100,2017-11-03 06:45:46,1872.5372425211947,77.8000024896,0.0,1.31901004220832,1872.5372425211947,77.8000024896,1.7999985098000002,1.7288200553222401,1684,-11.3,99,GPS_Atti,
0.060616525065264,36.9418974753568,26200,2017-11-03 06:45:47,1873.037242537195,78.3000025056,0.0,1.31894004220608,1873.037242537195,78.3000025056,1.7999985098000002,1.7288200553222401,1684,-11.3,99,GPS_Atti,
0.0606165504185086,36.9418975230534,26300,2017-11-03 06:45:47,1873.5372425531948,78.8000025216,0.0,1.31999004223968,1873.5372425531948,78.8000025216,1.7999985098000002,1.7288200553222401,1684,-11.3,99,GPS_Atti,
0.0606165601875442,36.9418975624435,26400,2017-11-03 06:45:47,1874.1372425723946,79.4000025408,0.0,1.31968004222976,1874.1372425723946,79.4000025408,1.7999985098000002,1.7288200553222401,1684,-11.3,99,GPS_Atti,
0.0606165454769953,36.9418975616604,26500,2017-11-03 06:45:47,1874.6372425883949,79.9000025568,0.0,1.3181500421808001,1874.6372425883949,79.9000025568,1.7999985098000002,1.7288200553222401,1684,-11.3,99,GPS_Atti,
0.0606165141628315,36.9418975593509,26600,2017-11-03 06:45:47,1875.037242601195,80.30000256960001,0.0,1.31491004207712,1875.037242601195,80.30000256960001,1.7999985098000002,1.7288200553222401,1684,-11.3,99,GPS_Atti,
0.0606164760067602,36.941897555753,26700,2017-11-03 06:45:47,1875.5372426171948,80.80000258560001,0.0,1.31099004195168,1875.5372426171948,80.80000258560001,1.7999985098000002,1.7288200553222401,1684,-11.3,99,GPS_Atti,
0.0606164296946271,36.9418975825342,26800,2017-11-03 06:45:47,1876.0372426331946,81.3000026016,0.0,1.30518004176576,1876.0372426331946,81.3000026016,1.7999985098000002,1.7288200553222401,1684,-11.3,99,GPS_Atti,
0.0606163823451753,36.9418976034572,26900,2017-11-03 06:45:47,1876.537242649195,81.8000026176,0.0,1.29946004158272,1876.537242649195,81.8000026176,1.7999985098000002,1.7288200553222401,1684,-11.3,99,GPS_Atti,
0.0606163228988272,36.9418976225134,27000,2017-11-03 06:45:47,1877.0372426651948,82.3000026336,0.0,1.29251004136032,1877.0372426651948,82.3000026336,1.7999985098000002,1.7288200553222401,1684,-11.3,99,GPS_Atti,
0.0606162735675589,36.9418976016112,27100,2017-11-03 06:45:47,1877.5372426811948,82.8000026496,0.0,1.288000041216,1877.5372426811948,82.8000026496,1.7999985098000002,1.7288200553222401,1684,-11.3,99,GPS_Atti,
0.0606162114839458,36.9418975947922,27200,2017-11-03 06:45:48,1878.0372426971949,83.3000026656,0.0,1.28167004101344,1878.0372426971949,83.3000026656,1.7999985098000002,1.7288200553222401,1684,-11.3,99,GPS_Atti,
0.0606161526498926,36.9418975813793,27300,2017-11-03 06:45:48,1878.537242713195,83.8000026816,0.0,1.27592004082944,1878.537242713195,83.8000026816,1.7999985098000002,1.7288200553222401,1684,-11.3,99,GPS_Atti,
0.0606160961844112,36.9418975746574,27400,2017-11-03 06:45:48,1879.1372427323947,84.4000027008,0.0,1.2701900406460802,1879.1372427323947,84.4000027008,1.7999985098000002,1.7288200553222401,1684,-11.3,99,GPS_Atti,
0.0606160475118486,36.9418975531558,27500,2017-11-03 06:45:48,1879.6372427483948,84.9000027168,0.0,1.2658100405059203,1879.6372427483948,84.9000027168,1.7999985098000002,1.7288200553222401,1684,-11.3,99,GPS_Atti,
0.0606160022443624,36.9418975836971,27600,2017-11-03 06:45:48,1880.1372427643948,85.4000027328,0.0,1.25996004031872,1880.1372427643948,85.4000027328,1.7999985098000002,1.7288200553222401,1684,-11.3,98,GPS_Atti,
0.0606159705678698,36.9418976601252,27700,2017-11-03 06:45:48,1880.7372427835949,86.000002752,0.0,1.2539500401264,1880.7372427835949,86.000002752,1.7999985098000002,1.7288200553222401,1684,-11.3,98,GPS_Atti,
0.0606159515191461,36.941897804394,27800,2017-11-03 06:45:48,1881.237242799595,86.500002768,0.0,1.2470300399049599,1881.237242799595,86.500002768,1.7999985098000002,1.7288200553222401,1684,-11.3,98,GPS_Atti,
0.0606159504972975,36.9418979730629,27900,2017-11-03 06:45:48,1881.7372428155948,87.000002784,0.35999970196000003,1.24143003972576,1881.7372428155948,87.000002784,1.7999985098000002,1.7288200553222401,1684,-11.3,98,GPS_Atti,
0.0606159625665102,36.9418981866691,28000,2017-11-03 06:45:48,1882.237242831595,87.50000280000002,0.35999970196000003,1.23614003955648,1882.237242831595,87.50000280000002,1.7999985098000002,1.7288200553222401,1684,-11.3,98,GPS_Atti,
0.060615973169309,36.9418983846669,28100,2017-11-03 06:45:48,1882.7372428475949,88.00000281599999,0.35999970196000003,1.23156003940992,1882.7372428475949,88.00000281599999,1.7999985098000002,1.7288200553222401,1684,-11.3,98,GPS_Atti,
0.0606159541254707,36.9418985701639,28200,2017-11-03 06:45:49,1883.2372428635947,88.50000283199999,0.0,1.2244900391836802,1883.2372428635947,88.50000283199999,1.7999985098000002,1.7288200553222401,1684,-11.3,98,GPS_Atti,
0.0606159080877305,36.9418986912676,28300,2017-11-03 06:45:49,1883.7372428795948,89.000002848,0.0,1.2163900389244802,1883.7372428795948,89.000002848,1.7999985098000002,1.7288200553222401,1684,-11.3,98,GPS_Atti,
0.060615856242959,36.9418988171002,28400,2017-11-03 06:45:49,1884.1372428923949,89.4000028608,0.0,1.20768003864576,1884.1372428923949,89.4000028608,1.7999985098000002,1.7288200553222401,1684,-11.3,98,GPS_Atti,
0.0606158117164148,36.9418989180335,28500,2017-11-03 06:45:49,1884.637242908395,89.9000028768,0.0,1.2004500384144001,1884.637242908395,89.9000028768,1.7999985098000002,1.7288200553222401,1684,-11.3,98,GPS_Atti,
0.060615792568356,36.9418990160053,28600,2017-11-03 06:45:49,1885.1372429243947,90.4000028928,0.0,1.1961500382768,1885.1372429243947,90.4000028928,1.7999985098000002,1.7288200553222401,1684,-11.3,98,GPS_Atti,
0.0606158025645595,36.9418990727649,28700,2017-11-03 06:45:49,1885.6372429403948,90.9000029088,0.0,1.1959900382716802,1885.6372429403948,90.9000029088,1.7999985098000002,1.7288200553222401,1684,-11.3,98,GPS_Atti,
0.0606158220936741,36.9418991385433,28800,2017-11-03 06:45:49,1886.1372429563949,91.4000029248,0.0,1.19672003829504,1886.1372429563949,91.4000029248,1.7999985098000002,1.7288200553222401,1684,-11.2,98,GPS_Atti,
