latitude,longitude,time_millisecond,datetime_utc,altitude_m,ascent_m,speed_kph,distance_m,max_altitude_m,max_ascent_m,max_speed_kph,max_distance_m,rc_throttle,gimbal_pitch_degrees,battery_percent,flycState,message
0.355961705764353,36.8882905127553,0,2018-04-05 07:10:00,1775.129939604171,0.0,0.0,0.0,1775.129939604171,0.0,0.0,0.0,364,0.0,100,P-GPS,
0.355961709750784,36.8882905447591,200,2018-04-05 07:10:00,1775.129939604171,0.0,0.0,0.0035864501147664,1775.129939604171,0.0,0.0,0.0035864501147664,364,0.0,100,Motors_Started,Setting new Return-To-Home altitude to 45m (148 ft). Setting new Maximum Flight Altitude to 150m (492 ft)
0.35596171257471,36.8882905729069,300,2018-04-05 07:10:00,1775.129939604171,0.0,0.0,0.006731840215418881,1775.129939604171,0.0,0.0,0.006731840215418881,364,0.0,100,Motors_Started,
0.355961714987046,36.888290611921,500,2018-04-05 07:10:00,1775.129939604171,0.0,0.0,0.0110752003544064,1775.129939604171,0.0,0.0,0.0110752003544064,364,0.0,100,Motors_Started,
0.355961714368237,36.8882906211984,600,2018-04-05 07:10:00,1775.129939604171,0.0,0.0,0.012097200387110402,1775.129939604171,0.0,0.0,0.012097200387110402,364,0.0,100,Motors_Started,
0.355961716729888,36.888290626186,700,2018-04-05 07:10:01,1775.129939604171,0.0,0.0,0.012672700405526401,1775.129939604171,0.0,0.0,0.012672700405526401,364,0.0,100,Motors_Started,
0.355961779111303,36.8882906869292,900,2018-04-05 07:10:01,1775.129939604171,0.0,0.0,0.0210162006725184,1775.129939604171,0.0,0.0,0.0210162006725184,364,0.0,100,Motors_Started,
0.355961773837384,36.8882907107929,1000,2018-04-05 07:10:01,1775.129939604171,0.0,0.0,0.0232873007451936,1775.129939604171,0.0,0.0,0.0232873007451936,364,0.0,100,Motors_Started,
0.355961765727733,36.8882907254305,1100,2018-04-05 07:10:01,1775.129939604171,0.0,0.0,0.0245724007863168,1775.129939604171,0.0,0.0,0.0245724007863168,364,0.0,100,Motors_Started,
0.355961753568548,36.8882907648834,1200,2018-04-05 07:10:01,1775.129939604171,0.0,0.0,0.028537200913190404,1775.129939604171,0.0,0.0,0.028537200913190404,400,0.0,100,Motors_Started,
0.355961748241501,36.8882907989373,1300,2018-04-05 07:10:01,1775.129939604171,0.0,0.0,0.0321732010295424,1775.129939604171,0.0,0.0,0.0321732010295424,649,0.0,100,Motors_Started,
0.355961739902239,36.8882908253319,1400,2018-04-05 07:10:01,1775.129939604171,0.0,0.0,0.0349664011189248,1775.129939604171,0.0,0.0,0.0349664011189248,909,0.0,100,Motors_Started,
0.35596173642083,36.8882908407153,1500,2018-04-05 07:10:01,1775.129939604171,0.0,0.0,0.0366294011721408,1775.129939604171,0.0,0.0,0.0366294011721408,1024,0.0,100,Motors_Started,
0.355961729717136,36.8882908466033,1600,2018-04-05 07:10:01,1775.129939604171,0.0,0.0,0.0372207011910624,1775.129939604171,0.0,0.0,0.0372207011910624,1024,0.0,100,Assisted_Takeoff,
0.355961732123569,36.8882908512519,1700,2018-04-05 07:10:01,1775.129939604171,0.0,0.0,0.0377561012081952,1775.129939604171,0.0,0.0,0.0377561012081952,1024,0.0,100,Assisted_Takeoff,
0.355961727411463,36.8882908461736,1800,2018-04-05 07:10:02,1775.129939604171,0.0,0.0,0.037155501188976,1775.129939604171,0.0,0.0,0.0377561012081952,1024,0.0,100,Assisted_Takeoff,
0.355961729210283,36.8882908418196,1900,2018-04-05 07:10:02,1775.129939604171,0.0,0.0,0.036686001173952,1775.129939604171,0.0,0.0,0.0377561012081952,1024,0.0,100,Assisted_Takeoff,
0.355961727931344,36.8882908628212,2000,2018-04-05 07:10:02,1775.129939604171,0.0,0.0,0.0390067012482144,1775.129939604171,0.0,0.0,0.0390067012482144,1024,0.0,100,Assisted_Takeoff,
0.355961729283359,36.8882909006449,2200,2018-04-05 07:10:02,1775.129939604171,0.0,0.0,0.04321410138285121,1775.129939604171,0.0,0.0,0.04321410138285121,1024,0.0,100,Assisted_Takeoff,
0.355961732858405,36.8882909082982,2300,2018-04-05 07:10:02,1775.129939604171,0.0,0.0,0.044089001410848004,1775.129939604171,0.0,0.0,0.044089001410848004,1024,0.0,100,Assisted_Takeoff,
0.35596173213334,36.8882909120411,2400,2018-04-05 07:10:02,1775.129939604171,0.0,0.0,0.0444989014239648,1775.129939604171,0.0,0.0,0.0444989014239648,1024,0.0,100,Assisted_Takeoff,
0.355961736374826,36.8882909116236,2500,2018-04-05 07:10:02,1775.129939604171,0.0,0.0,0.0444862014235584,1775.129939604171,0.0,0.0,0.0444989014239648,1024,0.0,100,Assisted_Takeoff,
0.355961704073621,36.8882909087869,2600,2018-04-05 07:10:02,1775.129939604171,0.0,0.0,0.044040701409302406,1775.129939604171,0.0,0.0,0.0444989014239648,1024,0.0,100,Assisted_Takeoff,
0.355961677810687,36.888290903953,2700,2018-04-05 07:10:02,1775.129939604171,0.0,0.0,0.0436137013956384,1775.129939604171,0.0,0.0,0.0444989014239648,1024,0.0,100,Assisted_Takeoff,
0.355961648629175,36.888290898258,2800,2018-04-05 07:10:03,1775.129939604171,0.0,0.0,0.0433377013868064,1775.129939604171,0.0,0.0,0.0444989014239648,1024,0.0,100,Assisted_Takeoff,
0.355961633060639,36.888290889764,2900,2018-04-05 07:10:03,1775.129939604171,0.0,0.0,0.042697301366313604,1775.129939604171,0.0,0.0,0.0444989014239648,1024,0.0,100,Assisted_Takeoff,
0.355961618193353,36.8882908829892,3000,2018-04-05 07:10:03,1775.129939604171,0.0,0.0,0.042307501353839996,1775.129939604171,0.0,0.0,0.0444989014239648,1024,0.0,100,Assisted_Takeoff,
0.35596161187845,36.8882908735787,3100,2018-04-05 07:10:03,1775.129939604171,0.0,0.0,0.0414611013267552,1775.129939604171,0.0,0.0,0.0444989014239648,1024,0.0,100,Assisted_Takeoff,
0.355961606864471,36.8882908987711,3200,2018-04-05 07:10:03,1775.129939604171,0.0,0.0,0.044313001418016,1775.129939604171,0.0,0.0,0.0444989014239648,1024,0.0,100,Assisted_Takeoff,
0.35596160718955,36.8882909189275,3300,2018-04-05 07:10:03,1775.129939604171,0.0,0.0,0.04647920148733441,1775.129939604171,0.0,0.0,0.04647920148733441,1024,0.0,100,Assisted_Takeoff,
0.355961607344048,36.8882909420327,3400,2018-04-05 07:10:03,1775.129939604171,0.0,0.0,0.048976001567232,1775.129939604171,0.0,0.0,0.048976001567232,1024,0.0,100,Assisted_Takeoff,
0.35596161292554,36.8882909629987,3600,2018-04-05 07:10:03,1775.129939604171,0.0,0.0,0.0511222016359104,1775.129939604171,0.0,0.0,0.0511222016359104,1025,0.0,100,Assisted_Takeoff,
0.35596161831345,36.8882909647814,3700,2018-04-05 07:10:03,1775.129939604171,0.0,0.0,0.0511992016383744,1775.129939604171,0.0,0.0,0.0511992016383744,1024,0.0,100,Assisted_Takeoff,
0.355961620712352,36.888290999101,3800,2018-04-05 07:10:04,1775.129939604171,0.0,0.0,0.05490440175694081,1775.129939604171,0.0,0.0,0.05490440175694081,1024,0.0,100,Assisted_Takeoff,
0.355961627845344,36.8882910515089,4000,2018-04-05 07:10:04,1775.129939604171,0.0,0.0,0.0605349019371168,1775.129939604171,0.0,0.0,0.0605349019371168,1024,0.0,100,Assisted_Takeoff,
0.355961633017893,36.8882910628866,4100,2018-04-05 07:10:04,1775.129939604171,0.0,0.0,0.06170930197469761,1775.129939604171,0.0,0.0,0.06170930197469761,1024,0.0,100,Assisted_Takeoff,
0.355961602394189,36.8882910726671,4200,2018-04-05 07:10:04,1775.129939604171,0.0,0.0,0.0633167020261344,1775.129939604171,0.0,0.0,0.0633167020261344,1024,0.0,100,Assisted_Takeoff,
0.355961576803802,36.8882910727884,4300,2018-04-05 07:10:04,1775.129939604171,0.0,0.0,0.0639078020450496,1775.129939604171,0.0,0.0,0.0639078020450496,1024,0.0,100,Assisted_Takeoff,
0.355961548193466,36.8882910724777,4400,2018-04-05 07:10:04,1775.129939604171,0.0,0.0,0.0646628020692096,1775.129939604171,0.0,0.0,0.0646628020692096,1024,0.0,100,Assisted_Takeoff,
0.355961532979117,36.8882910658178,4500,2018-04-05 07:10:04,1775.129939604171,0.0,0.0,0.0644344020619008,1775.129939604171,0.0,0.0,0.0646628020692096,1024,0.0,100,Assisted_Takeoff,
0.355961517782274,36.8882910608004,4600,2018-04-05 07:10:05,1775.129939604171,0.0,0.0,0.0644304020617728,1775.129939604171,0.0,0.0,0.0646628020692096,1024,0.0,100,Assisted_Takeoff,
0.355961497741218,36.8882910215968,5000,2018-04-05 07:10:05,1775.129939604171,0.0,0.0,0.0611313019562016,1775.129939604171,0.0,0.0,0.0646628020692096,1024,0.0,100,Assisted_Takeoff,
0.355961498584752,36.8882910072289,5100,2018-04-05 07:10:05,1775.129939604171,0.0,0.0,0.0596191019078112,1775.129939604171,0.0,0.0,0.0646628020692096,1074,0.0,100,Assisted_Takeoff,
0.355961501946674,36.888290989854,5300,2018-04-05 07:10:05,1775.129939604171,0.0,0.0,0.05769400184620801,1775.129939604171,0.0,0.0,0.0646628020692096,1137,0.0,100,Assisted_Takeoff,
0.355961503331462,36.8882910193114,5400,2018-04-05 07:10:05,1775.129939604171,0.0,0.0,0.060662701941206404,1775.129939604171,0.0,0.0,0.0646628020692096,1158,0.0,100,Assisted_Takeoff,
0.355961505873464,36.8882910366468,5500,2018-04-05 07:10:05,1775.129939604171,0.0,0.0,0.062355601995379206,1775.129939604171,0.0,0.0,0.0646628020692096,1158,0.0,100,Assisted_Takeoff,
0.355961507342931,36.8882910637478,5600,2018-04-05 07:10:05,1775.129939604171,0.0,0.0,0.06512460208398721,1775.129939604171,0.0,0.0,0.06512460208398721,1204,0.0,100,Assisted_Takeoff,
0.355961510455498,36.8882910696252,5700,2018-04-05 07:10:05,1775.129939604171,0.0,0.0,0.0656246020999872,1775.129939604171,0.0,0.0,0.0656246020999872,1204,0.0,100,Assisted_Takeoff,
0.355961511880793,36.8882910842262,5800,2018-04-05 07:10:06,1775.129939604171,0.0,0.0,0.0671078021474496,1775.129939604171,0.0,0.0,0.0671078021474496,1217,0.0,100,Assisted_Takeoff,
0.355961485765844,36.8882910865545,6000,2018-04-05 07:10:06,1775.129939604171,0.0,0.0,0.06833810218681921,1775.129939604171,0.0,0.0,0.06833810218681921,1227,0.0,100,Assisted_Takeoff,
0.355961460819303,36.8882910661182,6100,2018-04-05 07:10:06,1775.129939604171,0.0,0.0,0.067295502153456,1775.129939604171,0.0,0.0,0.06833810218681921,1231,0.0,100,Assisted_Takeoff,
0.355961408995091,36.8882910060669,6200,2018-04-05 07:10:06,1775.129939604171,0.0,0.35999970196000003,0.0640202020486464,1775.129939604171,0.0,0.35999970196000003,0.06833810218681921,1233,0.0,100,Assisted_Takeoff,
0.355961346604313,36.8882909083811,6300,2018-04-05 07:10:06,1775.129939604171,0.0,0.35999970196000003,0.05942090190146881,1775.129939604171,0.0,0.35999970196000003,0.06833810218681921,1231,0.0,100,P-GPS,Home Point Recorded. RTH Altitude:  45m.
0.355961276740401,36.8882908370024,6400,2018-04-05 07:10:06,1775.129939604171,0.0,0.35999970196000003,0.059803001913696,1775.129939604171,0.0,0.35999970196000003,0.06833810218681921,1232,0.0,100,P-GPS,
0.355961209880969,36.8882907477893,6500,2018-04-05 07:10:06,1775.129939604171,0.0,0.503999582744,0.061025601952819204,1775.129939604171,0.0,0.503999582744,0.06833810218681921,1232,0.0,100,P-GPS,
0.355961130059937,36.8882906074662,6600,2018-04-05 07:10:06,1775.229939607371,0.1000000032,0.503999582744,0.0648824020762368,1775.229939607371,0.1000000032,0.503999582744,0.06833810218681921,1247,0.0,100,P-GPS,
0.3559610318955,36.8882904371661,6700,2018-04-05 07:10:06,1775.229939607371,0.1000000032,0.503999582744,0.0754083024130656,1775.229939607371,0.1000000032,0.503999582744,0.0754083024130656,1249,0.0,100,P-GPS,
0.355960923211723,36.8882902909649,6800,2018-04-05 07:10:07,1775.329939610571,0.2000000064,0.503999582744,0.0904522028944704,1775.329939610571,0.2000000064,0.503999582744,0.0904522028944704,1245,0.0,100,P-GPS,
0.355960778920797,36.8882901562707,6900,2018-04-05 07:10:07,1775.4299396137708,0.3000000096,0.503999582744,0.11043100353379201,1775.4299396137708,0.3000000096,0.503999582744,0.11043100353379201,1249,0.0,100,P-GPS,
0.355960573028073,36.8882900964776,7000,2018-04-05 07:10:07,1775.4299396137708,0.3000000096,0.35999970196000003,0.134204004294528,1775.4299396137708,0.3000000096,0.503999582744,0.134204004294528,1234,0.0,100,P-GPS,
0.355960090118094,36.8882901252536,7200,2018-04-05 07:10:07,1775.629939620171,0.500000016,0.35999970196000003,0.18476500591248,1775.629939620171,0.500000016,0.503999582744,0.18476500591248,1242,0.0,100,P-GPS,
0.355959858077445,36.8882901384458,7300,2018-04-05 07:10:07,1775.729939623371,0.6000000192,0.35999970196000003,0.209648006708736,1775.729939623371,0.6000000192,0.503999582744,0.209648006708736,1233,0.0,100,P-GPS,
0.3559596374471,36.8882901731956,7400,2018-04-05 07:10:07,1775.8299396265709,0.7000000224,0.35999970196000003,0.233088007458816,1775.8299396265709,0.7000000224,0.503999582744,0.233088007458816,1215,0.0,100,P-GPS,
0.355959316613608,36.8882901921089,7600,2018-04-05 07:10:07,1776.029939632971,0.9000000288000001,0.35999970196000003,0.26807000857824004,1776.029939632971,0.9000000288000001,0.503999582744,0.26807000857824004,1237,0.0,100,P-GPS,
0.355959217443506,36.8882901788975,7700,2018-04-05 07:10:07,1776.129939636171,1.000000032,0.0,0.27919600893427204,1776.129939636171,1.000000032,0.503999582744,0.27919600893427204,1253,0.0,100,P-GPS,
0.355959115127759,36.8882902542187,7800,2018-04-05 07:10:08,1776.2299396393707,1.1000000352000001,0.0,0.289526009264832,1776.2299396393707,1.1000000352000001,0.503999582744,0.289526009264832,1243,0.0,100,P-GPS,
0.355959013371026,36.8882903203433,7900,2018-04-05 07:10:08,1776.329939642571,1.2000000384,0.0,0.300174009605568,1776.329939642571,1.2000000384,0.503999582744,0.300174009605568,1239,0.0,100,P-GPS,
0.355958859143232,36.888290349706,8100,2018-04-05 07:10:08,1776.5299396489709,1.4000000448,0.0,0.31708001014656,1776.5299396489709,1.4000000448,0.503999582744,0.31708001014656,1237,0.0,100,P-GPS,
0.355958793251147,36.8882903387079,8200,2018-04-05 07:10:08,1776.629939652171,1.5000000480000002,0.0,0.32446701038294407,1776.629939652171,1.5000000480000002,0.503999582744,0.32446701038294407,1262,0.0,100,P-GPS,
0.355958718789909,36.8882903218638,8300,2018-04-05 07:10:08,1776.729939655371,1.6000000512,0.0,0.332847010651104,1776.729939655371,1.6000000512,0.503999582744,0.332847010651104,1253,0.0,100,P-GPS,
0.355958686332857,36.8882903446873,8400,2018-04-05 07:10:08,1776.829939658571,1.7000000544000002,0.0,0.336299010761568,1776.829939658571,1.7000000544000002,0.503999582744,0.336299010761568,1255,0.0,100,P-GPS,
0.35595865441337,36.8882903571421,8500,2018-04-05 07:10:08,1776.929939661771,1.8000000576000001,0.0,0.33977001087264,1776.929939661771,1.8000000576000001,0.503999582744,0.33977001087264,1275,0.0,100,P-GPS,
0.355958540446809,36.8882904236191,8600,2018-04-05 07:10:08,1777.0299396649712,1.9000000608000003,0.0,0.352142011268544,1777.0299396649712,1.9000000608000003,0.503999582744,0.352142011268544,1263,0.0,100,P-GPS,
0.355958413210784,36.8882904807229,8700,2018-04-05 07:10:08,1777.1299396681711,2.000000064,0.0,0.366169011717408,1777.1299396681711,2.000000064,0.503999582744,0.366169011717408,1264,0.0,100,P-GPS,
0.35595826270366,36.8882905839741,8800,2018-04-05 07:10:09,1777.2299396713709,2.1000000672000003,0.0,0.382971012255072,1777.2299396713709,2.1000000672000003,0.503999582744,0.382971012255072,1257,-0.3,100,P-GPS,
0.355958138531498,36.8882906733204,8900,2018-04-05 07:10:09,1777.3299396745708,2.2000000704000002,0.0,0.3971000127072,1777.3299396745708,2.2000000704000002,0.503999582744,0.3971000127072,1267,-1.3,100,P-GPS,
0.355958029319672,36.8882908204519,9000,2018-04-05 07:10:09,1777.429939677771,2.3000000736,0.0,0.41027201312870404,1777.429939677771,2.3000000736,0.503999582744,0.41027201312870404,1271,-2.9,100,P-GPS,
0.355957948010089,36.8882909636645,9100,2018-04-05 07:10:09,1777.529939680971,2.4000000768,0.35999970196000003,0.420883013468256,1777.529939680971,2.4000000768,0.503999582744,0.420883013468256,1270,-2.9,100,P-GPS,
0.355957896574057,36.8882911505373,9200,2018-04-05 07:10:09,1777.729939687371,2.6000000832000003,0.35999970196000003,0.42950201374406405,1777.729939687371,2.6000000832000003,0.503999582744,0.42950201374406405,1267,-4.3,100,P-GPS,
0.355957860649005,36.8882913212778,9300,2018-04-05 07:10:09,1777.829939690571,2.7000000864,0.35999970196000003,0.436951013982432,1777.829939690571,2.7000000864,0.503999582744,0.436951013982432,1273,-5.8,100,P-GPS,
0.355957847402834,36.888291530381,9400,2018-04-05 07:10:09,1777.929939693771,2.8000000896,0.35999970196000003,0.44374501419984,1777.929939693771,2.8000000896,0.503999582744,0.44374501419984,1265,-7.5,100,P-GPS,
0.355957844316119,36.8882917073865,9500,2018-04-05 07:10:09,1778.0299396969708,2.9000000928,0.35999970196000003,0.44949701438390405,1778.0299396969708,2.9000000928,0.503999582744,0.44949701438390405,1270,-9.2,100,P-GPS,
0.355957855801229,36.8882919067383,9600,2018-04-05 07:10:09,1778.1299397001708,3.0000000960000004,0.35999970196000003,0.455339014570848,1778.1299397001708,3.0000000960000004,0.503999582744,0.455339014570848,1269,-10.9,100,P-GPS,
0.355957877147891,36.888292058492,9700,2018-04-05 07:10:09,1778.229939703371,3.1000000992000003,0.0,0.45915501469296005,1778.229939703371,3.1000000992000003,0.503999582744,0.45915501469296005,1274,-12.6,100,P-GPS,
0.355957881419961,36.8882921886127,9800,2018-04-05 07:10:10,1778.329939706571,3.2000001024,0.0,0.46433001485856007,1778.329939706571,3.2000001024,0.503999582744,0.46433001485856007,1275,-12.6,100,P-GPS,
0.355957873675183,36.8882922752693,9900,2018-04-05 07:10:10,1778.5299397129709,3.4000001088000005,0.0,0.469064015010048,1778.5299397129709,3.4000001088000005,0.503999582744,0.469064015010048,1271,-16.2,100,P-GPS,
0.35595783735218,36.8882923918624,10000,2018-04-05 07:10:10,1778.629939716171,3.500000112,0.0,0.47825801530425605,1778.629939716171,3.500000112,0.503999582744,0.47825801530425605,1279,-17.5,100,P-GPS,
0.355957794358816,36.8882925023503,10100,2018-04-05 07:10:10,1778.729939719371,3.6000001152000003,0.35999970196000003,0.48800901561628807,1778.729939719371,3.6000001152000003,0.503999582744,0.48800901561628807,1272,-17.5,100,P-GPS,
0.355957718758659,36.8882928108726,10300,2018-04-05 07:10:10,1778.9299397257712,3.8000001216000006,0.0,0.5117580163762561,1778.9299397257712,3.8000001216000006,0.503999582744,0.5117580163762561,1277,-17.5,100,P-GPS,
0.355957692195328,36.8882929763182,10400,2018-04-05 07:10:10,1779.129939732171,4.000000128,0.35999970196000003,0.523704016758528,1779.129939732171,4.000000128,0.503999582744,0.523704016758528,1281,-17.5,100,P-GPS,
0.35595768723809,36.888293124804,10500,2018-04-05 07:10:10,1779.2299397353709,4.100000131200001,0.35999970196000003,0.53299001705568,1779.2299397353709,4.100000131200001,0.503999582744,0.53299001705568,1290,-17.5,100,P-GPS,
0.355957684744688,36.888293505372,10700,2018-04-05 07:10:10,1779.429939741771,4.3000001376,0.0,0.5574080178370561,1779.429939741771,4.3000001376,0.503999582744,0.5574080178370561,1302,-17.5,100,P-GPS,
0.355957701684678,36.8882936765626,10800,2018-04-05 07:10:11,1779.529939744971,4.4000001408000005,0.0,0.5674990181599681,1779.529939744971,4.4000001408000005,0.503999582744,0.5674990181599681,1296,-17.5,100,P-GPS,
0.355957722501994,36.8882937934329,10900,2018-04-05 07:10:11,1779.7299397513711,4.6000001472,0.0,0.5738580183634561,1779.7299397513711,4.6000001472,0.503999582744,0.5738580183634561,1288,-17.5,100,P-GPS,
0.355957744949331,36.8882939170685,11000,2018-04-05 07:10:11,1779.8299397545711,4.7000001504,0.0,0.5808000185856,1779.8299397545711,4.7000001504,0.503999582744,0.5808000185856,1301,-17.5,100,P-GPS,
0.35595777041219,36.8882940772454,11200,2018-04-05 07:10:11,1780.129939764171,5.00000016,0.0,0.590462018894784,1780.129939764171,5.00000016,0.503999582744,0.590462018894784,1307,-17.5,100,P-GPS,
0.355957791505069,36.8882941209522,11300,2018-04-05 07:10:11,1780.229939767371,5.1000001632,0.35999970196000003,0.592009018944288,1780.229939767371,5.1000001632,0.503999582744,0.592009018944288,1319,-17.5,100,P-GPS,
0.355957831897401,36.8882942141426,11400,2018-04-05 07:10:11,1780.329939770571,5.200000166400001,0.0,0.5958260190664321,1780.329939770571,5.200000166400001,0.503999582744,0.5958260190664321,1326,-17.5,100,P-GPS,
0.355957873092963,36.8882943187427,11600,2018-04-05 07:10:11,1780.629939780171,5.5000001759999995,0.0,0.600661019221152,1780.629939780171,5.5000001759999995,0.503999582744,0.600661019221152,1325,-17.5,100,P-GPS,
0.355957863487739,36.8882943217735,11700,2018-04-05 07:10:11,1780.8299397865708,5.7000001824,0.0,0.6016560192529921,1780.8299397865708,5.7000001824,0.503999582744,0.6016560192529921,1325,-17.5,100,P-GPS,
0.355957821631436,36.8882943754613,11800,2018-04-05 07:10:12,1780.929939789771,5.8000001856,0.0,0.6091660194933121,1780.929939789771,5.8000001856,0.503999582744,0.6091660194933121,1324,-17.5,100,P-GPS,
0.355957771219644,36.8882943990859,11900,2018-04-05 07:10:12,1781.129939796171,6.000000192000001,0.0,0.6149970196799041,1781.129939796171,6.000000192000001,0.503999582744,0.6149970196799041,1326,-17.5,100,P-GPS,
0.355957724367478,36.8882944655373,12000,2018-04-05 07:10:12,1781.229939799371,6.100000195200001,0.0,0.623899019964768,1781.229939799371,6.100000195200001,0.503999582744,0.623899019964768,1326,-17.5,100,P-GPS,
0.355957681814201,36.8882944975069,12100,2018-04-05 07:10:12,1781.429939805771,6.3000002016,0.0,0.629762020152384,1781.429939805771,6.3000002016,0.503999582744,0.629762020152384,1326,-17.5,100,P-GPS,
0.355957630832708,36.8882945501715,12200,2018-04-05 07:10:12,1781.6299398121712,6.500000208,0.0,0.637912020413184,1781.6299398121712,6.500000208,0.503999582744,0.637912020413184,1325,-17.5,100,P-GPS,
0.35595758318688,36.8882945649152,12300,2018-04-05 07:10:12,1781.729939815371,6.6000002112,0.0,0.64283502057072,1781.729939815371,6.6000002112,0.503999582744,0.64283502057072,1325,-17.5,100,P-GPS,
0.355957560418892,36.8882946237116,12400,2018-04-05 07:10:12,1781.9299398217709,6.800000217600001,0.0,0.6492300207753601,1781.9299398217709,6.800000217600001,0.503999582744,0.6492300207753601,1324,-17.5,100,P-GPS,
0.355957527293898,36.8882947187301,12600,2018-04-05 07:10:12,1782.229939831371,7.1000002272,0.0,0.659304021097728,1782.229939831371,7.1000002272,0.503999582744,0.659304021097728,1326,-17.5,100,P-GPS,
0.355957502029709,36.8882947508763,12700,2018-04-05 07:10:12,1782.4299398377711,7.3000002336000005,0.0,0.663821021242272,1782.4299398377711,7.3000002336000005,0.503999582744,0.663821021242272,1327,-17.6,100,P-GPS,
0.355957494359433,36.8882948204601,12800,2018-04-05 07:10:13,1782.5299398409709,7.4000002368,0.0,0.669933021437856,1782.5299398409709,7.4000002368,0.503999582744,0.669933021437856,1325,-17.6,100,P-GPS,
0.355957488203405,36.8882948506704,12900,2018-04-05 07:10:13,1782.7299398473708,7.600000243200001,0.0,0.6728160215301121,1782.7299398473708,7.600000243200001,0.503999582744,0.6728160215301121,1325,-17.7,100,P-GPS,
0.355957503718711,36.8882949488771,13000,2018-04-05 07:10:13,1782.929939853771,7.8000002496,0.0,0.679501021744032,1782.929939853771,7.8000002496,0.503999582744,0.679501021744032,1326,-17.9,100,P-GPS,
0.355957528906668,36.8882950114511,13100,2018-04-05 07:10:13,1783.029939856971,7.9000002528,0.0,0.6826610218451521,1783.029939856971,7.9000002528,0.503999582744,0.6826610218451521,1324,-18.0,100,P-GPS,
0.355957546072707,36.8882951154757,13200,2018-04-05 07:10:13,1783.229939863371,8.1000002592,0.0,0.689901022076832,1783.229939863371,8.1000002592,0.503999582744,0.689901022076832,1324,-18.3,99,P-GPS,
0.355957568236848,36.8882951747589,13300,2018-04-05 07:10:13,1783.329939866571,8.200000262400001,0.0,0.693168022181376,1783.329939866571,8.200000262400001,0.503999582744,0.693168022181376,1326,-18.6,99,P-GPS,
0.355957627926648,36.8882952572554,13400,2018-04-05 07:10:13,1783.529939872971,8.400000268800001,0.0,0.695711022262752,1783.529939872971,8.400000268800001,0.503999582744,0.695711022262752,1326,-18.6,99,P-GPS,
0.355957703060052,36.8882952786082,13500,2018-04-05 07:10:13,1783.729939879371,8.6000002752,0.0,0.69211002214752,1783.729939879371,8.6000002752,0.503999582744,0.695711022262752,1326,-19.0,99,P-GPS,
0.355957783714746,36.8882953324207,13600,2018-04-05 07:10:13,1783.829939882571,8.700000278400001,0.0,0.691007022112224,1783.829939882571,8.700000278400001,0.503999582744,0.695711022262752,1325,-19.3,99,P-GPS,
0.355957839972753,36.8882953281386,13700,2018-04-05 07:10:14,1784.029939888971,8.9000002848,0.0,0.6867040219745281,1784.029939888971,8.9000002848,0.503999582744,0.695711022262752,1326,-20.1,99,P-GPS,
0.355957788942102,36.8882952843769,13900,2018-04-05 07:10:14,1784.3299398985712,9.2000002944,0.0,0.6865030219680961,1784.3299398985712,9.2000002944,0.503999582744,0.695711022262752,1326,-20.5,99,P-GPS,
0.355957740903157,36.88829527649,14000,2018-04-05 07:10:14,1784.529939904971,9.4000003008,0.0,0.68923002205536,1784.529939904971,9.4000003008,0.503999582744,0.695711022262752,1326,-20.9,99,P-GPS,
0.355957708611214,36.888295240674,14100,2018-04-05 07:10:14,1784.6299399081709,9.500000304,0.0,0.6884870220315841,1784.6299399081709,9.500000304,0.503999582744,0.695711022262752,1325,-21.6,99,P-GPS,
0.355957668211045,36.8882952992809,14300,2018-04-05 07:10:14,1784.929939917771,9.8000003136,0.0,0.69636502228368,1784.929939917771,9.8000003136,0.503999582744,0.69636502228368,1326,-22.0,99,P-GPS,
0.355957619928342,36.8882953933195,14400,2018-04-05 07:10:14,1785.1299399241711,10.00000032,0.0,0.7078250226504,1785.1299399241711,10.00000032,0.503999582744,0.7078250226504,1326,-22.4,99,P-GPS,
0.355957567096021,36.8882954427797,14500,2018-04-05 07:10:14,1785.3299399305708,10.2000003264,0.0,0.71581502290608,1785.3299399305708,10.2000003264,0.503999582744,0.71581502290608,1326,-22.8,99,P-GPS,
0.355957498790938,36.8882955392496,14600,2018-04-05 07:10:14,1785.529939936971,10.400000332800001,0.35999970196000003,0.728916023325312,1785.529939936971,10.400000332800001,0.503999582744,0.728916023325312,1325,-23.2,99,P-GPS,
0.355957427703047,36.8882955855915,14700,2018-04-05 07:10:14,1785.629939940171,10.500000336,0.0,0.7379470236143041,1785.629939940171,10.500000336,0.503999582744,0.7379470236143041,1325,-23.5,99,P-GPS,
0.355957364702925,36.8882957050279,14800,2018-04-05 07:10:15,1785.8299399465711,10.700000342400001,0.0,0.752623024083936,1785.8299399465711,10.700000342400001,0.503999582744,0.752623024083936,1317,-23.5,99,P-GPS,
0.355957315388756,36.8882957802065,14900,2018-04-05 07:10:15,1786.0299399529708,10.9000003488,0.0,0.762556024401792,1786.0299399529708,10.9000003488,0.503999582744,0.762556024401792,1318,-23.9,99,P-GPS,
0.355957270443091,36.8882958930493,15000,2018-04-05 07:10:15,1786.229939959371,11.1000003552,0.0,0.775407024813024,1786.229939959371,11.1000003552,0.503999582744,0.775407024813024,1316,-24.3,99,P-GPS,
0.35595721009774,36.8882960890428,15200,2018-04-05 07:10:15,1786.529939968971,11.4000003648,0.0,0.79654002548928,1786.529939968971,11.4000003648,0.503999582744,0.79654002548928,1312,-25.2,99,P-GPS,
0.35595719366043,36.8882961709295,15300,2018-04-05 07:10:15,1786.729939975371,11.6000003712,0.0,0.8047880257532161,1786.729939975371,11.6000003712,0.503999582744,0.8047880257532161,1307,-25.7,99,P-GPS,
0.355957147502897,36.8882962723049,15400,2018-04-05 07:10:15,1786.9299399817708,11.8000003776,0.0,0.8168080261378561,1786.9299399817708,11.8000003776,0.503999582744,0.8168080261378561,1309,-26.6,99,P-GPS,
0.355957092482558,36.8882964169375,15600,2018-04-05 07:10:15,1787.2299399913709,12.1000003872,0.0,0.833233026663456,1787.2299399913709,12.1000003872,0.503999582744,0.833233026663456,1309,-27.1,99,P-GPS,
0.355957088159039,36.8882964681945,15700,2018-04-05 07:10:15,1787.429939997771,12.300000393600001,0.0,0.838026026816832,1787.429939997771,12.300000393600001,0.503999582744,0.838026026816832,1310,-27.6,99,P-GPS,
0.35595709912264,36.8882965491798,15800,2018-04-05 07:10:16,1787.629940004171,12.500000400000001,0.0,0.844421027021472,1787.629940004171,12.500000400000001,0.503999582744,0.844421027021472,1319,-27.6,99,P-GPS,
0.355957112864163,36.8882965832018,15900,2018-04-05 07:10:16,1787.7299400073712,12.6000004032,0.0,0.846509027088288,1787.7299400073712,12.6000004032,0.503999582744,0.846509027088288,1308,-28.4,99,P-GPS,
0.35595711143561,36.8882966632262,16000,2018-04-05 07:10:16,1787.9299400137709,12.8000004096,0.0,0.853717027318944,1787.9299400137709,12.8000004096,0.503999582744,0.853717027318944,1306,-28.7,99,P-GPS,
0.355957100859274,36.8882966910741,16100,2018-04-05 07:10:16,1788.0299400169708,12.9000004128,0.0,0.8569030274208961,1788.0299400169708,12.9000004128,0.503999582744,0.8569030274208961,1307,-29.0,99,P-GPS,
0.355957120873156,36.8882967481995,16200,2018-04-05 07:10:16,1788.229940023371,13.100000419200002,0.0,0.8606840275418881,1788.229940023371,13.100000419200002,0.503999582744,0.8606840275418881,1307,-29.0,99,P-GPS,
0.355957151217174,36.8882967542329,16300,2018-04-05 07:10:16,1788.429940029771,13.3000004256,0.0,0.8592310274953922,1788.429940029771,13.3000004256,0.503999582744,0.8606840275418881,1311,-29.2,99,P-GPS,
0.355957188374093,36.8882967937315,16400,2018-04-05 07:10:16,1788.5299400329711,13.4000004288,0.0,0.8603640275316481,1788.5299400329711,13.4000004288,0.503999582744,0.8606840275418881,1304,-29.2,99,P-GPS,
0.355957213901174,36.8882967814785,16500,2018-04-05 07:10:16,1788.7299400393708,13.600000435200002,0.0,0.8576020274432641,1788.7299400393708,13.600000435200002,0.503999582744,0.8606840275418881,1312,-29.2,99,P-GPS,
0.355957254562301,36.8882968249538,16600,2018-04-05 07:10:16,1788.929940045771,13.800000441600002,0.0,0.8589220274855041,1788.929940045771,13.800000441600002,0.503999582744,0.8606840275418881,1326,-29.2,99,P-GPS,
0.355957280953068,36.8882968107417,16700,2018-04-05 07:10:16,1789.029940048971,13.9000004448,0.35999970196000003,0.855941027390112,1789.029940048971,13.9000004448,0.503999582744,0.8606840275418881,1327,-29.2,99,P-GPS,
0.355957328247865,36.8882968190816,16800,2018-04-05 07:10:17,1789.229940055371,14.100000451200001,0.35999970196000003,0.85369002731808,1789.229940055371,14.100000451200001,0.503999582744,0.8606840275418881,1331,-29.2,99,P-GPS,
0.355957359370178,36.8882967880113,17000,2018-04-05 07:10:17,1789.6299400681708,14.500000464000001,0.35999970196000003,0.848878027164096,1789.6299400681708,14.500000464000001,0.503999582744,0.8606840275418881,1334,-29.2,99,P-GPS,
0.355957325623933,36.8882967310673,17100,2018-04-05 07:10:17,1789.729940071371,14.600000467200001,0.35999970196000003,0.845836027066752,1789.729940071371,14.600000467200001,0.503999582744,0.8606840275418881,1334,-29.2,99,P-GPS,
0.355957284249446,36.888296738153,17200,2018-04-05 07:10:17,1789.9299400777709,14.8000004736,0.35999970196000003,0.849136027172352,1789.9299400777709,14.8000004736,0.503999582744,0.8606840275418881,1325,-29.2,99,P-GPS,
0.355957243564401,36.8882967264578,17300,2018-04-05 07:10:17,1790.129940084171,15.00000048,0.35999970196000003,0.8507070272226241,1790.129940084171,15.00000048,0.503999582744,0.8606840275418881,1326,-29.2,99,P-GPS,
0.355957191564011,36.8882967988484,17400,2018-04-05 07:10:17,1790.329940090571,15.200000486400002,0.35999970196000003,0.860619027539808,1790.329940090571,15.200000486400002,0.503999582744,0.8606840275418881,1329,-29.2,99,P-GPS,
0.355957136271926,36.888296856582,17500,2018-04-05 07:10:17,1790.529940096971,15.4000004928,0.0,0.8694210278214721,1790.529940096971,15.4000004928,0.503999582744,0.8694210278214721,1326,-29.2,99,P-GPS,
0.35595711048694,36.8882969714019,17600,2018-04-05 07:10:17,1790.7299401033708,15.6000004992,0.0,0.881473028207136,1790.7299401033708,15.6000004992,0.503999582744,0.881473028207136,1323,-29.2,99,P-GPS,
0.355957083501893,36.8882970362453,17700,2018-04-05 07:10:18,1790.929940109771,15.8000005056,0.0,0.88909002845088,1790.929940109771,15.8000005056,0.503999582744,0.88909002845088,1319,-29.2,99,P-GPS,
0.355956961186716,36.8882972354053,17900,2018-04-05 07:10:18,1791.2299401193711,16.1000005152,0.0,0.9150260292808321,1791.2299401193711,16.1000005152,0.503999582744,0.9150260292808321,1311,-29.2,99,P-GPS,
0.355956846453168,36.8882973701094,18000,2018-04-05 07:10:18,1791.4299401257708,16.3000005216,0.0,0.934624029907968,1791.4299401257708,16.3000005216,0.503999582744,0.934624029907968,1306,-29.3,99,P-GPS,
0.355956728842973,36.8882974410461,18100,2018-04-05 07:10:18,1791.629940132171,16.500000528,0.0,0.948641030356512,1791.629940132171,16.500000528,0.503999582744,0.948641030356512,1302,-29.3,99,P-GPS,
0.355956559802751,36.8882975510318,18200,2018-04-05 07:10:18,1791.829940138571,16.7000005344,0.35999970196000003,0.9695770310264641,1791.829940138571,16.7000005344,0.503999582744,0.9695770310264641,1304,-29.3,99,P-GPS,
0.355956395889481,36.8882976055921,18300,2018-04-05 07:10:18,1792.029940144971,16.9000005408,0.503999582744,0.9852960315294721,1792.029940144971,16.9000005408,0.503999582744,0.9852960315294721,1306,-29.4,99,P-GPS,
0.35595626845641,36.8882977227026,18400,2018-04-05 07:10:18,1792.129940148171,17.000000544,0.35999970196000003,1.00422003213504,1792.129940148171,17.000000544,0.503999582744,1.00422003213504,1306,-29.5,99,P-GPS,
0.355956164411052,36.8882977909226,18500,2018-04-05 07:10:18,1792.3299401545712,17.2000005504,0.0,1.0172500325520002,1792.3299401545712,17.2000005504,0.503999582744,1.0172500325520002,1288,-29.5,99,P-GPS,
0.35595604569321,36.8882978895589,18600,2018-04-05 07:10:18,1792.529940160971,17.400000556800002,0.0,1.03399003308768,1792.529940160971,17.400000556800002,0.503999582744,1.03399003308768,1265,-29.6,99,P-GPS,
0.355955926057129,36.8882979388358,18700,2018-04-05 07:10:18,1792.6299401641709,17.50000056,0.0,1.04646003348672,1792.6299401641709,17.50000056,0.503999582744,1.04646003348672,1242,-29.7,99,P-GPS,
0.355955767794153,36.8882980236003,18800,2018-04-05 07:10:19,1792.829940170571,17.7000005664,0.0,1.06474003407168,1792.829940170571,17.7000005664,0.503999582744,1.06474003407168,1184,-29.7,99,P-GPS,
0.355955630974121,36.8882980646738,18900,2018-04-05 07:10:19,1792.929940173771,17.8000005696,0.0,1.0778000344896,1792.929940173771,17.8000005696,0.503999582744,1.0778000344896,1184,-29.7,99,P-GPS,
0.35595551798372,36.8882981612657,19000,2018-04-05 07:10:19,1793.029940176971,17.9000005728,0.0,1.09404003500928,1793.029940176971,17.9000005728,0.503999582744,1.09404003500928,1092,-29.7,99,P-GPS,
0.355955438526848,36.8882982175813,19100,2018-04-05 07:10:19,1793.1299401801712,18.000000576,0.0,1.1044700353430401,1793.1299401801712,18.000000576,0.503999582744,1.1044700353430401,1092,-29.7,99,P-GPS,
0.355955384886107,36.8882983724913,19200,2018-04-05 07:10:19,1793.229940183371,18.1000005792,0.0,1.1216200358918402,1793.229940183371,18.1000005792,0.503999582744,1.1216200358918402,1180,-29.7,99,P-GPS,
0.355955343987329,36.8882984719653,19300,2018-04-05 07:10:19,1793.3299401865709,18.2000005824,0.0,1.1331000362592,1793.3299401865709,18.2000005824,0.503999582744,1.1331000362592,1180,-29.7,99,P-GPS,
0.355955285030735,36.8882986016344,19400,2018-04-05 07:10:19,1793.3299401865709,18.2000005824,0.0,1.14846003675072,1793.3299401865709,18.2000005824,0.503999582744,1.14846003675072,1248,-29.7,99,P-GPS,
0.355955243180538,36.888298674533,19500,2018-04-05 07:10:19,1793.4299401897708,18.3000005856,0.0,1.1577000370464001,1793.4299401897708,18.3000005856,0.503999582744,1.1577000370464001,1249,-29.7,99,P-GPS,
0.355955150616321,36.8882988196648,19600,2018-04-05 07:10:19,1793.529940192971,18.4000005888,0.0,1.176750037656,1793.529940192971,18.4000005888,0.503999582744,1.176750037656,1245,-29.7,99,P-GPS,
0.355955065901815,36.8882989154891,19700,2018-04-05 07:10:19,1793.629940196171,18.500000592000003,0.0,1.1909500381104001,1793.629940196171,18.500000592000003,0.503999582744,1.1909500381104001,1247,-29.7,99,P-GPS,
0.355954975383127,36.8882990540442,19800,2018-04-05 07:10:20,1793.729940199371,18.6000005952,0.0,1.2092800386969602,1793.729940199371,18.6000005952,0.503999582744,1.2092800386969602,1260,-29.7,99,P-GPS,
0.355954920280246,36.8882991250424,19900,2018-04-05 07:10:20,1793.9299402057711,18.8000006016,0.35999970196000003,1.2192700390166402,1793.9299402057711,18.8000006016,0.503999582744,1.2192700390166402,1255,-29.7,99,P-GPS,
0.355954886672012,36.8882992355666,20000,2018-04-05 07:10:20,1794.029940208971,18.900000604800002,0.0,1.2312500394,1794.029940208971,18.900000604800002,0.503999582744,1.2312500394,1246,-29.7,99,P-GPS,
0.355954876437648,36.8882993012911,20100,2018-04-05 07:10:20,1794.1299402121708,19.000000608,0.0,1.23771003960672,1794.1299402121708,19.000000608,0.503999582744,1.23771003960672,1245,-29.7,99,P-GPS,
0.355954849555295,36.8882994227386,20200,2018-04-05 07:10:20,1794.2299402153708,19.1000006112,0.0,1.25023004000736,1794.2299402153708,19.1000006112,0.503999582744,1.25023004000736,1252,-29.7,99,P-GPS,
0.355954866386485,36.8882994605906,20300,2018-04-05 07:10:20,1794.329940218571,19.2000006144,0.35999970196000003,1.25243004007776,1794.329940218571,19.2000006144,0.503999582744,1.25243004007776,1254,-29.7,99,P-GPS,
0.355954901722498,36.8882995283102,20400,2018-04-05 07:10:20,1794.529940224971,19.4000006208,0.35999970196000003,1.2560500401936001,1794.529940224971,19.4000006208,0.503999582744,1.2560500401936001,1270,-29.5,99,P-GPS,
0.355954950369006,36.888299531651,20500,2018-04-05 07:10:20,1794.629940228171,19.500000624000002,0.35999970196000003,1.25309004009888,1794.629940228171,19.500000624000002,0.503999582744,1.2560500401936001,1263,-28.2,99,P-GPS,
0.355955000796624,36.8882995812555,20600,2018-04-05 07:10:20,1794.729940231371,19.6000006272,0.35999970196000003,1.2541700401334401,1794.729940231371,19.6000006272,0.503999582744,1.2560500401936001,1256,-27.0,99,P-GPS,
0.355955057721733,36.8882995724477,20700,2018-04-05 07:10:20,1794.9299402377708,19.800000633600003,0.35999970196000003,1.2496300399881601,1794.9299402377708,19.800000633600003,0.503999582744,1.2560500401936001,1259,-27.0,99,P-GPS,
0.355955126975589,36.8882996622568,20800,2018-04-05 07:10:21,1795.029940240971,19.900000636799998,0.35999970196000003,1.25318004010176,1795.029940240971,19.900000636799998,0.503999582744,1.2560500401936001,1258,-25.7,99,P-GPS,
0.355955211969984,36.8882997079473,20900,2018-04-05 07:10:21,1795.129940244171,20.00000064,0.503999582744,1.25184004005888,1795.129940244171,20.00000064,0.503999582744,1.2560500401936001,1252,-25.7,99,P-GPS,
0.355955290090107,36.8882998388588,21000,2018-04-05 07:10:21,1795.3299402505709,20.200000646400003,0.0,1.2588100402819202,1795.3299402505709,20.200000646400003,0.503999582744,1.2588100402819202,1249,-23.4,99,P-GPS,
0.355955359163409,36.8882999238546,21100,2018-04-05 07:10:21,1795.429940253771,20.3000006496,0.0,1.2623000403936,1795.429940253771,20.3000006496,0.503999582744,1.2623000403936,1251,-23.4,99,P-GPS,
0.355955380309975,36.8883001064631,21200,2018-04-05 07:10:21,1795.529940256971,20.4000006528,0.0,1.27789004089248,1795.529940256971,20.4000006528,0.503999582744,1.27789004089248,1252,-23.4,99,P-GPS,
0.355955394395812,36.8883002343567,21300,2018-04-05 07:10:21,1795.629940260171,20.500000656,0.0,1.28893004124576,1795.629940260171,20.500000656,0.503999582744,1.28893004124576,1256,-23.4,99,P-GPS,
0.355955376374026,36.8883004511959,21400,2018-04-05 07:10:21,1795.729940263371,20.6000006592,0.0,1.3103000419296,1795.729940263371,20.6000006592,0.503999582744,1.3103000419296,1254,-23.3,99,P-GPS,
0.355955360062106,36.8883005982885,21500,2018-04-05 07:10:21,1795.929940269771,20.800000665600002,0.0,1.3250900424028802,1795.929940269771,20.800000665600002,0.503999582744,1.3250900424028802,1254,-23.0,99,P-GPS,
0.35595531511176,36.8883007948271,21600,2018-04-05 07:10:21,1796.0299402729709,20.900000668800004,0.0,1.34627004308064,1796.0299402729709,20.900000668800004,0.503999582744,1.34627004308064,1251,-22.7,99,P-GPS,
0.35595527722601,36.8883009188537,21700,2018-04-05 07:10:21,1796.1299402761708,21.000000672,0.0,1.3602100435267201,1796.1299402761708,21.000000672,0.503999582744,1.3602100435267201,1249,-22.5,99,P-GPS,
0.355955233707676,36.8883011231825,21800,2018-04-05 07:10:22,1796.229940279371,21.1000006752,0.0,1.3821100442275203,1796.229940279371,21.1000006752,0.503999582744,1.3821100442275203,1248,-22.2,99,P-GPS,
0.355955210977855,36.8883012597821,21900,2018-04-05 07:10:22,1796.329940282571,21.200000678400002,0.0,1.39641004468512,1796.329940282571,21.200000678400002,0.503999582744,1.39641004468512,1252,-22.2,99,P-GPS,
0.355955232673614,36.8883014641495,22000,2018-04-05 07:10:22,1796.429940285771,21.3000006816,0.0,1.41468004526976,1796.429940285771,21.3000006816,0.503999582744,1.41468004526976,1254,-22.1,99,P-GPS,
0.355955262193029,36.8883016016109,22100,2018-04-05 07:10:22,1796.5299402889711,21.400000684800002,0.0,1.4262100456387201,1796.5299402889711,21.400000684800002,0.503999582744,1.4262100456387201,1255,-21.8,99,P-GPS,
0.355955290259262,36.8883018032237,22200,2018-04-05 07:10:22,1796.629940292171,21.500000688,0.0,1.44409004621088,1796.629940292171,21.500000688,0.503999582744,1.44409004621088,1258,-21.5,99,P-GPS,
0.355955311321149,36.8883019449729,22300,2018-04-05 07:10:22,1796.7299402953709,21.6000006912,0.0,1.45667004661344,1796.7299402953709,21.6000006912,0.503999582744,1.45667004661344,1260,-21.1,99,P-GPS,
0.355955296993081,36.8883021308339,22400,2018-04-05 07:10:22,1796.929940301771,21.8000006976,0.0,1.47551004721632,1796.929940301771,21.8000006976,0.503999582744,1.47551004721632,1265,-21.0,99,P-GPS,
0.355955280979777,36.8883022338221,22500,2018-04-05 07:10:22,1797.029940304971,21.900000700800003,0.0,1.48641004756512,1797.029940304971,21.900000700800003,0.503999582744,1.48641004756512,1264,-21.0,99,P-GPS,
0.355955290883566,36.8883023472005,22600,2018-04-05 07:10:22,1797.129940308171,22.000000703999998,0.35999970196000003,1.4969500479024,1797.129940308171,22.000000703999998,0.503999582744,1.4969500479024,1270,-21.0,99,P-GPS,
0.355955349255141,36.8883023558381,22700,2018-04-05 07:10:22,1797.229940311371,22.1000007072,0.503999582744,1.49471004783072,1797.229940311371,22.1000007072,0.503999582744,1.4969500479024,1284,-21.0,99,P-GPS,
0.355955440923511,36.8883023786835,22800,2018-04-05 07:10:23,1797.329940314571,22.2000007104,0.503999582744,1.4921600477491201,1797.329940314571,22.2000007104,0.503999582744,1.4969500479024,1303,-21.0,99,P-GPS,
0.355955542680701,36.8883023548574,22900,2018-04-05 07:10:23,1797.429940317771,22.300000713600003,0.503999582744,1.4845600475059202,1797.429940317771,22.300000713600003,0.503999582744,1.4969500479024,1313,-21.0,99,P-GPS,
0.355955650229046,36.8883023652144,23000,2018-04-05 07:10:23,1797.6299403241708,22.50000072,0.503999582744,1.48011004736352,1797.6299403241708,22.50000072,0.503999582744,1.4969500479024,1324,-21.0,99,P-GPS,
0.355955730483448,36.888302329177,23100,2018-04-05 07:10:23,1797.729940327371,22.6000007232,0.35999970196000003,1.47249004711968,1797.729940327371,22.6000007232,0.503999582744,1.4969500479024,1351,-21.0,99,P-GPS,
0.355955834735211,36.8883023030073,23300,2018-04-05 07:10:23,1798.129940340171,23.000000736000004,0.35999970196000003,1.46469004687008,1798.129940340171,23.000000736000004,0.503999582744,1.4969500479024,1388,-21.0,99,P-GPS,
0.355955869032481,36.8883023407641,23400,2018-04-05 07:10:23,1798.329940346571,23.2000007424,0.35999970196000003,1.4667600469363202,1798.329940346571,23.2000007424,0.503999582744,1.4969500479024,1403,-21.0,99,P-GPS,
0.35595589921162,36.88830232346,23500,2018-04-05 07:10:23,1798.5299403529712,23.4000007488,0.35999970196000003,1.4635500468336,1798.5299403529712,23.4000007488,0.503999582744,1.4969500479024,1400,-21.0,99,P-GPS,
0.355955911258034,36.8883023895426,23600,2018-04-05 07:10:23,1798.7299403593709,23.6000007552,0.35999970196000003,1.46956004702592,1798.7299403593709,23.6000007552,0.503999582744,1.4969500479024,1400,-21.0,99,P-GPS,
0.355955928740398,36.888302381056,23700,2018-04-05 07:10:23,1798.929940365771,23.8000007616,0.7199994039200001,1.4678600469715202,1798.929940365771,23.8000007616,0.7199994039200001,1.4969500479024,1397,-21.0,99,P-GPS,
0.355955962384255,36.8883024145753,23800,2018-04-05 07:10:24,1799.129940372171,24.000000768000003,0.7199994039200001,1.46958004702656,1799.129940372171,24.000000768000003,0.7199994039200001,1.4969500479024,1403,-21.0,99,P-GPS,
0.355955998547314,36.8883023796556,23900,2018-04-05 07:10:24,1799.4299403817708,24.3000007776,0.7199994039200001,1.46434004685888,1799.4299403817708,24.3000007776,0.7199994039200001,1.4969500479024,1419,-21.0,99,P-GPS,
0.355956021471531,36.8883023844648,24000,2018-04-05 07:10:24,1799.629940388171,24.500000784,0.35999970196000003,1.46372004683904,1799.629940388171,24.500000784,0.7199994039200001,1.4969500479024,1423,-21.0,99,P-GPS,
0.355956022132883,36.8883023647561,24100,2018-04-05 07:10:24,1799.829940394571,24.7000007904,0.35999970196000003,1.4617100467747202,1799.829940394571,24.7000007904,0.7199994039200001,1.4969500479024,1437,-21.0,99,P-GPS,
0.355956030346551,36.8883024299641,24200,2018-04-05 07:10:24,1800.129940404171,25.000000800000002,0.35999970196000003,1.4678600469715202,1800.129940404171,25.000000800000002,0.7199994039200001,1.4969500479024,1447,-21.0,99,P-GPS,
0.355956027340036,36.888302443505,24300,2018-04-05 07:10:24,1800.3299404105708,25.2000008064,0.35999970196000003,1.46936004701952,1800.3299404105708,25.2000008064,0.7199994039200001,1.4969500479024,1445,-21.0,99,P-GPS,
0.35595598378323,36.888302529202,24400,2018-04-05 07:10:24,1800.529940416971,25.400000812800002,0.35999970196000003,1.4800500473616,1800.529940416971,25.400000812800002,0.7199994039200001,1.4969500479024,1430,-21.0,99,P-GPS,
0.355955922072123,36.8883025523665,24500,2018-04-05 07:10:24,1800.829940426571,25.7000008224,0.35999970196000003,1.48533004753056,1800.829940426571,25.7000008224,0.7199994039200001,1.4969500479024,1425,-21.0,99,P-GPS,
0.355955858745804,36.8883026095289,24600,2018-04-05 07:10:24,1801.029940432971,25.9000008288,0.35999970196000003,1.4941100478115201,1801.029940432971,25.9000008288,0.7199994039200001,1.4969500479024,1438,-21.0,99,P-GPS,
0.355955795593728,36.8883026170681,24700,2018-04-05 07:10:24,1801.329940442571,26.200000838400005,0.35999970196000003,1.49794004793408,1801.329940442571,26.200000838400005,0.7199994039200001,1.49794004793408,1448,-21.0,99,P-GPS,
0.355955687299352,36.8883027098503,24800,2018-04-05 07:10:25,1801.529940448971,26.4000008448,0.35999970196000003,1.5125100484003202,1801.529940448971,26.4000008448,0.7199994039200001,1.5125100484003202,1443,-21.0,99,P-GPS,
0.355955593778628,36.8883027442443,24900,2018-04-05 07:10:25,1801.829940458571,26.700000854400002,0.35999970196000003,1.5205600486579203,1801.829940458571,26.700000854400002,0.7199994039200001,1.5205600486579203,1454,-21.0,99,P-GPS,
0.355955502831456,36.8883028218433,25000,2018-04-05 07:10:25,1802.1299404681708,27.000000864,0.35999970196000003,1.5328100490499201,1802.1299404681708,27.000000864,0.7199994039200001,1.5328100490499201,1454,-21.0,99,P-GPS,
0.355955467983161,36.8883028211774,25100,2018-04-05 07:10:25,1802.329940474571,27.200000870400004,0.35999970196000003,1.5344900491036801,1802.329940474571,27.200000870400004,0.7199994039200001,1.5344900491036801,1457,-21.0,99,P-GPS,
0.355955440478742,36.8883029062931,25200,2018-04-05 07:10:25,1802.629940484171,27.50000088,0.35999970196000003,1.5443100494179203,1802.629940484171,27.50000088,0.7199994039200001,1.5443100494179203,1451,-21.0,99,P-GPS,
0.355955386672713,36.8883029480239,25300,2018-04-05 07:10:25,1802.9299404937708,27.8000008896,0.35999970196000003,1.5511600496371203,1802.9299404937708,27.8000008896,0.7199994039200001,1.5511600496371203,1441,-21.0,99,P-GPS,
0.355955302032301,36.8883030663152,25400,2018-04-05 07:10:25,1803.229940503371,28.1000008992,0.35999970196000003,1.5671500501488,1803.229940503371,28.1000008992,0.7199994039200001,1.5671500501488,1464,-21.0,99,P-GPS,
0.35595521269566,36.8883031009919,25500,2018-04-05 07:10:25,1803.529940512971,28.4000009088,0.35999970196000003,1.57512005040384,1803.529940512971,28.4000009088,0.7199994039200001,1.57512005040384,1478,-21.0,99,P-GPS,
0.355955093529588,36.8883031810822,25600,2018-04-05 07:10:25,1803.8299405225712,28.7000009184,0.35999970196000003,1.5891300508521602,1803.8299405225712,28.7000009184,0.7199994039200001,1.5891300508521602,1476,-21.0,99,P-GPS,
0.355954977191921,36.8883031854245,25700,2018-04-05 07:10:25,1804.0299405289709,28.9000009248,0.35999970196000003,1.59558005105856,1804.0299405289709,28.9000009248,0.7199994039200001,1.59558005105856,1473,-21.0,99,P-GPS,
0.35595485534197,36.8883032287998,25800,2018-04-05 07:10:26,1804.329940538571,29.200000934400002,0.35999970196000003,1.6062300513993601,1804.329940538571,29.200000934400002,0.7199994039200001,1.6062300513993601,1462,-21.0,99,P-GPS,
0.35595464068089,36.8883032887179,26100,2018-04-05 07:10:26,1805.229940567371,30.1000009632,0.7199994039200001,1.62351005195232,1805.229940567371,30.1000009632,0.7199994039200001,1.62351005195232,1462,-21.0,99,P-GPS,
0.355954626558616,36.8883032812515,26200,2018-04-05 07:10:26,1805.529940576971,30.400000972800004,0.7199994039200001,1.6235500519536001,1805.529940576971,30.400000972800004,0.7199994039200001,1.6235500519536001,1463,-21.0,99,P-GPS,
0.35595465248548,36.8883031813348,26300,2018-04-05 07:10:26,1805.829940586571,30.700000982400002,0.7919993443119999,1.61243005159776,1805.829940586571,30.700000982400002,0.7919993443119999,1.6235500519536001,1469,-21.0,99,P-GPS,
0.355954718143935,36.8883031448211,26400,2018-04-05 07:10:26,1806.129940596171,31.000000992,0.7919993443119999,1.60534005137088,1806.129940596171,31.000000992,0.7919993443119999,1.6235500519536001,1466,-21.0,99,P-GPS,
0.35595478029635,36.8883030660187,26500,2018-04-05 07:10:26,1806.429940605771,31.300001001600002,0.7919993443119999,1.5943300510185603,1806.429940605771,31.300001001600002,0.7919993443119999,1.6235500519536001,1466,-21.0,99,P-GPS,
0.355954846253217,36.8883030600994,26600,2018-04-05 07:10:26,1806.7299406153709,31.6000010112,0.7199994039200001,1.59022005088704,1806.7299406153709,31.6000010112,0.7919993443119999,1.6235500519536001,1469,-21.0,99,P-GPS,
0.35595488673145,36.8883030188642,26700,2018-04-05 07:10:27,1807.029940624971,31.9000010208,0.7199994039200001,1.58404005068928,1807.029940624971,31.9000010208,0.7919993443119999,1.6235500519536001,1475,-21.0,99,P-GPS,
0.355954907464799,36.8883030411712,26800,2018-04-05 07:10:27,1807.3299406345711,32.2000010304,0.7199994039200001,1.58511005072352,1807.3299406345711,32.2000010304,0.7919993443119999,1.6235500519536001,1482,-21.0,99,P-GPS,
0.355954921137622,36.8883030214904,26900,2018-04-05 07:10:27,1807.5299406409708,32.4000010368,0.35999970196000003,1.5824700506390401,1807.5299406409708,32.4000010368,0.7919993443119999,1.6235500519536001,1485,-21.0,99,P-GPS,
0.355954904689523,36.8883030450917,27000,2018-04-05 07:10:27,1807.829940650571,32.700001046400004,0.35999970196000003,1.5856400507404802,1807.829940650571,32.700001046400004,0.7919993443119999,1.6235500519536001,1505,-21.0,99,P-GPS,
0.355954892801882,36.8883030077343,27100,2018-04-05 07:10:27,1808.129940660171,33.000001056,0.35999970196000003,1.5826300506441602,1808.129940660171,33.000001056,0.7919993443119999,1.6235500519536001,1519,-21.0,99,P-GPS,
0.355954882466555,36.8883030286292,27200,2018-04-05 07:10:27,1808.429940669771,33.3000010656,0.35999970196000003,1.58522005072704,1808.429940669771,33.3000010656,0.7919993443119999,1.6235500519536001,1523,-21.0,99,P-GPS,
0.355954866521646,36.8883030271646,27300,2018-04-05 07:10:27,1808.7299406793709,33.600001075200005,0.35999970196000003,1.58592005074944,1808.7299406793709,33.600001075200005,0.7919993443119999,1.6235500519536001,1526,-21.0,99,P-GPS,
0.355954790292146,36.8883030972726,27500,2018-04-05 07:10:27,1809.329940698571,34.2000010944,0.35999970196000003,1.59683005109856,1809.329940698571,34.2000010944,0.7919993443119999,1.6235500519536001,1530,-21.0,99,P-GPS,
0.35595477697066,36.8883031438875,27600,2018-04-05 07:10:27,1809.729940711371,34.6000011072,0.35999970196000003,1.60209005126688,1809.729940711371,34.6000011072,0.7919993443119999,1.6235500519536001,1520,-21.0,99,P-GPS,
0.355954792339101,36.8883031475436,27700,2018-04-05 07:10:27,1810.0299407209711,34.900001116800006,0.35999970196000003,1.60163005125216,1810.0299407209711,34.900001116800006,0.7919993443119999,1.6235500519536001,1521,-21.0,99,P-GPS,
0.355954837570354,36.8883032213302,27800,2018-04-05 07:10:28,1810.329940730571,35.200001126400004,0.0,1.6064300514057601,1810.329940730571,35.200001126400004,0.7919993443119999,1.6235500519536001,1524,-21.0,99,P-GPS,
0.355954885750719,36.888303249367,27900,2018-04-05 07:10:28,1810.7299407433711,35.6000011392,0.35999970196000003,1.6066400514124801,1810.7299407433711,35.6000011392,0.7919993443119999,1.6235500519536001,1521,-21.0,99,P-GPS,
0.355954913839343,36.8883033148758,28000,2018-04-05 07:10:28,1811.0299407529708,35.9000011488,0.35999970196000003,1.6116000515712001,1811.0299407529708,35.9000011488,0.7919993443119999,1.6235500519536001,1508,-21.0,99,P-GPS,
0.355954945496294,36.8883033077456,28100,2018-04-05 07:10:28,1811.329940762571,36.2000011584,0.35999970196000003,1.6092500514960002,1811.329940762571,36.2000011584,0.7919993443119999,1.6235500519536001,1496,-21.0,99,P-GPS,
0.355955002552086,36.888303332895,28200,2018-04-05 07:10:28,1811.729940775371,36.6000011712,0.503999582744,1.60877005148064,1811.729940775371,36.6000011712,0.7919993443119999,1.6235500519536001,1491,-21.0,99,P-GPS,
0.355955056509764,36.8883033037683,28300,2018-04-05 07:10:28,1812.029940784971,36.900001180800004,0.35999970196000003,1.60313005130016,1812.029940784971,36.900001180800004,0.7919993443119999,1.6235500519536001,1492,-21.0,99,P-GPS,
0.355955094235112,36.8883033531154,28400,2018-04-05 07:10:28,1812.329940794571,37.2000011904,0.35999970196000003,1.60607005139424,1812.329940794571,37.2000011904,0.7919993443119999,1.6235500519536001,1485,-21.0,99,P-GPS,
0.355955126042694,36.888303361754,28500,2018-04-05 07:10:28,1812.6299408041712,37.5000012,0.35999970196000003,1.6053100513699199,1812.6299408041712,37.5000012,0.7919993443119999,1.6235500519536001,1486,-21.0,99,P-GPS,
0.355955124854337,36.8883034190288,28600,2018-04-05 07:10:28,1812.9299408137708,37.800001209600005,0.35999970196000003,1.6110500515536001,1812.9299408137708,37.800001209600005,0.7919993443119999,1.6235500519536001,1480,-21.0,99,P-GPS,
0.355955069752678,36.888303481314,28800,2018-04-05 07:10:29,1813.529940832971,38.4000012288,0.35999970196000003,1.62000005184,1813.529940832971,38.4000012288,0.7919993443119999,1.6235500519536001,1473,-21.0,99,P-GPS,
0.35595505424297,36.8883035023042,28900,2018-04-05 07:10:29,1813.829940842571,38.7000012384,0.35999970196000003,1.6228600519315202,1813.829940842571,38.7000012384,0.7919993443119999,1.6235500519536001,1475,-21.0,99,P-GPS,
0.355955076033179,36.8883035669586,29000,2018-04-05 07:10:29,1814.1299408521709,39.000001248000004,0.35999970196000003,1.6281700521014402,1814.1299408521709,39.000001248000004,0.7919993443119999,1.6281700521014402,1490,-21.0,99,P-GPS,
0.355955108779967,36.8883035681994,29100,2018-04-05 07:10:29,1814.429940861771,39.3000012576,0.35999970196000003,1.6266500520528,1814.429940861771,39.3000012576,0.7919993443119999,1.6281700521014402,1510,-21.0,99,P-GPS,
0.355955127712053,36.8883036380302,29200,2018-04-05 07:10:29,1814.729940871371,39.60000126720001,0.35999970196000003,1.6326400522444802,1814.729940871371,39.60000126720001,0.7919993443119999,1.6326400522444802,1518,-21.0,98,P-GPS,
0.355955138882975,36.888303649917,29300,2018-04-05 07:10:29,1815.029940880971,39.900001276800005,0.35999970196000003,1.6332600522643201,1815.029940880971,39.900001276800005,0.7919993443119999,1.6332600522643201,1523,-21.0,98,P-GPS,
0.355955144239538,36.8883037225185,29400,2018-04-05 07:10:29,1815.3299408905712,40.2000012864,0.35999970196000003,1.64022005248704,1815.3299408905712,40.2000012864,0.7919993443119999,1.64022005248704,1533,-21.0,98,P-GPS,
0.355955135148749,36.8883037534748,29500,2018-04-05 07:10:29,1815.6299409001708,40.500001296,0.35999970196000003,1.6437600526003202,1815.6299409001708,40.500001296,0.7919993443119999,1.6437600526003202,1535,-21.0,98,P-GPS,
0.355955146958836,36.8883038381184,29600,2018-04-05 07:10:29,1815.929940909771,40.8000013056,0.35999970196000003,1.6516100528515203,1815.929940909771,40.8000013056,0.7919993443119999,1.6516100528515203,1534,-21.0,98,P-GPS,
0.355955165672711,36.8883038721377,29700,2018-04-05 07:10:29,1816.229940919371,41.100001315200004,0.35999970196000003,1.65409005293088,1816.229940919371,41.100001315200004,0.7919993443119999,1.65409005293088,1538,-21.0,98,P-GPS,
0.35595518865718,36.8883039724376,29800,2018-04-05 07:10:30,1816.629940932171,41.500001328,0.35999970196000003,1.663000053216,1816.629940932171,41.500001328,0.7919993443119999,1.663000053216,1533,-21.0,98,P-GPS,
0.355955228671306,36.8883039997892,29900,2018-04-05 07:10:30,1816.929940941771,41.80000133760001,0.35999970196000003,1.66381005324192,1816.929940941771,41.80000133760001,0.7919993443119999,1.66381005324192,1533,-21.0,98,P-GPS,
0.355955291527005,36.8883040322658,30000,2018-04-05 07:10:30,1817.329940954571,42.2000013504,0.7199994039200001,1.6640600532499201,1817.329940954571,42.2000013504,0.7919993443119999,1.6640600532499201,1512,-21.0,98,P-GPS,
0.355955356470573,36.888303989094,30100,2018-04-05 07:10:30,1817.629940964171,42.50000136,0.35999970196000003,1.6566300530121603,1817.629940964171,42.50000136,0.7919993443119999,1.6640600532499201,1507,-21.0,98,P-GPS,
0.355955410843504,36.8883040403809,30200,2018-04-05 07:10:30,1818.0299409769711,42.900001372800006,0.35999970196000003,1.65923005309536,1818.0299409769711,42.900001372800006,0.7919993443119999,1.6640600532499201,1532,-21.0,98,P-GPS,
0.355955453119131,36.8883040597084,30300,2018-04-05 07:10:30,1818.3299409865708,43.2000013824,0.35999970196000003,1.6592000530944,1818.3299409865708,43.2000013824,0.7919993443119999,1.6640600532499201,1532,-21.0,98,P-GPS,
0.355955492585489,36.8883041398041,30400,2018-04-05 07:10:30,1818.729940999371,43.6000013952,0.35999970196000003,1.6654700532950402,1818.729940999371,43.6000013952,0.7919993443119999,1.6654700532950402,1572,-21.0,98,P-GPS,
0.355955549928499,36.888304151556,30500,2018-04-05 07:10:30,1819.0299410089708,43.9000014048,0.35999970196000003,1.66402005324864,1819.0299410089708,43.9000014048,0.7919993443119999,1.6654700532950402,1570,-21.0,98,P-GPS,
0.355955624036339,36.8883042074637,30600,2018-04-05 07:10:30,1819.329941018571,44.2000014144,0.35999970196000003,1.66633005332256,1819.329941018571,44.2000014144,0.7919993443119999,1.66633005332256,1607,-21.0,98,P-GPS,
0.355955678193094,36.8883042021086,30700,2018-04-05 07:10:31,1819.729941031371,44.600001427200006,0.35999970196000003,1.6633500532272,1819.729941031371,44.600001427200006,0.7919993443119999,1.66633005332256,1610,-21.0,98,P-GPS,
0.355955701287279,36.8883042633017,30800,2018-04-05 07:10:31,1820.129941044171,45.00000144,0.35999970196000003,1.6685500533936002,1820.129941044171,45.00000144,0.7919993443119999,1.6685500533936002,1610,-21.0,98,P-GPS,
0.355955684272482,36.888304283626,30900,2018-04-05 07:10:31,1820.529941056971,45.4000014528,0.35999970196000003,1.6713800534841603,1820.529941056971,45.4000014528,0.7919993443119999,1.6713800534841603,1615,-21.0,98,P-GPS,
0.355955613499085,36.8883044251825,31000,2018-04-05 07:10:31,1820.9299410697708,45.800001465600005,0.35999970196000003,1.68896005404672,1820.9299410697708,45.800001465600005,0.7919993443119999,1.68896005404672,1620,-21.0,98,P-GPS,
0.355955542290282,36.8883045271001,31100,2018-04-05 07:10:31,1821.329941082571,46.2000014784,0.0,1.70252005448064,1821.329941082571,46.2000014784,0.7919993443119999,1.70252005448064,1622,-21.0,98,P-GPS,
0.355955473583584,36.8883047086177,31200,2018-04-05 07:10:31,1821.7299410953708,46.600001491200004,0.0,1.7240700551702401,1821.7299410953708,46.600001491200004,0.7919993443119999,1.7240700551702401,1621,-21.0,98,P-GPS,
0.355955434541028,36.888304818507,31300,2018-04-05 07:10:31,1822.229941111371,47.100001507200005,0.0,1.7370100555843202,1822.229941111371,47.100001507200005,0.7919993443119999,1.7370100555843202,1633,-21.0,98,P-GPS,
0.355955430493531,36.8883049975622,31400,2018-04-05 07:10:31,1822.629941124171,47.500001520000005,0.0,1.7554400561740802,1822.629941124171,47.500001520000005,0.7919993443119999,1.7554400561740802,1630,-21.0,98,P-GPS,
0.35595542770482,36.8883050837314,31500,2018-04-05 07:10:31,1823.029941136971,47.9000015328,0.35999970196000003,1.76436005645952,1823.029941136971,47.9000015328,0.7919993443119999,1.76436005645952,1615,-21.0,98,P-GPS,
0.355955437731353,36.8883052118166,31600,2018-04-05 07:10:31,1823.5299411529709,48.4000015488,0.35999970196000003,1.7770100568643201,1823.5299411529709,48.4000015488,0.7919993443119999,1.7770100568643201,1605,-21.0,98,P-GPS,
