latitude,longitude,time_millisecond,datetime_utc,altitude_m,ascent_m,speed_kph,distance_m,max_altitude_m,max_ascent_m,max_speed_kph,max_distance_m,rc_throttle,gimbal_pitch_degrees,battery_percent,flycState,message
0.371701466963116,36.9135445717747,0,2018-04-18 06:03:14,1649.505790084174,0.0,0.0,0.0,1649.505790084174,0.0,0.0,0.0,364,0.0,99,Motors_Started,
0.371701451184003,36.913544572978296,100,2018-04-18 06:03:14,1649.505790084174,0.0,0.0,0.00175983005631456,1649.505790084174,0.0,0.0,0.00175983005631456,364,0.0,99,Motors_Started,Setting new Return-To-Home altitude to 30m (98 ft). Setting new Maximum Flight Altitude to 150m (492 ft)
0.371701423916217,36.913544616146005,200,2018-04-18 06:03:14,1649.505790084174,0.0,0.0,0.006874810219993921,1649.505790084174,0.0,0.0,0.006874810219993921,364,0.0,99,Motors_Started,
0.37170139502426197,36.9135446470867,300,2018-04-18 06:03:14,1649.505790084174,0.0,0.0,0.011581900370620799,1649.505790084174,0.0,0.0,0.011581900370620799,364,0.0,99,Motors_Started,
0.37170135396345294,36.913544630566,400,2018-04-18 06:03:15,1649.505790084174,0.0,0.0,0.0141652004532864,1649.505790084174,0.0,0.0,0.0141652004532864,364,0.0,99,Motors_Started,
0.37170131540363,36.913544618543604,500,2018-04-18 06:03:15,1649.505790084174,0.0,0.0,0.017638500564432,1649.505790084174,0.0,0.0,0.017638500564432,364,0.0,99,Motors_Started,
0.371701302428493,36.9135446442289,600,2018-04-18 06:03:15,1649.505790084174,0.0,0.0,0.0199927006397664,1649.505790084174,0.0,0.0,0.0199927006397664,364,0.0,99,Motors_Started,
0.371701285307644,36.913544664015205,700,2018-04-18 06:03:15,1649.505790084174,0.0,0.0,0.022656200724998403,1649.505790084174,0.0,0.0,0.022656200724998403,364,0.0,99,Motors_Started,
0.37170125199253,36.9135446784155,800,2018-04-18 06:03:15,1649.505790084174,0.0,0.0,0.026685800853945604,1649.505790084174,0.0,0.0,0.026685800853945604,364,0.0,99,Motors_Started,
0.371701219300906,36.9135446895074,900,2018-04-18 06:03:15,1649.505790084174,0.0,0.0,0.030495000975840004,1649.505790084174,0.0,0.0,0.030495000975840004,364,0.0,99,Motors_Started,
0.371701210085337,36.91354469441671,1000,2018-04-18 06:03:15,1649.505790084174,0.0,0.0,0.03165500101296,1649.505790084174,0.0,0.0,0.03165500101296,364,0.0,99,Motors_Started,
0.37170119605843,36.9135446984905,1100,2018-04-18 06:03:15,1649.505790084174,0.0,0.0,0.0332589010642848,1649.505790084174,0.0,0.0,0.0332589010642848,364,0.0,99,Motors_Started,
0.37170120442171095,36.913544659741895,1200,2018-04-18 06:03:15,1649.505790084174,0.0,0.0,0.0307914009853248,1649.505790084174,0.0,0.0,0.0332589010642848,364,0.0,99,Motors_Started,
0.37170120263703793,36.9135446294854,1300,2018-04-18 06:03:16,1649.505790084174,0.0,0.0,0.0300871009627872,1649.505790084174,0.0,0.0,0.0332589010642848,364,0.0,99,Motors_Started,
0.371701217964767,36.91354460062821,1400,2018-04-18 06:03:16,1649.505790084174,0.0,0.0,0.027875400892012802,1649.505790084174,0.0,0.0,0.0332589010642848,364,0.0,99,Motors_Started,
0.37170122245621895,36.913544579879705,1500,2018-04-18 06:03:16,1649.505790084174,0.0,0.0,0.0272056008705792,1649.505790084174,0.0,0.0,0.0332589010642848,364,0.0,99,Assisted_Takeoff,
0.37170120238697,36.913544600090006,1600,2018-04-18 06:03:16,1649.505790084174,0.0,0.0,0.029590500946896,1649.505790084174,0.0,0.0,0.0332589010642848,364,0.0,99,Assisted_Takeoff,
0.371701183870341,36.9135446158475,1700,2018-04-18 06:03:16,1649.505790084174,0.0,0.0,0.0318609010195488,1649.505790084174,0.0,0.0,0.0332589010642848,364,0.0,99,Assisted_Takeoff,
0.371701138636441,36.9135446343999,1800,2018-04-18 06:03:16,1649.505790084174,0.0,0.0,0.0371702011894464,1649.505790084174,0.0,0.0,0.0371702011894464,364,0.0,99,Assisted_Takeoff,
0.37170110122640104,36.913544644988896,1900,2018-04-18 06:03:16,1649.505790084174,0.0,0.0,0.041479001327328006,1649.505790084174,0.0,0.0,0.041479001327328006,364,0.0,99,Assisted_Takeoff,
0.371701080379468,36.913544655621,2000,2018-04-18 06:03:16,1649.505790084174,0.0,0.0,0.04399000140768,1649.505790084174,0.0,0.0,0.04399000140768,364,0.0,99,Assisted_Takeoff,
0.37170106152961796,36.9135446626415,2100,2018-04-18 06:03:16,1649.505790084174,0.0,0.0,0.04620510147856321,1649.505790084174,0.0,0.0,0.04620510147856321,463,0.0,99,Assisted_Takeoff,
0.37170105703775896,36.913544667775604,2200,2018-04-18 06:03:16,1649.505790084174,0.0,0.0,0.046819601498227205,1649.505790084174,0.0,0.0,0.046819601498227205,463,0.0,99,Assisted_Takeoff,
0.37170105068927006,36.913544671152,2300,2018-04-18 06:03:16,1649.505790084174,0.0,0.0,0.047593001522976006,1649.505790084174,0.0,0.0,0.047593001522976006,682,0.0,99,Assisted_Takeoff,
0.371701017602748,36.9135446735827,2400,2018-04-18 06:03:17,1649.505790084174,0.0,0.0,0.051238001639616004,1649.505790084174,0.0,0.0,0.051238001639616004,1024,0.0,99,Assisted_Takeoff,
0.371700989577634,36.9135446738037,2500,2018-04-18 06:03:17,1649.505790084174,0.0,0.0,0.054287101737187204,1649.505790084174,0.0,0.0,0.054287101737187204,1024,0.0,99,Assisted_Takeoff,
0.37170097559825704,36.913544635419704,2600,2018-04-18 06:03:17,1649.505790084174,0.0,0.0,0.0550992017631744,1649.505790084174,0.0,0.0,0.0550992017631744,1024,0.0,99,Assisted_Takeoff,
0.371700963098931,36.913544604384604,2700,2018-04-18 06:03:17,1649.505790084174,0.0,0.0,0.056150001796800006,1649.505790084174,0.0,0.0,0.056150001796800006,1024,0.0,99,Assisted_Takeoff,
0.37170096360761606,36.9135445778339,2800,2018-04-18 06:03:17,1649.505790084174,0.0,0.0,0.05598030179136961,1649.505790084174,0.0,0.0,0.056150001796800006,1024,0.0,99,Assisted_Takeoff,
0.371700961553945,36.913544556602204,2900,2018-04-18 06:03:17,1649.505790084174,0.0,0.0,0.0562299017993568,1649.505790084174,0.0,0.0,0.0562299017993568,1024,0.0,99,Assisted_Takeoff,
0.37170096942564,36.9135445432032,3000,2018-04-18 06:03:17,1649.505790084174,0.0,0.0,0.055420401773452796,1649.505790084174,0.0,0.0,0.0562299017993568,1024,0.0,99,Assisted_Takeoff,
0.37170097309289596,36.9135445300755,3100,2018-04-18 06:03:17,1649.505790084174,0.0,0.0,0.0551168017637376,1649.505790084174,0.0,0.0,0.0562299017993568,1024,0.0,99,Assisted_Takeoff,
0.371700982872719,36.9135445264477,3200,2018-04-18 06:03:17,1649.505790084174,0.0,0.0,0.0540693017302176,1649.505790084174,0.0,0.0,0.0562299017993568,1024,0.0,99,Assisted_Takeoff,
0.371700989153424,36.9135445196044,3300,2018-04-18 06:03:18,1649.505790084174,0.0,0.0,0.05345110171043521,1649.505790084174,0.0,0.0,0.0562299017993568,1024,0.0,99,Assisted_Takeoff,
0.371700998603488,36.9135445211216,3400,2018-04-18 06:03:18,1649.505790084174,0.0,0.0,0.052388101676419205,1649.505790084174,0.0,0.0,0.0562299017993568,1024,0.0,99,Assisted_Takeoff,
0.37170100505253395,36.9135445180572,3500,2018-04-18 06:03:18,1649.505790084174,0.0,0.0,0.0517134016548288,1649.505790084174,0.0,0.0,0.0562299017993568,1061,0.0,99,Assisted_Takeoff,
0.37170101308829395,36.913544522425205,3600,2018-04-18 06:03:18,1649.505790084174,0.0,0.0,0.0507711016246752,1649.505790084174,0.0,0.0,0.0562299017993568,1097,0.0,99,Assisted_Takeoff,
0.3717010199521861,36.9135445218662,3700,2018-04-18 06:03:18,1649.505790084174,0.0,0.0,0.050019201600614405,1649.505790084174,0.0,0.0,0.0562299017993568,1134,0.0,99,Assisted_Takeoff,
0.37170102678350797,36.913544527810394,3800,2018-04-18 06:03:18,1649.505790084174,0.0,0.0,0.0491942015742144,1649.505790084174,0.0,0.0,0.0562299017993568,1171,0.0,99,Assisted_Takeoff,
0.371701033715794,36.9135445283705,3900,2018-04-18 06:03:18,1649.505790084174,0.0,0.0,0.048420901549468806,1649.505790084174,0.0,0.0,0.0562299017993568,1176,0.0,99,Assisted_Takeoff,
0.37170103838169394,36.913544572686,4000,2018-04-18 06:03:18,1649.505790084174,0.0,0.0,0.047661001525152,1649.505790084174,0.0,0.0,0.0562299017993568,1182,0.0,99,Assisted_Takeoff,
0.371701045038569,36.9135446032173,4100,2018-04-18 06:03:18,1649.505790084174,0.0,0.0,0.0470507015056224,1649.505790084174,0.0,0.0,0.0562299017993568,1180,0.0,99,Assisted_Takeoff,
0.37170104736459797,36.913544633521,4200,2018-04-18 06:03:18,1649.505790084174,0.0,0.0,0.0471644015092608,1649.505790084174,0.0,0.0,0.0562299017993568,1176,0.0,99,Assisted_Takeoff,
0.37170105185543895,36.9135446525881,4300,2018-04-18 06:03:18,1649.505790084174,0.0,0.0,0.0470291015049312,1649.505790084174,0.0,0.0,0.0562299017993568,1177,0.0,99,Assisted_Takeoff,
0.37170104945328103,36.9135446725517,4400,2018-04-18 06:03:19,1649.505790084174,0.0,0.0,0.047763001528416,1649.505790084174,0.0,0.0,0.0562299017993568,1214,0.0,99,Assisted_Takeoff,
0.371701045365886,36.9135447079874,4500,2018-04-18 06:03:19,1649.505790084174,0.0,0.0,0.0492704015766528,1649.505790084174,0.0,0.0,0.0562299017993568,1219,0.0,99,Assisted_Takeoff,
0.371701068509536,36.913544781424996,4600,2018-04-18 06:03:19,1649.505790084174,0.0,0.0,0.050069501602224,1649.505790084174,0.0,0.0,0.0562299017993568,1214,0.0,99,Assisted_Takeoff,
0.371701069891067,36.913544861836705,4700,2018-04-18 06:03:19,1649.505790084174,0.0,0.0,0.0546834017498688,1649.505790084174,0.0,0.0,0.0562299017993568,1217,0.0,99,P-GPS,Obstacle Avoided. Revise Flight Route
0.37170104853402397,36.913544947149,4800,2018-04-18 06:03:19,1649.505790084174,0.0,0.0,0.0625116020003712,1649.505790084174,0.0,0.0,0.0625116020003712,1242,0.0,99,P-GPS,
0.37170102872624206,36.91354501446929,4900,2018-04-18 06:03:19,1649.505790084174,0.0,0.0,0.0692718022166976,1649.505790084174,0.0,0.0,0.0692718022166976,1253,0.0,99,P-GPS,
0.37170103325840503,36.9135450500115,5000,2018-04-18 06:03:19,1649.605790087374,0.10000000320000002,0.0,0.0717948022974336,1649.605790087374,0.10000000320000002,0.0,0.0717948022974336,1268,0.0,99,P-GPS,
0.37170104207378296,36.9135450707729,5100,2018-04-18 06:03:19,1649.605790087374,0.10000000320000002,0.0,0.07288200233222401,1649.605790087374,0.10000000320000002,0.0,0.07288200233222401,1269,0.0,99,P-GPS,Home Point Recorded. RTH Altitude:  30m.
0.371701073902535,36.9135451186138,5200,2018-04-18 06:03:19,1649.705790090574,0.20000000640000004,0.0,0.0748903023964896,1649.705790090574,0.20000000640000004,0.0,0.0748903023964896,1304,0.0,99,P-GPS,
0.37170110024078495,36.9135451363463,5300,2018-04-18 06:03:20,1649.805790093774,0.3000000096,0.0,0.0748652023956864,1649.805790093774,0.3000000096,0.0,0.0748903023964896,1336,0.0,99,P-GPS,
0.37170116319500496,36.9135451020396,5400,2018-04-18 06:03:20,1649.905790096974,0.4000000128000001,0.0,0.06795810217465921,1649.905790096974,0.4000000128000001,0.0,0.0748903023964896,1347,0.0,99,P-GPS,
0.371701217834085,36.913545062249206,5500,2018-04-18 06:03:20,1650.0057901001742,0.500000016,0.0,0.061175501957616,1650.0057901001742,0.500000016,0.0,0.0748903023964896,1349,0.0,99,P-GPS,
0.371701412992106,36.9135450165242,5600,2018-04-18 06:03:20,1650.105790103374,0.6000000192,0.0,0.049820701594262405,1650.105790103374,0.6000000192,0.0,0.0748903023964896,1359,0.0,99,P-GPS,
0.371701575553258,36.9135449616676,5700,2018-04-18 06:03:20,1650.2057901065739,0.7000000224000001,0.0,0.04500780144024961,1650.2057901065739,0.7000000224000001,0.0,0.0748903023964896,1376,0.0,99,P-GPS,
0.371701830565145,36.9135448780461,5800,2018-04-18 06:03:20,1650.405790112974,0.9000000288000001,0.0,0.052867301691753604,1650.405790112974,0.9000000288000001,0.0,0.0748903023964896,1380,0.0,99,P-GPS,
0.3717020386561671,36.913544786817,5900,2018-04-18 06:03:20,1650.605790119374,1.1000000352,0.0,0.06792450217358402,1650.605790119374,1.1000000352,0.0,0.0748903023964896,1381,0.0,99,P-GPS,
0.37170232834638,36.9135446559929,6000,2018-04-18 06:03:20,1650.8057901257741,1.3000000416000002,0.0,0.0962478030799296,1650.8057901257741,1.3000000416000002,0.0,0.0962478030799296,1387,0.0,99,P-GPS,
0.371702560491274,36.9135445364033,6100,2018-04-18 06:03:20,1651.0057901321738,1.5000000480000002,0.0,0.121671003893472,1651.0057901321738,1.5000000480000002,0.0,0.121671003893472,1397,0.0,99,P-GPS,
0.37170275956312104,36.9135444870312,6200,2018-04-18 06:03:20,1651.205790138574,1.7000000544000002,0.0,0.14405400460972803,1651.205790138574,1.7000000544000002,0.0,0.14405400460972803,1400,0.0,99,P-GPS,
0.371702926647567,36.9135444350313,6300,2018-04-18 06:03:20,1651.405790144974,1.9000000607999998,0.0,0.16303700521718403,1651.405790144974,1.9000000607999998,0.0,0.16303700521718403,1405,0.0,99,P-GPS,
0.371703080139891,36.9135443770592,6400,2018-04-18 06:03:21,1651.605790151374,2.1000000672,0.0,0.18069700578230402,1651.605790151374,2.1000000672,0.0,0.18069700578230402,1409,0.0,99,P-GPS,
0.371703208587431,36.913544320128295,6500,2018-04-18 06:03:21,1651.8057901577738,2.3000000736,0.0,0.19569000626208002,1651.8057901577738,2.3000000736,0.0,0.19569000626208002,1405,0.0,99,P-GPS,
0.37170334340585204,36.9135441751559,6600,2018-04-18 06:03:21,1652.005790164174,2.50000008,0.0,0.21328200682502402,1652.005790164174,2.50000008,0.0,0.21328200682502402,1401,0.0,99,P-GPS,Obstacle Avoided. Revise Flight Route
0.37170348536937603,36.9135440439594,6700,2018-04-18 06:03:21,1652.305790173774,2.8000000896000006,0.0,0.23200600742419197,1652.305790173774,2.8000000896000006,0.0,0.23200600742419197,1400,0.0,99,P-GPS,
0.37170355591769205,36.913543960251204,6800,2018-04-18 06:03:21,1652.505790180174,3.0000000960000004,0.0,0.242053007745696,1652.505790180174,3.0000000960000004,0.0,0.242053007745696,1402,0.0,99,P-GPS,
0.371703658637293,36.913543875380505,6900,2018-04-18 06:03:21,1652.7057901865742,3.2000001024000007,0.0,0.25573500818351996,1652.7057901865742,3.2000001024000007,0.0,0.25573500818351996,1408,0.0,99,P-GPS,
0.371703720390942,36.913543817892,7000,2018-04-18 06:03:21,1652.9057901929739,3.4000001088000005,0.0,0.264246008455872,1652.9057901929739,3.4000001088000005,0.0,0.264246008455872,1413,0.0,99,P-GPS,
0.37170381011479703,36.9135437592225,7100,2018-04-18 06:03:21,1653.205790202574,3.7000001184,0.0,0.27579500882544,1653.205790202574,3.7000001184,0.0,0.27579500882544,1380,0.0,99,P-GPS,
0.371703799979972,36.9135437344085,7200,2018-04-18 06:03:21,1653.405790208974,3.9000001248,0.0,0.2756500088208,1653.405790208974,3.9000001248,0.0,0.27579500882544,1380,0.0,99,P-GPS,
0.371703825891875,36.9135436981311,7300,2018-04-18 06:03:22,1653.6057902153739,4.100000131200001,0.0,0.279739008951648,1653.6057902153739,4.100000131200001,0.0,0.279739008951648,1378,0.0,99,P-GPS,
0.37170372225525605,36.9135437147307,7400,2018-04-18 06:03:22,1653.805790221774,4.3000001376,0.0,0.2683000085856,1653.805790221774,4.3000001376,0.0,0.279739008951648,1378,0.0,99,P-GPS,
0.371703687127887,36.9135437214908,7500,2018-04-18 06:03:22,1654.005790228174,4.5000001439999995,0.0,0.26438300846025603,1654.005790228174,4.5000001439999995,0.0,0.279739008951648,1414,0.0,99,P-GPS,
0.37170364441481896,36.9135437361765,7600,2018-04-18 06:03:22,1654.2057902345741,4.700000150400001,0.0,0.259363008299616,1654.2057902345741,4.700000150400001,0.0,0.279739008951648,1433,0.0,99,P-GPS,
0.371703650783918,36.9135437439703,7700,2018-04-18 06:03:22,1654.5057902441738,5.00000016,0.0,0.25971600831091196,1654.5057902441738,5.00000016,0.0,0.279739008951648,1434,0.0,99,P-GPS,
0.37170356881298294,36.9135437784255,7800,2018-04-18 06:03:22,1654.705790250574,5.200000166400001,0.0,0.24983400799468802,1654.705790250574,5.200000166400001,0.0,0.279739008951648,1444,0.0,99,P-GPS,
0.371703532665954,36.9135437998904,7900,2018-04-18 06:03:22,1654.905790256974,5.4000001727999996,0.0,0.24523200784742402,1654.905790256974,5.4000001727999996,0.0,0.279739008951648,1452,0.0,99,P-GPS,
0.37170343005749396,36.9135438260489,8000,2018-04-18 06:03:22,1655.205790266574,5.7000001824,0.0,0.233528007472896,1655.205790266574,5.7000001824,0.0,0.279739008951648,1476,0.0,99,P-GPS,
0.37170339588968604,36.913543839069206,8100,2018-04-18 06:03:22,1655.405790272974,5.9000001888,0.0,0.22946200734278402,1655.405790272974,5.9000001888,0.0,0.279739008951648,1497,0.0,99,P-GPS,
0.371703321867975,36.913543894042604,8200,2018-04-18 06:03:22,1655.7057902825738,6.2000001984,0.0,0.21961400702764805,1655.7057902825738,6.2000001984,0.0,0.279739008951648,1525,0.0,99,P-GPS,
0.371703322976946,36.913543955169004,8300,2018-04-18 06:03:23,1656.005790292174,6.500000208,0.35999970196000003,0.21749200695974402,1656.005790292174,6.500000208,0.35999970196000003,0.279739008951648,1565,0.0,99,P-GPS,
0.371703244358265,36.9135440631627,8400,2018-04-18 06:03:23,1656.3057903017739,6.800000217600001,0.35999970196000003,0.20559000657888002,1656.3057903017739,6.800000217600001,0.35999970196000003,0.279739008951648,1631,0.0,99,P-GPS,
0.371703219994987,36.9135441529655,8500,2018-04-18 06:03:23,1656.605790311374,7.100000227200002,0.35999970196000003,0.200434006413888,1656.605790311374,7.100000227200002,0.35999970196000003,0.279739008951648,1684,0.0,99,P-GPS,
0.37170318565453797,36.9135442741903,8600,2018-04-18 06:03:23,1656.9057903209741,7.4000002368,0.0,0.19397300620713603,1656.9057903209741,7.4000002368,0.35999970196000003,0.279739008951648,1684,0.0,99,P-GPS,
0.37170317419075,36.9135443521265,8700,2018-04-18 06:03:23,1657.305790333774,7.8000002496,0.0,0.19141900612540802,1657.305790333774,7.8000002496,0.35999970196000003,0.279739008951648,1684,0.0,99,P-GPS,
0.371703182068119,36.913544361423796,8800,2018-04-18 06:03:23,1657.805790349774,8.3000002656,0.0,0.192159006149088,1657.805790349774,8.3000002656,0.35999970196000003,0.279739008951648,1684,0.0,99,P-GPS,
0.37170320880699104,36.9135443659118,8900,2018-04-18 06:03:23,1658.205790362574,8.700000278400001,0.35999970196000003,0.195052006241664,1658.205790362574,8.700000278400001,0.35999970196000003,0.279739008951648,1684,0.0,99,P-GPS,
0.37170323462515703,36.9135443646525,9000,2018-04-18 06:03:23,1658.705790378574,9.2000002944,0.0,0.19792000633344004,1658.705790378574,9.2000002944,0.35999970196000003,0.279739008951648,1684,0.0,99,P-GPS,
0.371703245834169,36.9135443728091,9100,2018-04-18 06:03:23,1659.205790394574,9.7000003104,0.0,0.19905500636975998,1659.205790394574,9.7000003104,0.35999970196000003,0.279739008951648,1684,0.0,99,P-GPS,
0.371703360521663,36.913544344087704,9200,2018-04-18 06:03:23,1659.705790410574,10.2000003264,0.0,0.21209200678694404,1659.705790410574,10.2000003264,0.35999970196000003,0.279739008951648,1684,0.0,99,P-GPS,
0.371703450692526,36.9135443205721,9300,2018-04-18 06:03:24,1660.205790426574,10.700000342400001,0.0,0.22236400711564802,1660.205790426574,10.700000342400001,0.35999970196000003,0.279739008951648,1684,0.0,99,P-GPS,
0.371703620602286,36.9135442401819,9400,2018-04-18 06:03:24,1660.7057904425742,11.200000358400002,0.0,0.24232000775424,1660.7057904425742,11.200000358400002,0.35999970196000003,0.279739008951648,1684,-0.5,99,P-GPS,
0.37170375271809997,36.9135441622278,9500,2018-04-18 06:03:24,1661.205790458574,11.700000374400002,0.0,0.258238008263616,1661.205790458574,11.700000374400002,0.35999970196000003,0.279739008951648,1684,-0.5,99,P-GPS,
0.37170389219387107,36.91354410061079,9600,2018-04-18 06:03:24,1661.7057904745739,12.2000003904,0.0,0.274743008791776,1661.7057904745739,12.2000003904,0.35999970196000003,0.279739008951648,1684,-5.5,99,P-GPS,
0.37170400934270703,36.9135440340468,9700,2018-04-18 06:03:24,1662.205790490574,12.700000406400001,0.0,0.288983009247456,1662.205790490574,12.700000406400001,0.35999970196000003,0.288983009247456,1684,-16.8,99,P-GPS,
0.37170412323150004,36.9135439158674,9800,2018-04-18 06:03:24,1662.705790506574,13.2000004224,0.0,0.30426500973648,1662.705790506574,13.2000004224,0.35999970196000003,0.30426500973648,1684,-16.8,99,P-GPS,
0.371704231127416,36.913543799150204,9900,2018-04-18 06:03:24,1663.205790522574,13.7000004384,0.0,0.319174010213568,1663.205790522574,13.7000004384,0.35999970196000003,0.319174010213568,1684,-22.4,99,P-GPS,
0.371704350175119,36.9135436865499,10000,2018-04-18 06:03:24,1663.7057905385739,14.200000454400003,0.0,0.335402010732864,1663.7057905385739,14.200000454400003,0.35999970196000003,0.335402010732864,1684,-28.1,99,P-GPS,
0.371704448692826,36.913543584580296,10100,2018-04-18 06:03:24,1664.2057905545742,14.7000004704,0.0,0.349287011177184,1664.2057905545742,14.7000004704,0.35999970196000003,0.349287011177184,1684,-33.7,99,P-GPS,
0.37170451818402706,36.913543483489796,10200,2018-04-18 06:03:24,1664.705790570574,15.200000486399999,0.0,0.360250011528,1664.705790570574,15.200000486399999,0.35999970196000003,0.360250011528,1684,-38.5,99,P-GPS,
0.371704581174379,36.9135433936352,10300,2018-04-18 06:03:24,1665.2057905865738,15.700000502400002,0.0,0.370272011848704,1665.2057905865738,15.700000502400002,0.35999970196000003,0.370272011848704,1684,-38.5,99,P-GPS,
0.37170456860106105,36.913543342653206,10400,2018-04-18 06:03:25,1665.705790602574,16.2000005184,0.0,0.371016011872512,1665.705790602574,16.2000005184,0.35999970196000003,0.371016011872512,1684,-38.5,99,P-GPS,
0.371704555306342,36.9135432924061,10500,2018-04-18 06:03:25,1666.205790618574,16.7000005344,0.0,0.371744011895808,1666.205790618574,16.7000005344,0.35999970196000003,0.371744011895808,1684,-38.5,99,P-GPS,
0.37170450242150394,36.91354330217371,10600,2018-04-18 06:03:25,1666.705790634574,17.2000005504,0.0,0.365897011708704,1666.705790634574,17.2000005504,0.35999970196000003,0.371744011895808,1684,-38.5,99,P-GPS,
0.371704477549973,36.9135432956851,10700,2018-04-18 06:03:25,1667.205790650574,17.700000566400004,0.0,0.36362801163609604,1667.205790650574,17.700000566400004,0.35999970196000003,0.371744011895808,1684,-38.5,99,P-GPS,
0.37170442991320296,36.9135432621248,10800,2018-04-18 06:03:25,1667.705790666574,18.2000005824,0.0,0.36024901152796807,1667.705790666574,18.2000005824,0.35999970196000003,0.371744011895808,1684,-39.1,99,P-GPS,
0.37170438350845203,36.9135432272003,10900,2018-04-18 06:03:25,1668.205790682574,18.7000005984,0.0,0.35714401142860797,1668.205790682574,18.7000005984,0.35999970196000003,0.371744011895808,1684,-43.5,99,P-GPS,
0.371704317631073,36.913543233821,11000,2018-04-18 06:03:25,1668.7057906985738,19.2000006144,0.0,0.35019101120611207,1668.7057906985738,19.2000006144,0.35999970196000003,0.371744011895808,1684,-49.2,99,P-GPS,
0.371704256502034,36.913543241724604,11100,2018-04-18 06:03:25,1669.205790714574,19.7000006304,0.0,0.34367001099744005,1669.205790714574,19.7000006304,0.35999970196000003,0.371744011895808,1684,-49.2,99,P-GPS,
0.371704235465082,36.91354321465,11200,2018-04-18 06:03:25,1669.7057907305739,20.200000646400003,0.0,0.34287401097196807,1669.7057907305739,20.200000646400003,0.35999970196000003,0.371744011895808,1684,-54.8,99,P-GPS,
0.37170419740111893,36.913543209797,11300,2018-04-18 06:03:25,1670.205790746574,20.7000006624,0.0,0.33931901085820804,1670.205790746574,20.7000006624,0.35999970196000003,0.371744011895808,1684,-60.4,99,P-GPS,
0.37170416245175897,36.9135432368848,11400,2018-04-18 06:03:26,1670.705790762574,21.2000006784,0.0,0.33449801070393603,1670.705790762574,21.2000006784,0.35999970196000003,0.371744011895808,1684,-66.1,99,P-GPS,
0.371704091296695,36.9135432747262,11500,2018-04-18 06:03:26,1671.305790781774,21.8000006976,0.0,0.32553901041724803,1671.305790781774,21.8000006976,0.35999970196000003,0.371744011895808,1684,-71.7,99,P-GPS,
0.37170397970309205,36.9135433034161,11600,2018-04-18 06:03:26,1671.805790797774,22.3000007136,0.0,0.31301201001638396,1671.805790797774,22.3000007136,0.35999970196000003,0.371744011895808,1684,-77.4,99,P-GPS,
0.37170385955914,36.913543332573106,11700,2018-04-18 06:03:26,1672.305790813774,22.8000007296,0.0,0.299639009588448,1672.305790813774,22.8000007296,0.35999970196000003,0.371744011895808,1684,-83.1,99,P-GPS,
0.371703690841503,36.913543369025895,11800,2018-04-18 06:03:26,1672.805790829774,23.300000745600002,0.0,0.28116000899712,1672.805790829774,23.300000745600002,0.35999970196000003,0.371744011895808,1684,-88.7,99,P-GPS,
0.37170352464510403,36.913543399580604,11900,2018-04-18 06:03:26,1673.3057908457738,23.800000761600003,0.0,0.2633500084272,1673.3057908457738,23.800000761600003,0.35999970196000003,0.371744011895808,1684,-89.9,99,P-GPS,
0.37170331180492894,36.9135434414773,12000,2018-04-18 06:03:26,1673.905790864974,24.4000007808,0.0,0.24060000769920004,1673.905790864974,24.4000007808,0.35999970196000003,0.371744011895808,1684,-89.9,99,P-GPS,
0.37170312412622397,36.9135434891017,12100,2018-04-18 06:03:26,1674.4057908809739,24.9000007968,0.0,0.22013000704416,1674.4057908809739,24.9000007968,0.35999970196000003,0.371744011895808,1684,-90.0,99,P-GPS,
0.371702934543835,36.913543561398605,12200,2018-04-18 06:03:26,1674.9057908969742,25.400000812800002,0.0,0.198141006340512,1674.9057908969742,25.400000812800002,0.35999970196000003,0.371744011895808,1684,-90.0,99,P-GPS,
0.37170276337874303,36.913543652955106,12300,2018-04-18 06:03:27,1675.405790912974,25.900000828800003,0.0,0.17670500565456,1675.405790912974,25.900000828800003,0.35999970196000003,0.371744011895808,1684,-88.6,99,P-GPS,
0.371702637861295,36.9135437474866,12400,2018-04-18 06:03:27,1675.9057909289738,26.4000008448,0.0,0.15923900509564803,1675.9057909289738,26.4000008448,0.35999970196000003,0.371744011895808,1684,-82.9,99,P-GPS,
0.371702516968055,36.913543821729604,12500,2018-04-18 06:03:27,1676.5057909481739,27.000000864000004,0.0,0.143497004591904,1676.5057909481739,27.000000864000004,0.35999970196000003,0.371744011895808,1684,-82.9,99,P-GPS,
0.371702356698149,36.9135438720938,12600,2018-04-18 06:03:27,1677.0057909641737,27.50000088,0.0,0.12587200402790402,1677.0057909641737,27.50000088,0.35999970196000003,0.371744011895808,1684,-77.2,99,P-GPS,
0.371702198395989,36.913543920620896,12700,2018-04-18 06:03:27,1677.505790980174,28.000000896,0.0,0.108901003484832,1677.505790980174,28.000000896,0.35999970196000003,0.371744011895808,1684,-71.6,99,P-GPS,
0.371702040343031,36.9135440001896,12800,2018-04-18 06:03:27,1678.0057909961738,28.500000912,0.0,0.090033002881056,1678.0057909961738,28.500000912,0.35999970196000003,0.371744011895808,1684,-66.0,99,P-GPS,
0.3717019132344279,36.9135440928854,12900,2018-04-18 06:03:27,1678.6057910153738,29.1000009312,0.0,0.072794002329408,1678.6057910153738,29.1000009312,0.35999970196000003,0.371744011895808,1684,-62.6,99,P-GPS,
0.371701772531574,36.9135442151229,13000,2018-04-18 06:03:27,1679.1057910313739,29.6000009472,0.0,0.052227501671280006,1679.1057910313739,29.6000009472,0.35999970196000003,0.371744011895808,1684,-62.6,99,P-GPS,
0.371701654860211,36.9135443196391,13100,2018-04-18 06:03:27,1679.6057910473737,30.1000009632,0.0,0.0349681011189792,1679.6057910473737,30.1000009632,0.35999970196000003,0.371744011895808,1684,-62.6,99,P-GPS,
0.37170149856887297,36.9135444159771,13200,2018-04-18 06:03:27,1680.105791063374,30.6000009792,0.0,0.0176782005657024,1680.105791063374,30.6000009792,0.35999970196000003,0.371744011895808,1684,-62.6,99,P-GPS,
0.37170138957345294,36.9135444977683,13300,2018-04-18 06:03:28,1680.6057910793738,31.100000995200002,0.0,0.011907800381049601,1680.6057910793738,31.100000995200002,0.35999970196000003,0.371744011895808,1684,-62.6,99,P-GPS,
0.371701282190293,36.913544593691,13400,2018-04-18 06:03:28,1681.2057910985736,31.7000010144,0.0,0.0206919006621408,1681.2057910985736,31.7000010144,0.35999970196000003,0.371744011895808,1684,-62.6,99,P-GPS,
0.3717012281282929,36.9135446695353,13500,2018-04-18 06:03:28,1681.705791114574,32.2000010304,0.0,0.0286987009183584,1681.705791114574,32.2000010304,0.35999970196000003,0.371744011895808,1684,-60.4,99,P-GPS,
0.37170119301039,36.9135448326477,13700,2018-04-18 06:03:28,1682.7057911465738,33.2000010624,0.0,0.042068001346176005,1682.7057911465738,33.2000010624,0.35999970196000003,0.371744011895808,1684,-57.3,99,P-GPS,
0.37170114002570703,36.9135449451439,13800,2018-04-18 06:03:28,1683.2057911625739,33.70000107840001,0.0,0.055188601766035204,1683.2057911625739,33.70000107840001,0.35999970196000003,0.371744011895808,1684,-54.3,99,P-GPS,
0.37170110327498296,36.9135450393587,13900,2018-04-18 06:03:28,1683.705791178574,34.2000010944,0.0,0.0658744021079808,1683.705791178574,34.2000010944,0.35999970196000003,0.371744011895808,1684,-53.5,99,P-GPS,
0.37170105756740995,36.9135451216884,14000,2018-04-18 06:03:28,1684.2057911945737,34.7000011104,0.0,0.07623880243964161,1684.2057911945737,34.7000011104,0.35999970196000003,0.371744011895808,1684,-53.5,99,P-GPS,
0.371701041443779,36.913545188964896,14100,2018-04-18 06:03:28,1684.7057912105738,35.2000011264,0.0,0.08336560266769921,1684.7057912105738,35.2000011264,0.35999970196000003,0.371744011895808,1684,-53.5,99,P-GPS,
0.3717010377146421,36.9135452636234,14200,2018-04-18 06:03:28,1685.2057912265739,35.7000011424,0.0,0.09054180289733761,1685.2057912265739,35.7000011424,0.35999970196000003,0.371744011895808,1684,-53.5,99,P-GPS,
0.37170106444209,36.9135453203181,14300,2018-04-18 06:03:28,1685.7057912425737,36.200001158400006,0.0,0.09451320302442241,1685.7057912425737,36.200001158400006,0.35999970196000003,0.371744011895808,1684,-53.5,99,P-GPS,
0.37170105925264596,36.9135453913835,14400,2018-04-18 06:03:29,1686.2057912585738,36.7000011744,0.0,0.10179800325753599,1686.2057912585738,36.7000011744,0.35999970196000003,0.371744011895808,1684,-53.5,99,P-GPS,
0.3717010681730589,36.91354544988379,14500,2018-04-18 06:03:29,1686.7057912745738,37.2000011904,0.0,0.107248003431936,1686.7057912745738,37.2000011904,0.35999970196000003,0.371744011895808,1684,-53.5,99,P-GPS,
0.371701060002341,36.9135455079304,14600,2018-04-18 06:03:29,1687.3057912937736,37.800001209600005,0.0,0.11351600363251202,1687.3057912937736,37.800001209600005,0.35999970196000003,0.371744011895808,1684,-53.5,99,P-GPS,
0.371701080734876,36.9135455425352,14700,2018-04-18 06:03:29,1687.805791309774,38.3000012256,0.0,0.11618300371785602,1687.805791309774,38.3000012256,0.35999970196000003,0.371744011895808,1684,-53.5,99,P-GPS,
0.37170110498932796,36.9135455483361,14800,2018-04-18 06:03:29,1688.3057913257737,38.8000012416,0.0,0.115818003706176,1688.3057913257737,38.8000012416,0.35999970196000003,0.371744011895808,1684,-53.3,99,P-GPS,
0.371701137429357,36.913545541830295,14900,2018-04-18 06:03:29,1688.8057913417738,39.3000012576,0.0,0.113929003645728,1688.8057913417738,39.3000012576,0.35999970196000003,0.371744011895808,1684,-51.2,99,P-GPS,
0.37170112593844606,36.913545547577705,15000,2018-04-18 06:03:29,1689.3057913577738,39.80000127360001,0.0,0.11494900367836801,1689.3057913577738,39.80000127360001,0.35999970196000003,0.371744011895808,1684,-48.4,99,P-GPS,
0.37170111309551795,36.9135455441996,15100,2018-04-18 06:03:29,1689.805791373774,40.3000012896,0.0,0.11507500368239999,1689.805791373774,40.3000012896,0.35999970196000003,0.371744011895808,1684,-46.7,99,P-GPS,
0.371701101240039,36.913545531577704,15200,2018-04-18 06:03:29,1690.4057913929737,40.90000130880001,0.0,0.11422000365504001,1690.4057913929737,40.90000130880001,0.35999970196000003,0.371744011895808,1684,-46.7,99,P-GPS,
0.371701098661805,36.91354549921729,15300,2018-04-18 06:03:29,1690.9057914089738,41.4000013248,0.0,0.11097000355104,1690.9057914089738,41.4000013248,0.35999970196000003,0.371744011895808,1684,-46.7,99,P-GPS,
0.37170109157176295,36.9135454684866,15400,2018-04-18 06:03:30,1691.4057914249738,41.9000013408,0.0,0.108103003459296,1691.4057914249738,41.9000013408,0.35999970196000003,0.371744011895808,1684,-46.6,99,P-GPS,
0.37170109996740996,36.9135454415549,15500,2018-04-18 06:03:30,1691.9057914409736,42.4000013568,0.0,0.10498100335939199,1691.9057914409736,42.4000013568,0.35999970196000003,0.371744011895808,1684,-46.6,99,P-GPS,
0.37170111044563303,36.9135454077309,15600,2018-04-18 06:03:30,1692.405791456974,42.900001372800006,0.0,0.101063003234016,1692.405791456974,42.900001372800006,0.35999970196000003,0.371744011895808,1684,-46.7,99,P-GPS,
0.371701123994287,36.913545360706294,15700,2018-04-18 06:03:30,1692.9057914729738,43.40000138880001,0.0,0.09566400306124802,1692.9057914729738,43.40000138880001,0.35999970196000003,0.371744011895808,1684,-46.7,99,P-GPS,
0.3717011474622,36.913545330252205,15800,2018-04-18 06:03:30,1693.4057914889738,43.9000014048,0.0,0.0915237029287584,1693.4057914889738,43.9000014048,0.35999970196000003,0.371744011895808,1684,-46.7,99,P-GPS,
0.37170117652320794,36.913545292386395,15900,2018-04-18 06:03:30,1693.9057915049739,44.4000014208,0.0,0.08639900276476802,1693.9057915049739,44.4000014208,0.35999970196000003,0.371744011895808,1684,-46.7,99,P-GPS,
0.371701219074654,36.9135452579687,16000,2018-04-18 06:03:30,1694.4057915209737,44.9000014368,0.0,0.08113410259629121,1694.4057915209737,44.9000014368,0.35999970196000003,0.371744011895808,1684,-46.6,99,P-GPS,
0.3717012708825821,36.913545235170204,16100,2018-04-18 06:03:30,1694.8057915337738,45.3000014496,0.0,0.0769272024616704,1694.8057915337738,45.3000014496,0.35999970196000003,0.371744011895808,1684,-46.6,99,P-GPS,
0.371701329020577,36.9135452448995,16200,2018-04-18 06:03:30,1695.3057915497736,45.800001465600005,0.0,0.07640970244511042,1695.3057915497736,45.800001465600005,0.35999970196000003,0.371744011895808,1684,-46.6,99,P-GPS,
0.371701387827252,36.9135452744736,16300,2018-04-18 06:03:30,1695.805791565774,46.3000014816,0.0,0.0786368025163776,1695.805791565774,46.3000014816,0.35999970196000003,0.371744011895808,1684,-46.6,99,P-GPS,
0.371701407439315,36.913545313823704,16400,2018-04-18 06:03:31,1696.3057915817737,46.80000149760001,0.0,0.0827837026490784,1696.3057915817737,46.80000149760001,0.35999970196000003,0.371744011895808,1684,-46.7,99,P-GPS,
0.37170141477667695,36.913545342508,16500,2018-04-18 06:03:31,1696.7057915945738,47.2000015104,0.0,0.08590470274895039,1696.7057915945738,47.2000015104,0.35999970196000003,0.371744011895808,1684,-46.7,99,P-GPS,
0.371701419182432,36.9135453503564,16600,2018-04-18 06:03:31,1697.2057916105737,47.700001526399994,0.0,0.0867441027758112,1697.2057916105737,47.700001526399994,0.35999970196000003,0.371744011895808,1684,-46.6,99,P-GPS,
0.37170143338449896,36.9135453520475,16700,2018-04-18 06:03:31,1697.705791626574,48.200001542399995,0.0,0.0868496027791872,1697.705791626574,48.200001542399995,0.35999970196000003,0.371744011895808,1684,-46.6,99,P-GPS,
0.371701430564645,36.9135453415869,16800,2018-04-18 06:03:31,1698.2057916425738,48.70000155840001,0.0,0.08570170274245442,1698.2057916425738,48.70000155840001,0.35999970196000003,0.371744011895808,1684,-46.6,99,P-GPS,
0.371701436817463,36.913545326488205,16900,2018-04-18 06:03:31,1698.7057916585738,49.200001574400005,0.0,0.08399390268780481,1698.7057916585738,49.200001574400005,0.35999970196000003,0.371744011895808,1684,-46.6,99,P-GPS,
0.3717014353465711,36.9135452944615,17000,2018-04-18 06:03:31,1699.3057916777739,49.8000015936,0.0,0.0804424025741568,1699.3057916777739,49.8000015936,0.35999970196000003,0.371744011895808,1684,-46.7,99,P-GPS,
0.371701422270064,36.9135452665491,17100,2018-04-18 06:03:31,1699.8057916937737,50.3000016096,0.0,0.07742120247747841,1699.8057916937737,50.3000016096,0.35999970196000003,0.371744011895808,1684,-46.7,99,P-GPS,
0.37170138872381203,36.9135452518278,17200,2018-04-18 06:03:31,1700.3057917097738,50.800001625600004,0.0,0.0761233024359456,1700.3057917097738,50.800001625600004,0.35999970196000003,0.371744011895808,1684,-46.7,99,P-GPS,
0.371701376933877,36.9135452365729,17300,2018-04-18 06:03:31,1700.8057917257738,51.3000016416,0.0,0.07460290238729281,1700.8057917257738,51.3000016416,0.35999970196000003,0.371744011895808,1684,-46.7,99,P-GPS,
0.37170138199457203,36.9135451903083,17400,2018-04-18 06:03:32,1701.3057917417739,51.800001657600006,0.0,0.0694293022217376,1701.3057917417739,51.800001657600006,0.35999970196000003,0.371744011895808,1684,-46.6,99,P-GPS,
0.3717014054544461,36.9135451326225,17500,2018-04-18 06:03:32,1701.8057917577737,52.3000016736,0.0,0.0627424020077568,1701.8057917577737,52.3000016736,0.35999970196000003,0.371744011895808,1684,-46.7,99,P-GPS,
0.371701427025222,36.9135450479732,17600,2018-04-18 06:03:32,1702.305791773774,52.8000016896,0.0,0.053141001700512,1702.305791773774,52.8000016896,0.35999970196000003,0.371744011895808,1684,-46.6,99,P-GPS,
0.371701451609739,36.9135449652235,17700,2018-04-18 06:03:32,1702.8057917897738,53.3000017056,0.0,0.043786301401161604,1702.8057917897738,53.3000017056,0.35999970196000003,0.371744011895808,1684,-46.6,99,P-GPS,
0.37170144894987894,36.913544874868,17800,2018-04-18 06:03:32,1703.4057918089736,53.900001724800006,0.0,0.0337646010804672,1703.4057918089736,53.900001724800006,0.35999970196000003,0.371744011895808,1684,-46.6,99,P-GPS,
0.371701446626802,36.9135447969625,17900,2018-04-18 06:03:32,1703.905791824974,54.40000174080001,0.0,0.0251436008045952,1703.905791824974,54.40000174080001,0.35999970196000003,0.371744011895808,1684,-46.7,99,P-GPS,
0.371701390127225,36.913544738146896,18000,2018-04-18 06:03:32,1704.4057918409737,54.9000017568,0.0,0.020379000652128002,1704.4057918409737,54.9000017568,0.35999970196000003,0.371744011895808,1684,-46.7,99,P-GPS,
0.371701342242626,36.9135446952903,18100,2018-04-18 06:03:32,1704.9057918569738,55.40000177280001,0.0,0.019520000624640002,1704.9057918569738,55.40000177280001,0.35999970196000003,0.371744011895808,1684,-46.7,99,P-GPS,
0.371701267037622,36.9135446681222,18200,2018-04-18 06:03:32,1705.4057918729739,55.900001788800004,0.0,0.0246799007897568,1705.4057918729739,55.900001788800004,0.35999970196000003,0.371744011895808,1684,-46.7,99,P-GPS,
0.371701221763011,36.9135446459335,18300,2018-04-18 06:03:32,1706.0057918921736,56.50000180800001,0.0,0.028487500911599996,1706.0057918921736,56.50000180800001,0.35999970196000003,0.371744011895808,1684,-46.7,99,P-GPS,
0.37170116434081896,36.9135446219531,18400,2018-04-18 06:03:33,1706.5057919081737,57.000001824,0.0,0.034112901091612795,1706.5057919081737,57.000001824,0.35999970196000003,0.371744011895808,1684,-46.7,99,P-GPS,
0.37170112674594996,36.9135445848192,18500,2018-04-18 06:03:33,1707.0057919241738,57.50000184,0.0,0.037862001211584,1707.0057919241738,57.50000184,0.35999970196000003,0.371744011895808,1684,-46.7,99,P-GPS,
0.37170108655025297,36.9135445256977,18600,2018-04-18 06:03:33,1707.5057919401738,58.000001856,0.0,0.0426134013636288,1707.5057919401738,58.000001856,0.35999970196000003,0.371744011895808,1684,-46.7,99,P-GPS,
0.37170106126784497,36.9135444764391,18700,2018-04-18 06:03:33,1708.0057919561737,58.500001872,0.0,0.046344701483030395,1708.0057919561737,58.500001872,0.35999970196000003,0.371744011895808,1684,-46.6,99,P-GPS,
0.371701014112586,36.913544438134295,18800,2018-04-18 06:03:33,1708.505791972174,59.000001888,0.0,0.0525068016802176,1708.505791972174,59.000001888,0.35999970196000003,0.371744011895808,1684,-46.7,99,P-GPS,
0.371700977523892,36.9135444210805,18900,2018-04-18 06:03:33,1709.0057919881738,59.500001904,0.0,0.05695000182240001,1709.0057919881738,59.500001904,0.35999970196000003,0.371744011895808,1684,-46.7,99,P-GPS,
0.371700922276486,36.9135444049205,19000,2018-04-18 06:03:33,1709.5057920041736,60.00000192,0.0,0.06335070202722241,1709.5057920041736,60.00000192,0.35999970196000003,0.371744011895808,1684,-46.7,99,P-GPS,
0.3717008944571671,36.9135443928478,19100,2018-04-18 06:03:33,1710.0057920201739,60.500001936,0.0,0.0667029021344928,1710.0057920201739,60.500001936,0.35999970196000003,0.371744011895808,1684,-46.6,99,P-GPS,
0.37170081738515204,36.91354439232779,19200,2018-04-18 06:03:33,1710.5057920361737,61.000001952,0.0,0.0749426023981632,1710.5057920361737,61.000001952,0.35999970196000003,0.371744011895808,1684,-46.7,99,P-GPS,
0.371700758991593,36.9135443845641,19300,2018-04-18 06:03:34,1711.0057920521738,61.500001968,0.0,0.08143670260597441,1711.0057920521738,61.500001968,0.35999970196000003,0.371744011895808,1684,-46.7,99,P-GPS,
0.37170071056329707,36.913544371364104,19400,2018-04-18 06:03:34,1711.5057920681738,62.000001984,0.0,0.08701860278459521,1711.5057920681738,62.000001984,0.35999970196000003,0.371744011895808,1684,-46.7,99,P-GPS,
0.371700714309939,36.913544362252104,19500,2018-04-18 06:03:34,1712.005792084174,62.50000200000001,0.0,0.0868821027802272,1712.005792084174,62.50000200000001,0.35999970196000003,0.371744011895808,1684,-46.7,99,P-GPS,
0.371700692440343,36.9135443752075,19600,2018-04-18 06:03:34,1712.5057921001737,63.000002015999996,0.0,0.0888621028435872,1712.5057921001737,63.000002015999996,0.35999970196000003,0.371744011895808,1684,-46.6,99,P-GPS,
0.37170068985071003,36.9135443608106,19700,2018-04-18 06:03:34,1713.105792119374,63.600002035200006,0.0,0.08954730286551361,1713.105792119374,63.600002035200006,0.35999970196000003,0.371744011895808,1684,-46.7,99,P-GPS,
0.371700658800354,36.9135443451199,19800,2018-04-18 06:03:34,1713.6057921353738,64.1000020512,0.0,0.0933401029868832,1713.6057921353738,64.1000020512,0.35999970196000003,0.371744011895808,1684,-46.7,99,P-GPS,
0.37170065648979606,36.913544322239794,19900,2018-04-18 06:03:34,1714.1057921513736,64.60000206720001,0.0,0.0943046030177472,1714.1057921513736,64.60000206720001,0.35999970196000003,0.371744011895808,1684,-46.7,99,P-GPS,
0.37170064455798296,36.91354430392529,20000,2018-04-18 06:03:34,1714.605792167374,65.1000020832,0.0,0.09618460307790722,1714.605792167374,65.1000020832,0.35999970196000003,0.371744011895808,1684,-46.6,99,P-GPS,
0.371700666277558,36.913544299078005,20100,2018-04-18 06:03:34,1715.2057921865737,65.7000021024,0.0,0.0940634030100288,1715.2057921865737,65.7000021024,0.35999970196000003,0.371744011895808,1684,-46.7,98,P-GPS,
0.371700642927911,36.913544312148204,20200,2018-04-18 06:03:34,1715.705792202574,66.20000211840001,0.0,0.09607830307450561,1715.705792202574,66.20000211840001,0.35999970196000003,0.371744011895808,1684,-46.7,98,P-GPS,
0.371700635655076,36.9135443163072,20300,2018-04-18 06:03:34,1716.2057922185738,66.7000021344,0.0,0.09671310309481919,1716.2057922185738,66.7000021344,0.35999970196000003,0.371744011895808,1684,-46.7,98,P-GPS,
0.3717005965598,36.9135443306483,20400,2018-04-18 06:03:35,1716.605792231374,67.10000214720002,0.0,0.10044000321408,1716.605792231374,67.10000214720002,0.35999970196000003,0.371744011895808,1684,-46.6,98,P-GPS,
0.3717005881904121,36.9135443459615,20500,2018-04-18 06:03:35,1717.1057922473738,67.60000216319999,0.0,0.1009000032288,1717.1057922473738,67.60000216319999,0.35999970196000003,0.371744011895808,1684,-46.6,98,P-GPS,
0.371700565526136,36.9135443651888,20600,2018-04-18 06:03:35,1717.6057922633736,68.1000021792,0.0,0.102844003291008,1717.6057922633736,68.1000021792,0.35999970196000003,0.371744011895808,1684,-46.6,98,P-GPS,
0.37170057083079205,36.91354437981371,20700,2018-04-18 06:03:35,1718.1057922793739,68.6000021952,0.0,0.101916003261312,1718.1057922793739,68.6000021952,0.35999970196000003,0.371744011895808,1684,-46.6,98,P-GPS,
0.371700544299979,36.913544391063105,20800,2018-04-18 06:03:35,1718.6057922953737,69.1000022112,0.0,0.10455500334576,1718.6057922953737,69.1000022112,0.35999970196000003,0.371744011895808,1684,-46.7,98,P-GPS,
0.371700527635908,36.9135443954741,20900,2018-04-18 06:03:35,1719.1057923113738,69.60000222720001,0.0,0.10628300340105601,1719.1057923113738,69.60000222720001,0.35999970196000003,0.371744011895808,1684,-46.7,98,P-GPS,
0.371700528154771,36.913544395581,21000,2018-04-18 06:03:35,1719.6057923273738,70.1000022432,0.0,0.10622400339916802,1719.6057923273738,70.1000022432,0.35999970196000003,0.371744011895808,1684,-46.7,98,P-GPS,
0.37170055696947707,36.9135443940947,21100,2018-04-18 06:03:35,1720.1057923433739,70.60000225920001,0.0,0.10310800329945599,1720.1057923433739,70.60000225920001,0.35999970196000003,0.371744011895808,1684,-46.7,98,P-GPS,
0.371700553946677,36.913544393176295,21200,2018-04-18 06:03:35,1720.6057923593737,71.10000227520001,0.0,0.10345700331062403,1720.6057923593737,71.10000227520001,0.35999970196000003,0.371744011895808,1684,-46.7,98,P-GPS,
0.37170057164928794,36.913544395181496,21300,2018-04-18 06:03:35,1721.105792375374,71.6000022912,0.0,0.101483003247456,1721.105792375374,71.6000022912,0.35999970196000003,0.371744011895808,1684,-46.7,98,P-GPS,
0.37170057698773495,36.913544399334704,21400,2018-04-18 06:03:36,1721.6057923913738,72.1000023072,0.0,0.10081100322595202,1721.6057923913738,72.1000023072,0.35999970196000003,0.371744011895808,1684,-46.7,98,P-GPS,
0.37170060141419103,36.9135444017585,21500,2018-04-18 06:03:36,1722.1057924073737,72.6000023232,0.0,0.0980936031389952,1722.1057924073737,72.6000023232,0.35999970196000003,0.371744011895808,1684,-46.6,98,P-GPS,
0.37170059505023206,36.9135444024619,21600,2018-04-18 06:03:36,1722.605792423374,73.1000023392,0.0,0.09877320316074241,1722.605792423374,73.1000023392,0.35999970196000003,0.371744011895808,1684,-46.7,98,P-GPS,
0.37170060881648703,36.913544403049,21700,2018-04-18 06:03:36,1723.1057924393738,73.6000023552,0.0,0.09725820311226241,1723.1057924393738,73.6000023552,0.35999970196000003,0.371744011895808,1684,-46.6,98,P-GPS,
0.37170062798144105,36.9135443750051,21800,2018-04-18 06:03:36,1723.6057924553738,74.1000023712,0.0,0.095831503066608,1723.6057924553738,74.1000023712,0.35999970196000003,0.371744011895808,1684,-46.7,98,P-GPS,
0.371700663516532,36.9135443443833,21900,2018-04-18 06:03:36,1724.1057924713737,74.6000023872,0.0,0.09285750297144,1724.1057924713737,74.6000023872,0.35999970196000003,0.371744011895808,1659,-46.7,98,P-GPS,
0.371700699258842,36.913544311810895,22000,2018-04-18 06:03:36,1724.605792487374,75.1000024032,0.0,0.0901351028843232,1724.605792487374,75.1000024032,0.35999970196000003,0.371744011895808,1580,-46.6,98,P-GPS,
0.371700744162778,36.9135442968872,22100,2018-04-18 06:03:36,1725.1057925033738,75.60000241920001,0.0,0.08599620275187841,1725.1057925033738,75.60000241920001,0.35999970196000003,0.371744011895808,1580,-46.6,98,P-GPS,
0.37170078440183296,36.913544287217896,22200,2018-04-18 06:03:36,1725.6057925193736,76.10000243520001,0.0,0.08223680263157761,1725.6057925193736,76.10000243520001,0.35999970196000003,0.371744011895808,1220,-46.6,98,P-GPS,
0.371700833243753,36.9135442764572,22300,2018-04-18 06:03:36,1726.0057925321737,76.500002448,0.0,0.0777496024879872,1726.0057925321737,76.500002448,0.35999970196000003,0.371744011895808,1024,-46.6,98,P-GPS,
0.37170085332307895,36.9135442999101,22400,2018-04-18 06:03:37,1726.4057925449736,76.9000024608,0.0,0.07463750238840001,1726.4057925449736,76.9000024608,0.35999970196000003,0.371744011895808,1024,-46.6,98,P-GPS,
0.371700878077259,36.9135443250149,22500,2018-04-18 06:03:37,1726.7057925545737,77.20000247040001,0.0,0.0710044022721408,1726.7057925545737,77.20000247040001,0.35999970196000003,0.371744011895808,1024,-46.6,98,P-GPS,
0.37170087178393396,36.9135443456596,22600,2018-04-18 06:03:37,1726.9057925609739,77.40000247680001,0.0,0.0708029022656928,1726.9057925609739,77.40000247680001,0.35999970196000003,0.371744011895808,1024,-46.7,98,P-GPS,
0.37170088531671097,36.9135443444567,22700,2018-04-18 06:03:37,1727.0057925641738,77.50000248,0.0,0.0694467022222944,1727.0057925641738,77.50000248,0.35999970196000003,0.371744011895808,1024,-46.7,98,P-GPS,
0.37170088029947496,36.9135443067452,22900,2018-04-18 06:03:37,1727.205792570574,77.70000248640001,0.0,0.0715887022908384,1727.205792570574,77.70000248640001,0.35999970196000003,0.371744011895808,1024,-46.7,98,P-GPS,
0.371700838249387,36.9135443073026,23000,2018-04-18 06:03:37,1727.205792570574,77.70000248640001,0.0,0.0758507024272224,1727.205792570574,77.70000248640001,0.35999970196000003,0.371744011895808,1024,-46.7,98,P-GPS,
0.37170082920602704,36.913544297738596,23100,2018-04-18 06:03:37,1727.205792570574,77.70000248640001,0.0,0.0771923024701536,1727.205792570574,77.70000248640001,0.35999970196000003,0.371744011895808,904,-46.7,98,P-GPS,
0.371700865649993,36.913544270508105,23300,2018-04-18 06:03:37,1727.305792573774,77.8000024896,0.35999970196000003,0.0747926023933632,1727.305792573774,77.8000024896,0.35999970196000003,0.371744011895808,794,-46.7,98,P-GPS,
0.371700916638203,36.913544251684705,23400,2018-04-18 06:03:38,1727.305792573774,77.8000024896,0.35999970196000003,0.07079830226554559,1727.305792573774,77.8000024896,0.35999970196000003,0.371744011895808,746,-46.7,98,P-GPS,
0.371701023877754,36.9135441949025,23500,2018-04-18 06:03:38,1727.305792573774,77.8000024896,0.35999970196000003,0.0646863020699616,1727.305792573774,77.8000024896,0.35999970196000003,0.371744011895808,707,-46.7,98,P-GPS,
0.371701140376841,36.9135441201429,23600,2018-04-18 06:03:38,1727.205792570574,77.70000248640001,0.35999970196000003,0.0619789019833248,1727.305792573774,77.8000024896,0.35999970196000003,0.371744011895808,692,-46.7,98,P-GPS,
0.37170131927260897,36.9135440109617,23700,2018-04-18 06:03:38,1727.205792570574,77.70000248640001,0.35999970196000003,0.0644909020637088,1727.305792573774,77.8000024896,0.35999970196000003,0.371744011895808,689,-46.7,98,P-GPS,
0.371701508565993,36.9135438988788,23800,2018-04-18 06:03:38,1727.1057925673738,77.6000024832,0.0,0.07497140239908481,1727.305792573774,77.8000024896,0.35999970196000003,0.371744011895808,674,-46.7,98,P-GPS,
0.37170177144092403,36.913543746037604,23900,2018-04-18 06:03:38,1727.1057925673738,77.6000024832,0.0,0.09786890313180481,1727.305792573774,77.8000024896,0.35999970196000003,0.371744011895808,656,-46.7,98,P-GPS,
0.37170211393679203,36.9135435052888,24000,2018-04-18 06:03:38,1727.0057925641738,77.50000248,0.0,0.13871500443888002,1727.305792573774,77.8000024896,0.35999970196000003,0.371744011895808,660,-46.7,98,P-GPS,
0.3717025308284289,36.9135432173361,24100,2018-04-18 06:03:38,1726.8057925577739,77.3000024736,0.0,0.191528006128896,1727.305792573774,77.8000024896,0.35999970196000003,0.371744011895808,659,-46.7,98,P-GPS,
0.371702989209277,36.913542892139,24200,2018-04-18 06:03:38,1726.7057925545737,77.20000247040001,0.35999970196000003,0.25208000806656,1727.305792573774,77.8000024896,0.35999970196000003,0.371744011895808,658,-46.7,98,P-GPS,
0.37170350328841706,36.913542565948795,24300,2018-04-18 06:03:39,1726.6057925513737,77.1000024672,0.35999970196000003,0.317859010171488,1727.305792573774,77.8000024896,0.35999970196000003,0.371744011895808,666,-46.7,98,P-GPS,
0.37170421837710604,36.9135421615619,24400,2018-04-18 06:03:39,1726.5057925481738,77.000002464,0.35999970196000003,0.40676401301644804,1727.305792573774,77.8000024896,0.35999970196000003,0.40676401301644804,666,-46.7,98,P-GPS,
0.371705131609619,36.91354166164629,24500,2018-04-18 06:03:39,1726.4057925449736,76.9000024608,0.7919993443119999,0.5203940166526081,1727.305792573774,77.8000024896,0.7919993443119999,0.5203940166526081,708,-46.6,98,P-GPS,
0.371706348744895,36.9135410146269,24600,2018-04-18 06:03:39,1726.2057925385739,76.70000245439999,1.151999046272,0.671712021494784,1727.305792573774,77.8000024896,1.151999046272,0.671712021494784,724,-46.6,98,P-GPS,
0.37170737532576203,36.913540482223,24700,2018-04-18 06:03:39,1726.105792535374,76.6000024512,1.151999046272,0.7990800255705601,1727.305792573774,77.8000024896,1.151999046272,0.7990800255705601,756,-46.6,98,P-GPS,
0.37170840824738205,36.91353991542871,24800,2018-04-18 06:03:39,1726.0057925321737,76.500002448,1.151999046272,0.929500029744,1727.305792573774,77.8000024896,1.151999046272,0.929500029744,756,-46.6,98,P-GPS,
0.37170934299784897,36.913539421184794,24900,2018-04-18 06:03:39,1725.8057925257738,76.3000024416,1.151999046272,1.04652003348864,1727.305792573774,77.8000024896,1.151999046272,1.04652003348864,784,-46.7,98,P-GPS,
0.371710152465605,36.9135390206944,25000,2018-04-18 06:03:39,1725.7057925225738,76.2000024384,1.151999046272,1.14629003668128,1727.305792573774,77.8000024896,1.151999046272,1.14629003668128,998,-46.7,98,P-GPS,
0.371710885761265,36.9135386748125,25100,2018-04-18 06:03:39,1725.6057925193736,76.10000243520001,1.151999046272,1.23577003954464,1727.305792573774,77.8000024896,1.151999046272,1.23577003954464,998,-46.7,98,P-GPS,
0.371711387098919,36.9135384408548,25200,2018-04-18 06:03:39,1725.5057925161739,76.000002432,1.151999046272,1.2968500414992,1727.305792573774,77.8000024896,1.151999046272,1.2968500414992,1024,-46.6,98,P-GPS,
0.371711849624239,36.91353823113379,25300,2018-04-18 06:03:39,1725.5057925161739,76.000002432,0.7919993443119999,1.35289004329248,1727.305792573774,77.8000024896,1.151999046272,1.35289004329248,1024,-46.6,98,P-GPS,
0.371712050271337,36.913538154857505,25400,2018-04-18 06:03:40,1725.405792512974,75.90000242880001,0.7199994039200001,1.3763600440435202,1727.305792573774,77.8000024896,1.151999046272,1.3763600440435202,1024,-46.6,98,P-GPS,
0.37171228229692294,36.9135380838642,25500,2018-04-18 06:03:40,1725.405792512974,75.90000242880001,0.7199994039200001,1.4025300448809601,1727.305792573774,77.8000024896,1.151999046272,1.4025300448809601,1024,-46.7,98,P-GPS,
0.37171231834334606,36.913538072537,25600,2018-04-18 06:03:40,1725.405792512974,75.90000242880001,0.7199994039200001,1.40662004501184,1727.305792573774,77.8000024896,1.151999046272,1.40662004501184,1024,-46.7,98,P-GPS,
0.371712398290175,36.9135380414494,25700,2018-04-18 06:03:40,1725.305792509774,75.80000242560001,0.7199994039200001,1.4160200453126401,1727.305792573774,77.8000024896,1.151999046272,1.4160200453126401,877,-46.7,98,P-GPS,
0.371712311038146,36.913538086613,25800,2018-04-18 06:03:40,1725.305792509774,75.80000242560001,0.35999970196000003,1.4051200449638401,1727.305792573774,77.8000024896,1.151999046272,1.4160200453126401,699,-46.6,98,P-GPS,
0.371712296526267,36.913538115586704,25900,2018-04-18 06:03:40,1725.305792509774,75.80000242560001,0.35999970196000003,1.4020800448665602,1727.305792573774,77.8000024896,1.151999046272,1.4160200453126401,622,-46.6,98,P-GPS,
0.37171217532118,36.9135381549994,26000,2018-04-18 06:03:40,1725.305792509774,75.80000242560001,0.35999970196000003,1.3882600444243198,1727.305792573774,77.8000024896,1.151999046272,1.4160200453126401,622,-46.7,98,P-GPS,
0.37171211349160405,36.9135381829768,26100,2018-04-18 06:03:40,1725.2057925065737,75.7000024224,0.35999970196000003,1.38076004418432,1727.305792573774,77.8000024896,1.151999046272,1.4160200453126401,791,-46.7,98,P-GPS,
0.371711953740434,36.9135382013861,26200,2018-04-18 06:03:40,1725.1057925033738,75.60000241920001,0.0,1.364500043664,1727.305792573774,77.8000024896,1.151999046272,1.4160200453126401,1024,-46.7,98,P-GPS,
0.37171181542935794,36.9135382272004,26300,2018-04-18 06:03:41,1724.9057924969738,75.40000241279999,0.0,1.3498700431958401,1727.305792573774,77.8000024896,1.151999046272,1.4160200453126401,1024,-46.7,98,P-GPS,
0.371711553424118,36.9135382754612,26400,2018-04-18 06:03:41,1724.9057924969738,75.40000241279999,0.0,1.3222700423126401,1727.305792573774,77.8000024896,1.151999046272,1.4160200453126401,1024,-46.7,98,P-GPS,
0.371711314882313,36.913538322678704,26500,2018-04-18 06:03:41,1724.9057924969738,75.40000241279999,0.0,1.2970200415046402,1727.305792573774,77.8000024896,1.151999046272,1.4160200453126401,1024,-46.7,98,P-GPS,
0.371711041676635,36.913538324269204,26600,2018-04-18 06:03:41,1724.8057924937737,75.30000240960001,0.0,1.2713800406841602,1727.305792573774,77.8000024896,1.151999046272,1.4160200453126401,1024,-46.7,98,P-GPS,
0.37171079392272294,36.9135383488881,26700,2018-04-18 06:03:41,1724.8057924937737,75.30000240960001,0.0,1.24687003989984,1727.305792573774,77.8000024896,1.151999046272,1.4160200453126401,1024,-46.6,98,P-GPS,
0.371710527508471,36.913538367785,26800,2018-04-18 06:03:41,1724.8057924937737,75.30000240960001,0.35999970196000003,1.2211500390768,1727.305792573774,77.8000024896,1.151999046272,1.4160200453126401,1024,-43.6,98,P-GPS,
0.371710268732435,36.913538427345706,26900,2018-04-18 06:03:41,1724.8057924937737,75.30000240960001,0.35999970196000003,1.19371003819872,1727.305792573774,77.8000024896,1.151999046272,1.4160200453126401,1024,-43.6,98,P-GPS,
0.37170995448426897,36.9135384938564,27000,2018-04-18 06:03:41,1724.8057924937737,75.30000240960001,0.35999970196000003,1.16091003714912,1727.305792573774,77.8000024896,1.151999046272,1.4160200453126401,1024,-38.0,98,P-GPS,
0.37170963197215706,36.9135385796708,27100,2018-04-18 06:03:41,1724.8057924937737,75.30000240960001,0.35999970196000003,1.1262700360406401,1727.305792573774,77.8000024896,1.151999046272,1.4160200453126401,1024,-32.3,98,P-GPS,
0.371709282038676,36.9135386242932,27200,2018-04-18 06:03:41,1724.8057924937737,75.30000240960001,0.7199994039200001,1.09212003494784,1727.305792573774,77.8000024896,1.151999046272,1.4160200453126401,1024,-21.0,98,P-GPS,
0.37170860570761605,36.9135386120442,27400,2018-04-18 06:03:41,1724.8057924937737,75.30000240960001,0.7199994039200001,1.0341500330928002,1727.305792573774,77.8000024896,1.151999046272,1.4160200453126401,1024,-22.1,98,P-GPS,
0.37170829048604703,36.913538584830704,27500,2018-04-18 06:03:42,1724.8057924937737,75.30000240960001,0.7199994039200001,1.0094800323033601,1727.305792573774,77.8000024896,1.151999046272,1.4160200453126401,1024,-27.7,98,P-GPS,
0.371707955484177,36.913538548773296,27600,2018-04-18 06:03:42,1724.8057924937737,75.30000240960001,0.7199994039200001,0.98451003150432,1727.305792573774,77.8000024896,1.151999046272,1.4160200453126401,1024,-33.4,98,P-GPS,
0.371707621801753,36.91353855421679,27700,2018-04-18 06:03:42,1724.8057924937737,75.30000240960001,0.7199994039200001,0.9572220306311041,1727.305792573774,77.8000024896,1.151999046272,1.4160200453126401,1024,-39.0,98,P-GPS,
0.37170728187790997,36.913538543787396,27800,2018-04-18 06:03:42,1724.8057924937737,75.30000240960001,0.7199994039200001,0.9314020298048641,1727.305792573774,77.8000024896,1.151999046272,1.4160200453126401,1024,-44.7,98,P-GPS,
0.37170697916441997,36.913538563524796,27900,2018-04-18 06:03:42,1724.9057924969738,75.40000241279999,0.7199994039200001,0.90673502901552,1727.305792573774,77.8000024896,1.151999046272,1.4160200453126401,1024,-50.3,98,P-GPS,
0.37170666924954293,36.9135385564336,28000,2018-04-18 06:03:42,1724.9057924969738,75.40000241279999,0.35999970196000003,0.884397028300704,1727.305792573774,77.8000024896,1.151999046272,1.4160200453126401,1024,-56.0,98,P-GPS,
0.37170640786596204,36.9135385769466,28100,2018-04-18 06:03:42,1724.9057924969738,75.40000241279999,0.35999970196000003,0.8639000276448001,1727.305792573774,77.8000024896,1.151999046272,1.4160200453126401,1024,-61.6,98,P-GPS,
0.37170613496378496,36.913538604542396,28200,2018-04-18 06:03:42,1724.9057924969738,75.40000241279999,0.35999970196000003,0.842503026960096,1727.305792573774,77.8000024896,1.151999046272,1.4160200453126401,1024,-67.2,98,P-GPS,
0.37170589461379705,36.9135386503799,28300,2018-04-18 06:03:42,1724.9057924969738,75.40000241279999,0.35999970196000003,0.8222150263108801,1727.305792573774,77.8000024896,1.151999046272,1.4160200453126401,1024,-72.9,98,P-GPS,
0.371705589306399,36.9135387246927,28400,2018-04-18 06:03:43,1724.9057924969738,75.40000241279999,0.35999970196000003,0.7955760254584321,1727.305792573774,77.8000024896,1.151999046272,1.4160200453126401,1024,-78.5,98,P-GPS,
0.37170531428236,36.913538805887896,28500,2018-04-18 06:03:43,1724.9057924969738,75.40000241279999,0.35999970196000003,0.7708270246664639,1727.305792573774,77.8000024896,1.151999046272,1.4160200453126401,1024,-78.5,98,P-GPS,
0.37170492606538197,36.91353890287,28600,2018-04-18 06:03:43,1724.9057924969738,75.40000241279999,0.35999970196000003,0.7385000236320001,1727.305792573774,77.8000024896,1.151999046272,1.4160200453126401,1024,-84.1,98,P-GPS,
0.371704587091024,36.913538999062,28700,2018-04-18 06:03:43,1724.9057924969738,75.40000241279999,0.35999970196000003,0.710232022727424,1727.305792573774,77.8000024896,1.151999046272,1.4160200453126401,1024,-89.8,98,P-GPS,
0.37170415602205203,36.913539151917604,28800,2018-04-18 06:03:43,1724.9057924969738,75.40000241279999,0.35999970196000003,0.672817021530144,1727.305792573774,77.8000024896,1.151999046272,1.4160200453126401,1024,-89.9,98,P-GPS,
0.371703809639495,36.9135393165877,28900,2018-04-18 06:03:43,1724.9057924969738,75.40000241279999,0.503999582744,0.6398360204747521,1727.305792573774,77.8000024896,1.151999046272,1.4160200453126401,1024,-90.0,98,P-GPS,
0.37170340834819804,36.9135395351526,29000,2018-04-18 06:03:43,1724.8057924937737,75.30000240960001,0.503999582744,0.6002600192083201,1727.305792573774,77.8000024896,1.151999046272,1.4160200453126401,1024,-90.0,98,P-GPS,
0.37170309732167994,36.9135397497567,29100,2018-04-18 06:03:43,1724.8057924937737,75.30000240960001,0.35999970196000003,0.566048018113536,1727.305792573774,77.8000024896,1.151999046272,1.4160200453126401,1024,-89.9,98,P-GPS,
