latitude,longitude,time_millisecond,datetime_utc,altitude_m,ascent_m,speed_kph,distance_m,max_altitude_m,max_ascent_m,max_speed_kph,max_distance_m,rc_throttle,gimbal_pitch_degrees,battery_percent,flycState,message
0.376647462063114,36.9241029267933,0,2018-04-16 06:36:20,1626.5571809498356,0.0,0.0,0.0,1626.5571809498356,0.0,0.0,0.0,364,0.0,99,Motors_Started,
0.376647492699845,36.9241029195279,100,2018-04-16 06:36:20,1626.5571809498356,0.0,0.0,0.0035014801120473605,1626.5571809498356,0.0,0.0,0.0035014801120473605,364,0.0,99,Motors_Started,
0.376647525834609,36.9241029220026,200,2018-04-16 06:36:20,1626.5571809498356,0.0,0.0,0.00711176022757632,1626.5571809498356,0.0,0.0,0.00711176022757632,364,0.0,99,Motors_Started,
0.376647571960285,36.9241029116267,300,2018-04-16 06:36:20,1626.5571809498356,0.0,0.0,0.012337100394787201,1626.5571809498356,0.0,0.0,0.012337100394787201,364,0.0,99,Motors_Started,
0.376647615386001,36.9241029111976,400,2018-04-16 06:36:20,1626.5571809498356,0.0,0.0,0.0171384005484288,1626.5571809498356,0.0,0.0,0.0171384005484288,364,0.0,99,Motors_Started,Setting new Return-To-Home altitude to 45m (148 ft). Setting new Maximum Flight Altitude to 150m (492 ft)
0.376647635977676,36.9241029345987,500,2018-04-16 06:36:21,1626.5571809498356,0.0,0.0,0.0193598006195136,1626.5571809498356,0.0,0.0,0.0193598006195136,364,0.0,99,Motors_Started,
0.376647655571114,36.9241029632186,600,2018-04-16 06:36:21,1626.5571809498356,0.0,0.0,0.0218972007007104,1626.5571809498356,0.0,0.0,0.0218972007007104,364,0.0,99,Motors_Started,
0.376647687679144,36.9241029792123,700,2018-04-16 06:36:21,1626.5571809498356,0.0,0.0,0.025758100824259198,1626.5571809498356,0.0,0.0,0.025758100824259198,364,0.0,99,Motors_Started,
0.376647721111099,36.924102996709,800,2018-04-16 06:36:21,1626.5571809498356,0.0,0.0,0.029838500954832,1626.5571809498356,0.0,0.0,0.029838500954832,364,0.0,99,Motors_Started,
0.376647733614292,36.9241030005722,900,2018-04-16 06:36:21,1626.5571809498356,0.0,0.0,0.0312928010013696,1626.5571809498356,0.0,0.0,0.0312928010013696,364,0.0,99,Motors_Started,
0.376647746959391,36.9241030099159,1000,2018-04-16 06:36:21,1626.5571809498356,0.0,0.0,0.0330031010560992,1626.5571809498356,0.0,0.0,0.0330031010560992,364,0.0,99,Motors_Started,
0.376647774655152,36.9241030060821,1100,2018-04-16 06:36:21,1626.5571809498356,0.0,0.0,0.0358629011476128,1626.5571809498356,0.0,0.0,0.0358629011476128,364,0.0,99,Motors_Started,
0.376647802280076,36.9241030084091,1200,2018-04-16 06:36:21,1626.5571809498356,0.0,0.0,0.0389076012450432,1626.5571809498356,0.0,0.0,0.0389076012450432,364,0.0,99,Motors_Started,
0.376647814202729,36.9241030001495,1300,2018-04-16 06:36:21,1626.5571809498356,0.0,0.0,0.0400007012800224,1626.5571809498356,0.0,0.0,0.0400007012800224,364,0.0,99,Motors_Started,
0.376647824948831,36.9241029999683,1400,2018-04-16 06:36:22,1626.5571809498356,0.0,0.0,0.041167301317353605,1626.5571809498356,0.0,0.0,0.041167301317353605,413,0.0,99,Motors_Started,
0.376647851957389,36.9241030226197,1500,2018-04-16 06:36:22,1626.5571809498356,0.0,0.0,0.0446489014287648,1626.5571809498356,0.0,0.0,0.0446489014287648,413,0.0,99,Assisted_Takeoff,
0.376647880044791,36.9241030505647,1600,2018-04-16 06:36:22,1626.5571809498356,0.0,0.0,0.04847710155126721,1626.5571809498356,0.0,0.0,0.04847710155126721,1017,0.0,99,Assisted_Takeoff,
0.376647892503202,36.9241030686043,1700,2018-04-16 06:36:22,1626.5571809498356,0.0,0.0,0.0503983016127456,1626.5571809498356,0.0,0.0,0.0503983016127456,1024,0.0,99,Assisted_Takeoff,
0.376647901541066,36.9241030857198,1800,2018-04-16 06:36:22,1626.5571809498356,0.0,0.0,0.05197000166304001,1626.5571809498356,0.0,0.0,0.05197000166304001,1024,0.0,99,Assisted_Takeoff,
0.376647931229228,36.9241030912342,1900,2018-04-16 06:36:22,1626.5571809498356,0.0,0.0,0.0552859017691488,1626.5571809498356,0.0,0.0,0.0552859017691488,1024,0.0,99,Assisted_Takeoff,
0.376647961344043,36.9241031013572,2000,2018-04-16 06:36:22,1626.5571809498356,0.0,0.0,0.0588187018821984,1626.5571809498356,0.0,0.0,0.0588187018821984,1024,0.0,99,Assisted_Takeoff,
0.376647978067349,36.9241030993086,2100,2018-04-16 06:36:22,1626.5571809498356,0.0,0.0,0.0605048019361536,1626.5571809498356,0.0,0.0,0.0605048019361536,1024,0.0,99,Assisted_Takeoff,
0.376647991716966,36.9241031045201,2200,2018-04-16 06:36:22,1626.5571809498356,0.0,0.0,0.062128201988102406,1626.5571809498356,0.0,0.0,0.062128201988102406,1024,0.0,99,Assisted_Takeoff,
0.376648025285711,36.9241031316497,2300,2018-04-16 06:36:22,1626.5571809498356,0.0,0.0,0.066648002132736,1626.5571809498356,0.0,0.0,0.066648002132736,1169,0.0,99,Assisted_Takeoff,
0.376648056909279,36.9241031637221,2400,2018-04-16 06:36:22,1626.5571809498356,0.0,0.0,0.071204502278544,1626.5571809498356,0.0,0.0,0.071204502278544,1238,0.0,99,Assisted_Takeoff,
0.376648075266728,36.9241031831544,2500,2018-04-16 06:36:23,1626.5571809498356,0.0,0.0,0.0739112023651584,1626.5571809498356,0.0,0.0,0.0739112023651584,1269,0.0,99,Assisted_Takeoff,
0.376648089877942,36.9241032030775,2600,2018-04-16 06:36:23,1626.5571809498356,0.0,0.0,0.0762781024408992,1626.5571809498356,0.0,0.0,0.0762781024408992,1338,0.0,99,Assisted_Takeoff,
0.376648092547776,36.9241032077227,2700,2018-04-16 06:36:23,1626.5571809498356,0.0,0.0,0.0767587024562784,1626.5571809498356,0.0,0.0,0.0767587024562784,1389,0.0,99,Assisted_Takeoff,
0.376648094998584,36.9241032162473,2800,2018-04-16 06:36:23,1626.5571809498356,0.0,0.0,0.07739720247671039,1626.5571809498356,0.0,0.0,0.07739720247671039,1485,0.0,99,Assisted_Takeoff,
0.376648091413565,36.9241032426916,2900,2018-04-16 06:36:23,1626.5571809498356,0.0,0.0,0.07830910250589121,1626.5571809498356,0.0,0.0,0.07830910250589121,1596,0.0,99,Assisted_Takeoff,
0.376648105484135,36.9241032609863,3000,2018-04-16 06:36:23,1626.5571809498356,0.0,0.0,0.0806279025800928,1626.5571809498356,0.0,0.0,0.0806279025800928,1684,0.0,99,Assisted_Takeoff,
0.376648170358087,36.9241032284908,3100,2018-04-16 06:36:23,1626.5571809498356,0.0,0.0,0.08561420273965441,1626.5571809498356,0.0,0.0,0.08561420273965441,1684,0.0,99,P-GPS,
0.376648261077074,36.9241031632999,3200,2018-04-16 06:36:23,1626.5571809498356,0.0,0.35999970196000003,0.0926659029653088,1626.5571809498356,0.0,0.35999970196000003,0.0926659029653088,1684,0.0,99,P-GPS,
0.376648343056201,36.9241030936132,3300,2018-04-16 06:36:23,1626.6571809530353,0.1000000032,0.35999970196000003,0.09971270319080641,1626.6571809530353,0.1000000032,0.35999970196000003,0.09971270319080641,1684,0.0,99,P-GPS,
0.376648421995024,36.9241030341722,3400,2018-04-16 06:36:23,1626.8571809594355,0.3000000096,0.35999970196000003,0.107416003437312,1626.8571809594355,0.3000000096,0.35999970196000003,0.107416003437312,1684,0.0,99,P-GPS,Home Point Recorded. RTH Altitude:  45m.
0.376648542257242,36.9241029378791,3500,2018-04-16 06:36:24,1626.9571809626354,0.4000000128,0.35999970196000003,0.12013100384419201,1626.9571809626354,0.4000000128,0.35999970196000003,0.12013100384419201,1684,0.0,99,P-GPS,
0.376648653751103,36.924102840313,3600,2018-04-16 06:36:24,1627.2571809722356,0.7000000224,0.35999970196000003,0.132871004251872,1627.2571809722356,0.7000000224,0.35999970196000003,0.132871004251872,1684,0.0,99,P-GPS,
0.376648828273888,36.9241026825741,3700,2018-04-16 06:36:24,1627.4571809786353,0.9000000288000001,0.0,0.15433900493884803,1627.4571809786353,0.9000000288000001,0.35999970196000003,0.15433900493884803,1684,0.0,99,P-GPS,
0.376648966377339,36.9241025541226,3800,2018-04-16 06:36:24,1627.8571809914356,1.3000000416000002,0.0,0.172346005515072,1627.8571809914356,1.3000000416000002,0.35999970196000003,0.172346005515072,1684,0.0,99,P-GPS,
0.376648998687296,36.9241024052842,3900,2018-04-16 06:36:24,1628.1571810010355,1.6000000512,0.0,0.18045500577456,1628.1571810010355,1.6000000512,0.35999970196000003,0.18045500577456,1684,0.0,99,P-GPS,
0.376649027269745,36.9241023126742,4000,2018-04-16 06:36:24,1628.6571810170356,2.1000000672000003,0.0,0.186978005983296,1628.6571810170356,2.1000000672000003,0.35999970196000003,0.186978005983296,1684,0.0,99,P-GPS,
0.376648947266734,36.9241021943446,4100,2018-04-16 06:36:24,1629.0571810298356,2.50000008,0.0,0.184156005892992,1629.0571810298356,2.50000008,0.35999970196000003,0.186978005983296,1684,0.0,99,P-GPS,
0.376648900650896,36.924102124924,4200,2018-04-16 06:36:24,1629.5571810458355,3.0000000960000004,0.0,0.183153005860896,1629.5571810458355,3.0000000960000004,0.35999970196000003,0.186978005983296,1684,0.0,99,P-GPS,
0.376648714565344,36.9241020736598,4300,2018-04-16 06:36:24,1630.0571810618355,3.500000112,0.0,0.16852600539283202,1630.0571810618355,3.500000112,0.35999970196000003,0.186978005983296,1684,0.0,99,P-GPS,
0.376648546153294,36.9241020570873,4400,2018-04-16 06:36:24,1630.5571810778356,4.000000128,0.0,0.154557004945824,1630.5571810778356,4.000000128,0.35999970196000003,0.186978005983296,1684,0.0,99,P-GPS,
0.376648286788576,36.9241020238746,4500,2018-04-16 06:36:25,1631.1571810970354,4.6000001472,0.0,0.13599000435168002,1631.1571810970354,4.6000001472,0.35999970196000003,0.186978005983296,1684,0.0,99,P-GPS,
0.376648073330508,36.9241019990086,4600,2018-04-16 06:36:25,1631.6571811130354,5.1000001632,0.0,0.12355400395372801,1631.6571811130354,5.1000001632,0.35999970196000003,0.186978005983296,1684,0.0,99,P-GPS,
0.376647864253769,36.9241019922733,4700,2018-04-16 06:36:25,1632.1571811290355,5.6000001792,0.0,0.11313800362041601,1632.1571811290355,5.6000001792,0.35999970196000003,0.186978005983296,1684,0.0,99,P-GPS,
0.376647704733838,36.9241019781993,4800,2018-04-16 06:36:25,1632.6571811450356,6.100000195200001,0.0,0.108884003484288,1632.6571811450356,6.100000195200001,0.35999970196000003,0.186978005983296,1684,0.0,99,P-GPS,
0.376647584133718,36.9241019462082,4900,2018-04-16 06:36:25,1633.0571811578354,6.500000208,0.0,0.109886003516352,1633.0571811578354,6.500000208,0.35999970196000003,0.186978005983296,1684,0.0,99,P-GPS,
0.376647479047785,36.9241019075724,5000,2018-04-16 06:36:25,1633.5571811738355,7.000000224,0.0,0.11335700362742401,1633.5571811738355,7.000000224,0.35999970196000003,0.186978005983296,1684,0.0,99,P-GPS,
0.376647445132182,36.9241018824812,5100,2018-04-16 06:36:25,1634.0571811898355,7.50000024,0.0,0.116147003716704,1634.0571811898355,7.50000024,0.35999970196000003,0.186978005983296,1684,0.0,99,P-GPS,
0.376647398794808,36.9241018591329,5200,2018-04-16 06:36:25,1634.4571812026356,7.9000002528,0.0,0.118936003805952,1634.4571812026356,7.9000002528,0.35999970196000003,0.186978005983296,1684,0.0,99,P-GPS,
0.376647444552455,36.9241018250411,5300,2018-04-16 06:36:25,1634.9571812186355,8.400000268800001,0.0,0.12253400392108801,1634.9571812186355,8.400000268800001,0.35999970196000003,0.186978005983296,1684,0.0,99,P-GPS,
0.376647462585844,36.924101796445,5400,2018-04-16 06:36:26,1635.4571812346355,8.9000002848,0.0,0.125699004022368,1635.4571812346355,8.9000002848,0.35999970196000003,0.186978005983296,1684,0.0,99,P-GPS,
0.376647535086614,36.924101732313,5500,2018-04-16 06:36:26,1635.8571812474354,9.3000002976,0.0,0.133079004258528,1635.8571812474354,9.3000002976,0.35999970196000003,0.186978005983296,1684,0.0,99,P-GPS,
0.376647567895689,36.9241016860277,5600,2018-04-16 06:36:26,1636.3571812634357,9.8000003136,0.0,0.13847900443132802,1636.3571812634357,9.8000003136,0.35999970196000003,0.186978005983296,1684,0.0,99,P-GPS,
0.376647669946203,36.9241016328936,5700,2018-04-16 06:36:26,1636.8571812794355,10.3000003296,0.0,0.145732004663424,1636.8571812794355,10.3000003296,0.35999970196000003,0.186978005983296,1684,0.0,99,P-GPS,
0.376647744264316,36.9241015968947,5800,2018-04-16 06:36:26,1637.3571812954353,10.8000003456,0.0,0.15118300483785602,1637.3571812954353,10.8000003456,0.35999970196000003,0.186978005983296,1684,0.0,99,P-GPS,
0.37664784483946,36.924101581484,5900,2018-04-16 06:36:26,1637.7571813082354,11.2000003584,0.0,0.15554100497731202,1637.7571813082354,11.2000003584,0.35999970196000003,0.186978005983296,1684,0.0,99,P-GPS,
0.376647914610143,36.9241015832696,6000,2018-04-16 06:36:26,1638.2571813242357,11.7000003744,0.0,0.15765300504489602,1638.2571813242357,11.7000003744,0.35999970196000003,0.186978005983296,1684,0.0,99,P-GPS,
0.376648055255594,36.9241016015688,6100,2018-04-16 06:36:26,1638.7571813402355,12.200000390400001,0.0,0.16146000516672,1638.7571813402355,12.200000390400001,0.35999970196000003,0.186978005983296,1684,0.0,99,P-GPS,
0.376648167704538,36.9241016261819,6200,2018-04-16 06:36:26,1639.2571813562354,12.700000406400001,0.0,0.164549005265568,1639.2571813562354,12.700000406400001,0.35999970196000003,0.186978005983296,1684,0.0,99,P-GPS,
0.376648295448641,36.9241016505421,6300,2018-04-16 06:36:26,1639.6571813690355,13.100000419200002,0.0,0.16950400542412802,1639.6571813690355,13.100000419200002,0.35999970196000003,0.186978005983296,1684,0.0,99,P-GPS,
0.376648400338347,36.9241016774178,6400,2018-04-16 06:36:26,1640.1571813850355,13.600000435200002,0.0,0.173753005560096,1640.1571813850355,13.600000435200002,0.35999970196000003,0.186978005983296,1684,0.0,99,P-GPS,
0.376648498198061,36.924101699548,6500,2018-04-16 06:36:27,1640.6571814010356,14.100000451200001,0.0,0.178611005715552,1640.6571814010356,14.100000451200001,0.35999970196000003,0.186978005983296,1684,0.0,99,P-GPS,
0.376648577600176,36.9241017327145,6600,2018-04-16 06:36:27,1641.1571814170354,14.600000467200001,0.0,0.18171900581500802,1641.1571814170354,14.600000467200001,0.35999970196000003,0.186978005983296,1684,0.0,99,P-GPS,
0.376648681625993,36.9241017536516,6700,2018-04-16 06:36:27,1641.6571814330357,15.1000004832,0.0,0.188183006021856,1641.6571814330357,15.1000004832,0.35999970196000003,0.188183006021856,1684,0.0,99,P-GPS,
0.376648774029605,36.9241017795203,6800,2018-04-16 06:36:27,1642.1571814490355,15.6000004992,0.0,0.19381300620201602,1642.1571814490355,15.6000004992,0.35999970196000003,0.19381300620201602,1684,0.0,99,P-GPS,
0.376648934784711,36.924101788528,7000,2018-04-16 06:36:27,1643.1571814810354,16.600000531200003,0.0,0.20699000662368,1643.1571814810354,16.600000531200003,0.35999970196000003,0.20699000662368,1684,0.0,99,P-GPS,
0.376649032825182,36.9241017670701,7100,2018-04-16 06:36:27,1643.6571814970355,17.1000005472,0.0,0.217128006948096,1643.6571814970355,17.1000005472,0.35999970196000003,0.217128006948096,1684,0.0,99,P-GPS,
0.376649125611478,36.9241017640172,7200,2018-04-16 06:36:27,1644.2571815162355,17.7000005664,0.0,0.22570700722262402,1644.2571815162355,17.7000005664,0.35999970196000003,0.22570700722262402,1684,0.0,99,P-GPS,
0.376649221828906,36.924101764606,7300,2018-04-16 06:36:27,1644.7571815322356,18.2000005824,0.0,0.23452100750467203,1644.7571815322356,18.2000005824,0.35999970196000003,0.23452100750467203,1684,0.0,99,P-GPS,
0.376649288266164,36.9241017947333,7400,2018-04-16 06:36:27,1645.2571815482356,18.700000598400003,0.0,0.23893800764601603,1645.2571815482356,18.700000598400003,0.35999970196000003,0.23893800764601603,1684,0.0,99,P-GPS,
0.376649328823376,36.92410180811,7500,2018-04-16 06:36:28,1645.7571815642355,19.2000006144,0.0,0.242016007744512,1645.7571815642355,19.2000006144,0.35999970196000003,0.242016007744512,1684,0.0,99,P-GPS,
0.376649355107276,36.9241018288735,7600,2018-04-16 06:36:28,1646.3571815834355,19.800000633600003,0.0,0.24336100778755201,1646.3571815834355,19.800000633600003,0.35999970196000003,0.24336100778755201,1684,0.0,99,P-GPS,
0.376649343917423,36.9241018489903,7700,2018-04-16 06:36:28,1646.8571815994355,20.3000006496,0.0,0.24116600771731203,1646.8571815994355,20.3000006496,0.35999970196000003,0.24336100778755201,1684,0.0,99,P-GPS,
0.37664933473707,36.9241018731887,7800,2018-04-16 06:36:28,1647.4571816186356,20.900000668800004,0.0,0.238949007646368,1647.4571816186356,20.900000668800004,0.35999970196000003,0.24336100778755201,1684,0.0,99,P-GPS,
0.376649305911169,36.9241018584593,7900,2018-04-16 06:36:28,1647.9571816346356,21.400000684800002,0.0,0.236978007583296,1647.9571816346356,21.400000684800002,0.35999970196000003,0.24336100778755201,1684,0.0,99,P-GPS,
0.376649277977655,36.9241018464771,8000,2018-04-16 06:36:28,1648.5571816538356,22.000000703999998,0.0,0.23497300751913602,1648.5571816538356,22.000000703999998,0.35999970196000003,0.24336100778755201,1684,0.0,99,P-GPS,
0.37664923850173,36.9241018156398,8100,2018-04-16 06:36:28,1649.0571816698355,22.50000072,0.0,0.23301200745638403,1649.0571816698355,22.50000072,0.35999970196000003,0.24336100778755201,1684,0.0,99,P-GPS,
0.376649201014949,36.924101804379,8200,2018-04-16 06:36:28,1649.6571816890355,23.1000007392,0.0,0.23016500736528,1649.6571816890355,23.1000007392,0.35999970196000003,0.24336100778755201,1684,0.0,99,P-GPS,
0.376649140613518,36.9241017904623,8300,2018-04-16 06:36:28,1650.1571817050356,23.6000007552,0.0,0.22541500721328,1650.1571817050356,23.6000007552,0.35999970196000003,0.24336100778755201,1684,0.0,99,P-GPS,
0.376649092230004,36.9241017909342,8400,2018-04-16 06:36:28,1650.7571817242354,24.2000007744,0.0,0.2209500070704,1650.7571817242354,24.2000007744,0.35999970196000003,0.24336100778755201,1684,0.0,99,P-GPS,
0.37664906846775,36.9241017862195,8500,2018-04-16 06:36:29,1651.3571817434356,24.800000793600002,0.0,0.21909000701088002,1651.3571817434356,24.800000793600002,0.35999970196000003,0.24336100778755201,1684,0.0,99,P-GPS,
0.376649051357689,36.9241017850046,8600,2018-04-16 06:36:29,1651.8571817594354,25.3000008096,0.0,0.21762000696384,1651.8571817594354,25.3000008096,0.35999970196000003,0.24336100778755201,1684,0.0,99,P-GPS,
0.37664901620284,36.9241017347889,8700,2018-04-16 06:36:29,1652.4571817786357,25.9000008288,0.0,0.21781000696992,1652.4571817786357,25.9000008288,0.35999970196000003,0.24336100778755201,1684,0.0,99,P-GPS,
0.376648983079474,36.9241016982971,8800,2018-04-16 06:36:29,1652.9571817946355,26.4000008448,0.0,0.21742500695760003,1652.9571817946355,26.4000008448,0.35999970196000003,0.24336100778755201,1684,0.0,99,P-GPS,
0.376648928823792,36.9241016589104,8900,2018-04-16 06:36:29,1653.5571818138355,27.000000864,0.0,0.215603006899296,1653.5571818138355,27.000000864,0.35999970196000003,0.24336100778755201,1684,0.0,99,P-GPS,
0.376648880004669,36.9241016323714,9000,2018-04-16 06:36:29,1654.0571818298356,27.50000088,0.0,0.21350500683216003,1654.0571818298356,27.50000088,0.35999970196000003,0.24336100778755201,1684,0.0,99,P-GPS,
0.376648842646535,36.9241016260275,9100,2018-04-16 06:36:29,1654.6571818490356,28.1000008992,0.0,0.21093800675001603,1654.6571818490356,28.1000008992,0.35999970196000003,0.24336100778755201,1684,0.0,99,P-GPS,
0.376648807695242,36.9241016481687,9200,2018-04-16 06:36:29,1655.2571818682354,28.7000009184,0.0,0.206422006605504,1655.2571818682354,28.7000009184,0.35999970196000003,0.24336100778755201,1684,0.0,99,P-GPS,
0.376648785778828,36.9241016519501,9300,2018-04-16 06:36:29,1655.7571818842355,29.200000934400002,0.0,0.204371006539872,1655.7571818842355,29.200000934400002,0.35999970196000003,0.24336100778755201,1684,0.0,99,P-GPS,
0.376648757477286,36.9241016648814,9400,2018-04-16 06:36:30,1656.3571819034355,29.8000009536,0.0,0.20110900643548799,1656.3571819034355,29.8000009536,0.35999970196000003,0.24336100778755201,1684,0.0,99,P-GPS,
0.376648721022938,36.9241016592117,9500,2018-04-16 06:36:30,1656.8571819194353,30.300000969600003,0.0,0.19867300635753601,1656.8571819194353,30.300000969600003,0.35999970196000003,0.24336100778755201,1684,0.0,99,P-GPS,
0.376648656400581,36.9241016377604,9700,2018-04-16 06:36:30,1657.9571819546354,31.400001004800004,0.0,0.195418006253376,1657.9571819546354,31.400001004800004,0.35999970196000003,0.24336100778755201,1684,0.0,99,P-GPS,
0.376648625031864,36.9241016230568,9800,2018-04-16 06:36:30,1658.5571819738357,32.000001024,0.0,0.194282006217024,1658.5571819738357,32.000001024,0.35999970196000003,0.24336100778755201,1684,0.0,99,P-GPS,
0.376648582782699,36.9241016008681,9900,2018-04-16 06:36:30,1659.0571819898355,32.50000104,0.0,0.193064006178048,1659.0571819898355,32.50000104,0.35999970196000003,0.24336100778755201,1684,0.0,99,P-GPS,
0.376648542674938,36.9241016021233,10000,2018-04-16 06:36:30,1659.6571820090358,33.100001059200004,0.0,0.190107006083424,1659.6571820090358,33.100001059200004,0.35999970196000003,0.24336100778755201,1684,0.0,99,P-GPS,
0.37664851918789,36.9241016071006,10100,2018-04-16 06:36:30,1660.1571820250356,33.600001075200005,0.0,0.18803500601712,1660.1571820250356,33.600001075200005,0.35999970196000003,0.24336100778755201,1684,0.0,99,P-GPS,
0.376648496842381,36.9241016297225,10200,2018-04-16 06:36:30,1660.6571820410354,34.1000010912,0.0,0.184518005904576,1660.6571820410354,34.1000010912,0.35999970196000003,0.24336100778755201,1684,0.0,99,P-GPS,
0.376648495667459,36.924101616141,10300,2018-04-16 06:36:30,1661.2571820602357,34.7000011104,0.0,0.18562000593984002,1661.2571820602357,34.7000011104,0.35999970196000003,0.24336100778755201,1684,0.0,99,P-GPS,
0.376648495222894,36.9241016269204,10400,2018-04-16 06:36:30,1661.7571820762355,35.200001126400004,0.0,0.1846500059088,1661.7571820762355,35.200001126400004,0.35999970196000003,0.24336100778755201,1684,0.0,99,P-GPS,
0.376648485738022,36.9241016274449,10500,2018-04-16 06:36:31,1662.2571820922353,35.700001142400005,0.0,0.183949005886368,1662.2571820922353,35.700001142400005,0.35999970196000003,0.24336100778755201,1684,0.0,99,P-GPS,
0.376648477849025,36.9241016507409,10600,2018-04-16 06:36:31,1662.8571821114356,36.3000011616,0.0,0.181374005803968,1662.8571821114356,36.3000011616,0.35999970196000003,0.24336100778755201,1684,0.0,99,P-GPS,
0.376648484253695,36.9241016816505,10700,2018-04-16 06:36:31,1663.3571821274354,36.8000011776,0.0,0.179148005732736,1663.3571821274354,36.8000011776,0.35999970196000003,0.24336100778755201,1684,0.0,99,P-GPS,
0.376648490666508,36.9241017241275,10800,2018-04-16 06:36:31,1663.8571821434357,37.3000011936,0.0,0.175986005631552,1663.8571821434357,37.3000011936,0.35999970196000003,0.24336100778755201,1684,0.0,99,P-GPS,
0.376648490429569,36.9241017246331,10900,2018-04-16 06:36:31,1664.3571821594355,37.800001209600005,0.0,0.175926005629632,1664.3571821594355,37.800001209600005,0.35999970196000003,0.24336100778755201,1684,0.0,99,P-GPS,
0.37664847849796,36.9241017338217,11000,2018-04-16 06:36:31,1664.9571821786353,38.4000012288,0.0,0.174287005577184,1664.9571821786353,38.4000012288,0.35999970196000003,0.24336100778755201,1684,0.0,99,P-GPS,
0.376648471905204,36.924101720103,11100,2018-04-16 06:36:31,1665.4571821946356,38.9000012448,0.0,0.17498000559936003,1665.4571821946356,38.9000012448,0.35999970196000003,0.24336100778755201,1684,0.0,99,P-GPS,
0.376648463408798,36.9241017290117,11200,2018-04-16 06:36:31,1665.9571822106354,39.4000012608,0.0,0.17361400555564802,1665.9571822106354,39.4000012608,0.35999970196000003,0.24336100778755201,1684,0.0,99,P-GPS,
0.376648455945639,36.924101721659,11300,2018-04-16 06:36:31,1666.5571822298357,40.00000128,0.0,0.17371300555881602,1666.5571822298357,40.00000128,0.35999970196000003,0.24336100778755201,1684,0.0,99,P-GPS,
0.376648440348402,36.9241017302987,11400,2018-04-16 06:36:32,1667.0571822458355,40.500001296,0.0,0.17186900549980802,1667.0571822458355,40.500001296,0.35999970196000003,0.24336100778755201,1684,0.0,99,P-GPS,
0.376648435938576,36.9241017148677,11500,2018-04-16 06:36:32,1667.5571822618354,41.000001312,0.0,0.172894005532608,1667.5571822618354,41.000001312,0.35999970196000003,0.24336100778755201,1684,0.0,99,P-GPS,
0.376648435004663,36.9241017224474,11600,2018-04-16 06:36:32,1668.1571822810356,41.600001331200005,0.0,0.172172005509504,1668.1571822810356,41.600001331200005,0.35999970196000003,0.24336100778755201,1684,0.0,99,P-GPS,
0.376648452772616,36.9241017105366,11700,2018-04-16 06:36:32,1668.6571822970354,42.100001347200006,0.0,0.174446005582272,1668.6571822970354,42.100001347200006,0.35999970196000003,0.24336100778755201,1684,0.0,99,P-GPS,
0.376648464521839,36.924101717662,11800,2018-04-16 06:36:32,1669.1571823130355,42.6000013632,0.0,0.17466300558921602,1669.1571823130355,42.6000013632,0.35999970196000003,0.24336100778755201,1684,0.0,99,P-GPS,
0.376648494747388,36.9241017615255,12000,2018-04-16 06:36:32,1670.2571823482353,43.7000013984,0.0,0.173147005540704,1670.2571823482353,43.7000013984,0.35999970196000003,0.24336100778755201,1684,0.0,99,P-GPS,
0.376648512810903,36.9241017332618,12100,2018-04-16 06:36:32,1670.7571823642356,44.2000014144,0.0,0.176833005658656,1670.7571823642356,44.2000014144,0.35999970196000003,0.24336100778755201,1684,0.0,99,P-GPS,
0.376648514348969,36.924101720826,12200,2018-04-16 06:36:32,1671.2571823802355,44.7000014304,0.0,0.17798500569552,1671.2571823802355,44.7000014304,0.35999970196000003,0.24336100778755201,1684,0.0,99,P-GPS,
0.376648532563115,36.9241017274103,12300,2018-04-16 06:36:32,1671.7571823962355,45.2000014464,0.0,0.17877700572086402,1671.7571823962355,45.2000014464,0.35999970196000003,0.24336100778755201,1684,0.0,99,P-GPS,
0.376648539920425,36.9241017687032,12400,2018-04-16 06:36:32,1672.2571824122354,45.7000014624,0.0,0.175934005629888,1672.2571824122354,45.7000014624,0.35999970196000003,0.24336100778755201,1684,0.0,99,P-GPS,
0.37664852950164,36.9241017950619,12500,2018-04-16 06:36:33,1672.8571824314356,46.300001481600006,0.0,0.173003005536096,1672.8571824314356,46.300001481600006,0.35999970196000003,0.24336100778755201,1684,0.0,99,P-GPS,
0.376648498493624,36.9241018246189,12600,2018-04-16 06:36:33,1673.3571824474354,46.8000014976,0.0,0.16824600538387202,1673.3571824474354,46.8000014976,0.35999970196000003,0.24336100778755201,1684,0.0,99,P-GPS,
0.3766485170473,36.9241018284818,12700,2018-04-16 06:36:33,1673.8571824634357,47.3000015136,0.0,0.16935600541939203,1673.8571824634357,47.3000015136,0.35999970196000003,0.24336100778755201,1684,0.0,99,P-GPS,
0.376648532067253,36.9241018468774,12800,2018-04-16 06:36:33,1674.3571824794356,47.8000015296,0.0,0.169058005409856,1674.3571824794356,47.8000015296,0.35999970196000003,0.24336100778755201,1684,0.0,99,P-GPS,
0.37664857249419,36.9241018317486,12900,2018-04-16 06:36:33,1674.8571824954354,48.300001545600004,0.0,0.173429005549728,1674.8571824954354,48.300001545600004,0.35999970196000003,0.24336100778755201,1684,0.0,99,P-GPS,
0.376648596199449,36.9241018333896,13000,2018-04-16 06:36:33,1675.4571825146356,48.9000015648,0.0,0.175189005606048,1675.4571825146356,48.9000015648,0.35999970196000003,0.24336100778755201,1684,0.0,99,P-GPS,
0.376648658936068,36.924101814481,13100,2018-04-16 06:36:33,1675.9571825306355,49.4000015808,0.0,0.18170200581446402,1675.9571825306355,49.4000015808,0.35999970196000003,0.24336100778755201,1684,0.0,99,P-GPS,
0.376648701519065,36.924101823334,13200,2018-04-16 06:36:33,1676.4571825466353,49.9000015968,0.0,0.184543005905376,1676.4571825466353,49.9000015968,0.35999970196000003,0.24336100778755201,1684,0.0,99,P-GPS,
0.376648736250518,36.9241018200165,13300,2018-04-16 06:36:33,1676.9571825626356,50.4000016128,0.0,0.187687006005984,1676.9571825626356,50.4000016128,0.35999970196000003,0.24336100778755201,1684,0.0,99,P-GPS,
0.376648747791301,36.9241018340285,13400,2018-04-16 06:36:34,1677.4571825786354,50.9000016288,0.0,0.18764500600464,1677.4571825786354,50.9000016288,0.35999970196000003,0.24336100778755201,1684,0.0,99,P-GPS,
0.376648786453004,36.9241018155781,13500,2018-04-16 06:36:34,1677.9571825946355,51.4000016448,0.0,0.19225300615209603,1677.9571825946355,51.4000016448,0.35999970196000003,0.24336100778755201,1684,0.0,99,P-GPS,
0.376648805683299,36.924101816628,13600,2018-04-16 06:36:34,1678.4571826106355,51.90000166080001,0.0,0.193822006202304,1678.4571826106355,51.90000166080001,0.35999970196000003,0.24336100778755201,1684,0.0,99,P-GPS,
0.376648851733253,36.9241018099302,13700,2018-04-16 06:36:34,1678.9571826266356,52.40000167680001,0.0,0.198262006344384,1678.9571826266356,52.40000167680001,0.35999970196000003,0.24336100778755201,1684,0.0,99,P-GPS,
0.376648874817261,36.9241018386213,13800,2018-04-16 06:36:34,1679.4571826426354,52.9000016928,0.0,0.19830700634582402,1679.4571826426354,52.9000016928,0.35999970196000003,0.24336100778755201,1684,0.0,99,P-GPS,
0.376648900839796,36.9241018558869,13900,2018-04-16 06:36:34,1680.0571826618357,53.500001712,0.0,0.19945500638256,1680.0571826618357,53.500001712,0.35999970196000003,0.24336100778755201,1684,0.0,99,P-GPS,
0.37664890521461,36.9241018922069,14000,2018-04-16 06:36:34,1680.5571826778355,54.000001728,0.0,0.19746500631888,1680.5571826778355,54.000001728,0.35999970196000003,0.24336100778755201,1684,0.0,99,P-GPS,
0.376648913492805,36.9241019275478,14100,2018-04-16 06:36:34,1680.9571826906354,54.40000174080001,0.0,0.19595900627068802,1680.9571826906354,54.40000174080001,0.35999970196000003,0.24336100778755201,1684,0.0,99,P-GPS,
0.376648909685503,36.9241019888914,14200,2018-04-16 06:36:34,1681.5571827098356,55.00000176,0.0,0.19181800613817604,1681.5571827098356,55.00000176,0.35999970196000003,0.24336100778755201,1684,0.0,99,P-GPS,
0.376648920819989,36.9241020473497,14300,2018-04-16 06:36:34,1682.0571827258354,55.500001776000005,0.0,0.18942200606150403,1682.0571827258354,55.500001776000005,0.35999970196000003,0.24336100778755201,1684,0.0,99,P-GPS,
0.376648929231717,36.9241021101372,14400,2018-04-16 06:36:34,1682.5571827418355,56.000001792,0.0,0.18673000597536002,1682.5571827418355,56.000001792,0.35999970196000003,0.24336100778755201,1684,0.0,99,P-GPS,
0.376648941358739,36.9241021557722,14500,2018-04-16 06:36:35,1683.0571827578356,56.500001808,0.0,0.18551000593632,1683.0571827578356,56.500001808,0.35999970196000003,0.24336100778755201,1684,0.0,99,P-GPS,
0.376648931808729,36.9241022111229,14600,2018-04-16 06:36:35,1683.5571827738356,57.000001824,0.0,0.181791005817312,1683.5571827738356,57.000001824,0.35999970196000003,0.24336100778755201,1684,0.0,99,P-GPS,
0.376648915945242,36.9241022529472,14700,2018-04-16 06:36:35,1684.0571827898355,57.50000184,0.0,0.178201005702432,1684.0571827898355,57.50000184,0.35999970196000003,0.24336100778755201,1684,0.0,99,P-GPS,
0.376648891277573,36.9241023023138,14800,2018-04-16 06:36:35,1684.5571828058357,58.000001856000004,0.0,0.173446005550272,1684.5571828058357,58.000001856000004,0.35999970196000003,0.24336100778755201,1684,0.0,99,P-GPS,
0.376648881532149,36.9241023383305,14900,2018-04-16 06:36:35,1685.0571828218356,58.500001872,0.0,0.17088000546816,1685.0571828218356,58.500001872,0.35999970196000003,0.24336100778755201,1684,0.0,99,P-GPS,
0.37664886274072,36.9241023843305,15000,2018-04-16 06:36:35,1685.5571828378354,59.000001888,0.0,0.167037005345184,1685.5571828378354,59.000001888,0.35999970196000003,0.24336100778755201,1684,0.0,99,P-GPS,
0.376648860540692,36.9241023893786,15100,2018-04-16 06:36:35,1686.0571828538357,59.500001904,0.0,0.16660700533142403,1686.0571828538357,59.500001904,0.35999970196000003,0.24336100778755201,1684,0.0,99,P-GPS,
0.376648847205364,36.9241024150498,15200,2018-04-16 06:36:35,1686.5571828698355,60.00000192,0.0,0.16421200525478402,1686.5571828698355,60.00000192,0.35999970196000003,0.24336100778755201,1684,0.0,99,P-GPS,
0.376648845359523,36.9241024426715,15300,2018-04-16 06:36:35,1687.0571828858356,60.500001936000004,0.0,0.16297900521532802,1687.0571828858356,60.500001936000004,0.35999970196000003,0.24336100778755201,1684,0.0,99,P-GPS,
0.376648823611653,36.9241024867724,15400,2018-04-16 06:36:36,1687.5571829018354,61.000001952,0.0,0.159123005091936,1687.5571829018354,61.000001952,0.35999970196000003,0.24336100778755201,1684,0.0,99,P-GPS,
0.376648814095841,36.9241025257277,15500,2018-04-16 06:36:36,1688.0571829178357,61.500001968,0.0,0.15683000501856,1688.0571829178357,61.500001968,0.35999970196000003,0.24336100778755201,1684,0.0,99,P-GPS,
0.376648791506066,36.9241025813275,15600,2018-04-16 06:36:36,1688.5571829338355,62.000001984,0.0,0.15275200488806398,1688.5571829338355,62.000001984,0.35999970196000003,0.24336100778755201,1684,0.0,99,P-GPS,
0.376648796169115,36.9241026359831,15700,2018-04-16 06:36:36,1689.0571829498354,62.50000200000001,0.0,0.151844004859008,1689.0571829498354,62.50000200000001,0.35999970196000003,0.24336100778755201,1684,0.0,99,P-GPS,
0.376648788328157,36.9241027036142,15800,2018-04-16 06:36:36,1689.5571829658356,63.000002015999996,0.0,0.149562004785984,1689.5571829658356,63.000002015999996,0.35999970196000003,0.24336100778755201,1684,0.0,99,P-GPS,
0.376648804225842,36.9241027547571,15900,2018-04-16 06:36:36,1690.1571829850354,63.600002035200006,0.0,0.15047800481529602,1690.1571829850354,63.600002035200006,0.35999970196000003,0.24336100778755201,1684,0.0,99,P-GPS,
0.376648801973704,36.9241028145675,16000,2018-04-16 06:36:36,1690.6571830010357,64.1000020512,0.0,0.149528004784896,1690.6571830010357,64.1000020512,0.35999970196000003,0.24336100778755201,1684,0.0,99,P-GPS,
0.37664881921974,36.9241028580036,16100,2018-04-16 06:36:36,1691.0571830138356,64.500002064,0.0,0.151118004835776,1691.0571830138356,64.500002064,0.35999970196000003,0.24336100778755201,1684,0.0,99,P-GPS,
0.376648815234937,36.9241029153919,16200,2018-04-16 06:36:36,1691.6571830330354,65.10000208320001,0.0,0.150486004815552,1691.6571830330354,65.10000208320001,0.35999970196000003,0.24336100778755201,1684,0.0,99,P-GPS,
0.376648825766899,36.9241029604302,16300,2018-04-16 06:36:36,1692.1571830490354,65.60000209920001,0.0,0.15169800485433602,1692.1571830490354,65.60000209920001,0.35999970196000003,0.24336100778755201,1684,0.0,99,P-GPS,
0.376648816952132,36.9241030172435,16400,2018-04-16 06:36:36,1692.6571830650355,66.10000211520001,0.0,0.151007004832224,1692.6571830650355,66.10000211520001,0.35999970196000003,0.24336100778755201,1684,0.0,98,P-GPS,
0.3766488237403,36.9241030218623,16500,2018-04-16 06:36:36,1693.1571830810356,66.6000021312,0.0,0.15179500485744002,1693.1571830810356,66.6000021312,0.35999970196000003,0.24336100778755201,1684,0.0,98,P-GPS,
0.376648809738939,36.9241030242167,16600,2018-04-16 06:36:37,1693.6571830970354,67.1000021472,0.0,0.150261004808352,1693.6571830970354,67.1000021472,0.35999970196000003,0.24336100778755201,1684,0.0,98,P-GPS,
0.3766488093188,36.924103005623,16700,2018-04-16 06:36:37,1694.1571831130357,67.6000021632,0.0,0.150079004802528,1694.1571831130357,67.6000021632,0.35999970196000003,0.24336100778755201,1684,0.0,98,P-GPS,
0.376648800512989,36.9241030031781,16800,2018-04-16 06:36:37,1694.6571831290355,68.1000021792,0.0,0.149086004770752,1694.6571831290355,68.1000021792,0.35999970196000003,0.24336100778755201,1684,0.0,98,P-GPS,
0.376648829294109,36.9241029762125,16900,2018-04-16 06:36:37,1695.1571831450353,68.6000021952,0.0,0.15214400486860802,1695.1571831450353,68.6000021952,0.35999970196000003,0.24336100778755201,1684,0.0,98,P-GPS,
0.376648840078479,36.9241029678013,17000,2018-04-16 06:36:37,1695.6571831610356,69.1000022112,0.0,0.153312004905984,1695.6571831610356,69.1000022112,0.35999970196000003,0.24336100778755201,1684,0.0,98,P-GPS,
0.376648890296435,36.9241029514576,17100,2018-04-16 06:36:37,1696.1571831770354,69.60000222720001,0.0,0.15885200508326403,1696.1571831770354,69.60000222720001,0.35999970196000003,0.24336100778755201,1684,0.0,98,P-GPS,
0.376648919572601,36.9241029522527,17200,2018-04-16 06:36:37,1696.6571831930355,70.10000224320001,0.0,0.162109005187488,1696.6571831930355,70.10000224320001,0.35999970196000003,0.24336100778755201,1684,0.0,98,P-GPS,
0.376648989833446,36.9241029465354,17300,2018-04-16 06:36:37,1697.1571832090356,70.60000225920001,0.0,0.16991200543718402,1697.1571832090356,70.60000225920001,0.35999970196000003,0.24336100778755201,1684,0.0,98,P-GPS,
0.376649027306385,36.9241029690828,17400,2018-04-16 06:36:38,1697.6571832250356,71.1000022752,0.0,0.174128005572096,1697.6571832250356,71.1000022752,0.35999970196000003,0.24336100778755201,1684,0.0,98,P-GPS,
0.376649066532344,36.9241029568255,17500,2018-04-16 06:36:38,1698.1571832410355,71.6000022912,0.0,0.178458005710656,1698.1571832410355,71.6000022912,0.35999970196000003,0.24336100778755201,1684,0.0,98,P-GPS,
0.376649074842294,36.9241029687082,17600,2018-04-16 06:36:38,1698.6571832570355,72.1000023072,0.0,0.179411005741152,1698.6571832570355,72.1000023072,0.35999970196000003,0.24336100778755201,1684,0.0,98,P-GPS,
0.376649089052096,36.9241029959833,17700,2018-04-16 06:36:38,1699.1571832730356,72.6000023232,0.0,0.18109500579504,1699.1571832730356,72.6000023232,0.35999970196000003,0.24336100778755201,1684,0.0,98,P-GPS,
0.376649085946653,36.9241030474857,17800,2018-04-16 06:36:38,1699.6571832890354,73.1000023392,0.0,0.18108400579468803,1699.6571832890354,73.1000023392,0.35999970196000003,0.24336100778755201,1024,0.0,98,P-GPS,
0.376649121036364,36.9241030684564,17900,2018-04-16 06:36:38,1700.1571833050355,73.6000023552,0.0,0.18515900592508802,1700.1571833050355,73.6000023552,0.35999970196000003,0.24336100778755201,1024,0.0,98,P-GPS,
0.376649161973818,36.9241031088894,18100,2018-04-16 06:36:38,1701.0571833338356,74.50000238400001,0.0,0.19012200608390403,1701.0571833338356,74.50000238400001,0.35999970196000003,0.24336100778755201,1024,0.0,98,P-GPS,
0.37664916740305,36.9241031318442,18200,2018-04-16 06:36:38,1701.4571833466357,74.9000023968,0.0,0.19101000611232002,1701.4571833466357,74.9000023968,0.35999970196000003,0.24336100778755201,1024,0.0,98,P-GPS,
0.376649217247278,36.9241031519003,18300,2018-04-16 06:36:38,1701.7571833562356,75.2000024064,0.0,0.196786006297152,1701.7571833562356,75.2000024064,0.35999970196000003,0.24336100778755201,1024,0.0,98,P-GPS,
0.376649246766083,36.924103188594,18400,2018-04-16 06:36:38,1702.0571833658355,75.500002416,0.0,0.200594006419008,1702.0571833658355,75.500002416,0.35999970196000003,0.24336100778755201,1024,0.0,98,P-GPS,
0.376649283808298,36.9241031808697,18500,2018-04-16 06:36:39,1702.1571833690357,75.60000241920001,0.0,0.2045500065456,1702.1571833690357,75.60000241920001,0.35999970196000003,0.24336100778755201,1024,0.0,98,P-GPS,
0.376649301416663,36.9241031898746,18600,2018-04-16 06:36:39,1702.2571833722357,75.7000024224,0.0,0.206629006612128,1702.2571833722357,75.7000024224,0.35999970196000003,0.24336100778755201,1024,0.0,98,P-GPS,
0.376649322802204,36.9241031622431,18700,2018-04-16 06:36:39,1702.2571833722357,75.7000024224,0.0,0.2085750066744,1702.2571833722357,75.7000024224,0.35999970196000003,0.24336100778755201,1024,0.0,98,P-GPS,
0.376649330620364,36.9241031536084,18800,2018-04-16 06:36:39,1702.2571833722357,75.7000024224,0.0,0.20932000669824002,1702.2571833722357,75.7000024224,0.35999970196000003,0.24336100778755201,1024,0.0,98,P-GPS,
0.376649351423736,36.9241031488102,18900,2018-04-16 06:36:39,1702.2571833722357,75.7000024224,0.35999970196000003,0.211554006769728,1702.2571833722357,75.7000024224,0.35999970196000003,0.24336100778755201,1024,0.0,98,P-GPS,
0.376649376010798,36.9241031629662,19000,2018-04-16 06:36:39,1702.2571833722357,75.7000024224,0.35999970196000003,0.214457006862624,1702.2571833722357,75.7000024224,0.35999970196000003,0.24336100778755201,1024,0.0,98,P-GPS,
0.376649454763978,36.9241031254367,19100,2018-04-16 06:36:39,1702.3571833754354,75.8000024256,0.35999970196000003,0.222699007126368,1702.3571833754354,75.8000024256,0.35999970196000003,0.24336100778755201,1024,0.0,98,P-GPS,
0.376649548314828,36.9241031024198,19200,2018-04-16 06:36:39,1702.3571833754354,75.8000024256,0.0,0.23282500745040002,1702.3571833754354,75.8000024256,0.35999970196000003,0.24336100778755201,1024,0.0,98,P-GPS,
0.376649681703119,36.9241030651066,19300,2018-04-16 06:36:39,1702.3571833754354,75.8000024256,0.0,0.247316007914112,1702.3571833754354,75.8000024256,0.35999970196000003,0.247316007914112,1024,0.0,98,P-GPS,
0.376649819730032,36.9241030513031,19400,2018-04-16 06:36:40,1702.3571833754354,75.8000024256,0.0,0.26255200840166404,1702.3571833754354,75.8000024256,0.35999970196000003,0.26255200840166404,1024,0.0,98,P-GPS,
0.376650022604842,36.9241030287164,19500,2018-04-16 06:36:40,1702.3571833754354,75.8000024256,0.0,0.284973009119136,1702.3571833754354,75.8000024256,0.35999970196000003,0.284973009119136,1024,0.0,98,P-GPS,
0.376650227445998,36.9241030171107,19600,2018-04-16 06:36:40,1702.3571833754354,75.8000024256,0.0,0.307691009846112,1702.3571833754354,75.8000024256,0.35999970196000003,0.307691009846112,1024,0.0,98,P-GPS,
0.376650492287173,36.9241029949122,19700,2018-04-16 06:36:40,1702.3571833754354,75.8000024256,0.0,0.33706501078608003,1702.3571833754354,75.8000024256,0.35999970196000003,0.33706501078608003,1024,0.0,98,P-GPS,
0.376650740234056,36.9241029829325,19800,2018-04-16 06:36:40,1702.3571833754354,75.8000024256,0.0,0.364606011667392,1702.3571833754354,75.8000024256,0.35999970196000003,0.364606011667392,1024,0.0,98,P-GPS,
0.376651010940073,36.9241029328203,19900,2018-04-16 06:36:40,1702.3571833754354,75.8000024256,0.0,0.39465701262902403,1702.3571833754354,75.8000024256,0.35999970196000003,0.39465701262902403,1024,0.0,98,P-GPS,
0.376651255993211,36.9241028922253,20000,2018-04-16 06:36:40,1702.3571833754354,75.8000024256,0.0,0.42192601350163206,1702.3571833754354,75.8000024256,0.35999970196000003,0.42192601350163206,1024,0.0,98,P-GPS,
0.376651536417781,36.9241028523341,20100,2018-04-16 06:36:40,1702.3571833754354,75.8000024256,0.0,0.453169014501408,1702.3571833754354,75.8000024256,0.35999970196000003,0.453169014501408,1024,0.0,98,P-GPS,
0.376651788927564,36.9241028319448,20200,2018-04-16 06:36:40,1702.3571833754354,75.8000024256,0.0,0.48128901540124797,1702.3571833754354,75.8000024256,0.35999970196000003,0.48128901540124797,1024,0.0,98,P-GPS,
0.376652089717454,36.9241027842099,20300,2018-04-16 06:36:40,1702.3571833754354,75.8000024256,0.0,0.514868016475776,1702.3571833754354,75.8000024256,0.35999970196000003,0.514868016475776,1024,0.0,98,P-GPS,
0.376652354313549,36.9241027529334,20400,2018-04-16 06:36:40,1702.3571833754354,75.8000024256,0.0,0.544392017420544,1702.3571833754354,75.8000024256,0.35999970196000003,0.544392017420544,1024,-0.2,98,P-GPS,
0.376652619181593,36.9241027053232,20500,2018-04-16 06:36:41,1702.3571833754354,75.8000024256,0.0,0.5740320183690241,1702.3571833754354,75.8000024256,0.35999970196000003,0.5740320183690241,1024,-0.6,98,P-GPS,
0.376652845838199,36.924102678076,20600,2018-04-16 06:36:41,1702.3571833754354,75.8000024256,0.0,0.599347019179104,1702.3571833754354,75.8000024256,0.35999970196000003,0.599347019179104,1024,-1.0,98,P-GPS,
0.37665333988531,36.9241026145133,20800,2018-04-16 06:36:41,1702.3571833754354,75.8000024256,0.0,0.6545710209462721,1702.3571833754354,75.8000024256,0.35999970196000003,0.6545710209462721,1024,-1.9,98,P-GPS,
0.376653611094515,36.9241025414307,20900,2018-04-16 06:36:41,1702.3571833754354,75.8000024256,0.0,0.685151021924832,1702.3571833754354,75.8000024256,0.35999970196000003,0.685151021924832,1024,-2.3,98,P-GPS,
0.376653828265435,36.9241025000921,21000,2018-04-16 06:36:41,1702.3571833754354,75.8000024256,0.0,0.7095490227055681,1702.3571833754354,75.8000024256,0.35999970196000003,0.7095490227055681,1024,-2.9,98,P-GPS,
0.376654068350191,36.924102435581,21100,2018-04-16 06:36:41,1702.3571833754354,75.8000024256,0.0,0.7366870235739841,1702.3571833754354,75.8000024256,0.35999970196000003,0.7366870235739841,1024,-3.5,98,P-GPS,
0.376654252605372,36.9241024063706,21200,2018-04-16 06:36:41,1702.3571833754354,75.8000024256,0.0,0.7573640242356481,1702.3571833754354,75.8000024256,0.35999970196000003,0.7573640242356481,1024,-4.2,98,P-GPS,
0.376654479372712,36.924102348059,21300,2018-04-16 06:36:41,1702.3571833754354,75.8000024256,0.0,0.783017025056544,1702.3571833754354,75.8000024256,0.35999970196000003,0.783017025056544,1024,-4.8,98,P-GPS,
0.37665464843614,36.9241023258789,21400,2018-04-16 06:36:41,1702.3571833754354,75.8000024256,0.0,0.8019570256626241,1702.3571833754354,75.8000024256,0.35999970196000003,0.8019570256626241,1024,-5.4,98,P-GPS,
0.376654876020959,36.9241022671688,21500,2018-04-16 06:36:42,1702.3571833754354,75.8000024256,0.0,0.8277340264874881,1702.3571833754354,75.8000024256,0.35999970196000003,0.8277340264874881,1024,-5.4,98,P-GPS,
0.376655033362846,36.9241022505642,21600,2018-04-16 06:36:42,1702.3571833754354,75.8000024256,0.0,0.845326027050432,1702.3571833754354,75.8000024256,0.35999970196000003,0.845326027050432,1024,-5.4,98,P-GPS,
0.376655228035184,36.924102169267,21700,2018-04-16 06:36:42,1702.3571833754354,75.8000024256,0.0,0.8677220277671039,1702.3571833754354,75.8000024256,0.35999970196000003,0.8677220277671039,1024,-6.7,98,P-GPS,
0.376655355019618,36.9241021337702,21800,2018-04-16 06:36:42,1702.3571833754354,75.8000024256,0.0,0.882164028229248,1702.3571833754354,75.8000024256,0.35999970196000003,0.882164028229248,1024,-7.3,98,P-GPS,
0.376655511457719,36.9241020908362,21900,2018-04-16 06:36:42,1702.3571833754354,75.8000024256,0.0,0.899956028798592,1702.3571833754354,75.8000024256,0.35999970196000003,0.899956028798592,1024,-8.0,98,P-GPS,
0.376655606650042,36.9241020933577,22000,2018-04-16 06:36:42,1702.3571833754354,75.8000024256,0.0,0.910457029134624,1702.3571833754354,75.8000024256,0.35999970196000003,0.910457029134624,1024,-8.6,98,P-GPS,
0.376655739690659,36.9241020548274,22100,2018-04-16 06:36:42,1702.3571833754354,75.8000024256,0.0,0.925616029619712,1702.3571833754354,75.8000024256,0.35999970196000003,0.925616029619712,1024,-9.2,98,P-GPS,
0.376655817903196,36.9241020523861,22200,2018-04-16 06:36:42,1702.2571833722357,75.7000024224,0.0,0.9342940298974081,1702.3571833754354,75.8000024256,0.35999970196000003,0.9342940298974081,1024,-9.9,98,P-GPS,
0.376655920296498,36.924101997822,22300,2018-04-16 06:36:42,1702.2571833722357,75.7000024224,0.35999970196000003,0.946263030280416,1702.3571833754354,75.8000024256,0.35999970196000003,0.946263030280416,1024,-10.5,98,P-GPS,
0.376655958162706,36.9241019915964,22400,2018-04-16 06:36:42,1702.2571833722357,75.7000024224,0.35999970196000003,0.9505240304167681,1702.3571833754354,75.8000024256,0.35999970196000003,0.9505240304167681,1024,-11.1,98,P-GPS,
0.376656006630085,36.9241019313689,22500,2018-04-16 06:36:43,1702.2571833722357,75.7000024224,0.35999970196000003,0.9566340306122881,1702.3571833754354,75.8000024256,0.35999970196000003,0.9566340306122881,1024,-11.7,98,P-GPS,
0.376656008133138,36.9241019155696,22600,2018-04-16 06:36:43,1702.2571833722357,75.7000024224,0.35999970196000003,0.9570050306241601,1702.3571833754354,75.8000024256,0.35999970196000003,0.9570050306241601,1024,-12.2,98,P-GPS,
0.376656045235606,36.9241018701409,22700,2018-04-16 06:36:43,1702.2571833722357,75.7000024224,0.35999970196000003,0.961707030774624,1702.3571833754354,75.8000024256,0.35999970196000003,0.961707030774624,1024,-12.3,98,P-GPS,
0.376656038148618,36.9241018793477,22800,2018-04-16 06:36:43,1702.2571833722357,75.7000024224,0.35999970196000003,0.9608000307456,1702.3571833754354,75.8000024256,0.35999970196000003,0.961707030774624,1024,-12.3,98,P-GPS,
0.37665607994589,36.9241018329676,22900,2018-04-16 06:36:43,1702.2571833722357,75.7000024224,0.35999970196000003,0.9660500309136001,1702.3571833754354,75.8000024256,0.35999970196000003,0.9660500309136001,1024,-12.3,98,P-GPS,
0.376656085910881,36.9241018242951,23000,2018-04-16 06:36:43,1702.2571833722357,75.7000024224,0.35999970196000003,0.966829030938528,1702.3571833754354,75.8000024256,0.35999970196000003,0.966829030938528,1024,-12.3,98,P-GPS,
0.376656115253813,36.92410178946,23100,2018-04-16 06:36:43,1702.2571833722357,75.7000024224,0.35999970196000003,0.970563031058016,1702.3571833754354,75.8000024256,0.35999970196000003,0.970563031058016,1024,-12.3,98,P-GPS,
0.376656103463878,36.9241018018822,23200,2018-04-16 06:36:43,1702.2571833722357,75.7000024224,0.35999970196000003,0.9690840310106881,1702.3571833754354,75.8000024256,0.35999970196000003,0.970563031058016,1024,-12.3,98,P-GPS,
0.376656090071555,36.9241017803004,23300,2018-04-16 06:36:43,1702.2571833722357,75.7000024224,0.35999970196000003,0.967921030973472,1702.3571833754354,75.8000024256,0.35999970196000003,0.970563031058016,1024,-12.3,98,P-GPS,
0.376656045289345,36.9241018009098,23400,2018-04-16 06:36:43,1702.2571833722357,75.7000024224,0.35999970196000003,0.962683030805856,1702.3571833754354,75.8000024256,0.35999970196000003,0.970563031058016,1024,-12.3,98,P-GPS,
0.376656007841647,36.9241017835697,23500,2018-04-16 06:36:44,1702.2571833722357,75.7000024224,0.35999970196000003,0.958808030681856,1702.3571833754354,75.8000024256,0.35999970196000003,0.970563031058016,1024,-12.3,98,P-GPS,
0.376655954184417,36.9241018011425,23600,2018-04-16 06:36:44,1702.2571833722357,75.7000024224,0.35999970196000003,0.9526360304843521,1702.3571833754354,75.8000024256,0.35999970196000003,0.970563031058016,1024,-12.3,98,P-GPS,
0.376655877771311,36.9241018148707,23700,2018-04-16 06:36:44,1702.2571833722357,75.7000024224,0.35999970196000003,0.9440110302083521,1702.3571833754354,75.8000024256,0.35999970196000003,0.970563031058016,1024,-12.3,98,P-GPS,
0.376655789475449,36.9241018621057,23800,2018-04-16 06:36:44,1702.2571833722357,75.7000024224,0.35999970196000003,0.9335970298751041,1702.3571833754354,75.8000024256,0.35999970196000003,0.970563031058016,1024,-12.3,98,P-GPS,
0.376655716071708,36.9241018696096,23900,2018-04-16 06:36:44,1702.2571833722357,75.7000024224,0.35999970196000003,0.9253940296126081,1702.3571833754354,75.8000024256,0.35999970196000003,0.970563031058016,1024,-12.3,98,P-GPS,
0.376655545954677,36.9241019305968,24100,2018-04-16 06:36:44,1702.2571833722357,75.7000024224,0.503999582744,0.905778028984896,1702.3571833754354,75.8000024256,0.503999582744,0.970563031058016,1024,-12.3,98,P-GPS,
0.376655094734015,36.9241026662289,24300,2018-04-16 06:36:44,1702.2571833722357,75.7000024224,3.203997347444,0.8492940271774081,1702.3571833754354,75.8000024256,3.203997347444,0.970563031058016,1024,-12.3,98,P-GPS,
0.376654577281279,36.9241036972714,24400,2018-04-16 06:36:44,1702.2571833722357,75.7000024224,5.6519953207719995,0.7958810254681921,1702.3571833754354,75.8000024256,5.6519953207719995,0.970563031058016,1024,-12.3,98,P-GPS,
0.376653752143821,36.9241053322713,24500,2018-04-16 06:36:45,1702.2571833722357,75.7000024224,7.5599937411600004,0.748898023964736,1702.3571833754354,75.8000024256,7.5599937411600004,0.970563031058016,1024,-12.3,98,P-GPS,
0.376652758499863,36.9241073489795,24600,2018-04-16 06:36:45,1702.2571833722357,75.7000024224,9.17999239998,0.767299024553568,1702.3571833754354,75.8000024256,9.17999239998,0.970563031058016,1024,-12.3,98,P-GPS,
0.376651459866257,36.9241098342589,24700,2018-04-16 06:36:45,1702.2571833722357,75.7000024224,10.7999910588,0.887516028400512,1702.3571833754354,75.8000024256,10.7999910588,0.970563031058016,1024,-12.3,98,P-GPS,
0.376650066930273,36.924112576119,24800,2018-04-16 06:36:45,1702.2571833722357,75.7000024224,11.915990134876,1.1114500355664,1702.3571833754354,75.8000024256,11.915990134876,1.1114500355664,1024,-12.3,98,P-GPS,
0.376648388135602,36.9241156321967,24900,2018-04-16 06:36:45,1702.2571833722357,75.7000024224,11.915990134876,1.4166400453324801,1702.3571833754354,75.8000024256,11.915990134876,1.4166400453324801,1024,-12.3,98,P-GPS,
0.37664665721851,36.9241189145551,25000,2018-04-16 06:36:45,1702.2571833722357,75.7000024224,14.327988138008,1.7801500569648,1702.3571833754354,75.8000024256,14.327988138008,1.7801500569648,1024,-12.3,98,P-GPS,
0.376644684219376,36.9241223731684,25100,2018-04-16 06:36:45,1702.3571833754354,75.8000024256,15.623987065063998,2.18446006990272,1702.3571833754354,75.8000024256,15.623987065063998,2.18446006990272,1024,-12.3,98,P-GPS,
0.376642682577133,36.9241260737781,25200,2018-04-16 06:36:45,1702.3571833754354,75.8000024256,16.73998614114,2.62833008410656,1702.3571833754354,75.8000024256,16.73998614114,2.62833008410656,1024,-12.3,98,P-GPS,
0.376640481174886,36.9241299574796,25300,2018-04-16 06:36:46,1702.3571833754354,75.8000024256,17.567985455648,3.10454009934528,1702.3571833754354,75.8000024256,17.567985455648,3.10454009934528,1024,-12.3,98,P-GPS,
0.376635841762977,36.9241384243389,25500,2018-04-16 06:36:46,1702.4571833786354,75.90000242880001,19.655983727016,4.15359013291488,1702.4571833786354,75.90000242880001,19.655983727016,4.15359013291488,1024,-12.3,98,P-GPS,
0.376633396789273,36.9241430053811,25600,2018-04-16 06:36:46,1702.4571833786354,75.90000242880001,20.771982803092,4.72339015114848,1702.4571833786354,75.90000242880001,20.771982803092,4.72339015114848,1024,-12.3,98,P-GPS,
0.376630737389595,36.924147680028,25700,2018-04-16 06:36:46,1702.4571833786354,75.90000242880001,21.563982147403998,5.3129101700131205,1702.4571833786354,75.90000242880001,21.563982147403998,5.3129101700131205,1024,-12.3,98,P-GPS,
0.376628042861937,36.924152639945,25800,2018-04-16 06:36:46,1702.4571833786354,75.90000242880001,22.85998107446,5.93511018992352,1702.4571833786354,75.90000242880001,22.85998107446,5.93511018992352,1024,-12.3,98,P-GPS,
0.376625170646612,36.9241577623957,25900,2018-04-16 06:36:46,1702.4571833786354,75.90000242880001,22.85998107446,6.58254021064128,1702.4571833786354,75.90000242880001,22.85998107446,6.58254021064128,1024,-12.3,98,P-GPS,
0.37662229086798,36.9241631420275,26000,2018-04-16 06:36:46,1702.4571833786354,75.90000242880001,24.47997973328,7.25768023224576,1702.4571833786354,75.90000242880001,24.47997973328,7.25768023224576,1024,-12.3,98,P-GPS,
0.376616203895765,36.9241744160602,26200,2018-04-16 06:36:46,1702.5571833818356,76.000002432,26.063978421904,8.67662027765184,1702.5571833818356,76.000002432,26.063978421904,8.67662027765184,1024,-12.3,98,P-GPS,
0.376613027946323,36.9241801877591,26300,2018-04-16 06:36:46,1702.5571833818356,76.000002432,26.387978153667998,9.40642030100544,1702.5571833818356,76.000002432,26.387978153667998,9.40642030100544,1024,-12.3,98,P-GPS,
0.376609854063376,36.9241861184885,26400,2018-04-16 06:36:47,1702.5571833818356,76.000002432,26.891977736412,10.1526003248832,1702.5571833818356,76.000002432,26.891977736412,10.1526003248832,1024,-12.3,98,P-GPS,
0.376603183101832,36.9241983903306,26600,2018-04-16 06:36:47,1702.4571833786354,75.90000242880001,28.187976663468003,11.702300374473602,1702.5571833818356,76.000002432,28.187976663468003,11.702300374473602,1024,-12.3,98,P-GPS,
0.376599598329896,36.9242048770739,26700,2018-04-16 06:36:47,1702.4571833786354,75.90000242880001,28.511976395232,12.5246004007872,1702.5571833818356,76.000002432,28.511976395232,12.5246004007872,1024,-12.3,98,P-GPS,
0.376596075630989,36.9242114480111,26800,2018-04-16 06:36:47,1702.4571833786354,75.90000242880001,28.979976007779996,13.352600427283202,1702.5571833818356,76.000002432,28.979976007779996,13.352600427283202,1024,-12.3,98,P-GPS,
0.376592453912916,36.9242180650109,26900,2018-04-16 06:36:47,1702.4571833786354,75.90000242880001,29.303975739544004,14.1901004540832,1702.5571833818356,76.000002432,29.303975739544004,14.1901004540832,1024,-12.3,98,P-GPS,
0.376588898560449,36.9242247229343,27000,2018-04-16 06:36:47,1702.4571833786354,75.90000242880001,29.771975352092,15.028600480915202,1702.5571833818356,76.000002432,29.771975352092,15.028600480915202,1024,-12.3,98,P-GPS,
0.37658520519084,36.9242315083562,27100,2018-04-16 06:36:47,1702.4571833786354,75.90000242880001,29.771975352092,15.886700508374402,1702.5571833818356,76.000002432,29.771975352092,15.886700508374402,1024,-12.3,98,P-GPS,
0.376581577405185,36.9242383170149,27200,2018-04-16 06:36:47,1702.4571833786354,75.90000242880001,30.095975083855997,16.744000535808002,1702.5571833818356,76.000002432,30.095975083855997,16.744000535808002,1024,-12.3,98,P-GPS,
0.376577878303453,36.9242452560072,27300,2018-04-16 06:36:47,1702.4571833786354,75.90000242880001,30.275974934836,17.6179005637728,1702.5571833818356,76.000002432,30.275974934836,17.6179005637728,1024,-12.3,98,P-GPS,
0.376574255608313,36.9242521828544,27400,2018-04-16 06:36:48,1702.4571833786354,75.90000242880001,30.275974934836,18.4869005915808,1702.5571833818356,76.000002432,30.275974934836,18.4869005915808,1024,-12.3,98,P-GPS,
0.376570540743244,36.9242592139289,27500,2018-04-16 06:36:48,1702.4571833786354,75.90000242880001,30.599974666599998,19.3708006198656,1702.5571833818356,76.000002432,30.599974666599998,19.3708006198656,1024,-12.3,98,P-GPS,
0.376566897347324,36.9242662002257,27600,2018-04-16 06:36:48,1702.4571833786354,75.90000242880001,30.599974666599998,20.2468006478976,1702.5571833818356,76.000002432,30.599974666599998,20.2468006478976,1024,-12.3,98,P-GPS,
0.376563242005139,36.9242732260243,27700,2018-04-16 06:36:48,1702.3571833754354,75.8000024256,30.275974934836,21.1273006760736,1702.5571833818356,76.000002432,30.599974666599998,21.1273006760736,1024,-12.3,98,P-GPS,
0.37655968037665,36.9242801579847,27800,2018-04-16 06:36:48,1702.3571833754354,75.8000024256,30.095975083855997,21.9938007038016,1702.5571833818356,76.000002432,30.599974666599998,21.9938007038016,1024,-12.3,98,P-GPS,
0.376556104176843,36.9242870909729,27900,2018-04-16 06:36:48,1702.2571833722357,75.7000024224,30.095975083855997,22.861200731558398,1702.5571833818356,76.000002432,30.599974666599998,22.861200731558398,1024,-12.3,98,P-GPS,
0.376552638717742,36.9242938763863,28000,2018-04-16 06:36:48,1702.2571833722357,75.7000024224,29.303975739544004,23.708500758672,1702.5571833818356,76.000002432,30.599974666599998,23.708500758672,1024,-12.3,98,P-GPS,
0.376549239197596,36.9243005885346,28100,2018-04-16 06:36:48,1702.2571833722357,75.7000024224,28.511976395232,24.5451007854432,1702.5571833818356,76.000002432,30.599974666599998,24.5451007854432,1024,-12.3,98,P-GPS,
0.376545944256123,36.9243071335627,28200,2018-04-16 06:36:48,1702.1571833690357,75.60000241920001,28.187976663468003,25.360000811520003,1702.5571833818356,76.000002432,30.599974666599998,25.360000811520003,1024,-12.3,98,P-GPS,
0.376542719878385,36.9243136275092,28300,2018-04-16 06:36:48,1702.1571833690357,75.60000241920001,27.683977080724002,26.1663008373216,1702.5571833818356,76.000002432,30.599974666599998,26.1663008373216,1024,-12.3,98,P-GPS,
0.376539592985818,36.9243199445543,28400,2018-04-16 06:36:48,1702.0571833658355,75.500002416,26.891977736412,26.950100862403204,1702.5571833818356,76.000002432,30.599974666599998,26.950100862403204,1024,-12.3,97,P-GPS,
0.376536641405019,36.924326075756,28500,2018-04-16 06:36:49,1702.0571833658355,75.500002416,26.387978153667998,27.706700886614403,1702.5571833818356,76.000002432,30.599974666599998,27.706700886614403,1024,-12.3,97,P-GPS,
0.376533782710665,36.9243320394435,28600,2018-04-16 06:36:49,1702.0571833658355,75.500002416,25.595978809355998,28.442100910147204,1702.5571833818356,76.000002432,30.599974666599998,28.442100910147204,1024,-12.3,97,P-GPS,
0.376530960571622,36.9243380561826,28700,2018-04-16 06:36:49,1702.0571833658355,75.500002416,25.127979196808,29.181000933792003,1702.5571833818356,76.000002432,30.599974666599998,29.181000933792003,1024,-12.3,97,P-GPS,
0.376528200521891,36.9243439118484,28800,2018-04-16 06:36:49,1702.0571833658355,75.500002416,24.623979614064,29.900700956822405,1702.5571833818356,76.000002432,30.599974666599998,29.900700956822405,1024,-12.3,97,P-GPS,
0.376525496953113,36.9243497280809,28900,2018-04-16 06:36:49,1702.0571833658355,75.500002416,23.831980269752,30.6138009796416,1702.5571833818356,76.000002432,30.599974666599998,30.6138009796416,1024,-12.3,97,P-GPS,
0.376522877099383,36.9243553497339,29000,2018-04-16 06:36:49,1702.0571833658355,75.500002416,23.507980537988,31.303301001705602,1702.5571833818356,76.000002432,30.599974666599998,31.303301001705602,1024,-12.3,97,P-GPS,
0.376520368839663,36.9243609320563,29100,2018-04-16 06:36:49,1702.0571833658355,75.500002416,23.039980925440002,31.9834010234688,1702.5571833818356,76.000002432,30.599974666599998,31.9834010234688,1024,-12.3,97,P-GPS,
0.376517928179911,36.9243663392417,29200,2018-04-16 06:36:49,1702.0571833658355,75.500002416,22.535981342696,32.6428010445696,1702.5571833818356,76.000002432,30.599974666599998,32.6428010445696,1024,-12.3,97,P-GPS,
0.37651551976335,36.9243717852266,29300,2018-04-16 06:36:49,1702.0571833658355,75.500002416,22.067981730148,33.304401065740805,1702.5571833818356,76.000002432,30.599974666599998,33.304401065740805,1024,-12.3,97,P-GPS,
0.376513175403262,36.924377041394,29400,2018-04-16 06:36:50,1702.0571833658355,75.500002416,21.743981998384,33.944001086208004,1702.5571833818356,76.000002432,30.599974666599998,33.944001086208004,1024,-12.3,97,P-GPS,
