latitude,longitude,time_millisecond,datetime_utc,altitude_m,ascent_m,speed_kph,distance_m,max_altitude_m,max_ascent_m,max_speed_kph,max_distance_m,rc_throttle,gimbal_pitch_degrees,battery_percent,flycState,message
0.339520694999349,36.910290375771,100,2017-11-13 11:35:10,1645.584281158683,0.0,0.0,0.0,1645.584281158683,0.0,0.0,0.0,1024,0.0,100,Motors_Started,
0.339520744973242,36.9102903866664,200,2017-11-13 11:35:10,1645.584281158683,0.0,0.0,0.005687940182014081,1645.584281158683,0.0,0.0,0.005687940182014081,1024,0.0,100,Motors_Started,
0.339520801709249,36.9102903842947,300,2017-11-13 11:35:10,1645.584281158683,0.0,0.0,0.0119046003809472,1645.584281158683,0.0,0.0,0.0119046003809472,1024,0.0,100,Motors_Started,
0.339520856453872,36.9102903891528,400,2017-11-13 11:35:10,1645.584281158683,0.0,0.0,0.0180163005765216,1645.584281158683,0.0,0.0,0.0180163005765216,1024,0.0,100,Motors_Started,
0.339520964251572,36.9102903798887,600,2017-11-13 11:35:10,1645.584281158683,0.0,0.0,0.029946000958272,1645.584281158683,0.0,0.0,0.029946000958272,1024,0.0,100,Motors_Started,
0.339521011793791,36.9102904037032,700,2017-11-13 11:35:11,1645.584281158683,0.0,0.0,0.0353661011317152,1645.584281158683,0.0,0.0,0.0353661011317152,1024,0.0,100,Motors_Started,
0.33952106058177,36.9102904285031,800,2017-11-13 11:35:11,1645.584281158683,0.0,0.0,0.041075701314422404,1645.584281158683,0.0,0.0,0.041075701314422404,611,0.0,100,Motors_Started,
0.339521074210625,36.9102904460533,900,2017-11-13 11:35:11,1645.584281158683,0.0,0.0,0.0428887013724384,1645.584281158683,0.0,0.0,0.0428887013724384,1024,0.0,100,Motors_Started,
0.339521097513862,36.910290463499,1000,2017-11-13 11:35:11,1645.584281158683,0.0,0.0,0.0458128014660096,1645.584281158683,0.0,0.0,0.0458128014660096,1024,0.0,100,Motors_Started,
0.33952112432151,36.9102905035673,1100,2017-11-13 11:35:11,1645.584281158683,0.0,0.0,0.04981350159403201,1645.584281158683,0.0,0.0,0.04981350159403201,1024,0.0,100,Motors_Started,
0.339521159392698,36.9102905388921,1200,2017-11-13 11:35:11,1645.584281158683,0.0,0.0,0.05473650175156801,1645.584281158683,0.0,0.0,0.05473650175156801,1024,0.0,100,Motors_Started,
0.339521199578625,36.9102906355776,1300,2017-11-13 11:35:11,1645.584281158683,0.0,0.0,0.063113502019632,1645.584281158683,0.0,0.0,0.063113502019632,1024,0.0,100,Motors_Started,
0.33952123982684,36.9102907155786,1400,2017-11-13 11:35:11,1645.584281158683,0.0,0.0,0.07140630228500161,1645.584281158683,0.0,0.0,0.07140630228500161,1024,0.0,100,Motors_Started,
0.339521285534413,36.9102908070157,1500,2017-11-13 11:35:11,1645.584281158683,0.0,0.0,0.0813172026021504,1645.584281158683,0.0,0.0,0.0813172026021504,1024,0.0,100,Motors_Started,
0.339521332783512,36.9102908823461,1600,2017-11-13 11:35:11,1645.584281158683,0.0,0.0,0.09057520289840641,1645.584281158683,0.0,0.0,0.09057520289840641,1024,0.0,100,Assisted_Takeoff,
0.339521348368739,36.9102909954662,1700,2017-11-13 11:35:12,1645.584281158683,0.0,0.0,0.10014100320451201,1645.584281158683,0.0,0.0,0.10014100320451201,1024,0.0,100,Assisted_Takeoff,
0.33952136804767,36.910291096141,1800,2017-11-13 11:35:12,1645.584281158683,0.0,0.0,0.109633003508256,1645.584281158683,0.0,0.0,0.109633003508256,1024,0.0,100,Assisted_Takeoff,
0.339521395611731,36.9102911933431,1900,2017-11-13 11:35:12,1645.584281158683,0.0,0.0,0.11973400383148801,1645.584281158683,0.0,0.0,0.11973400383148801,1024,0.0,100,Assisted_Takeoff,
0.339521428024891,36.9102912792023,2000,2017-11-13 11:35:12,1645.584281158683,0.0,0.0,0.129377004140064,1645.584281158683,0.0,0.0,0.129377004140064,1024,0.0,100,Assisted_Takeoff,
0.339521471793598,36.9102913908901,2100,2017-11-13 11:35:12,1645.584281158683,0.0,0.0,0.14214600454867202,1645.584281158683,0.0,0.0,0.14214600454867202,1024,0.0,100,Assisted_Takeoff,
0.339521515496557,36.9102914911195,2200,2017-11-13 11:35:12,1645.584281158683,0.0,0.0,0.15397800492729602,1645.584281158683,0.0,0.0,0.15397800492729602,1024,0.0,100,Assisted_Takeoff,
0.339521528754941,36.9102915739688,2300,2017-11-13 11:35:12,1645.584281158683,0.0,0.0,0.16233000519456,1645.584281158683,0.0,0.0,0.16233000519456,1024,0.0,100,Assisted_Takeoff,
0.339521549901507,36.9102916507373,2400,2017-11-13 11:35:12,1645.584281158683,0.0,0.0,0.17070600546259201,1645.584281158683,0.0,0.0,0.17070600546259201,1024,0.0,100,Assisted_Takeoff,
0.339521580312902,36.9102917107945,2500,2017-11-13 11:35:12,1645.584281158683,0.0,0.0,0.178138005700416,1645.584281158683,0.0,0.0,0.178138005700416,1024,0.0,100,Assisted_Takeoff,
0.339521615190509,36.9102917724156,2600,2017-11-13 11:35:12,1645.584281158683,0.0,0.0,0.185994005951808,1645.584281158683,0.0,0.0,0.185994005951808,1024,0.0,100,Assisted_Takeoff,
0.339521653894755,36.9102918467121,2700,2017-11-13 11:35:13,1645.584281158683,0.0,0.0,0.195263006248416,1645.584281158683,0.0,0.0,0.195263006248416,1024,0.0,100,Assisted_Takeoff,
0.339521694610333,36.9102919198771,2800,2017-11-13 11:35:13,1645.584281158683,0.0,0.0,0.204553006545696,1645.584281158683,0.0,0.0,0.204553006545696,1024,0.0,100,Assisted_Takeoff,
0.339521711601518,36.9102919877228,2900,2017-11-13 11:35:13,1645.584281158683,0.0,0.0,0.21192800678169602,1645.584281158683,0.0,0.0,0.21192800678169602,1024,0.0,100,Assisted_Takeoff,
0.33952173319326,36.9102920552422,3000,2017-11-13 11:35:13,1645.584281158683,0.0,0.0,0.21956900702620802,1645.584281158683,0.0,0.0,0.21956900702620802,1024,0.0,100,Assisted_Takeoff,
0.339521765164909,36.9102921434459,3100,2017-11-13 11:35:13,1645.584281158683,0.0,0.0,0.229791007353312,1645.584281158683,0.0,0.0,0.229791007353312,1024,0.0,100,Assisted_Takeoff,
0.339521799994069,36.9102922276868,3200,2017-11-13 11:35:13,1645.584281158683,0.0,0.0,0.23981600767411201,1645.584281158683,0.0,0.0,0.23981600767411201,1024,0.0,100,Assisted_Takeoff,
0.339521808022705,36.9102922970188,3300,2017-11-13 11:35:13,1645.584281158683,0.0,0.0,0.24691500790128001,1645.584281158683,0.0,0.0,0.24691500790128001,1024,0.0,100,Assisted_Takeoff,
0.339521823533023,36.9102923648093,3400,2017-11-13 11:35:13,1645.584281158683,0.0,0.0,0.254313008138016,1645.584281158683,0.0,0.0,0.254313008138016,1025,0.0,100,Assisted_Takeoff,
0.339521852445639,36.9102924549688,3500,2017-11-13 11:35:13,1645.584281158683,0.0,0.0,0.26462800846809603,1645.584281158683,0.0,0.0,0.26462800846809603,1058,0.0,100,Assisted_Takeoff,
0.339521883511058,36.9102925405388,3600,2017-11-13 11:35:13,1645.584281158683,0.0,0.0,0.274628008788096,1645.584281158683,0.0,0.0,0.274628008788096,1024,0.0,100,Assisted_Takeoff,
0.339521929289469,36.9102926066886,3700,2017-11-13 11:35:13,1645.584281158683,0.0,0.0,0.28352700907286404,1645.584281158683,0.0,0.0,0.28352700907286404,1024,0.0,100,Assisted_Takeoff,
0.339521972180241,36.9102926733299,3800,2017-11-13 11:35:14,1645.584281158683,0.0,0.0,0.292322009354304,1645.584281158683,0.0,0.0,0.292322009354304,1024,0.0,100,Assisted_Takeoff,
0.339521989683164,36.9102927586279,3900,2017-11-13 11:35:14,1645.584281158683,0.0,0.0,0.301572009650304,1645.584281158683,0.0,0.0,0.301572009650304,1024,0.0,100,Assisted_Takeoff,
0.339522010285627,36.9102928420209,4000,2017-11-13 11:35:14,1645.584281158683,0.0,0.0,0.310824009946368,1645.584281158683,0.0,0.0,0.310824009946368,1024,0.0,99,Assisted_Takeoff,
0.33952200726527,36.910292907209,4100,2017-11-13 11:35:14,1645.584281158683,0.0,0.0,0.317084010146688,1645.584281158683,0.0,0.0,0.317084010146688,1024,0.0,99,Assisted_Takeoff,
0.339522013916039,36.9102929733527,4200,2017-11-13 11:35:14,1645.584281158683,0.0,0.0,0.323966010366912,1645.584281158683,0.0,0.0,0.323966010366912,1024,0.0,99,Assisted_Takeoff,
0.339522038931585,36.9102930196469,4300,2017-11-13 11:35:14,1645.584281158683,0.0,0.0,0.32981501055407997,1645.584281158683,0.0,0.0,0.32981501055407997,1024,0.0,99,Assisted_Takeoff,
0.339522065937497,36.9102930715121,4400,2017-11-13 11:35:14,1645.584281158683,0.0,0.0,0.336318010762176,1645.584281158683,0.0,0.0,0.336318010762176,1024,0.0,99,Assisted_Takeoff,
0.339522074102108,36.9102931082877,4500,2017-11-13 11:35:14,1645.584281158683,0.0,0.0,0.340376010892032,1645.584281158683,0.0,0.0,0.340376010892032,1029,0.0,99,Assisted_Takeoff,
0.339522085907309,36.9102931532865,4600,2017-11-13 11:35:14,1645.584281158683,0.0,0.0,0.345437011053984,1645.584281158683,0.0,0.0,0.345437011053984,1223,0.0,99,Assisted_Takeoff,
0.339522117411594,36.9102931876115,4700,2017-11-13 11:35:15,1645.584281158683,0.0,0.0,0.350421011213472,1645.584281158683,0.0,0.0,0.350421011213472,1331,0.0,99,Assisted_Takeoff,
0.33952214948787,36.9102932287627,4800,2017-11-13 11:35:15,1645.584281158683,0.0,0.0,0.35611701139574403,1645.584281158683,0.0,0.0,0.35611701139574403,1581,0.0,99,Assisted_Takeoff,
0.339522162774344,36.9102932652787,4900,2017-11-13 11:35:15,1645.584281158683,0.0,0.0,0.360406011532992,1645.584281158683,0.0,0.0,0.360406011532992,1684,0.0,99,Assisted_Takeoff,
0.339522177708397,36.9102933087315,5000,2017-11-13 11:35:15,1645.584281158683,0.0,0.0,0.365467011694944,1645.584281158683,0.0,0.0,0.365467011694944,1684,0.0,99,Assisted_Takeoff,
0.339522210331423,36.9102933883904,5100,2017-11-13 11:35:15,1645.584281158683,0.0,0.0,0.37501001200031997,1645.584281158683,0.0,0.0,0.37501001200031997,1684,0.0,99,Assisted_Takeoff,
0.339522222098966,36.9102934993795,5200,2017-11-13 11:35:15,1645.584281158683,0.0,0.0,0.386649012372768,1645.584281158683,0.0,0.0,0.386649012372768,1684,0.0,99,Assisted_Takeoff,
0.339522182359233,36.910293651349,5300,2017-11-13 11:35:15,1645.584281158683,0.0,0.0,0.40005301280169603,1645.584281158683,0.0,0.0,0.40005301280169603,1684,0.0,99,GPS_Atti,
0.339522111266661,36.910293824407,5400,2017-11-13 11:35:15,1645.584281158683,0.0,0.5075995797636,0.414584013266688,1645.584281158683,0.0,0.5075995797636,0.414584013266688,1684,0.0,99,GPS_Atti,
0.339521999809236,36.9102940135891,5500,2017-11-13 11:35:15,1645.584281158683,0.0,0.5075995797636,0.42977601375283203,1645.584281158683,0.0,0.5075995797636,0.42977601375283203,1684,0.0,99,GPS_Atti,Obstacle Avoided. Revise Flight Route
0.339521853686106,36.9102941616728,5600,2017-11-13 11:35:16,1645.684281161883,0.1000000032,0.7199994039200001,0.44028501408912,1645.684281161883,0.1000000032,0.7199994039200001,0.44028501408912,1684,0.0,99,GPS_Atti,
0.339521634053386,36.9102942781295,5700,2017-11-13 11:35:16,1645.8842811682832,0.3000000096,0.7199994039200001,0.446347014283104,1645.8842811682832,0.3000000096,0.7199994039200001,0.446347014283104,1684,0.0,99,GPS_Atti,
0.339521391190506,36.9102942988481,5800,2017-11-13 11:35:16,1646.0842811746832,0.500000016,0.8063993323904,0.443079014178528,1646.0842811746832,0.500000016,0.8063993323904,0.446347014283104,1684,0.0,99,GPS_Atti,
0.339521134604931,36.9102941184896,5900,2017-11-13 11:35:16,1646.2842811810833,0.7000000224,1.0187991565468,0.419067013410144,1646.2842811810833,0.7000000224,1.0187991565468,0.446347014283104,1684,0.0,99,GPS_Atti,
0.339520926066392,36.9102939427877,6000,2017-11-13 11:35:16,1646.5842811906832,1.000000032,0.5075995797636,0.397498012719936,1646.5842811906832,1.000000032,1.0187991565468,0.446347014283104,1684,0.0,99,GPS_Atti,Home Point Recorded. RTH Altitude:  30m.
0.339520723363383,36.910293809109,6100,2017-11-13 11:35:16,1646.8842812002833,1.3000000416000002,0.8063993323904,0.381814012218048,1646.8842812002833,1.3000000416000002,1.0187991565468,0.446347014283104,1684,0.0,99,GPS_Atti,
0.33952052682322,36.9102936884443,6200,2017-11-13 11:35:16,1647.2842812130832,1.7000000544000002,0.8063993323904,0.368857011803424,1647.2842812130832,1.7000000544000002,1.0187991565468,0.446347014283104,1684,0.0,99,GPS_Atti,
0.339520317077394,36.9102935853376,6300,2017-11-13 11:35:16,1647.6842812258833,2.1000000672000003,1.0187991565468,0.359383011500256,1647.6842812258833,2.1000000672000003,1.0187991565468,0.446347014283104,1684,0.0,99,GPS_Atti,
0.339520105095308,36.9102934357496,6400,2017-11-13 11:35:16,1648.1842812418831,2.6000000832000003,1.0187991565468,0.34654801108953603,1648.1842812418831,2.6000000832000003,1.0187991565468,0.446347014283104,1684,0.0,99,GPS_Atti,
0.339519922546532,36.9102932490554,6500,2017-11-13 11:35:16,1648.5842812546832,3.0000000960000004,0.8063993323904,0.33086701058774404,1648.5842812546832,3.0000000960000004,1.0187991565468,0.446347014283104,1684,0.0,99,GPS_Atti,
0.33951983031808,36.9102930626792,6600,2017-11-13 11:35:16,1649.1842812738832,3.6000001152000003,0.7199994039200001,0.313887010044384,1649.1842812738832,3.6000001152000003,1.0187991565468,0.446347014283104,1684,-0.1,99,GPS_Atti,
0.339519847905275,36.910292857127,6700,2017-11-13 11:35:16,1649.6842812898833,4.100000131200001,0.7199994039200001,0.29157400933036803,1649.6842812898833,4.100000131200001,1.0187991565468,0.446347014283104,1684,-1.4,99,GPS_Atti,
0.339519844149676,36.9102926865592,6800,2017-11-13 11:35:17,1650.1842813058831,4.6000001472,0.7199994039200001,0.273836008762752,1650.1842813058831,4.6000001472,1.0187991565468,0.446347014283104,1684,-3.6,99,GPS_Atti,
0.339519822449438,36.9102925655085,6900,2017-11-13 11:35:17,1650.684281321883,5.1000001632,1.0187991565468,0.262129008388128,1650.684281321883,5.1000001632,1.0187991565468,0.446347014283104,1684,-5.7,99,GPS_Atti,
0.339519740693611,36.9102924171284,7000,2017-11-13 11:35:17,1651.1842813378832,5.6000001792,1.0187991565468,0.25058900801884804,1651.1842813378832,5.6000001792,1.0187991565468,0.446347014283104,1684,-7.9,99,GPS_Atti,
0.339519590459169,36.910292175195,7100,2017-11-13 11:35:17,1651.684281353883,6.100000195200001,0.8063993323904,0.23479600751347202,1651.684281353883,6.100000195200001,1.0187991565468,0.446347014283104,1684,-10.1,99,GPS_Atti,
0.339519438694143,36.9102919251025,7200,2017-11-13 11:35:17,1652.1842813698831,6.6000002112,0.8063993323904,0.22181800709817603,1652.1842813698831,6.6000002112,1.0187991565468,0.446347014283104,1684,-10.1,99,GPS_Atti,
0.339519260107168,36.9102916110308,7300,2017-11-13 11:35:17,1652.6842813858832,7.1000002272,0.8063993323904,0.21055100673763202,1652.6842813858832,7.1000002272,1.0187991565468,0.446347014283104,1684,-12.2,99,GPS_Atti,
0.33951906351922,36.9102913129941,7400,2017-11-13 11:35:17,1653.1842814018833,7.600000243200001,1.0187991565468,0.20923500669552,1653.1842814018833,7.600000243200001,1.0187991565468,0.446347014283104,1684,-14.2,99,GPS_Atti,
0.339518761880401,36.9102909714788,7500,2017-11-13 11:35:17,1653.684281417883,8.1000002592,1.1375990581936,0.22495000719840003,1653.684281417883,8.1000002592,1.1375990581936,0.446347014283104,1684,-16.2,99,GPS_Atti,
0.339518460644393,36.9102906544767,7600,2017-11-13 11:35:17,1654.0842814306832,8.500000272,1.0187991565468,0.25039900801276804,1654.0842814306832,8.500000272,1.1375990581936,0.446347014283104,1684,-18.3,99,GPS_Atti,
0.339518196460117,36.9102902677813,7700,2017-11-13 11:35:17,1654.5842814466832,9.000000288,1.0187991565468,0.27811200889958404,1654.5842814466832,9.000000288,1.1375990581936,0.446347014283104,1684,-20.2,99,GPS_Atti,
0.339517973965102,36.9102898831089,7800,2017-11-13 11:35:18,1655.0842814626833,9.500000304,1.0187991565468,0.30751500984048,1655.0842814626833,9.500000304,1.1375990581936,0.446347014283104,1684,-21.3,99,GPS_Atti,
0.339517762008663,36.910289436414,7900,2017-11-13 11:35:18,1655.5842814786831,10.00000032,1.0187991565468,0.342486010959552,1655.5842814786831,10.00000032,1.1375990581936,0.446347014283104,1684,-21.3,99,GPS_Atti,
0.339517510812423,36.91028902189,8000,2017-11-13 11:35:18,1656.0842814946834,10.500000336,1.5263987363104,0.38477901231292805,1656.0842814946834,10.500000336,1.5263987363104,0.446347014283104,1684,-21.3,99,GPS_Atti,
0.339517182776324,36.9102886059889,8100,2017-11-13 11:35:18,1656.5842815106832,11.000000351999999,1.5263987363104,0.437363013995616,1656.5842815106832,11.000000351999999,1.5263987363104,0.446347014283104,1684,-21.3,99,GPS_Atti,
0.339516848427561,36.9102882226203,8200,2017-11-13 11:35:18,1657.084281526683,11.500000368000002,1.5263987363104,0.49021601568691203,1657.084281526683,11.500000368000002,1.5263987363104,0.49021601568691203,1684,-21.3,99,GPS_Atti,
0.339516557939004,36.910287831409,8300,2017-11-13 11:35:18,1657.5842815426831,12.000000384000002,1.2995989240756,0.540109017283488,1657.5842815426831,12.000000384000002,1.5263987363104,0.540109017283488,1684,-21.3,99,GPS_Atti,
0.33951631333613,36.910287449729,8400,2017-11-13 11:35:18,1658.0842815586832,12.500000400000001,1.2995989240756,0.585924018749568,1658.0842815586832,12.500000400000001,1.5263987363104,0.585924018749568,1684,-21.3,99,GPS_Atti,
0.339516098516887,36.9102870615747,8500,2017-11-13 11:35:18,1658.5842815746832,13.000000416,1.2995989240756,0.6301680201653761,1658.5842815746832,13.000000416,1.5263987363104,0.6301680201653761,1684,-21.3,99,GPS_Atti,
0.33951589706778,36.9102867167489,8600,2017-11-13 11:35:19,1659.084281590683,13.500000432,1.2995989240756,0.671008021472256,1659.084281590683,13.500000432,1.5263987363104,0.671008021472256,1684,-21.3,99,GPS_Atti,
0.33951550580724,36.9102860887318,8800,2017-11-13 11:35:19,1660.1842816258832,14.600000467200001,1.6091986677612,0.7485230239527361,1660.1842816258832,14.600000467200001,1.6091986677612,0.7485230239527361,1684,-21.3,99,GPS_Atti,
0.33951531883785,36.9102856740394,8900,2017-11-13 11:35:19,1660.6842816418832,15.1000004832,1.6091986677612,0.794237025415584,1660.6842816418832,15.1000004832,1.6091986677612,0.794237025415584,1684,-21.3,99,GPS_Atti,
0.339515121872663,36.9102852467362,9000,2017-11-13 11:35:19,1661.1842816578833,15.6000004992,1.6091986677612,0.842277026952864,1661.1842816578833,15.6000004992,1.6091986677612,0.842277026952864,1684,-21.3,99,GPS_Atti,
0.339514881402374,36.9102847877281,9100,2017-11-13 11:35:19,1661.684281673883,16.1000005152,1.7999985098000002,0.896731028695392,1661.684281673883,16.1000005152,1.7999985098000002,0.896731028695392,1684,-21.3,99,GPS_Atti,
0.339514572621708,36.9102843696408,9200,2017-11-13 11:35:19,1662.2842816930834,16.7000005344,1.7999985098000002,0.9537560305201921,1662.2842816930834,16.7000005344,1.7999985098000002,0.9537560305201921,1684,-21.3,99,GPS_Atti,
0.339514191304448,36.9102839389012,9300,2017-11-13 11:35:19,1662.7842817090832,17.2000005504,1.7999985098000002,1.0175800325625601,1662.7842817090832,17.2000005504,1.7999985098000002,1.0175800325625601,1684,-21.3,99,GPS_Atti,
0.339513829405568,36.9102835349703,9400,2017-11-13 11:35:19,1663.3842817282832,17.8000005696,1.7999985098000002,1.0777900344892801,1663.3842817282832,17.8000005696,1.7999985098000002,1.0777900344892801,1684,-21.3,99,GPS_Atti,
0.339513519423925,36.9102831298644,9500,2017-11-13 11:35:19,1663.9842817474832,18.4000005888,1.7999985098000002,1.1340300362889602,1663.9842817474832,18.4000005888,1.7999985098000002,1.1340300362889602,1684,-21.3,99,GPS_Atti,
0.339513262057715,36.9102827387419,9600,2017-11-13 11:35:19,1664.4842817634833,18.900000604800002,1.6091986677612,1.18512003792384,1664.4842817634833,18.900000604800002,1.7999985098000002,1.18512003792384,1684,-21.3,99,GPS_Atti,
0.339513040538035,36.9102823030732,9700,2017-11-13 11:35:19,1664.9842817794834,19.4000006208,1.6091986677612,1.2371200395878401,1664.9842817794834,19.4000006208,1.7999985098000002,1.2371200395878401,1684,-21.3,99,GPS_Atti,
0.339512804415284,36.9102819110353,9800,2017-11-13 11:35:20,1665.5842817986832,20.00000064,1.5263987363104,1.28687004117984,1665.5842817986832,20.00000064,1.7999985098000002,1.28687004117984,1684,-21.3,99,GPS_Atti,
0.339512548793137,36.9102815123135,9900,2017-11-13 11:35:20,1666.0842818146832,20.500000656,1.7999985098000002,1.33872004283904,1666.0842818146832,20.500000656,1.7999985098000002,1.33872004283904,1684,-21.3,99,GPS_Atti,
0.339512286868098,36.9102811119628,10000,2017-11-13 11:35:20,1666.6842818338832,21.1000006752,1.7999985098000002,1.39124004451968,1666.6842818338832,21.1000006752,1.7999985098000002,1.39124004451968,1684,-21.3,99,GPS_Atti,
0.339512057684147,36.9102806529552,10100,2017-11-13 11:35:20,1667.1842818498833,21.6000006912,1.6091986677612,1.44625004628,1667.1842818498833,21.6000006912,1.7999985098000002,1.44625004628,1684,-21.3,99,GPS_Atti,
0.339511862351068,36.910280216181,10200,2017-11-13 11:35:20,1667.6842818658833,22.1000007072,1.6091986677612,1.4970700479062402,1667.6842818658833,22.1000007072,1.7999985098000002,1.4970700479062402,1684,-21.3,99,GPS_Atti,
0.339511727384001,36.9102798117829,10300,2017-11-13 11:35:20,1668.2842818850831,22.7000007264,1.2995989240756,1.54097004931104,1668.2842818850831,22.7000007264,1.7999985098000002,1.54097004931104,1684,-21.3,99,GPS_Atti,
0.339511448894023,36.9102790885137,10500,2017-11-13 11:35:20,1669.3842819202832,23.8000007616,1.2995989240756,1.6225700519222401,1669.3842819202832,23.8000007616,1.7999985098000002,1.6225700519222401,1684,-21.3,99,GPS_Atti,
0.339511256526748,36.9102787134407,10600,2017-11-13 11:35:20,1669.9842819394833,24.400000780800003,1.2995989240756,1.66842005338944,1669.9842819394833,24.400000780800003,1.7999985098000002,1.66842005338944,1684,-21.3,99,GPS_Atti,
0.339511015876922,36.9102783103123,10700,2017-11-13 11:35:21,1670.584281958683,25.000000800000002,1.5263987363104,1.7201200550438402,1670.584281958683,25.000000800000002,1.7999985098000002,1.7201200550438402,1684,-21.3,99,GPS_Atti,
0.339510762027744,36.9102779333593,10800,2017-11-13 11:35:21,1671.1842819778833,25.6000008192,1.5263987363104,1.7704900566556803,1671.1842819778833,25.6000008192,1.7999985098000002,1.7704900566556803,1684,-21.3,99,GPS_Atti,
0.339510530765898,36.910277516329,10900,2017-11-13 11:35:21,1671.6842819938831,26.100000835200003,1.2995989240756,1.8228000583296002,1671.6842819938831,26.100000835200003,1.7999985098000002,1.8228000583296002,1684,-21.3,99,GPS_Atti,
0.339510349125998,36.9102771326129,11000,2017-11-13 11:35:21,1672.2842820130832,26.700000854400002,1.2995989240756,1.86883005980256,1672.2842820130832,26.700000854400002,1.7999985098000002,1.86883005980256,1684,-21.3,99,GPS_Atti,
0.339510238935706,36.9102767597123,11100,2017-11-13 11:35:21,1672.7842820290832,27.200000870400004,1.1375990581936,1.90912006109184,1672.7842820290832,27.200000870400004,1.7999985098000002,1.90912006109184,1684,-21.3,99,GPS_Atti,
0.339510164883844,36.9102764377043,11200,2017-11-13 11:35:21,1673.3842820482832,27.8000008896,0.8063993323904,1.9426000621632,1673.3842820482832,27.8000008896,1.7999985098000002,1.9426000621632,1684,-21.3,99,GPS_Atti,
0.339510197823195,36.9102761091057,11300,2017-11-13 11:35:21,1673.8842820642833,28.300000905600005,0.7199994039200001,1.9697000630304002,1673.8842820642833,28.300000905600005,1.7999985098000002,1.9697000630304002,1684,-21.3,99,GPS_Atti,
0.339510250537556,36.9102758173995,11400,2017-11-13 11:35:21,1674.4842820834833,28.9000009248,0.7199994039200001,1.9925000637599999,1674.4842820834833,28.9000009248,1.7999985098000002,1.9925000637599999,1684,-21.3,99,GPS_Atti,
0.339510309196551,36.9102755330676,11500,2017-11-13 11:35:21,1674.9842820994832,29.4000009408,0.7199994039200001,2.01453006446496,1674.9842820994832,29.4000009408,1.7999985098000002,2.01453006446496,1684,-21.3,99,GPS_Atti,
0.339510367078779,36.9102752829965,11600,2017-11-13 11:35:21,1675.4842821154832,29.900000956800003,0.35999970196000003,2.03373006507936,1675.4842821154832,29.900000956800003,1.7999985098000002,2.03373006507936,1684,-21.3,99,GPS_Atti,
0.339510454367448,36.9102750501376,11700,2017-11-13 11:35:22,1676.0842821346832,30.500000976,0.35999970196000003,2.049750065592,1676.0842821346832,30.500000976,1.7999985098000002,2.049750065592,1684,-21.3,99,GPS_Atti,
0.339510528286592,36.9102748246093,11800,2017-11-13 11:35:22,1676.584282150683,31.000000992,0.35999970196000003,2.06614006611648,1676.584282150683,31.000000992,1.7999985098000002,2.06614006611648,1673,-21.3,99,GPS_Atti,
0.339510597401012,36.9102745936304,11900,2017-11-13 11:35:22,1677.1842821698833,31.6000010112,0.35999970196000003,2.08353006667296,1677.1842821698833,31.6000010112,1.7999985098000002,2.08353006667296,1676,-21.3,99,GPS_Atti,
0.339510650320557,36.9102744241456,12000,2017-11-13 11:35:22,1677.6842821858831,32.1000010272,0.0,2.09629006708128,1677.6842821858831,32.1000010272,1.7999985098000002,2.09629006708128,1682,-21.3,99,GPS_Atti,
0.339510699769887,36.9102742952435,12100,2017-11-13 11:35:22,1678.1842822018832,32.6000010432,0.0,2.10553006737696,1678.1842822018832,32.6000010432,1.7999985098000002,2.10553006737696,1684,-21.3,99,GPS_Atti,
0.339510744284218,36.9102741657098,12200,2017-11-13 11:35:22,1678.6842822178833,33.100001059200004,0.0,2.11518006768576,1678.6842822178833,33.100001059200004,1.7999985098000002,2.11518006768576,1684,-21.3,99,GPS_Atti,
0.339510777183672,36.910274083904,12300,2017-11-13 11:35:22,1679.1842822338833,33.600001075200005,0.0,2.12103006787296,1679.1842822338833,33.600001075200005,1.7999985098000002,2.12103006787296,1682,-21.3,99,GPS_Atti,
0.339510794517644,36.9102740121386,12400,2017-11-13 11:35:22,1679.6842822498832,34.1000010912,0.0,2.1268500680592,1679.6842822498832,34.1000010912,1.7999985098000002,2.1268500680592,1684,-21.3,99,GPS_Atti,
0.339510836440307,36.9102739460538,12500,2017-11-13 11:35:22,1680.1842822658834,34.6000011072,0.0,2.1307400681836803,1680.1842822658834,34.6000011072,1.7999985098000002,2.1307400681836803,1684,-21.3,99,GPS_Atti,
0.339510894514691,36.9102739398356,12600,2017-11-13 11:35:22,1680.6842822818833,35.1000011232,0.0,2.12802006809664,1680.6842822818833,35.1000011232,1.7999985098000002,2.1307400681836803,1684,-21.3,99,GPS_Atti,
0.339510983851128,36.9102740314942,12700,2017-11-13 11:35:23,1681.184282297883,35.6000011392,0.35999970196000003,2.11418006765376,1681.184282297883,35.6000011392,1.7999985098000002,2.1307400681836803,1684,-21.3,99,GPS_Atti,
0.339511064877616,36.91027416782,12800,2017-11-13 11:35:23,1681.6842823138832,36.1000011552,0.35999970196000003,2.0965500670896002,1681.6842823138832,36.1000011552,1.7999985098000002,2.1307400681836803,1681,-21.3,99,GPS_Atti,
0.339511171214195,36.9102743866088,12900,2017-11-13 11:35:23,1682.1842823298832,36.6000011712,0.35999970196000003,2.0695900662268802,1682.1842823298832,36.6000011712,1.7999985098000002,2.1307400681836803,1637,-21.3,99,GPS_Atti,
0.339511228590791,36.9102745967759,13000,2017-11-13 11:35:23,1682.784282349083,37.2000011904,0.35999970196000003,2.04626006548032,1682.784282349083,37.2000011904,1.7999985098000002,2.1307400681836803,1607,-21.3,99,GPS_Atti,
0.339511254166318,36.9102748139267,13100,2017-11-13 11:35:23,1683.2842823650833,37.7000012064,0.35999970196000003,2.02411006477152,1683.2842823650833,37.7000012064,1.7999985098000002,2.1307400681836803,1583,-21.3,99,GPS_Atti,
0.339511219917698,36.9102750041857,13200,2017-11-13 11:35:23,1683.6842823778834,38.1000012192,0.5075995797636,2.0080500642576,1683.6842823778834,38.1000012192,1.7999985098000002,2.1307400681836803,1583,-21.3,99,GPS_Atti,
0.339511217553197,36.9102752293265,13300,2017-11-13 11:35:23,1684.1842823938832,38.600001235200004,0.5075995797636,1.9869200635814401,1684.1842823938832,38.600001235200004,1.7999985098000002,2.1307400681836803,1582,-21.3,99,GPS_Atti,
0.339511205238904,36.9102754333033,13400,2017-11-13 11:35:23,1684.5842824066833,39.000001248000004,0.35999970196000003,1.96846006299072,1684.5842824066833,39.000001248000004,1.7999985098000002,2.1307400681836803,1552,-21.3,99,GPS_Atti,
0.33951124658184,36.91027564037,13500,2017-11-13 11:35:23,1684.9842824194832,39.4000012608,0.35999970196000003,1.94657006229024,1684.9842824194832,39.4000012608,1.7999985098000002,2.1307400681836803,1544,-21.3,99,GPS_Atti,
0.339511285666939,36.9102757996123,13600,2017-11-13 11:35:23,1685.3842824322833,39.800001273599996,0.35999970196000003,1.92933006173856,1685.3842824322833,39.800001273599996,1.7999985098000002,2.1307400681836803,1517,-21.3,99,GPS_Atti,
0.339511340026842,36.9102760062271,13700,2017-11-13 11:35:24,1685.7842824450831,40.2000012864,0.35999970196000003,1.9067600610163202,1685.7842824450831,40.2000012864,1.7999985098000002,2.1307400681836803,1494,-21.3,99,GPS_Atti,
0.339511356347922,36.9102761929681,13800,2017-11-13 11:35:24,1686.1842824578832,40.6000012992,0.35999970196000003,1.8883900604284802,1686.1842824578832,40.6000012992,1.7999985098000002,2.1307400681836803,1479,-21.3,99,GPS_Atti,
0.339511402769975,36.9102763628897,13900,2017-11-13 11:35:24,1686.4842824674831,40.9000013088,0.35999970196000003,1.8697800598329601,1686.4842824674831,40.9000013088,1.7999985098000002,2.1307400681836803,1474,-21.3,99,GPS_Atti,
0.339511432897817,36.9102764951718,14000,2017-11-13 11:35:24,1686.7842824770833,41.2000013184,0.35999970196000003,1.85568005938176,1686.7842824770833,41.2000013184,1.7999985098000002,2.1307400681836803,1464,-21.3,99,GPS_Atti,
0.33951152700641,36.910276666815,14100,2017-11-13 11:35:24,1687.1842824898833,41.600001331200005,0.35999970196000003,1.83399005868768,1687.1842824898833,41.600001331200005,1.7999985098000002,2.1307400681836803,1410,-21.3,99,GPS_Atti,
0.339511769943385,36.9102769635885,14300,2017-11-13 11:35:24,1687.6842825058832,42.100001347200006,0.35999970196000003,1.7915500573296,1687.6842825058832,42.100001347200006,1.7999985098000002,2.1307400681836803,1386,-21.3,99,GPS_Atti,
0.339511877083194,36.9102770663611,14400,2017-11-13 11:35:24,1687.9842825154833,42.400001356800004,0.35999970196000003,1.77544005681408,1687.9842825154833,42.400001356800004,1.7999985098000002,2.1307400681836803,1379,-21.3,99,GPS_Atti,
0.339512007967345,36.910277222368,14500,2017-11-13 11:35:24,1688.184282521883,42.6000013632,0.35999970196000003,1.75294005609408,1688.184282521883,42.6000013632,1.7999985098000002,2.1307400681836803,1379,-21.3,99,GPS_Atti,
0.33951209131233,36.9102773311382,14600,2017-11-13 11:35:24,1688.3842825282832,42.800001369600004,0.35999970196000003,1.73774005560768,1688.3842825282832,42.800001369600004,1.7999985098000002,2.1307400681836803,1374,-21.3,99,GPS_Atti,
0.339512220161333,36.9102773727594,14700,2017-11-13 11:35:24,1688.6842825378833,43.1000013792,0.35999970196000003,1.72601005523232,1688.6842825378833,43.1000013792,1.7999985098000002,2.1307400681836803,1355,-21.3,99,GPS_Atti,
0.33951230864528,36.910277353089,14800,2017-11-13 11:35:25,1688.8842825442832,43.300001385600005,0.0,1.72249005511968,1688.8842825442832,43.300001385600005,1.7999985098000002,2.1307400681836803,1401,-21.3,99,GPS_Atti,
0.339512408244579,36.9102772972286,14900,2017-11-13 11:35:25,1689.0842825506834,43.500001392,0.0,1.7217700550966402,1689.0842825506834,43.500001392,1.7999985098000002,2.1307400681836803,1472,-21.3,99,GPS_Atti,
0.33951249373341,36.9102772020562,15000,2017-11-13 11:35:25,1689.284282557083,43.7000013984,0.0,1.72567005522144,1689.284282557083,43.7000013984,1.7999985098000002,2.1307400681836803,1536,-21.3,99,GPS_Atti,
0.339512656432471,36.9102771094266,15100,2017-11-13 11:35:25,1689.4842825634832,43.9000014048,0.0,1.72498005519936,1689.4842825634832,43.9000014048,1.7999985098000002,2.1307400681836803,1551,-21.3,99,GPS_Atti,
0.339512809362497,36.9102769576744,15200,2017-11-13 11:35:25,1689.7842825730834,44.2000014144,0.0,1.73076005538432,1689.7842825730834,44.2000014144,1.7999985098000002,2.1307400681836803,1555,-21.3,99,GPS_Atti,
0.339512997898043,36.9102768192449,15300,2017-11-13 11:35:25,1690.084282582683,44.500001424,0.0,1.7336000554752,1690.084282582683,44.500001424,1.7999985098000002,2.1307400681836803,1552,-21.3,99,GPS_Atti,
0.339513133310897,36.9102766522942,15400,2017-11-13 11:35:25,1690.3842825922832,44.8000014336,0.0,1.7424500557584,1690.3842825922832,44.8000014336,1.7999985098000002,2.1307400681836803,1544,-21.3,99,GPS_Atti,
0.339513330429972,36.9102766293595,15500,2017-11-13 11:35:25,1690.784282605083,45.2000014464,0.0,1.73422005549504,1690.784282605083,45.2000014464,1.7999985098000002,2.1307400681836803,1544,-21.3,99,GPS_Atti,
0.339513466157929,36.9102765923911,15600,2017-11-13 11:35:26,1691.1842826178831,45.6000014592,0.0,1.73079005538528,1691.1842826178831,45.6000014592,1.7999985098000002,2.1307400681836803,1546,-21.3,99,GPS_Atti,
0.339513612684913,36.9102766989473,15700,2017-11-13 11:35:26,1691.4842826274833,45.9000014688,0.0,1.7127500548080001,1691.4842826274833,45.9000014688,1.7999985098000002,2.1307400681836803,1544,-21.3,99,GPS_Atti,
0.339513699378386,36.9102767514343,15800,2017-11-13 11:35:26,1691.8842826402831,46.300001481600006,0.0,1.7031400545004802,1691.8842826402831,46.300001481600006,1.7999985098000002,2.1307400681836803,1545,-21.3,99,GPS_Atti,
0.33951383084959,36.9102769195155,15900,2017-11-13 11:35:26,1692.2842826530832,46.7000014944,0.0,1.67984005375488,1692.2842826530832,46.7000014944,1.7999985098000002,2.1307400681836803,1536,-21.3,99,GPS_Atti,
0.339513919952753,36.9102769984177,16000,2017-11-13 11:35:26,1692.5842826626833,47.000001504000004,0.0,1.66753005336096,1692.5842826626833,47.000001504000004,1.7999985098000002,2.1307400681836803,1531,-21.3,99,GPS_Atti,
0.339514041554773,36.9102771204036,16100,2017-11-13 11:35:26,1692.9842826754832,47.4000015168,0.0,1.6493300527785602,1692.9842826754832,47.4000015168,1.7999985098000002,2.1307400681836803,1535,-21.3,99,GPS_Atti,
0.339514116877229,36.9102771704474,16200,2017-11-13 11:35:26,1693.3842826882833,47.8000015296,0.0,1.64061005249952,1693.3842826882833,47.8000015296,1.7999985098000002,2.1307400681836803,1533,-21.3,99,GPS_Atti,
0.339514214102257,36.9102772854315,16300,2017-11-13 11:35:26,1693.6842826978832,48.1000015392,0.0,1.6243400519788802,1693.6842826978832,48.1000015392,1.7999985098000002,2.1307400681836803,1525,-21.3,99,GPS_Atti,
0.339514255868588,36.9102773477563,16400,2017-11-13 11:35:26,1694.0842827106833,48.50000155200001,0.0,1.6160700517142401,1694.0842827106833,48.50000155200001,1.7999985098000002,2.1307400681836803,1527,-21.3,99,GPS_Atti,
0.339514327450101,36.9102774575982,16500,2017-11-13 11:35:26,1694.3842827202834,48.800001561600006,0.35999970196000003,1.6016000512512,1694.3842827202834,48.800001561600006,1.7999985098000002,2.1307400681836803,1531,-21.3,99,GPS_Atti,
0.33951436044604,36.9102775202881,16600,2017-11-13 11:35:26,1694.684282729883,49.1000015712,0.0,1.5937200509990401,1694.684282729883,49.1000015712,1.7999985098000002,2.1307400681836803,1537,-21.3,99,GPS_Atti,
0.339514426313343,36.9102776356565,16700,2017-11-13 11:35:27,1695.0842827426832,49.500001584,0.0,1.57897005052704,1695.0842827426832,49.500001584,1.7999985098000002,2.1307400681836803,1544,-21.3,99,GPS_Atti,
0.339514467214157,36.9102777156005,16800,2017-11-13 11:35:27,1695.484282755483,49.9000015968,0.0,1.56899005020768,1695.484282755483,49.9000015968,1.7999985098000002,2.1307400681836803,1544,-21.3,99,GPS_Atti,
0.339514556050255,36.9102778372341,16900,2017-11-13 11:35:27,1695.7842827650832,50.20000160640001,0.0,1.55249004967968,1695.7842827650832,50.20000160640001,1.7999985098000002,2.1307400681836803,1545,-21.3,99,GPS_Atti,
0.339514612441235,36.9102779131311,17000,2017-11-13 11:35:27,1696.184282777883,50.6000016192,0.0,1.54216004934912,1696.184282777883,50.6000016192,1.7999985098000002,2.1307400681836803,1546,-21.3,99,GPS_Atti,
0.339514649708583,36.9102780502181,17100,2017-11-13 11:35:27,1696.4842827874832,50.9000016288,0.0,1.52664004885248,1696.4842827874832,50.9000016288,1.7999985098000002,2.1307400681836803,1546,-21.3,99,GPS_Atti,
0.339514632846046,36.9102781521053,17200,2017-11-13 11:35:27,1696.8842828002832,51.300001641600005,0.0,1.5173100485539202,1696.8842828002832,51.300001641600005,1.7999985098000002,2.1307400681836803,1547,-21.3,99,GPS_Atti,
0.339514642750649,36.910278264779,17300,2017-11-13 11:35:27,1697.284282813083,51.700001654400005,0.0,1.5056000481792,1697.284282813083,51.700001654400005,1.7999985098000002,2.1307400681836803,1547,-21.3,99,GPS_Atti,
0.339514634317752,36.9102783485654,17400,2017-11-13 11:35:27,1697.5842828226832,52.000001664,0.0,1.4977000479264,1697.5842828226832,52.000001664,1.7999985098000002,2.1307400681836803,1547,-21.3,99,GPS_Atti,
0.339514644198336,36.910278486542,17500,2017-11-13 11:35:27,1697.984282835483,52.40000167680001,0.0,1.4835100474723202,1697.984282835483,52.40000167680001,1.7999985098000002,2.1307400681836803,1545,-21.3,99,GPS_Atti,
0.33951462172703,36.9102786115813,17600,2017-11-13 11:35:27,1698.3842828482832,52.8000016896,0.35999970196000003,1.4722800471129602,1698.3842828482832,52.8000016896,1.7999985098000002,2.1307400681836803,1544,-21.3,99,GPS_Atti,
0.339514605163312,36.9102787675593,17700,2017-11-13 11:35:28,1698.6842828578833,53.1000016992,0.35999970196000003,1.45774004664768,1698.6842828578833,53.1000016992,1.7999985098000002,2.1307400681836803,1544,-21.3,99,GPS_Atti,
0.339514559102773,36.9102788802833,17800,2017-11-13 11:35:28,1699.0842828706832,53.500001712,0.35999970196000003,1.44906004636992,1699.0842828706832,53.500001712,1.7999985098000002,2.1307400681836803,1539,-21.3,99,GPS_Atti,
0.339514524501595,36.9102789929784,17900,2017-11-13 11:35:28,1699.3842828802833,53.800001721600005,0.0,1.4398400460748801,1699.3842828802833,53.800001721600005,1.7999985098000002,2.1307400681836803,1538,-21.3,99,GPS_Atti,
0.339514479648141,36.9102790743162,18000,2017-11-13 11:35:28,1699.7842828930832,54.200001734400004,0.0,1.4343000458976,1699.7842828930832,54.200001734400004,1.7999985098000002,2.1307400681836803,1538,-21.3,99,GPS_Atti,
0.339514486865405,36.9102791742389,18100,2017-11-13 11:35:28,1700.084282902683,54.500001744,0.0,1.4241800455737599,1700.084282902683,54.500001744,1.7999985098000002,2.1307400681836803,1536,-21.3,99,GPS_Atti,
0.339514475770816,36.9102792571045,18200,2017-11-13 11:35:28,1700.4842829154834,54.9000017568,0.0,1.41673004533536,1700.4842829154834,54.9000017568,1.7999985098000002,2.1307400681836803,1537,-21.3,99,GPS_Atti,
0.339514469640131,36.9102793672173,18300,2017-11-13 11:35:28,1700.8842829282833,55.3000017696,0.0,1.40639004500448,1700.8842829282833,55.3000017696,1.7999985098000002,2.1307400681836803,1537,-21.3,99,GPS_Atti,
0.339514446488136,36.9102794461966,18400,2017-11-13 11:35:28,1701.1842829378832,55.6000017792,0.0,1.40003004480096,1701.1842829378832,55.6000017792,1.7999985098000002,2.1307400681836803,1537,-21.3,99,GPS_Atti,
0.339514420083324,36.9102795746962,18500,2017-11-13 11:35:28,1701.584282950683,56.000001792,0.0,1.3891100444515199,1701.584282950683,56.000001792,1.7999985098000002,2.1307400681836803,1537,-21.3,99,GPS_Atti,
0.339514388747583,36.9102796715323,18600,2017-11-13 11:35:28,1701.8842829602831,56.3000018016,0.0,1.3815800442105601,1701.8842829602831,56.3000018016,1.7999985098000002,2.1307400681836803,1539,-21.3,99,GPS_Atti,
0.339514364262706,36.9102797837873,18700,2017-11-13 11:35:29,1702.2842829730832,56.700001814400004,0.0,1.3722300439113602,1702.2842829730832,56.700001814400004,1.7999985098000002,2.1307400681836803,1545,-21.3,99,GPS_Atti,
0.3395143338564,36.9102798569875,18800,2017-11-13 11:35:29,1702.684282985883,57.100001827199996,0.0,1.367000043744,1702.684282985883,57.100001827199996,1.7999985098000002,2.1307400681836803,1544,-21.3,99,GPS_Atti,
0.339514292587965,36.9102799493644,18900,2017-11-13 11:35:29,1702.9842829954832,57.4000018368,0.0,1.36061004353952,1702.9842829954832,57.4000018368,1.7999985098000002,2.1307400681836803,1544,-21.3,99,GPS_Atti,
0.339514245376116,36.9102799981085,19000,2017-11-13 11:35:29,1703.384283008283,57.8000018496,0.0,1.3587600434803202,1703.384283008283,57.8000018496,1.7999985098000002,2.1307400681836803,1544,-21.3,99,GPS_Atti,
0.339514227560125,36.9102800713718,19100,2017-11-13 11:35:29,1703.7842830210832,58.2000018624,0.0,1.3529000432928002,1703.7842830210832,58.2000018624,1.7999985098000002,2.1307400681836803,1545,-21.3,99,GPS_Atti,
0.339514210998442,36.9102801083674,19200,2017-11-13 11:35:29,1704.0842830306833,58.500001872,0.0,1.3504000432128,1704.0842830306833,58.500001872,1.7999985098000002,2.1307400681836803,1539,-21.3,99,GPS_Atti,
0.339514186548984,36.9102801666314,19300,2017-11-13 11:35:29,1704.3842830402832,58.8000018816,0.0,1.3463900430844802,1704.3842830402832,58.8000018816,1.7999985098000002,2.1307400681836803,1535,-21.3,99,GPS_Atti,
0.339514159902755,36.910280191073,19400,2017-11-13 11:35:29,1704.7842830530833,59.2000018944,0.0,1.34569004306208,1704.7842830530833,59.2000018944,1.7999985098000002,2.1307400681836803,1534,-21.4,99,GPS_Atti,
0.339514132871806,36.9102802766756,19500,2017-11-13 11:35:29,1705.1842830658832,59.6000019072,0.0,1.33933004285856,1705.1842830658832,59.6000019072,1.7999985098000002,2.1307400681836803,1536,-21.5,99,GPS_Atti,
0.339514104932592,36.9102803225402,19600,2017-11-13 11:35:29,1705.4842830754833,59.9000019168,0.0,1.3367600427763202,1705.4842830754833,59.9000019168,1.7999985098000002,2.1307400681836803,1535,-21.5,99,GPS_Atti,
0.339514097883873,36.9102803632531,19700,2017-11-13 11:35:30,1705.7842830850832,60.2000019264,0.0,1.3334000426688,1705.7842830850832,60.2000019264,1.7999985098000002,2.1307400681836803,1523,-21.7,99,GPS_Atti,
0.339514107341875,36.9102804001272,19900,2017-11-13 11:35:30,1706.4842831074832,60.9000019488,0.0,1.3294000425408,1706.4842831074832,60.9000019488,1.7999985098000002,2.1307400681836803,1527,-21.8,99,GPS_Atti,
0.339514117228973,36.9102804157427,20000,2017-11-13 11:35:30,1706.884283120283,61.3000019616,0.0,1.3273500424752,1706.884283120283,61.3000019616,1.7999985098000002,2.1307400681836803,1529,-21.8,99,GPS_Atti,
0.3395141715559,36.9102804787751,20100,2017-11-13 11:35:30,1707.1842831298832,61.6000019712,0.0,1.31817004218144,1707.1842831298832,61.6000019712,1.7999985098000002,2.1307400681836803,1522,-21.8,99,GPS_Atti,
0.339514220522397,36.9102805056128,20200,2017-11-13 11:35:30,1707.5842831426833,62.000001984,0.0,1.31268004200576,1707.5842831426833,62.000001984,1.7999985098000002,2.1307400681836803,1523,-21.8,99,GPS_Atti,
0.33951427138196,36.9102805756107,20300,2017-11-13 11:35:30,1707.8842831522832,62.300001993600006,0.0,1.30307004169824,1707.8842831522832,62.300001993600006,1.7999985098000002,2.1307400681836803,1526,-21.8,99,GPS_Atti,
0.33951430767387,36.9102805998607,20400,2017-11-13 11:35:30,1708.1842831618833,62.600002003200004,0.0,1.2986000415552001,1708.1842831618833,62.600002003200004,1.7999985098000002,2.1307400681836803,1521,-21.8,99,GPS_Atti,
0.339514361043679,36.9102806525585,20500,2017-11-13 11:35:30,1708.5842831746834,63.000002015999996,0.0,1.2904500412944002,1708.5842831746834,63.000002015999996,1.7999985098000002,2.1307400681836803,1522,-21.8,99,GPS_Atti,
0.339514386053322,36.9102806592381,20600,2017-11-13 11:35:31,1708.884283184283,63.30000202560001,0.0,1.28831004122592,1708.884283184283,63.30000202560001,1.7999985098000002,2.1307400681836803,1523,-21.8,99,GPS_Atti,
0.33951441456127,36.9102806724805,20700,2017-11-13 11:35:31,1709.2842831970834,63.7000020384,0.0,1.2853500411312002,1709.2842831970834,63.7000020384,1.7999985098000002,2.1307400681836803,1522,-21.8,99,GPS_Atti,
0.339514428010589,36.9102806423277,20800,2017-11-13 11:35:31,1709.584283206683,64.000002048,0.35999970196000003,1.28736004119552,1709.584283206683,64.000002048,1.7999985098000002,2.1307400681836803,1520,-21.8,99,GPS_Atti,
0.339514435071929,36.910280634668,20900,2017-11-13 11:35:31,1709.9842832194831,64.4000020608,0.35999970196000003,1.2876500412048,1709.9842832194831,64.4000020608,1.7999985098000002,2.1307400681836803,1512,-21.8,99,GPS_Atti,
0.339514428335871,36.9102805947057,21000,2017-11-13 11:35:31,1710.2842832290833,64.7000020704,0.35999970196000003,1.2918000413376,1710.2842832290833,64.7000020704,1.7999985098000002,2.1307400681836803,1484,-21.8,99,GPS_Atti,
0.339514477604037,36.9102805771652,21200,2017-11-13 11:35:31,1710.9842832514832,65.40000209280001,0.35999970196000003,1.290500041296,1710.9842832514832,65.40000209280001,1.7999985098000002,2.1307400681836803,1437,-21.8,99,GPS_Atti,
0.339514497926611,36.9102805563621,21300,2017-11-13 11:35:31,1711.2842832610834,65.7000021024,0.35999970196000003,1.29124004131968,1711.2842832610834,65.7000021024,1.7999985098000002,2.1307400681836803,1420,-21.8,99,GPS_Atti,
0.339514502188656,36.9102804966871,21400,2017-11-13 11:35:31,1711.5842832706833,66.000002112,0.35999970196000003,1.2966100414915203,1711.5842832706833,66.000002112,1.7999985098000002,2.1307400681836803,1416,-21.8,99,GPS_Atti,
0.339514535627532,36.9102804331626,21500,2017-11-13 11:35:31,1711.8842832802832,66.3000021216,0.35999970196000003,1.3006400416204802,1711.8842832802832,66.3000021216,1.7999985098000002,2.1307400681836803,1416,-21.8,99,GPS_Atti,
0.339514544199661,36.9102803399099,21600,2017-11-13 11:35:31,1712.184283289883,66.6000021312,0.35999970196000003,1.30896004188672,1712.184283289883,66.6000021312,1.7999985098000002,2.1307400681836803,1379,-21.8,99,GPS_Atti,
0.339514542629434,36.910280247526,21700,2017-11-13 11:35:31,1712.3842832962832,66.8000021376,0.35999970196000003,1.31782004217024,1712.3842832962832,66.8000021376,1.7999985098000002,2.1307400681836803,1382,-21.8,99,GPS_Atti,
0.339514507100857,36.9102801199953,21800,2017-11-13 11:35:32,1712.6842833058831,67.1000021472,0.35999970196000003,1.3320000426240002,1712.6842833058831,67.1000021472,1.7999985098000002,2.1307400681836803,1402,-21.8,99,GPS_Atti,
0.339514477553962,36.9102800054508,21900,2017-11-13 11:35:32,1712.8842833122833,67.3000021536,0.35999970196000003,1.34461004302752,1712.8842833122833,67.3000021536,1.7999985098000002,2.1307400681836803,1419,-21.8,99,GPS_Atti,
0.339514434413631,36.9102798821726,22000,2017-11-13 11:35:32,1713.084283318683,67.50000216000001,0.35999970196000003,1.35884004348288,1713.084283318683,67.50000216000001,1.7999985098000002,2.1307400681836803,1421,-21.8,99,GPS_Atti,
0.339514402902832,36.9102797551998,22100,2017-11-13 11:35:32,1713.2842833250832,67.7000021664,0.35999970196000003,1.3727700439286399,1713.2842833250832,67.7000021664,1.7999985098000002,2.1307400681836803,1419,-21.8,99,GPS_Atti,
0.339514377559765,36.9102796036734,22200,2017-11-13 11:35:32,1713.5842833346833,68.000002176,0.35999970196000003,1.38871004443872,1713.5842833346833,68.000002176,1.7999985098000002,2.1307400681836803,1387,-21.8,99,GPS_Atti,
0.339514436689788,36.9102793565315,22400,2017-11-13 11:35:32,1714.084283350683,68.500002192,0.0,1.4092300450953599,1714.084283350683,68.500002192,1.7999985098000002,2.1307400681836803,1333,-21.8,99,GPS_Atti,
0.339514521794307,36.9102792560232,22500,2017-11-13 11:35:32,1714.2842833570833,68.7000021984,0.0,1.41434004525888,1714.2842833570833,68.7000021984,1.7999985098000002,2.1307400681836803,1322,-21.8,99,GPS_Atti,
0.339514582814139,36.910279137717,22600,2017-11-13 11:35:32,1714.4842833634832,68.9000022048,0.0,1.4226000455232002,1714.4842833634832,68.9000022048,1.7999985098000002,2.1307400681836803,1302,-21.8,99,GPS_Atti,
0.339514630635433,36.9102790412482,22700,2017-11-13 11:35:32,1714.6842833698834,69.1000022112,0.0,1.4295200457446402,1714.6842833698834,69.1000022112,1.7999985098000002,2.1307400681836803,1297,-21.8,99,GPS_Atti,
0.339514658908477,36.9102789348836,22800,2017-11-13 11:35:33,1714.884283376283,69.30000221760001,0.0,1.4384900460316803,1714.884283376283,69.30000221760001,1.7999985098000002,2.1307400681836803,1306,-21.8,99,GPS_Atti,
0.339514740311136,36.9102788644061,22900,2017-11-13 11:35:33,1714.984283379483,69.4000022208,0.0,1.44125004612,1714.984283379483,69.4000022208,1.7999985098000002,2.1307400681836803,1324,-21.8,99,GPS_Atti,
0.339514804933086,36.9102787733673,23000,2017-11-13 11:35:33,1715.1842833858832,69.60000222720001,0.0,1.44698004630336,1715.1842833858832,69.60000222720001,1.7999985098000002,2.1307400681836803,1325,-21.8,98,GPS_Atti,
0.339514887576212,36.9102787325887,23100,2017-11-13 11:35:33,1715.2842833890832,69.7000022304,0.0,1.4469000463008002,1715.2842833890832,69.7000022304,1.7999985098000002,2.1307400681836803,1323,-21.8,98,GPS_Atti,
0.339514938297357,36.9102786564915,23200,2017-11-13 11:35:33,1715.4842833954833,69.9000022368,0.0,1.45198004646336,1715.4842833954833,69.9000022368,1.7999985098000002,2.1307400681836803,1329,-21.8,98,GPS_Atti,
0.339515034256677,36.9102786172117,23300,2017-11-13 11:35:33,1715.5842833986833,70.00000224,0.0,1.45124004643968,1715.5842833986833,70.00000224,1.7999985098000002,2.1307400681836803,1333,-21.8,98,GPS_Atti,
0.339515098840765,36.9102785453477,23400,2017-11-13 11:35:33,1715.7842834050834,70.2000022464,0.0,1.45536004657152,1715.7842834050834,70.2000022464,1.7999985098000002,2.1307400681836803,1335,-21.8,98,GPS_Atti,
0.33951518040749,36.9102784887443,23500,2017-11-13 11:35:33,1715.9842834114831,70.40000225280001,0.0,1.45721004663072,1715.9842834114831,70.40000225280001,1.7999985098000002,2.1307400681836803,1345,-21.8,98,GPS_Atti,
0.339515229201371,36.9102783901866,23600,2017-11-13 11:35:33,1716.0842834146831,70.500002256,0.0,1.4649000468768,1716.0842834146831,70.500002256,1.7999985098000002,2.1307400681836803,1347,-21.8,98,GPS_Atti,
0.339515329173788,36.9102783015986,23700,2017-11-13 11:35:33,1716.2842834210833,70.7000022624,0.35999970196000003,1.4693200470182401,1716.2842834210833,70.7000022624,1.7999985098000002,2.1307400681836803,1348,-21.8,98,GPS_Atti,
0.339515408433617,36.9102781928187,23800,2017-11-13 11:35:34,1716.3842834242832,70.8000022656,0.0,1.4768500472592,1716.3842834242832,70.8000022656,1.7999985098000002,2.1307400681836803,1351,-21.8,98,GPS_Atti,
0.339515506606806,36.9102781425993,23900,2017-11-13 11:35:34,1716.5842834306834,71.000002272,0.0,1.47768004728576,1716.5842834306834,71.000002272,1.7999985098000002,2.1307400681836803,1350,-21.8,98,GPS_Atti,
0.339515576239479,36.9102780759589,24000,2017-11-13 11:35:34,1716.784283437083,71.2000022784,0.0,1.4815100474083203,1716.784283437083,71.2000022784,1.7999985098000002,2.1307400681836803,1336,-21.8,98,GPS_Atti,
0.339515675270044,36.910278037512,24100,2017-11-13 11:35:34,1716.9842834434833,71.40000228480001,0.0,1.4812800474009602,1716.9842834434833,71.40000228480001,1.7999985098000002,2.1307400681836803,1334,-21.8,98,GPS_Atti,
0.339515737976537,36.910277984978,24200,2017-11-13 11:35:34,1717.1842834498832,71.6000022912,0.0,1.48408004749056,1717.1842834498832,71.6000022912,1.7999985098000002,2.1307400681836803,1335,-21.8,98,GPS_Atti,
0.339515834112746,36.9102779398655,24300,2017-11-13 11:35:34,1717.2842834530832,71.70000229440001,0.0,1.4848200475142401,1717.2842834530832,71.70000229440001,1.7999985098000002,2.1307400681836803,1339,-21.8,98,GPS_Atti,
0.33951589596512,36.9102778821432,24400,2017-11-13 11:35:34,1717.4842834594833,71.9000023008,0.0,1.4883200476262402,1717.4842834594833,71.9000023008,1.7999985098000002,2.1307400681836803,1337,-21.8,98,GPS_Atti,
0.33951596690869,36.9102778887971,24500,2017-11-13 11:35:34,1717.584283462683,72.000002304,0.0,1.4848200475142401,1717.584283462683,72.000002304,1.7999985098000002,2.1307400681836803,1337,-21.8,98,GPS_Atti,
0.339516004908634,36.9102778730098,24600,2017-11-13 11:35:34,1717.7842834690832,72.2000023104,0.0,1.4849700475190402,1717.7842834690832,72.2000023104,1.7999985098000002,2.1307400681836803,1337,-21.8,98,GPS_Atti,
0.33951605416825,36.9102779063038,24700,2017-11-13 11:35:34,1717.9842834754832,72.4000023168,0.0,1.4795800473465601,1717.9842834754832,72.4000023168,1.7999985098000002,2.1307400681836803,1337,-21.8,98,GPS_Atti,
0.339516073084052,36.9102779191544,24800,2017-11-13 11:35:35,1718.0842834786833,72.50000232,0.0,1.47751004728032,1718.0842834786833,72.50000232,1.7999985098000002,2.1307400681836803,1335,-21.8,98,GPS_Atti,
0.339516155814707,36.9102779433482,24900,2017-11-13 11:35:35,1718.2842834850833,72.7000023264,0.0,1.47181004709792,1718.2842834850833,72.7000023264,1.7999985098000002,2.1307400681836803,1335,-21.8,98,GPS_Atti,
0.339516217972618,36.9102779436062,25000,2017-11-13 11:35:35,1718.4842834914834,72.9000023328,0.0,1.46942004702144,1718.4842834914834,72.9000023328,1.7999985098000002,2.1307400681836803,1339,-21.8,98,GPS_Atti,
0.339516318614324,36.9102779670334,25100,2017-11-13 11:35:35,1718.5842834946832,73.00000233600001,0.0,1.46321004682272,1718.5842834946832,73.00000233600001,1.7999985098000002,2.1307400681836803,1337,-21.8,98,GPS_Atti,
0.339516389946685,36.9102779790457,25200,2017-11-13 11:35:35,1718.784283501083,73.2000023424,0.0,1.4593300466985601,1718.784283501083,73.2000023424,1.7999985098000002,2.1307400681836803,1335,-21.8,98,GPS_Atti,
0.339516472808837,36.910278010343,25300,2017-11-13 11:35:35,1718.8842835042833,73.3000023456,0.0,1.45304004649728,1718.8842835042833,73.3000023456,1.7999985098000002,2.1307400681836803,1335,-21.8,98,GPS_Atti,
0.339516515026247,36.9102780260115,25400,2017-11-13 11:35:35,1719.0842835106832,73.50000235200001,0.0,1.44988004639616,1719.0842835106832,73.50000235200001,1.7999985098000002,2.1307400681836803,1335,-21.8,98,GPS_Atti,
0.339516558571654,36.9102780844852,25500,2017-11-13 11:35:35,1719.2842835170834,73.7000023584,0.0,1.4421700461494402,1719.2842835170834,73.7000023584,1.7999985098000002,2.1307400681836803,1325,-21.8,98,GPS_Atti,
0.339516576042619,36.9102781320591,25600,2017-11-13 11:35:36,1719.3842835202831,73.80000236160001,0.0,1.43654004596928,1719.3842835202831,73.80000236160001,1.7999985098000002,2.1307400681836803,1324,-21.8,98,GPS_Atti,
0.339516619741303,36.910278245175,25700,2017-11-13 11:35:36,1719.584283526683,74.00000236800001,0.0,1.42306004553792,1719.584283526683,74.00000236800001,1.7999985098000002,2.1307400681836803,1334,-21.8,98,GPS_Atti,
0.339516626596238,36.9102783245729,25800,2017-11-13 11:35:36,1719.6842835298833,74.1000023712,0.0,1.4144500452624003,1719.6842835298833,74.1000023712,1.7999985098000002,2.1307400681836803,1345,-21.8,98,GPS_Atti,
0.339516662925806,36.910278472123,25900,2017-11-13 11:35:36,1719.8842835362832,74.30000237760001,0.0,1.39762004472384,1719.8842835362832,74.30000237760001,1.7999985098000002,2.1307400681836803,1337,-21.9,98,GPS_Atti,
0.339516673133707,36.9102785857281,26000,2017-11-13 11:35:36,1720.0842835426834,74.50000238400001,0.0,1.3852900443292802,1720.0842835426834,74.50000238400001,1.7999985098000002,2.1307400681836803,1339,-22.1,98,GPS_Atti,
0.339516724296771,36.9102787034315,26100,2017-11-13 11:35:36,1720.1842835458833,74.6000023872,0.0,1.37106004387392,1720.1842835458833,74.6000023872,1.7999985098000002,2.1307400681836803,1344,-22.3,98,GPS_Atti,
0.339516746739376,36.9102787892563,26200,2017-11-13 11:35:36,1720.3842835522833,74.80000239360001,0.0,1.36123004355936,1720.3842835522833,74.80000239360001,1.7999985098000002,2.1307400681836803,1327,-22.3,98,GPS_Atti,
0.339516813704046,36.9102789150205,26300,2017-11-13 11:35:36,1720.4842835554832,74.9000023968,0.0,1.3455900430588803,1720.4842835554832,74.9000023968,1.7999985098000002,2.1307400681836803,1323,-22.5,98,GPS_Atti,
0.339516829266068,36.9102790075141,26400,2017-11-13 11:35:36,1720.6842835618831,75.10000240320001,0.0,1.33529004272928,1720.6842835618831,75.10000240320001,1.7999985098000002,2.1307400681836803,1320,-22.6,98,GPS_Atti,
0.339516834984145,36.9102791564068,26500,2017-11-13 11:35:36,1720.8842835682833,75.3000024096,0.0,1.3194200422214402,1720.8842835682833,75.3000024096,1.7999985098000002,2.1307400681836803,1246,-22.8,98,GPS_Atti,
0.339516810529191,36.9102792802802,26600,2017-11-13 11:35:36,1721.084283574683,75.500002416,0.0,1.3073000418336,1721.084283574683,75.500002416,1.7999985098000002,2.1307400681836803,1122,-22.8,98,GPS_Atti,
0.339516835153707,36.9102794823588,26700,2017-11-13 11:35:37,1721.2842835810832,75.7000024224,0.35999970196000003,1.2851900411260802,1721.2842835810832,75.7000024224,1.7999985098000002,2.1307400681836803,1036,-22.8,98,GPS_Atti,
0.339516824655739,36.9102796188537,26800,2017-11-13 11:35:37,1721.3842835842831,75.8000024256,0.35999970196000003,1.2712900406812802,1721.3842835842831,75.8000024256,1.7999985098000002,2.1307400681836803,1024,-22.8,98,GPS_Atti,
0.339516844379046,36.9102798123481,26900,2017-11-13 11:35:37,1721.3842835842831,75.8000024256,0.0,1.2503100400099199,1721.3842835842831,75.8000024256,1.7999985098000002,2.1307400681836803,1024,-22.8,98,GPS_Atti,
0.339516842404354,36.9102799777111,27000,2017-11-13 11:35:37,1721.484283587483,75.90000242880001,0.0,1.23313003946016,1721.484283587483,75.90000242880001,1.7999985098000002,2.1307400681836803,1024,-22.8,98,GPS_Atti,
0.33951687595315,36.9102801872691,27100,2017-11-13 11:35:37,1721.484283587483,75.90000242880001,0.0,1.20999003871968,1721.484283587483,75.90000242880001,1.7999985098000002,2.1307400681836803,1024,-22.8,98,GPS_Atti,
0.339516872107987,36.9102803243453,27200,2017-11-13 11:35:37,1721.484283587483,75.90000242880001,0.0,1.19588003826816,1721.484283587483,75.90000242880001,1.7999985098000002,2.1307400681836803,1024,-22.8,98,GPS_Atti,
0.339516895532543,36.9102804495265,27300,2017-11-13 11:35:37,1721.5842835906833,76.000002432,0.0,1.1819400378220801,1721.5842835906833,76.000002432,1.7999985098000002,2.1307400681836803,1024,-22.8,98,GPS_Atti,
0.339516876038643,36.9102805098278,27400,2017-11-13 11:35:37,1721.5842835906833,76.000002432,0.35999970196000003,1.17646003764672,1721.5842835906833,76.000002432,1.7999985098000002,2.1307400681836803,1024,-22.8,98,GPS_Atti,
0.339516803454823,36.9102805429698,27500,2017-11-13 11:35:37,1721.5842835906833,76.000002432,0.5075995797636,1.17597003763104,1721.5842835906833,76.000002432,1.7999985098000002,2.1307400681836803,1024,-22.8,98,GPS_Atti,
0.339516632757252,36.9102804275773,27600,2017-11-13 11:35:38,1721.484283587483,75.90000242880001,1.0187991565468,1.19496003823872,1721.5842835906833,76.000002432,1.7999985098000002,2.1307400681836803,1024,-22.8,98,GPS_Atti,
0.339516380906175,36.910280195091,27700,2017-11-13 11:35:38,1721.484283587483,75.90000242880001,1.7999985098000002,1.22959003934688,1721.5842835906833,76.000002432,1.7999985098000002,2.1307400681836803,1024,-22.8,98,GPS_Atti,
0.339516006118364,36.9102797700449,27800,2017-11-13 11:35:38,1721.3842835842831,75.8000024256,2.5451978928572,1.2895300412649602,1721.5842835906833,76.000002432,2.5451978928572,2.1307400681836803,1024,-22.8,98,GPS_Atti,
0.339515509484063,36.9102791511468,27900,2017-11-13 11:35:38,1721.2842835810832,75.7000024224,3.3191972520712003,1.37499004399968,1721.5842835906833,76.000002432,3.3191972520712003,2.1307400681836803,1024,-22.8,98,GPS_Atti,
0.339514864408746,36.9102783094376,28000,2017-11-13 11:35:38,1721.2842835810832,75.7000024224,4.611596182107601,1.4902700476886401,1721.5842835906833,76.000002432,4.611596182107601,2.1307400681836803,1024,-22.8,98,GPS_Atti,
0.339514093775308,36.9102773000839,28100,2017-11-13 11:35:38,1721.2842835810832,75.7000024224,5.3999955294,1.6288700521238402,1721.5842835906833,76.000002432,5.3999955294,2.1307400681836803,1024,-22.8,98,GPS_Atti,
0.339513186566308,36.9102760838906,28200,2017-11-13 11:35:38,1721.1842835778832,75.60000241920001,6.407994694888,1.7953100574499201,1721.5842835906833,76.000002432,6.407994694888,2.1307400681836803,1024,-22.8,98,GPS_Atti,
0.339512221970941,36.9102746736771,28300,2017-11-13 11:35:38,1721.1842835778832,75.60000241920001,7.199994039200001,1.9841500634928,1721.5842835906833,76.000002432,7.199994039200001,2.1307400681836803,1024,-22.8,98,GPS_Atti,
0.339511152191527,36.9102730903441,28400,2017-11-13 11:35:38,1721.2842835810832,75.7000024224,7.4915937977875995,2.1957000702624,1721.5842835906833,76.000002432,7.4915937977875995,2.1957000702624,1024,-22.8,98,GPS_Atti,
0.339510045539255,36.9102714096086,28500,2017-11-13 11:35:38,1721.2842835810832,75.7000024224,8.2871931391192,2.41886007740352,1721.5842835906833,76.000002432,8.2871931391192,2.41886007740352,1024,-22.8,98,GPS_Atti,
0.339508842907308,36.9102695940602,28600,2017-11-13 11:35:39,1721.2842835810832,75.7000024224,8.7875927248436,2.66044008513408,1721.5842835906833,76.000002432,8.7875927248436,2.66044008513408,1024,-22.8,98,GPS_Atti,
0.339507696831221,36.9102678278618,28700,2017-11-13 11:35:39,1721.3842835842831,75.8000024256,9.0863924774704,2.89423009261536,1721.5842835906833,76.000002432,9.0863924774704,2.89423009261536,1024,-22.8,98,GPS_Atti,
0.339506545059651,36.9102660325191,28800,2017-11-13 11:35:39,1721.3842835842831,75.8000024256,9.5867920631948,3.13119010019808,1721.5842835906833,76.000002432,9.5867920631948,3.13119010019808,1024,-22.8,98,GPS_Atti,
0.339505315842542,36.9102638552172,28900,2017-11-13 11:35:39,1721.3842835842831,75.8000024256,9.8855918158216,3.40921010909472,1721.5842835906833,76.000002432,9.8855918158216,3.40921010909472,1024,-22.8,98,GPS_Atti,
0.339503899239568,36.9102614591244,29000,2017-11-13 11:35:39,1721.3842835842831,75.8000024256,10.3823914045264,3.7187401189996803,1721.5842835906833,76.000002432,10.3823914045264,3.7187401189996803,1024,-22.9,98,GPS_Atti,
