latitude,longitude,time_millisecond,datetime_utc,altitude_m,ascent_m,speed_kph,distance_m,max_altitude_m,max_ascent_m,max_speed_kph,max_distance_m,rc_throttle,gimbal_pitch_degrees,battery_percent,flycState,message
0.3696585400782029,36.9022765343548,0,2017-11-16 06:29:00,1684.600029507198,0.0,0.0,0.0,1684.600029507198,0.0,0.0,0.0,1024,0.0,99,GPS_Atti,
0.36965852379213504,36.902276556029896,100,2017-11-16 06:29:00,1684.600029507198,0.0,0.0,0.0030149500964784,1684.600029507198,0.0,0.0,0.0030149500964784,1024,0.0,99,Motors_Started,
0.369658493136677,36.902276567008,200,2017-11-16 06:29:00,1684.600029507198,0.0,0.0,0.0063589002034848,1684.600029507198,0.0,0.0,0.0063589002034848,1024,0.0,99,Motors_Started,
0.36965845982359796,36.902276573846,300,2017-11-16 06:29:00,1684.600029507198,0.0,0.0,0.009946750318296,1684.600029507198,0.0,0.0,0.009946750318296,1024,0.0,99,Motors_Started,Setting new Return-To-Home altitude to 30m (98 ft). Setting new Maximum Flight Altitude to 120m (394 ft)
0.36965841787325204,36.9022765523234,400,2017-11-16 06:29:00,1684.600029507198,0.0,0.0,0.013736000439552,1684.600029507198,0.0,0.0,0.013736000439552,1024,0.0,99,Motors_Started,
0.36965837105223,36.9022765330621,500,2017-11-16 06:29:00,1684.600029507198,0.0,0.0,0.018797300601513602,1684.600029507198,0.0,0.0,0.018797300601513602,1024,0.0,99,Motors_Started,
0.369658321658267,36.902276519906394,600,2017-11-16 06:29:00,1684.600029507198,0.0,0.0,0.024342700778966404,1684.600029507198,0.0,0.0,0.024342700778966404,1024,0.0,99,Motors_Started,
0.3696582670272279,36.90227651238,700,2017-11-16 06:29:00,1684.600029507198,0.0,0.0,0.0304631009748192,1684.600029507198,0.0,0.0,0.0304631009748192,1024,0.0,99,Motors_Started,
0.36965821214378,36.902276506327794,800,2017-11-16 06:29:00,1684.600029507198,0.0,0.0,0.036601201171238405,1684.600029507198,0.0,0.0,0.036601201171238405,1024,0.0,99,Motors_Started,
0.369658153443259,36.9022764941352,900,2017-11-16 06:29:00,1684.600029507198,0.0,0.0,0.0432282013833024,1684.600029507198,0.0,0.0,0.0432282013833024,1024,0.0,99,Motors_Started,
0.369658096586137,36.9022764627336,1000,2017-11-16 06:29:01,1684.600029507198,0.0,0.0,0.049958001598656,1684.600029507198,0.0,0.0,0.049958001598656,800,0.0,99,Motors_Started,
0.36965803971435907,36.902276431156395,1100,2017-11-16 06:29:01,1684.600029507198,0.0,0.0,0.0568146018180672,1684.600029507198,0.0,0.0,0.0568146018180672,1024,0.0,99,Motors_Started,
0.36965802363347394,36.902276414465604,1200,2017-11-16 06:29:01,1684.600029507198,0.0,0.0,0.058959001886688,1684.600029507198,0.0,0.0,0.058959001886688,1024,0.0,99,Motors_Started,
0.369657996837428,36.902276388260205,1300,2017-11-16 06:29:01,1684.600029507198,0.0,0.0,0.0625581020018592,1684.600029507198,0.0,0.0,0.0625581020018592,1024,0.0,99,Motors_Started,
0.36965795948580804,36.9022763487284,1400,2017-11-16 06:29:01,1684.600029507198,0.0,0.0,0.06778500216912,1684.600029507198,0.0,0.0,0.06778500216912,1024,0.0,99,Motors_Started,
0.36965792296306604,36.9022763132387,1500,2017-11-16 06:29:01,1684.600029507198,0.0,0.0,0.0728991023327712,1684.600029507198,0.0,0.0,0.0728991023327712,1024,0.0,99,Motors_Started,
0.369657878589596,36.902276291255205,1600,2017-11-16 06:29:01,1684.600029507198,0.0,0.0,0.07837170250789441,1684.600029507198,0.0,0.0,0.07837170250789441,1024,0.0,99,Assisted_Takeoff,
0.369657830617264,36.9022762756618,1700,2017-11-16 06:29:01,1684.600029507198,0.0,0.0,0.08397750268728,1684.600029507198,0.0,0.0,0.08397750268728,1024,0.0,99,Assisted_Takeoff,
0.36965777836375296,36.9022762618755,1800,2017-11-16 06:29:01,1684.600029507198,0.0,0.0,0.0899637028788384,1684.600029507198,0.0,0.0,0.0899637028788384,1024,0.0,99,Assisted_Takeoff,
0.36965772884602793,36.9022762493483,1900,2017-11-16 06:29:01,1684.600029507198,0.0,0.0,0.0956193030598176,1684.600029507198,0.0,0.0,0.0956193030598176,1024,0.0,99,Assisted_Takeoff,
0.36965767323792204,36.902276215179704,2000,2017-11-16 06:29:02,1684.600029507198,0.0,0.0,0.1027250032872,1684.600029507198,0.0,0.0,0.1027250032872,1024,0.0,99,Assisted_Takeoff,
0.369657631066108,36.902276186942295,2100,2017-11-16 06:29:02,1684.600029507198,0.0,0.0,0.108219003463008,1684.600029507198,0.0,0.0,0.108219003463008,1024,0.0,99,Assisted_Takeoff,
0.369657606924426,36.9022761692504,2200,2017-11-16 06:29:02,1684.600029507198,0.0,0.0,0.11143200356582401,1684.600029507198,0.0,0.0,0.11143200356582401,1024,0.0,99,Assisted_Takeoff,
0.369657582813684,36.902276145050294,2300,2017-11-16 06:29:02,1684.600029507198,0.0,0.0,0.11492000367744001,1684.600029507198,0.0,0.0,0.11492000367744001,1024,0.0,99,Assisted_Takeoff,
0.36965754745690793,36.902276106894796,2400,2017-11-16 06:29:02,1684.600029507198,0.0,0.0,0.120186003845952,1684.600029507198,0.0,0.0,0.120186003845952,1044,0.0,99,Assisted_Takeoff,
0.36965749935104397,36.9022760614066,2500,2017-11-16 06:29:02,1684.600029507198,0.0,0.0,0.127125004068,1684.600029507198,0.0,0.0,0.127125004068,1366,0.0,99,Assisted_Takeoff,
0.369657424424707,36.902276009702504,2600,2017-11-16 06:29:02,1684.600029507198,0.0,0.0,0.137101004387232,1684.600029507198,0.0,0.0,0.137101004387232,1684,0.0,99,Assisted_Takeoff,
0.36965734744327394,36.9022759532031,2700,2017-11-16 06:29:02,1684.600029507198,0.0,0.0,0.147536004721152,1684.600029507198,0.0,0.0,0.147536004721152,1684,0.0,99,Assisted_Takeoff,
0.369657277245939,36.9022758937434,2800,2017-11-16 06:29:03,1684.600029507198,0.0,0.0,0.15747000503904002,1684.600029507198,0.0,0.0,0.15747000503904002,1684,0.0,99,Assisted_Takeoff,
0.3696572032982971,36.902275841591795,2900,2017-11-16 06:29:03,1684.600029507198,0.0,0.0,0.167434005357888,1684.600029507198,0.0,0.0,0.167434005357888,1684,0.0,99,Assisted_Takeoff,
0.36965713491179103,36.902275808187596,3000,2017-11-16 06:29:03,1684.600029507198,0.0,0.0,0.17589500562864002,1684.600029507198,0.0,0.0,0.17589500562864002,1684,0.0,99,Assisted_Takeoff,
0.369657074121977,36.9022757916745,3100,2017-11-16 06:29:03,1684.600029507198,0.0,0.0,0.18275000584800002,1684.600029507198,0.0,0.0,0.18275000584800002,1684,0.0,99,Assisted_Takeoff,
0.369657005243681,36.9022757639028,3200,2017-11-16 06:29:03,1684.600029507198,0.0,0.0,0.19098000611136,1684.600029507198,0.0,0.0,0.19098000611136,1684,0.0,99,GPS_Atti,Obstacle Avoided. Revise Flight Route
0.36965689747325703,36.9022757071357,3300,2017-11-16 06:29:03,1684.600029507198,0.0,0.0,0.20452300654473599,1684.600029507198,0.0,0.0,0.20452300654473599,1684,0.0,99,GPS_Atti,
0.36965676407601095,36.9022756288965,3400,2017-11-16 06:29:03,1684.7000295103983,0.10000000320000002,0.0,0.221688007094016,1684.7000295103983,0.10000000320000002,0.0,0.221688007094016,1684,0.0,99,GPS_Atti,Home Point Recorded. RTH Altitude:  30m.
0.36965664114314506,36.9022755660698,3500,2017-11-16 06:29:03,1684.800029513598,0.20000000640000004,0.0,0.23704100758531196,1684.800029513598,0.20000000640000004,0.0,0.23704100758531196,1684,0.0,99,GPS_Atti,
0.369656539038078,36.9022755215152,3600,2017-11-16 06:29:03,1684.900029516798,0.3000000096,0.0,0.24940800798105603,1684.900029516798,0.3000000096,0.0,0.24940800798105603,1684,0.0,99,GPS_Atti,
0.369656487027205,36.9022755020482,3700,2017-11-16 06:29:03,1685.1000295231981,0.500000016,0.0,0.25554700817750403,1685.1000295231981,0.500000016,0.0,0.25554700817750403,1684,0.0,99,GPS_Atti,
0.3696564974036501,36.902275498369605,3800,2017-11-16 06:29:03,1685.300029529598,0.7000000224000001,0.0,0.254702008150464,1685.300029529598,0.7000000224000001,0.0,0.25554700817750403,1684,0.0,99,GPS_Atti,
0.369656532366343,36.9022754906601,3900,2017-11-16 06:29:03,1685.6000295391982,1.000000032,0.0,0.25163500805232003,1685.6000295391982,1.000000032,0.0,0.25554700817750403,1684,0.0,99,GPS_Atti,
0.369656533182193,36.902275460308296,4000,2017-11-16 06:29:04,1686.000029551998,1.4000000448000003,0.0,0.25312900810012806,1686.000029551998,1.4000000448000003,0.0,0.25554700817750403,1684,0.0,99,GPS_Atti,
0.36965653875147203,36.902275451825794,4100,2017-11-16 06:29:04,1686.4000295647982,1.8000000576000001,0.0,0.253031008096992,1686.4000295647982,1.8000000576000001,0.0,0.25554700817750403,1684,0.0,99,GPS_Atti,
0.369656527098326,36.902275457316996,4200,2017-11-16 06:29:04,1686.800029577598,2.2000000704,0.0,0.253883008124256,1686.800029577598,2.2000000704,0.0,0.25554700817750403,1684,0.0,99,GPS_Atti,
0.369656507389269,36.902275478358796,4300,2017-11-16 06:29:04,1687.300029593598,2.7000000863999998,0.0,0.25473000815136,1687.300029593598,2.7000000863999998,0.0,0.25554700817750403,1684,0.0,99,GPS_Atti,
0.369656493931807,36.9022754904749,4400,2017-11-16 06:29:04,1687.8000296095981,3.2000001024000007,0.0,0.25544400817420804,1687.8000296095981,3.2000001024000007,0.0,0.25554700817750403,1684,0.0,99,GPS_Atti,
0.36965652370953395,36.9022754885682,4500,2017-11-16 06:29:04,1688.3000296255982,3.7000001184,0.0,0.252596008083072,1688.3000296255982,3.7000001184,0.0,0.25554700817750403,1684,0.0,99,GPS_Atti,
0.3696565690389021,36.9022754136146,4600,2017-11-16 06:29:04,1688.800029641598,4.2000001344,0.35999970196000003,0.252146008068672,1688.800029641598,4.2000001344,0.35999970196000003,0.25554700817750403,1684,0.0,99,GPS_Atti,
0.369656640797915,36.9022752985067,4700,2017-11-16 06:29:04,1689.400029660798,4.8000001536,0.35999970196000003,0.25198700806358404,1689.400029660798,4.8000001536,0.35999970196000003,0.25554700817750403,1684,0.0,99,GPS_Atti,
0.36965671860334004,36.9022751700065,4800,2017-11-16 06:29:04,1689.900029676798,5.3000001696,0.35999970196000003,0.25308000809856,1689.900029676798,5.3000001696,0.35999970196000003,0.25554700817750403,1684,0.0,99,GPS_Atti,
0.369656824190021,36.902275068159106,4900,2017-11-16 06:29:04,1690.400029692798,5.8000001856,0.0,0.25098900803164803,1690.400029692798,5.8000001856,0.35999970196000003,0.25554700817750403,1684,0.0,99,GPS_Atti,
0.369656925935202,36.9022749734239,5000,2017-11-16 06:29:05,1690.8000297055983,6.2000001984,0.0,0.24970300799049602,1690.8000297055983,6.2000001984,0.35999970196000003,0.25554700817750403,1684,0.0,99,GPS_Atti,
0.36965701957724495,36.9022749140049,5100,2017-11-16 06:29:05,1691.2000297183981,6.6000002112,0.0,0.247102007907264,1691.2000297183981,6.6000002112,0.35999970196000003,0.25554700817750403,1684,0.0,99,GPS_Atti,
0.369657074573056,36.902274882608204,5200,2017-11-16 06:29:05,1691.7000297343982,7.100000227200002,0.0,0.24555800785785598,1691.7000297343982,7.100000227200002,0.35999970196000003,0.25554700817750403,1684,0.0,99,GPS_Atti,
0.369657080277495,36.9022748667663,5300,2017-11-16 06:29:05,1692.100029747198,7.50000024,0.0,0.24646000788672004,1692.100029747198,7.50000024,0.35999970196000003,0.25554700817750403,1684,0.0,99,GPS_Atti,
0.3696570262782921,36.9022748079972,5400,2017-11-16 06:29:05,1692.600029763198,8.000000256,0.0,0.255333008170656,1692.600029763198,8.000000256,0.35999970196000003,0.25554700817750403,1684,0.0,99,GPS_Atti,
0.36965697564834005,36.9022747542707,5500,2017-11-16 06:29:05,1693.1000297791982,8.500000272000001,0.0,0.263538008433216,1693.1000297791982,8.500000272000001,0.35999970196000003,0.263538008433216,1684,0.0,99,GPS_Atti,
0.36965694462322496,36.902274676048606,5600,2017-11-16 06:29:05,1693.5000297919983,8.9000002848,0.35999970196000003,0.272367008715744,1693.5000297919983,8.9000002848,0.35999970196000003,0.272367008715744,1684,0.0,99,GPS_Atti,
0.369656952255742,36.9022746029033,5700,2017-11-16 06:29:05,1694.000029807998,9.400000300800002,0.35999970196000003,0.278049008897568,1694.000029807998,9.400000300800002,0.35999970196000003,0.278049008897568,1684,0.0,99,GPS_Atti,
0.369656984467993,36.902274509289,5800,2017-11-16 06:29:05,1694.5000298239981,9.900000316799998,0.35999970196000003,0.283971009087072,1694.5000298239981,9.900000316799998,0.35999970196000003,0.283971009087072,1684,0.0,99,GPS_Atti,
0.369657047420381,36.9022744256335,5900,2017-11-16 06:29:06,1695.000029839998,10.400000332800001,0.35999970196000003,0.28730300919369606,1695.000029839998,10.400000332800001,0.35999970196000003,0.28730300919369606,1684,0.0,99,GPS_Atti,
0.36965713873374895,36.902274325123294,6000,2017-11-16 06:29:06,1695.4000298527983,10.800000345599999,0.35999970196000003,0.290932009309824,1695.4000298527983,10.800000345599999,0.35999970196000003,0.290932009309824,1684,0.0,99,GPS_Atti,
0.36965728863690506,36.9022742305551,6100,2017-11-16 06:29:06,1695.9000298687981,11.3000003616,0.35999970196000003,0.2915500093296,1695.9000298687981,11.3000003616,0.35999970196000003,0.2915500093296,1684,0.0,99,GPS_Atti,
0.369657438255082,36.902274137911796,6200,2017-11-16 06:29:06,1696.400029884798,11.8000003776,0.35999970196000003,0.29331300938601607,1696.400029884798,11.8000003776,0.35999970196000003,0.29331300938601607,1684,0.0,99,GPS_Atti,
0.36965756453114396,36.9022740626607,6300,2017-11-16 06:29:06,1696.900029900798,12.300000393600001,0.35999970196000003,0.295497009455904,1696.900029900798,12.300000393600001,0.35999970196000003,0.295497009455904,1684,0.0,99,GPS_Atti,
0.369657683259367,36.9022740097906,6400,2017-11-16 06:29:06,1697.400029916798,12.800000409600003,0.0,0.29647000948704005,1697.400029916798,12.800000409600003,0.35999970196000003,0.29647000948704005,1684,0.0,99,GPS_Atti,
0.36965777459227706,36.9022739485966,6500,2017-11-16 06:29:06,1697.8000299295982,13.2000004224,0.0,0.299882009596224,1697.8000299295982,13.2000004224,0.35999970196000003,0.299882009596224,1684,0.0,99,GPS_Atti,
0.36965782034178296,36.9022738803686,6600,2017-11-16 06:29:06,1698.300029945598,13.7000004384,0.0,0.30579400978540805,1698.300029945598,13.7000004384,0.35999970196000003,0.30579400978540805,1684,0.0,99,GPS_Atti,
0.36965787295192293,36.902273829152705,6700,2017-11-16 06:29:06,1698.800029961598,14.200000454400003,0.0,0.309842009914944,1698.800029961598,14.200000454400003,0.35999970196000003,0.309842009914944,1684,0.0,99,GPS_Atti,
0.369657925361764,36.9022737915453,6800,2017-11-16 06:29:06,1699.3000299775981,14.7000004704,0.0,0.312578010002496,1699.3000299775981,14.7000004704,0.35999970196000003,0.312578010002496,1684,0.0,99,GPS_Atti,
0.36965799783403597,36.902273757599396,6900,2017-11-16 06:29:06,1699.8000299935982,15.200000486399999,0.0,0.314618010067776,1699.8000299935982,15.200000486399999,0.35999970196000003,0.314618010067776,1684,0.0,99,GPS_Atti,
0.369658058045753,36.90227371989779,7000,2017-11-16 06:29:07,1700.300030009598,15.700000502400002,0.0,0.31753601016115196,1700.300030009598,15.700000502400002,0.35999970196000003,0.31753601016115196,1684,0.0,99,GPS_Atti,
0.36965813814077103,36.9022736865386,7100,2017-11-16 06:29:07,1700.8000300255983,16.2000005184,0.0,0.319827010234464,1700.8000300255983,16.2000005184,0.35999970196000003,0.319827010234464,1684,0.0,99,GPS_Atti,
0.36965819859023996,36.902273652191205,7200,2017-11-16 06:29:07,1701.3000300415981,16.7000005344,0.0,0.32274901032796804,1701.3000300415981,16.7000005344,0.35999970196000003,0.32274901032796804,1684,0.0,99,GPS_Atti,
0.36965827056258,36.902273619347,7300,2017-11-16 06:29:07,1701.800030057598,17.2000005504,0.0,0.32554301041737604,1701.800030057598,17.2000005504,0.35999970196000003,0.32554301041737604,1684,0.0,99,GPS_Atti,
0.369658329206105,36.9022735920475,7400,2017-11-16 06:29:07,1702.4000300767982,17.8000005696,0.0,0.32803501049712,1702.4000300767982,17.8000005696,0.35999970196000003,0.32803501049712,1684,0.0,99,GPS_Atti,
0.36965839427058506,36.902273570182295,7500,2017-11-16 06:29:07,1702.900030092798,18.3000005856,0.0,0.33002601056083203,1702.900030092798,18.3000005856,0.35999970196000003,0.33002601056083203,1684,0.0,99,GPS_Atti,
0.369658433315787,36.902273543604394,7600,2017-11-16 06:29:07,1703.4000301087979,18.800000601600004,0.0,0.33279501064944,1703.4000301087979,18.800000601600004,0.35999970196000003,0.33279501064944,1684,0.0,99,GPS_Atti,
0.36965847843345595,36.9022735171742,7700,2017-11-16 06:29:07,1704.0000301279981,19.4000006208,0.0,0.33559201073894396,1704.0000301279981,19.4000006208,0.35999970196000003,0.33559201073894396,1684,0.0,99,GPS_Atti,
0.36965850950416707,36.9022735022156,7800,2017-11-16 06:29:07,1704.500030143998,19.900000636800005,0.0,0.337202010790464,1704.500030143998,19.900000636800005,0.35999970196000003,0.337202010790464,1684,0.0,99,GPS_Atti,
0.369658559394806,36.902273501514394,7900,2017-11-16 06:29:07,1705.1000301631982,20.500000655999997,0.0,0.3372700107926401,1705.1000301631982,20.500000655999997,0.35999970196000003,0.3372700107926401,1684,0.0,99,GPS_Atti,
0.369658599161408,36.902273516140006,8000,2017-11-16 06:29:08,1705.600030179198,21.000000672,0.0,0.335701010742432,1705.600030179198,21.000000672,0.35999970196000003,0.3372700107926401,1684,0.0,99,GPS_Atti,
0.36965864663869297,36.90227355079679,8100,2017-11-16 06:29:08,1706.1000301951979,21.500000688,0.0,0.33199501062384,1706.1000301951979,21.500000688,0.35999970196000003,0.3372700107926401,1684,0.0,99,GPS_Atti,
0.3696586728517561,36.9022735850189,8200,2017-11-16 06:29:08,1706.700030214398,22.1000007072,0.0,0.32831001050592,1706.700030214398,22.1000007072,0.35999970196000003,0.3372700107926401,1684,0.0,99,GPS_Atti,
0.369658704290496,36.9022736147883,8300,2017-11-16 06:29:08,1707.3000302335981,22.700000726400003,0.0,0.32518001040576,1707.3000302335981,22.700000726400003,0.35999970196000003,0.3372700107926401,1684,0.0,99,GPS_Atti,
0.369658702399873,36.902273638107296,8400,2017-11-16 06:29:08,1707.8000302495982,23.2000007424,0.0,0.322579010322528,1707.8000302495982,23.2000007424,0.35999970196000003,0.3372700107926401,1684,0.0,99,GPS_Atti,
0.369658714347766,36.9022736731313,8500,2017-11-16 06:29:08,1708.400030268798,23.800000761600003,0.0,0.31876901020060805,1708.400030268798,23.800000761600003,0.35999970196000003,0.3372700107926401,1684,0.0,99,GPS_Atti,
0.3696587284745179,36.9022737162213,8600,2017-11-16 06:29:08,1709.000030287998,24.4000007808,0.0,0.31408701005078404,1709.000030287998,24.4000007808,0.35999970196000003,0.3372700107926401,1684,0.0,99,GPS_Atti,
0.36965875443679996,36.9022737716244,8700,2017-11-16 06:29:08,1709.500030303998,24.9000007968,0.0,0.308149009860768,1709.500030303998,24.9000007968,0.35999970196000003,0.3372700107926401,1684,0.0,99,GPS_Atti,
0.36965876211165705,36.902273832251,8800,2017-11-16 06:29:08,1710.100030323198,25.500000816,0.0,0.301497009647904,1710.100030323198,25.500000816,0.35999970196000003,0.3372700107926401,1684,0.0,99,GPS_Atti,
0.36965877343911296,36.9022739059263,8900,2017-11-16 06:29:08,1710.700030342398,26.100000835200003,0.0,0.293441009390112,1710.700030342398,26.100000835200003,0.35999970196000003,0.3372700107926401,1684,0.0,99,GPS_Atti,
0.369658757833735,36.9022739820789,9000,2017-11-16 06:29:09,1711.3000303615981,26.700000854400002,0.0,0.284854009115328,1711.3000303615981,26.700000854400002,0.35999970196000003,0.3372700107926401,1684,0.0,99,GPS_Atti,
0.36965873659719706,36.902274078772294,9100,2017-11-16 06:29:09,1711.9000303807982,27.3000008736,0.0,0.27394300876617605,1711.9000303807982,27.3000008736,0.35999970196000003,0.3372700107926401,1684,0.0,99,GPS_Atti,
0.369658688207983,36.902274178397,9200,2017-11-16 06:29:09,1712.400030396798,27.8000008896,0.0,0.262509008400288,1712.400030396798,27.8000008896,0.35999970196000003,0.3372700107926401,1684,0.0,99,GPS_Atti,
0.3696586125488471,36.902274289562996,9300,2017-11-16 06:29:09,1713.000030415998,28.400000908800006,0.0,0.249759007992288,1713.000030415998,28.400000908800006,0.35999970196000003,0.3372700107926401,1684,0.0,99,GPS_Atti,
0.36965849715242,36.90227438722739,9400,2017-11-16 06:29:09,1713.600030435198,29.000000928,0.35999970196000003,0.238816007642112,1713.600030435198,29.000000928,0.35999970196000003,0.3372700107926401,1684,0.0,99,GPS_Atti,
0.36965837261228,36.902274500738,9500,2017-11-16 06:29:09,1714.1000304511979,29.500000944,0.35999970196000003,0.226911007261152,1714.1000304511979,29.500000944,0.35999970196000003,0.3372700107926401,1684,0.0,99,GPS_Atti,
0.36965824360694605,36.902274609825895,9600,2017-11-16 06:29:09,1714.7000304703981,30.1000009632,0.35999970196000003,0.21654000692928,1714.7000304703981,30.1000009632,0.35999970196000003,0.3372700107926401,1684,0.0,99,GPS_Atti,
0.369658114544617,36.902274713607795,9700,2017-11-16 06:29:09,1715.3000304895982,30.700000982400002,0.35999970196000003,0.20793000665376002,1715.3000304895982,30.700000982400002,0.35999970196000003,0.3372700107926401,1684,0.0,99,GPS_Atti,
0.36965798766765995,36.9022747775308,9800,2017-11-16 06:29:09,1715.8000305055982,31.2000009984,0.0,0.204796006553472,1715.8000305055982,31.2000009984,0.35999970196000003,0.3372700107926401,1684,0.0,99,GPS_Atti,
0.369657874498944,36.9022748400139,9900,2017-11-16 06:29:09,1716.400030524798,31.800001017600003,0.0,0.202434006477888,1716.400030524798,31.800001017600003,0.35999970196000003,0.3372700107926401,1684,0.0,99,GPS_Atti,
0.36965777592922905,36.902274913190205,10000,2017-11-16 06:29:10,1717.000030543998,32.4000010368,0.0,0.19930400637772802,1717.000030543998,32.4000010368,0.35999970196000003,0.3372700107926401,1684,0.0,99,GPS_Atti,
0.36965769184940894,36.902274981769295,10100,2017-11-16 06:29:10,1717.500030559998,32.9000010528,0.0,0.196741006295712,1717.500030559998,32.9000010528,0.35999970196000003,0.3372700107926401,1684,0.0,99,GPS_Atti,
0.36965762982523404,36.9022750336876,10200,2017-11-16 06:29:10,1718.1000305791981,33.500001071999996,0.0,0.195181006245792,1718.1000305791981,33.500001071999996,0.35999970196000003,0.3372700107926401,1684,0.0,99,GPS_Atti,
0.36965758213788,36.9022751238791,10300,2017-11-16 06:29:10,1718.700030598398,34.1000010912,0.0,0.18960600606739203,1718.700030598398,34.1000010912,0.35999970196000003,0.3372700107926401,1684,0.0,99,GPS_Atti,
0.36965751927668494,36.902275221589605,10400,2017-11-16 06:29:10,1719.2000306143982,34.6000011072,0.0,0.184927005917664,1719.2000306143982,34.6000011072,0.35999970196000003,0.3372700107926401,1684,0.0,99,GPS_Atti,
0.36965744845077003,36.902275304837204,10500,2017-11-16 06:29:10,1719.800030633598,35.2000011264,0.0,0.182842005850944,1719.800030633598,35.2000011264,0.35999970196000003,0.3372700107926401,1684,0.0,99,GPS_Atti,
0.369657348993553,36.9022753457142,10600,2017-11-16 06:29:10,1720.3000306495983,35.7000011424,0.0,0.187127005988064,1720.3000306495983,35.7000011424,0.35999970196000003,0.3372700107926401,1684,0.0,99,GPS_Atti,
0.36965725110615605,36.902275391570704,10700,2017-11-16 06:29:10,1720.900030668798,36.3000011616,0.0,0.191564006130048,1720.900030668798,36.3000011616,0.35999970196000003,0.3372700107926401,1684,0.0,99,GPS_Atti,
0.36965713733654404,36.902275450474704,10800,2017-11-16 06:29:10,1721.400030684798,36.8000011776,0.0,0.197134006308288,1721.400030684798,36.8000011776,0.35999970196000003,0.3372700107926401,1684,0.0,99,GPS_Atti,
0.36965701633012804,36.902275535223296,10900,2017-11-16 06:29:11,1722.0000307039982,37.4000011968,0.0,0.20262800648409598,1722.0000307039982,37.4000011968,0.35999970196000003,0.3372700107926401,1684,0.0,99,GPS_Atti,
0.3696569140654729,36.9022755879745,11000,2017-11-16 06:29:11,1722.500030719998,37.90000121280001,0.0,0.20921900669500798,1722.500030719998,37.90000121280001,0.35999970196000003,0.3372700107926401,1684,0.0,99,GPS_Atti,
0.369656826230461,36.9022756224514,11100,2017-11-16 06:29:11,1723.100030739198,38.500001232,0.0,0.21588900690844803,1723.100030739198,38.500001232,0.35999970196000003,0.3372700107926401,1684,0.0,99,GPS_Atti,
0.36965674774108903,36.9022756389356,11200,2017-11-16 06:29:11,1723.600030755198,39.000001248000004,0.0,0.22280700712982401,1723.600030755198,39.000001248000004,0.35999970196000003,0.3372700107926401,1684,0.0,99,GPS_Atti,
0.369656673913952,36.902275673279796,11300,2017-11-16 06:29:11,1724.100030771198,39.500001264000005,0.0,0.22855500731376002,1724.100030771198,39.500001264000005,0.35999970196000003,0.3372700107926401,1684,0.0,99,GPS_Atti,
0.369656602881225,36.9022756959232,11400,2017-11-16 06:29:11,1724.7000307903982,40.10000128320001,0.0,0.23473900751164803,1724.7000307903982,40.10000128320001,0.35999970196000003,0.3372700107926401,1684,0.0,99,GPS_Atti,
0.369656537263074,36.9022757271904,11500,2017-11-16 06:29:11,1725.3000308095982,40.7000013024,0.0,0.24013200768422402,1725.3000308095982,40.7000013024,0.35999970196000003,0.3372700107926401,1684,0.0,99,GPS_Atti,
0.36965645081712395,36.9022757357907,11600,2017-11-16 06:29:11,1725.800030825598,41.200001318400005,0.0,0.24873100795939201,1725.800030825598,41.200001318400005,0.35999970196000003,0.3372700107926401,1684,0.0,99,GPS_Atti,
0.36965637300192794,36.9022757723125,11700,2017-11-16 06:29:11,1726.300030841598,41.7000013344,0.0,0.25545700817462397,1726.300030841598,41.7000013344,0.35999970196000003,0.3372700107926401,1684,0.0,99,GPS_Atti,
0.36965630635622904,36.9022758114626,11800,2017-11-16 06:29:11,1726.900030860798,42.30000135360001,0.0,0.261087008354784,1726.900030860798,42.30000135360001,0.35999970196000003,0.3372700107926401,1684,0.0,99,GPS_Atti,
0.36965624991435997,36.9022758712295,11900,2017-11-16 06:29:12,1727.4000308767982,42.800001369600004,0.0,0.265141008484512,1727.4000308767982,42.800001369600004,0.35999970196000003,0.3372700107926401,1684,0.0,99,GPS_Atti,
0.36965619272829203,36.90227590584671,12000,2017-11-16 06:29:12,1728.0000308959982,43.40000138880001,0.0,0.27023400864748803,1728.0000308959982,43.40000138880001,0.35999970196000003,0.3372700107926401,1684,0.0,99,GPS_Atti,
0.369656154264445,36.9022759496722,12100,2017-11-16 06:29:12,1728.500030911998,43.9000014048,0.0,0.27316800874137603,1728.500030911998,43.9000014048,0.35999970196000003,0.3372700107926401,1684,0.0,99,GPS_Atti,
0.369656103419538,36.9022759624317,12200,2017-11-16 06:29:12,1729.000030927998,44.4000014208,0.0,0.27833500890672,1729.000030927998,44.4000014208,0.35999970196000003,0.3372700107926401,1684,0.0,99,GPS_Atti,
0.3696560660776889,36.9022760008796,12300,2017-11-16 06:29:12,1729.600030947198,45.00000144,0.0,0.281447009006304,1729.600030947198,45.00000144,0.35999970196000003,0.3372700107926401,1684,0.0,99,GPS_Atti,
0.36965603799517205,36.9022760342484,12400,2017-11-16 06:29:12,1730.1000309631982,45.50000145600001,0.0,0.28375000908000003,1730.1000309631982,45.50000145600001,0.35999970196000003,0.3372700107926401,1684,0.0,99,GPS_Atti,
0.3696560088623089,36.9022760906215,12500,2017-11-16 06:29:12,1730.600030979198,46.000001471999994,0.0,0.28577900914492804,1730.600030979198,46.000001471999994,0.35999970196000003,0.3372700107926401,1684,0.0,99,GPS_Atti,
0.36965596410126894,36.902276105405605,12600,2017-11-16 06:29:12,1731.200030998398,46.600001491200004,0.0,0.29040900929308805,1731.200030998398,46.600001491200004,0.35999970196000003,0.3372700107926401,1684,0.0,99,GPS_Atti,
0.369655935538361,36.9022761156802,12700,2017-11-16 06:29:12,1731.700031014398,47.1000015072,0.0,0.29335900938748805,1731.700031014398,47.1000015072,0.35999970196000003,0.3372700107926401,1684,0.0,99,GPS_Atti,
0.369655929083209,36.902276102866104,12800,2017-11-16 06:29:12,1732.2000310303981,47.60000152320001,0.0,0.29429700941750403,1732.2000310303981,47.60000152320001,0.35999970196000003,0.3372700107926401,1684,0.0,99,GPS_Atti,
0.369655936961621,36.902276101427205,12900,2017-11-16 06:29:12,1732.800031049598,48.200001542399995,0.0,0.293458009390656,1732.800031049598,48.200001542399995,0.35999970196000003,0.3372700107926401,1684,0.0,99,GPS_Atti,
0.3696559291727729,36.9022760924201,13000,2017-11-16 06:29:13,1733.3000310655982,48.70000155840001,0.0,0.29447800942329605,1733.3000310655982,48.70000155840001,0.35999970196000003,0.3372700107926401,1684,0.0,99,GPS_Atti,
0.369655928466029,36.9022760886526,13100,2017-11-16 06:29:13,1733.800031081598,49.200001574400005,0.0,0.29462600942803197,1733.800031081598,49.200001574400005,0.35999970196000003,0.3372700107926401,1684,0.0,99,GPS_Atti,
0.36965593040387706,36.9022760630875,13200,2017-11-16 06:29:13,1734.400031100798,49.8000015936,0.0,0.294906009436992,1734.400031100798,49.8000015936,0.35999970196000003,0.3372700107926401,1684,0.0,99,GPS_Atti,
0.369655937342677,36.9022760506834,13300,2017-11-16 06:29:13,1734.9000311167981,50.3000016096,0.0,0.29439500942064,1734.9000311167981,50.3000016096,0.35999970196000003,0.3372700107926401,1684,0.0,99,GPS_Atti,
0.369655934313771,36.9022760463602,13400,2017-11-16 06:29:13,1735.4000311327982,50.800001625600004,0.0,0.294814009434048,1735.4000311327982,50.800001625600004,0.35999970196000003,0.3372700107926401,1684,0.0,99,GPS_Atti,
0.36965593434308297,36.90227604772421,13500,2017-11-16 06:29:13,1735.900031148798,51.3000016416,0.0,0.294783009433056,1735.900031148798,51.3000016416,0.35999970196000003,0.3372700107926401,1684,0.0,99,GPS_Atti,
0.369655921867574,36.902276033538605,13600,2017-11-16 06:29:13,1736.4000311647983,51.800001657600006,0.0,0.29644000948607996,1736.4000311647983,51.800001657600006,0.35999970196000003,0.3372700107926401,1684,0.0,99,GPS_Atti,
0.369655923092163,36.9022760216955,13700,2017-11-16 06:29:13,1736.9000311807981,52.3000016736,0.0,0.296556009489792,1736.9000311807981,52.3000016736,0.35999970196000003,0.3372700107926401,1684,0.0,99,GPS_Atti,
0.36965593814875697,36.9022760072754,13800,2017-11-16 06:29:13,1737.500031199998,52.90000169280001,0.0,0.295227009447264,1737.500031199998,52.90000169280001,0.35999970196000003,0.3372700107926401,1684,0.0,99,GPS_Atti,
0.369655971810323,36.902275995003,13900,2017-11-16 06:29:13,1738.0000312159982,53.400001708800005,0.0,0.29183700933878404,1738.0000312159982,53.400001708800005,0.35999970196000003,0.3372700107926401,1684,0.0,99,GPS_Atti,
0.369655994434295,36.902275961842896,14000,2017-11-16 06:29:14,1738.500031231998,53.900001724800006,0.0,0.290162009285184,1738.500031231998,53.900001724800006,0.35999970196000003,0.3372700107926401,1684,0.0,99,GPS_Atti,
0.369656029247171,36.9022759442742,14100,2017-11-16 06:29:14,1739.1000312511983,54.500001744,0.0,0.286827009178464,1739.1000312511983,54.500001744,0.35999970196000003,0.3372700107926401,1684,0.0,99,GPS_Atti,
0.3696560488080399,36.902275926870296,14200,2017-11-16 06:29:14,1739.6000312671981,55.00000176,0.0,0.285162009125184,1739.6000312671981,55.00000176,0.35999970196000003,0.3372700107926401,1684,0.0,99,GPS_Atti,
0.36965608149416795,36.9022759003684,14300,2017-11-16 06:29:14,1740.100031283198,55.500001776,0.0,0.28235300903529603,1740.100031283198,55.500001776,0.35999970196000003,0.3372700107926401,1684,0.0,99,GPS_Atti,
0.369656111213271,36.902275861663604,14400,2017-11-16 06:29:14,1740.6000312991982,56.000001792,0.0,0.28027200896870397,1740.6000312991982,56.000001792,0.35999970196000003,0.3372700107926401,1684,0.0,99,GPS_Atti,
0.369656162323614,36.9022758257114,14500,2017-11-16 06:29:14,1741.200031318398,56.600001811199995,0.0,0.27591400882924805,1741.200031318398,56.600001811199995,0.35999970196000003,0.3372700107926401,1684,0.0,99,GPS_Atti,
0.369656220691932,36.902275788478704,14600,2017-11-16 06:29:14,1741.7000313343979,57.100001827199996,0.0,0.27093800867001605,1741.7000313343979,57.100001827199996,0.35999970196000003,0.3372700107926401,1684,0.0,99,GPS_Atti,
0.36965628585737603,36.9022757683865,14700,2017-11-16 06:29:14,1742.2000313503981,57.600001843200005,0.0,0.264759008472288,1742.2000313503981,57.600001843200005,0.35999970196000003,0.3372700107926401,1684,0.0,99,GPS_Atti,
0.3696563380099229,36.9022757721776,14800,2017-11-16 06:29:15,1742.700031366398,58.100001859200006,0.0,0.259136008292352,1742.700031366398,58.100001859200006,0.35999970196000003,0.3372700107926401,1684,0.0,99,GPS_Atti,
0.369656388314187,36.902275784177,14900,2017-11-16 06:29:15,1743.200031382398,58.60000187520001,0.0,0.253414008109248,1743.200031382398,58.60000187520001,0.35999970196000003,0.3372700107926401,1684,0.0,99,GPS_Atti,
0.369656460304439,36.902275785113794,15000,2017-11-16 06:29:15,1743.700031398398,59.1000018912,0.0,0.24583300786665602,1743.700031398398,59.1000018912,0.35999970196000003,0.3372700107926401,1684,0.0,99,GPS_Atti,
0.3696565413879221,36.9022758011173,15100,2017-11-16 06:29:15,1744.2000314143982,59.6000019072,0.0,0.23675100757603199,1744.2000314143982,59.6000019072,0.35999970196000003,0.3372700107926401,1684,0.0,99,GPS_Atti,
0.36965660797825395,36.90227582880971,15200,2017-11-16 06:29:15,1744.700031430398,60.100001923200004,0.0,0.22873800731961602,1744.700031430398,60.100001923200004,0.35999970196000003,0.3372700107926401,1684,0.0,99,GPS_Atti,
0.36965666874038505,36.9022758484897,15300,2017-11-16 06:29:15,1745.2000314463983,60.600001939200006,0.0,0.221641007092512,1745.2000314463983,60.600001939200006,0.35999970196000003,0.3372700107926401,1684,0.0,99,GPS_Atti,
0.369656720262725,36.902275848286294,15400,2017-11-16 06:29:15,1745.700031462398,61.10000195520001,0.0,0.216278006920896,1745.700031462398,61.10000195520001,0.35999970196000003,0.3372700107926401,1684,0.0,99,GPS_Atti,
0.36965680771831,36.902275862630404,15600,2017-11-16 06:29:15,1746.7000314943982,62.1000019872,0.0,0.20662400661196803,1746.7000314943982,62.1000019872,0.35999970196000003,0.3372700107926401,1684,0.0,99,GPS_Atti,
0.36965686724933705,36.902275867219,15700,2017-11-16 06:29:15,1747.200031510398,62.600002003200004,0.0,0.200276006408832,1747.200031510398,62.600002003200004,0.35999970196000003,0.3372700107926401,1684,0.0,99,GPS_Atti,
0.369656939882824,36.902275860467704,15800,2017-11-16 06:29:15,1747.700031526398,63.100002019200005,0.0,0.193087006178784,1747.700031526398,63.100002019200005,0.35999970196000003,0.3372700107926401,1684,0.0,99,GPS_Atti,
0.36965702704366105,36.9022758427073,15900,2017-11-16 06:29:15,1748.3000315455981,63.7000020384,0.0,0.18500500592016,1748.3000315455981,63.7000020384,0.35999970196000003,0.3372700107926401,1684,0.0,99,GPS_Atti,
0.369657085703471,36.9022758189922,16000,2017-11-16 06:29:16,1748.8000315615982,64.2000020544,0.0,0.180241005767712,1748.8000315615982,64.2000020544,0.35999970196000003,0.3372700107926401,1684,0.0,99,GPS_Atti,
0.36965713997950894,36.902275799935296,16100,2017-11-16 06:29:16,1749.300031577598,64.7000020704,0.0,0.17581900562620803,1749.300031577598,64.7000020704,0.35999970196000003,0.3372700107926401,1684,0.0,99,GPS_Atti,
0.369657208996223,36.902275769042795,16300,2017-11-16 06:29:16,1750.3000316095981,65.7000021024,0.0,0.170746005463872,1750.3000316095981,65.7000021024,0.35999970196000003,0.3372700107926401,1684,0.0,98,GPS_Atti,
0.369657238203994,36.902275748331796,16400,2017-11-16 06:29:16,1750.800031625598,66.20000211840001,0.0,0.16911700541174401,1750.800031625598,66.20000211840001,0.35999970196000003,0.3372700107926401,1684,0.0,98,GPS_Atti,
0.3696572728882229,36.9022757384201,16500,2017-11-16 06:29:16,1751.3000316415983,66.7000021344,0.0,0.16641000532512,1751.3000316415983,66.7000021344,0.35999970196000003,0.3372700107926401,1684,0.0,98,GPS_Atti,
0.369657294978066,36.902275744998995,16600,2017-11-16 06:29:16,1751.800031657598,67.2000021504,0.0,0.16394300524617603,1751.800031657598,67.2000021504,0.35999970196000003,0.3372700107926401,1684,0.0,98,GPS_Atti,
0.369657333891363,36.9022757478768,16700,2017-11-16 06:29:16,1752.3000316735981,67.70000216640001,0.0,0.160129005124128,1752.3000316735981,67.70000216640001,0.35999970196000003,0.3372700107926401,1684,0.0,98,GPS_Atti,
0.369657367004144,36.902275739637396,16800,2017-11-16 06:29:16,1752.800031689598,68.2000021824,0.0,0.15757000504224003,1752.800031689598,68.2000021824,0.35999970196000003,0.3372700107926401,1684,0.0,98,GPS_Atti,
0.369657408540865,36.9022757362039,16900,2017-11-16 06:29:16,1753.3000317055983,68.7000021984,0.0,0.153987004927584,1753.3000317055983,68.7000021984,0.35999970196000003,0.3372700107926401,1684,0.0,98,GPS_Atti,
0.3696574160186789,36.902275742909204,17000,2017-11-16 06:29:17,1753.800031721598,69.2000022144,0.0,0.15287800489209602,1753.800031721598,69.2000022144,0.35999970196000003,0.3372700107926401,1684,0.0,98,GPS_Atti,
0.369657434695304,36.902275767460395,17100,2017-11-16 06:29:17,1754.300031737598,69.7000022304,0.0,0.149611004787552,1754.300031737598,69.7000022304,0.35999970196000003,0.3372700107926401,1684,0.0,98,GPS_Atti,
0.369657463606698,36.90227579925121,17200,2017-11-16 06:29:17,1754.8000317535982,70.2000022464,0.0,0.14495900463868802,1754.8000317535982,70.2000022464,0.35999970196000003,0.3372700107926401,1684,0.0,98,GPS_Atti,
0.36965750529974994,36.9022758315055,17300,2017-11-16 06:29:17,1755.300031769598,70.7000022624,0.0,0.13910700445142402,1755.300031769598,70.7000022624,0.35999970196000003,0.3372700107926401,1684,0.0,98,GPS_Atti,
0.36965753212510793,36.9022758388542,17500,2017-11-16 06:29:17,1756.3000318015982,71.7000022944,0.0,0.13618400435788802,1756.3000318015982,71.7000022944,0.35999970196000003,0.3372700107926401,1684,0.0,98,GPS_Atti,
0.3696575574360129,36.9022758521277,17600,2017-11-16 06:29:17,1756.8000318175982,72.2000023104,0.0,0.13303000425696002,1756.8000318175982,72.2000023104,0.35999970196000003,0.3372700107926401,1684,0.0,98,GPS_Atti,
0.369657595180088,36.902275867495206,17700,2017-11-16 06:29:17,1757.300031833598,72.70000232640001,0.0,0.128611004115552,1757.300031833598,72.70000232640001,0.35999970196000003,0.3372700107926401,1684,0.0,98,GPS_Atti,
0.36965764077163504,36.902275882303904,17800,2017-11-16 06:29:17,1757.8000318495983,73.2000023424,0.0,0.123529003952928,1757.8000318495983,73.2000023424,0.35999970196000003,0.3372700107926401,1684,0.0,98,GPS_Atti,
0.369657692847645,36.902275922821204,17900,2017-11-16 06:29:18,1758.3000318655982,73.7000023584,0.0,0.11619600371827202,1758.3000318655982,73.7000023584,0.35999970196000003,0.3372700107926401,1684,0.0,98,GPS_Atti,
0.369657723815765,36.9022759824179,18000,2017-11-16 06:29:18,1758.800031881598,74.2000023744,0.0,0.10957600350643203,1758.800031881598,74.2000023744,0.35999970196000003,0.3372700107926401,1517,0.0,98,GPS_Atti,
0.36965776370938597,36.9022760343897,18100,2017-11-16 06:29:18,1759.300031897598,74.7000023904,0.0,0.10269000328608001,1759.300031897598,74.7000023904,0.35999970196000003,0.3372700107926401,1037,0.0,98,GPS_Atti,
0.369657794719845,36.9022760489361,18200,2017-11-16 06:29:18,1759.800031913598,75.20000240640002,0.0,0.098916003165312,1759.800031913598,75.20000240640002,0.35999970196000003,0.3372700107926401,1024,0.0,98,GPS_Atti,
0.3696578427296311,36.9022760508579,18300,2017-11-16 06:29:18,1760.2000319263982,75.60000241920001,0.0,0.09436510301968322,1760.2000319263982,75.60000241920001,0.35999970196000003,0.3372700107926401,1024,0.0,98,GPS_Atti,
0.369657892516049,36.902276060636794,18400,2017-11-16 06:29:18,1760.600031939198,76.000002432,0.0,0.0892242028551744,1760.600031939198,76.000002432,0.35999970196000003,0.3372700107926401,1024,0.0,98,GPS_Atti,
0.369657957412799,36.902276076495795,18500,2017-11-16 06:29:18,1761.0000319519982,76.4000024448,0.0,0.08240700263702401,1761.0000319519982,76.4000024448,0.35999970196000003,0.3372700107926401,1024,0.0,98,GPS_Atti,
0.3696580064973579,36.9022760710914,18600,2017-11-16 06:29:18,1761.200031958398,76.6000024512,0.0,0.078580502514576,1761.200031958398,76.6000024512,0.35999970196000003,0.3372700107926401,1024,0.0,98,GPS_Atti,
0.369658058912085,36.9022760475058,18700,2017-11-16 06:29:18,1761.400031964798,76.8000024576,0.0,0.07612000243584,1761.400031964798,76.8000024576,0.35999970196000003,0.3372700107926401,1024,0.0,98,GPS_Atti,
0.36965809727171206,36.9022760170383,18800,2017-11-16 06:29:18,1761.500031967998,76.9000024608,0.0,0.0757250024232,1761.500031967998,76.9000024608,0.35999970196000003,0.3372700107926401,1024,0.0,98,GPS_Atti,
0.36965812388211494,36.9022759805883,18900,2017-11-16 06:29:19,1761.500031967998,76.9000024608,0.0,0.0770349024651168,1761.500031967998,76.9000024608,0.35999970196000003,0.3372700107926401,1024,0.0,98,GPS_Atti,
0.369658114995696,36.90227594086,19000,2017-11-16 06:29:19,1761.500031967998,76.9000024608,0.0,0.0811817025978144,1761.500031967998,76.9000024608,0.35999970196000003,0.3372700107926401,1024,0.0,98,GPS_Atti,
0.36965808925325294,36.902275874500205,19100,2017-11-16 06:29:19,1761.500031967998,76.9000024608,0.0,0.0888698028438336,1761.500031967998,76.9000024608,0.35999970196000003,0.3372700107926401,1024,0.0,98,GPS_Atti,
0.369658003571044,36.9022757754429,19200,2017-11-16 06:29:19,1761.500031967998,76.9000024608,0.0,0.10335400330732801,1761.500031967998,76.9000024608,0.35999970196000003,0.3372700107926401,1024,0.0,98,GPS_Atti,
0.36965789994989595,36.9022756345065,19300,2017-11-16 06:29:19,1761.600031971198,77.000002464,0.0,0.12280400392972801,1761.600031971198,77.000002464,0.35999970196000003,0.3372700107926401,1024,0.0,98,GPS_Atti,
0.36965779785297104,36.9022754771736,19400,2017-11-16 06:29:19,1761.600031971198,77.000002464,0.0,0.14364500459664,1761.600031971198,77.000002464,0.35999970196000003,0.3372700107926401,1024,0.0,98,GPS_Atti,
0.36965767419707596,36.9022752965817,19500,2017-11-16 06:29:19,1761.600031971198,77.000002464,0.0,0.167983005375456,1761.600031971198,77.000002464,0.35999970196000003,0.3372700107926401,858,0.0,98,GPS_Atti,
0.36965758994464004,36.902275078649,19600,2017-11-16 06:29:19,1761.600031971198,77.000002464,0.0,0.193311006185952,1761.600031971198,77.000002464,0.35999970196000003,0.3372700107926401,805,0.0,98,GPS_Atti,
0.369657477178151,36.9022748591307,19700,2017-11-16 06:29:19,1761.600031971198,77.000002464,0.0,0.220626007060032,1761.600031971198,77.000002464,0.35999970196000003,0.3372700107926401,790,0.0,98,GPS_Atti,
0.369657344398084,36.9022746062671,19800,2017-11-16 06:29:19,1761.500031967998,76.9000024608,0.0,0.25229400807340807,1761.600031971198,77.000002464,0.35999970196000003,0.3372700107926401,788,0.0,98,GPS_Atti,
0.369657215470916,36.902274376956,19900,2017-11-16 06:29:20,1761.500031967998,76.9000024608,0.0,0.281524009008768,1761.600031971198,77.000002464,0.35999970196000003,0.3372700107926401,812,0.0,98,GPS_Atti,
0.369657105941773,36.902274145550706,20000,2017-11-16 06:29:20,1761.400031964798,76.8000024576,0.0,0.309842009914944,1761.600031971198,77.000002464,0.35999970196000003,0.3372700107926401,1024,0.0,98,GPS_Atti,
0.369656980559727,36.9022739042026,20100,2017-11-16 06:29:20,1761.400031964798,76.8000024576,0.0,0.34003501088112,1761.600031971198,77.000002464,0.35999970196000003,0.34003501088112,1024,0.0,98,GPS_Atti,
0.36965691317145793,36.9022736592851,20200,2017-11-16 06:29:20,1761.3000319615983,76.70000245439999,0.0,0.367359011755488,1761.600031971198,77.000002464,0.35999970196000003,0.367359011755488,1024,0.0,98,GPS_Atti,
0.369656813202909,36.9022733760268,20300,2017-11-16 06:29:20,1761.3000319615983,76.70000245439999,0.0,0.40029101280931195,1761.600031971198,77.000002464,0.35999970196000003,0.40029101280931195,1024,0.0,98,GPS_Atti,
0.369656683034867,36.902273100882795,20400,2017-11-16 06:29:20,1761.3000319615983,76.70000245439999,0.35999970196000003,0.4340860138907521,1761.600031971198,77.000002464,0.35999970196000003,0.4340860138907521,1024,0.0,98,GPS_Atti,
0.3696565360026579,36.90227282250329,20500,2017-11-16 06:29:20,1761.3000319615983,76.70000245439999,0.35999970196000003,0.46909501501104,1761.600031971198,77.000002464,0.35999970196000003,0.46909501501104,1024,0.0,98,GPS_Atti,
0.36965642570163204,36.902272534074,20600,2017-11-16 06:29:20,1761.3000319615983,76.70000245439999,0.35999970196000003,0.5031650161012801,1761.600031971198,77.000002464,0.35999970196000003,0.5031650161012801,1024,0.0,98,GPS_Atti,
0.36965630334360705,36.902272271743,20700,2017-11-16 06:29:20,1761.3000319615983,76.70000245439999,0.35999970196000003,0.535317017130144,1761.600031971198,77.000002464,0.35999970196000003,0.535317017130144,887,0.0,98,GPS_Atti,
0.36965624487595394,36.9022720674049,20800,2017-11-16 06:29:20,1761.3000319615983,76.70000245439999,0.0,0.55848001787136,1761.600031971198,77.000002464,0.35999970196000003,0.55848001787136,688,0.0,98,GPS_Atti,
0.36965616012195796,36.9022718820081,20900,2017-11-16 06:29:21,1761.3000319615983,76.70000245439999,0.0,0.5811260185960321,1761.600031971198,77.000002464,0.35999970196000003,0.5811260185960321,729,0.0,98,GPS_Atti,
0.36965611085175604,36.9022717159433,21000,2017-11-16 06:29:21,1761.3000319615983,76.70000245439999,0.0,0.600073019202336,1761.600031971198,77.000002464,0.35999970196000003,0.600073019202336,952,0.0,98,GPS_Atti,
0.369656048049185,36.9022715658788,21100,2017-11-16 06:29:21,1761.200031958398,76.6000024512,0.0,0.618119019779808,1761.600031971198,77.000002464,0.35999970196000003,0.618119019779808,1024,0.0,98,GPS_Atti,
0.369656028950794,36.902271456398104,21200,2017-11-16 06:29:21,1761.1000319551981,76.500002448,0.0,0.629964020158848,1761.600031971198,77.000002464,0.35999970196000003,0.629964020158848,1024,0.0,98,GPS_Atti,
0.36965597741705497,36.9022713368867,21300,2017-11-16 06:29:21,1761.0000319519982,76.4000024448,0.0,0.6444180206213761,1761.600031971198,77.000002464,0.35999970196000003,0.6444180206213761,1024,0.0,98,GPS_Atti,
0.369655792819901,36.902270963615706,21500,2017-11-16 06:29:21,1760.9000319487982,76.3000024416,0.0,0.6907260221032322,1761.600031971198,77.000002464,0.35999970196000003,0.6907260221032322,1024,0.0,98,GPS_Atti,
0.369655694375576,36.9022707820067,21600,2017-11-16 06:29:21,1760.9000319487982,76.3000024416,0.0,0.7136810228377921,1761.600031971198,77.000002464,0.35999970196000003,0.7136810228377921,1024,0.0,98,GPS_Atti,
0.369655604972372,36.9022706544186,21700,2017-11-16 06:29:21,1760.9000319487982,76.3000024416,0.0,0.730812023385984,1761.600031971198,77.000002464,0.35999970196000003,0.730812023385984,1024,0.0,98,GPS_Atti,
0.36965559438585704,36.902270570579,21800,2017-11-16 06:29:21,1760.9000319487982,76.3000024416,0.0,0.7396860236699521,1761.600031971198,77.000002464,0.35999970196000003,0.7396860236699521,933,0.0,98,GPS_Atti,
0.36965559179825996,36.9022705173439,21900,2017-11-16 06:29:21,1760.9000319487982,76.3000024416,0.0,0.745125023844,1761.600031971198,77.000002464,0.35999970196000003,0.745125023844,933,0.0,98,GPS_Atti,
0.369655631364564,36.902270447020705,22000,2017-11-16 06:29:22,1760.9000319487982,76.3000024416,0.0,0.750247024007904,1761.600031971198,77.000002464,0.35999970196000003,0.750247024007904,830,0.0,98,GPS_Atti,
0.36965567122235904,36.90227040263,22100,2017-11-16 06:29:22,1760.9000319487982,76.3000024416,0.0,0.75281502409008,1761.600031971198,77.000002464,0.35999970196000003,0.75281502409008,832,0.0,98,GPS_Atti,
0.369655703206627,36.902270394792,22200,2017-11-16 06:29:22,1760.9000319487982,76.3000024416,0.0,0.7521060240673921,1761.600031971198,77.000002464,0.35999970196000003,0.75281502409008,828,0.0,98,GPS_Atti,
0.369655741904971,36.9022704125888,22300,2017-11-16 06:29:22,1760.800031945598,76.2000024384,0.0,0.7485110239523521,1761.600031971198,77.000002464,0.35999970196000003,0.75281502409008,828,0.0,98,GPS_Atti,
0.3696557807547589,36.9022704576562,22400,2017-11-16 06:29:22,1760.800031945598,76.2000024384,0.0,0.742159023749088,1761.600031971198,77.000002464,0.35999970196000003,0.75281502409008,836,0.0,98,GPS_Atti,
0.36965580227627504,36.9022705083101,22500,2017-11-16 06:29:22,1760.700031942398,76.10000243520001,0.0,0.7360400235532801,1761.600031971198,77.000002464,0.35999970196000003,0.75281502409008,838,0.0,98,GPS_Atti,
0.369655776217914,36.9022705013575,22600,2017-11-16 06:29:22,1760.700031942398,76.10000243520001,0.0,0.737947023614304,1761.600031971198,77.000002464,0.35999970196000003,0.75281502409008,965,0.0,98,GPS_Atti,
0.36965576013703005,36.9022705155292,22700,2017-11-16 06:29:22,1760.600031939198,76.000002432,0.0,0.737262023592384,1761.600031971198,77.000002464,0.35999970196000003,0.75281502409008,1024,0.0,98,GPS_Atti,
0.36965574785530503,36.9022705488135,22800,2017-11-16 06:29:22,1760.600031939198,76.000002432,0.0,0.7344800235033601,1761.600031971198,77.000002464,0.35999970196000003,0.75281502409008,1024,0.0,98,GPS_Atti,
0.369655734173119,36.902270586358796,22900,2017-11-16 06:29:22,1760.600031939198,76.000002432,0.0,0.7313460234030721,1761.600031971198,77.000002464,0.35999970196000003,0.75281502409008,1024,0.0,98,GPS_Atti,
0.36965571002655107,36.902270585794504,23000,2017-11-16 06:29:23,1760.600031939198,76.000002432,0.0,0.7325530234416961,1761.600031971198,77.000002464,0.35999970196000003,0.75281502409008,1024,0.0,98,GPS_Atti,
0.369655681465272,36.9022706210809,23100,2017-11-16 06:29:23,1760.600031939198,76.000002432,0.0,0.730388023372416,1761.600031971198,77.000002464,0.35999970196000003,0.75281502409008,1024,0.0,98,GPS_Atti,
0.36965570442633205,36.9022706865681,23200,2017-11-16 06:29:23,1760.600031939198,76.000002432,0.35999970196000003,0.7227210231270721,1761.600031971198,77.000002464,0.35999970196000003,0.75281502409008,1024,0.0,98,GPS_Atti,
0.369655724221697,36.902270775938504,23300,2017-11-16 06:29:23,1760.600031939198,76.000002432,0.35999970196000003,0.7128220228103039,1761.600031971198,77.000002464,0.35999970196000003,0.75281502409008,1024,0.0,98,GPS_Atti,
0.36965580099794604,36.902270867803395,23400,2017-11-16 06:29:23,1760.5000319359983,75.90000242880001,0.35999970196000003,0.699901022396832,1761.600031971198,77.000002464,0.35999970196000003,0.75281502409008,1024,0.0,98,GPS_Atti,
0.369655844086575,36.9022709716924,23500,2017-11-16 06:29:23,1760.5000319359983,75.90000242880001,0.35999970196000003,0.6874150219972801,1761.600031971198,77.000002464,0.35999970196000003,0.75281502409008,1024,0.0,98,GPS_Atti,
0.36965591303652207,36.9022710873153,23600,2017-11-16 06:29:23,1760.5000319359983,75.90000242880001,0.35999970196000003,0.6725010215200321,1761.600031971198,77.000002464,0.35999970196000003,0.75281502409008,1024,0.0,98,GPS_Atti,
0.36965595472306,36.902271198783104,23700,2017-11-16 06:29:23,1760.5000319359983,75.90000242880001,0.35999970196000003,0.6593240210983681,1761.600031971198,77.000002464,0.35999970196000003,0.75281502409008,944,0.0,98,GPS_Atti,
0.369656018611803,36.90227133852579,23800,2017-11-16 06:29:23,1760.5000319359983,75.90000242880001,0.35999970196000003,0.6422410205517122,1761.600031971198,77.000002464,0.35999970196000003,0.75281502409008,893,0.0,98,GPS_Atti,
0.36965605659688794,36.9022714670581,23900,2017-11-16 06:29:24,1760.5000319359983,75.90000242880001,0.35999970196000003,0.6275420200813441,1761.600031971198,77.000002464,0.35999970196000003,0.75281502409008,847,0.0,98,GPS_Atti,
0.369656166684587,36.9022716987868,24100,2017-11-16 06:29:24,1760.400031932798,75.80000242560001,0.35999970196000003,0.59901501916848,1761.600031971198,77.000002464,0.35999970196000003,0.75281502409008,899,0.0,98,GPS_Atti,
0.369656202314942,36.9022718185379,24200,2017-11-16 06:29:24,1760.400031932798,75.80000242560001,0.35999970196000003,0.58532001873024,1761.600031971198,77.000002464,0.35999970196000003,0.75281502409008,1024,0.0,98,GPS_Atti,
0.369656229254291,36.902271941988104,24300,2017-11-16 06:29:24,1760.400031932798,75.80000242560001,0.35999970196000003,0.5717000182944001,1761.600031971198,77.000002464,0.35999970196000003,0.75281502409008,1024,0.0,98,GPS_Atti,
0.369656279281719,36.902272073156205,24400,2017-11-16 06:29:24,1760.3000319295982,75.7000024224,0.35999970196000003,0.556171017797472,1761.600031971198,77.000002464,0.35999970196000003,0.75281502409008,1024,0.0,98,GPS_Atti,
0.369656296807033,36.9022721645887,24500,2017-11-16 06:29:24,1760.3000319295982,75.7000024224,0.0,0.5462280174792961,1761.600031971198,77.000002464,0.35999970196000003,0.75281502409008,1024,0.0,98,GPS_Atti,
0.369656373146859,36.9022722232603,24600,2017-11-16 06:29:24,1760.3000319295982,75.7000024224,0.0,0.5365660171701121,1761.600031971198,77.000002464,0.35999970196000003,0.75281502409008,1024,0.0,98,GPS_Atti,
0.36965642182593605,36.9022722855989,24700,2017-11-16 06:29:24,1760.3000319295982,75.7000024224,0.0,0.5279440168942079,1761.600031971198,77.000002464,0.35999970196000003,0.75281502409008,1024,0.0,98,GPS_Atti,
0.3696565031048329,36.9022723644955,24800,2017-11-16 06:29:24,1760.3000319295982,75.7000024224,0.0,0.516076016514432,1761.600031971198,77.000002464,0.35999970196000003,0.75281502409008,1024,0.0,98,GPS_Atti,
0.36965656032346894,36.9022724469058,24900,2017-11-16 06:29:24,1760.3000319295982,75.7000024224,0.0,0.5050520161616641,1761.600031971198,77.000002464,0.35999970196000003,0.75281502409008,1024,0.0,98,GPS_Atti,
0.36965668861391604,36.902272551252,25000,2017-11-16 06:29:25,1760.3000319295982,75.7000024224,0.0,0.48845101563043203,1761.600031971198,77.000002464,0.35999970196000003,0.75281502409008,1024,0.0,98,GPS_Atti,
0.369656777049824,36.9022726454722,25100,2017-11-16 06:29:25,1760.3000319295982,75.7000024224,0.0,0.474826015194432,1761.600031971198,77.000002464,0.35999970196000003,0.75281502409008,1024,0.0,98,GPS_Atti,
0.369656870033976,36.9022727512776,25200,2017-11-16 06:29:25,1760.3000319295982,75.7000024224,0.0,0.4598630147156161,1761.600031971198,77.000002464,0.35999970196000003,0.75281502409008,1024,0.0,98,GPS_Atti,
0.36965692520565896,36.9022728438117,25300,2017-11-16 06:29:25,1760.400031932798,75.80000242560001,0.0,0.44797401433516804,1761.600031971198,77.000002464,0.35999970196000003,0.75281502409008,1024,0.0,98,GPS_Atti,
0.36965701704012893,36.9022729415575,25400,2017-11-16 06:29:25,1760.400031932798,75.80000242560001,0.0,0.43395001388640003,1761.600031971198,77.000002464,0.35999970196000003,0.75281502409008,1024,0.0,98,GPS_Atti,
0.369657075353081,36.90227302400321,25500,2017-11-16 06:29:25,1760.400031932798,75.80000242560001,0.0,0.4229850135355201,1761.600031971198,77.000002464,0.35999970196000003,0.75281502409008,1024,0.0,98,GPS_Atti,
0.369657191568615,36.9022731092667,25600,2017-11-16 06:29:25,1760.400031932798,75.80000242560001,0.0,0.409341013098912,1761.600031971198,77.000002464,0.35999970196000003,0.75281502409008,1024,0.0,98,GPS_Atti,
0.369657277706789,36.9022731736683,25700,2017-11-16 06:29:25,1760.400031932798,75.80000242560001,0.0,0.39921801277497604,1761.600031971198,77.000002464,0.35999970196000003,0.75281502409008,1024,0.0,98,GPS_Atti,
0.369657375038886,36.9022731722316,25800,2017-11-16 06:29:25,1760.400031932798,75.80000242560001,0.0,0.39569201266214404,1761.600031971198,77.000002464,0.35999970196000003,0.75281502409008,1024,0.0,98,GPS_Atti,
0.36965743496562503,36.9022731813253,25900,2017-11-16 06:29:25,1760.400031932798,75.80000242560001,0.0,0.39260001256320004,1761.600031971198,77.000002464,0.35999970196000003,0.75281502409008,1024,0.0,98,GPS_Atti,
0.369657526510233,36.9022731555504,26000,2017-11-16 06:29:26,1760.400031932798,75.80000242560001,0.0,0.39227801255289607,1761.600031971198,77.000002464,0.35999970196000003,0.75281502409008,1024,0.0,98,GPS_Atti,
0.369657579947623,36.902273149942495,26100,2017-11-16 06:29:26,1760.400031932798,75.80000242560001,0.0,0.391212012518784,1761.600031971198,77.000002464,0.35999970196000003,0.75281502409008,1024,0.0,98,GPS_Atti,
0.369657635860247,36.902273171028206,26200,2017-11-16 06:29:26,1760.400031932798,75.80000242560001,0.0,0.387296012393472,1761.600031971198,77.000002464,0.35999970196000003,0.75281502409008,1024,0.0,98,GPS_Atti,
0.36965765591779204,36.902273200683105,26300,2017-11-16 06:29:26,1760.400031932798,75.80000242560001,0.0,0.3835340122730881,1761.600031971198,77.000002464,0.35999970196000003,0.75281502409008,1024,0.0,98,GPS_Atti,
0.369657647777201,36.9022731688409,26400,2017-11-16 06:29:26,1760.400031932798,75.80000242560001,0.0,0.38718901239004805,1761.600031971198,77.000002464,0.35999970196000003,0.75281502409008,1024,0.0,98,GPS_Atti,
0.36965762776850897,36.9022731540986,26500,2017-11-16 06:29:26,1760.400031932798,75.80000242560001,0.0,0.38934801245913603,1761.600031971198,77.000002464,0.35999970196000003,0.75281502409008,1024,0.0,98,GPS_Atti,
0.369657651108997,36.9022731235059,26600,2017-11-16 06:29:26,1760.400031932798,75.80000242560001,0.0,0.39197101254307204,1761.600031971198,77.000002464,0.35999970196000003,0.75281502409008,1024,0.0,98,GPS_Atti,
0.369657652004641,36.9022731105429,26700,2017-11-16 06:29:26,1760.400031932798,75.80000242560001,0.0,0.393341012586912,1761.600031971198,77.000002464,0.35999970196000003,0.75281502409008,1024,-0.6,98,GPS_Atti,
0.36965765988793897,36.9022730503916,26800,2017-11-16 06:29:26,1760.3000319295982,75.7000024224,0.0,0.39960301278729604,1761.600031971198,77.000002464,0.35999970196000003,0.75281502409008,1024,-2.9,98,GPS_Atti,
0.36965763911062205,36.9022730270544,26900,2017-11-16 06:29:26,1760.3000319295982,75.7000024224,0.0,0.402689012886048,1761.600031971198,77.000002464,0.35999970196000003,0.75281502409008,1024,-7.5,98,GPS_Atti,
0.369657622425584,36.9022730125262,27000,2017-11-16 06:29:27,1760.3000319295982,75.7000024224,0.0,0.40471801295097604,1761.600031971198,77.000002464,0.35999970196000003,0.75281502409008,1024,-13.2,98,GPS_Atti,
0.369657584507266,36.9022730161181,27100,2017-11-16 06:29:27,1760.3000319295982,75.7000024224,0.0,0.405416012973312,1761.600031971198,77.000002464,0.35999970196000003,0.75281502409008,1024,-18.8,98,GPS_Atti,
0.36965753048852207,36.9022729730795,27200,2017-11-16 06:29:27,1760.3000319295982,75.7000024224,0.0,0.41163401317228804,1761.600031971198,77.000002464,0.35999970196000003,0.75281502409008,1024,-21.1,98,GPS_Atti,
0.369657465723676,36.9022729593061,27300,2017-11-16 06:29:27,1760.3000319295982,75.7000024224,0.0,0.4151230132839361,1761.600031971198,77.000002464,0.35999970196000003,0.75281502409008,1024,-21.1,98,GPS_Atti,
0.36965744405722795,36.9022728970254,27400,2017-11-16 06:29:27,1760.3000319295982,75.7000024224,0.0,0.4224500135184001,1761.600031971198,77.000002464,0.35999970196000003,0.75281502409008,1024,-22.1,98,GPS_Atti,
0.3696574014082801,36.9022728694336,27500,2017-11-16 06:29:27,1760.3000319295982,75.7000024224,0.0,0.426772013656704,1761.600031971198,77.000002464,0.35999970196000003,0.75281502409008,1024,-24.0,98,GPS_Atti,
0.369657365317076,36.902272797866395,27600,2017-11-16 06:29:27,1760.3000319295982,75.7000024224,0.0,0.43556501393808,1761.600031971198,77.000002464,0.35999970196000003,0.75281502409008,1024,-24.0,98,GPS_Atti,
0.36965732338464297,36.9022727566275,27700,2017-11-16 06:29:27,1760.3000319295982,75.7000024224,0.0,0.44134901412316807,1761.600031971198,77.000002464,0.35999970196000003,0.75281502409008,1024,-25.3,98,GPS_Atti,
0.36965729309721296,36.9022726327266,27800,2017-11-16 06:29:27,1760.3000319295982,75.7000024224,0.0,0.4554980145759361,1761.600031971198,77.000002464,0.35999970196000003,0.75281502409008,1024,-25.3,98,GPS_Atti,
0.369657248334544,36.9022725581756,27900,2017-11-16 06:29:27,1760.3000319295982,75.7000024224,0.0,0.4649150148772801,1761.600031971198,77.000002464,0.35999970196000003,0.75281502409008,1024,-25.3,98,GPS_Atti,
0.36965724876933903,36.902272458194396,28000,2017-11-16 06:29:28,1760.3000319295982,75.7000024224,0.0,0.47548701521558395,1761.600031971198,77.000002464,0.35999970196000003,0.75281502409008,1024,-25.3,98,GPS_Atti,
0.369657225222039,36.9022724010868,28100,2017-11-16 06:29:28,1760.3000319295982,75.7000024224,0.0,0.482333015434656,1761.600031971198,77.000002464,0.35999970196000003,0.75281502409008,1024,-25.4,98,GPS_Atti,
0.369657193938001,36.9022722859725,28200,2017-11-16 06:29:28,1760.3000319295982,75.7000024224,0.0,0.49558601585875206,1761.600031971198,77.000002464,0.35999970196000003,0.75281502409008,1024,-26.4,98,GPS_Atti,
0.36965714329339294,36.902272223578294,28300,2017-11-16 06:29:28,1760.3000319295982,75.7000024224,0.0,0.503912016125184,1761.600031971198,77.000002464,0.35999970196000003,0.75281502409008,1024,-27.6,98,GPS_Atti,
0.36965709462083,36.902272106050795,28400,2017-11-16 06:29:28,1760.3000319295982,75.7000024224,0.0,0.51801501657648,1761.600031971198,77.000002464,0.35999970196000003,0.75281502409008,1024,-28.3,98,GPS_Atti,
0.36965704708655,36.9022720054732,28500,2017-11-16 06:29:28,1760.3000319295982,75.7000024224,0.0,0.53029001696928,1761.600031971198,77.000002464,0.35999970196000003,0.75281502409008,1024,-28.3,98,GPS_Atti,
0.369656994929117,36.9022719560131,28600,2017-11-16 06:29:28,1760.3000319295982,75.7000024224,0.0,0.537343017194976,1761.600031971198,77.000002464,0.35999970196000003,0.75281502409008,1024,-28.3,98,GPS_Atti,
0.36965694446038105,36.9022719247769,28700,2017-11-16 06:29:28,1760.3000319295982,75.7000024224,0.0,0.542446017358272,1761.600031971198,77.000002464,0.35999970196000003,0.75281502409008,1024,-28.3,98,GPS_Atti,
0.36965691238980397,36.902271827273104,28800,2017-11-16 06:29:28,1760.3000319295982,75.7000024224,0.0,0.553858017723456,1761.600031971198,77.000002464,0.35999970196000003,0.75281502409008,1024,-28.3,98,GPS_Atti,
