latitude,longitude,time_millisecond,datetime_utc,altitude_m,ascent_m,speed_kph,distance_m,max_altitude_m,max_ascent_m,max_speed_kph,max_distance_m,rc_throttle,gimbal_pitch_degrees,battery_percent,flycState,message
0.35051968683768603,36.8971295665923,0,2018-04-17 05:46:31,1765.9627030108172,0.0,0.0,0.0,1765.9627030108172,0.0,0.0,0.0,364,0.0,99,Motors_Started,
0.350519682731564,36.897129581610706,100,2018-04-17 05:46:31,1765.9627030108172,0.0,0.0,0.0017314000554048,1765.9627030108172,0.0,0.0,0.0017314000554048,364,0.0,99,Motors_Started,
0.350519682869982,36.8971295816663,200,2018-04-17 05:46:31,1765.9627030108172,0.0,0.0,0.0017333900554684803,1765.9627030108172,0.0,0.0,0.0017333900554684803,364,0.0,99,Motors_Started,
0.35051968291964897,36.8971295579976,300,2018-04-17 05:46:31,1765.9627030108172,0.0,0.0,0.0010504000336128,1765.9627030108172,0.0,0.0,0.0017333900554684803,364,0.0,99,Motors_Started,
0.35051970125429993,36.8971295295325,400,2018-04-17 05:46:31,1765.9627030108172,0.0,0.0,0.00442206014150592,1765.9627030108172,0.0,0.0,0.00442206014150592,364,0.0,99,Motors_Started,
0.350519732688155,36.897129512090395,500,2018-04-17 05:46:31,1765.9627030108172,0.0,0.0,0.007920360253451521,1765.9627030108172,0.0,0.0,0.007920360253451521,364,0.0,99,Motors_Started,
0.35051977196948103,36.8971294937243,600,2018-04-17 05:46:31,1765.9627030108172,0.0,0.0,0.012461500398768002,1765.9627030108172,0.0,0.0,0.012461500398768002,364,0.0,99,Motors_Started,
0.350519793388405,36.897129482687504,700,2018-04-17 05:46:32,1765.9627030108172,0.0,0.0,0.015081800482617603,1765.9627030108172,0.0,0.0,0.015081800482617603,364,0.0,99,Motors_Started,
0.35051981682252803,36.8971294732437,800,2018-04-17 05:46:32,1765.9627030108172,0.0,0.0,0.017796300569481602,1765.9627030108172,0.0,0.0,0.017796300569481602,364,0.0,99,Motors_Started,Setting new Return-To-Home altitude to 45m (148 ft). Setting new Maximum Flight Altitude to 150m (492 ft)
0.350519830391945,36.8971294665889,900,2018-04-17 05:46:32,1765.9627030108172,0.0,0.0,0.0194557006225824,1765.9627030108172,0.0,0.0,0.0194557006225824,364,0.0,99,Motors_Started,
0.35051984291549293,36.8971294624575,1000,2018-04-17 05:46:32,1765.9627030108172,0.0,0.0,0.0208653006676896,1765.9627030108172,0.0,0.0,0.0208653006676896,364,0.0,99,Motors_Started,
0.350519850137236,36.897129459175,1100,2018-04-17 05:46:32,1765.9627030108172,0.0,0.0,0.021736400695564803,1765.9627030108172,0.0,0.0,0.021736400695564803,449,0.0,99,Motors_Started,
0.350519854304831,36.897129459693204,1200,2018-04-17 05:46:32,1765.9627030108172,0.0,0.0,0.022094000707008,1765.9627030108172,0.0,0.0,0.022094000707008,545,0.0,99,Motors_Started,
0.35051985720793893,36.8971294584074,1300,2018-04-17 05:46:32,1765.9627030108172,0.0,0.0,0.0224431007181792,1765.9627030108172,0.0,0.0,0.0224431007181792,652,0.0,99,Motors_Started,
0.35051987355141,36.8971294441481,1400,2018-04-17 05:46:32,1765.9627030108172,0.0,0.0,0.0248301007945632,1765.9627030108172,0.0,0.0,0.0248301007945632,765,0.0,99,Motors_Started,
0.35051990362225705,36.897129413801,1500,2018-04-17 05:46:32,1765.9627030108172,0.0,0.0,0.0294937009437984,1765.9627030108172,0.0,0.0,0.0294937009437984,880,0.0,99,Motors_Started,
0.350519933345024,36.897129384003,1600,2018-04-17 05:46:32,1765.9627030108172,0.0,0.0,0.0341139010916448,1765.9627030108172,0.0,0.0,0.0341139010916448,990,0.0,99,Assisted_Takeoff,
0.35051995053772905,36.897129364902504,1700,2018-04-17 05:46:33,1765.9627030108172,0.0,0.0,0.0369189011814048,1765.9627030108172,0.0,0.0,0.0369189011814048,1024,0.0,99,Assisted_Takeoff,
0.350519963984605,36.8971293494784,1800,2018-04-17 05:46:33,1765.9627030108172,0.0,0.0,0.0391514012528448,1765.9627030108172,0.0,0.0,0.0391514012528448,1024,0.0,99,Assisted_Takeoff,
0.350519971790959,36.897129339256296,1900,2018-04-17 05:46:33,1765.9627030108172,0.0,0.0,0.0405373012971936,1765.9627030108172,0.0,0.0,0.0405373012971936,1024,0.0,99,Assisted_Takeoff,
0.350519975287635,36.8971293343198,2000,2018-04-17 05:46:33,1765.9627030108172,0.0,0.0,0.0411841013178912,1765.9627030108172,0.0,0.0,0.0411841013178912,1024,0.0,99,Assisted_Takeoff,
0.35051997746405,36.89712932976229,2100,2018-04-17 05:46:33,1765.9627030108172,0.0,0.0,0.041691201334118404,1765.9627030108172,0.0,0.0,0.041691201334118404,1027,0.0,99,Assisted_Takeoff,
0.350519975232675,36.8971293541516,2200,2018-04-17 05:46:33,1765.9627030108172,0.0,0.0,0.03983310127465921,1765.9627030108172,0.0,0.0,0.041691201334118404,1078,0.0,99,Assisted_Takeoff,
0.350519974714015,36.897129375230605,2300,2018-04-17 05:46:33,1765.9627030108172,0.0,0.0,0.0384411012301152,1765.9627030108172,0.0,0.0,0.041691201334118404,1087,0.0,99,Assisted_Takeoff,
0.350519969717135,36.8971294122293,2400,2018-04-17 05:46:33,1765.9627030108172,0.0,0.0,0.0358366011467712,1765.9627030108172,0.0,0.0,0.041691201334118404,1095,0.0,99,Assisted_Takeoff,
0.35051996737909696,36.89712943154721,2500,2018-04-17 05:46:33,1765.9627030108172,0.0,0.0,0.0346242011079744,1765.9627030108172,0.0,0.0,0.041691201334118404,1125,0.0,99,Assisted_Takeoff,
0.35051996140270697,36.8971294541261,2600,2018-04-17 05:46:33,1765.9627030108172,0.0,0.0,0.032995501055856004,1765.9627030108172,0.0,0.0,0.041691201334118404,1176,0.0,99,Assisted_Takeoff,
0.350519958889611,36.8971294647079,2700,2018-04-17 05:46:34,1765.9627030108172,0.0,0.0,0.03230580103378561,1765.9627030108172,0.0,0.0,0.041691201334118404,1197,0.0,99,Assisted_Takeoff,
0.350519954796517,36.897129476057295,2800,2018-04-17 05:46:34,1765.9627030108172,0.0,0.0,0.031453501006512,1765.9627030108172,0.0,0.0,0.041691201334118404,1202,0.0,99,Assisted_Takeoff,
0.35051995382759304,36.8971294776674,2900,2018-04-17 05:46:34,1765.9627030108172,0.0,0.0,0.0312944010014208,1765.9627030108172,0.0,0.0,0.041691201334118404,1207,0.0,99,Assisted_Takeoff,
0.350519952741014,36.897129479687706,3000,2018-04-17 05:46:34,1765.9627030108172,0.0,0.0,0.031109200995494402,1765.9627030108172,0.0,0.0,0.041691201334118404,1218,0.0,99,Assisted_Takeoff,
0.350519956126142,36.8971294768013,3100,2018-04-17 05:46:34,1765.9627030108172,0.0,0.0,0.031567301010153606,1765.9627030108172,0.0,0.0,0.041691201334118404,1228,0.0,99,Assisted_Takeoff,
0.35051997908190896,36.8971294704741,3200,2018-04-17 05:46:34,1765.9627030108172,0.0,0.0,0.034211901094780804,1765.9627030108172,0.0,0.0,0.041691201334118404,1242,0.0,99,Assisted_Takeoff,
0.350520055097675,36.89712945518279,3300,2018-04-17 05:46:34,1765.9627030108172,0.0,0.35999970196000003,0.0427857013691424,1765.9627030108172,0.0,0.35999970196000003,0.0427857013691424,1249,0.0,99,P-GPS,Obstacle Avoided. Revise Flight Route
0.350520183559108,36.897129448696,3400,2018-04-17 05:46:34,1765.9627030108172,0.0,0.35999970196000003,0.056773001816736,1765.9627030108172,0.0,0.35999970196000003,0.056773001816736,1256,0.0,99,P-GPS,
0.350520327384911,36.897129450963504,3500,2018-04-17 05:46:34,1765.9627030108172,0.0,0.35999970196000003,0.072384002316288,1765.9627030108172,0.0,0.35999970196000003,0.072384002316288,1273,0.0,99,P-GPS,
0.35052048610486897,36.8971294738336,3600,2018-04-17 05:46:35,1766.0627030140172,0.10000000320000002,0.7199994039200001,0.08947990286335679,1766.0627030140172,0.10000000320000002,0.7199994039200001,0.08947990286335679,1280,0.0,99,P-GPS,
0.35052064547823997,36.8971295122563,3700,2018-04-17 05:46:35,1766.0627030140172,0.10000000320000002,0.7199994039200001,0.10677800341689601,1766.0627030140172,0.10000000320000002,0.7199994039200001,0.10677800341689601,1300,0.0,99,P-GPS,
0.350520789478489,36.89712955648589,3800,2018-04-17 05:46:35,1766.1627030172172,0.20000000640000004,0.35999970196000003,0.12262600392403201,1766.1627030172172,0.20000000640000004,0.7199994039200001,0.12262600392403201,1306,0.0,99,P-GPS,Home Point Recorded. RTH Altitude:  45m.
0.350520911298517,36.897129583947795,3900,2018-04-17 05:46:35,1766.2627030204171,0.3000000096,0.35999970196000003,0.136181004357792,1766.2627030204171,0.3000000096,0.7199994039200001,0.136181004357792,1325,0.0,99,P-GPS,
0.35052102127324297,36.897129611969596,4000,2018-04-17 05:46:35,1766.3627030236173,0.4000000128000001,0.0,0.148483004751456,1766.3627030236173,0.4000000128000001,0.7199994039200001,0.148483004751456,1338,0.0,99,P-GPS,
0.35052111987491696,36.897129623400396,4100,2018-04-17 05:46:35,1766.462703026817,0.500000016,0.0,0.159488005103616,1766.462703026817,0.500000016,0.7199994039200001,0.159488005103616,1354,0.0,99,P-GPS,
0.350521212040572,36.89712961661171,4200,2018-04-17 05:46:35,1766.6627030332172,0.7000000224000001,0.0,0.16970300543049602,1766.6627030332172,0.7000000224000001,0.7199994039200001,0.16970300543049602,1370,0.0,99,P-GPS,
0.350521300881759,36.8971295980754,4300,2018-04-17 05:46:35,1766.7627030364172,0.8000000256000002,0.0,0.179526005744832,1766.7627030364172,0.8000000256000002,0.7199994039200001,0.179526005744832,1400,0.0,99,P-GPS,
0.350521369591104,36.8971295748916,4400,2018-04-17 05:46:35,1766.962703042817,1.000000032,0.0,0.18713500598832003,1766.962703042817,1.000000032,0.7199994039200001,0.18713500598832003,1404,0.0,99,P-GPS,
0.35052140754993,36.8971295569473,4500,2018-04-17 05:46:35,1767.0627030460173,1.1000000352,0.0,0.19135700612342404,1767.0627030460173,1.1000000352,0.7199994039200001,0.19135700612342404,1423,0.0,99,P-GPS,
0.35052139459077297,36.8971295140667,4600,2018-04-17 05:46:35,1767.2627030524172,1.3000000416000002,0.0,0.190002006080064,1767.2627030524172,1.3000000416000002,0.7199994039200001,0.19135700612342404,1450,0.0,99,P-GPS,
0.35052135618290303,36.89712946993561,4700,2018-04-17 05:46:36,1767.4627030588172,1.5000000480000002,0.0,0.18595200595046402,1767.4627030588172,1.5000000480000002,0.7199994039200001,0.19135700612342404,1458,0.0,99,P-GPS,
0.35052131524870694,36.89712945224829,4800,2018-04-17 05:46:36,1767.662703065217,1.7000000544000002,0.0,0.18153500580912,1767.662703065217,1.7000000544000002,0.7199994039200001,0.19135700612342404,1469,0.0,99,P-GPS,
0.35052130996155606,36.897129483803,4900,2018-04-17 05:46:36,1767.9627030748172,2.000000064,0.0,0.18073600578355198,1767.9627030748172,2.000000064,0.7199994039200001,0.19135700612342404,1486,0.0,99,P-GPS,
0.350521277341991,36.897129508564895,5000,2018-04-17 05:46:36,1768.162703081217,2.2000000704,0.0,0.17699100566371198,1768.162703081217,2.2000000704,0.7199994039200001,0.19135700612342404,1511,0.0,99,P-GPS,
0.35052123847327193,36.8971295052064,5100,2018-04-17 05:46:36,1768.462703090817,2.50000008,0.0,0.172686005525952,1768.462703090817,2.50000008,0.7199994039200001,0.19135700612342404,1523,0.0,99,P-GPS,
0.350521222411114,36.8971294926472,5200,2018-04-17 05:46:36,1768.7627031004172,2.8000000896000006,0.0,0.170963005470816,1768.7627031004172,2.8000000896000006,0.7199994039200001,0.19135700612342404,1526,0.0,99,P-GPS,
0.35052124175601096,36.897129484140294,5300,2018-04-17 05:46:36,1769.0627031100173,3.1000000992,0.0,0.17315900554108804,1769.0627031100173,3.1000000992,0.7199994039200001,0.19135700612342404,1532,0.0,99,P-GPS,
0.35052123501567795,36.89712946262979,5400,2018-04-17 05:46:36,1769.3627031196172,3.4000001088000005,0.0,0.17255500552176,1769.3627031196172,3.4000001088000005,0.7199994039200001,0.19135700612342404,1537,0.0,99,P-GPS,
0.35052120331089104,36.8971294314819,5500,2018-04-17 05:46:36,1769.662703129217,3.7000001184,0.0,0.169309005417888,1769.662703129217,3.7000001184,0.7199994039200001,0.19135700612342404,1537,0.0,99,P-GPS,
0.350521160181755,36.8971294096942,5600,2018-04-17 05:46:36,1769.962703138817,4.000000128,0.0,0.164771005272672,1769.962703138817,4.000000128,0.7199994039200001,0.19135700612342404,1543,0.0,99,P-GPS,
0.35052111030495897,36.8971294020651,5700,2018-04-17 05:46:37,1770.2627031484171,4.3000001376,0.0,0.159352005099264,1770.2627031484171,4.3000001376,0.7199994039200001,0.19135700612342404,1551,0.0,99,P-GPS,
0.35052107139105,36.8971293996466,5800,2018-04-17 05:46:37,1770.6627031612172,4.700000150400001,0.0,0.15508600496275202,1770.6627031612172,4.700000150400001,0.7199994039200001,0.19135700612342404,1578,0.0,99,P-GPS,
0.35052105221083,36.8971293886012,5900,2018-04-17 05:46:37,1770.9627031708171,5.00000016,0.0,0.15312200489990402,1770.9627031708171,5.00000016,0.7199994039200001,0.19135700612342404,1578,0.0,99,P-GPS,
0.35052101557084003,36.897129374898704,6000,2018-04-17 05:46:37,1771.3627031836172,5.4000001727999996,0.0,0.149293004777376,1771.3627031836172,5.4000001727999996,0.7199994039200001,0.19135700612342404,1602,0.0,99,P-GPS,
0.3505209668502381,36.897129355189,6100,2018-04-17 05:46:37,1771.6627031932173,5.7000001824,0.0,0.144273004616736,1771.6627031932173,5.7000001824,0.7199994039200001,0.19135700612342404,1614,0.0,99,P-GPS,
0.350520910841942,36.897129313779296,6200,2018-04-17 05:46:37,1772.0627032060172,6.1000001952,0.0,0.13899000444768,1772.0627032060172,6.1000001952,0.7199994039200001,0.19135700612342404,1634,0.0,99,P-GPS,
0.350520861098271,36.8971292662587,6300,2018-04-17 05:46:37,1772.4627032188173,6.500000208,0.0,0.134788004313216,1772.4627032188173,6.500000208,0.7199994039200001,0.19135700612342404,1674,0.0,99,P-GPS,
0.35052080448073303,36.8971292197295,6400,2018-04-17 05:46:37,1772.8627032316172,6.9000002208,0.0,0.130137004164384,1772.8627032316172,6.9000002208,0.7199994039200001,0.19135700612342404,1684,0.0,99,P-GPS,
0.350520752941091,36.897129176911996,6500,2018-04-17 05:46:37,1773.2627032444173,7.3000002336000005,0.0,0.12622900403932802,1773.2627032444173,7.3000002336000005,0.7199994039200001,0.19135700612342404,1684,0.0,99,P-GPS,
0.35052071071207797,36.8971291424185,6600,2018-04-17 05:46:37,1773.762703260417,7.8000002496,0.0,0.12324500394384,1773.762703260417,7.8000002496,0.7199994039200001,0.19135700612342404,1684,0.0,99,P-GPS,
0.350520683876542,36.8971291149544,6700,2018-04-17 05:46:38,1774.1627032732172,8.200000262400001,0.0,0.12172100389507201,1774.1627032732172,8.200000262400001,0.7199994039200001,0.19135700612342404,1684,0.0,99,P-GPS,
0.35052064314305104,36.8971290815411,6800,2018-04-17 05:46:38,1774.662703289217,8.700000278400001,0.0,0.119244003815808,1774.662703289217,8.700000278400001,0.7199994039200001,0.19135700612342404,1684,0.0,99,P-GPS,
0.35052059308509,36.8971290163107,6900,2018-04-17 05:46:38,1775.1627033052173,9.2000002944,0.0,0.11790400377292799,1775.1627033052173,9.2000002944,0.7199994039200001,0.19135700612342404,1684,0.0,99,P-GPS,
0.35052052487384605,36.897128935623,7000,2018-04-17 05:46:38,1775.6627033212171,9.7000003104,0.0,0.11665600373299201,1775.6627033212171,9.7000003104,0.7199994039200001,0.19135700612342404,1684,0.0,99,P-GPS,
0.350520466030632,36.8971288547404,7100,2018-04-17 05:46:38,1776.0627033340172,10.100000323200002,0.0,0.117366003755712,1776.0627033340172,10.100000323200002,0.7199994039200001,0.19135700612342404,1684,0.0,99,P-GPS,
0.35052041389213,36.8971287901234,7200,2018-04-17 05:46:38,1776.562703350017,10.6000003392,0.0,0.11829200378534403,1776.562703350017,10.6000003392,0.7199994039200001,0.19135700612342404,1684,0.0,99,P-GPS,
0.35052038385731304,36.89712873194829,7300,2018-04-17 05:46:38,1777.0627033660173,11.1000003552,0.0,0.12092600386963201,1777.0627033660173,11.1000003552,0.7199994039200001,0.19135700612342404,1684,0.0,99,P-GPS,
0.350520359049597,36.8971286675807,7400,2018-04-17 05:46:38,1777.5627033820172,11.6000003712,0.0,0.12483200399462402,1777.5627033820172,11.6000003712,0.7199994039200001,0.19135700612342404,1684,0.0,99,P-GPS,
0.35052033759240503,36.8971285857935,7500,2018-04-17 05:46:38,1777.962703394817,12.000000384000002,0.0,0.130893004188576,1777.962703394817,12.000000384000002,0.7199994039200001,0.19135700612342404,1684,0.0,99,P-GPS,
0.350520306416659,36.897128505241795,7600,2018-04-17 05:46:38,1778.462703410817,12.500000400000001,0.0,0.136666004373312,1778.462703410817,12.500000400000001,0.7199994039200001,0.19135700612342404,1684,0.0,99,P-GPS,
0.35052027244691,36.8971284409599,7700,2018-04-17 05:46:39,1778.9627034268171,13.000000416,0.0,0.141102004515264,1778.9627034268171,13.000000416,0.7199994039200001,0.19135700612342404,1684,0.0,99,P-GPS,
0.350520228788733,36.8971284093912,7800,2018-04-17 05:46:39,1779.4627034428172,13.500000432000002,0.0,0.14209900454716803,1779.4627034428172,13.500000432000002,0.7199994039200001,0.19135700612342404,1684,0.0,99,P-GPS,
0.350520170881265,36.897128403812296,7900,2018-04-17 05:46:39,1779.862703455617,13.9000004448,0.0,0.140063004482016,1779.862703455617,13.9000004448,0.7199994039200001,0.19135700612342404,1684,0.0,99,P-GPS,
0.35052009236787296,36.897128392029295,8000,2018-04-17 05:46:39,1780.3627034716171,14.400000460800001,0.0,0.13818200442182402,1780.3627034716171,14.400000460800001,0.7199994039200001,0.19135700612342404,1684,0.0,99,P-GPS,
0.350520012924233,36.897128373875205,8100,2018-04-17 05:46:39,1780.8627034876172,14.9000004768,0.0,0.137503004400096,1780.8627034876172,14.9000004768,0.7199994039200001,0.19135700612342404,1684,0.0,99,P-GPS,
0.35051992073150395,36.8971283677193,8200,2018-04-17 05:46:39,1781.3627035036172,15.4000004928,0.0,0.135833004346656,1781.3627035036172,15.4000004928,0.7199994039200001,0.19135700612342404,1684,0.0,99,P-GPS,
0.350519828248098,36.8971283722244,8300,2018-04-17 05:46:39,1781.962703522817,16.000000512,0.0,0.133746004279872,1781.962703522817,16.000000512,0.7199994039200001,0.19135700612342404,1684,0.0,99,P-GPS,
0.35051973363021,36.8971283706035,8400,2018-04-17 05:46:39,1782.462703538817,16.500000528,0.0,0.133101004259232,1782.462703538817,16.500000528,0.7199994039200001,0.19135700612342404,1684,0.0,99,P-GPS,
0.35051965695777404,36.8971283566418,8500,2018-04-17 05:46:39,1782.9627035548172,17.000000544000002,0.0,0.134592004306944,1782.9627035548172,17.000000544000002,0.7199994039200001,0.19135700612342404,1684,-0.4,99,P-GPS,
0.350519557870214,36.8971283489956,8600,2018-04-17 05:46:39,1783.462703570817,17.50000056,0.0,0.13615900435708803,1783.462703570817,17.50000056,0.7199994039200001,0.19135700612342404,1684,-0.4,99,P-GPS,
0.350519455339308,36.897128364166996,8700,2018-04-17 05:46:40,1784.0627035900172,18.100000579200003,0.0,0.13617000435744,1784.0627035900172,18.100000579200003,0.7199994039200001,0.19135700612342404,1684,-1.6,99,P-GPS,
0.350519330995396,36.897128369424706,8800,2018-04-17 05:46:40,1784.562703606017,18.6000005952,0.0,0.138887004444384,1784.562703606017,18.6000005952,0.7199994039200001,0.19135700612342404,1684,-2.9,99,P-GPS,
0.35051921131779,36.897128355926704,8900,2018-04-17 05:46:40,1785.162703625217,19.2000006144,0.0,0.144644004628608,1785.162703625217,19.2000006144,0.7199994039200001,0.19135700612342404,1684,-4.2,99,P-GPS,
0.350519076156531,36.8971283465225,9000,2018-04-17 05:46:40,1785.6627036412171,19.7000006304,0.0,0.15172400485516804,1785.6627036412171,19.7000006304,0.7199994039200001,0.19135700612342404,1684,-5.6,99,P-GPS,
0.35051895379687703,36.8971283558881,9100,2018-04-17 05:46:40,1786.162703657217,20.200000646400003,0.0,0.15739100503651202,1786.162703657217,20.200000646400003,0.7199994039200001,0.19135700612342404,1684,-6.3,99,P-GPS,
0.35051883092182107,36.897128383219396,9200,2018-04-17 05:46:40,1786.7627036764172,20.800000665600002,0.0,0.162411005197152,1786.7627036764172,20.800000665600002,0.7199994039200001,0.19135700612342404,1684,-6.3,99,P-GPS,
0.35051873351563,36.897128428394296,9300,2018-04-17 05:46:40,1787.262703692417,21.300000681600004,0.0,0.16510500528336,1787.262703692417,21.300000681600004,0.7199994039200001,0.19135700612342404,1684,-6.3,99,P-GPS,
0.350518626390477,36.8971284755488,9400,2018-04-17 05:46:40,1787.862703711617,21.900000700799996,0.0,0.16919700541430402,1787.862703711617,21.900000700799996,0.7199994039200001,0.19135700612342404,1684,-6.3,99,P-GPS,
0.350518523929188,36.8971285007324,9500,2018-04-17 05:46:40,1788.3627037276171,22.400000716800005,0.0,0.175423005613536,1788.3627037276171,22.400000716800005,0.7199994039200001,0.19135700612342404,1684,-6.6,99,P-GPS,
0.35051833497757395,36.8971284977048,9700,2018-04-17 05:46:41,1789.4627037628172,23.500000752000002,0.0,0.19164900613276803,1789.4627037628172,23.500000752000002,0.7199994039200001,0.19164900613276803,1684,-8.0,99,P-GPS,
0.35051823984143304,36.8971284941429,9800,2018-04-17 05:46:41,1789.962703778817,24.000000768000003,0.0,0.200291006409312,1789.962703778817,24.000000768000003,0.7199994039200001,0.200291006409312,1684,-10.8,99,P-GPS,
0.35051815547500603,36.897128498557,9900,2018-04-17 05:46:41,1790.562703798017,24.600000787200003,0.0,0.20762300664393601,1790.562703798017,24.600000787200003,0.7199994039200001,0.20762300664393601,1684,-14.0,99,P-GPS,
0.35051806072358505,36.897128505397,10000,2018-04-17 05:46:41,1791.0627038140171,25.100000803199997,0.0,0.215933006909856,1791.0627038140171,25.100000803199997,0.7199994039200001,0.215933006909856,1684,-15.7,99,P-GPS,
0.350517973688953,36.8971285094118,10100,2018-04-17 05:46:41,1791.6627038332172,25.7000008224,0.0,0.22386600716371202,1791.6627038332172,25.7000008224,0.7199994039200001,0.22386600716371202,1684,-15.8,99,P-GPS,
0.350517875655403,36.8971285082138,10200,2018-04-17 05:46:41,1792.1627038492172,26.200000838399998,0.0,0.23328100746499203,1792.1627038492172,26.200000838399998,0.7199994039200001,0.23328100746499203,1684,-15.8,99,P-GPS,
0.350517795586033,36.8971284986116,10300,2018-04-17 05:46:41,1792.7627038684172,26.8000008576,0.0,0.241534007729088,1792.7627038684172,26.8000008576,0.7199994039200001,0.241534007729088,1684,-15.8,99,P-GPS,
0.35051772794046904,36.8971284974553,10400,2018-04-17 05:46:41,1793.262703884417,27.3000008736,0.0,0.24817400794156802,1793.262703884417,27.3000008736,0.7199994039200001,0.24817400794156802,1684,-15.7,99,P-GPS,
0.35051770014415196,36.8971285085189,10500,2018-04-17 05:46:41,1793.8627039036173,27.9000008928,0.0,0.250311008009952,1793.8627039036173,27.9000008928,0.7199994039200001,0.250311008009952,1684,-15.7,99,P-GPS,
0.35051766283242897,36.8971285261655,10600,2018-04-17 05:46:41,1794.3627039196172,28.400000908800006,0.0,0.253077008098464,1794.3627039196172,28.400000908800006,0.7199994039200001,0.253077008098464,1684,-15.8,99,P-GPS,
0.350517627434127,36.897128531415795,10700,2018-04-17 05:46:42,1794.862703935617,28.9000009248,0.0,0.25632200820230405,1794.862703935617,28.9000009248,0.7199994039200001,0.25632200820230405,1684,-15.8,99,P-GPS,
0.350517599301943,36.8971285537291,10800,2018-04-17 05:46:42,1795.4627039548172,29.500000944,0.0,0.258028008256896,1795.4627039548172,29.500000944,0.7199994039200001,0.258028008256896,1684,-15.8,99,P-GPS,
0.350517601032165,36.897128583959606,10900,2018-04-17 05:46:42,1795.962703970817,30.00000096,0.0,0.25640500820496,1795.962703970817,30.00000096,0.7199994039200001,0.258028008256896,1684,-15.8,99,P-GPS,
0.350517594107207,36.897128631156896,11000,2018-04-17 05:46:42,1796.5627039900173,30.6000009792,0.0,0.25491500815728,1796.5627039900173,30.6000009792,0.7199994039200001,0.258028008256896,1684,-15.7,99,P-GPS,
0.350517586381868,36.8971286669619,11100,2018-04-17 05:46:42,1797.0627040060172,31.100000995200002,0.0,0.254106008131392,1797.0627040060172,31.100000995200002,0.7199994039200001,0.258028008256896,1684,-15.7,99,P-GPS,
0.350517581397608,36.8971286758254,11300,2018-04-17 05:46:42,1798.1627040412172,32.2000010304,0.0,0.25423000813536,1798.1627040412172,32.2000010304,0.7199994039200001,0.258028008256896,1684,-15.7,99,P-GPS,
0.350517582778936,36.8971286732132,11400,2018-04-17 05:46:42,1798.662704057217,32.700001046400004,0.0,0.254202008134464,1798.662704057217,32.700001046400004,0.7199994039200001,0.258028008256896,1684,-15.8,99,P-GPS,
0.350517595644458,36.8971286894712,11500,2018-04-17 05:46:42,1799.2627040764173,33.3000010656,0.0,0.252181008069792,1799.2627040764173,33.3000010656,0.7199994039200001,0.258028008256896,1684,-15.7,99,P-GPS,
0.350517615309955,36.8971287144215,11600,2018-04-17 05:46:43,1799.7627040924172,33.800001081599994,0.0,0.249097007971104,1799.7627040924172,33.800001081599994,0.7199994039200001,0.258028008256896,1684,-15.8,99,P-GPS,
0.350517659908965,36.8971287243288,11700,2018-04-17 05:46:43,1800.262704108417,34.3000010976,0.0,0.244092007810944,1800.262704108417,34.3000010976,0.7199994039200001,0.258028008256896,1684,-15.8,99,P-GPS,
0.350517699930011,36.897128734351796,11800,2018-04-17 05:46:43,1800.8627041276172,34.9000011168,0.0,0.239556007665792,1800.8627041276172,34.9000011168,0.7199994039200001,0.258028008256896,1684,-15.7,99,P-GPS,
0.350517764371204,36.8971287320435,12000,2018-04-17 05:46:43,1801.8627041596171,35.9000011488,0.0,0.233064007458048,1801.8627041596171,35.9000011488,0.7199994039200001,0.258028008256896,1684,-15.7,99,P-GPS,
0.35051781042889296,36.8971287246297,12100,2018-04-17 05:46:43,1802.4627041788171,36.500001168000004,0.0,0.228711007318752,1802.4627041788171,36.500001168000004,0.7199994039200001,0.258028008256896,1684,-15.8,99,P-GPS,
0.35051784079204606,36.8971287065708,12200,2018-04-17 05:46:43,1802.962704194817,37.000001184000006,0.0,0.226476007247232,1802.962704194817,37.000001184000006,0.7199994039200001,0.258028008256896,1684,-15.7,99,P-GPS,
0.350517860754326,36.897128667234895,12300,2018-04-17 05:46:43,1803.4627042108173,37.5000012,0.0,0.22636400724364805,1803.4627042108173,37.5000012,0.7199994039200001,0.258028008256896,1684,-15.8,99,P-GPS,
0.350517874849323,36.897128626668895,12400,2018-04-17 05:46:43,1803.962704226817,38.000001216,0.0,0.22700000726400002,1803.962704226817,38.000001216,0.7199994039200001,0.258028008256896,1684,-15.7,99,P-GPS,
0.35051790493360496,36.8971285962051,12500,2018-04-17 05:46:43,1804.5627042460173,38.600001235200004,0.0,0.22563600722035201,1804.5627042460173,38.600001235200004,0.7199994039200001,0.258028008256896,1684,-15.7,99,P-GPS,
0.350517936287665,36.897128559206294,12600,2018-04-17 05:46:43,1805.0627042620172,39.100001251200005,0.0,0.224604007187328,1805.0627042620172,39.100001251200005,0.7199994039200001,0.258028008256896,1684,-15.7,99,P-GPS,
0.35051798453154,36.897128519944296,12700,2018-04-17 05:46:44,1805.662704281217,39.7000012704,0.0,0.22222500711120002,1805.662704281217,39.7000012704,0.7199994039200001,0.258028008256896,1684,-15.7,99,P-GPS,
0.35051804463293,36.8971284970517,12800,2018-04-17 05:46:44,1806.1627042972173,40.2000012864,0.0,0.21793900697404803,1806.1627042972173,40.2000012864,0.7199994039200001,0.258028008256896,1684,-15.8,99,P-GPS,
0.35051811297668894,36.8971284980206,12900,2018-04-17 05:46:44,1806.662704313217,40.7000013024,0.0,0.21155000676960004,1806.662704313217,40.7000013024,0.7199994039200001,0.258028008256896,1684,-15.8,99,P-GPS,
0.350518195041717,36.8971285228039,13000,2018-04-17 05:46:44,1807.2627043324173,41.30000132160001,0.0,0.20247200647910402,1807.2627043324173,41.30000132160001,0.7199994039200001,0.258028008256896,1684,-15.8,99,P-GPS,
0.35051828561373705,36.897128557870204,13100,2018-04-17 05:46:44,1807.7627043484172,41.80000133760001,0.0,0.192001006144032,1807.7627043484172,41.80000133760001,0.7199994039200001,0.258028008256896,1684,-15.8,99,P-GPS,
0.350518372048287,36.897128596037,13200,2018-04-17 05:46:44,1808.262704364417,42.30000135360001,0.0,0.18173300581545598,1808.262704364417,42.30000135360001,0.7199994039200001,0.258028008256896,1684,-15.8,99,P-GPS,
0.35051843960184403,36.8971286176342,13300,2018-04-17 05:46:44,1808.8627043836173,42.900001372800006,0.0,0.174281005576992,1808.8627043836173,42.900001372800006,0.7199994039200001,0.258028008256896,1684,-15.8,99,P-GPS,
0.35051850508809096,36.8971286311462,13400,2018-04-17 05:46:44,1809.362704399617,43.40000138880001,0.0,0.167606005363392,1809.362704399617,43.40000138880001,0.7199994039200001,0.258028008256896,1684,-15.8,99,P-GPS,
0.3505185620929939,36.8971286396039,13500,2018-04-17 05:46:44,1809.8627044156171,43.9000014048,0.0,0.162084005186688,1809.8627044156171,43.9000014048,0.7199994039200001,0.258028008256896,1684,-15.8,99,P-GPS,
0.350518609157875,36.8971286528054,13600,2018-04-17 05:46:44,1810.4627044348172,44.500001424,0.0,0.157126005028032,1810.4627044348172,44.500001424,0.7199994039200001,0.258028008256896,1684,-15.8,99,P-GPS,
0.350518649163045,36.8971286631624,13700,2018-04-17 05:46:45,1810.962704450817,45.00000144,0.0,0.15300100489603202,1810.962704450817,45.00000144,0.7199994039200001,0.258028008256896,1684,-16.7,99,P-GPS,
0.3505186979809461,36.897128665993,13800,2018-04-17 05:46:45,1811.4627044668173,45.50000145600001,0.0,0.148737004759584,1811.4627044668173,45.50000145600001,0.7199994039200001,0.258028008256896,1684,-18.9,99,P-GPS,
0.350518750840645,36.8971286652661,13900,2018-04-17 05:46:45,1812.062704486017,46.1000014752,0.0,0.14450200462406404,1812.062704486017,46.1000014752,0.7199994039200001,0.258028008256896,1684,-19.0,99,P-GPS,
0.35051879944847697,36.8971286616978,14000,2018-04-17 05:46:45,1812.5627045020171,46.600001491200004,0.0,0.14094100451011202,1812.5627045020171,46.600001491200004,0.7199994039200001,0.258028008256896,1684,-19.0,99,P-GPS,
0.35051884287663604,36.8971286602782,14100,2018-04-17 05:46:45,1813.0627045180172,47.1000015072,0.0,0.137718004406976,1813.0627045180172,47.1000015072,0.7199994039200001,0.258028008256896,1684,-19.0,99,P-GPS,
0.350518886779893,36.897128651034706,14200,2018-04-17 05:46:45,1813.5627045340173,47.60000152320001,0.0,0.135211004326752,1813.5627045340173,47.60000152320001,0.7199994039200001,0.258028008256896,1684,-19.0,99,P-GPS,
0.350518929773664,36.897128627864795,14300,2018-04-17 05:46:45,1814.1627045532173,48.200001542399995,0.0,0.134109004291488,1814.1627045532173,48.200001542399995,0.7199994039200001,0.258028008256896,1684,-19.0,99,P-GPS,
0.350518977160163,36.8971285977992,14400,2018-04-17 05:46:45,1814.662704569217,48.70000155840001,0.0,0.133548004273536,1814.662704569217,48.70000155840001,0.7199994039200001,0.258028008256896,1684,-19.0,99,P-GPS,
0.350519025623471,36.8971285540567,14500,2018-04-17 05:46:45,1815.1627045852172,49.200001574400005,0.0,0.134481004303392,1815.1627045852172,49.200001574400005,0.7199994039200001,0.258028008256896,1684,-19.0,99,P-GPS,
0.350519079086509,36.8971285130839,14600,2018-04-17 05:46:46,1815.662704601217,49.70000159040001,0.0,0.135251004328032,1815.662704601217,49.70000159040001,0.7199994039200001,0.258028008256896,1684,-19.0,99,P-GPS,
0.35051912568077004,36.8971284816051,14700,2018-04-17 05:46:46,1816.262704620417,50.3000016096,0.0,0.135838004346816,1816.262704620417,50.3000016096,0.7199994039200001,0.258028008256896,1684,-19.0,99,P-GPS,
0.35051916878608896,36.897128459433105,14800,2018-04-17 05:46:46,1816.762704636417,50.800001625600004,0.0,0.135932004349824,1816.762704636417,50.800001625600004,0.7199994039200001,0.258028008256896,1684,-19.0,99,P-GPS,
0.350519205656097,36.897128452934496,14900,2018-04-17 05:46:46,1817.2627046524171,51.3000016416,0.0,0.13490900431708802,1817.2627046524171,51.3000016416,0.7199994039200001,0.258028008256896,1684,-19.3,99,P-GPS,
0.350519250810814,36.8971284663995,15000,2018-04-17 05:46:46,1817.7627046684172,51.800001657600006,0.0,0.131604004211328,1817.7627046684172,51.800001657600006,0.7199994039200001,0.258028008256896,1684,-20.2,99,P-GPS,
0.350519295753425,36.8971284781953,15100,2018-04-17 05:46:46,1818.262704684417,52.3000016736,0.0,0.128611004115552,1818.262704684417,52.3000016736,0.7199994039200001,0.258028008256896,1684,-21.3,99,P-GPS,
0.350519328875162,36.8971284933496,15200,2018-04-17 05:46:46,1818.7627047004173,52.8000016896,0.0,0.12581300402601597,1818.7627047004173,52.8000016896,0.7199994039200001,0.258028008256896,1684,-21.7,99,P-GPS,
0.350519335344156,36.897128509395706,15400,2018-04-17 05:46:46,1819.862704735617,53.900001724800006,0.0,0.12389200396454401,1819.862704735617,53.900001724800006,0.7199994039200001,0.258028008256896,1684,-21.7,99,P-GPS,
0.35051935951637103,36.8971285058777,15600,2018-04-17 05:46:47,1820.862704767617,54.9000017568,0.0,0.123444003950208,1820.862704767617,54.9000017568,0.7199994039200001,0.258028008256896,1684,-21.8,99,P-GPS,
0.350519363659133,36.89712849530879,15700,2018-04-17 05:46:47,1821.3627047836171,55.40000177280001,0.0,0.12443400398188802,1821.3627047836171,55.40000177280001,0.7199994039200001,0.258028008256896,1684,-21.8,99,P-GPS,
0.350519363027704,36.8971284978825,15800,2018-04-17 05:46:47,1821.8627047996172,55.900001788800004,0.0,0.12418000397375999,1821.8627047996172,55.900001788800004,0.7199994039200001,0.258028008256896,1684,-21.8,99,P-GPS,
0.350519355439562,36.8971285220502,15900,2018-04-17 05:46:47,1822.462704818817,56.50000180800001,0.0,0.121863003899616,1822.462704818817,56.50000180800001,0.7199994039200001,0.258028008256896,1684,-21.8,99,P-GPS,
0.350519346505511,36.8971285667744,16000,2018-04-17 05:46:47,1822.9627048348173,57.000001824,0.0,0.117449003758368,1822.9627048348173,57.000001824,0.7199994039200001,0.258028008256896,1684,-21.8,99,P-GPS,
0.350519342022404,36.8971286127201,16100,2018-04-17 05:46:47,1823.462704850817,57.50000184,0.0,0.112793003609376,1823.462704850817,57.50000184,0.7199994039200001,0.258028008256896,1684,-22.0,99,P-GPS,
0.350519338489495,36.897128636859996,16200,2018-04-17 05:46:47,1824.0627048700171,58.100001859200006,0.0,0.11040900353308801,1824.0627048700171,58.100001859200006,0.7199994039200001,0.258028008256896,1684,-22.2,99,P-GPS,
0.350519304365451,36.89712865245,16400,2018-04-17 05:46:47,1825.0627049020172,59.1000018912,0.0,0.11019600352627201,1825.0627049020172,59.1000018912,0.7199994039200001,0.258028008256896,1684,-22.3,99,P-GPS,
0.350519260261895,36.897128687663,16500,2018-04-17 05:46:47,1825.562704918017,59.6000019072,0.0,0.108644003476608,1825.562704918017,59.6000019072,0.7199994039200001,0.258028008256896,1684,-22.3,99,P-GPS,
0.350519217823423,36.89712872385879,16600,2018-04-17 05:46:48,1826.0627049340173,60.100001923200004,0.0,0.10725200343206402,1826.0627049340173,60.100001923200004,0.7199994039200001,0.258028008256896,1684,-22.3,99,P-GPS,
0.350519116248822,36.8971288200102,16800,2018-04-17 05:46:48,1827.1627049692172,61.2000019584,0.0,0.104494003343808,1827.1627049692172,61.2000019584,0.7199994039200001,0.258028008256896,1684,-22.3,99,P-GPS,
0.350518986742742,36.8971289656115,17000,2018-04-17 05:46:48,1828.162705001217,62.200001990400004,0.0,0.10260500328336002,1828.162705001217,62.200001990400004,0.7199994039200001,0.258028008256896,1684,-22.3,99,P-GPS,
0.350518820596672,36.8971290668054,17200,2018-04-17 05:46:48,1829.1627050332172,63.2000020224,0.0,0.111214003558848,1829.1627050332172,63.2000020224,0.7199994039200001,0.258028008256896,1684,-22.3,99,P-GPS,
0.350518747948936,36.8971290961183,17300,2018-04-17 05:46:48,1829.662705049217,63.7000020384,0.0,0.11678500373712,1829.662705049217,63.7000020384,0.7199994039200001,0.258028008256896,1684,-22.3,99,P-GPS,
0.350518675148126,36.8971291232034,17400,2018-04-17 05:46:48,1830.162705065217,64.2000020544,0.0,0.122836003930752,1830.162705065217,64.2000020544,0.7199994039200001,0.258028008256896,1684,-22.3,99,P-GPS,
0.350518620046466,36.89712914572021,17500,2018-04-17 05:46:48,1830.6627050812172,64.7000020704,0.0,0.12753200408102403,1830.6627050812172,64.7000020704,0.7199994039200001,0.258028008256896,1684,-22.3,99,P-GPS,
0.350518566164511,36.8971291526202,17600,2018-04-17 05:46:49,1831.1627050972172,65.2000020864,0.0,0.13285600425139202,1831.1627050972172,65.2000020864,0.7199994039200001,0.258028008256896,1684,-22.3,99,P-GPS,
0.350518505436985,36.8971291342573,17700,2018-04-17 05:46:49,1831.662705113217,65.7000021024,0.0,0.139899004476768,1831.662705113217,65.7000021024,0.7199994039200001,0.258028008256896,1684,-22.3,99,P-GPS,
0.35051841345676804,36.89712910517989,17800,2018-04-17 05:46:49,1832.2627051324173,66.3000021216,0.0,0.15061700481974402,1832.2627051324173,66.3000021216,0.7199994039200001,0.258028008256896,1684,-22.3,98,P-GPS,
0.35051831021626895,36.89712907693429,17900,2018-04-17 05:46:49,1832.7627051484171,66.8000021376,0.0,0.162484005199488,1832.7627051484171,66.8000021376,0.7199994039200001,0.258028008256896,1684,-22.3,98,P-GPS,
0.3505182020196,36.8971290477745,18000,2018-04-17 05:46:49,1833.262705164417,67.30000215359999,0.0,0.17491000559712,1833.262705164417,67.30000215359999,0.7199994039200001,0.258028008256896,1684,-22.3,98,P-GPS,
0.35051811355478696,36.8971290213671,18100,2018-04-17 05:46:49,1833.7627051804172,67.8000021696,0.0,0.18516700592534402,1833.7627051804172,67.8000021696,0.7199994039200001,0.258028008256896,1684,-22.3,98,P-GPS,
0.35051796098057597,36.897128950154205,18300,2018-04-17 05:46:49,1834.7627052124171,68.8000022016,0.0,0.20380100652163202,1834.7627052124171,68.8000022016,0.7199994039200001,0.258028008256896,1684,-22.3,98,P-GPS,
0.35051790361741497,36.8971289164486,18400,2018-04-17 05:46:49,1835.2627052284172,69.30000221760001,0.0,0.211073006754336,1835.2627052284172,69.30000221760001,0.7199994039200001,0.258028008256896,1684,-22.3,98,P-GPS,
0.350517866244625,36.8971288941534,18500,2018-04-17 05:46:50,1835.7627052444172,69.8000022336,0.0,0.21582900690652804,1835.7627052444172,69.8000022336,0.7199994039200001,0.258028008256896,1684,-22.3,98,P-GPS,
0.350517788282462,36.897128827889794,18700,2018-04-17 05:46:50,1836.7627052764174,70.80000226560001,0.0,0.226549007249568,1836.7627052764174,70.80000226560001,0.7199994039200001,0.258028008256896,1684,-22.3,98,P-GPS,
0.350517748836663,36.8971288010103,18800,2018-04-17 05:46:50,1837.3627052956172,71.4000022848,0.0,0.23172400741516802,1837.3627052956172,71.4000022848,0.7199994039200001,0.258028008256896,1684,-22.3,98,P-GPS,
0.350517676466576,36.897128781651794,19000,2018-04-17 05:46:50,1838.3627053276173,72.40000231680001,0.0,0.240002007680064,1838.3627053276173,72.40000231680001,0.7199994039200001,0.258028008256896,1684,-22.3,98,P-GPS,
0.35051764450307005,36.8971287626252,19100,2018-04-17 05:46:50,1838.862705343617,72.9000023328,0.0,0.244083007810656,1838.862705343617,72.9000023328,0.7199994039200001,0.258028008256896,1684,-22.3,98,P-GPS,
0.350517604881399,36.897128750381796,19200,2018-04-17 05:46:50,1839.4627053628171,73.50000235200001,0.0,0.24868200795782403,1839.4627053628171,73.50000235200001,0.7199994039200001,0.258028008256896,1684,-22.3,98,P-GPS,
0.350517570523266,36.8971287454838,19300,2018-04-17 05:46:50,1839.9627053788172,74.00000236800001,0.0,0.25244000807808,1839.9627053788172,74.00000236800001,0.7199994039200001,0.258028008256896,1684,-22.3,98,P-GPS,
0.35051753522592893,36.897128759381204,19400,2018-04-17 05:46:50,1840.462705394817,74.500002384,0.0,0.255556008177792,1840.462705394817,74.500002384,0.7199994039200001,0.258028008256896,1684,-22.3,98,P-GPS,
0.35051751930178193,36.897128786067,19500,2018-04-17 05:46:50,1840.9627054108173,75.0000024,0.0,0.25619500819824004,1840.9627054108173,75.0000024,0.7199994039200001,0.258028008256896,1684,-22.3,98,P-GPS,
0.350517497202168,36.8971288058848,19600,2018-04-17 05:46:51,1841.4627054268171,75.50000241600002,0.0,0.257777008248864,1841.4627054268171,75.50000241600002,0.7199994039200001,0.258028008256896,1684,-22.3,98,P-GPS,
0.350517474681602,36.8971287866312,19700,2018-04-17 05:46:51,1841.9627054428172,76.000002432,0.0,0.260848008347136,1841.9627054428172,76.000002432,0.7199994039200001,0.260848008347136,1684,-22.3,98,P-GPS,
0.350517451348442,36.8971287645651,19800,2018-04-17 05:46:51,1842.462705458817,76.500002448,0.0,0.26411500845168,1842.462705458817,76.500002448,0.7199994039200001,0.26411500845168,1684,-22.3,98,P-GPS,
0.350517415751064,36.8971287187735,20100,2018-04-17 05:46:51,1843.962705506817,78.00000249600001,0.0,0.269583008626656,1843.962705506817,78.00000249600001,0.7199994039200001,0.269583008626656,1684,-22.3,98,P-GPS,
0.350517453013933,36.8971286656173,20300,2018-04-17 05:46:51,1844.962705538817,79.00000252800001,0.0,0.26785900857148803,1844.962705538817,79.00000252800001,0.7199994039200001,0.269583008626656,1684,-22.3,98,P-GPS,
0.35051748585842796,36.8971286326643,20400,2018-04-17 05:46:51,1845.5627055580173,79.60000254720002,0.0,0.26588500850832003,1845.5627055580173,79.60000254720002,0.7199994039200001,0.269583008626656,1684,-22.3,98,P-GPS,
0.35051750874213694,36.8971286097696,20500,2018-04-17 05:46:51,1846.0627055740172,80.1000025632,0.0,0.26455800846585603,1846.0627055740172,80.1000025632,0.7199994039200001,0.269583008626656,1684,-22.3,98,P-GPS,
0.35051752412767606,36.8971285914024,20600,2018-04-17 05:46:51,1846.562705590017,80.6000025792,0.0,0.2638250084424,1846.562705590017,80.6000025792,0.7199994039200001,0.269583008626656,1684,-22.3,98,P-GPS,
0.35051753112184303,36.8971285770082,20700,2018-04-17 05:46:52,1847.0627056060173,81.10000259520002,0.0,0.26378000844096,1847.0627056060173,81.10000259520002,0.7199994039200001,0.269583008626656,1684,-22.3,98,P-GPS,
0.35051754559178905,36.8971285633431,20800,2018-04-17 05:46:52,1847.5627056220171,81.6000026112,0.0,0.26296000841472,1847.5627056220171,81.6000026112,0.7199994039200001,0.269583008626656,1684,-22.3,98,P-GPS,
0.350517578819374,36.897128536436895,20900,2018-04-17 05:46:52,1848.0627056380172,82.10000262720001,0.0,0.260918008349376,1848.0627056380172,82.10000262720001,0.7199994039200001,0.269583008626656,1684,-22.3,98,P-GPS,
0.35051761164962003,36.8971285067117,21000,2018-04-17 05:46:52,1848.562705654017,82.60000264320001,0.0,0.25913000829216,1848.562705654017,82.60000264320001,0.7199994039200001,0.269583008626656,1684,-22.3,98,P-GPS,
0.35051763576524697,36.8971284831115,21100,2018-04-17 05:46:52,1849.0627056700173,83.10000265920002,0.0,0.25795900825468804,1849.0627056700173,83.10000265920002,0.7199994039200001,0.269583008626656,1684,-22.3,98,P-GPS,
0.35051766035190096,36.8971284758111,21200,2018-04-17 05:46:52,1849.5627056860171,83.60000267520002,0.0,0.255929008189728,1849.5627056860171,83.60000267520002,0.7199994039200001,0.269583008626656,1684,-22.3,98,P-GPS,
0.35051768072984196,36.8971284890212,21300,2018-04-17 05:46:52,1850.062705702017,84.10000269119999,0.0,0.253237008103584,1850.062705702017,84.10000269119999,0.7199994039200001,0.269583008626656,1684,-22.3,98,P-GPS,
0.350517697669324,36.897128507383,21400,2018-04-17 05:46:52,1850.5627057180172,84.60000270720002,0.0,0.250613008019616,1850.5627057180172,84.60000270720002,0.7199994039200001,0.269583008626656,1684,-22.3,98,P-GPS,
0.350517722839776,36.8971285308505,21500,2018-04-17 05:46:52,1851.062705734017,85.1000027232,0.0,0.24691800790137602,1851.062705734017,85.1000027232,0.7199994039200001,0.269583008626656,1684,-22.3,98,P-GPS,
0.35051774683123404,36.8971285731166,21600,2018-04-17 05:46:52,1851.5627057500171,85.60000273920001,0.0,0.24238300775625599,1851.5627057500171,85.60000273920001,0.7199994039200001,0.269583008626656,1684,-22.3,98,P-GPS,
0.35051777586720506,36.8971286281924,21700,2018-04-17 05:46:53,1852.0627057660172,86.10000275520001,0.0,0.23675100757603199,1852.0627057660172,86.10000275520001,0.7199994039200001,0.269583008626656,1684,-22.3,98,P-GPS,
0.350517804036436,36.8971286752344,21800,2018-04-17 05:46:53,1852.5627057820172,86.60000277120001,0.0,0.23165700741302403,1852.5627057820172,86.60000277120001,0.7199994039200001,0.269583008626656,1684,-22.3,98,P-GPS,
0.350517828235521,36.8971286929336,21900,2018-04-17 05:46:53,1853.062705798017,87.10000278720001,0.0,0.228383007308256,1853.062705798017,87.10000278720001,0.7199994039200001,0.269583008626656,1684,-22.3,98,P-GPS,
0.35051786061428003,36.8971287171483,22000,2018-04-17 05:46:53,1853.562705814017,87.60000280319998,0.0,0.223981007167392,1853.562705814017,87.60000280319998,0.7199994039200001,0.269583008626656,1684,-22.3,98,P-GPS,
0.350517898127523,36.897128760179896,22100,2018-04-17 05:46:53,1854.1627058332172,88.20000282240001,0.0,0.21819500698224,1854.1627058332172,88.20000282240001,0.7199994039200001,0.269583008626656,1684,-22.3,98,P-GPS,
0.35051794487038,36.897128882137,22300,2018-04-17 05:46:53,1855.1627058652173,89.2000028544,0.0,0.208134006660288,1855.1627058652173,89.2000028544,0.7199994039200001,0.269583008626656,1684,-22.3,98,P-GPS,
0.35051794803363207,36.897128951377894,22400,2018-04-17 05:46:53,1855.662705881217,89.7000028704,0.0,0.20511200656358405,1855.662705881217,89.7000028704,0.7199994039200001,0.269583008626656,1684,-22.3,98,P-GPS,
0.350517947451056,36.8971290077962,22500,2018-04-17 05:46:54,1856.1627058972172,90.20000288640001,0.0,0.203167006501344,1856.1627058972172,90.20000288640001,0.7199994039200001,0.269583008626656,1684,-22.3,98,P-GPS,
0.35051795910420097,36.897129095688,22700,2018-04-17 05:46:54,1857.1627059292173,91.2000029184,0.0,0.199143006372576,1857.1627059292173,91.2000029184,0.7199994039200001,0.269583008626656,1684,-22.3,98,P-GPS,
0.350517972210733,36.89712912717,22800,2018-04-17 05:46:54,1857.662705945217,91.7000029344,0.0,0.196839006298848,1857.662705945217,91.7000029344,0.7199994039200001,0.269583008626656,1684,-22.3,98,P-GPS,
0.35051798261201195,36.8971291472522,22900,2018-04-17 05:46:54,1858.1627059612174,92.2000029504,0.0,0.19517300624553602,1858.1627059612174,92.2000029504,0.7199994039200001,0.269583008626656,1684,-22.3,98,P-GPS,
0.35051798636923903,36.89712917260071,23000,2018-04-17 05:46:54,1858.6627059772172,92.7000029664,0.0,0.194112006211584,1858.6627059772172,92.7000029664,0.7199994039200001,0.269583008626656,1684,-22.3,98,P-GPS,
0.350517990269363,36.897129196940796,23100,2018-04-17 05:46:54,1859.162705993217,93.20000298240001,0.0,0.19309500617904002,1859.162705993217,93.20000298240001,0.7199994039200001,0.269583008626656,1684,-22.3,98,P-GPS,
0.35051799547386997,36.897129224302,23200,2018-04-17 05:46:54,1859.7627060124173,93.8000030016,0.0,0.191903006140896,1859.7627060124173,93.8000030016,0.7199994039200001,0.269583008626656,1684,-22.3,98,P-GPS,
0.350518004526797,36.8971292443832,23300,2018-04-17 05:46:54,1860.2627060284171,94.3000030176,0.0,0.19048400609548805,1860.2627060284171,94.3000030176,0.7199994039200001,0.269583008626656,1684,-22.3,98,P-GPS,
0.350518022934321,36.897129262926,23400,2018-04-17 05:46:54,1860.762706044417,94.80000303359999,0.0,0.18809200601894402,1860.762706044417,94.80000303359999,0.7199994039200001,0.269583008626656,1684,-22.3,98,P-GPS,
0.350518058119296,36.8971292606167,23500,2018-04-17 05:46:54,1861.2627060604173,95.30000304960001,0.0,0.18429200589734404,1861.2627060604173,95.30000304960001,0.7199994039200001,0.269583008626656,1684,-22.3,98,P-GPS,
0.35051807683663105,36.8971292759551,23600,2018-04-17 05:46:54,1861.762706076417,95.80000306560001,0.0,0.181936005821952,1861.762706076417,95.80000306560001,0.7199994039200001,0.269583008626656,1684,-22.3,98,P-GPS,
0.350518063568477,36.897129304688896,23700,2018-04-17 05:46:55,1862.2627060924171,96.3000030816,0.0,0.18285200585126402,1862.2627060924171,96.3000030816,0.7199994039200001,0.269583008626656,1684,-22.3,98,P-GPS,
0.350518033551776,36.8971293296906,23800,2018-04-17 05:46:55,1862.7627061084172,96.8000030976,0.0,0.185733005943456,1862.7627061084172,96.8000030976,0.7199994039200001,0.269583008626656,1684,-22.3,98,P-GPS,
0.350518012795221,36.897129327775296,23900,2018-04-17 05:46:55,1863.2627061244173,97.3000031136,0.0,0.188048006017536,1863.2627061244173,97.3000031136,0.7199994039200001,0.269583008626656,1684,-22.3,98,P-GPS,
0.35051799041185105,36.897129342487396,24000,2018-04-17 05:46:55,1863.762706140417,97.8000031296,0.0,0.19029200608934402,1863.762706140417,97.8000031296,0.7199994039200001,0.269583008626656,1684,-22.3,98,P-GPS,
0.350517982014373,36.897129376546296,24100,2018-04-17 05:46:55,1864.262706156417,98.3000031456,0.0,0.190761006104352,1864.262706156417,98.3000031456,0.7199994039200001,0.269583008626656,1684,-22.3,98,P-GPS,
0.350517975817736,36.8971294079865,24200,2018-04-17 05:46:55,1864.7627061724172,98.8000031616,0.0,0.191092006114944,1864.7627061724172,98.8000031616,0.7199994039200001,0.269583008626656,1684,-22.3,98,P-GPS,
0.35051797981841604,36.8971294209836,24300,2018-04-17 05:46:55,1865.262706188417,99.3000031776,0.0,0.19052000609664002,1865.262706188417,99.3000031776,0.7199994039200001,0.269583008626656,1684,-22.3,98,P-GPS,
0.35051799995453303,36.897129442196395,24400,2018-04-17 05:46:55,1865.762706204417,99.80000319359999,0.0,0.188101006019232,1865.762706204417,99.80000319359999,0.7199994039200001,0.269583008626656,1684,-22.3,98,P-GPS,
0.35051804559941097,36.8971294701775,24500,2018-04-17 05:46:55,1866.2627062204172,100.30000320960002,0.0,0.18283000585056003,1866.2627062204172,100.30000320960002,0.7199994039200001,0.269583008626656,1684,-22.3,98,P-GPS,
0.350518099667823,36.8971294988214,24600,2018-04-17 05:46:56,1866.7627062364172,100.80000322560002,0.0,0.17666400565324802,1866.7627062364172,100.80000322560002,0.7199994039200001,0.269583008626656,1684,-22.3,98,P-GPS,
0.35051814364721,36.8971295096216,24700,2018-04-17 05:46:56,1867.3627062556172,101.4000032448,0.0,0.17172900549532802,1867.3627062556172,101.4000032448,0.7199994039200001,0.269583008626656,1684,-22.3,98,P-GPS,
0.35051817632234605,36.897129530655604,24800,2018-04-17 05:46:56,1867.8627062716173,101.9000032608,0.0,0.168026005376832,1867.8627062716173,101.9000032608,0.7199994039200001,0.269583008626656,1684,-22.3,98,P-GPS,
0.350518192541648,36.8971295536798,24900,2018-04-17 05:46:56,1868.3627062876171,102.40000327680002,0.0,0.16618100531779198,1868.3627062876171,102.40000327680002,0.7199994039200001,0.269583008626656,1684,-22.3,98,P-GPS,
0.35051820369771103,36.8971295866435,25000,2018-04-17 05:46:56,1868.862706303617,102.90000329280001,0.0,0.164949005278368,1868.862706303617,102.90000329280001,0.7199994039200001,0.269583008626656,1684,-22.3,98,P-GPS,
0.35051822171522307,36.8971296158687,25100,2018-04-17 05:46:56,1869.3627063196172,103.40000330880001,0.0,0.163023005216736,1869.3627063196172,103.40000330880001,0.7199994039200001,0.269583008626656,1684,-22.3,98,P-GPS,
0.35051822755482304,36.8971296365794,25200,2018-04-17 05:46:56,1869.862706335617,103.90000332480001,0.0,0.162468005198976,1869.862706335617,103.90000332480001,0.7199994039200001,0.269583008626656,1684,-22.3,98,P-GPS,
0.350518225195615,36.897129620994704,25300,2018-04-17 05:46:56,1870.3627063516171,104.40000334080001,0.0,0.16265600520499202,1870.3627063516171,104.40000334080001,0.7199994039200001,0.269583008626656,1684,-22.3,98,P-GPS,
0.350518219657276,36.8971296132554,25400,2018-04-17 05:46:56,1870.8627063676172,104.90000335680001,0.0,0.16324200522374402,1870.8627063676172,104.90000335680001,0.7199994039200001,0.269583008626656,1684,-22.3,98,P-GPS,
0.350518219509902,36.8971296250501,25500,2018-04-17 05:46:56,1871.3627063836173,105.4000033728,0.0,0.16330500522576,1871.3627063836173,105.4000033728,0.7199994039200001,0.269583008626656,1684,-22.3,98,P-GPS,
0.35051821897129404,36.897129630859204,25600,2018-04-17 05:46:57,1871.862706399617,105.90000338880002,0.0,0.16339200522854402,1871.862706399617,105.90000338880002,0.7199994039200001,0.269583008626656,1684,-22.3,98,P-GPS,
0.350518223151917,36.897129609234206,25700,2018-04-17 05:46:57,1872.3627064156174,106.4000034048,0.0,0.16284000521088,1872.3627064156174,106.4000034048,0.7199994039200001,0.269583008626656,1684,-22.3,98,P-GPS,
0.350518220360357,36.8971295784813,25800,2018-04-17 05:46:57,1872.8627064316172,106.9000034208,0.0,0.163087005218784,1872.8627064316172,106.9000034208,0.7199994039200001,0.269583008626656,1684,-22.3,98,P-GPS,
0.35051822633267604,36.8971295524454,25900,2018-04-17 05:46:57,1873.362706447617,107.4000034368,0.0,0.16242500519760003,1873.362706447617,107.4000034368,0.7199994039200001,0.269583008626656,1684,-22.3,98,P-GPS,
0.350518237074299,36.897129532729295,26000,2018-04-17 05:46:57,1873.8627064636173,107.90000345280001,0.0,0.161267005160544,1873.8627064636173,107.90000345280001,0.7199994039200001,0.269583008626656,1684,-22.3,98,P-GPS,
0.35051826424732996,36.897129513528206,26100,2018-04-17 05:46:57,1874.462706482817,108.500003472,0.0,0.158311005065952,1874.462706482817,108.500003472,0.7199994039200001,0.269583008626656,1684,-22.3,98,P-GPS,
0.350518372970801,36.8971294250776,26300,2018-04-17 05:46:57,1875.4627065148172,109.500003504,0.0,0.14695500470256,1875.4627065148172,109.500003504,0.7199994039200001,0.269583008626656,1684,-22.4,98,P-GPS,
0.3505184483759,36.897129377976604,26400,2018-04-17 05:46:57,1875.962706530817,110.00000352,0.0,0.139313004458016,1875.962706530817,110.00000352,0.7199994039200001,0.269583008626656,1684,-23.3,98,P-GPS,
0.35051852216599,36.8971293341464,26500,2018-04-17 05:46:57,1876.4627065468171,110.50000353600001,0.0,0.132073004226336,1876.4627065468171,110.50000353600001,0.7199994039200001,0.269583008626656,1684,-23.3,98,P-GPS,
0.350518581170215,36.8971293231321,26600,2018-04-17 05:46:58,1876.9627065628172,111.000003552,0.0,0.125902004028864,1876.9627065628172,111.000003552,0.7199994039200001,0.269583008626656,1684,-28.0,98,P-GPS,
0.350518669771818,36.8971293167652,26800,2018-04-17 05:46:58,1878.062706598017,112.1000035872,0.0,0.11646600372691202,1878.062706598017,112.1000035872,0.7199994039200001,0.269583008626656,1684,-28.0,98,P-GPS,
0.350518734216675,36.897129265417206,26900,2018-04-17 05:46:58,1878.5627066140173,112.6000036032,0.0,0.11110500355536,1878.5627066140173,112.6000036032,0.7199994039200001,0.269583008626656,1684,-28.0,98,P-GPS,
0.350518788484164,36.897129211673295,27000,2018-04-17 05:46:58,1879.0627066300171,113.1000036192,0.0,0.107416003437312,1879.0627066300171,113.1000036192,0.7199994039200001,0.269583008626656,1684,-28.0,98,P-GPS,
0.350518829089822,36.8971291596198,27100,2018-04-17 05:46:58,1879.562706646017,113.60000363520003,0.0,0.105579003378528,1879.562706646017,113.60000363520003,0.7199994039200001,0.269583008626656,1684,-28.0,98,P-GPS,
0.350518853269773,36.8971291116003,27200,2018-04-17 05:46:58,1880.0627066620173,114.1000036512,0.0,0.10560700337942402,1880.0627066620173,114.1000036512,0.7199994039200001,0.269583008626656,1684,-27.8,98,P-GPS,
0.350518872182114,36.897129065673795,27300,2018-04-17 05:46:58,1880.562706678017,114.6000036672,0.0,0.1063500034032,1880.562706678017,114.6000036672,0.7199994039200001,0.269583008626656,1684,-27.8,98,P-GPS,
0.350518887059986,36.897129027564795,27400,2018-04-17 05:46:58,1881.0627066940172,115.1000036832,0.0,0.10725400343212799,1881.0627066940172,115.1000036832,0.7199994039200001,0.269583008626656,1684,-26.1,98,P-GPS,
0.350518915746655,36.8971289903765,27500,2018-04-17 05:46:58,1881.5627067100172,115.6000036992,0.0,0.107047003425504,1881.5627067100172,115.6000036992,0.7199994039200001,0.269583008626656,1684,-26.1,98,P-GPS,
0.35051894182618604,36.8971289611567,27600,2018-04-17 05:46:59,1882.0627067260173,116.1000037152,0.0,0.106757003416224,1882.0627067260173,116.1000037152,0.7199994039200001,0.269583008626656,1684,-26.1,98,P-GPS,
0.35051895949887396,36.897128937984704,27700,2018-04-17 05:46:59,1882.562706742017,116.60000373120002,0.0,0.10690600342099202,1882.562706742017,116.60000373120002,0.7199994039200001,0.269583008626656,1684,-26.1,98,P-GPS,
0.350518985594282,36.897128912633,27800,2018-04-17 05:46:59,1883.0627067580174,117.10000374720002,0.0,0.10663000341216002,1883.0627067580174,117.10000374720002,0.7199994039200001,0.269583008626656,1684,-26.1,98,P-GPS,
0.350519024705029,36.8971288771994,27900,2018-04-17 05:46:59,1883.5627067740172,117.6000037632,0.0,0.106297003401504,1883.5627067740172,117.6000037632,0.7199994039200001,0.269583008626656,1684,-26.1,98,P-GPS,
0.35051905195011795,36.8971288486123,28000,2018-04-17 05:46:59,1884.062706790017,118.1000037792,0.0,0.10658200341062402,1884.062706790017,118.1000037792,0.7199994039200001,0.269583008626656,1684,-26.1,98,P-GPS,
0.35051906776312297,36.8971288160469,28100,2018-04-17 05:46:59,1884.562706806017,118.60000379520002,0.0,0.108193003462176,1884.562706806017,118.60000379520002,0.7199994039200001,0.269583008626656,1684,-26.1,98,P-GPS,
0.35051908704959994,36.8971287775139,28200,2018-04-17 05:46:59,1885.0627068220172,119.1000038112,0.0,0.11022100352707201,1885.0627068220172,119.1000038112,0.7199994039200001,0.269583008626656,1684,-26.1,98,P-GPS,
0.350519115577089,36.897128734962,28300,2018-04-17 05:46:59,1885.5627068380172,119.60000382720001,0.0,0.112198003590336,1885.5627068380172,119.60000382720001,0.7199994039200001,0.269583008626656,1684,-25.7,98,P-GPS,
0.35051912697741805,36.8971286962877,28400,2018-04-17 05:46:59,1886.062706854017,120.10000384320001,0.0,0.11507800368249602,1886.062706854017,120.10000384320001,0.7199994039200001,0.269583008626656,1684,-24.0,98,P-GPS,
0.35051912850245603,36.8971286721779,28500,2018-04-17 05:46:59,1886.5627068700173,120.60000385920002,0.0,0.11725200375206403,1886.5627068700173,120.60000385920002,0.7199994039200001,0.269583008626656,1684,-23.8,98,P-GPS,
0.350519132160348,36.8971286654824,28600,2018-04-17 05:47:00,1887.0627068860172,121.10000387520002,0.0,0.11767000376544001,1887.0627068860172,121.10000387520002,0.7199994039200001,0.269583008626656,1684,-23.8,98,P-GPS,
0.350519148489978,36.897128664422496,28700,2018-04-17 05:47:00,1887.6627069052172,121.7000038944,0.0,0.11683000373856,1887.6627069052172,121.7000038944,0.7199994039200001,0.269583008626656,1684,-23.8,98,P-GPS,
0.350519159357806,36.8971286637384,28800,2018-04-17 05:47:00,1888.1627069212173,122.20000391040001,0.0,0.11628100372099201,1888.1627069212173,122.20000391040001,0.7199994039200001,0.269583008626656,1684,-23.8,97,P-GPS,
0.350519172305564,36.897128641683004,28900,2018-04-17 05:47:00,1888.662706937217,122.70000392640002,0.0,0.11769800376633599,1888.662706937217,122.70000392640002,0.7199994039200001,0.269583008626656,1684,-23.9,97,P-GPS,
0.350519170195508,36.897128621605,29000,2018-04-17 05:47:00,1889.162706953217,123.2000039424,0.0,0.119767003832544,1889.162706953217,123.2000039424,0.7199994039200001,0.269583008626656,1684,-23.8,97,P-GPS,
0.350519163626365,36.8971286038363,29100,2018-04-17 05:47:00,1889.6627069692172,123.7000039584,0.0,0.121851003899232,1889.6627069692172,123.7000039584,0.7199994039200001,0.269583008626656,1684,-23.8,97,P-GPS,
0.350519162206361,36.8971285985743,29200,2018-04-17 05:47:00,1890.162706985217,124.2000039744,0.0,0.12244100391811201,1890.162706985217,124.2000039744,0.7199994039200001,0.269583008626656,1684,-23.9,97,P-GPS,
0.35051919059624703,36.8971286042271,29300,2018-04-17 05:47:00,1890.662707001217,124.7000039904,0.0,0.120409003853088,1890.662707001217,124.7000039904,0.7199994039200001,0.269583008626656,1684,-23.9,97,P-GPS,
0.35051922345010494,36.897128619540894,29400,2018-04-17 05:47:00,1891.1627070172171,125.20000400640001,0.0,0.11724700375190401,1891.1627070172171,125.20000400640001,0.7199994039200001,0.269583008626656,1684,-23.8,97,P-GPS,
0.35051924977634497,36.8971286283444,29500,2018-04-17 05:47:00,1891.7627070364172,125.8000040256,0.0,0.11510200368326402,1891.7627070364172,125.8000040256,0.7199994039200001,0.269583008626656,1684,-23.8,97,P-GPS,
0.35051927212633094,36.897128631289604,29600,2018-04-17 05:47:00,1892.2627070524172,126.3000040416,0.0,0.113776003640832,1892.2627070524172,126.3000040416,0.7199994039200001,0.269583008626656,1099,-23.8,97,P-GPS,
0.35051926599279704,36.8971286297394,29700,2018-04-17 05:47:01,1892.7627070684173,126.8000040576,0.0,0.114211003654752,1892.7627070684173,126.8000040576,0.7199994039200001,0.269583008626656,799,-23.8,97,P-GPS,
0.350519275579854,36.8971286181331,29800,2018-04-17 05:47:01,1893.1627070812171,127.20000407040001,0.0,0.114961003678752,1893.1627070812171,127.20000407040001,0.7199994039200001,0.269583008626656,557,-23.8,97,P-GPS,
0.350519309234092,36.8971286158955,29900,2018-04-17 05:47:01,1893.662707097217,127.70000408640001,0.0,0.11375500364016002,1893.662707097217,127.70000408640001,0.7199994039200001,0.269583008626656,452,-23.8,97,P-GPS,
0.350519333396537,36.8971286022732,30000,2018-04-17 05:47:01,1893.962707106817,128.000004096,0.0,0.114212003654784,1893.962707106817,128.000004096,0.7199994039200001,0.269583008626656,452,-23.8,97,P-GPS,
0.35051933499119,36.8971286128293,30100,2018-04-17 05:47:01,1894.2627071164172,128.3000041056,0.0,0.113049003617568,1894.2627071164172,128.3000041056,0.7199994039200001,0.269583008626656,376,-23.8,97,P-GPS,
0.35051933018605896,36.8971286334287,30200,2018-04-17 05:47:01,1894.4627071228172,128.50000411200003,0.0,0.111093003554976,1894.4627071228172,128.50000411200003,0.7199994039200001,0.269583008626656,364,-23.8,97,P-GPS,
0.350519314906776,36.897128655422,30300,2018-04-17 05:47:01,1894.5627071260174,128.60000411520002,0.0,0.109442003502144,1894.5627071260174,128.60000411520002,0.7199994039200001,0.269583008626656,364,-23.8,97,P-GPS,
