latitude,longitude,time_millisecond,datetime_utc,altitude_m,ascent_m,speed_kph,distance_m,max_altitude_m,max_ascent_m,max_speed_kph,max_distance_m,rc_throttle,gimbal_pitch_degrees,battery_percent,flycState,message
0.375905423866919,36.9254581421139,0,2018-04-17 06:57:47,1630.5000521760003,0.0,0.0,0.0,1630.5000521760003,0.0,0.0,0.0,364,0.0,99,Motors_Started,Setting new Return-To-Home altitude to 45m (148 ft). Setting new Maximum Flight Altitude to 150m (492 ft)
0.3759054546897,36.9254581404432,100,2018-04-17 06:57:47,1630.5000521760003,0.0,0.0,0.00343271010984672,1630.5000521760003,0.0,0.0,0.00343271010984672,364,0.0,99,Motors_Started,
0.375905471766378,36.9254581425957,200,2018-04-17 06:57:47,1630.5000521760003,0.0,0.0,0.00532698017046336,1630.5000521760003,0.0,0.0,0.00532698017046336,364,0.0,99,Motors_Started,
0.375905489025238,36.9254581405336,300,2018-04-17 06:57:47,1630.5000521760003,0.0,0.0,0.00724813023194016,1630.5000521760003,0.0,0.0,0.00724813023194016,364,0.0,99,Motors_Started,
0.375905491512075,36.9254581422183,400,2018-04-17 06:57:47,1630.5000521760003,0.0,0.0,0.007522560240721921,1630.5000521760003,0.0,0.0,0.007522560240721921,364,0.0,99,Motors_Started,
0.375905499165762,36.9254581396413,500,2018-04-17 06:57:47,1630.5000521760003,0.0,0.0,0.0083782002681024,1630.5000521760003,0.0,0.0,0.0083782002681024,364,0.0,99,Motors_Started,
0.375905493129731,36.9254581410968,600,2018-04-17 06:57:47,1630.5000521760003,0.0,0.0,0.00770328024650496,1630.5000521760003,0.0,0.0,0.0083782002681024,364,0.0,99,Motors_Started,
0.375905495033789,36.9254581385048,700,2018-04-17 06:57:47,1630.5000521760003,0.0,0.0,0.00792436025357952,1630.5000521760003,0.0,0.0,0.0083782002681024,364,0.0,99,Motors_Started,
0.375905484759732,36.9254581402681,800,2018-04-17 06:57:47,1630.5000521760003,0.0,0.0,0.00677476021679232,1630.5000521760003,0.0,0.0,0.0083782002681024,364,0.0,99,Motors_Started,
0.375905483017501,36.9254581380926,900,2018-04-17 06:57:47,1630.5000521760003,0.0,0.0,0.0065930902109788804,1630.5000521760003,0.0,0.0,0.0083782002681024,364,0.0,99,Motors_Started,
0.37590550212668,36.9254581085996,1000,2018-04-17 06:57:48,1630.5000521760003,0.0,0.0,0.00946739030295648,1630.5000521760003,0.0,0.0,0.00946739030295648,364,0.0,99,Motors_Started,
0.375905528514598,36.925458076156,1100,2018-04-17 06:57:48,1630.5000521760003,0.0,0.0,0.0137561004401952,1630.5000521760003,0.0,0.0,0.0137561004401952,364,0.0,99,Motors_Started,
0.375905543643249,36.9254580505585,1200,2018-04-17 06:57:48,1630.5000521760003,0.0,0.0,0.0167654005364928,1630.5000521760003,0.0,0.0,0.0167654005364928,364,0.0,99,Motors_Started,
0.375905557260705,36.9254580285626,1300,2018-04-17 06:57:48,1630.5000521760003,0.0,0.0,0.019480800623385603,1630.5000521760003,0.0,0.0,0.019480800623385603,364,0.0,99,Motors_Started,
0.375905558939427,36.9254580473172,1400,2018-04-17 06:57:48,1630.5000521760003,0.0,0.0,0.0183509005872288,1630.5000521760003,0.0,0.0,0.019480800623385603,912,0.0,99,Motors_Started,
0.375905563774074,36.9254580640055,1500,2018-04-17 06:57:48,1630.5000521760003,0.0,0.0,0.017818900570204802,1630.5000521760003,0.0,0.0,0.019480800623385603,912,0.0,99,Assisted_Takeoff,
0.375905589364257,36.9254580567949,1600,2018-04-17 06:57:48,1630.5000521760003,0.0,0.0,0.020706000662592,1630.5000521760003,0.0,0.0,0.020706000662592,1024,0.0,99,Assisted_Takeoff,
0.375905618824234,36.9254580386457,1700,2018-04-17 06:57:48,1630.5000521760003,0.0,0.0,0.024544500785424004,1630.5000521760003,0.0,0.0,0.024544500785424004,1024,0.0,99,Assisted_Takeoff,
0.375905637554393,36.9254580282451,1800,2018-04-17 06:57:48,1630.5000521760003,0.0,0.0,0.026926500861648002,1630.5000521760003,0.0,0.0,0.026926500861648002,1024,0.0,99,Assisted_Takeoff,
0.375905653981322,36.9254580167825,1900,2018-04-17 06:57:48,1630.5000521760003,0.0,0.0,0.029139400932460802,1630.5000521760003,0.0,0.0,0.029139400932460802,1024,0.0,99,Assisted_Takeoff,
0.375905658942377,36.9254580141777,2000,2018-04-17 06:57:49,1630.5000521760003,0.0,0.0,0.0297624009523968,1630.5000521760003,0.0,0.0,0.0297624009523968,1024,0.0,99,Assisted_Takeoff,
0.37590566592657,36.9254580075585,2100,2018-04-17 06:57:49,1630.5000521760003,0.0,0.0,0.0307977009855264,1630.5000521760003,0.0,0.0,0.0307977009855264,1024,0.0,99,Assisted_Takeoff,
0.375905661439392,36.9254580090462,2200,2018-04-17 06:57:49,1630.5000521760003,0.0,0.0,0.030281300969001602,1630.5000521760003,0.0,0.0,0.0307977009855264,1024,0.0,99,Assisted_Takeoff,
0.375905662220842,36.9254580051255,2300,2018-04-17 06:57:49,1630.5000521760003,0.0,0.0,0.0305721009783072,1630.5000521760003,0.0,0.0,0.0307977009855264,1024,0.0,99,Assisted_Takeoff,
0.375905653295951,36.9254580095354,2400,2018-04-17 06:57:49,1630.5000521760003,0.0,0.0,0.029467300942953602,1630.5000521760003,0.0,0.0,0.0307977009855264,1024,0.0,99,Assisted_Takeoff,
0.37590565130355,36.9254580071308,2500,2018-04-17 06:57:49,1630.5000521760003,0.0,0.0,0.0294112009411584,1630.5000521760003,0.0,0.0,0.0307977009855264,1024,0.0,99,Assisted_Takeoff,
0.375905673400313,36.9254579811051,2600,2018-04-17 06:57:49,1630.5000521760003,0.0,0.0,0.0330246010567872,1630.5000521760003,0.0,0.0,0.0330246010567872,1024,0.0,99,Assisted_Takeoff,
0.375905699446664,36.9254579511886,2700,2018-04-17 06:57:49,1630.5000521760003,0.0,0.0,0.0372823011930336,1630.5000521760003,0.0,0.0,0.0372823011930336,1024,0.0,99,Assisted_Takeoff,
0.3759057172881,36.9254579304282,2800,2018-04-17 06:57:49,1630.5000521760003,0.0,0.0,0.040235201287526404,1630.5000521760003,0.0,0.0,0.040235201287526404,1024,0.0,99,Assisted_Takeoff,
0.375905732168618,36.9254579116125,2900,2018-04-17 06:57:50,1630.5000521760003,0.0,0.0,0.0428076013698432,1630.5000521760003,0.0,0.0,0.0428076013698432,1024,0.0,99,Assisted_Takeoff,
0.375905745090728,36.9254578932176,3100,2018-04-17 06:57:50,1630.5000521760003,0.0,0.0,0.0451901014460832,1630.5000521760003,0.0,0.0,0.0451901014460832,1024,0.0,99,Assisted_Takeoff,
0.375905743257304,36.9254578937851,3200,2018-04-17 06:57:50,1630.5000521760003,0.0,0.0,0.0449904014396928,1630.5000521760003,0.0,0.0,0.0451901014460832,1025,0.0,99,Assisted_Takeoff,
0.375905744947629,36.9254578888259,3300,2018-04-17 06:57:50,1630.5000521760003,0.0,0.0,0.045478401455308806,1630.5000521760003,0.0,0.0,0.045478401455308806,1073,0.0,99,Assisted_Takeoff,
0.375905737379232,36.9254578313255,3500,2018-04-17 06:57:50,1630.5000521760003,0.0,0.0,0.049091601570931204,1630.5000521760003,0.0,0.0,0.049091601570931204,1118,0.0,99,Assisted_Takeoff,
0.375905729639034,36.9254578114836,3600,2018-04-17 06:57:50,1630.5000521760003,0.0,0.0,0.0500808016025856,1630.5000521760003,0.0,0.0,0.0500808016025856,1144,0.0,99,Assisted_Takeoff,
0.37590572607152,36.9254577929195,3700,2018-04-17 06:57:50,1630.5000521760003,0.0,0.0,0.05135500164336001,1630.5000521760003,0.0,0.0,0.05135500164336001,1192,0.0,99,Assisted_Takeoff,
0.375905776530893,36.9254577163197,3900,2018-04-17 06:57:50,1630.5000521760003,0.0,0.0,0.061482501967440005,1630.5000521760003,0.0,0.0,0.061482501967440005,1208,0.0,99,Assisted_Takeoff,
0.37590579812345,36.9254576916252,4000,2018-04-17 06:57:51,1630.5000521760003,0.0,0.0,0.06512910208413121,1630.5000521760003,0.0,0.0,0.06512910208413121,1234,0.0,99,Assisted_Takeoff,
0.375905814916168,36.9254576689013,4100,2018-04-17 06:57:51,1630.5000521760003,0.0,0.0,0.0682664021845248,1630.5000521760003,0.0,0.0,0.0682664021845248,1252,0.0,99,Assisted_Takeoff,
0.375905825056896,36.9254576653837,4200,2018-04-17 06:57:51,1630.5000521760003,0.0,0.0,0.06928910221725121,1630.5000521760003,0.0,0.0,0.06928910221725121,1264,0.0,99,Assisted_Takeoff,
0.37590583937845,36.925457684633,4300,2018-04-17 06:57:51,1630.5000521760003,0.0,0.0,0.0687259021992288,1630.5000521760003,0.0,0.0,0.06928910221725121,1299,0.0,99,Assisted_Takeoff,
0.375905879082561,36.9254577804607,4400,2018-04-17 06:57:51,1630.5000521760003,0.0,0.0,0.0646536020689152,1630.5000521760003,0.0,0.0,0.06928910221725121,1399,0.0,99,P-GPS,Obstacle Avoided. Revise Flight Route
0.375905918233815,36.9254578813541,4500,2018-04-17 06:57:51,1630.5000521760003,0.0,0.0,0.062155301988969604,1630.5000521760003,0.0,0.0,0.06928910221725121,1541,0.0,99,P-GPS,
0.375905942393003,36.925458004814,4600,2018-04-17 06:57:51,1630.5000521760003,0.0,0.0,0.0596504019088128,1630.5000521760003,0.0,0.0,0.06928910221725121,1625,0.0,99,P-GPS,
0.375905956373398,36.9254581034724,4700,2018-04-17 06:57:51,1630.6000521792,0.1000000032,0.0,0.0593737018999584,1630.6000521792,0.1000000032,0.0,0.06928910221725121,1684,0.0,99,P-GPS,
0.375905955016904,36.9254582541733,4800,2018-04-17 06:57:51,1630.7000521824,0.2000000064,0.0,0.0603673019317536,1630.7000521824,0.2000000064,0.0,0.06928910221725121,1684,0.0,99,P-GPS,
0.375905954688569,36.9254583806385,4900,2018-04-17 06:57:51,1630.8000521856,0.3000000096,0.0,0.0647161020709152,1630.8000521856,0.3000000096,0.0,0.06928910221725121,1684,0.0,99,P-GPS,
0.375905943110536,36.9254584304578,5000,2018-04-17 06:57:52,1631.000052192,0.500000016,0.0,0.0660486021135552,1631.000052192,0.500000016,0.0,0.06928910221725121,1684,0.0,99,P-GPS,
0.375905938618677,36.9254584561265,5100,2018-04-17 06:57:52,1631.3000522016002,0.8000000256,0.0,0.06705360214571521,1631.3000522016002,0.8000000256,0.0,0.06928910221725121,1684,0.0,99,P-GPS,Home Point Recorded. RTH Altitude:  45m.
0.375905963495398,36.9254585621176,5200,2018-04-17 06:57:52,1631.500052208,1.000000032,0.0,0.0760437024333984,1631.500052208,1.000000032,0.0,0.0760437024333984,1684,0.0,99,P-GPS,
0.375905987198622,36.9254586463831,5300,2018-04-17 06:57:52,1631.9000522208,1.4000000448,0.0,0.08407790269049281,1631.9000522208,1.4000000448,0.0,0.08407790269049281,1684,0.0,99,P-GPS,
0.375905965355488,36.9254587638599,5400,2018-04-17 06:57:52,1632.3000522336,1.8000000576000001,0.0,0.0916868029339776,1632.3000522336,1.8000000576000001,0.0,0.0916868029339776,1684,0.0,99,P-GPS,
0.375905940984806,36.9254588284431,5500,2018-04-17 06:57:52,1632.8000522496002,2.3000000736,0.0,0.09556210305798721,1632.8000522496002,2.3000000736,0.0,0.09556210305798721,1684,0.0,99,P-GPS,
0.375905914056245,36.9254589198641,5600,2018-04-17 06:57:52,1633.2000522624003,2.7000000864,0.0,0.10223400327148802,1633.2000522624003,2.7000000864,0.0,0.10223400327148802,1684,0.0,99,P-GPS,
0.375905905314147,36.9254589982974,5700,2018-04-17 06:57:52,1633.7000522784,3.2000001024,0.0,0.109232003495424,1633.7000522784,3.2000001024,0.0,0.109232003495424,1684,0.0,99,P-GPS,
0.375905906796235,36.9254590170539,5800,2018-04-17 06:57:52,1634.3000522976001,3.8000001216000006,0.0,0.11113400355628801,1634.3000522976001,3.8000001216000006,0.0,0.11113400355628801,1684,0.0,99,P-GPS,
0.375905918087458,36.925459007387,5900,2018-04-17 06:57:52,1634.8000523136002,4.3000001376,0.0,0.110812003545984,1634.8000523136002,4.3000001376,0.0,0.11113400355628801,1684,0.0,99,P-GPS,
0.375905929115078,36.925458974021,6000,2018-04-17 06:57:53,1635.3000523296,4.8000001536,0.0,0.108237003463584,1635.3000523296,4.8000001536,0.0,0.11113400355628801,1684,0.0,99,P-GPS,
0.375905940880586,36.9254589383661,6100,2018-04-17 06:57:53,1635.8000523455999,5.3000001696000005,0.0,0.1055750033784,1635.8000523455999,5.3000001696000005,0.0,0.11113400355628801,1684,0.0,99,P-GPS,
0.375905937571587,36.9254588555036,6200,2018-04-17 06:57:53,1636.3000523616001,5.8000001856,0.0,0.0977599031283168,1636.3000523616001,5.8000001856,0.0,0.11113400355628801,1684,0.0,99,P-GPS,
0.375905931594384,36.9254587776747,6300,2018-04-17 06:57:53,1636.7000523744002,6.200000198400001,0.0,0.09046100289475201,1636.7000523744002,6.200000198400001,0.0,0.11113400355628801,1684,0.0,99,P-GPS,
0.375905944096559,36.9254587095959,6400,2018-04-17 06:57:53,1637.2000523904,6.7000002144,0.0,0.0856114027395648,1637.2000523904,6.7000002144,0.0,0.11113400355628801,1684,0.0,99,P-GPS,
0.375905955943285,36.9254586415648,6500,2018-04-17 06:57:53,1637.7000524064,7.200000230400001,0.0,0.081153502596912,1637.7000524064,7.200000230400001,0.0,0.11113400355628801,1684,0.0,99,P-GPS,
0.375905932407995,36.9254585304036,6600,2018-04-17 06:57:53,1638.2000524224002,7.7000002464,0.0,0.07115250227688001,1638.2000524224002,7.7000002464,0.0,0.11113400355628801,1684,0.0,99,P-GPS,
0.375905898580735,36.9254584150826,6700,2018-04-17 06:57:53,1638.6000524352,8.1000002592,0.0,0.0608961019486752,1638.6000524352,8.1000002592,0.0,0.11113400355628801,1684,0.0,99,P-GPS,
0.375905849627673,36.9254582566122,6900,2018-04-17 06:57:54,1639.6000524672,9.1000002912,0.0,0.0490293015689376,1639.6000524672,9.1000002912,0.0,0.11113400355628801,1684,0.0,99,P-GPS,
0.375905858627065,36.9254581175313,7100,2018-04-17 06:57:54,1640.500052496,10.00000032,0.0,0.0484252015496064,1640.500052496,10.00000032,0.0,0.11113400355628801,1684,0.0,99,P-GPS,
0.375905868402818,36.925458091869,7200,2018-04-17 06:57:54,1641.0000525120001,10.500000336,0.0,0.049749901591996805,1641.0000525120001,10.500000336,0.0,0.11113400355628801,1684,0.0,99,P-GPS,
0.375905875694379,36.9254580651088,7300,2018-04-17 06:57:54,1641.500052528,11.000000351999999,0.0,0.050970501631056,1641.500052528,11.000000351999999,0.0,0.11113400355628801,1684,0.0,99,P-GPS,
0.37590588030939,36.9254580364509,7400,2018-04-17 06:57:54,1642.0000525440003,11.500000368000002,0.0,0.05210140166724481,1642.0000525440003,11.500000368000002,0.0,0.11113400355628801,1684,0.0,99,P-GPS,
0.375905881493269,36.9254579878944,7500,2018-04-17 06:57:54,1642.4000525568001,11.9000003808,0.0,0.0537028017184896,1642.4000525568001,11.9000003808,0.0,0.11113400355628801,1684,0.0,99,P-GPS,
0.3759058856057,36.9254579582665,7600,2018-04-17 06:57:54,1642.9000525728002,12.400000396800001,0.0,0.05526850176859201,1642.9000525728002,12.400000396800001,0.0,0.11113400355628801,1684,0.0,99,P-GPS,
0.375905893291345,36.9254579164619,7700,2018-04-17 06:57:54,1643.4000525888,12.9000004128,0.0,0.057920801853465605,1643.4000525888,12.9000004128,0.0,0.11113400355628801,1684,0.0,99,P-GPS,
0.375905899788023,36.9254578743099,7800,2018-04-17 06:57:54,1643.9000526048003,13.4000004288,0.0,0.0607288019433216,1643.9000526048003,13.4000004288,0.0,0.11113400355628801,1684,0.0,99,P-GPS,
0.375905891319503,36.9254578174041,7900,2018-04-17 06:57:54,1644.4000526208001,13.9000004448,0.0,0.0632941020254112,1644.4000526208001,13.9000004448,0.0,0.11113400355628801,1684,0.0,99,P-GPS,
0.375905825014352,36.9254577630845,8000,2018-04-17 06:57:55,1644.8000526336,14.300000457600001,0.0,0.06137290196393281,1644.8000526336,14.300000457600001,0.0,0.11113400355628801,1684,0.0,99,P-GPS,
0.375905752111765,36.925457700172,8100,2018-04-17 06:57:55,1645.3000526496,14.8000004736,0.0,0.061218801959001604,1645.3000526496,14.8000004736,0.0,0.11113400355628801,1684,0.0,99,P-GPS,
0.375905649514704,36.9254576185911,8200,2018-04-17 06:57:55,1645.8000526656,15.3000004896,0.0,0.0633954020286528,1645.8000526656,15.3000004896,0.0,0.11113400355628801,1684,0.0,99,P-GPS,
0.375905553356104,36.9254575351002,8300,2018-04-17 06:57:55,1646.3000526816002,15.8000005056,0.0,0.06902100220867201,1646.3000526816002,15.8000005056,0.0,0.11113400355628801,1684,0.0,99,P-GPS,
0.375905459575846,36.92545747934,8400,2018-04-17 06:57:55,1646.9000527008,16.400000524800003,0.0,0.0738098023619136,1646.9000527008,16.400000524800003,0.0,0.11113400355628801,1684,0.0,99,P-GPS,
0.375905386519573,36.9254574427215,8500,2018-04-17 06:57:55,1647.4000527168002,16.9000005408,0.0,0.0778858024923456,1647.4000527168002,16.9000005408,0.0,0.11113400355628801,1684,0.0,99,P-GPS,
0.375905299767273,36.9254574336249,8600,2018-04-17 06:57:55,1647.9000527328,17.400000556800002,0.0,0.0799862025595584,1647.9000527328,17.400000556800002,0.0,0.11113400355628801,1684,0.0,99,P-GPS,
0.375905222787468,36.9254574140502,8700,2018-04-17 06:57:55,1648.4000527488,17.9000005728,0.0,0.08399460268782721,1648.4000527488,17.9000005728,0.0,0.11113400355628801,1684,0.0,99,P-GPS,
0.37590504734909,36.9254573605169,8900,2018-04-17 06:57:55,1649.500052784,19.000000608,0.0,0.09647620308723841,1649.500052784,19.000000608,0.0,0.11113400355628801,1684,0.0,99,P-GPS,
0.375904957702841,36.9254573558988,9000,2018-04-17 06:57:56,1650.0000528000003,19.500000624000002,0.0,0.10164400325260801,1650.0000528000003,19.500000624000002,0.0,0.11113400355628801,1684,0.0,99,P-GPS,
0.375904876376108,36.9254573402399,9100,2018-04-17 06:57:56,1650.6000528192,20.1000006432,0.0,0.107974003455168,1650.6000528192,20.1000006432,0.0,0.11113400355628801,1684,0.0,99,P-GPS,
0.37590477173759,36.9254573163971,9200,2018-04-17 06:57:56,1651.1000528352,20.6000006592,0.0,0.117007003744224,1651.1000528352,20.6000006592,0.0,0.117007003744224,1684,0.0,99,P-GPS,
0.375904687905293,36.9254572901764,9300,2018-04-17 06:57:56,1651.7000528544002,21.200000678400002,0.0,0.12519500400624,1651.7000528544002,21.200000678400002,0.0,0.12519500400624,1684,0.0,99,P-GPS,
0.375904584334219,36.9254572598521,9400,2018-04-17 06:57:56,1652.3000528736002,21.8000006976,0.0,0.135433004333856,1652.3000528736002,21.8000006976,0.0,0.135433004333856,1684,0.0,99,P-GPS,
0.375904506783441,36.9254572427452,9500,2018-04-17 06:57:56,1652.8000528896002,22.300000713600003,0.0,0.142841004570912,1652.8000528896002,22.300000713600003,0.0,0.142841004570912,1684,0.0,99,P-GPS,
0.375904445803709,36.9254572494505,9600,2018-04-17 06:57:56,1653.4000529088,22.900000732800002,0.0,0.14725600471219202,1653.4000529088,22.900000732800002,0.0,0.14725600471219202,1684,0.0,99,P-GPS,
0.37590441650902,36.9254572462402,9700,2018-04-17 06:57:56,1653.9000529248,23.4000007488,0.0,0.14991500479728,1653.9000529248,23.4000007488,0.0,0.14991500479728,1684,0.0,99,P-GPS,
0.375904396775332,36.925457268105,9800,2018-04-17 06:57:56,1654.500052944,24.000000768000003,0.0,0.1499750047992,1654.500052944,24.000000768000003,0.0,0.1499750047992,1684,0.0,99,P-GPS,
0.375904390442109,36.9254572910265,9900,2018-04-17 06:57:56,1655.0000529600002,24.500000784,0.0,0.148879004764128,1655.0000529600002,24.500000784,0.0,0.1499750047992,1684,0.0,99,P-GPS,
0.375904365574955,36.925457329608,10000,2018-04-17 06:57:57,1655.6000529792,25.100000803200004,0.0,0.14837200474790402,1655.6000529792,25.100000803200004,0.0,0.1499750047992,1684,0.0,99,P-GPS,
0.375904351235895,36.92545735757,10100,2018-04-17 06:57:57,1656.2000529984002,25.7000008224,0.0,0.147784004729088,1656.2000529984002,25.7000008224,0.0,0.1499750047992,1684,0.0,99,P-GPS,
0.375904324105408,36.9254574083711,10200,2018-04-17 06:57:57,1656.7000530144,26.200000838400005,0.0,0.147021004704672,1656.7000530144,26.200000838400005,0.0,0.1499750047992,1684,0.0,99,P-GPS,
0.375904326672446,36.9254574365649,10300,2018-04-17 06:57:57,1657.3000530336003,26.8000008576,0.0,0.14506400464204802,1657.3000530336003,26.8000008576,0.0,0.1499750047992,1684,0.0,99,P-GPS,
0.375904305622772,36.9254574566257,10400,2018-04-17 06:57:57,1657.8000530496001,27.3000008736,0.0,0.14586000466752003,1657.8000530496001,27.3000008736,0.0,0.1499750047992,1684,0.0,99,P-GPS,
0.375904305434483,36.9254574665691,10500,2018-04-17 06:57:57,1658.4000530688,27.9000008928,0.0,0.145303004649696,1658.4000530688,27.9000008928,0.0,0.1499750047992,1684,0.0,99,P-GPS,
0.375904286229632,36.92545747292,10600,2018-04-17 06:57:57,1658.9000530848002,28.4000009088,0.0,0.146776004696832,1658.9000530848002,28.4000009088,0.0,0.1499750047992,1684,0.0,99,P-GPS,
0.375904280930676,36.9254574656483,10700,2018-04-17 06:57:57,1659.500053104,29.000000928000002,0.0,0.147694004726208,1659.500053104,29.000000928000002,0.0,0.1499750047992,1684,0.0,99,P-GPS,
0.375904255622111,36.9254574841696,10800,2018-04-17 06:57:57,1660.1000531232,29.6000009472,0.0,0.149102004771264,1660.1000531232,29.6000009472,0.0,0.1499750047992,1684,0.0,99,P-GPS,
0.375904249359319,36.9254575016416,10900,2018-04-17 06:57:57,1660.6000531392,30.1000009632,0.0,0.148769004760608,1660.6000531392,30.1000009632,0.0,0.1499750047992,1684,0.0,99,P-GPS,
0.375904235218013,36.9254575618058,11000,2018-04-17 06:57:58,1661.2000531584001,30.700000982400002,0.0,0.14709600470707201,1661.2000531584001,30.700000982400002,0.0,0.1499750047992,1684,0.0,99,P-GPS,
0.375904241908476,36.9254576177373,11100,2018-04-17 06:57:58,1661.8000531776,31.300001001600002,0.0,0.14379500460144,1661.8000531776,31.300001001600002,0.0,0.1499750047992,1684,0.0,99,P-GPS,
0.375904266690645,36.9254577055262,11200,2018-04-17 06:57:58,1662.3000531936002,31.800001017600003,0.0,0.137539004401248,1662.3000531936002,31.800001017600003,0.0,0.1499750047992,1684,0.0,99,P-GPS,
0.375904301633898,36.9254577721521,11300,2018-04-17 06:57:58,1662.9000532128,32.4000010368,0.0,0.13140600420499202,1662.9000532128,32.4000010368,0.0,0.1499750047992,1684,0.0,99,P-GPS,
0.375904329108802,36.9254578521619,11400,2018-04-17 06:57:58,1663.4000532288003,32.9000010528,0.0,0.12594100403011202,1663.4000532288003,32.9000010528,0.0,0.1499750047992,1684,0.0,99,P-GPS,
0.375904373296223,36.9254579065822,11500,2018-04-17 06:57:58,1664.000053248,33.500001072,0.0,0.11973000383136,1664.000053248,33.500001072,0.0,0.1499750047992,1684,0.0,99,P-GPS,
0.375904408997415,36.9254579658669,11600,2018-04-17 06:57:58,1664.6000532672,34.1000010912,0.0,0.114549003665568,1664.6000532672,34.1000010912,0.0,0.1499750047992,1684,0.0,99,P-GPS,
0.37590445186946,36.925458005459,11700,2018-04-17 06:57:58,1665.1000532832002,34.6000011072,0.0,0.10915500349296,1665.1000532832002,34.6000011072,0.0,0.1499750047992,1684,0.0,99,P-GPS,
0.375904482825569,36.9254580247121,11800,2018-04-17 06:57:58,1665.6000532992,35.1000011232,0.0,0.105461003374752,1665.6000532992,35.1000011232,0.0,0.1499750047992,1684,0.0,99,P-GPS,
0.375904517132203,36.9254580215104,11900,2018-04-17 06:57:58,1666.2000533184,35.700001142400005,0.0,0.101722003255104,1666.2000533184,35.700001142400005,0.0,0.1499750047992,1684,0.0,99,P-GPS,
0.375904543094485,36.9254580319655,12000,2018-04-17 06:57:59,1666.7000533344,36.2000011584,0.0,0.0987102031587264,1666.7000533344,36.2000011584,0.0,0.1499750047992,1684,0.0,99,P-GPS,
0.375904572931243,36.925458036513,12100,2018-04-17 06:57:59,1667.2000533504,36.7000011744,0.0,0.0953551030513632,1667.2000533504,36.7000011744,0.0,0.1499750047992,1684,0.0,99,P-GPS,
0.37590457261105,36.9254580443435,12200,2018-04-17 06:57:59,1667.8000533696002,37.3000011936,0.0,0.09528720304919042,1667.8000533696002,37.3000011936,0.0,0.1499750047992,1684,0.0,99,P-GPS,
0.375904582957777,36.9254580496656,12400,2018-04-17 06:57:59,1668.9000534048,38.4000012288,0.0,0.09407760301048321,1668.9000534048,38.4000012288,0.0,0.1499750047992,1684,0.0,99,P-GPS,
0.375904608699812,36.9254580512234,12500,2018-04-17 06:57:59,1669.4000534208,38.9000012448,0.0,0.09121330291882561,1669.4000534208,38.9000012448,0.0,0.1499750047992,1684,0.0,99,P-GPS,
0.37590462272275,36.9254580728371,12600,2018-04-17 06:57:59,1669.9000534368001,39.4000012608,0.0,0.08942460286158721,1669.9000534368001,39.4000012608,0.0,0.1499750047992,1684,0.0,99,P-GPS,
0.375904648319651,36.9254580561964,12700,2018-04-17 06:57:59,1670.4000534528002,39.900001276800005,0.0,0.0867732027767424,1670.4000534528002,39.900001276800005,0.0,0.1499750047992,1684,0.0,99,P-GPS,
0.375904661724595,36.9254580242255,12800,2018-04-17 06:57:59,1671.000053472,40.500001296,0.0,0.08576280274440962,1671.000053472,40.500001296,0.0,0.1499750047992,1684,0.0,99,P-GPS,
0.375904689508292,36.9254579851129,12900,2018-04-17 06:57:59,1671.5000534880003,41.000001312,0.0,0.0835106026723392,1671.5000534880003,41.000001312,0.0,0.1499750047992,1684,0.0,99,P-GPS,
0.375904693029395,36.9254579592692,13000,2018-04-17 06:58:00,1672.000053504,41.500001328,0.0,0.0837784026809088,1672.000053504,41.500001328,0.0,0.1499750047992,1684,0.0,99,P-GPS,
0.375904719100376,36.9254579249536,13100,2018-04-17 06:58:00,1672.6000535232001,42.100001347200006,0.0,0.0820104026243328,1672.6000535232001,42.100001347200006,0.0,0.1499750047992,1684,0.0,99,P-GPS,
0.375904761156368,36.9254579137474,13200,2018-04-17 06:58:00,1673.1000535392002,42.6000013632,0.0,0.0779502024944064,1673.1000535392002,42.6000013632,0.0,0.1499750047992,1684,0.0,99,P-GPS,
0.375904821615811,36.9254578849872,13300,2018-04-17 06:58:00,1673.7000535584,43.2000013824,0.0,0.07282240233031681,1673.7000535584,43.2000013824,0.0,0.1499750047992,1684,0.0,99,P-GPS,
0.375904844955892,36.9254578459748,13400,2018-04-17 06:58:00,1674.2000535744,43.7000013984,0.0,0.0723124023139968,1674.2000535744,43.7000013984,0.0,0.1499750047992,1684,0.0,99,P-GPS,
0.375904865629803,36.9254577968369,13500,2018-04-17 06:58:00,1674.7000535904,44.2000014144,0.0,0.0729939023358048,1674.7000535904,44.2000014144,0.0,0.1499750047992,1684,0.0,99,P-GPS,
0.375904872253702,36.9254577788457,13600,2018-04-17 06:58:00,1675.3000536096001,44.8000014336,0.0,0.07344950235038401,1675.3000536096001,44.8000014336,0.0,0.1499750047992,1684,0.0,99,P-GPS,
0.375904894864037,36.9254577589845,13700,2018-04-17 06:58:00,1675.8000536256002,45.3000014496,0.0,0.072636002324352,1675.8000536256002,45.3000014496,0.0,0.1499750047992,1684,0.0,99,P-GPS,
0.375904896706825,36.9254577453742,13800,2018-04-17 06:58:00,1676.4000536448,45.9000014688,0.0,0.0733702023478464,1676.4000536448,45.9000014688,0.0,0.1499750047992,1684,0.0,99,P-GPS,
0.375904923913238,36.9254577234977,13900,2018-04-17 06:58:00,1676.9000536608,46.4000014848,0.0,0.0725133023204256,1676.9000536608,46.4000014848,0.0,0.1499750047992,1684,0.0,99,P-GPS,
0.375904932478854,36.925457721669,14000,2018-04-17 06:58:01,1677.4000536768,46.9000015008,0.0,0.07191760230136321,1677.4000536768,46.9000015008,0.0,0.1499750047992,1684,0.0,99,P-GPS,
0.375904944271231,36.9254577024546,14100,2018-04-17 06:58:01,1677.9000536928,47.4000015168,0.0,0.0723527023152864,1677.9000536928,47.4000015168,0.0,0.1499750047992,1684,0.0,99,P-GPS,
0.375904951108457,36.9254576567406,14200,2018-04-17 06:58:01,1678.4000537088002,47.9000015328,0.0,0.07534800241113601,1678.4000537088002,47.9000015328,0.0,0.1499750047992,1684,0.0,99,P-GPS,
0.375904976358295,36.9254575863065,14300,2018-04-17 06:58:01,1679.000053728,48.50000155200001,0.0,0.0793526025392832,1679.000053728,48.50000155200001,0.0,0.1499750047992,1684,0.0,99,P-GPS,
0.375904979064565,36.9254575418124,14400,2018-04-17 06:58:01,1679.5000537440003,49.000001568,0.0,0.0830848026587136,1679.5000537440003,49.000001568,0.0,0.1499750047992,1684,0.0,99,P-GPS,
0.375904992901861,36.9254574834624,14500,2018-04-17 06:58:01,1680.0000537600001,49.500001584,0.0,0.0875309028009888,1680.0000537600001,49.500001584,0.0,0.1499750047992,1684,0.0,99,P-GPS,
0.375904980866846,36.9254574233796,14600,2018-04-17 06:58:01,1680.500053776,50.000001600000004,0.0,0.0938889030044448,1680.500053776,50.000001600000004,0.0,0.1499750047992,1684,0.0,99,P-GPS,
0.375904977818602,36.925457348535,14700,2018-04-17 06:58:01,1681.1000537952002,50.6000016192,0.0,0.10123400323948802,1681.1000537952002,50.6000016192,0.0,0.1499750047992,1684,0.0,99,P-GPS,
0.375904987579292,36.9254572943374,14800,2018-04-17 06:58:01,1681.6000538112,51.1000016352,0.0,0.106028003392896,1681.6000538112,51.1000016352,0.0,0.1499750047992,1684,0.0,99,P-GPS,
0.375905016231357,36.9254572349307,14900,2018-04-17 06:58:01,1682.1000538271999,51.6000016512,0.0,0.110599003539168,1682.1000538271999,51.6000016512,0.0,0.1499750047992,1684,0.0,99,P-GPS,
0.375905012864956,36.9254571753677,15000,2018-04-17 06:58:02,1682.6000538432002,52.1000016672,0.0,0.11681800373817601,1682.6000538432002,52.1000016672,0.0,0.1499750047992,1684,0.0,99,P-GPS,
0.37590506020993,36.9254570780882,15200,2018-04-17 06:58:02,1683.6000538752,53.1000016992,0.0,0.125044004001408,1683.6000538752,53.1000016992,0.0,0.1499750047992,1684,0.0,99,P-GPS,
0.375905125252222,36.9254570361508,15300,2018-04-17 06:58:02,1684.2000538944,53.7000017184,0.0,0.12739200407654402,1684.2000538944,53.7000017184,0.0,0.1499750047992,1684,0.0,99,P-GPS,
0.375905179332033,36.9254570071353,15400,2018-04-17 06:58:02,1684.7000539104001,54.200001734400004,0.35999970196000003,0.12911000413152002,1684.7000539104001,54.200001734400004,0.35999970196000003,0.1499750047992,1684,0.0,99,P-GPS,
0.375905251228243,36.9254569778163,15500,2018-04-17 06:58:02,1685.2000539264,54.700001750400006,0.35999970196000003,0.13089000418848,1685.2000539264,54.700001750400006,0.35999970196000003,0.1499750047992,1684,0.0,99,P-GPS,
0.375905301945113,36.9254569440243,15600,2018-04-17 06:58:02,1685.8000539456,55.3000017696,0.0,0.13392000428544001,1685.8000539456,55.3000017696,0.35999970196000003,0.1499750047992,1684,0.0,99,P-GPS,
0.375905348716467,36.9254569002594,15700,2018-04-17 06:58:02,1686.3000539616,55.8000017856,0.0,0.138351004427232,1686.3000539616,55.8000017856,0.35999970196000003,0.1499750047992,1684,0.0,99,P-GPS,
0.375905345462633,36.9254568852867,15800,2018-04-17 06:58:02,1686.8000539776,56.3000018016,0.0,0.140036004481152,1686.8000539776,56.3000018016,0.35999970196000003,0.1499750047992,1684,0.0,99,P-GPS,
0.375905330584965,36.9254568667949,15900,2018-04-17 06:58:03,1687.3000539936002,56.8000018176,0.0,0.14219900455036802,1687.3000539936002,56.8000018176,0.35999970196000003,0.1499750047992,1684,0.0,99,P-GPS,
0.375905199761474,36.9254568829629,16100,2018-04-17 06:58:03,1688.3000540256003,57.8000018496,0.0,0.142223004551136,1688.3000540256003,57.8000018496,0.35999970196000003,0.1499750047992,1684,0.0,99,P-GPS,
0.375905132925043,36.9254569080701,16200,2018-04-17 06:58:03,1688.9000540448,58.400001868800004,0.0,0.14099300451177602,1688.9000540448,58.400001868800004,0.35999970196000003,0.1499750047992,1684,0.0,99,P-GPS,
0.375905095576273,36.9254569020987,16300,2018-04-17 06:58:03,1689.4000540608,58.900001884800005,0.0,0.14264500456464,1689.4000540608,58.900001884800005,0.35999970196000003,0.1499750047992,1684,0.0,99,P-GPS,
0.375905076685101,36.9254568867716,16400,2018-04-17 06:58:03,1689.9000540768002,59.40000190080001,0.0,0.144839004634848,1689.9000540768002,59.40000190080001,0.35999970196000003,0.1499750047992,1684,0.0,99,P-GPS,
0.375905077617793,36.9254568616527,16500,2018-04-17 06:58:03,1690.4000540928,59.9000019168,0.0,0.147506004720192,1690.4000540928,59.9000019168,0.35999970196000003,0.1499750047992,1684,0.0,99,P-GPS,
0.375905037162562,36.925456830482,16600,2018-04-17 06:58:03,1690.9000541088,60.4000019328,0.0,0.15206600486611202,1690.9000541088,60.4000019328,0.35999970196000003,0.15206600486611202,1684,0.0,99,P-GPS,
0.375905007937692,36.9254567966407,16700,2018-04-17 06:58:03,1691.500054128,61.000001952,0.0,0.156608005011456,1691.500054128,61.000001952,0.35999970196000003,0.156608005011456,1684,0.0,99,P-GPS,
0.375904943597259,36.9254567805225,16800,2018-04-17 06:58:03,1692.000054144,61.500001968,0.0,0.160558005137856,1692.000054144,61.500001968,0.35999970196000003,0.160558005137856,1684,0.0,99,P-GPS,
0.375904905031023,36.9254567521055,16900,2018-04-17 06:58:04,1692.5000541600002,62.000001984,0.0,0.16499100527971203,1692.5000541600002,62.000001984,0.35999970196000003,0.16499100527971203,1684,0.0,98,P-GPS,
0.375904777501467,36.9254567111306,17100,2018-04-17 06:58:04,1693.500054192,63.000002015999996,0.0,0.17461200558758402,1693.500054192,63.000002015999996,0.35999970196000003,0.17461200558758402,1684,0.0,98,P-GPS,
0.375904688231796,36.9254566879334,17200,2018-04-17 06:58:04,1694.000054208,63.500002032,0.0,0.1812250057992,1694.000054208,63.500002032,0.35999970196000003,0.1812250057992,1684,0.0,98,P-GPS,
0.375904625404594,36.9254566779327,17300,2018-04-17 06:58:04,1694.5000542240002,64.000002048,0.0,0.18546000593472,1694.5000542240002,64.000002048,0.35999970196000003,0.18546000593472,1684,0.0,98,P-GPS,
0.375904565975752,36.9254567017214,17400,2018-04-17 06:58:04,1695.1000542432,64.6000020672,0.0,0.186436005965952,1695.1000542432,64.6000020672,0.35999970196000003,0.186436005965952,1684,0.0,98,P-GPS,
0.375904539452063,36.9254567142317,17500,2018-04-17 06:58:04,1695.6000542592,65.10000208320001,0.0,0.186778005976896,1695.6000542592,65.10000208320001,0.35999970196000003,0.186778005976896,1684,0.0,98,P-GPS,
0.375904476090936,36.9254567139651,17600,2018-04-17 06:58:04,1696.1000542752001,65.60000209920001,0.0,0.19060700609942402,1696.1000542752001,65.60000209920001,0.35999970196000003,0.19060700609942402,1684,0.0,98,P-GPS,
0.375904431736803,36.9254566835059,17700,2018-04-17 06:58:04,1696.6000542912,66.10000211520001,0.0,0.19617000627744002,1696.6000542912,66.10000211520001,0.35999970196000003,0.19617000627744002,1684,0.0,98,P-GPS,
0.375904358705975,36.9254566785194,17800,2018-04-17 06:58:04,1697.1000543072003,66.6000021312,0.0,0.201298006441536,1697.1000543072003,66.6000021312,0.35999970196000003,0.201298006441536,1684,0.0,98,P-GPS,
0.375904305458604,36.9254566622139,17900,2018-04-17 06:58:04,1697.6000543232,67.1000021472,0.0,0.20628200660102403,1697.6000543232,67.1000021472,0.35999970196000003,0.20628200660102403,1684,0.0,98,P-GPS,
0.37590421590823,36.9254566670809,18000,2018-04-17 06:58:05,1698.1000543392001,67.6000021632,0.0,0.212016006784512,1698.1000543392001,67.6000021632,0.35999970196000003,0.212016006784512,1684,0.0,98,P-GPS,
0.375904153253135,36.9254566442558,18100,2018-04-17 06:58:05,1698.6000543552,68.1000021792,0.0,0.21842700698966402,1698.6000543552,68.1000021792,0.35999970196000003,0.21842700698966402,1684,0.0,98,P-GPS,
0.375904080089181,36.9254566443746,18200,2018-04-17 06:58:05,1699.1000543712003,68.6000021952,0.0,0.223767007160544,1699.1000543712003,68.6000021952,0.35999970196000003,0.223767007160544,1684,0.0,98,P-GPS,
0.375904036541027,36.9254566352331,18300,2018-04-17 06:58:05,1699.6000543872,69.1000022112,0.0,0.227776007288832,1699.6000543872,69.1000022112,0.35999970196000003,0.227776007288832,1684,0.0,98,P-GPS,
0.375903986226993,36.9254566382688,18400,2018-04-17 06:58:05,1700.2000544064,69.7000022304,0.0,0.23135800740345602,1700.2000544064,69.7000022304,0.35999970196000003,0.23135800740345602,1684,0.0,98,P-GPS,
0.375903958666901,36.9254566350323,18500,2018-04-17 06:58:05,1700.7000544224002,70.2000022464,0.0,0.23374500747984,1700.7000544224002,70.2000022464,0.35999970196000003,0.23374500747984,1684,0.0,98,P-GPS,
0.375903905688732,36.9254566668448,18600,2018-04-17 06:58:05,1701.2000544384,70.7000022624,0.0,0.23541000753312002,1701.2000544384,70.7000022624,0.35999970196000003,0.23541000753312002,1684,0.0,98,P-GPS,
0.375903865051625,36.9254566958625,18700,2018-04-17 06:58:05,1701.7000544544003,71.2000022784,0.0,0.23646600756691202,1701.7000544544003,71.2000022784,0.35999970196000003,0.23646600756691202,1684,0.0,98,P-GPS,
0.375903753165818,36.9254567477855,18800,2018-04-17 06:58:05,1702.2000544704001,71.70000229440001,0.0,0.24199300774377602,1702.2000544704001,71.70000229440001,0.35999970196000003,0.24199300774377602,1684,0.0,98,P-GPS,
0.375903654593151,36.9254567952152,18900,2018-04-17 06:58:05,1702.7000544864,72.2000023104,0.0,0.24727800791289603,1702.7000544864,72.2000023104,0.35999970196000003,0.24727800791289603,1684,0.0,98,P-GPS,
0.37590355161422,36.9254568627479,19000,2018-04-17 06:58:06,1703.2000545024,72.7000023264,0.0,0.252172008069504,1703.2000545024,72.7000023264,0.35999970196000003,0.252172008069504,1684,0.0,98,P-GPS,
0.375903480530604,36.9254569080877,19100,2018-04-17 06:58:06,1703.7000545184,73.2000023424,0.0,0.255999008191968,1703.7000545184,73.2000023424,0.35999970196000003,0.255999008191968,1684,0.0,98,P-GPS,
0.375903375475,36.9254569889101,19200,2018-04-17 06:58:06,1704.2000545344001,73.7000023584,0.0,0.261411008365152,1704.2000545344001,73.7000023584,0.35999970196000003,0.261411008365152,1684,0.0,98,P-GPS,
0.37590330000573,36.9254570465375,19300,2018-04-17 06:58:06,1704.7000545504,74.20000237440001,0.0,0.265758008504256,1704.7000545504,74.20000237440001,0.35999970196000003,0.265758008504256,1684,0.0,98,P-GPS,
0.375903202444327,36.9254571091347,19400,2018-04-17 06:58:06,1705.2000545664002,74.7000023904,0.0,0.27243700871798404,1705.2000545664002,74.7000023904,0.35999970196000003,0.27243700871798404,1684,0.0,98,P-GPS,
0.375903151729136,36.925457140725,19500,2018-04-17 06:58:06,1705.8000545856,75.3000024096,0.0,0.276126008836032,1705.8000545856,75.3000024096,0.35999970196000003,0.276126008836032,1684,0.0,98,P-GPS,
0.375903078470682,36.925457191093,19600,2018-04-17 06:58:06,1706.3000546016,75.8000024256,0.0,0.28144800900633604,1706.3000546016,75.8000024256,0.35999970196000003,0.28144800900633604,1684,0.0,98,P-GPS,
0.375903020810814,36.9254572185379,19700,2018-04-17 06:58:06,1706.8000546176002,76.3000024416,0.0,0.286291009161312,1706.8000546176002,76.3000024416,0.35999970196000003,0.286291009161312,1607,0.0,98,P-GPS,
0.375902928865023,36.9254572705514,19800,2018-04-17 06:58:06,1707.3000546336,76.8000024576,0.0,0.29390000940480004,1707.3000546336,76.8000024576,0.35999970196000003,0.29390000940480004,1136,0.0,98,P-GPS,
0.375902874032413,36.925457308255,19900,2018-04-17 06:58:07,1707.8000546496003,77.3000024736,0.0,0.29833400954668804,1707.8000546496003,77.3000024736,0.35999970196000003,0.29833400954668804,1024,0.0,98,P-GPS,
0.375902770024548,36.9254573722627,20100,2018-04-17 06:58:07,1708.7000546784002,78.20000250240001,0.0,0.30729000983328003,1708.7000546784002,78.20000250240001,0.35999970196000003,0.30729000983328003,1024,0.0,98,P-GPS,
0.375902669871724,36.9254574090943,20200,2018-04-17 06:58:07,1709.000054688,78.500002512,0.0,0.31692301014153607,1709.000054688,78.500002512,0.35999970196000003,0.31692301014153607,1024,0.0,98,P-GPS,
0.375902589775468,36.925457444761,20300,2018-04-17 06:58:07,1709.3000546976,78.8000025216,0.0,0.32456901038620806,1709.3000546976,78.8000025216,0.35999970196000003,0.32456901038620806,1024,0.0,98,P-GPS,
0.375902494864502,36.925457519301,20400,2018-04-17 06:58:07,1709.5000547040001,79.000002528,0.0,0.33300501065616,1709.5000547040001,79.000002528,0.35999970196000003,0.33300501065616,1024,0.0,98,P-GPS,
0.375902429823144,36.9254575782233,20500,2018-04-17 06:58:07,1709.5000547040001,79.000002528,0.0,0.338809010841888,1709.5000547040001,79.000002528,0.35999970196000003,0.338809010841888,1024,0.0,98,P-GPS,
0.375902356183787,36.9254576618351,20600,2018-04-17 06:58:07,1709.6000547072001,79.1000025312,0.0,0.345301011049632,1709.6000547072001,79.1000025312,0.35999970196000003,0.345301011049632,1024,0.0,98,P-GPS,
0.37590232279496,36.9254577316226,20700,2018-04-17 06:58:07,1709.6000547072001,79.1000025312,0.0,0.347866011131712,1709.6000547072001,79.1000025312,0.35999970196000003,0.347866011131712,1024,0.0,98,P-GPS,
0.375902291234087,36.9254578399632,20800,2018-04-17 06:58:07,1709.7000547103999,79.20000253440001,0.0,0.349984011199488,1709.7000547103999,79.20000253440001,0.35999970196000003,0.349984011199488,1024,0.0,98,P-GPS,
0.375902288398559,36.9254579266066,20900,2018-04-17 06:58:07,1709.7000547103999,79.20000253440001,0.0,0.349506011184192,1709.7000547103999,79.20000253440001,0.35999970196000003,0.349984011199488,1024,0.0,98,P-GPS,
0.375902308612714,36.9254580119459,21000,2018-04-17 06:58:08,1709.7000547103999,79.20000253440001,0.0,0.346738011095616,1709.7000547103999,79.20000253440001,0.35999970196000003,0.349984011199488,1024,0.0,98,P-GPS,
0.375902362054582,36.9254580695824,21100,2018-04-17 06:58:08,1709.8000547136003,79.30000253760001,0.0,0.340588010898816,1709.8000547136003,79.30000253760001,0.35999970196000003,0.349984011199488,1024,0.0,98,P-GPS,
0.375902423246711,36.9254581200318,21200,2018-04-17 06:58:08,1709.8000547136003,79.30000253760001,0.0,0.333696010678272,1709.8000547136003,79.30000253760001,0.35999970196000003,0.349984011199488,1024,0.0,98,P-GPS,
0.375902518089192,36.9254581474702,21300,2018-04-17 06:58:08,1709.8000547136003,79.30000253760001,0.0,0.32314101034051207,1709.8000547136003,79.30000253760001,0.35999970196000003,0.349984011199488,1024,-0.1,98,P-GPS,
0.375902627229522,36.9254582096167,21400,2018-04-17 06:58:08,1709.9000547168,79.4000025408,0.0,0.311094009955008,1709.9000547168,79.4000025408,0.35999970196000003,0.349984011199488,1024,-0.5,98,P-GPS,
0.375902842706876,36.9254582818061,21600,2018-04-17 06:58:08,1709.9000547168,79.4000025408,0.0,0.287461009198752,1709.9000547168,79.4000025408,0.35999970196000003,0.349984011199488,1024,-1.3,98,P-GPS,
0.375902944841662,36.9254582832429,21700,2018-04-17 06:58:08,1709.9000547168,79.4000025408,0.0,0.276129008836128,1709.9000547168,79.4000025408,0.35999970196000003,0.349984011199488,1024,-2.4,98,P-GPS,
0.375902999208817,36.9254583084271,21800,2018-04-17 06:58:08,1709.9000547168,79.4000025408,0.0,0.27027000864864,1709.9000547168,79.4000025408,0.35999970196000003,0.349984011199488,1024,-5.6,98,P-GPS,
0.375903118808003,36.9254583877335,22000,2018-04-17 06:58:09,1709.9000547168,79.4000025408,0.0,0.25778800824921605,1709.9000547168,79.4000025408,0.35999970196000003,0.349984011199488,1024,-7.2,98,P-GPS,
0.375903198773306,36.9254584211278,22100,2018-04-17 06:58:09,1710.00005472,79.500002544,0.35999970196000003,0.24938200798022403,1710.00005472,79.500002544,0.35999970196000003,0.349984011199488,1024,-8.8,98,P-GPS,
0.375903274233263,36.9254584750899,22200,2018-04-17 06:58:09,1710.00005472,79.500002544,0.35999970196000003,0.24190300774089601,1710.00005472,79.500002544,0.35999970196000003,0.349984011199488,1024,-10.4,98,P-GPS,
0.375903384942977,36.9254585049448,22300,2018-04-17 06:58:09,1710.00005472,79.500002544,0.35999970196000003,0.230303007369696,1710.00005472,79.500002544,0.35999970196000003,0.349984011199488,1024,-12.1,98,P-GPS,
0.37590347630011,36.9254585548738,22400,2018-04-17 06:58:09,1710.00005472,79.500002544,0.35999970196000003,0.221392007084544,1710.00005472,79.500002544,0.35999970196000003,0.349984011199488,1024,-13.7,98,P-GPS,
0.375903587226357,36.9254585730225,22500,2018-04-17 06:58:09,1710.00005472,79.500002544,0.35999970196000003,0.209791006713312,1710.00005472,79.500002544,0.35999970196000003,0.349984011199488,1024,-15.3,98,P-GPS,
0.375903638446722,36.9254585818176,22600,2018-04-17 06:58:09,1709.9000547168,79.4000025408,0.35999970196000003,0.20448200654342402,1710.00005472,79.500002544,0.35999970196000003,0.349984011199488,1024,-17.0,98,P-GPS,
0.375903703177574,36.9254585680703,22700,2018-04-17 06:58:09,1709.9000547168,79.4000025408,0.0,0.197127006308064,1710.00005472,79.500002544,0.35999970196000003,0.349984011199488,1024,-18.1,98,P-GPS,
0.375903745164458,36.9254585942315,22800,2018-04-17 06:58:09,1709.9000547168,79.4000025408,0.0,0.193334006186688,1710.00005472,79.500002544,0.35999970196000003,0.349984011199488,1024,-18.1,98,P-GPS,
0.375903816830752,36.9254586032756,22900,2018-04-17 06:58:09,1709.9000547168,79.4000025408,0.0,0.18592500594960001,1710.00005472,79.500002544,0.35999970196000003,0.349984011199488,1024,-18.1,98,P-GPS,
0.375903874239815,36.9254586245167,23000,2018-04-17 06:58:10,1709.9000547168,79.4000025408,0.0,0.18048500577552,1710.00005472,79.500002544,0.35999970196000003,0.349984011199488,1024,-18.1,98,P-GPS,
0.375903953310338,36.9254586183376,23100,2018-04-17 06:58:10,1709.9000547168,79.4000025408,0.0,0.17189600550067202,1710.00005472,79.500002544,0.35999970196000003,0.349984011199488,1024,-18.1,98,P-GPS,
0.375904028237184,36.9254586230676,23200,2018-04-17 06:58:10,1709.9000547168,79.4000025408,0.0,0.16416000525312,1710.00005472,79.500002544,0.35999970196000003,0.349984011199488,1024,-18.1,98,P-GPS,
0.375904121856429,36.925458605162,23300,2018-04-17 06:58:10,1709.9000547168,79.4000025408,0.0,0.15367500491760003,1710.00005472,79.500002544,0.35999970196000003,0.349984011199488,1024,-18.1,98,P-GPS,
0.375904176917988,36.9254586285867,23400,2018-04-17 06:58:10,1709.9000547168,79.4000025408,0.0,0.148847004763104,1710.00005472,79.500002544,0.35999970196000003,0.349984011199488,1024,-18.1,98,P-GPS,
0.375904234281658,36.9254586253754,23500,2018-04-17 06:58:10,1709.9000547168,79.4000025408,0.0,0.142788004569216,1710.00005472,79.500002544,0.35999970196000003,0.349984011199488,1024,-18.1,98,P-GPS,
0.375904283868287,36.92545863843,23600,2018-04-17 06:58:10,1709.9000547168,79.4000025408,0.0,0.138268004424576,1710.00005472,79.500002544,0.35999970196000003,0.349984011199488,1024,-18.1,98,P-GPS,
0.375904347480907,36.9254586257346,23700,2018-04-17 06:58:10,1709.9000547168,79.4000025408,0.0,0.131227004199264,1710.00005472,79.500002544,0.35999970196000003,0.349984011199488,1024,-18.1,98,P-GPS,
0.375904383065055,36.925458643243,23800,2018-04-17 06:58:10,1709.9000547168,79.4000025408,0.0,0.128461004110752,1710.00005472,79.500002544,0.35999970196000003,0.349984011199488,1024,-18.1,98,P-GPS,
0.375904429960578,36.9254586371335,23900,2018-04-17 06:58:10,1709.9000547168,79.4000025408,0.0,0.123478003951296,1710.00005472,79.500002544,0.35999970196000003,0.349984011199488,1024,-18.1,98,P-GPS,
0.375904461951156,36.9254586282714,24000,2018-04-17 06:58:11,1709.8000547136003,79.30000253760001,0.0,0.119856003835392,1710.00005472,79.500002544,0.35999970196000003,0.349984011199488,1024,-18.1,98,P-GPS,
0.375904502859095,36.9254586032783,24100,2018-04-17 06:58:11,1709.8000547136003,79.30000253760001,0.0,0.114543003665376,1710.00005472,79.500002544,0.35999970196000003,0.349984011199488,1024,-18.1,98,P-GPS,
0.375904490949469,36.9254586049554,24200,2018-04-17 06:58:11,1709.8000547136003,79.30000253760001,0.0,0.11581200370598402,1710.00005472,79.500002544,0.35999970196000003,0.349984011199488,1024,-18.1,98,P-GPS,
0.375904497892544,36.9254585914281,24300,2018-04-17 06:58:11,1709.8000547136003,79.30000253760001,0.0,0.11445600366259201,1710.00005472,79.500002544,0.35999970196000003,0.349984011199488,1024,-18.1,98,P-GPS,
0.375904477979727,36.9254585971934,24400,2018-04-17 06:58:11,1709.8000547136003,79.30000253760001,0.0,0.116729003735328,1710.00005472,79.500002544,0.35999970196000003,0.349984011199488,1024,-18.1,98,P-GPS,
0.375904482653769,36.9254585771931,24500,2018-04-17 06:58:11,1709.8000547136003,79.30000253760001,0.0,0.11531000368992,1710.00005472,79.500002544,0.35999970196000003,0.349984011199488,1024,-18.1,98,P-GPS,
0.375904536650122,36.9254585062134,24700,2018-04-17 06:58:11,1709.8000547136003,79.30000253760001,0.0,0.10664900341276799,1710.00005472,79.500002544,0.35999970196000003,0.349984011199488,1024,-18.1,98,P-GPS,
0.375904554506621,36.9254584967593,24800,2018-04-17 06:58:11,1709.8000547136003,79.30000253760001,0.0,0.104413003341216,1710.00005472,79.500002544,0.35999970196000003,0.349984011199488,1024,-18.1,98,P-GPS,
0.375904589387891,36.9254584751552,24900,2018-04-17 06:58:11,1709.8000547136003,79.30000253760001,0.0,0.099916503197328,1710.00005472,79.500002544,0.35999970196000003,0.349984011199488,1024,-18.1,98,P-GPS,
0.375904622051628,36.9254584470171,25000,2018-04-17 06:58:12,1709.8000547136003,79.30000253760001,0.0,0.09539580305266561,1710.00005472,79.500002544,0.35999970196000003,0.349984011199488,1024,-18.1,98,P-GPS,
0.37590467125771,36.9254584008112,25100,2018-04-17 06:58:12,1709.7000547103999,79.20000253440001,0.0,0.0885009028320288,1710.00005472,79.500002544,0.35999970196000003,0.349984011199488,1024,-18.1,98,P-GPS,
0.375904679276779,36.9254583768014,25200,2018-04-17 06:58:12,1709.7000547103999,79.20000253440001,0.0,0.08681840277818881,1710.00005472,79.500002544,0.35999970196000003,0.349984011199488,1024,-18.1,98,P-GPS,
0.375904699177585,36.9254583431747,25300,2018-04-17 06:58:12,1709.7000547103999,79.20000253440001,0.0,0.08363400267628801,1710.00005472,79.500002544,0.35999970196000003,0.349984011199488,1024,-18.1,98,P-GPS,
0.375904714218912,36.9254583179755,25400,2018-04-17 06:58:12,1709.7000547103999,79.20000253440001,0.0,0.0813042026017344,1710.00005472,79.500002544,0.35999970196000003,0.349984011199488,1024,-18.1,98,P-GPS,
0.37590474453545,36.9254582813816,25500,2018-04-17 06:58:12,1709.7000547103999,79.20000253440001,0.0,0.0771169024677408,1710.00005472,79.500002544,0.35999970196000003,0.349984011199488,1024,-18.1,98,P-GPS,
0.37590470558307,36.9254582752105,25600,2018-04-17 06:58:12,1709.7000547103999,79.20000253440001,0.0,0.0812372025995904,1710.00005472,79.500002544,0.35999970196000003,0.349984011199488,1024,-18.1,98,P-GPS,
0.375904682105386,36.9254582570629,25700,2018-04-17 06:58:12,1709.7000547103999,79.20000253440001,0.0,0.08347300267113601,1710.00005472,79.500002544,0.35999970196000003,0.349984011199488,1024,-18.1,98,P-GPS,
0.375904631884376,36.925458235674,25800,2018-04-17 06:58:12,1709.7000547103999,79.20000253440001,0.0,0.0886857028379424,1710.00005472,79.500002544,0.35999970196000003,0.349984011199488,1024,-18.1,98,P-GPS,
0.375904580532616,36.9254581639696,26000,2018-04-17 06:58:13,1709.7000547103999,79.20000253440001,0.0,0.0938154030020928,1710.00005472,79.500002544,0.35999970196000003,0.349984011199488,1024,-18.1,98,P-GPS,
0.375904579434434,36.925458125554,26100,2018-04-17 06:58:13,1709.7000547103999,79.20000253440001,0.0,0.0939241030055712,1710.00005472,79.500002544,0.35999970196000003,0.349984011199488,1024,-18.1,98,P-GPS,
0.375904542562391,36.9254581220841,26200,2018-04-17 06:58:13,1709.7000547103999,79.20000253440001,0.0,0.09803170313701441,1710.00005472,79.500002544,0.35999970196000003,0.349984011199488,1024,-18.1,98,P-GPS,
0.375904530703248,36.9254581183064,26300,2018-04-17 06:58:13,1709.7000547103999,79.20000253440001,0.0,0.09936050317953601,1710.00005472,79.500002544,0.35999970196000003,0.349984011199488,1024,-18.1,98,P-GPS,
0.375904478964325,36.9254581103699,26400,2018-04-17 06:58:13,1709.8000547136003,79.30000253760001,0.0,0.105138003364416,1710.00005472,79.500002544,0.35999970196000003,0.349984011199488,1024,-18.1,98,P-GPS,
0.375904455324,36.9254580901758,26500,2018-04-17 06:58:13,1709.8000547136003,79.30000253760001,0.0,0.10786300345161601,1710.00005472,79.500002544,0.35999970196000003,0.349984011199488,1024,-18.1,98,P-GPS,
0.375904417389397,36.9254580862209,26600,2018-04-17 06:58:13,1709.8000547136003,79.30000253760001,0.0,0.11209900358716801,1710.00005472,79.500002544,0.35999970196000003,0.349984011199488,1024,-18.1,98,P-GPS,
0.375904409956975,36.9254580761384,26700,2018-04-17 06:58:13,1709.8000547136003,79.30000253760001,0.0,0.112991003615712,1710.00005472,79.500002544,0.35999970196000003,0.349984011199488,1024,-18.1,98,P-GPS,
0.375904358368684,36.9254580811473,26800,2018-04-17 06:58:13,1709.8000547136003,79.30000253760001,0.0,0.11868400379788802,1710.00005472,79.500002544,0.35999970196000003,0.349984011199488,1024,-18.1,98,P-GPS,
0.375904331704542,36.9254580732145,26900,2018-04-17 06:58:13,1709.8000547136003,79.30000253760001,0.0,0.121697003894304,1710.00005472,79.500002544,0.35999970196000003,0.349984011199488,1024,-18.1,98,P-GPS,
0.375904265809046,36.9254580743895,27000,2018-04-17 06:58:14,1709.8000547136003,79.30000253760001,0.0,0.129003004128096,1710.00005472,79.500002544,0.35999970196000003,0.349984011199488,1024,-18.1,98,P-GPS,
0.375904236275179,36.9254580643176,27100,2018-04-17 06:58:14,1709.8000547136003,79.30000253760001,0.0,0.1323500042352,1710.00005472,79.500002544,0.35999970196000003,0.349984011199488,1024,-18.1,98,P-GPS,
0.375904201218851,36.9254580708447,27200,2018-04-17 06:58:14,1709.8000547136003,79.30000253760001,0.0,0.136197004358304,1710.00005472,79.500002544,0.35999970196000003,0.349984011199488,1024,-18.1,98,P-GPS,
0.375904194046064,36.9254580639386,27300,2018-04-17 06:58:14,1709.8000547136003,79.30000253760001,0.0,0.13704000438528,1710.00005472,79.500002544,0.35999970196000003,0.349984011199488,1024,-18.1,98,P-GPS,
0.375904143671268,36.9254580360344,27400,2018-04-17 06:58:14,1709.8000547136003,79.30000253760001,0.0,0.14285300457129602,1710.00005472,79.500002544,0.35999970196000003,0.349984011199488,1024,-18.1,98,P-GPS,
0.375904119232192,36.9254579966093,27500,2018-04-17 06:58:14,1709.8000547136003,79.30000253760001,0.0,0.145983004671456,1710.00005472,79.500002544,0.35999970196000003,0.349984011199488,1024,-18.1,98,P-GPS,
0.375904058074552,36.9254579726102,27600,2018-04-17 06:58:14,1709.8000547136003,79.30000253760001,0.0,0.1530500048976,1710.00005472,79.500002544,0.35999970196000003,0.349984011199488,1024,-18.1,98,P-GPS,
0.375904033033867,36.9254579404589,27700,2018-04-17 06:58:14,1709.8000547136003,79.30000253760001,0.0,0.156286005001152,1710.00005472,79.500002544,0.35999970196000003,0.349984011199488,1024,-18.1,98,P-GPS,
0.375904003894592,36.9254579256302,27800,2018-04-17 06:58:14,1709.8000547136003,79.30000253760001,0.0,0.15973400511148803,1710.00005472,79.500002544,0.35999970196000003,0.349984011199488,1024,-18.1,98,P-GPS,
0.375904008351643,36.9254579005915,27900,2018-04-17 06:58:14,1709.8000547136003,79.30000253760001,0.0,0.159689005110048,1710.00005472,79.500002544,0.35999970196000003,0.349984011199488,1024,-18.1,98,P-GPS,
0.375903982302442,36.9254578897611,28000,2018-04-17 06:58:15,1709.8000547136003,79.30000253760001,0.0,0.162748005207936,1710.00005472,79.500002544,0.35999970196000003,0.349984011199488,1024,-18.1,98,P-GPS,
0.375903993270623,36.9254578502193,28100,2018-04-17 06:58:15,1709.8000547136003,79.30000253760001,0.0,0.16236900519580802,1710.00005472,79.500002544,0.35999970196000003,0.349984011199488,1024,-18.1,98,P-GPS,
0.375904009177672,36.9254577785753,28200,2018-04-17 06:58:15,1709.8000547136003,79.30000253760001,0.503999582744,0.162433005197856,1710.00005472,79.500002544,0.503999582744,0.349984011199488,1024,-18.1,98,P-GPS,
0.375904077619646,36.9254576556341,28300,2018-04-17 06:58:15,1709.8000547136003,79.30000253760001,0.503999582744,0.15918500509392,1710.00005472,79.500002544,0.503999582744,0.349984011199488,1024,-18.1,98,P-GPS,
0.375904137323288,36.9254574780119,28400,2018-04-17 06:58:15,1709.8000547136003,79.30000253760001,0.7919993443119999,0.16100700515222402,1710.00005472,79.500002544,0.7919993443119999,0.349984011199488,1024,-18.1,98,P-GPS,
0.37590424788344,36.925457249988,28500,2018-04-17 06:58:15,1709.8000547136003,79.30000253760001,0.7919993443119999,0.16414800525273598,1710.00005472,79.500002544,0.7919993443119999,0.349984011199488,1024,-18.1,98,P-GPS,
0.375904352964896,36.9254570073864,28600,2018-04-17 06:58:15,1709.8000547136003,79.30000253760001,1.295998927056,0.17350900555228801,1710.00005472,79.500002544,1.295998927056,0.349984011199488,1024,-18.1,98,P-GPS,
0.375904510026487,36.9254567170779,28700,2018-04-17 06:58:15,1709.8000547136003,79.30000253760001,1.295998927056,0.18825500602416,1710.00005472,79.500002544,1.295998927056,0.349984011199488,1024,-18.1,98,P-GPS,
0.375904692035841,36.9254563920957,28800,2018-04-17 06:58:15,1709.8000547136003,79.30000253760001,1.6199986588200002,0.21094000675008,1710.00005472,79.500002544,1.6199986588200002,0.349984011199488,1024,-18.1,98,P-GPS,
0.375904934029336,36.9254560003789,28900,2018-04-17 06:58:15,1709.8000547136003,79.30000253760001,1.7999985098000002,0.244319007818208,1710.00005472,79.500002544,1.7999985098000002,0.349984011199488,1024,-18.1,98,P-GPS,
0.375905173300073,36.9254555354026,29000,2018-04-17 06:58:16,1709.8000547136003,79.30000253760001,2.087998271368,0.291212009318784,1710.00005472,79.500002544,2.087998271368,0.349984011199488,1024,-18.1,98,P-GPS,
0.375905465374124,36.925454995761,29100,2018-04-17 06:58:16,1709.8000547136003,79.30000253760001,2.591997854112,0.34991701119734403,1710.00005472,79.500002544,2.591997854112,0.349984011199488,1024,-18.1,98,P-GPS,
0.375905782230447,36.9254544085816,29200,2018-04-17 06:58:16,1709.8000547136003,79.30000253760001,2.591997854112,0.417091013346912,1710.00005472,79.500002544,2.591997854112,0.417091013346912,1024,-18.1,98,P-GPS,
0.375906164931681,36.925453749579,29300,2018-04-17 06:58:16,1709.8000547136003,79.30000253760001,2.9159975858759997,0.49536901585180804,1710.00005472,79.500002544,2.9159975858759997,0.49536901585180804,1024,-18.1,98,P-GPS,
0.375906600149624,36.9254530085592,29400,2018-04-17 06:58:16,1709.8000547136003,79.30000253760001,3.383997198424,0.585666018741312,1710.00005472,79.500002544,3.383997198424,0.585666018741312,1024,-18.1,98,P-GPS,
0.375907102392286,36.9254521861913,29500,2018-04-17 06:58:16,1709.8000547136003,79.30000253760001,3.887996781168,0.688122022019904,1710.00005472,79.500002544,3.887996781168,0.688122022019904,1024,-18.1,98,P-GPS,
0.375907644820467,36.9254512555095,29600,2018-04-17 06:58:16,1709.8000547136003,79.30000253760001,4.211996512932,0.8046580257490561,1710.00005472,79.500002544,4.211996512932,0.8046580257490561,1024,-18.1,98,P-GPS,
0.375908248131692,36.9254502391469,29700,2018-04-17 06:58:16,1709.8000547136003,79.30000253760001,4.67999612548,0.9332750298648,1710.00005472,79.500002544,4.67999612548,0.9332750298648,1024,-18.1,98,P-GPS,
0.37590891872778,36.9254491383261,29800,2018-04-17 06:58:16,1709.8000547136003,79.30000253760001,5.003995857244,1.07404003436928,1710.00005472,79.500002544,5.003995857244,1.07404003436928,1024,-18.1,98,P-GPS,
0.375909648565031,36.9254479642832,29900,2018-04-17 06:58:16,1709.8000547136003,79.30000253760001,5.507995439988,1.2254500392144,1710.00005472,79.500002544,5.507995439988,1.2254500392144,1024,-18.1,98,P-GPS,
0.37591042353583,36.9254467054544,30000,2018-04-17 06:58:17,1709.8000547136003,79.30000253760001,5.507995439988,1.3880200444166402,1710.00005472,79.500002544,5.507995439988,1.3880200444166402,1024,-18.1,98,P-GPS,
0.37591124664669,36.9254453740011,30100,2018-04-17 06:58:17,1709.8000547136003,79.30000253760001,5.975995052536001,1.56054004993728,1710.00005472,79.500002544,5.975995052536001,1.56054004993728,1024,-18.1,98,P-GPS,
0.375912124458612,36.9254439502633,30200,2018-04-17 06:58:17,1709.8000547136003,79.30000253760001,6.479994635280001,1.7452600558483202,1710.00005472,79.500002544,6.479994635280001,1.7452600558483202,1024,-18.1,98,P-GPS,
0.37591305507446,36.9254424527231,30300,2018-04-17 06:58:17,1709.8000547136003,79.30000253760001,6.803994367043999,1.94016006208512,1710.00005472,79.500002544,6.803994367043999,1.94016006208512,1024,-18.1,98,P-GPS,
0.375914068617189,36.925440844138,30400,2018-04-17 06:58:17,1709.8000547136003,79.30000253760001,7.271993979592,2.1504500688144,1710.00005472,79.500002544,7.271993979592,2.1504500688144,1024,-18.1,98,P-GPS,
0.375916294978597,36.9254372952223,30600,2018-04-17 06:58:17,1709.8000547136003,79.30000253760001,8.099993294099999,2.61454008366528,1710.00005472,79.500002544,8.099993294099999,2.61454008366528,1024,-18.1,98,P-GPS,
0.375917489647453,36.9254353679748,30700,2018-04-17 06:58:17,1709.8000547136003,79.30000253760001,8.387993055668,2.8660600917139205,1710.00005472,79.500002544,8.387993055668,2.8660600917139205,1024,-18.1,98,P-GPS,
0.375918779651934,36.9254332945252,30800,2018-04-17 06:58:17,1709.8000547136003,79.30000253760001,8.891992638411999,3.1370201003846403,1710.00005472,79.500002544,8.891992638411999,3.1370201003846403,1024,-18.1,98,P-GPS,
0.375920099022145,36.9254311877471,30900,2018-04-17 06:58:17,1709.8000547136003,79.30000253760001,9.395992221156,3.4129001092128006,1710.00005472,79.500002544,9.395992221156,3.4129001092128006,1024,-18.1,98,P-GPS,
0.375921532005638,36.9254288956614,31000,2018-04-17 06:58:18,1709.8000547136003,79.30000253760001,9.683991982724,3.7130001188160002,1710.00005472,79.500002544,9.683991982724,3.7130001188160002,1024,-18.1,97,P-GPS,
0.375922969651365,36.9254266050017,31100,2018-04-17 06:58:18,1709.8000547136003,79.30000253760001,9.899991803899999,4.01329012842528,1710.00005472,79.500002544,9.899991803899999,4.01329012842528,1024,-18.1,97,P-GPS,
0.375924494796646,36.9254242068493,31200,2018-04-17 06:58:18,1709.8000547136003,79.30000253760001,10.187991565468,4.328840138522881,1710.00005472,79.500002544,10.187991565468,4.328840138522881,1024,-18.1,97,P-GPS,
0.375926041491125,36.9254218133734,31300,2018-04-17 06:58:18,1709.8000547136003,79.30000253760001,10.691991148212,4.6451801486457605,1710.00005472,79.500002544,10.691991148212,4.6451801486457605,1024,-18.1,97,P-GPS,
0.375927670887762,36.9254192712394,31400,2018-04-17 06:58:18,1709.8000547136003,79.30000253760001,10.691991148212,4.98051015937632,1710.00005472,79.500002544,10.691991148212,4.98051015937632,1024,-18.1,97,P-GPS,
0.375929305830879,36.925416729919,31500,2018-04-17 06:58:18,1709.8000547136003,79.30000253760001,11.195990730956,5.31612017011584,1710.00005472,79.500002544,11.195990730956,5.31612017011584,1024,-18.1,97,P-GPS,
0.375931057613224,36.9254140376494,31600,2018-04-17 06:58:18,1709.8000547136003,79.30000253760001,11.483990492523999,5.67283018153056,1710.00005472,79.500002544,11.483990492523999,5.67283018153056,1024,-18.1,97,P-GPS,
0.375932817759258,36.9254113661841,31700,2018-04-17 06:58:18,1709.8000547136003,79.30000253760001,11.663990343503999,6.02807019289824,1710.00005472,79.500002544,11.663990343503999,6.02807019289824,1024,-18.1,97,P-GPS,
