latitude,longitude,time_millisecond,datetime_utc,altitude_m,ascent_m,speed_kph,distance_m,max_altitude_m,max_ascent_m,max_speed_kph,max_distance_m,rc_throttle,gimbal_pitch_degrees,battery_percent,flycState,message
0.339149278723249,36.9100263847798,0,2018-04-06 07:17:53,1646.277640580872,0.0,0.0,0.0,1646.277640580872,0.0,0.0,0.0,364,0.0,99,Motors_Started,
0.339149275065763,36.9100264191215,100,2018-04-06 07:17:53,1646.277640580872,0.0,0.0,0.0038405301228969604,1646.277640580872,0.0,0.0,0.0038405301228969604,364,0.0,99,Motors_Started,
0.33914927128126,36.9100264455973,200,2018-04-06 07:17:53,1646.277640580872,0.0,0.0,0.0068136002180352005,1646.277640580872,0.0,0.0,0.0068136002180352005,364,0.0,99,Motors_Started,
0.339149269182195,36.9100264634945,300,2018-04-06 07:17:53,1646.277640580872,0.0,0.0,0.00881747028215904,1646.277640580872,0.0,0.0,0.00881747028215904,364,0.0,99,Motors_Started,
0.339149267346939,36.9100264962099,400,2018-04-06 07:17:53,1646.277640580872,0.0,0.0,0.012455900398588802,1646.277640580872,0.0,0.0,0.012455900398588802,364,0.0,99,Motors_Started,Setting new Return-To-Home altitude to 30m (98 ft). Setting new Maximum Flight Altitude to 150m (492 ft)
0.339149266075124,36.9100265311907,500,2018-04-06 07:17:53,1646.277640580872,0.0,0.0,0.0163421005229472,1646.277640580872,0.0,0.0,0.0163421005229472,364,0.0,99,Motors_Started,
0.339149264606268,36.9100265567647,600,2018-04-06 07:17:53,1646.277640580872,0.0,0.0,0.0191898006140736,1646.277640580872,0.0,0.0,0.0191898006140736,364,0.0,99,Motors_Started,
0.339149262832892,36.9100265742441,700,2018-04-06 07:17:53,1646.277640580872,0.0,0.0,0.021143200676582402,1646.277640580872,0.0,0.0,0.021143200676582402,364,0.0,99,Motors_Started,
0.339149262271079,36.9100266067494,800,2018-04-06 07:17:53,1646.277640580872,0.0,0.0,0.0247516007920512,1646.277640580872,0.0,0.0,0.0247516007920512,449,0.0,99,Motors_Started,
0.339149260058024,36.9100266423752,900,2018-04-06 07:17:53,1646.277640580872,0.0,0.0,0.0287208009190656,1646.277640580872,0.0,0.0,0.0287208009190656,949,0.0,99,Motors_Started,
0.3391492881096,36.9100266669249,1000,2018-04-06 07:17:54,1646.277640580872,0.0,0.0,0.031393101004579205,1646.277640580872,0.0,0.0,0.031393101004579205,1024,0.0,99,Motors_Started,
0.339149314185874,36.910026684255,1100,2018-04-06 07:17:54,1646.277640580872,0.0,0.0,0.0335356010731392,1646.277640580872,0.0,0.0,0.0335356010731392,1024,0.0,99,Motors_Started,
0.339149337456338,36.9100267136532,1200,2018-04-06 07:17:54,1646.277640580872,0.0,0.0,0.0371507011888224,1646.277640580872,0.0,0.0,0.0371507011888224,1024,0.0,99,Motors_Started,
0.339149352289835,36.9100267501037,1300,2018-04-06 07:17:54,1646.277640580872,0.0,0.0,0.0414411013261152,1646.277640580872,0.0,0.0,0.0414411013261152,1024,0.0,99,Motors_Started,
0.339149377195257,36.9100267869352,1500,2018-04-06 07:17:54,1646.277640580872,0.0,0.0,0.04604250147336,1646.277640580872,0.0,0.0,0.04604250147336,1024,0.0,99,Assisted_Takeoff,
0.339149376999844,36.9100267910256,1600,2018-04-06 07:17:54,1646.277640580872,0.0,0.0,0.0464794014873408,1646.277640580872,0.0,0.0,0.0464794014873408,1024,0.0,99,Assisted_Takeoff,
0.339149381710932,36.910026794335,1700,2018-04-06 07:17:54,1646.277640580872,0.0,0.0,0.0469622015027904,1646.277640580872,0.0,0.0,0.0469622015027904,1024,0.0,99,Assisted_Takeoff,
0.339149381370588,36.9100268078728,1800,2018-04-06 07:17:54,1646.277640580872,0.0,0.0,0.0484146015492672,1646.277640580872,0.0,0.0,0.0484146015492672,1024,0.0,99,Assisted_Takeoff,
0.339149382635889,36.910026832883,1900,2018-04-06 07:17:54,1646.277640580872,0.0,0.0,0.0511533016369056,1646.277640580872,0.0,0.0,0.0511533016369056,1024,0.0,99,Assisted_Takeoff,
0.339149405844472,36.9100268503619,2000,2018-04-06 07:17:54,1646.277640580872,0.0,0.0,0.0536699017174368,1646.277640580872,0.0,0.0,0.0536699017174368,1024,0.0,99,Assisted_Takeoff,
0.339149431834439,36.9100268618227,2100,2018-04-06 07:17:55,1646.277640580872,0.0,0.0,0.0557147017828704,1646.277640580872,0.0,0.0,0.0557147017828704,1024,0.0,99,Assisted_Takeoff,
0.339149457532913,36.9100268641158,2200,2018-04-06 07:17:55,1646.277640580872,0.0,0.0,0.056892301820553604,1646.277640580872,0.0,0.0,0.056892301820553604,1024,0.0,99,Assisted_Takeoff,
0.33914947168572,36.9100268653085,2300,2018-04-06 07:17:55,1646.277640580872,0.0,0.0,0.057584401842700805,1646.277640580872,0.0,0.0,0.057584401842700805,1031,0.0,99,Assisted_Takeoff,
0.33914948236017,36.9100268851786,2400,2018-04-06 07:17:55,1646.277640580872,0.0,0.0,0.0600779019224928,1646.277640580872,0.0,0.0,0.0600779019224928,1031,0.0,99,Assisted_Takeoff,
0.339149487994587,36.9100269116563,2500,2018-04-06 07:17:55,1646.277640580872,0.0,0.0,0.063043502017392,1646.277640580872,0.0,0.0,0.063043502017392,1081,0.0,99,Assisted_Takeoff,
0.339149488474978,36.9100269303768,2600,2018-04-06 07:17:55,1646.277640580872,0.0,0.0,0.065002002080064,1646.277640580872,0.0,0.0,0.065002002080064,1102,0.0,99,Assisted_Takeoff,
0.33914948939342,36.9100269422027,2700,2018-04-06 07:17:55,1646.277640580872,0.0,0.0,0.0662672021205504,1646.277640580872,0.0,0.0,0.0662672021205504,1106,0.0,99,Assisted_Takeoff,
0.339149485576347,36.9100269465482,2800,2018-04-06 07:17:55,1646.277640580872,0.0,0.0,0.0665716021302912,1646.277640580872,0.0,0.0,0.0665716021302912,1122,0.0,99,Assisted_Takeoff,
0.339149482457877,36.9100269487374,2900,2018-04-06 07:17:55,1646.277640580872,0.0,0.0,0.066681502133808,1646.277640580872,0.0,0.0,0.066681502133808,1146,0.0,99,Assisted_Takeoff,
0.339149478644061,36.9100269439628,3000,2018-04-06 07:17:56,1646.277640580872,0.0,0.0,0.0660384021132288,1646.277640580872,0.0,0.0,0.066681502133808,1155,0.0,99,Assisted_Takeoff,
0.339149474709741,36.9100269404093,3100,2018-04-06 07:17:56,1646.277640580872,0.0,0.0,0.0655196020966272,1646.277640580872,0.0,0.0,0.066681502133808,1166,0.0,99,Assisted_Takeoff,
0.339149495757379,36.9100269583432,3200,2018-04-06 07:17:56,1646.277640580872,0.0,0.0,0.0681964021822848,1646.277640580872,0.0,0.0,0.0681964021822848,1194,0.0,99,Assisted_Takeoff,
0.339149522335214,36.9100269824677,3300,2018-04-06 07:17:56,1646.277640580872,0.0,0.0,0.071774502296784,1646.277640580872,0.0,0.0,0.071774502296784,1215,0.0,99,Assisted_Takeoff,
0.33914955028257,36.9100270047048,3400,2018-04-06 07:17:56,1646.277640580872,0.0,0.0,0.07526260240840321,1646.277640580872,0.0,0.0,0.07526260240840321,1226,0.0,99,Assisted_Takeoff,
0.339149574619665,36.9100270224866,3500,2018-04-06 07:17:56,1646.277640580872,0.0,0.0,0.078178002501696,1646.277640580872,0.0,0.0,0.078178002501696,1238,0.0,99,Assisted_Takeoff,
0.339149622165344,36.9100270415434,3600,2018-04-06 07:17:56,1646.277640580872,0.0,0.0,0.0824183026373856,1646.277640580872,0.0,0.0,0.0824183026373856,1253,0.0,99,Assisted_Takeoff,
0.339149740416434,36.9100270635785,3700,2018-04-06 07:17:56,1646.277640580872,0.0,0.0,0.091291502921328,1646.277640580872,0.0,0.0,0.091291502921328,1262,0.0,99,P-GPS,
0.339149987881297,36.9100270708976,3800,2018-04-06 07:17:56,1646.277640580872,0.0,0.7199994039200001,0.109731003511392,1646.277640580872,0.0,0.7199994039200001,0.109731003511392,1259,0.0,99,P-GPS,
0.33915026054796,36.910027061373,3900,2018-04-06 07:17:56,1646.277640580872,0.0,0.7199994039200001,0.132599004243168,1646.277640580872,0.0,0.7199994039200001,0.132599004243168,1254,0.0,99,P-GPS,
0.339150504200636,36.9100270419304,4000,2018-04-06 07:17:57,1646.377640584072,0.1000000032,0.35999970196000003,0.154638004948416,1646.377640584072,0.1000000032,0.7199994039200001,0.154638004948416,1257,0.0,99,P-GPS,
0.339150698713386,36.9100270179707,4100,2018-04-06 07:17:57,1646.377640584072,0.1000000032,0.35999970196000003,0.17289900553276802,1646.377640584072,0.1000000032,0.7199994039200001,0.17289900553276802,1257,0.0,99,P-GPS,
0.339150868635004,36.9100269469917,4200,2018-04-06 07:17:57,1646.477640587272,0.2000000064,0.0,0.187536006001152,1646.477640587272,0.2000000064,0.7199994039200001,0.187536006001152,1255,0.0,99,P-GPS,
0.33915100236771,36.91002686071,4300,2018-04-06 07:17:57,1646.577640590472,0.3000000096,0.0,0.198852006363264,1646.577640590472,0.3000000096,0.7199994039200001,0.198852006363264,1255,0.0,99,P-GPS,
0.339151121965523,36.9100267999223,4400,2018-04-06 07:17:57,1646.677640593672,0.4000000128,0.35999970196000003,0.21011400672364802,1646.677640593672,0.4000000128,0.7199994039200001,0.21011400672364802,1262,0.0,99,P-GPS,
0.339151202586528,36.9100267576218,4500,2018-04-06 07:17:57,1646.7776405968718,0.500000016,0.0,0.217926006973632,1646.7776405968718,0.500000016,0.7199994039200001,0.217926006973632,1259,0.0,99,P-GPS,Home Point Recorded. RTH Altitude:  30m.
0.339151267421397,36.9100267082902,4600,2018-04-06 07:17:57,1646.8776406000718,0.6000000192,0.0,0.224062007169984,1646.8776406000718,0.6000000192,0.7199994039200001,0.224062007169984,1258,0.0,99,P-GPS,
0.339151329147567,36.9100266537105,4700,2018-04-06 07:17:57,1646.9776406032718,0.7000000224,0.0,0.229973007359136,1646.9776406032718,0.7000000224,0.7199994039200001,0.229973007359136,1258,0.0,99,P-GPS,
0.339151391031696,36.9100266011442,4800,2018-04-06 07:17:57,1647.077640606472,0.8000000256,0.0,0.236131007556192,1647.077640606472,0.8000000256,0.7199994039200001,0.236131007556192,1257,0.0,99,P-GPS,
0.339151454370025,36.910026547385,4900,2018-04-06 07:17:57,1647.177640609672,0.9000000288000001,0.0,0.24262000776384002,1647.177640609672,0.9000000288000001,0.7199994039200001,0.24262000776384002,1257,0.0,99,P-GPS,
0.33915153977377,36.9100264957117,5000,2018-04-06 07:17:58,1647.277640612872,1.000000032,0.0,0.25174500805584,1647.277640612872,1.000000032,0.7199994039200001,0.25174500805584,1257,0.0,99,P-GPS,
0.3391516224629,36.9100264345351,5100,2018-04-06 07:17:58,1647.3776406160719,1.1000000352000001,0.0,0.260697008342304,1647.3776406160719,1.1000000352000001,0.7199994039200001,0.260697008342304,1252,0.0,99,P-GPS,
0.339151663618565,36.9100263894315,5200,2018-04-06 07:17:58,1647.477640619272,1.2000000384,0.0,0.26521500848688,1647.477640619272,1.2000000384,0.7199994039200001,0.26521500848688,1253,0.0,99,P-GPS,
0.339151682920511,36.9100263570233,5300,2018-04-06 07:17:58,1647.577640622472,1.3000000416000002,0.0,0.267379008556128,1647.577640622472,1.3000000416000002,0.7199994039200001,0.267379008556128,1253,0.0,99,P-GPS,
0.339151699761879,36.9100263659656,5400,2018-04-06 07:17:58,1647.777640628872,1.5000000480000002,0.0,0.269242008615744,1647.777640628872,1.5000000480000002,0.7199994039200001,0.269242008615744,1251,0.0,99,P-GPS,
0.339151720351925,36.9100263646925,5500,2018-04-06 07:17:58,1647.877640632072,1.6000000512,0.0,0.271533008689056,1647.877640632072,1.6000000512,0.7199994039200001,0.271533008689056,1251,0.0,99,P-GPS,
0.33915172843715,36.9100263523999,5600,2018-04-06 07:17:58,1647.9776406352719,1.7000000544000002,0.0,0.272447008718304,1647.9776406352719,1.7000000544000002,0.7199994039200001,0.272447008718304,1256,0.0,99,P-GPS,
0.33915172027376,36.9100263187519,5700,2018-04-06 07:17:58,1648.0776406384718,1.8000000576000001,0.0,0.27161500869168004,1648.0776406384718,1.8000000576000001,0.7199994039200001,0.272447008718304,1262,0.0,99,P-GPS,
0.339151702232229,36.9100262781933,5800,2018-04-06 07:17:58,1648.177640641672,1.9000000608000003,0.0,0.269769008632608,1648.177640641672,1.9000000608000003,0.7199994039200001,0.272447008718304,1265,0.0,99,P-GPS,
0.339151669583555,36.9100262305942,5900,2018-04-06 07:17:58,1648.277640644872,2.000000064,0.0,0.266431008525792,1648.277640644872,2.000000064,0.7199994039200001,0.272447008718304,1269,0.0,99,P-GPS,
0.339151633808269,36.910026159132,6000,2018-04-06 07:17:59,1648.377640648072,2.1000000672000003,0.0,0.263099008419168,1648.377640648072,2.1000000672000003,0.7199994039200001,0.272447008718304,1274,0.0,99,P-GPS,
0.339151600104364,36.9100260875807,6100,2018-04-06 07:17:59,1648.4776406512717,2.2000000704000002,0.0,0.260259008328288,1648.4776406512717,2.2000000704000002,0.7199994039200001,0.272447008718304,1305,0.0,99,P-GPS,
0.339151614747332,36.9100260007293,6300,2018-04-06 07:17:59,1648.7776406608718,2.50000008,0.0,0.26326700842454404,1648.7776406608718,2.50000008,0.7199994039200001,0.272447008718304,1302,0.0,99,P-GPS,
0.339151636275362,36.9100259868856,6400,2018-04-06 07:17:59,1648.8776406640718,2.6000000832000003,0.0,0.265882008508224,1648.8776406640718,2.6000000832000003,0.7199994039200001,0.272447008718304,1304,0.0,99,P-GPS,
0.339151644683018,36.9100259784759,6500,2018-04-06 07:17:59,1648.977640667272,2.7000000864,0.0,0.26696000854272,1648.977640667272,2.7000000864,0.7199994039200001,0.272447008718304,1306,0.0,99,P-GPS,
0.339151676015909,36.9100259643297,6600,2018-04-06 07:17:59,1649.177640673672,2.9000000928,0.0,0.270663008661216,1649.177640673672,2.9000000928,0.7199994039200001,0.272447008718304,1330,0.0,99,P-GPS,
0.339151726036823,36.9100259593789,6700,2018-04-06 07:17:59,1649.277640676872,3.0000000960000004,0.0,0.276237008839584,1649.277640676872,3.0000000960000004,0.7199994039200001,0.276237008839584,1369,0.0,99,P-GPS,
0.339151782200228,36.9100259872281,6800,2018-04-06 07:17:59,1649.4776406832718,3.2000001024,0.0,0.28189000902048,1649.4776406832718,3.2000001024,0.7199994039200001,0.28189000902048,1458,0.0,99,P-GPS,
0.339151822385341,36.9100260195354,6900,2018-04-06 07:17:59,1649.5776406864718,3.3000001056,0.0,0.285772009144704,1649.5776406864718,3.3000001056,0.7199994039200001,0.285772009144704,1484,0.0,99,P-GPS,
0.339151815114338,36.9100260855623,7000,2018-04-06 07:18:00,1649.777640692872,3.500000112,0.0,0.28401800908857605,1649.777640692872,3.500000112,0.7199994039200001,0.285772009144704,1490,0.0,99,P-GPS,
0.339151794892321,36.9100261587857,7100,2018-04-06 07:18:00,1649.977640699272,3.7000001184,0.0,0.28094000899008004,1649.977640699272,3.7000001184,0.7199994039200001,0.285772009144704,1494,0.0,99,P-GPS,
0.339151789098317,36.9100262243223,7200,2018-04-06 07:18:00,1650.177640705672,3.9000001248,0.0,0.279739008951648,1650.177640705672,3.9000001248,0.7199994039200001,0.285772009144704,1500,0.0,99,P-GPS,
0.339151720394265,36.9100263210029,7400,2018-04-06 07:18:00,1650.7776407248718,4.500000144,0.0,0.271621008691872,1650.7776407248718,4.500000144,0.7199994039200001,0.285772009144704,1524,0.0,99,P-GPS,
0.339151613351755,36.9100263138671,7600,2018-04-06 07:18:00,1651.3776407440719,5.1000001632,0.0,0.25974500831184,1651.3776407440719,5.1000001632,0.7199994039200001,0.285772009144704,1557,0.0,99,P-GPS,
0.339151552000128,36.9100262346806,7800,2018-04-06 07:18:00,1652.077640766472,5.8000001856,0.0,0.253353008107296,1652.077640766472,5.8000001856,0.7199994039200001,0.285772009144704,1571,0.0,99,P-GPS,
0.339151524652039,36.9100262217224,7900,2018-04-06 07:18:00,1652.377640776072,6.100000195200001,0.0,0.250418008013376,1652.377640776072,6.100000195200001,0.7199994039200001,0.285772009144704,1600,0.0,99,P-GPS,
0.33915149125591,36.910026238129,8000,2018-04-06 07:18:00,1652.777640788872,6.500000208,0.0,0.24658700789078403,1652.777640788872,6.500000208,0.7199994039200001,0.285772009144704,1619,0.0,99,P-GPS,
0.339151451733574,36.9100262535136,8100,2018-04-06 07:18:01,1653.0776407984717,6.800000217600001,0.0,0.24209200774694403,1653.0776407984717,6.800000217600001,0.7199994039200001,0.285772009144704,1627,0.0,99,P-GPS,
0.339151420221554,36.9100262887546,8200,2018-04-06 07:18:01,1653.4776408112718,7.200000230400001,0.0,0.23838700762838402,1653.4776408112718,7.200000230400001,0.7199994039200001,0.285772009144704,1640,0.0,99,P-GPS,
0.339151383236334,36.9100263151133,8300,2018-04-06 07:18:01,1653.8776408240717,7.600000243200001,0.0,0.23416300749321603,1653.8776408240717,7.600000243200001,0.7199994039200001,0.285772009144704,1658,0.0,99,P-GPS,
0.339151371443143,36.9100263197925,8400,2018-04-06 07:18:01,1654.277640836872,8.000000256,0.0,0.23283500745072,1654.277640836872,8.000000256,0.7199994039200001,0.285772009144704,1669,0.0,99,P-GPS,
0.339151387001297,36.9100263067108,8500,2018-04-06 07:18:01,1654.777640852872,8.500000272,0.0,0.23461400750764802,1654.777640852872,8.500000272,0.7199994039200001,0.285772009144704,1675,0.0,99,P-GPS,
0.339151447266752,36.9100263119123,8600,2018-04-06 07:18:01,1655.177640865672,8.9000002848,0.35999970196000003,0.241291007721312,1655.177640865672,8.9000002848,0.7199994039200001,0.285772009144704,1684,0.0,99,P-GPS,
0.339151516164589,36.9100263551716,8700,2018-04-06 07:18:01,1655.6776408816718,9.4000003008,0.35999970196000003,0.24883900796284802,1655.6776408816718,9.4000003008,0.7199994039200001,0.285772009144704,1684,0.0,99,P-GPS,
0.339151623799852,36.9100263934976,8800,2018-04-06 07:18:01,1656.0776408944719,9.8000003136,0.35999970196000003,0.26078900834524804,1656.0776408944719,9.8000003136,0.7199994039200001,0.285772009144704,1684,0.0,99,P-GPS,
0.339151709537429,36.910026390627,8900,2018-04-06 07:18:01,1656.5776409104722,10.3000003296,0.0,0.270322008650304,1656.5776409104722,10.3000003296,0.7199994039200001,0.285772009144704,1684,0.0,99,P-GPS,
0.339151770156256,36.9100263832543,9000,2018-04-06 07:18:02,1657.077640926472,10.8000003456,0.0,0.27706300886601604,1657.077640926472,10.8000003456,0.7199994039200001,0.285772009144704,1684,0.0,99,P-GPS,
0.339151791723369,36.910026419628,9100,2018-04-06 07:18:02,1657.5776409424718,11.3000003616,0.0,0.27948800894361603,1657.5776409424718,11.3000003616,0.7199994039200001,0.285772009144704,1684,0.0,99,P-GPS,
0.339151794011332,36.9100264895875,9200,2018-04-06 07:18:02,1658.0776409584719,11.8000003776,0.35999970196000003,0.279958008958656,1658.0776409584719,11.8000003776,0.7199994039200001,0.285772009144704,1684,0.0,99,P-GPS,
0.339151819467169,36.9100266647025,9400,2018-04-06 07:18:02,1659.077640990472,12.8000004096,0.35999970196000003,0.28425600909619203,1659.077640990472,12.8000004096,0.7199994039200001,0.285772009144704,1684,0.0,99,P-GPS,
0.339151854021122,36.9100267613659,9500,2018-04-06 07:18:02,1659.5776410064718,13.3000004256,0.35999970196000003,0.289434009261888,1659.5776410064718,13.3000004256,0.7199994039200001,0.289434009261888,1684,0.0,99,P-GPS,
0.339151893113549,36.9100268648224,9600,2018-04-06 07:18:02,1660.077641022472,13.800000441600002,0.35999970196000003,0.29559600945907205,1660.077641022472,13.800000441600002,0.7199994039200001,0.29559600945907205,1684,0.0,99,P-GPS,
0.339151911273956,36.9100269639182,9700,2018-04-06 07:18:02,1660.577641038472,14.300000457600001,0.0,0.299756009592192,1660.577641038472,14.300000457600001,0.7199994039200001,0.299756009592192,1684,0.0,99,P-GPS,
0.339151940351452,36.9100270586611,9800,2018-04-06 07:18:02,1661.0776410544718,14.8000004736,0.0,0.305328009770496,1661.0776410544718,14.8000004736,0.7199994039200001,0.305328009770496,1684,0.0,99,P-GPS,
0.339151943694648,36.9100271433948,9900,2018-04-06 07:18:02,1661.577641070472,15.3000004896,0.0,0.308134009860288,1661.577641070472,15.3000004896,0.7199994039200001,0.308134009860288,1684,0.0,99,P-GPS,
0.339151914793024,36.9100272668852,10000,2018-04-06 07:18:03,1662.0776410864719,15.8000005056,0.0,0.30912400989196803,1662.0776410864719,15.8000005056,0.7199994039200001,0.30912400989196803,1684,0.0,99,P-GPS,
0.339151845346401,36.9100273993344,10100,2018-04-06 07:18:03,1662.577641102472,16.3000005216,0.0,0.30691300982121605,1662.577641102472,16.3000005216,0.7199994039200001,0.30912400989196803,1684,0.0,99,P-GPS,
0.339151724201567,36.9100275513703,10200,2018-04-06 07:18:03,1663.077641118472,16.800000537600003,0.0,0.30131000964192,1663.077641118472,16.800000537600003,0.7199994039200001,0.30912400989196803,1684,0.0,99,P-GPS,
0.339151603022535,36.9100276693628,10300,2018-04-06 07:18:03,1663.577641134472,17.3000005536,0.0,0.295324009450368,1663.577641134472,17.3000005536,0.7199994039200001,0.30912400989196803,1684,0.0,99,P-GPS,
0.339151526358649,36.9100277646437,10400,2018-04-06 07:18:03,1664.077641150472,17.8000005696,0.0,0.293294009385408,1664.077641150472,17.8000005696,0.7199994039200001,0.30912400989196803,1684,0.0,99,P-GPS,
0.339151471009466,36.9100278447298,10500,2018-04-06 07:18:03,1664.5776411664717,18.3000005856,0.0,0.292907009373024,1664.5776411664717,18.3000005856,0.7199994039200001,0.30912400989196803,1684,0.0,99,P-GPS,
0.339151401689862,36.9100281341067,10700,2018-04-06 07:18:03,1665.5776411984718,19.300000617600002,0.0,0.305908009789056,1665.5776411984718,19.300000617600002,0.7199994039200001,0.30912400989196803,1684,0.0,99,P-GPS,
0.339151310016607,36.910028414786,10900,2018-04-06 07:18:03,1666.577641230472,20.3000006496,0.0,0.31935601021939203,1666.577641230472,20.3000006496,0.7199994039200001,0.31935601021939203,1684,0.0,99,P-GPS,
0.339151265278365,36.9100285397065,11000,2018-04-06 07:18:04,1667.077641246472,20.800000665600002,0.0,0.32593001042976005,1667.077641246472,20.800000665600002,0.7199994039200001,0.32593001042976005,1684,0.0,99,P-GPS,
0.339151215786695,36.9100286389864,11100,2018-04-06 07:18:04,1667.677641265672,21.400000684800002,0.0,0.330518010576576,1667.677641265672,21.400000684800002,0.7199994039200001,0.330518010576576,1684,0.0,99,P-GPS,
0.339151180736066,36.9100287116767,11200,2018-04-06 07:18:04,1668.1776412816719,21.900000700800003,0.0,0.334209010694688,1668.1776412816719,21.900000700800003,0.7199994039200001,0.334209010694688,1684,0.0,99,P-GPS,
0.339151189790215,36.9100287409051,11300,2018-04-06 07:18:04,1668.677641297672,22.4000007168,0.0,0.33736501079568,1668.677641297672,22.4000007168,0.7199994039200001,0.33736501079568,1684,0.0,99,P-GPS,
0.339151230217966,36.9100287481457,11400,2018-04-06 07:18:04,1669.1776413136718,22.900000732800002,0.0,0.34083601090675203,1669.1776413136718,22.900000732800002,0.7199994039200001,0.34083601090675203,1684,0.0,99,P-GPS,
0.339151266558322,36.9100287323691,11500,2018-04-06 07:18:04,1669.777641332872,23.500000752000002,0.0,0.342083010946656,1669.777641332872,23.500000752000002,0.7199994039200001,0.342083010946656,1684,0.0,99,P-GPS,
0.339151283559277,36.9100287253126,11600,2018-04-06 07:18:04,1670.2776413488718,24.000000768000003,0.0,0.342711010966752,1670.2776413488718,24.000000768000003,0.7199994039200001,0.342711010966752,1684,0.0,99,P-GPS,
0.339151325682238,36.9100287610953,11800,2018-04-06 07:18:04,1671.277641380872,25.000000800000002,0.0,0.348782011161024,1671.277641380872,25.000000800000002,0.7199994039200001,0.348782011161024,1684,0.0,99,P-GPS,
0.339151389737083,36.9100288204487,12000,2018-04-06 07:18:05,1672.277641412872,26.000000832,0.0,0.358433011469856,1672.277641412872,26.000000832,0.7199994039200001,0.358433011469856,1684,0.0,99,P-GPS,
0.339151437593795,36.9100288178718,12200,2018-04-06 07:18:05,1673.277641444872,27.000000864,0.0,0.36172701157526405,1673.277641444872,27.000000864,0.7199994039200001,0.36172701157526405,1684,0.0,99,P-GPS,
0.339151459939303,36.9100288407335,12300,2018-04-06 07:18:05,1673.7776414608718,27.50000088,0.0,0.365278011688896,1673.7776414608718,27.50000088,0.7199994039200001,0.365278011688896,1684,0.0,99,P-GPS,
0.339151541758844,36.9100288889524,12500,2018-04-06 07:18:05,1674.777641492872,28.500000912,0.0,0.375343012010976,1674.777641492872,28.500000912,0.7199994039200001,0.375343012010976,1684,0.0,99,P-GPS,
0.339151617049952,36.9100289193304,12600,2018-04-06 07:18:05,1675.2776415088717,29.000000928000002,0.0,0.383484012271488,1675.2776415088717,29.000000928000002,0.7199994039200001,0.383484012271488,1684,0.0,99,P-GPS,
0.339151668085387,36.9100289559728,12700,2018-04-06 07:18:05,1675.777641524872,29.500000944,0.0,0.39032901249052804,1675.777641524872,29.500000944,0.7199994039200001,0.39032901249052804,1684,0.0,99,P-GPS,
0.339151681375118,36.9100289882527,12800,2018-04-06 07:18:05,1676.2776415408719,30.00000096,0.0,0.39396701260694406,1676.2776415408719,30.00000096,0.7199994039200001,0.39396701260694406,1684,0.0,99,P-GPS,
0.339151660905577,36.9100289769973,12900,2018-04-06 07:18:05,1676.877641560072,30.6000009792,0.0,0.39150501252816006,1676.877641560072,30.6000009792,0.7199994039200001,0.39396701260694406,1684,0.0,99,P-GPS,
0.339151633917375,36.9100289332069,13000,2018-04-06 07:18:06,1677.377641576072,31.100000995200002,0.0,0.38589001234847997,1677.377641576072,31.100000995200002,0.7199994039200001,0.39396701260694406,1684,0.0,99,P-GPS,
0.339151619352572,36.9100288857269,13100,2018-04-06 07:18:06,1677.8776415920718,31.6000010112,0.0,0.38092001218944,1677.8776415920718,31.6000010112,0.7199994039200001,0.39396701260694406,1684,0.0,99,P-GPS,
0.339151610651795,36.9100288512959,13200,2018-04-06 07:18:06,1678.3776416080718,32.1000010272,0.0,0.377469012079008,1678.3776416080718,32.1000010272,0.7199994039200001,0.39396701260694406,1684,0.0,99,P-GPS,
0.339151604634695,36.9100288518732,13300,2018-04-06 07:18:06,1678.8776416240719,32.6000010432,0.0,0.37705601206579203,1678.8776416240719,32.6000010432,0.7199994039200001,0.39396701260694406,1684,0.0,99,P-GPS,
0.339151727421001,36.9100290049361,13700,2018-04-06 07:18:06,1680.877641688072,34.6000011072,0.0,0.398811012761952,1680.877641688072,34.6000011072,0.7199994039200001,0.398811012761952,1684,0.0,99,P-GPS,
0.339151768044165,36.9100290068935,13800,2018-04-06 07:18:06,1681.377641704072,35.1000011232,0.0,0.40206701286614405,1681.377641704072,35.1000011232,0.7199994039200001,0.40206701286614405,1684,0.0,99,P-GPS,
0.339151847295649,36.9100290344298,14000,2018-04-06 07:18:07,1682.4776417392718,36.2000011584,0.0,0.41037901313212805,1682.4776417392718,36.2000011584,0.7199994039200001,0.41037901313212805,1684,0.0,99,P-GPS,
0.339151884209217,36.9100291282311,14200,2018-04-06 07:18:07,1683.477641771272,37.2000011904,0.0,0.42074701346390403,1683.477641771272,37.2000011904,0.7199994039200001,0.42074701346390403,1684,0.0,99,P-GPS,
0.339151866929798,36.9100291577796,14300,2018-04-06 07:18:07,1683.977641787272,37.7000012064,0.0,0.421823013498336,1683.977641787272,37.7000012064,0.7199994039200001,0.421823013498336,1684,0.0,99,P-GPS,
0.339151855183831,36.9100291809234,14400,2018-04-06 07:18:07,1684.4776418032718,38.2000012224,0.0,0.422822013530304,1684.4776418032718,38.2000012224,0.7199994039200001,0.422822013530304,1684,0.0,99,P-GPS,
0.339151839291846,36.9100291928102,14500,2018-04-06 07:18:07,1684.977641819272,38.7000012384,0.0,0.422602013523264,1684.977641819272,38.7000012384,0.7199994039200001,0.422822013530304,1684,0.0,99,P-GPS,
0.339151842424973,36.9100291953408,14600,2018-04-06 07:18:07,1685.477641835272,39.2000012544,0.0,0.42304401353740806,1685.477641835272,39.2000012544,0.7199994039200001,0.42304401353740806,1684,0.0,99,P-GPS,
0.339151841198754,36.910029184022,14700,2018-04-06 07:18:07,1686.077641854472,39.800001273599996,0.0,0.42202301350473603,1686.077641854472,39.800001273599996,0.7199994039200001,0.42304401353740806,1684,0.0,99,P-GPS,
0.339151863539377,36.9100291655611,14800,2018-04-06 07:18:07,1686.577641870472,40.3000012896,0.0,0.42219901351036804,1686.577641870472,40.3000012896,0.7199994039200001,0.42304401353740806,1684,0.0,99,P-GPS,
0.339151889565169,36.9100291594374,14900,2018-04-06 07:18:08,1687.0776418864718,40.8000013056,0.0,0.423678013557696,1687.0776418864718,40.8000013056,0.7199994039200001,0.423678013557696,1684,0.0,99,P-GPS,
0.339151921984232,36.9100291792007,15000,2018-04-06 07:18:08,1687.577641902472,41.30000132160001,0.0,0.427751013688032,1687.577641902472,41.30000132160001,0.7199994039200001,0.427751013688032,1684,0.0,99,P-GPS,
0.339151938084658,36.9100292173913,15100,2018-04-06 07:18:08,1688.077641918472,41.80000133760001,0.0,0.43207001382624005,1688.077641918472,41.80000133760001,0.7199994039200001,0.43207001382624005,1684,0.0,99,P-GPS,
0.339151972462739,36.9100292852871,15200,2018-04-06 07:18:08,1688.5776419344718,42.300001353599995,0.0,0.440197014086304,1688.5776419344718,42.300001353599995,0.7199994039200001,0.440197014086304,1684,0.0,99,P-GPS,
0.339151999931333,36.910029355295,15300,2018-04-06 07:18:08,1689.0776419504718,42.800001369600004,0.0,0.44799101433571203,1689.0776419504718,42.800001369600004,0.7199994039200001,0.44799101433571203,1684,0.0,99,P-GPS,
0.339152155864616,36.9100295434439,15600,2018-04-06 07:18:08,1690.5776419984718,44.30000141760001,0.0,0.47513401520428805,1690.5776419984718,44.30000141760001,0.7199994039200001,0.47513401520428805,1684,0.0,99,P-GPS,
0.339152217338377,36.9100295966691,15700,2018-04-06 07:18:08,1691.177642017672,44.900001436800004,0.0,0.48411501549168007,1691.177642017672,44.900001436800004,0.7199994039200001,0.48411501549168007,1684,0.0,99,P-GPS,
0.339152415567236,36.9100297655301,16000,2018-04-06 07:18:09,1692.677642065672,46.4000014848,0.0,0.512862016411584,1692.677642065672,46.4000014848,0.7199994039200001,0.512862016411584,1684,0.0,99,P-GPS,
0.339152432600761,36.9100298322857,16200,2018-04-06 07:18:09,1693.6776420976719,47.4000015168,0.0,0.51960501662736,1693.6776420976719,47.4000015168,0.7199994039200001,0.51960501662736,1684,0.0,99,P-GPS,
0.339152409452429,36.9100298327782,16300,2018-04-06 07:18:09,1694.177642113672,47.9000015328,0.0,0.517912016573184,1694.177642113672,47.9000015328,0.7199994039200001,0.51960501662736,1684,0.0,99,P-GPS,
0.339152408485133,36.9100298640424,16400,2018-04-06 07:18:09,1694.677642129672,48.4000015488,0.0,0.5204190166534081,1694.677642129672,48.4000015488,0.7199994039200001,0.5204190166534081,1684,0.0,98,P-GPS,
0.339152523785482,36.9100299748657,16600,2018-04-06 07:18:09,1695.7776421648718,49.500001584,0.0,0.538158017221056,1695.7776421648718,49.500001584,0.7199994039200001,0.538158017221056,1684,0.0,98,P-GPS,
0.339152638204843,36.9100300474059,16700,2018-04-06 07:18:09,1696.277642180872,50.000001600000004,0.0,0.5526900176860801,1696.277642180872,50.000001600000004,0.7199994039200001,0.5526900176860801,1684,0.0,98,P-GPS,
0.339152782112067,36.9100301340911,16800,2018-04-06 07:18:09,1696.777642196872,50.500001616000006,0.0,0.57063501826032,1696.777642196872,50.500001616000006,0.7199994039200001,0.57063501826032,1684,0.0,98,P-GPS,
0.339152907588562,36.9100302099502,16900,2018-04-06 07:18:10,1697.277642212872,51.00000163200001,0.0,0.586343018762976,1697.277642212872,51.00000163200001,0.7199994039200001,0.586343018762976,1684,0.0,98,P-GPS,
0.339153033892307,36.9100302928422,17000,2018-04-06 07:18:10,1697.7776422288719,51.500001648,0.0,0.6027090192866881,1697.7776422288719,51.500001648,0.7199994039200001,0.6027090192866881,1684,0.0,98,P-GPS,
0.339153132712803,36.9100303477129,17100,2018-04-06 07:18:10,1698.377642248072,52.1000016672,0.0,0.61473501967152,1698.377642248072,52.1000016672,0.7199994039200001,0.61473501967152,1684,0.0,98,P-GPS,
0.339153220135819,36.9100303908331,17200,2018-04-06 07:18:10,1698.877642264072,52.6000016832,0.0,0.6249610199987521,1698.877642264072,52.6000016832,0.7199994039200001,0.6249610199987521,1684,0.0,98,P-GPS,
0.339153264116834,36.9100304185562,17300,2018-04-06 07:18:10,1699.3776422800718,53.1000016992,0.0,0.63059002017888,1699.3776422800718,53.1000016992,0.7199994039200001,0.63059002017888,1684,0.0,98,P-GPS,
0.339153294940022,36.9100305214296,17500,2018-04-06 07:18:10,1700.3776423120719,54.1000017312,0.0,0.6411610205171521,1700.3776423120719,54.1000017312,0.7199994039200001,0.6411610205171521,1684,0.0,98,P-GPS,
0.339153322201803,36.9100305913024,17600,2018-04-06 07:18:10,1700.877642328072,54.6000017472,0.0,0.648856020763392,1700.877642328072,54.6000017472,0.7199994039200001,0.648856020763392,1684,0.0,98,P-GPS,
0.339153334625202,36.9100306523918,17700,2018-04-06 07:18:10,1701.377642344072,55.1000017632,0.0,0.654722020951104,1701.377642344072,55.1000017632,0.7199994039200001,0.654722020951104,1684,0.0,98,P-GPS,
0.339153377363715,36.9100307206998,17800,2018-04-06 07:18:11,1701.877642360072,55.6000017792,0.0,0.663504021232128,1701.877642360072,55.6000017792,0.7199994039200001,0.663504021232128,1684,0.0,98,P-GPS,
0.33915354847084,36.9100309342724,18100,2018-04-06 07:18:11,1703.377642408072,57.100001827199996,0.0,0.6938400222028801,1703.377642408072,57.100001827199996,0.7199994039200001,0.6938400222028801,1684,0.0,98,P-GPS,
0.339153777855089,36.9100310388738,18300,2018-04-06 07:18:11,1704.377642440072,58.100001859200006,0.0,0.7198570230354241,1704.377642440072,58.100001859200006,0.7199994039200001,0.7198570230354241,1684,0.0,98,P-GPS,
0.339153881352476,36.9100311135628,18400,2018-04-06 07:18:11,1704.877642456072,58.60000187520001,0.0,0.733832023482624,1704.877642456072,58.60000187520001,0.7199994039200001,0.733832023482624,1684,0.0,98,P-GPS,
0.339153946758929,36.9100311935079,18500,2018-04-06 07:18:11,1705.377642472072,59.10000189120001,0.0,0.7452770238488641,1705.377642472072,59.10000189120001,0.7199994039200001,0.7452770238488641,1684,0.0,98,P-GPS,
0.339154017643468,36.9100313171861,18600,2018-04-06 07:18:11,1705.8776424880718,59.6000019072,0.0,0.760646024340672,1705.8776424880718,59.6000019072,0.7199994039200001,0.760646024340672,1684,0.0,98,P-GPS,
0.339154053807952,36.9100314362285,18700,2018-04-06 07:18:11,1706.3776425040721,60.100001923200004,0.0,0.7730040247361281,1706.3776425040721,60.100001923200004,0.7199994039200001,0.7730040247361281,1684,0.0,98,P-GPS,
0.33915408220313,36.9100315559315,18800,2018-04-06 07:18:12,1706.877642520072,60.600001939200006,0.0,0.784876025116032,1706.877642520072,60.600001939200006,0.7199994039200001,0.784876025116032,1684,0.0,98,P-GPS,
0.339154049300419,36.9100317449511,19000,2018-04-06 07:18:12,1707.877642552072,61.6000019712,0.0,0.797967025534944,1707.877642552072,61.6000019712,0.7199994039200001,0.797967025534944,1684,0.0,98,P-GPS,
0.339153990497307,36.9100318288607,19100,2018-04-06 07:18:12,1708.377642568072,62.1000019872,0.0,0.8006670256213441,1708.377642568072,62.1000019872,0.7199994039200001,0.8006670256213441,1684,0.0,98,P-GPS,
0.339153959374485,36.9100319075158,19200,2018-04-06 07:18:12,1708.877642584072,62.600002003200004,0.0,0.805059025761888,1708.877642584072,62.600002003200004,0.7199994039200001,0.805059025761888,1684,0.0,98,P-GPS,
0.339153935656198,36.9100319472892,19300,2018-04-06 07:18:12,1709.3776426000718,63.100002019200005,0.0,0.806742025815744,1709.3776426000718,63.100002019200005,0.7199994039200001,0.806742025815744,1684,0.0,98,P-GPS,
0.339153873513147,36.9100320387911,19500,2018-04-06 07:18:12,1710.4776426352719,64.2000020544,0.0,0.810194025926208,1710.4776426352719,64.2000020544,0.7199994039200001,0.810194025926208,1684,0.0,98,P-GPS,
0.339153848944812,36.9100320905742,19600,2018-04-06 07:18:12,1710.977642651272,64.7000020704,0.0,0.8129610260147521,1710.977642651272,64.7000020704,0.7199994039200001,0.8129610260147521,1684,0.0,98,P-GPS,
0.339153806831622,36.9100321372418,19700,2018-04-06 07:18:12,1711.477642667272,65.2000020864,0.0,0.8141120260515841,1711.477642667272,65.2000020864,0.7199994039200001,0.8141120260515841,1684,0.0,98,P-GPS,
0.339153757344837,36.9100321984431,19800,2018-04-06 07:18:13,1711.9776426832718,65.7000021024,0.35999970196000003,0.816101026115232,1711.9776426832718,65.7000021024,0.7199994039200001,0.816101026115232,1684,0.0,98,P-GPS,
0.339153696336811,36.9100322650446,19900,2018-04-06 07:18:13,1712.477642699272,66.20000211840001,0.35999970196000003,0.8178870261723841,1712.477642699272,66.20000211840001,0.7199994039200001,0.8178870261723841,1684,0.0,98,P-GPS,
0.339153670304506,36.910032372762,20000,2018-04-06 07:18:13,1712.977642715272,66.70000213440001,0.35999970196000003,0.82578002642496,1712.977642715272,66.70000213440001,0.7199994039200001,0.82578002642496,1684,0.0,98,P-GPS,
0.339153654506971,36.9100324467685,20100,2018-04-06 07:18:13,1713.477642731272,67.20000215040001,0.0,0.8314020266048641,1713.477642731272,67.20000215040001,0.7199994039200001,0.8314020266048641,1684,0.0,98,P-GPS,
0.339153667731564,36.9100325101624,20200,2018-04-06 07:18:13,1713.9776427472718,67.7000021664,0.0,0.837983026815456,1713.9776427472718,67.7000021664,0.7199994039200001,0.837983026815456,1684,0.0,98,P-GPS,
0.339153657643354,36.9100325369754,20300,2018-04-06 07:18:13,1714.477642763272,68.2000021824,0.0,0.8397580268722561,1714.477642763272,68.2000021824,0.7199994039200001,0.8397580268722561,1684,0.0,98,P-GPS,
0.339153645242753,36.9100325656251,20400,2018-04-06 07:18:13,1714.977642779272,68.7000021984,0.0,0.841559026929888,1714.977642779272,68.7000021984,0.7199994039200001,0.841559026929888,1684,0.0,98,P-GPS,
0.339153619873224,36.9100325818755,20500,2018-04-06 07:18:13,1715.4776427952718,69.2000022144,0.0,0.841414026925248,1715.4776427952718,69.2000022144,0.7199994039200001,0.841559026929888,1684,0.0,98,P-GPS,
0.339153606036335,36.9100326487548,20600,2018-04-06 07:18:13,1715.977642811272,69.7000022304,0.0,0.84664002709248,1715.977642811272,69.7000022304,0.7199994039200001,0.84664002709248,1684,0.0,98,P-GPS,
0.339153590299052,36.9100327164216,20700,2018-04-06 07:18:13,1716.477642827272,70.2000022464,0.0,0.8518560272593921,1716.477642827272,70.2000022464,0.7199994039200001,0.8518560272593921,1684,0.0,98,P-GPS,
0.339153575242459,36.9100327872097,20800,2018-04-06 07:18:13,1716.977642843272,70.7000022624,0.0,0.85744002743808,1716.977642843272,70.7000022624,0.7199994039200001,0.85744002743808,1684,0.0,98,P-GPS,
0.339153529377334,36.9100328307356,20900,2018-04-06 07:18:13,1717.477642859272,71.2000022784,0.0,0.8586450274766401,1717.477642859272,71.2000022784,0.7199994039200001,0.8586450274766401,1684,0.0,98,P-GPS,
0.339153476237949,36.9100328960079,21000,2018-04-06 07:18:14,1717.977642875272,71.70000229440001,0.35999970196000003,0.861497027567904,1717.977642875272,71.70000229440001,0.7199994039200001,0.861497027567904,1684,0.0,98,P-GPS,
0.339153423802053,36.9100329577317,21100,2018-04-06 07:18:14,1718.477642891272,72.2000023104,0.35999970196000003,0.8641500276528,1718.477642891272,72.2000023104,0.7199994039200001,0.8641500276528,1684,0.0,98,P-GPS,
0.339153388925667,36.9100330377796,21200,2018-04-06 07:18:14,1718.977642907272,72.7000023264,0.0,0.8696470278287041,1718.977642907272,72.7000023264,0.7199994039200001,0.8696470278287041,1684,0.0,98,P-GPS,
0.339153351828085,36.9100331065972,21300,2018-04-06 07:18:14,1719.477642923272,73.2000023424,0.0,0.874022027968704,1719.477642923272,73.2000023424,0.7199994039200001,0.874022027968704,1684,0.0,98,P-GPS,
0.339153326315253,36.9100331819243,21400,2018-04-06 07:18:14,1719.9776429392718,73.7000023584,0.0,0.879742028151744,1719.9776429392718,73.7000023584,0.7199994039200001,0.879742028151744,1684,0.0,98,P-GPS,
0.339153231940409,36.910033306642,21600,2018-04-06 07:18:14,1720.977642971272,74.7000023904,0.0,0.8864350283659201,1720.977642971272,74.7000023904,0.7199994039200001,0.8864350283659201,1684,0.0,98,P-GPS,
0.339153176584713,36.9100333591419,21700,2018-04-06 07:18:14,1721.477642987272,75.2000024064,0.0,0.88849002843168,1721.477642987272,75.2000024064,0.7199994039200001,0.88849002843168,1684,0.0,98,P-GPS,
0.339153156602076,36.9100333812512,21800,2018-04-06 07:18:14,1721.9776430032719,75.7000024224,0.0,0.8895570284658241,1721.9776430032719,75.7000024224,0.7199994039200001,0.8895570284658241,1684,0.0,98,P-GPS,
0.339153159233642,36.9100333383596,22000,2018-04-06 07:18:15,1722.977643035272,76.7000024544,0.0,0.885531028336992,1722.977643035272,76.7000024544,0.7199994039200001,0.8895570284658241,1684,0.0,98,P-GPS,
0.339153148767632,36.9100333275009,22100,2018-04-06 07:18:15,1723.4776430512718,77.20000247040001,0.0,0.8839100282851201,1723.4776430512718,77.20000247040001,0.7199994039200001,0.8895570284658241,1684,0.0,98,P-GPS,
0.33915315445253,36.9100333428075,22200,2018-04-06 07:18:15,1723.977643067272,77.70000248640001,0.0,0.885704028342528,1723.977643067272,77.70000248640001,0.7199994039200001,0.8895570284658241,1684,0.0,98,P-GPS,
0.339153143859502,36.9100333474518,22300,2018-04-06 07:18:15,1724.477643083272,78.20000250240001,0.0,0.8855830283386561,1724.477643083272,78.20000250240001,0.7199994039200001,0.8895570284658241,1684,0.0,98,P-GPS,
0.33915312475134,36.9100333683829,22400,2018-04-06 07:18:15,1724.977643099272,78.70000251840001,0.0,0.886592028370944,1724.977643099272,78.70000251840001,0.7199994039200001,0.8895570284658241,1684,0.0,98,P-GPS,
0.339153089047705,36.9100333786223,22500,2018-04-06 07:18:15,1725.4776431152718,79.20000253440001,0.0,0.8856830283418561,1725.4776431152718,79.20000253440001,0.7199994039200001,0.8895570284658241,1684,0.0,98,P-GPS,
0.339153068529311,36.9100333909462,22600,2018-04-06 07:18:15,1725.977643131272,79.70000255040001,0.0,0.8857990283455681,1725.977643131272,79.70000255040001,0.7199994039200001,0.8895570284658241,1684,0.0,98,P-GPS,
0.339153057159515,36.9100333681501,22700,2018-04-06 07:18:15,1726.477643147272,80.20000256640002,0.0,0.8829680282549761,1726.477643147272,80.20000256640002,0.7199994039200001,0.8895570284658241,1684,0.0,98,P-GPS,
0.339153074007397,36.9100333305382,22800,2018-04-06 07:18:15,1726.9776431632718,80.7000025824,0.35999970196000003,0.8801880281660159,1726.9776431632718,80.7000025824,0.7199994039200001,0.8895570284658241,1684,0.0,98,P-GPS,
0.339153091811175,36.9100332801031,22900,2018-04-06 07:18:15,1727.477643179272,81.2000025984,0.35999970196000003,0.876227028039264,1727.477643179272,81.2000025984,0.7199994039200001,0.8895570284658241,1684,0.0,98,P-GPS,
0.339153147088706,36.9100332592592,23000,2018-04-06 07:18:16,1727.9776431952719,81.7000026144,0.0,0.8771970280703041,1727.9776431952719,81.7000026144,0.7199994039200001,0.8895570284658241,1218,0.0,98,P-GPS,
0.339153213998213,36.9100332402654,23100,2018-04-06 07:18:16,1728.477643211272,82.20000263040001,0.0,0.879038028129216,1728.477643211272,82.20000263040001,0.7199994039200001,0.8895570284658241,1218,0.0,98,P-GPS,
0.339153322356505,36.910033223204,23200,2018-04-06 07:18:16,1729.077643230472,82.8000026496,0.0,0.88346502827088,1729.077643230472,82.8000026496,0.7199994039200001,0.8895570284658241,1024,0.0,98,P-GPS,
0.339153452982141,36.910033189053,23300,2018-04-06 07:18:16,1729.5776432464718,83.3000026656,0.0,0.8877070284066241,1729.5776432464718,83.3000026656,0.7199994039200001,0.8895570284658241,1024,0.0,98,P-GPS,
0.339153578466778,36.9100331456683,23400,2018-04-06 07:18:16,1729.9776432592719,83.70000267840001,0.0,0.891009028512288,1729.9776432592719,83.70000267840001,0.7199994039200001,0.891009028512288,1024,0.0,98,P-GPS,
0.339153661043545,36.9100331014454,23500,2018-04-06 07:18:16,1730.277643268872,84.000002688,0.0,0.891848028539136,1730.277643268872,84.000002688,0.7199994039200001,0.891848028539136,1024,0.0,98,P-GPS,
0.339153765513112,36.9100330914576,23600,2018-04-06 07:18:16,1730.577643278472,84.30000269760001,0.0,0.8973250287144,1730.577643278472,84.30000269760001,0.7199994039200001,0.8973250287144,1024,0.0,98,P-GPS,
0.339154123099873,36.9100331133978,23900,2018-04-06 07:18:17,1730.877643288072,84.60000270719999,0.0,0.9220100295043201,1730.877643288072,84.60000270719999,0.7199994039200001,0.9220100295043201,1024,0.0,98,P-GPS,
0.339154255236704,36.9100331291257,24000,2018-04-06 07:18:17,1730.977643291272,84.70000271040001,0.0,0.932079029826528,1730.977643291272,84.70000271040001,0.7199994039200001,0.932079029826528,992,0.0,98,P-GPS,
0.339154559210203,36.9100331771006,24200,2018-04-06 07:18:17,1730.977643291272,84.70000271040001,0.0,0.956744030615808,1730.977643291272,84.70000271040001,0.7199994039200001,0.956744030615808,823,0.0,98,P-GPS,
0.339154853549827,36.9100333040651,24400,2018-04-06 07:18:17,1730.977643291272,84.70000271040001,0.0,0.9881310316201921,1730.977643291272,84.70000271040001,0.7199994039200001,0.9881310316201921,657,0.0,98,P-GPS,
0.339155021360981,36.9100334312913,24600,2018-04-06 07:18:17,1730.877643288072,84.60000270719999,0.35999970196000003,1.0108700323478401,1730.977643291272,84.70000271040001,0.7199994039200001,1.0108700323478401,608,0.0,98,P-GPS,
0.339155024251469,36.9100334512771,24700,2018-04-06 07:18:17,1730.7776432848718,84.500002704,0.35999970196000003,1.0128000324096,1730.977643291272,84.70000271040001,0.7199994039200001,1.0128000324096,587,0.0,98,P-GPS,
0.339154995042069,36.9100334426564,24800,2018-04-06 07:18:17,1730.6776432816719,84.4000027008,0.7199994039200001,1.01001003232032,1730.977643291272,84.70000271040001,0.7199994039200001,1.0128000324096,577,0.0,98,P-GPS,
0.339154928824651,36.9100333789429,24900,2018-04-06 07:18:18,1730.577643278472,84.30000269760001,0.7199994039200001,0.9998670319957441,1730.977643291272,84.70000271040001,0.7199994039200001,1.0128000324096,580,0.0,98,P-GPS,
0.339154868432176,36.910033259195,25000,2018-04-06 07:18:18,1730.3776432720717,84.10000269119999,0.7199994039200001,0.9852930315293761,1730.977643291272,84.70000271040001,0.7199994039200001,1.0128000324096,568,0.0,98,P-GPS,
0.339154826444376,36.9100328483366,25200,2018-04-06 07:18:18,1729.9776432592719,83.70000267840001,0.503999582744,0.947234030311488,1730.977643291272,84.70000271040001,0.7199994039200001,1.0128000324096,550,0.0,98,P-GPS,
0.339154891562595,36.910032550819,25300,2018-04-06 07:18:18,1729.777643252872,83.500002672,0.503999582744,0.9272390296716481,1730.977643291272,84.70000271040001,0.7199994039200001,1.0128000324096,554,0.0,98,P-GPS,
0.339155009289325,36.9100322503943,25400,2018-04-06 07:18:18,1729.6776432496717,83.4000026688,0.7919993443119999,0.91191502918128,1730.977643291272,84.70000271040001,0.7919993443119999,1.0128000324096,536,0.0,98,P-GPS,
0.339155088405648,36.9100319627179,25500,2018-04-06 07:18:18,1729.477643243272,83.20000266240001,0.503999582744,0.8956390286604481,1730.977643291272,84.70000271040001,0.7919993443119999,1.0128000324096,512,0.0,98,P-GPS,
0.339155175200085,36.9100316758037,25600,2018-04-06 07:18:18,1729.2776432368719,83.000002656,0.7919993443119999,0.8810050281921601,1730.977643291272,84.70000271040001,0.7919993443119999,1.0128000324096,512,0.0,98,P-GPS,
0.339155251559453,36.9100314024463,25700,2018-04-06 07:18:18,1729.077643230472,82.8000026496,0.503999582744,0.8674850277595201,1730.977643291272,84.70000271040001,0.7919993443119999,1.0128000324096,497,0.0,98,P-GPS,
0.339155587614926,36.9100306654902,26000,2018-04-06 07:18:19,1728.377643208072,82.10000262720001,0.35999970196000003,0.847839027130848,1730.977643291272,84.70000271040001,0.7919993443119999,1.0128000324096,479,0.0,98,P-GPS,
0.3391557237789,36.9100304246362,26100,2018-04-06 07:18:19,1728.177643201672,81.90000262080001,0.35999970196000003,0.8458870270683841,1730.977643291272,84.70000271040001,0.7919993443119999,1.0128000324096,484,0.0,98,P-GPS,
0.339155880236542,36.9100302126133,26200,2018-04-06 07:18:19,1727.9776431952719,81.7000026144,0.35999970196000003,0.848611027155552,1730.977643291272,84.70000271040001,0.7919993443119999,1.0128000324096,480,0.0,98,P-GPS,
0.339156016039001,36.9100299979198,26300,2018-04-06 07:18:19,1727.7776431888717,81.500002608,0.35999970196000003,0.850169027205408,1730.977643291272,84.70000271040001,0.7919993443119999,1.0128000324096,479,0.0,98,P-GPS,
0.339156159714986,36.9100297922794,26400,2018-04-06 07:18:19,1727.477643179272,81.2000025984,0.35999970196000003,0.8538910273245119,1730.977643291272,84.70000271040001,0.7919993443119999,1.0128000324096,493,0.0,98,P-GPS,
0.339156278350388,36.9100295749934,26500,2018-04-06 07:18:19,1727.2776431728719,81.000002592,0.35999970196000003,0.8554340273738881,1730.977643291272,84.70000271040001,0.7919993443119999,1.0128000324096,570,0.0,98,P-GPS,
0.339156398208752,36.9100293714223,26600,2018-04-06 07:18:19,1727.077643166472,80.80000258560001,0.35999970196000003,0.8585720274743041,1730.977643291272,84.70000271040001,0.7919993443119999,1.0128000324096,1144,0.0,98,P-GPS,
0.339156480181366,36.9100291915318,26700,2018-04-06 07:18:19,1726.777643156872,80.500002576,0.35999970196000003,0.8595200275046401,1730.977643291272,84.70000271040001,0.7919993443119999,1.0128000324096,1024,0.0,98,P-GPS,
0.339156597816903,36.9100290373469,26800,2018-04-06 07:18:19,1726.5776431504719,80.30000256960001,0.35999970196000003,0.865731027703392,1730.977643291272,84.70000271040001,0.7919993443119999,1.0128000324096,1024,0.0,98,P-GPS,
0.339156792673255,36.9100289059225,26900,2018-04-06 07:18:19,1726.377643144072,80.1000025632,0.35999970196000003,0.881377028204064,1730.977643291272,84.70000271040001,0.7919993443119999,1.0128000324096,1024,0.0,98,P-GPS,
0.339157210688315,36.9100287913226,27000,2018-04-06 07:18:20,1726.277643140872,80.00000256,1.07999910588,0.921786029497152,1730.977643291272,84.70000271040001,1.07999910588,1.0128000324096,1024,0.0,98,P-GPS,
0.339157640389089,36.9100287020109,27100,2018-04-06 07:18:20,1726.277643140872,80.00000256,0.7199994039200001,0.9649130308772161,1730.977643291272,84.70000271040001,1.07999910588,1.0128000324096,1024,0.0,98,P-GPS,
0.339158020547712,36.9100286873943,27200,2018-04-06 07:18:20,1726.277643140872,80.00000256,0.35999970196000003,1.0053000321696,1730.977643291272,84.70000271040001,1.07999910588,1.0128000324096,1024,0.0,98,P-GPS,
0.339158275799795,36.9100287031752,27300,2018-04-06 07:18:20,1726.377643144072,80.1000025632,0.0,1.03321003306272,1730.977643291272,84.70000271040001,1.07999910588,1.03321003306272,1024,0.0,98,P-GPS,
0.339158499434009,36.9100287433456,27400,2018-04-06 07:18:20,1726.377643144072,80.1000025632,0.0,1.05841003386912,1730.977643291272,84.70000271040001,1.07999910588,1.05841003386912,1024,0.0,98,P-GPS,
0.339158621935337,36.9100287723505,27500,2018-04-06 07:18:20,1726.377643144072,80.1000025632,0.0,1.0724100343171201,1730.977643291272,84.70000271040001,1.07999910588,1.0724100343171201,1024,0.0,98,P-GPS,
0.339158761486474,36.9100287884357,27600,2018-04-06 07:18:20,1726.377643144072,80.1000025632,0.0,1.08789003481248,1730.977643291272,84.70000271040001,1.07999910588,1.08789003481248,1024,0.0,98,P-GPS,
0.339158851031352,36.9100287877714,27700,2018-04-06 07:18:20,1726.477643147272,80.20000256640002,0.0,1.09753003512096,1730.977643291272,84.70000271040001,1.07999910588,1.09753003512096,1024,0.0,98,P-GPS,
0.339158996363465,36.9100287818233,27800,2018-04-06 07:18:20,1726.477643147272,80.20000256640002,0.0,1.1130500356176,1730.977643291272,84.70000271040001,1.07999910588,1.1130500356176,1024,0.0,98,P-GPS,
0.33915909734002,36.9100287588088,27900,2018-04-06 07:18:20,1726.477643147272,80.20000256640002,0.0,1.1233500359472,1730.977643291272,84.70000271040001,1.07999910588,1.1233500359472,1024,0.0,98,P-GPS,
0.339159247909209,36.9100287595146,28000,2018-04-06 07:18:21,1726.477643147272,80.20000256640002,0.0,1.1396500364688,1730.977643291272,84.70000271040001,1.07999910588,1.1396500364688,1024,0.0,98,P-GPS,
0.339159338111979,36.9100287831292,28100,2018-04-06 07:18:21,1726.477643147272,80.20000256640002,0.0,1.1500200368006401,1730.977643291272,84.70000271040001,1.07999910588,1.1500200368006401,1024,0.0,98,P-GPS,
0.339159463961388,36.9100288348038,28200,2018-04-06 07:18:21,1726.477643147272,80.20000256640002,0.0,1.1649700372790401,1730.977643291272,84.70000271040001,1.07999910588,1.1649700372790401,1024,0.0,98,P-GPS,
0.339159512772369,36.9100289022535,28300,2018-04-06 07:18:21,1726.477643147272,80.20000256640002,0.0,1.17202003750464,1730.977643291272,84.70000271040001,1.07999910588,1.17202003750464,1024,0.0,98,P-GPS,
0.339159600229582,36.9100289968717,28400,2018-04-06 07:18:21,1726.477643147272,80.20000256640002,0.0,1.184000037888,1730.977643291272,84.70000271040001,1.07999910588,1.184000037888,1024,0.0,98,P-GPS,
0.339159625532345,36.910029105811,28500,2018-04-06 07:18:21,1726.477643147272,80.20000256640002,0.0,1.189750038072,1730.977643291272,84.70000271040001,1.07999910588,1.189750038072,1024,0.0,98,P-GPS,
0.339159611065248,36.9100294078428,28700,2018-04-06 07:18:21,1726.477643147272,80.20000256640002,0.35999970196000003,1.19719003831008,1730.977643291272,84.70000271040001,1.07999910588,1.19719003831008,1024,0.0,98,P-GPS,
0.339159584036335,36.9100295590776,28800,2018-04-06 07:18:21,1726.377643144072,80.1000025632,0.35999970196000003,1.1991500383728,1730.977643291272,84.70000271040001,1.07999910588,1.1991500383728,1024,0.0,98,P-GPS,
0.339159507730706,36.9100296918909,28900,2018-04-06 07:18:21,1726.377643144072,80.1000025632,0.35999970196000003,1.1955000382560002,1730.977643291272,84.70000271040001,1.07999910588,1.1991500383728,1024,0.0,98,P-GPS,
0.339159459238901,36.910029846435,29000,2018-04-06 07:18:22,1726.477643147272,80.20000256640002,0.35999970196000003,1.1957900382652802,1730.977643291272,84.70000271040001,1.07999910588,1.1991500383728,1024,0.0,98,P-GPS,
0.339159371081456,36.910029992646,29100,2018-04-06 07:18:22,1726.477643147272,80.20000256640002,0.35999970196000003,1.1918900381404802,1730.977643291272,84.70000271040001,1.07999910588,1.1991500383728,1024,0.0,98,P-GPS,
0.339159327807186,36.9100301337196,29200,2018-04-06 07:18:22,1726.377643144072,80.1000025632,0.35999970196000003,1.192750038168,1730.977643291272,84.70000271040001,1.07999910588,1.1991500383728,1024,0.0,98,P-GPS,
0.33915925748446,36.9100302398579,29300,2018-04-06 07:18:22,1726.377643144072,80.1000025632,0.35999970196000003,1.18963003806816,1730.977643291272,84.70000271040001,1.07999910588,1.1991500383728,1024,0.0,98,P-GPS,
0.33915918910284,36.910030349814,29400,2018-04-06 07:18:22,1726.377643144072,80.1000025632,0.35999970196000003,1.18703003798496,1730.977643291272,84.70000271040001,1.07999910588,1.1991500383728,1024,0.0,97,P-GPS,
0.339159078746447,36.9100304402549,29500,2018-04-06 07:18:22,1726.377643144072,80.1000025632,0.35999970196000003,1.1794500377424002,1730.977643291272,84.70000271040001,1.07999910588,1.1991500383728,1024,0.0,97,P-GPS,
0.339158986325736,36.9100305628646,29600,2018-04-06 07:18:22,1726.377643144072,80.1000025632,0.35999970196000003,1.17528003760896,1730.977643291272,84.70000271040001,1.07999910588,1.1991500383728,1024,0.0,97,P-GPS,
0.339158875646912,36.9100306576624,29700,2018-04-06 07:18:22,1726.377643144072,80.1000025632,0.35999970196000003,1.16823003738336,1730.977643291272,84.70000271040001,1.07999910588,1.1991500383728,1024,0.0,97,P-GPS,
0.339158766134053,36.9100307646015,29800,2018-04-06 07:18:23,1726.377643144072,80.1000025632,0.35999970196000003,1.1620500371856,1730.977643291272,84.70000271040001,1.07999910588,1.1991500383728,1024,0.0,97,P-GPS,
0.339158527482328,36.9100309333833,30000,2018-04-06 07:18:23,1726.477643147272,80.20000256640002,0.35999970196000003,1.14617003667744,1730.977643291272,84.70000271040001,1.07999910588,1.1991500383728,1024,0.0,97,P-GPS,
0.339158400962,36.91003098078,30100,2018-04-06 07:18:23,1726.477643147272,80.20000256640002,0.35999970196000003,1.13592003634944,1730.977643291272,84.70000271040001,1.07999910588,1.1991500383728,1024,0.0,97,P-GPS,
0.339158269637763,36.9100310653352,30200,2018-04-06 07:18:23,1726.477643147272,80.20000256640002,0.35999970196000003,1.12721003607072,1730.977643291272,84.70000271040001,1.07999910588,1.1991500383728,1024,0.0,97,P-GPS,
0.339158139472977,36.9100311435074,30300,2018-04-06 07:18:23,1726.477643147272,80.20000256640002,0.35999970196000003,1.11848003579136,1730.977643291272,84.70000271040001,1.07999910588,1.1991500383728,1024,0.0,97,P-GPS,
0.3391580011676,36.9100312581228,30400,2018-04-06 07:18:23,1726.477643147272,80.20000256640002,0.35999970196000003,1.1111100355555201,1730.977643291272,84.70000271040001,1.07999910588,1.1991500383728,1024,0.0,97,P-GPS,
0.339157861000911,36.9100313693722,30500,2018-04-06 07:18:23,1726.477643147272,80.20000256640002,0.35999970196000003,1.10369003531808,1730.977643291272,84.70000271040001,1.07999910588,1.1991500383728,1024,0.0,97,P-GPS,
0.33915771909993,36.9100315244939,30600,2018-04-06 07:18:23,1726.477643147272,80.20000256640002,0.35999970196000003,1.0989500351664,1730.977643291272,84.70000271040001,1.07999910588,1.1991500383728,1024,0.0,97,P-GPS,
0.339157581579463,36.9100316446985,30700,2018-04-06 07:18:23,1726.477643147272,80.20000256640002,0.35999970196000003,1.09301003497632,1730.977643291272,84.70000271040001,1.07999910588,1.1991500383728,1024,0.0,97,P-GPS,
0.339157438650933,36.9100317479778,30800,2018-04-06 07:18:23,1726.477643147272,80.20000256640002,0.35999970196000003,1.08588003474816,1730.977643291272,84.70000271040001,1.07999910588,1.1991500383728,1024,0.0,97,P-GPS,
0.339157295782656,36.9100317990874,30900,2018-04-06 07:18:23,1726.477643147272,80.20000256640002,0.35999970196000003,1.07581003442592,1730.977643291272,84.70000271040001,1.07999910588,1.1991500383728,1024,0.0,97,P-GPS,
0.339157168671203,36.910031846307,31000,2018-04-06 07:18:24,1726.477643147272,80.20000256640002,0.35999970196000003,1.0671100341475201,1730.977643291272,84.70000271040001,1.07999910588,1.1991500383728,1024,0.0,97,P-GPS,
0.339157060413875,36.9100318824837,31100,2018-04-06 07:18:24,1726.477643147272,80.20000256640002,0.35999970196000003,1.0595500339056,1730.977643291272,84.70000271040001,1.07999910588,1.1991500383728,1024,0.0,97,P-GPS,
0.339156947883509,36.910031942716,31200,2018-04-06 07:18:24,1726.477643147272,80.20000256640002,0.35999970196000003,1.0532700337046401,1730.977643291272,84.70000271040001,1.07999910588,1.1991500383728,1024,0.0,97,P-GPS,
0.339156830151893,36.9100320166422,31300,2018-04-06 07:18:24,1726.477643147272,80.20000256640002,0.35999970196000003,1.04759003352288,1730.977643291272,84.70000271040001,1.07999910588,1.1991500383728,1024,0.0,97,P-GPS,
0.339156574688113,36.9100322371004,31500,2018-04-06 07:18:24,1726.477643147272,80.20000256640002,0.35999970196000003,1.04012003328384,1730.977643291272,84.70000271040001,1.07999910588,1.1991500383728,1024,0.0,97,P-GPS,
0.339156454072523,36.9100323322445,31600,2018-04-06 07:18:24,1726.377643144072,80.1000025632,0.35999970196000003,1.03641003316512,1730.977643291272,84.70000271040001,1.07999910588,1.1991500383728,1024,0.0,97,P-GPS,
0.339156325500356,36.9100324041584,31700,2018-04-06 07:18:24,1726.377643144072,80.1000025632,0.35999970196000003,1.03062003297984,1730.977643291272,84.70000271040001,1.07999910588,1.1991500383728,1024,0.0,97,P-GPS,
0.339156183628686,36.9100324761183,31800,2018-04-06 07:18:24,1726.377643144072,80.1000025632,0.35999970196000003,1.0239500327664,1730.977643291272,84.70000271040001,1.07999910588,1.1991500383728,1024,0.0,97,P-GPS,
0.339156037177832,36.9100325334253,31900,2018-04-06 07:18:24,1726.377643144072,80.1000025632,0.35999970196000003,1.01607003251424,1730.977643291272,84.70000271040001,1.07999910588,1.1991500383728,1024,0.0,97,P-GPS,
0.339155861136522,36.9100326038826,32000,2018-04-06 07:18:24,1726.377643144072,80.1000025632,0.35999970196000003,1.00704003222528,1730.977643291272,84.70000271040001,1.07999910588,1.1991500383728,1024,0.0,97,P-GPS,
0.339155657686872,36.9100326531015,32100,2018-04-06 07:18:25,1726.377643144072,80.1000025632,0.7199994039200001,0.9945440318254081,1730.977643291272,84.70000271040001,1.07999910588,1.1991500383728,1024,0.0,97,P-GPS,
0.339155434331121,36.9100327261299,32200,2018-04-06 07:18:25,1726.277643140872,80.00000256,0.7199994039200001,0.982793031449376,1730.977643291272,84.70000271040001,1.07999910588,1.1991500383728,1024,0.0,97,P-GPS,
0.339155191833012,36.9100327800494,32300,2018-04-06 07:18:25,1726.277643140872,80.00000256,0.7199994039200001,0.9685970309951041,1730.977643291272,84.70000271040001,1.07999910588,1.1991500383728,1024,0.0,97,P-GPS,
0.339154909021143,36.910032811692,32400,2018-04-06 07:18:25,1726.377643144072,80.1000025632,1.07999910588,0.9501710304054721,1730.977643291272,84.70000271040001,1.07999910588,1.1991500383728,1024,0.0,97,P-GPS,
0.339154581495459,36.9100327910163,32500,2018-04-06 07:18:25,1726.377643144072,80.1000025632,1.151999046272,0.9248030295936961,1730.977643291272,84.70000271040001,1.151999046272,1.1991500383728,1024,0.0,97,P-GPS,
0.339154215515698,36.9100327263451,32600,2018-04-06 07:18:25,1726.377643144072,80.1000025632,1.475998778036,0.8937120285987841,1730.977643291272,84.70000271040001,1.475998778036,1.1991500383728,1024,0.0,97,P-GPS,
0.339153806751828,36.9100325988469,32700,2018-04-06 07:18:25,1726.377643144072,80.1000025632,1.6199986588200002,0.8550320273610241,1730.977643291272,84.70000271040001,1.6199986588200002,1.1991500383728,1024,0.0,97,P-GPS,
0.339153358304407,36.9100324141992,32800,2018-04-06 07:18:25,1726.377643144072,80.1000025632,1.943998390584,0.809559025905888,1730.977643291272,84.70000271040001,1.943998390584,1.1991500383728,1024,0.0,97,P-GPS,
0.339152864345232,36.9100321780816,32900,2018-04-06 07:18:25,1726.377643144072,80.1000025632,2.087998271368,0.7576540242449281,1730.977643291272,84.70000271040001,2.087998271368,1.1991500383728,1024,0.0,97,P-GPS,
