latitude,longitude,time_millisecond,datetime_utc,altitude_m,ascent_m,speed_kph,distance_m,max_altitude_m,max_ascent_m,max_speed_kph,max_distance_m,rc_throttle,gimbal_pitch_degrees,battery_percent,flycState,message
0.3578051576539121,36.9199599812618,100,2017-11-10 06:12:15,1669.928642337722,0.0,0.0,0.0,1669.928642337722,0.0,0.0,0.0,1024,0.0,99,Motors_Started,
0.35780516054409495,36.919960012734705,200,2017-11-10 06:12:15,1669.928642337722,0.0,0.0,0.00351463011246816,1669.928642337722,0.0,0.0,0.00351463011246816,1024,0.0,99,Motors_Started,
0.357805164874636,36.9199600295725,300,2017-11-10 06:12:15,1669.928642337722,0.0,0.0,0.0054320201738246405,1669.928642337722,0.0,0.0,0.0054320201738246405,1024,0.0,99,Motors_Started,
0.3578051689742439,36.919960037326206,400,2017-11-10 06:12:15,1669.928642337722,0.0,0.0,0.00636041020353312,1669.928642337722,0.0,0.0,0.00636041020353312,1024,0.0,99,Motors_Started,
0.357805174578432,36.9199600481728,500,2017-11-10 06:12:15,1669.928642337722,0.0,0.0,0.007675110245603522,1669.928642337722,0.0,0.0,0.007675110245603522,1024,0.0,99,Motors_Started,Setting new Return-To-Home altitude to 30m (98 ft). Setting new Maximum Flight Altitude to 100m (328 ft)
0.35780517913716,36.919960073611705,600,2017-11-10 06:12:15,1669.928642337722,0.0,0.0,0.0105439003374048,1669.928642337722,0.0,0.0,0.0105439003374048,1024,0.0,99,Motors_Started,
0.357805183915625,36.919960107402204,700,2017-11-10 06:12:15,1669.928642337722,0.0,0.0,0.014328100458499199,1669.928642337722,0.0,0.0,0.014328100458499199,1024,0.0,99,Motors_Started,
0.35780518826621704,36.9199601476365,800,2017-11-10 06:12:15,1669.928642337722,0.0,0.0,0.0188121006019872,1669.928642337722,0.0,0.0,0.0188121006019872,1024,0.0,99,Motors_Started,
0.357805192091025,36.919960180013206,900,2017-11-10 06:12:15,1669.928642337722,0.0,0.0,0.0224313007178016,1669.928642337722,0.0,0.0,0.0224313007178016,764,0.0,99,Motors_Started,
0.357805196077354,36.9199602005361,1000,2017-11-10 06:12:15,1669.928642337722,0.0,0.0,0.0247557007921824,1669.928642337722,0.0,0.0,0.0247557007921824,1024,0.0,99,Motors_Started,
0.35780519888560497,36.919960227372606,1100,2017-11-10 06:12:16,1669.928642337722,0.0,0.0,0.027749900887996802,1669.928642337722,0.0,0.0,0.027749900887996802,1024,0.0,99,Motors_Started,
0.357805204466995,36.919960261257295,1200,2017-11-10 06:12:16,1669.928642337722,0.0,0.0,0.0315688010102016,1669.928642337722,0.0,0.0,0.0315688010102016,1024,0.0,99,Motors_Started,
0.357805205121019,36.919960303448896,1300,2017-11-10 06:12:16,1669.928642337722,0.0,0.0,0.0362152011588864,1669.928642337722,0.0,0.0,0.0362152011588864,1024,0.0,99,Motors_Started,
0.357805208127636,36.919960349239105,1400,2017-11-10 06:12:16,1669.928642337722,0.0,0.0,0.0413037013217184,1669.928642337722,0.0,0.0,0.0413037013217184,1024,0.0,99,Motors_Started,
0.35780520981816405,36.9199603855865,1500,2017-11-10 06:12:16,1669.928642337722,0.0,0.0,0.0453352014507264,1669.928642337722,0.0,0.0,0.0453352014507264,1024,0.0,99,Motors_Started,
0.35780521201127097,36.9199604079672,1600,2017-11-10 06:12:16,1669.928642337722,0.0,0.0,0.0478348015307136,1669.928642337722,0.0,0.0,0.0478348015307136,1024,0.0,99,Assisted_Takeoff,
0.357805212809616,36.919960432568296,1700,2017-11-10 06:12:16,1669.928642337722,0.0,0.0,0.050560501617936,1669.928642337722,0.0,0.0,0.050560501617936,1024,0.0,99,Assisted_Takeoff,
0.357805215787938,36.9199604684671,1800,2017-11-10 06:12:16,1669.928642337722,0.0,0.0,0.054563501746032014,1669.928642337722,0.0,0.0,0.054563501746032014,1024,0.0,99,Assisted_Takeoff,
0.3578052153704461,36.9199604903007,1900,2017-11-10 06:12:16,1669.928642337722,0.0,0.0,0.05696980182303361,1669.928642337722,0.0,0.0,0.05696980182303361,1024,0.0,99,Assisted_Takeoff,
0.357805216279525,36.9199605048332,2000,2017-11-10 06:12:16,1669.928642337722,0.0,0.0,0.058587101874787204,1669.928642337722,0.0,0.0,0.058587101874787204,1024,0.0,99,Assisted_Takeoff,
0.357805214841303,36.919960524378396,2100,2017-11-10 06:12:17,1669.928642337722,0.0,0.0,0.0607306019433792,1669.928642337722,0.0,0.0,0.0607306019433792,1024,0.0,99,Assisted_Takeoff,
0.357805214971477,36.9199605553245,2200,2017-11-10 06:12:17,1669.928642337722,0.0,0.0,0.064155502052976,1669.928642337722,0.0,0.0,0.064155502052976,1024,0.0,99,Assisted_Takeoff,
0.35780521307535706,36.9199605746828,2300,2017-11-10 06:12:17,1669.928642337722,0.0,0.0,0.06627790212089281,1669.928642337722,0.0,0.0,0.06627790212089281,1024,0.0,99,Assisted_Takeoff,
0.357805213466489,36.919960587188704,2400,2017-11-10 06:12:17,1669.928642337722,0.0,0.0,0.06766670216533441,1669.928642337722,0.0,0.0,0.06766670216533441,1024,0.0,99,Assisted_Takeoff,
0.35780521206501,36.9199606060604,2500,2017-11-10 06:12:17,1669.928642337722,0.0,0.0,0.069743002231776,1669.928642337722,0.0,0.0,0.069743002231776,1024,0.0,99,Assisted_Takeoff,
0.35780521276890503,36.9199606366859,2600,2017-11-10 06:12:17,1669.928642337722,0.0,0.0,0.073143002340576,1669.928642337722,0.0,0.0,0.073143002340576,1024,0.0,99,Assisted_Takeoff,
0.35780523189263896,36.9199606782252,2700,2017-11-10 06:12:17,1669.928642337722,0.0,0.0,0.077943502494192,1669.928642337722,0.0,0.0,0.077943502494192,1024,0.0,99,Assisted_Takeoff,
0.357805261826289,36.9199607218453,2800,2017-11-10 06:12:17,1669.928642337722,0.0,0.0,0.0831666026613312,1669.928642337722,0.0,0.0,0.0831666026613312,1024,0.0,99,Assisted_Takeoff,
0.35780529127344196,36.9199607556296,2900,2017-11-10 06:12:17,1669.928642337722,0.0,0.0,0.0873854027963328,1669.928642337722,0.0,0.0,0.0873854027963328,1024,0.0,99,Assisted_Takeoff,
0.35780531089710793,36.9199607770515,3000,2017-11-10 06:12:17,1669.928642337722,0.0,0.0,0.09012090288386881,1669.928642337722,0.0,0.0,0.09012090288386881,1024,0.0,99,Assisted_Takeoff,
0.35780534641754297,36.9199608052285,3100,2017-11-10 06:12:18,1669.928642337722,0.0,0.0,0.0940021030080672,1669.928642337722,0.0,0.0,0.0940021030080672,1024,0.0,99,Assisted_Takeoff,
0.35780538785228205,36.919960842117604,3200,2017-11-10 06:12:18,1669.928642337722,0.0,0.0,0.0990942031710144,1669.928642337722,0.0,0.0,0.0990942031710144,1024,0.0,99,Assisted_Takeoff,
0.35780542518130803,36.919960887965104,3300,2017-11-10 06:12:18,1669.928642337722,0.0,0.0,0.10512700336406401,1669.928642337722,0.0,0.0,0.10512700336406401,1024,0.0,99,Assisted_Takeoff,
0.35780544893643795,36.9199609347579,3400,2017-11-10 06:12:18,1669.928642337722,0.0,0.0,0.11087000354784,1669.928642337722,0.0,0.0,0.11087000354784,1024,0.0,99,Assisted_Takeoff,
0.35780548375053495,36.9199609910744,3500,2017-11-10 06:12:18,1669.928642337722,0.0,0.0,0.11800500377616002,1669.928642337722,0.0,0.0,0.11800500377616002,1024,0.0,99,Assisted_Takeoff,
0.35780552495708895,36.9199610444596,3600,2017-11-10 06:12:18,1669.928642337722,0.0,0.0,0.125089004002848,1669.928642337722,0.0,0.0,0.125089004002848,1024,0.0,99,Assisted_Takeoff,
0.357805559056503,36.9199611039306,3700,2017-11-10 06:12:18,1669.928642337722,0.0,0.0,0.13258500424272002,1669.928642337722,0.0,0.0,0.13258500424272002,1024,0.0,99,Assisted_Takeoff,
0.35780558094828596,36.9199611595849,3800,2017-11-10 06:12:18,1669.928642337722,0.0,0.0,0.139233004455456,1669.928642337722,0.0,0.0,0.139233004455456,1024,0.0,99,Assisted_Takeoff,
0.35780561043004294,36.919961203106496,3900,2017-11-10 06:12:18,1669.928642337722,0.0,0.0,0.144903004636896,1669.928642337722,0.0,0.0,0.144903004636896,1024,0.0,99,Assisted_Takeoff,
0.357805651812266,36.919961231295794,4000,2017-11-10 06:12:18,1669.928642337722,0.0,0.0,0.14947700478326403,1669.928642337722,0.0,0.0,0.14947700478326403,1024,0.0,99,Assisted_Takeoff,
0.357805681122426,36.919961258357205,4100,2017-11-10 06:12:19,1669.928642337722,0.0,0.0,0.15348600491155198,1669.928642337722,0.0,0.0,0.15348600491155198,1024,0.0,99,Assisted_Takeoff,
0.35780570251956895,36.9199612960594,4200,2017-11-10 06:12:19,1669.928642337722,0.0,0.0,0.15826900506460803,1669.928642337722,0.0,0.0,0.15826900506460803,1024,0.0,99,Assisted_Takeoff,
0.357805710706978,36.919961318470605,4300,2017-11-10 06:12:19,1669.928642337722,0.0,0.0,0.16092000514944,1669.928642337722,0.0,0.0,0.16092000514944,1024,0.0,99,Assisted_Takeoff,
0.357805719660774,36.9199613338827,4400,2017-11-10 06:12:19,1669.928642337722,0.0,0.0,0.16288400521228802,1669.928642337722,0.0,0.0,0.16288400521228802,1024,0.0,99,Assisted_Takeoff,
0.357805735842622,36.919961332526704,4500,2017-11-10 06:12:19,1669.928642337722,0.0,0.0,0.16344500523024003,1669.928642337722,0.0,0.0,0.16344500523024003,1024,0.0,99,Assisted_Takeoff,
0.357805764245942,36.9199613330476,4600,2017-11-10 06:12:19,1669.928642337722,0.0,0.0,0.16476600527251198,1669.928642337722,0.0,0.0,0.16476600527251198,1024,0.0,99,Assisted_Takeoff,
0.357805785220912,36.919961336877705,4700,2017-11-10 06:12:19,1669.928642337722,0.0,0.0,0.166121005315872,1669.928642337722,0.0,0.0,0.166121005315872,1024,0.0,99,Assisted_Takeoff,
0.357805799997209,36.919961358163704,4800,2017-11-10 06:12:19,1669.928642337722,0.0,0.0,0.16896000540672002,1669.928642337722,0.0,0.0,0.16896000540672002,1024,0.0,99,Assisted_Takeoff,
0.357805821530735,36.9199613684234,4900,2017-11-10 06:12:19,1669.928642337722,0.0,0.0,0.17101400547244802,1669.928642337722,0.0,0.0,0.17101400547244802,1024,0.0,99,Assisted_Takeoff,
0.357805857076817,36.9199613748134,5000,2017-11-10 06:12:19,1669.928642337722,0.0,0.0,0.173392005548544,1669.928642337722,0.0,0.0,0.173392005548544,1024,0.0,99,Assisted_Takeoff,
0.357805883872253,36.9199613711165,5100,2017-11-10 06:12:20,1669.928642337722,0.0,0.0,0.17438500558032002,1669.928642337722,0.0,0.0,0.17438500558032002,1024,0.0,99,Assisted_Takeoff,
0.35780590252485706,36.919961368851105,5200,2017-11-10 06:12:20,1669.928642337722,0.0,0.0,0.175133005604256,1669.928642337722,0.0,0.0,0.175133005604256,1024,0.0,99,Assisted_Takeoff,
0.357805908985302,36.9199613568147,5300,2017-11-10 06:12:20,1669.928642337722,0.0,0.0,0.174298005577536,1669.928642337722,0.0,0.0,0.175133005604256,1024,0.0,99,Assisted_Takeoff,
0.357805917435094,36.9199613508359,5400,2017-11-10 06:12:20,1669.928642337722,0.0,0.0,0.174169005573408,1669.928642337722,0.0,0.0,0.175133005604256,1024,0.0,99,Assisted_Takeoff,
0.35780593288332796,36.9199613383675,5500,2017-11-10 06:12:20,1669.928642337722,0.0,0.0,0.173804005561728,1669.928642337722,0.0,0.0,0.175133005604256,1024,0.0,99,Assisted_Takeoff,
0.35780596302379103,36.9199613299931,5600,2017-11-10 06:12:20,1669.928642337722,0.0,0.0,0.17469000559008002,1669.928642337722,0.0,0.0,0.175133005604256,1024,0.0,99,Assisted_Takeoff,
0.357805983040014,36.9199613178673,5700,2017-11-10 06:12:20,1669.928642337722,0.0,0.0,0.174693005590176,1669.928642337722,0.0,0.0,0.175133005604256,1024,0.0,99,Assisted_Takeoff,
0.35780599846646705,36.9199613106075,5800,2017-11-10 06:12:20,1669.928642337722,0.0,0.0,0.174918005597376,1669.928642337722,0.0,0.0,0.175133005604256,1024,0.0,99,Assisted_Takeoff,
0.35780602089238,36.9199613198244,5900,2017-11-10 06:12:20,1669.928642337722,0.0,0.0,0.17712400566796802,1669.928642337722,0.0,0.0,0.17712400566796802,1024,0.0,99,Assisted_Takeoff,
0.357806056331189,36.9199613433962,6000,2017-11-10 06:12:20,1669.928642337722,0.0,0.0,0.181472005807104,1669.928642337722,0.0,0.0,0.181472005807104,1024,0.0,99,Assisted_Takeoff,
0.35780608207790704,36.919961368066296,6100,2017-11-10 06:12:21,1669.928642337722,0.0,0.0,0.185341005930912,1669.928642337722,0.0,0.0,0.185341005930912,1024,0.0,99,Assisted_Takeoff,
0.35780610138026,36.9199613828167,6200,2017-11-10 06:12:21,1669.928642337722,0.0,0.0,0.18789900601276802,1669.928642337722,0.0,0.0,0.18789900601276802,1024,0.0,99,Assisted_Takeoff,
0.357806108373613,36.91996139536921,6300,2017-11-10 06:12:21,1669.928642337722,0.0,0.0,0.189491006063712,1669.928642337722,0.0,0.0,0.189491006063712,1024,0.0,99,Assisted_Takeoff,
0.357806116581378,36.9199614034855,6400,2017-11-10 06:12:21,1669.928642337722,0.0,0.0,0.190750006104,1669.928642337722,0.0,0.0,0.190750006104,1024,0.0,99,Assisted_Takeoff,
0.35780611237123994,36.919961407840795,6500,2017-11-10 06:12:21,1669.928642337722,0.0,0.0,0.19089000610847998,1669.928642337722,0.0,0.0,0.19089000610847998,1024,0.0,99,Assisted_Takeoff,
0.357806114181662,36.919961410038205,6600,2017-11-10 06:12:21,1669.928642337722,0.0,0.0,0.191206006118592,1669.928642337722,0.0,0.0,0.191206006118592,1024,0.0,99,Assisted_Takeoff,
0.357806123689536,36.9199614080538,6700,2017-11-10 06:12:21,1669.928642337722,0.0,0.0,0.191613006131616,1669.928642337722,0.0,0.0,0.191613006131616,1024,0.0,99,Assisted_Takeoff,
0.357806151853882,36.919961405946296,6800,2017-11-10 06:12:21,1669.928642337722,0.0,0.0,0.19319400618220803,1669.928642337722,0.0,0.0,0.19319400618220803,1024,0.0,99,Assisted_Takeoff,
0.35780617200241605,36.9199614001537,6900,2017-11-10 06:12:21,1669.928642337722,0.0,0.0,0.19396100620675202,1669.928642337722,0.0,0.0,0.19396100620675202,1024,0.0,99,Assisted_Takeoff,
0.357806187541436,36.919961395734205,7000,2017-11-10 06:12:21,1669.928642337722,0.0,0.0,0.194573006226336,1669.928642337722,0.0,0.0,0.194573006226336,1024,0.0,99,Assisted_Takeoff,
0.35780619282146203,36.919961389444396,7100,2017-11-10 06:12:22,1669.928642337722,0.0,0.0,0.19435500621936003,1669.928642337722,0.0,0.0,0.194573006226336,1024,0.0,99,Assisted_Takeoff,
0.357806200084526,36.9199613854885,7200,2017-11-10 06:12:22,1669.928642337722,0.0,0.0,0.19448200622342404,1669.928642337722,0.0,0.0,0.194573006226336,1024,0.0,99,Assisted_Takeoff,
0.357806196758022,36.9199613613327,7300,2017-11-10 06:12:22,1669.928642337722,0.0,0.0,0.19210900614748802,1669.928642337722,0.0,0.0,0.194573006226336,1024,0.0,99,Assisted_Takeoff,
0.35780619965909494,36.9199613281319,7400,2017-11-10 06:12:22,1669.928642337722,0.0,0.0,0.18936900605980803,1669.928642337722,0.0,0.0,0.194573006226336,1024,0.0,99,Assisted_Takeoff,
0.35780619224682503,36.9199612928444,7500,2017-11-10 06:12:22,1669.928642337722,0.0,0.0,0.18577000594464,1669.928642337722,0.0,0.0,0.194573006226336,1024,0.0,99,Assisted_Takeoff,
0.357806192941356,36.9199612709755,7600,2017-11-10 06:12:22,1669.928642337722,0.0,0.0,0.18391500588528,1669.928642337722,0.0,0.0,0.194573006226336,1024,0.0,99,Assisted_Takeoff,
0.3578062035582,36.9199612515513,7700,2017-11-10 06:12:22,1669.928642337722,0.0,0.0,0.18298300585545602,1669.928642337722,0.0,0.0,0.194573006226336,1024,0.0,99,Assisted_Takeoff,
0.3578062337971839,36.9199612383394,7800,2017-11-10 06:12:22,1669.928642337722,0.0,0.0,0.184021005888672,1669.928642337722,0.0,0.0,0.194573006226336,1024,0.0,99,Assisted_Takeoff,
0.357806257307437,36.919961230628296,7900,2017-11-10 06:12:22,1669.928642337722,0.0,0.0,0.18508700592278401,1669.928642337722,0.0,0.0,0.194573006226336,1024,0.0,99,Assisted_Takeoff,
0.357806277571998,36.9199612232999,8000,2017-11-10 06:12:22,1669.928642337722,0.0,0.0,0.185978005951296,1669.928642337722,0.0,0.0,0.194573006226336,1024,0.0,99,Assisted_Takeoff,
0.35780628867635705,36.9199612213985,8100,2017-11-10 06:12:23,1669.928642337722,0.0,0.0,0.18665000597280001,1669.928642337722,0.0,0.0,0.194573006226336,1024,0.0,99,Assisted_Takeoff,
0.357806299248012,36.9199612192835,8200,2017-11-10 06:12:23,1669.928642337722,0.0,0.0,0.18727200599270402,1669.928642337722,0.0,0.0,0.194573006226336,1024,0.0,99,Assisted_Takeoff,
0.35780631859596296,36.919961222331,8300,2017-11-10 06:12:23,1669.928642337722,0.0,0.0,0.18898400604748802,1669.928642337722,0.0,0.0,0.194573006226336,1024,0.0,99,Assisted_Takeoff,
0.35780635421064294,36.9199612221945,8400,2017-11-10 06:12:23,1669.928642337722,0.0,0.0,0.191701006134432,1669.928642337722,0.0,0.0,0.194573006226336,1024,0.0,99,Assisted_Takeoff,
0.357806381135336,36.9199612278597,8500,2017-11-10 06:12:23,1669.928642337722,0.0,0.0,0.19424000621568,1669.928642337722,0.0,0.0,0.194573006226336,1024,0.0,99,Assisted_Takeoff,
0.357806404204688,36.919961229559796,8600,2017-11-10 06:12:23,1669.928642337722,0.0,0.0,0.19618000627776003,1669.928642337722,0.0,0.0,0.19618000627776003,1024,0.0,99,Assisted_Takeoff,
0.357806415139486,36.9199612157574,8700,2017-11-10 06:12:23,1669.928642337722,0.0,0.0,0.195962006270784,1669.928642337722,0.0,0.0,0.19618000627776003,1024,0.0,99,Assisted_Takeoff,
0.35780642695547604,36.9199611881238,8800,2017-11-10 06:12:23,1669.928642337722,0.0,0.0,0.19477200623270402,1669.928642337722,0.0,0.0,0.19618000627776003,1024,0.0,99,Assisted_Takeoff,
0.357806425415375,36.9199611622652,8900,2017-11-10 06:12:23,1669.928642337722,0.0,0.0,0.19267700616566402,1669.928642337722,0.0,0.0,0.19618000627776003,1024,0.0,99,Assisted_Takeoff,
0.35780643036686205,36.9199611459683,9000,2017-11-10 06:12:23,1669.928642337722,0.0,0.0,0.191852006139264,1669.928642337722,0.0,0.0,0.19618000627776003,1027,0.0,99,Assisted_Takeoff,
0.35780642289495096,36.9199611335626,9100,2017-11-10 06:12:24,1669.928642337722,0.0,0.0,0.190308006089856,1669.928642337722,0.0,0.0,0.19618000627776003,1034,0.0,99,Assisted_Takeoff,
0.357806424334495,36.9199611250555,9200,2017-11-10 06:12:24,1669.928642337722,0.0,0.0,0.189791006073312,1669.928642337722,0.0,0.0,0.19618000627776003,1037,0.0,99,Assisted_Takeoff,
0.35780641260705204,36.9199611214074,9300,2017-11-10 06:12:24,1669.928642337722,0.0,0.0,0.188552006033664,1669.928642337722,0.0,0.0,0.19618000627776003,1038,0.0,99,Assisted_Takeoff,
0.357806412445836,36.9199611171501,9400,2017-11-10 06:12:24,1669.928642337722,0.0,0.0,0.188221006023072,1669.928642337722,0.0,0.0,0.19618000627776003,1036,0.0,99,Assisted_Takeoff,
0.35780642226983206,36.9199611186494,9500,2017-11-10 06:12:24,1669.928642337722,0.0,0.0,0.18914400605260803,1669.928642337722,0.0,0.0,0.19618000627776003,1024,0.0,99,Assisted_Takeoff,
0.357806451291554,36.919961118381295,9600,2017-11-10 06:12:24,1669.928642337722,0.0,0.0,0.19153600612915198,1669.928642337722,0.0,0.0,0.19618000627776003,1025,0.0,99,Assisted_Takeoff,
0.357806473010111,36.9199611233254,9700,2017-11-10 06:12:24,1669.928642337722,0.0,0.0,0.193716006198912,1669.928642337722,0.0,0.0,0.19618000627776003,1024,0.0,99,Assisted_Takeoff,
0.35780649283438104,36.9199611250212,9800,2017-11-10 06:12:24,1669.928642337722,0.0,0.0,0.19550900625628803,1669.928642337722,0.0,0.0,0.19618000627776003,1024,0.0,99,Assisted_Takeoff,
0.35780650253319,36.9199611099384,9900,2017-11-10 06:12:24,1669.928642337722,0.0,0.0,0.19524700624790403,1669.928642337722,0.0,0.0,0.19618000627776003,1024,0.0,99,Assisted_Takeoff,
0.357806514845448,36.9199610844299,10000,2017-11-10 06:12:24,1669.928642337722,0.0,0.0,0.194496006223872,1669.928642337722,0.0,0.0,0.19618000627776003,1024,0.0,99,Assisted_Takeoff,
0.35780653634579396,36.919961058546704,10100,2017-11-10 06:12:25,1669.928642337722,0.0,0.0,0.194572006226304,1669.928642337722,0.0,0.0,0.19618000627776003,1024,0.0,99,Assisted_Takeoff,
0.35780657451448605,36.9199610425175,10200,2017-11-10 06:12:25,1669.928642337722,0.0,0.0,0.19686000629952002,1669.928642337722,0.0,0.0,0.19686000629952002,1024,0.0,99,Assisted_Takeoff,
0.35780660438259204,36.919961009555394,10300,2017-11-10 06:12:25,1669.928642337722,0.0,0.0,0.19738300631625602,1669.928642337722,0.0,0.0,0.19738300631625602,1031,0.0,99,Assisted_Takeoff,
0.35780662829059207,36.919960973883,10400,2017-11-10 06:12:25,1669.928642337722,0.0,0.0,0.19731000631391998,1669.928642337722,0.0,0.0,0.19738300631625602,1055,0.0,99,Assisted_Takeoff,
0.35780666145589,36.9199609385752,10500,2017-11-10 06:12:25,1669.928642337722,0.0,0.0,0.198241006343712,1669.928642337722,0.0,0.0,0.198241006343712,1109,0.0,99,Assisted_Takeoff,
0.35780670531517894,36.919960917668796,10600,2017-11-10 06:12:25,1669.928642337722,0.0,0.0,0.20115900643708803,1669.928642337722,0.0,0.0,0.20115900643708803,1225,0.0,99,Assisted_Takeoff,
0.357806738962089,36.9199609036512,10700,2017-11-10 06:12:25,1669.928642337722,0.0,0.0,0.20358000651456,1669.928642337722,0.0,0.0,0.20358000651456,1350,0.0,99,Assisted_Takeoff,
0.35780676579355297,36.919960894355604,10800,2017-11-10 06:12:25,1669.928642337722,0.0,0.0,0.205651006580832,1669.928642337722,0.0,0.0,0.205651006580832,1527,0.0,99,Assisted_Takeoff,
0.35780677757595597,36.9199608770903,10900,2017-11-10 06:12:25,1669.928642337722,0.0,0.0,0.20585500658735997,1669.928642337722,0.0,0.0,0.20585500658735997,1634,0.0,99,Assisted_Takeoff,
0.35780679830075607,36.919960852883705,11000,2017-11-10 06:12:25,1669.928642337722,0.0,0.0,0.20659900661116803,1669.928642337722,0.0,0.0,0.20659900661116803,1684,0.0,99,Assisted_Takeoff,
0.357806814876891,36.919960847287605,11100,2017-11-10 06:12:26,1669.928642337722,0.0,0.0,0.20793900665404802,1669.928642337722,0.0,0.0,0.20793900665404802,1684,0.0,99,Assisted_Takeoff,
0.357806865295756,36.9199608968084,11200,2017-11-10 06:12:26,1669.928642337722,0.0,0.35999970196000003,0.215471006895072,1669.928642337722,0.0,0.35999970196000003,0.215471006895072,1684,0.0,99,Assisted_Takeoff,
0.357806850534319,36.919960975643704,11300,2017-11-10 06:12:26,1669.928642337722,0.0,0.35999970196000003,0.218332006986624,1669.928642337722,0.0,0.35999970196000003,0.218332006986624,1684,0.0,99,GPS_Atti,
0.35780674982034993,36.9199610395412,11400,2017-11-10 06:12:26,1669.928642337722,0.0,0.35999970196000003,0.21260200680326402,1669.928642337722,0.0,0.35999970196000003,0.218332006986624,1684,0.0,99,GPS_Atti,
0.357806565376269,36.919961096601206,11500,2017-11-10 06:12:26,1670.0286423409223,0.10000000320000002,0.7199994039200001,0.199726006391232,1670.0286423409223,0.10000000320000002,0.7199994039200001,0.218332006986624,1684,0.0,99,GPS_Atti,Home Point Recorded. RTH Altitude:  30m.
0.35780637976337204,36.9199611303336,11600,2017-11-10 06:12:26,1670.1286423441222,0.20000000640000004,0.7199994039200001,0.186544005969408,1670.1286423441222,0.20000000640000004,0.7199994039200001,0.218332006986624,1684,0.0,99,GPS_Atti,
0.35780613856924,36.9199611304449,11700,2017-11-10 06:12:26,1670.2286423473222,0.3000000096,0.7199994039200001,0.16801900537660802,1670.2286423473222,0.3000000096,0.7199994039200001,0.218332006986624,1684,0.0,99,GPS_Atti,
0.35780589902451704,36.9199610868811,11800,2017-11-10 06:12:26,1670.4286423537224,0.500000016,0.7199994039200001,0.148033004737056,1670.4286423537224,0.500000016,0.7199994039200001,0.218332006986624,1684,0.0,99,GPS_Atti,
0.35780564367818796,36.9199610086127,11900,2017-11-10 06:12:26,1670.628642360122,0.7000000224000001,0.7199994039200001,0.12638600404435202,1670.628642360122,0.7000000224000001,0.7199994039200001,0.218332006986624,1684,0.0,99,GPS_Atti,
0.357805441475315,36.919960932178796,12000,2017-11-10 06:12:26,1670.9286423697222,1.000000032,0.7199994039200001,0.11035600353139201,1670.9286423697222,1.000000032,0.7199994039200001,0.218332006986624,1684,0.0,99,GPS_Atti,
0.35780527335119394,36.919960857119605,12100,2017-11-10 06:12:27,1671.3286423825223,1.4000000448000003,0.35999970196000003,0.09824500314383999,1671.3286423825223,1.4000000448000003,0.7199994039200001,0.218332006986624,1684,0.0,99,GPS_Atti,
0.35780518099490904,36.9199607907104,12200,2017-11-10 06:12:27,1671.6286423921222,1.7000000544000002,0.0,0.09005130288164159,1671.6286423921222,1.7000000544000002,0.7199994039200001,0.218332006986624,1684,0.0,99,GPS_Atti,
0.35780508153535096,36.919960669219705,12300,2017-11-10 06:12:27,1672.1286424081222,2.2000000704,0.0,0.076970502463056,1672.1286424081222,2.2000000704,0.7199994039200001,0.218332006986624,1684,0.0,99,GPS_Atti,
0.357804985915867,36.9199605221847,12400,2017-11-10 06:12:27,1672.628642424122,2.7000000863999998,0.0,0.06311180201957761,1672.628642424122,2.7000000863999998,0.7199994039200001,0.218332006986624,1684,0.0,99,GPS_Atti,
0.3578048832707679,36.919960311550795,12500,2017-11-10 06:12:27,1673.1286424401223,3.2000001024000007,0.0,0.047750401528012805,1673.1286424401223,3.2000001024000007,0.7199994039200001,0.218332006986624,1684,0.0,99,GPS_Atti,
0.35780482923553497,36.9199601118902,12600,2017-11-10 06:12:27,1673.6286424561222,3.7000001184,0.0,0.03930500125776,1673.6286424561222,3.7000001184,0.7199994039200001,0.218332006986624,1684,0.0,99,GPS_Atti,
0.357804762913591,36.91995987721221,12700,2017-11-10 06:12:27,1674.128642472122,4.2000001344,0.0,0.0453969014527008,1674.128642472122,4.2000001344,0.7199994039200001,0.218332006986624,1684,0.0,99,GPS_Atti,
0.357804718278043,36.9199596827141,12800,2017-11-10 06:12:27,1674.6286424881223,4.700000150400001,0.0,0.0590732018903424,1674.6286424881223,4.700000150400001,0.7199994039200001,0.218332006986624,1684,0.0,99,GPS_Atti,
0.357804668149753,36.9199595427665,12900,2017-11-10 06:12:27,1675.1286425041221,5.200000166400001,0.0,0.0730824023386368,1675.1286425041221,5.200000166400001,0.7199994039200001,0.218332006986624,1684,0.0,99,GPS_Atti,
0.35780463883501396,36.9199594816826,13000,2017-11-10 06:12:27,1675.7286425233224,5.8000001856,0.0,0.08009490256303681,1675.7286425233224,5.8000001856,0.7199994039200001,0.218332006986624,1684,0.0,99,GPS_Atti,
0.35780463661076295,36.919959504225204,13100,2017-11-10 06:12:28,1676.2286425393222,6.300000201600001,0.0,0.0785591025138912,1676.2286425393222,6.300000201600001,0.7199994039200001,0.218332006986624,1684,0.0,99,GPS_Atti,
0.357804635098956,36.919959462631,13200,2017-11-10 06:12:28,1676.7286425553225,6.800000217600001,0.35999970196000003,0.08187300261993599,1676.7286425553225,6.800000217600001,0.7199994039200001,0.218332006986624,1684,0.0,99,GPS_Atti,
0.35780459756047206,36.9199593800261,13300,2017-11-10 06:12:28,1677.2286425713223,7.3000002336000005,0.5075995797636,0.09137700292406402,1677.2286425713223,7.3000002336000005,0.7199994039200001,0.218332006986624,1684,0.0,99,GPS_Atti,
0.35780448658873104,36.919959207733605,13400,2017-11-10 06:12:28,1677.7286425873224,7.8000002496,0.5075995797636,0.113879003644128,1677.7286425873224,7.8000002496,0.7199994039200001,0.218332006986624,1684,0.0,99,GPS_Atti,
0.35780430966154797,36.919959066523,13500,2017-11-10 06:12:28,1678.2286426033224,8.3000002656,0.7199994039200001,0.13871000443872,1678.2286426033224,8.3000002656,0.7199994039200001,0.218332006986624,1684,0.0,99,GPS_Atti,
0.35780408397366203,36.919958922240205,13600,2017-11-10 06:12:28,1678.7286426193225,8.8000002816,0.7199994039200001,0.167706005366592,1678.7286426193225,8.8000002816,0.7199994039200001,0.218332006986624,1684,0.0,99,GPS_Atti,
0.35780383586467296,36.9199587730899,13700,2017-11-10 06:12:28,1679.2286426353223,9.3000002976,0.7199994039200001,0.199141006372512,1679.2286426353223,9.3000002976,0.7199994039200001,0.218332006986624,1684,0.0,99,GPS_Atti,
0.35780360774582104,36.9199585678565,13800,2017-11-10 06:12:28,1679.7286426513226,9.8000003136,0.5075995797636,0.23326400746444803,1679.7286426513226,9.8000003136,0.7199994039200001,0.23326400746444803,1684,0.0,99,GPS_Atti,
0.35780338964528,36.9199583269708,13900,2017-11-10 06:12:28,1680.2286426673224,10.300000329600001,0.5075995797636,0.26925700861622404,1680.2286426673224,10.300000329600001,0.7199994039200001,0.26925700861622404,1684,0.0,99,GPS_Atti,
0.35780321278983795,36.9199580568514,14000,2017-11-10 06:12:28,1680.7286426833223,10.800000345599999,0.5075995797636,0.30426000973632,1680.7286426833223,10.800000345599999,0.7199994039200001,0.30426000973632,1684,0.0,99,GPS_Atti,
0.357803009287135,36.9199577946542,14100,2017-11-10 06:12:29,1681.2286426993223,11.3000003616,0.5075995797636,0.34088901090844803,1681.2286426993223,11.3000003616,0.7199994039200001,0.34088901090844803,1684,0.0,99,GPS_Atti,
0.357802805091606,36.919957556563894,14200,2017-11-10 06:12:29,1681.7286427153224,11.8000003776,0.5075995797636,0.37569701202230404,1681.7286427153224,11.8000003776,0.7199994039200001,0.37569701202230404,1684,0.0,99,GPS_Atti,
0.3578025896715179,36.9199573563221,14300,2017-11-10 06:12:29,1682.2286427313225,12.300000393600001,0.5075995797636,0.408364013067648,1682.2286427313225,12.300000393600001,0.7199994039200001,0.408364013067648,1684,0.0,99,GPS_Atti,
0.357802184797899,36.919957025738796,14500,2017-11-10 06:12:29,1683.2286427633226,13.3000004256,0.5075995797636,0.46617301491753604,1683.2286427633226,13.3000004256,0.7199994039200001,0.46617301491753604,1684,0.0,99,GPS_Atti,
0.357801988769373,36.919956869584496,14600,2017-11-10 06:12:29,1683.7286427793224,13.8000004416,0.35999970196000003,0.49388501580432004,1683.7286427793224,13.8000004416,0.7199994039200001,0.49388501580432004,1684,0.0,99,GPS_Atti,
0.357801784816126,36.919956703663104,14700,2017-11-10 06:12:29,1684.2286427953222,14.300000457600001,0.35999970196000003,0.5230030167360961,1684.2286427953222,14.300000457600001,0.7199994039200001,0.5230030167360961,1684,0.0,99,GPS_Atti,
0.35780161946636496,36.9199565276445,14800,2017-11-10 06:12:29,1684.7286428113225,14.8000004736,0.35999970196000003,0.5498330175946561,1684.7286428113225,14.8000004736,0.7199994039200001,0.5498330175946561,1684,0.0,99,GPS_Atti,
0.35780142727150105,36.9199563703187,14900,2017-11-10 06:12:29,1685.3286428305223,15.4000004928,0.35999970196000003,0.5773530184752961,1685.3286428305223,15.4000004928,0.7199994039200001,0.5773530184752961,1684,0.0,99,GPS_Atti,
0.35780125256449796,36.919956254051705,15000,2017-11-10 06:12:29,1685.8286428465221,15.900000508800002,0.35999970196000003,0.60032001921024,1685.8286428465221,15.900000508800002,0.7199994039200001,0.60032001921024,1684,0.0,99,GPS_Atti,
0.357801053294859,36.9199561716015,15100,2017-11-10 06:12:30,1686.3286428625224,16.400000524800003,0.35999970196000003,0.6227410199277121,1686.3286428625224,16.400000524800003,0.7199994039200001,0.6227410199277121,1684,0.0,99,GPS_Atti,
0.35780089236327095,36.9199561045311,15200,2017-11-10 06:12:30,1686.8286428785223,16.900000540799997,0.0,0.6409670205109439,1686.8286428785223,16.900000540799997,0.7199994039200001,0.6409670205109439,1684,0.0,99,GPS_Atti,
0.35780071554498905,36.919956029756705,15300,2017-11-10 06:12:30,1687.3286428945223,17.400000556800002,0.0,0.6611490211567679,1687.3286428945223,17.400000556800002,0.7199994039200001,0.6611490211567679,1684,0.0,99,GPS_Atti,
0.35780058743998205,36.919955934149705,15400,2017-11-10 06:12:30,1687.8286429105224,17.9000005728,0.35999970196000003,0.678861021723552,1687.8286429105224,17.9000005728,0.7199994039200001,0.678861021723552,1684,0.0,99,GPS_Atti,
0.357800429719481,36.919955827437704,15500,2017-11-10 06:12:30,1688.4286429297224,18.500000592000003,0.0,0.69986502239568,1688.4286429297224,18.500000592000003,0.7199994039200001,0.69986502239568,1684,0.0,99,GPS_Atti,
0.35780031203997603,36.9199557485916,15600,2017-11-10 06:12:30,1688.9286429457225,19.000000608,0.0,0.715486022895552,1688.9286429457225,19.000000608,0.7199994039200001,0.715486022895552,1684,0.0,99,GPS_Atti,
0.35780008936919006,36.919955705187604,15800,2017-11-10 06:12:30,1690.0286429809223,20.1000006432,0.0,0.73742002359744,1690.0286429809223,20.1000006432,0.7199994039200001,0.73742002359744,1684,0.0,99,GPS_Atti,
0.35779999265508705,36.9199557471504,15900,2017-11-10 06:12:30,1690.5286429969224,20.600000659200003,0.0,0.74270502376656,1690.5286429969224,20.600000659200003,0.7199994039200001,0.74270502376656,1684,0.0,99,GPS_Atti,
0.35779992939533,36.9199558527778,16000,2017-11-10 06:12:30,1691.0286430129224,21.1000006752,0.35999970196000003,0.740823023706336,1691.0286430129224,21.1000006752,0.7199994039200001,0.74270502376656,1684,0.0,99,GPS_Atti,
0.35779979363073294,36.919956137742204,16200,2017-11-10 06:12:31,1692.1286430481223,22.2000007104,0.0,0.733832023482624,1692.1286430481223,22.2000007104,0.7199994039200001,0.74270502376656,1684,0.0,99,GPS_Atti,
0.35779972166897794,36.919956261250206,16300,2017-11-10 06:12:31,1692.6286430641223,22.700000726400003,0.0,0.732509023440288,1692.6286430641223,22.700000726400003,0.7199994039200001,0.74270502376656,1684,0.0,99,GPS_Atti,
0.35779967498881704,36.9199563557685,16400,2017-11-10 06:12:31,1693.2286430833224,23.300000745600002,0.0,0.7309490233903679,1693.2286430833224,23.300000745600002,0.7199994039200001,0.74270502376656,1684,0.0,99,GPS_Atti,
0.357799641768966,36.919956438697,16500,2017-11-10 06:12:31,1693.7286430993224,23.800000761600003,0.0,0.729009023328288,1693.7286430993224,23.800000761600003,0.7199994039200001,0.74270502376656,1684,0.0,99,GPS_Atti,
0.35779965086626897,36.9199565007129,16600,2017-11-10 06:12:31,1694.2286431153223,24.3000007776,0.0,0.7244500231824,1694.2286431153223,24.3000007776,0.7199994039200001,0.74270502376656,1684,0.0,99,GPS_Atti,
0.35779967435087395,36.9199565859581,16700,2017-11-10 06:12:31,1694.8286431345223,24.9000007968,0.0,0.717208022950656,1694.8286431345223,24.9000007968,0.7199994039200001,0.74270502376656,1684,0.0,99,GPS_Atti,
0.357799726148013,36.919956670039795,16800,2017-11-10 06:12:31,1695.3286431505223,25.400000812800002,0.0,0.707406022636992,1695.3286431505223,25.400000812800002,0.7199994039200001,0.74270502376656,1684,0.0,99,GPS_Atti,
0.357799820414565,36.9199567792174,16900,2017-11-10 06:12:31,1695.8286431665224,25.900000828800003,0.35999970196000003,0.6921520221488641,1695.8286431665224,25.900000828800003,0.7199994039200001,0.74270502376656,1684,0.0,99,GPS_Atti,
0.357799951097603,36.91995685284,17000,2017-11-10 06:12:31,1696.3286431825225,26.4000008448,0.35999970196000003,0.6754790216153279,1696.3286431825225,26.4000008448,0.7199994039200001,0.74270502376656,1684,0.0,99,GPS_Atti,
0.35780010275459295,36.919956953942,17100,2017-11-10 06:12:32,1696.8286431985223,26.9000008608,0.35999970196000003,0.6552320209674241,1696.8286431985223,26.9000008608,0.7199994039200001,0.74270502376656,1684,0.0,99,GPS_Atti,
0.357800252801051,36.919957047862,17200,2017-11-10 06:12:32,1697.4286432177225,27.50000088,0.35999970196000003,0.635551020337632,1697.4286432177225,27.50000088,0.7199994039200001,0.74270502376656,1684,0.0,99,GPS_Atti,
0.35780043925687105,36.9199571964271,17300,2017-11-10 06:12:32,1697.9286432337224,28.000000896,0.35999970196000003,0.6092860194971521,1697.9286432337224,28.000000896,0.7199994039200001,0.74270502376656,1684,0.0,99,GPS_Atti,
0.357800642342361,36.9199573478035,17400,2017-11-10 06:12:32,1698.4286432497222,28.500000912,0.35999970196000003,0.581289018601248,1698.4286432497222,28.500000912,0.7199994039200001,0.74270502376656,1684,0.0,99,GPS_Atti,
0.357800853756324,36.919957530065,17500,2017-11-10 06:12:32,1698.9286432657225,29.000000928,0.35999970196000003,0.550798017625536,1698.9286432657225,29.000000928,0.7199994039200001,0.74270502376656,1684,0.0,99,GPS_Atti,
0.35780103030408,36.9199576729149,17600,2017-11-10 06:12:32,1699.5286432849223,29.6000009472,0.35999970196000003,0.525892016828544,1699.5286432849223,29.6000009472,0.7199994039200001,0.74270502376656,1684,0.0,99,GPS_Atti,
0.357801216600516,36.9199578391862,17700,2017-11-10 06:12:32,1700.0286433009226,30.1000009632,0.35999970196000003,0.49882101596227196,1700.0286433009226,30.1000009632,0.7199994039200001,0.74270502376656,1684,0.0,99,GPS_Atti,
0.35780139242483505,36.9199579803745,17800,2017-11-10 06:12:32,1700.6286433201224,30.700000982400002,0.35999970196000003,0.47416501517328,1700.6286433201224,30.700000982400002,0.7199994039200001,0.74270502376656,1684,0.0,99,GPS_Atti,
0.357801592550628,36.919958135218295,17900,2017-11-10 06:12:32,1701.1286433361222,31.2000009984,0.35999970196000003,0.44645801428665605,1701.1286433361222,31.2000009984,0.7199994039200001,0.74270502376656,1684,0.0,99,GPS_Atti,
0.35780179212499,36.919958265657,18000,2017-11-10 06:12:32,1701.6286433521225,31.7000010144,0.35999970196000003,0.42008801344281604,1701.6286433521225,31.7000010144,0.7199994039200001,0.74270502376656,1684,0.0,99,GPS_Atti,
0.35780201543249707,36.9199584100851,18100,2017-11-10 06:12:33,1702.1286433681223,32.2000010304,0.35999970196000003,0.39068101250179205,1702.1286433681223,32.2000010304,0.7199994039200001,0.74270502376656,1684,0.0,99,GPS_Atti,
0.35780222104156606,36.9199585367819,18200,2017-11-10 06:12:33,1702.7286433873226,32.800001049600006,0.35999970196000003,0.363937011645984,1702.7286433873226,32.800001049600006,0.7199994039200001,0.74270502376656,1684,0.0,99,GPS_Atti,
0.35780243953305296,36.919958698488706,18300,2017-11-10 06:12:33,1703.2286434033224,33.3000010656,0.35999970196000003,0.334241010695712,1703.2286434033224,33.3000010656,0.7199994039200001,0.74270502376656,1684,0.0,99,GPS_Atti,
0.357802634911524,36.9199588767894,18400,2017-11-10 06:12:33,1703.7286434193222,33.800001081599994,0.35999970196000003,0.306252009800064,1703.7286434193222,33.800001081599994,0.7199994039200001,0.74270502376656,1684,0.0,99,GPS_Atti,
0.35780283859048,36.919959066191105,18500,2017-11-10 06:12:33,1704.2286434353225,34.3000010976,0.35999970196000003,0.27724400887180806,1704.2286434353225,34.3000010976,0.7199994039200001,0.74270502376656,1684,0.0,99,GPS_Atti,
0.35780302562302396,36.9199592235011,18600,2017-11-10 06:12:33,1704.7286434513223,34.800001113600004,0.35999970196000003,0.25162400805196805,1704.7286434513223,34.800001113600004,0.7199994039200001,0.74270502376656,1684,0.0,99,GPS_Atti,
0.357803238177127,36.919959378391496,18700,2017-11-10 06:12:33,1705.2286434673224,35.300001129600005,0.35999970196000003,0.223738007159616,1705.2286434673224,35.300001129600005,0.7199994039200001,0.74270502376656,1684,0.0,99,GPS_Atti,
0.35780344440735795,36.91995950999561,18800,2017-11-10 06:12:33,1705.7286434833222,35.8000011456,0.35999970196000003,0.1976000063232,1705.7286434833222,35.8000011456,0.7199994039200001,0.74270502376656,1684,0.0,99,GPS_Atti,
0.35780365599569897,36.919959634439294,18900,2017-11-10 06:12:33,1706.2286434993225,36.3000011616,0.0,0.17138900548444805,1706.2286434993225,36.3000011616,0.7199994039200001,0.74270502376656,1684,0.0,99,GPS_Atti,
0.357803813769181,36.9199597244836,19000,2017-11-10 06:12:33,1706.7286435153223,36.8000011776,0.0,0.152152004868864,1706.7286435153223,36.8000011776,0.7199994039200001,0.74270502376656,1684,0.0,99,GPS_Atti,
0.35780398090765997,36.919959814258206,19100,2017-11-10 06:12:34,1707.3286435345224,37.4000011968,0.0,0.132173004229536,1707.3286435345224,37.4000011968,0.7199994039200001,0.74270502376656,1684,0.0,99,GPS_Atti,
0.35780413806451594,36.9199599052088,19200,2017-11-10 06:12:34,1707.8286435505224,37.90000121280001,0.0,0.1137000036384,1707.8286435505224,37.90000121280001,0.7199994039200001,0.74270502376656,1684,0.0,99,GPS_Atti,
0.357804322593327,36.9199600036513,19300,2017-11-10 06:12:34,1708.3286435665223,38.4000012288,0.0,0.09289720297271041,1708.3286435665223,38.4000012288,0.7199994039200001,0.74270502376656,1684,0.0,99,GPS_Atti,
0.35780448485627003,36.919960091007106,19400,2017-11-10 06:12:34,1708.9286435857225,39.000001248000004,0.0,0.075808002425856,1708.9286435857225,39.000001248000004,0.7199994039200001,0.74270502376656,1684,0.0,99,GPS_Atti,
0.35780466028559,36.9199601919564,19500,2017-11-10 06:12:34,1709.4286436017223,39.500001264000005,0.0,0.060068401922188805,1709.4286436017223,39.500001264000005,0.7199994039200001,0.74270502376656,1684,0.0,99,GPS_Atti,
0.35780478105445795,36.9199602870043,19600,2017-11-10 06:12:34,1709.9286436177222,40.00000128,0.0,0.053943801726201605,1709.9286436177222,40.00000128,0.7199994039200001,0.74270502376656,1684,0.0,99,GPS_Atti,
0.357804937835346,36.9199603896511,19700,2017-11-10 06:12:34,1710.4286436337225,40.500001296,0.0,0.05157560165041921,1710.4286436337225,40.500001296,0.7199994039200001,0.74270502376656,1684,0.0,99,GPS_Atti,
0.357805074798783,36.919960483702,19800,2017-11-10 06:12:34,1710.9286436497223,41.000001311999995,0.0,0.056628001812096006,1710.9286436497223,41.000001311999995,0.7199994039200001,0.74270502376656,1684,0.0,99,GPS_Atti,
0.357805249250834,36.9199605861346,19900,2017-11-10 06:12:34,1711.4286436657223,41.500001328,0.0,0.0680311021769952,1711.4286436657223,41.500001328,0.7199994039200001,0.74270502376656,1684,0.0,99,GPS_Atti,
0.357805399148798,36.9199606727501,20000,2017-11-10 06:12:34,1711.9286436817224,42.000001344,0.0,0.0814509026064288,1711.9286436817224,42.000001344,0.7199994039200001,0.74270502376656,1684,0.0,99,GPS_Atti,
0.357805562749,36.9199607755794,20100,2017-11-10 06:12:35,1712.5286437009224,42.60000136320001,0.0,0.09915560317297921,1712.5286437009224,42.60000136320001,0.7199994039200001,0.74270502376656,1684,0.0,99,GPS_Atti,
0.35780567202492,36.9199608717528,20200,2017-11-10 06:12:35,1713.0286437169225,43.1000013792,0.0,0.11436000365952001,1713.0286437169225,43.1000013792,0.7199994039200001,0.74270502376656,1684,0.0,99,GPS_Atti,
0.35780580861900607,36.9199609847075,20300,2017-11-10 06:12:35,1713.5286437329223,43.6000013952,0.0,0.13301200425638401,1713.5286437329223,43.6000013952,0.7199994039200001,0.74270502376656,1684,0.0,99,GPS_Atti,
0.35780592476614503,36.9199610804504,20400,2017-11-10 06:12:35,1714.0286437489224,44.100001411200004,0.0,0.149059004769888,1714.0286437489224,44.100001411200004,0.7199994039200001,0.74270502376656,1684,0.0,99,GPS_Atti,
0.35780607207661397,36.9199611779861,20500,2017-11-10 06:12:35,1714.5286437649222,44.6000014272,0.0,0.16748500535952,1714.5286437649222,44.6000014272,0.7199994039200001,0.74270502376656,1684,0.0,99,GPS_Atti,
0.35780620860820894,36.9199612573498,20600,2017-11-10 06:12:35,1715.0286437809225,45.10000144320001,0.0,0.18383800588281599,1715.0286437809225,45.10000144320001,0.7199994039200001,0.74270502376656,1684,0.0,99,GPS_Atti,
0.35780636073032296,36.9199613445091,20700,2017-11-10 06:12:35,1715.5286437969223,45.6000014592,0.0,0.202192006470144,1715.5286437969223,45.6000014592,0.7199994039200001,0.74270502376656,1684,0.0,99,GPS_Atti,
0.35780646078619605,36.9199614205666,20800,2017-11-10 06:12:35,1716.1286438161226,46.20000147840001,0.0,0.21591400690924803,1716.1286438161226,46.20000147840001,0.7199994039200001,0.74270502376656,1684,0.0,99,GPS_Atti,
0.35780656147960604,36.919961519864,20900,2017-11-10 06:12:35,1716.6286438321224,46.7000014944,0.0,0.23161700741174404,1716.6286438321224,46.7000014944,0.7199994039200001,0.74270502376656,1684,0.0,99,GPS_Atti,
0.357806628351252,36.9199616115965,21000,2017-11-10 06:12:35,1717.1286438481222,47.2000015104,0.0,0.24416900781340806,1717.1286438481222,47.2000015104,0.7199994039200001,0.74270502376656,1684,0.0,99,GPS_Atti,
0.35780671257111796,36.9199616980534,21100,2017-11-10 06:12:36,1717.6286438641225,47.700001526399994,0.0,0.25758100824259195,1717.6286438641225,47.700001526399994,0.7199994039200001,0.74270502376656,1684,0.0,99,GPS_Atti,
0.35780678473195,36.9199617559865,21200,2017-11-10 06:12:36,1718.1286438801224,48.200001542399995,0.0,0.267748008567936,1718.1286438801224,48.200001542399995,0.7199994039200001,0.74270502376656,1684,0.0,99,GPS_Atti,
0.35780687807110295,36.919961825577104,21300,2017-11-10 06:12:36,1718.6286438961224,48.70000155840001,0.0,0.28047800897529607,1718.6286438961224,48.70000155840001,0.7199994039200001,0.74270502376656,1684,0.0,99,GPS_Atti,
0.35780695170058796,36.919961894919204,21400,2017-11-10 06:12:36,1719.2286439153224,49.30000157760001,0.0,0.291702009334464,1719.2286439153224,49.30000157760001,0.7199994039200001,0.74270502376656,1684,0.0,99,GPS_Atti,
0.35780703729648905,36.919961964706204,21500,2017-11-10 06:12:36,1719.7286439313223,49.8000015936,0.0,0.30387900972412807,1719.7286439313223,49.8000015936,0.7199994039200001,0.74270502376656,1684,0.0,99,GPS_Atti,
0.357807098400186,36.9199620082422,21600,2017-11-10 06:12:36,1720.2286439473223,50.3000016096,0.0,0.312071009986272,1720.2286439473223,50.3000016096,0.7199994039200001,0.74270502376656,1684,0.0,99,GPS_Atti,
0.357807169389353,36.919962046654796,21700,2017-11-10 06:12:36,1720.7286439633224,50.800001625600004,0.0,0.320628010260096,1720.7286439633224,50.800001625600004,0.7199994039200001,0.74270502376656,1684,0.0,99,GPS_Atti,
0.357807198042639,36.9199620544526,21800,2017-11-10 06:12:36,1721.2286439793224,51.3000016416,0.0,0.32347701035126397,1721.2286439793224,51.3000016416,0.7199994039200001,0.74270502376656,1684,0.0,99,GPS_Atti,
0.35780720699093893,36.9199620391631,21900,2017-11-10 06:12:36,1721.7286439953223,51.800001657600006,0.0,0.322969010335008,1721.7286439953223,51.800001657600006,0.7199994039200001,0.74270502376656,1684,0.0,99,GPS_Atti,
0.357807247257881,36.9199620338342,22000,2017-11-10 06:12:36,1722.2286440113226,52.3000016736,0.0,0.3257280104232961,1722.2286440113226,52.3000016736,0.7199994039200001,0.74270502376656,1684,0.0,99,GPS_Atti,
0.35780730711744607,36.9199620224551,22100,2017-11-10 06:12:37,1722.7286440273224,52.8000016896,0.0,0.329637010548384,1722.7286440273224,52.8000016896,0.7199994039200001,0.74270502376656,1684,0.0,99,GPS_Atti,
0.357807350865594,36.9199619965505,22200,2017-11-10 06:12:37,1723.3286440465222,53.400001708800005,0.0,0.33122601059923207,1723.3286440465222,53.400001708800005,0.7199994039200001,0.74270502376656,1684,0.0,99,GPS_Atti,
0.35780740288786606,36.9199620081041,22300,2017-11-10 06:12:37,1723.8286440625225,53.900001724800006,0.0,0.33636901076380804,1723.8286440625225,53.900001724800006,0.7199994039200001,0.74270502376656,1684,0.0,99,GPS_Atti,
0.35780740910323,36.9199620441581,22400,2017-11-10 06:12:37,1724.3286440785223,54.40000174080001,0.0,0.339578010866496,1724.3286440785223,54.40000174080001,0.7199994039200001,0.74270502376656,1684,0.0,99,GPS_Atti,
0.35780742464225,36.919962099710204,22500,2017-11-10 06:12:37,1724.8286440945224,54.9000017568,0.0,0.345042011041344,1724.8286440945224,54.9000017568,0.7199994039200001,0.74270502376656,1684,0.0,99,GPS_Atti,
0.357807455643345,36.919962186075104,22700,2017-11-10 06:12:37,1725.8286441265225,55.900001788800004,0.0,0.354149011332768,1725.8286441265225,55.900001788800004,0.7199994039200001,0.74270502376656,1684,0.0,99,GPS_Atti,
0.357807471526374,36.9199622444316,22800,2017-11-10 06:12:37,1726.3286441425223,56.400001804800006,0.0,0.359932011517824,1726.3286441425223,56.400001804800006,0.7199994039200001,0.74270502376656,1684,0.0,99,GPS_Atti,
0.35780751526068,36.919962328037,22900,2017-11-10 06:12:37,1726.8286441585226,56.90000182080001,0.0,0.3699250118376,1726.8286441585226,56.90000182080001,0.7199994039200001,0.74270502376656,1684,0.0,99,GPS_Atti,
0.357807549800384,36.9199623880305,23000,2017-11-10 06:12:37,1727.3286441745224,57.4000018368,0.0,0.377359012075488,1727.3286441745224,57.4000018368,0.7199994039200001,0.74270502376656,1684,0.0,99,GPS_Atti,
0.35780758526952294,36.9199624333448,23100,2017-11-10 06:12:38,1727.8286441905223,57.90000185280001,0.0,0.38371401227884805,1727.8286441905223,57.90000185280001,0.7199994039200001,0.74270502376656,1684,0.0,99,GPS_Atti,
0.35780763366850704,36.9199624915135,23200,2017-11-10 06:12:38,1728.3286442065223,58.400001868800004,0.0,0.39209801254713605,1728.3286442065223,58.400001868800004,0.7199994039200001,0.74270502376656,1684,0.0,99,GPS_Atti,
0.3578076766940329,36.919962533900794,23300,2017-11-10 06:12:38,1728.8286442225224,58.900001884800005,0.0,0.39881401276204803,1728.8286442225224,58.900001884800005,0.7199994039200001,0.74270502376656,1684,0.0,99,GPS_Atti,
0.357807712334565,36.9199625547767,23400,2017-11-10 06:12:38,1729.3286442385224,59.4000019008,0.0,0.403252012904064,1729.3286442385224,59.4000019008,0.7199994039200001,0.74270502376656,1684,0.0,99,GPS_Atti,
0.357807797501779,36.919962584729795,23500,2017-11-10 06:12:38,1729.8286442545223,59.9000019168,0.0,0.41231201319398403,1729.8286442545223,59.9000019168,0.7199994039200001,0.74270502376656,1684,0.0,99,GPS_Atti,
0.35780789165434,36.9199625893345,23600,2017-11-10 06:12:38,1730.3286442705225,60.40000193280001,0.0,0.42018401344588807,1730.3286442705225,60.40000193280001,0.7199994039200001,0.74270502376656,1684,0.0,99,GPS_Atti,
0.357807975919396,36.9199625847405,23700,2017-11-10 06:12:38,1730.8286442865224,60.9000019488,0.0,0.42666701365334403,1730.8286442865224,60.9000019488,0.7199994039200001,0.74270502376656,1684,0.0,99,GPS_Atti,
0.357808076984701,36.9199626292669,23800,2017-11-10 06:12:38,1731.3286443025222,61.400001964800005,0.0,0.43830101402563204,1731.3286443025222,61.400001964800005,0.7199994039200001,0.74270502376656,1684,0.0,99,GPS_Atti,
0.357808167119077,36.919962677340706,23900,2017-11-10 06:12:38,1731.8286443185225,61.9000019808,0.0,0.44932501437840006,1731.8286443185225,61.9000019808,0.7199994039200001,0.74270502376656,1684,0.0,99,GPS_Atti,
0.357808209682125,36.9199626979982,24000,2017-11-10 06:12:38,1732.3286443345223,62.4000019968,0.0,0.454386014540352,1732.3286443345223,62.4000019968,0.7199994039200001,0.74270502376656,1684,0.0,99,GPS_Atti,
0.357808239097116,36.919962719259,24100,2017-11-10 06:12:39,1732.8286443505224,62.9000020128,0.0,0.45840201466886404,1732.8286443505224,62.9000020128,0.7199994039200001,0.74270502376656,1684,0.0,99,GPS_Atti,
0.35780834226922104,36.919962737516705,24200,2017-11-10 06:12:39,1733.3286443665224,63.4000020288,0.0,0.46836701498774397,1733.3286443665224,63.4000020288,0.7199994039200001,0.74270502376656,1684,0.0,99,GPS_Atti,
0.35780848647078606,36.919962755460794,24300,2017-11-10 06:12:39,1733.8286443825225,63.900002044800004,0.0,0.4818820154202241,1733.8286443825225,63.900002044800004,0.7199994039200001,0.74270502376656,1684,0.0,99,GPS_Atti,
0.35780858246186,36.919962752114,24400,2017-11-10 06:12:39,1734.3286443985223,64.4000020608,0.0,0.489896015676672,1734.3286443985223,64.4000020608,0.7199994039200001,0.74270502376656,1684,0.0,99,GPS_Atti,
0.357808706652699,36.9199627492282,24500,2017-11-10 06:12:39,1734.8286444145222,64.9000020768,0.0,0.5005110160163521,1734.8286444145222,64.9000020768,0.7199994039200001,0.74270502376656,1684,0.0,99,GPS_Atti,
0.35780879876766897,36.9199627215865,24600,2017-11-10 06:12:39,1735.3286444305224,65.40000209280001,0.0,0.5067730162167361,1735.3286444305224,65.40000209280001,0.7199994039200001,0.74270502376656,1684,0.0,99,GPS_Atti,
0.35780888967067,36.9199626824497,24700,2017-11-10 06:12:39,1735.8286444465223,65.90000210880001,0.0,0.512322016394304,1735.8286444465223,65.90000210880001,0.7199994039200001,0.74270502376656,1684,0.0,99,GPS_Atti,
0.35780905479082004,36.9199626674284,24800,2017-11-10 06:12:39,1736.3286444625223,66.4000021248,0.0,0.5263570168434241,1736.3286444625223,66.4000021248,0.7199994039200001,0.74270502376656,1684,0.0,99,GPS_Atti,
0.357809328849803,36.91996264762739,25000,2017-11-10 06:12:39,1737.2286444913225,67.30000215359999,0.0,0.5505330176170561,1737.2286444913225,67.30000215359999,0.7199994039200001,0.74270502376656,1684,0.0,99,GPS_Atti,
0.35780942483558403,36.9199626262574,25100,2017-11-10 06:12:40,1737.7286445073223,67.8000021696,0.0,0.558301017865632,1737.7286445073223,67.8000021696,0.7199994039200001,0.74270502376656,1684,0.0,99,GPS_Atti,
0.357809558982323,36.9199626328411,25200,2017-11-10 06:12:40,1738.3286445265226,68.4000021888,0.0,0.571412018285184,1738.3286445265226,68.4000021888,0.7199994039200001,0.74270502376656,1684,0.0,99,GPS_Atti,
0.357809684484059,36.9199626447613,25300,2017-11-10 06:12:40,1738.8286445425224,68.9000022048,0.0,0.5840820186906239,1738.8286445425224,68.9000022048,0.7199994039200001,0.74270502376656,1684,0.0,99,GPS_Atti,
0.35780977910805395,36.91996264921671,25400,2017-11-10 06:12:40,1739.3286445585222,69.4000022208,0.0,0.5934230189895361,1739.3286445585222,69.4000022208,0.7199994039200001,0.74270502376656,1684,0.0,99,GPS_Atti,
0.357809908770872,36.9199626512728,25500,2017-11-10 06:12:40,1739.8286445745225,69.9000022368,0.0,0.6060660193941121,1739.8286445745225,69.9000022368,0.7199994039200001,0.74270502376656,1684,0.0,99,GPS_Atti,
0.35781004011058004,36.9199626069975,25600,2017-11-10 06:12:40,1740.3286445905223,70.4000022528,0.0,0.616493019727776,1740.3286445905223,70.4000022528,0.7199994039200001,0.74270502376656,1684,0.0,99,GPS_Atti,
0.357810206329115,36.919962579874,25700,2017-11-10 06:12:40,1740.8286446065224,70.90000226880001,0.0,0.6314470202063039,1740.8286446065224,70.90000226880001,0.7199994039200001,0.74270502376656,1684,0.0,99,GPS_Atti,
0.357810343985558,36.919962566185205,25800,2017-11-10 06:12:40,1741.3286446225222,71.4000022848,0.0,0.644416020621312,1741.3286446225222,71.4000022848,0.7199994039200001,0.74270502376656,1684,0.0,99,GPS_Atti,
0.35781049769153705,36.919962582618,25900,2017-11-10 06:12:40,1741.8286446385225,71.9000023008,0.0,0.660557021137824,1741.8286446385225,71.9000023008,0.7199994039200001,0.74270502376656,1684,0.0,99,GPS_Atti,
0.357810616356251,36.9199625860306,26000,2017-11-10 06:12:40,1742.4286446577223,72.50000232,0.0,0.6726080215234561,1742.4286446577223,72.50000232,0.7199994039200001,0.74270502376656,1684,0.0,99,GPS_Atti,
0.357810741329557,36.9199625986564,26100,2017-11-10 06:12:41,1742.9286446737226,73.00000233600001,0.0,0.685772021944704,1742.9286446737226,73.00000233600001,0.7199994039200001,0.74270502376656,1684,0.0,99,GPS_Atti,
0.35781082981838896,36.919962576337795,26200,2017-11-10 06:12:41,1743.4286446897224,73.50000235200001,0.0,0.693659022197088,1743.4286446897224,73.50000235200001,0.7199994039200001,0.74270502376656,1684,0.0,99,GPS_Atti,
0.357810924455412,36.919962574134495,26300,2017-11-10 06:12:41,1743.9286447057223,74.00000236800001,0.0,0.7031420225005441,1743.9286447057223,74.00000236800001,0.7199994039200001,0.74270502376656,1684,0.0,99,GPS_Atti,
0.357811012884807,36.919962566558794,26400,2017-11-10 06:12:41,1744.4286447217225,74.500002384,0.0,0.711782022777024,1744.4286447217225,74.500002384,0.7199994039200001,0.74270502376656,1684,0.0,99,GPS_Atti,
0.35781111105718105,36.919962589023,26500,2017-11-10 06:12:41,1744.9286447377224,75.0000024,0.0,0.7227810231289921,1744.9286447377224,75.0000024,0.7199994039200001,0.74270502376656,1684,0.0,98,GPS_Atti,
0.35781119138262396,36.9199626004914,26600,2017-11-10 06:12:41,1745.4286447537224,75.50000241600002,0.0,0.731479023407328,1745.4286447537224,75.50000241600002,0.7199994039200001,0.74270502376656,1684,0.0,98,GPS_Atti,
0.357811300920724,36.9199626359518,26700,2017-11-10 06:12:41,1745.9286447697223,76.000002432,0.0,0.7442240238151681,1745.9286447697223,76.000002432,0.7199994039200001,0.7442240238151681,1684,0.0,98,GPS_Atti,
0.357811387787626,36.9199626472425,26800,2017-11-10 06:12:41,1746.4286447857226,76.500002448,0.0,0.75359502411504,1746.4286447857226,76.500002448,0.7199994039200001,0.75359502411504,1684,0.0,98,GPS_Atti,
0.35781148325922707,36.9199626831809,26900,2017-11-10 06:12:41,1746.9286448017224,77.000002464,0.0,0.764928024477696,1746.9286448017224,77.000002464,0.7199994039200001,0.764928024477696,1684,0.0,98,GPS_Atti,
0.35781153916452296,36.919962719794896,27000,2017-11-10 06:12:41,1747.4286448177222,77.50000248,0.0,0.772246024711872,1747.4286448177222,77.50000248,0.7199994039200001,0.772246024711872,1684,0.0,98,GPS_Atti,
0.35781159163298903,36.91996278286,27100,2017-11-10 06:12:42,1747.9286448337225,78.00000249600001,0.35999970196000003,0.780384024972288,1747.9286448337225,78.00000249600001,0.7199994039200001,0.780384024972288,1684,0.0,98,GPS_Atti,
0.3578116157803711,36.9199628279211,27200,2017-11-10 06:12:42,1748.4286448497223,78.500002512,0.35999970196000003,0.78485502511536,1748.4286448497223,78.500002512,0.7199994039200001,0.78485502511536,1684,0.0,98,GPS_Atti,
0.357811676142719,36.919962890720704,27300,2017-11-10 06:12:42,1748.9286448657224,79.00000252800001,0.35999970196000003,0.793822025402304,1748.9286448657224,79.00000252800001,0.7199994039200001,0.793822025402304,1684,0.0,98,GPS_Atti,
0.35781173371472796,36.9199628998744,27400,2017-11-10 06:12:42,1749.4286448817224,79.500002544,0.0,0.80008502560272,1749.4286448817224,79.500002544,0.7199994039200001,0.80008502560272,1684,0.0,98,GPS_Atti,
0.357811829915871,36.9199629157013,27500,2017-11-10 06:12:42,1750.0286449009222,80.1000025632,0.0,0.8105820259386239,1750.0286449009222,80.1000025632,0.7199994039200001,0.8105820259386239,1684,0.0,98,GPS_Atti,
0.357811889967186,36.9199629200031,27600,2017-11-10 06:12:42,1750.5286449169223,80.6000025792,0.0,0.8168910261405121,1750.5286449169223,80.6000025792,0.7199994039200001,0.8168910261405121,1684,0.0,98,GPS_Atti,
0.35781197412517207,36.9199629481736,27700,2017-11-10 06:12:42,1751.0286449329224,81.10000259520002,0.0,0.8267220264551041,1751.0286449329224,81.10000259520002,0.7199994039200001,0.8267220264551041,1684,0.0,98,GPS_Atti,
0.357812033487655,36.9199629608369,27800,2017-11-10 06:12:42,1751.5286449489224,81.6000026112,0.35999970196000003,0.833338026666816,1751.5286449489224,81.6000026112,0.7199994039200001,0.833338026666816,1684,0.0,98,GPS_Atti,
0.35781207118043395,36.9199629608208,27900,2017-11-10 06:12:42,1752.0286449649223,82.10000262720001,0.35999970196000003,0.8371850267899201,1752.0286449649223,82.10000262720001,0.7199994039200001,0.8371850267899201,1684,0.0,98,GPS_Atti,
0.357812144190906,36.919963014774396,28000,2017-11-10 06:12:42,1752.6286449841225,82.70000264640001,0.35999970196000003,0.8470190271046079,1752.6286449841225,82.70000264640001,0.7199994039200001,0.8470190271046079,1684,0.0,98,GPS_Atti,
0.35781221956018,36.9199630706006,28100,2017-11-10 06:12:43,1753.1286450001223,83.20000266240001,0.35999970196000003,0.857183027429856,1753.1286450001223,83.20000266240001,0.7199994039200001,0.857183027429856,1684,0.0,98,GPS_Atti,
0.357812248035966,36.91996310075871,28200,2017-11-10 06:12:43,1753.6286450161224,83.70000267840001,0.35999970196000003,0.86143002756576,1753.6286450161224,83.70000267840001,0.7199994039200001,0.86143002756576,1684,0.0,98,GPS_Atti,
0.357812287898646,36.9199631778489,28300,2017-11-10 06:12:43,1754.1286450321224,84.2000026944,0.35999970196000003,0.8689610278067521,1754.1286450321224,84.2000026944,0.7199994039200001,0.8689610278067521,1684,0.0,98,GPS_Atti,
0.35781229506542794,36.9199632484999,28400,2017-11-10 06:12:43,1754.6286450481223,84.70000271040001,0.35999970196000003,0.8729290279337282,1754.6286450481223,84.70000271040001,0.7199994039200001,0.8729290279337282,1684,0.0,98,GPS_Atti,
0.35781233360255604,36.9199633628715,28500,2017-11-10 06:12:43,1755.1286450641223,85.20000272640002,0.35999970196000003,0.882174028229568,1755.1286450641223,85.20000272640002,0.7199994039200001,0.882174028229568,1684,0.0,98,GPS_Atti,
0.357812349135469,36.9199634606508,28600,2017-11-10 06:12:43,1755.6286450801224,85.7000027424,0.35999970196000003,0.888418028429376,1755.6286450801224,85.7000027424,0.7199994039200001,0.888418028429376,1668,0.0,98,GPS_Atti,
0.3578124095018879,36.9199635741697,28700,2017-11-10 06:12:43,1756.1286450961225,86.2000027584,0.35999970196000003,0.8999990287999681,1756.1286450961225,86.2000027584,0.7199994039200001,0.8999990287999681,1495,0.0,98,GPS_Atti,
0.35781243994890505,36.91996361706121,28800,2017-11-10 06:12:43,1756.6286451121223,86.7000027744,0.35999970196000003,0.905154028964928,1756.6286451121223,86.7000027744,0.7199994039200001,0.905154028964928,1304,0.0,98,GPS_Atti,
0.35781250669638204,36.9199636721824,28900,2017-11-10 06:12:43,1757.1286451281226,87.2000027904,0.35999970196000003,0.914536029265152,1757.1286451281226,87.2000027904,0.7199994039200001,0.914536029265152,1219,0.0,98,GPS_Atti,
0.35781254582544797,36.919963700181604,29000,2017-11-10 06:12:43,1757.6286451441224,87.70000280640001,0.35999970196000003,0.919822029434304,1757.6286451441224,87.70000280640001,0.7199994039200001,0.919822029434304,1113,0.0,98,GPS_Atti,
0.357812604745809,36.9199637519972,29100,2017-11-10 06:12:44,1758.0286451569223,88.10000281920001,0.35999970196000003,0.9282680297045761,1758.0286451569223,88.10000281920001,0.7199994039200001,0.9282680297045761,1024,0.0,98,GPS_Atti,
0.3578126248212671,36.9199637771101,29200,2017-11-10 06:12:44,1758.3286451665224,88.4000028288,0.35999970196000003,0.9315230298087359,1758.3286451665224,88.4000028288,0.7199994039200001,0.9315230298087359,1024,0.0,98,GPS_Atti,
0.3578126555117371,36.9199638160093,29300,2017-11-10 06:12:44,1758.6286451761225,88.70000283840001,0.35999970196000003,0.9365280299688961,1758.6286451761225,88.70000283840001,0.7199994039200001,0.9365280299688961,937,0.0,98,GPS_Atti,
0.35781263285112397,36.919963814347206,29400,2017-11-10 06:12:44,1758.7286451793225,88.8000028416,0.35999970196000003,0.9342010298944321,1758.7286451793225,88.8000028416,0.7199994039200001,0.9365280299688961,720,0.0,98,GPS_Atti,
0.35781262776630796,36.919963808811005,29500,2017-11-10 06:12:44,1758.8286451825225,88.9000028448,0.35999970196000003,0.933417029869344,1758.8286451825225,88.9000028448,0.7199994039200001,0.9365280299688961,475,0.0,98,GPS_Atti,
0.35781259587486,36.9199637533114,29600,2017-11-10 06:12:44,1758.9286451857222,89.000002848,0.35999970196000003,0.9274540296785281,1758.9286451857222,89.000002848,0.7199994039200001,0.9365280299688961,475,0.0,98,GPS_Atti,
