latitude,longitude,time_millisecond,datetime_utc,altitude_m,ascent_m,speed_kph,distance_m,max_altitude_m,max_ascent_m,max_speed_kph,max_distance_m,rc_throttle,gimbal_pitch_degrees,battery_percent,flycState,message
0.339217159749596,36.9100307862528,100,2017-11-08 08:25:31,1646.2947303814394,0.0,0.0,0.0,1646.2947303814394,0.0,0.0,0.0,1024,-3.3,53,Motors_Started,
0.339217157098693,36.9100307738829,200,2017-11-08 08:25:31,1646.2947303814394,0.0,0.0,0.00140682004501824,1646.2947303814394,0.0,0.0,0.00140682004501824,1024,-3.3,53,Motors_Started,
0.339217147149918,36.9100307779576,300,2017-11-08 08:25:32,1646.2947303814394,0.0,0.0,0.0016775500536816003,1646.2947303814394,0.0,0.0,0.0016775500536816003,1024,-3.3,53,Motors_Started,
0.339217141616669,36.9100307730671,400,2017-11-08 08:25:32,1646.2947303814394,0.0,0.0,0.002493250079784,1646.2947303814394,0.0,0.0,0.002493250079784,1024,-3.3,53,Motors_Started,Setting new Return-To-Home altitude to 30m (98 ft). Setting new Maximum Flight Altitude to 100m (328 ft)
0.339217171654743,36.910030781814,500,2017-11-08 08:25:32,1646.2947303814394,0.0,0.0,0.0014129500452144002,1646.2947303814394,0.0,0.0,0.002493250079784,1024,-3.3,53,Motors_Started,
0.339217194454079,36.9100307809307,600,2017-11-08 08:25:32,1646.2947303814394,0.0,0.0,0.00390446012494272,1646.2947303814394,0.0,0.0,0.00390446012494272,1024,-3.3,53,Motors_Started,
0.33921720924493,36.9100307514781,700,2017-11-08 08:25:32,1646.2947303814394,0.0,0.0,0.006726840215258881,1646.2947303814394,0.0,0.0,0.006726840215258881,1024,-3.3,53,Motors_Started,
0.339217220772583,36.9100307228241,800,2017-11-08 08:25:32,1646.2947303814394,0.0,0.0,0.00978794031321408,1646.2947303814394,0.0,0.0,0.00978794031321408,1024,-3.3,53,Motors_Started,
0.339217224337451,36.9100307508968,900,2017-11-08 08:25:32,1646.2947303814394,0.0,0.0,0.00818827026202464,1646.2947303814394,0.0,0.0,0.00978794031321408,1024,-3.3,53,Motors_Started,
0.339217227901911,36.9100307631671,1000,2017-11-08 08:25:32,1646.2947303814394,0.0,0.0,0.0080019502560624,1646.2947303814394,0.0,0.0,0.00978794031321408,1024,-3.3,53,Motors_Started,
0.339217224522585,36.9100307442804,1100,2017-11-08 08:25:32,1646.2947303814394,0.0,0.0,0.008583180274661761,1646.2947303814394,0.0,0.0,0.00978794031321408,717,-3.3,53,Motors_Started,
0.33921722213325,36.9100307258808,1200,2017-11-08 08:25:32,1646.2947303814394,0.0,0.0,0.00965406030892992,1646.2947303814394,0.0,0.0,0.00978794031321408,1024,-3.3,53,Motors_Started,
0.339217258179062,36.9100307605066,1300,2017-11-08 08:25:33,1646.2947303814394,0.0,0.0,0.0113142003620544,1646.2947303814394,0.0,0.0,0.0113142003620544,1024,-3.3,53,Motors_Started,
0.339217284211469,36.9100307794105,1400,2017-11-08 08:25:33,1646.2947303814394,0.0,0.0,0.0138618004435776,1646.2947303814394,0.0,0.0,0.0138618004435776,1024,-3.3,53,Motors_Started,
0.339217301982373,36.9100308028698,1500,2017-11-08 08:25:33,1646.2947303814394,0.0,0.0,0.0159247005095904,1646.2947303814394,0.0,0.0,0.0159247005095904,1024,-3.3,53,Motors_Started,
0.339217315967959,36.9100308153885,1600,2017-11-08 08:25:33,1646.2947303814394,0.0,0.0,0.017672000565504,1646.2947303814394,0.0,0.0,0.017672000565504,1024,-3.3,53,Assisted_Takeoff,
0.339217321112315,36.9100308304542,1700,2017-11-08 08:25:33,1646.2947303814394,0.0,0.0,0.0186056005953792,1646.2947303814394,0.0,0.0,0.0186056005953792,1024,-3.3,53,Assisted_Takeoff,
0.339217324859263,36.9100308383147,1800,2017-11-08 08:25:33,1646.2947303814394,0.0,0.0,0.019252300616073602,1646.2947303814394,0.0,0.0,0.019252300616073602,1024,-3.3,53,Assisted_Takeoff,
0.339217321753006,36.9100308462276,1900,2017-11-08 08:25:33,1646.2947303814394,0.0,0.0,0.019210700614742404,1646.2947303814394,0.0,0.0,0.019252300616073602,1127,-3.3,53,Assisted_Takeoff,
0.339217318954423,36.9100308486868,2000,2017-11-08 08:25:33,1646.2947303814394,0.0,0.0,0.0190172006085504,1646.2947303814394,0.0,0.0,0.019252300616073602,1282,-3.3,53,Assisted_Takeoff,
0.33921735310208,36.9100308531298,2100,2017-11-08 08:25:33,1646.2947303814394,0.0,0.0,0.0227518007280576,1646.2947303814394,0.0,0.0,0.0227518007280576,1368,-3.3,53,Assisted_Takeoff,
0.339217376458038,36.9100308523108,2200,2017-11-08 08:25:33,1646.2947303814394,0.0,0.0,0.025194000806208,1646.2947303814394,0.0,0.0,0.025194000806208,1382,-3.3,53,Assisted_Takeoff,
0.339217392412921,36.9100308542797,2300,2017-11-08 08:25:34,1646.2947303814394,0.0,0.0,0.026956800862617602,1646.2947303814394,0.0,0.0,0.026956800862617602,1387,-3.3,53,Assisted_Takeoff,
0.339217400800222,36.9100308542379,2400,2017-11-08 08:25:34,1646.2947303814394,0.0,0.0,0.027852000891264002,1646.2947303814394,0.0,0.0,0.027852000891264002,1386,-3.3,53,Assisted_Takeoff,
0.339217404893825,36.9100308634998,2500,2017-11-08 08:25:34,1646.2947303814394,0.0,0.0,0.028582900914652803,1646.2947303814394,0.0,0.0,0.028582900914652803,1386,-3.3,53,Assisted_Takeoff,
0.339217399919539,36.9100309182126,2600,2017-11-08 08:25:34,1646.2947303814394,0.0,0.0,0.030474200975174403,1646.2947303814394,0.0,0.0,0.030474200975174403,1385,-3.3,53,Assisted_Takeoff,
0.339217382527452,36.9100310203065,2700,2017-11-08 08:25:34,1646.2947303814394,0.0,0.35999970196000003,0.0359334011498688,1646.2947303814394,0.0,0.35999970196000003,0.0359334011498688,1395,-3.3,53,GPS_Atti,Obstacle Avoided. Revise Flight Route
0.339217351256849,36.9100311292844,2800,2017-11-08 08:25:34,1646.2947303814394,0.0,0.35999970196000003,0.0436888013980416,1646.2947303814394,0.0,0.35999970196000003,0.0436888013980416,1408,-3.3,53,GPS_Atti,
0.339217301614345,36.9100312440972,2900,2017-11-08 08:25:34,1646.2947303814394,0.0,0.35999970196000003,0.0533024017056768,1646.2947303814394,0.0,0.35999970196000003,0.0533024017056768,1398,-3.3,53,GPS_Atti,
0.339217270523074,36.9100313308117,3000,2017-11-08 08:25:34,1646.3947303846396,0.1000000032,0.0,0.06179750197752,1646.3947303846396,0.1000000032,0.35999970196000003,0.06179750197752,1390,-3.3,53,GPS_Atti,
0.339217283739933,36.9100313502273,3100,2017-11-08 08:25:34,1646.4947303878396,0.2000000064,0.0,0.0642142020548544,1646.4947303878396,0.2000000064,0.35999970196000003,0.0642142020548544,1390,-3.4,53,GPS_Atti,
0.339217348488494,36.9100312914077,3200,2017-11-08 08:25:34,1646.6947303942397,0.4000000128,0.0,0.059968301918985605,1646.6947303942397,0.4000000128,0.35999970196000003,0.0642142020548544,1387,-3.3,53,GPS_Atti,
0.339217445661819,36.910031219594,3300,2017-11-08 08:25:35,1646.7947303974395,0.500000016,0.35999970196000003,0.05773340184746881,1646.7947303974395,0.500000016,0.35999970196000003,0.0642142020548544,1386,-3.3,53,GPS_Atti,
0.33921753690374,36.9100311426885,3400,2017-11-08 08:25:35,1646.9947304038394,0.7000000224,0.0,0.057708101846659206,1646.9947304038394,0.7000000224,0.35999970196000003,0.0642142020548544,1380,-3.3,53,GPS_Atti,
0.339217690713939,36.9100310733201,3500,2017-11-08 08:25:35,1647.1947304102396,0.9000000288000001,0.0,0.06712350214795201,1647.1947304102396,0.9000000288000001,0.35999970196000003,0.06712350214795201,1365,-3.3,53,GPS_Atti,Home Point Recorded. RTH Altitude:  30m.
0.339217806567145,36.9100310240236,3600,2017-11-08 08:25:35,1647.3947304166395,1.1000000352000001,0.0,0.07663590245234882,1647.3947304166395,1.1000000352000001,0.35999970196000003,0.07663590245234882,1366,-3.3,53,GPS_Atti,
0.339217906609177,36.9100310195335,3700,2017-11-08 08:25:35,1647.5947304230397,1.3000000416000002,0.0,0.0870124027843968,1647.5947304230397,1.3000000416000002,0.35999970196000003,0.0870124027843968,1380,-3.3,53,GPS_Atti,
0.339217975038225,36.9100310205377,3800,2017-11-08 08:25:35,1647.7947304294394,1.5000000480000002,0.0,0.09433420301869441,1647.7947304294394,1.5000000480000002,0.35999970196000003,0.09433420301869441,1380,-3.3,53,GPS_Atti,
0.339217999307537,36.910031120788,3900,2017-11-08 08:25:35,1648.0947304390395,1.8000000576000001,0.0,0.100503003216096,1648.0947304390395,1.8000000576000001,0.35999970196000003,0.100503003216096,1380,-3.3,53,GPS_Atti,
0.339218016249258,36.9100312155782,4000,2017-11-08 08:25:35,1648.2947304454397,2.000000064,0.0,0.106544003409408,1648.2947304454397,2.000000064,0.35999970196000003,0.106544003409408,1389,-3.3,53,GPS_Atti,
0.339218045621706,36.910031316701,4100,2017-11-08 08:25:35,1648.4947304518394,2.2000000704000002,0.0,0.1148250036744,1648.4947304518394,2.2000000704000002,0.35999970196000003,0.1148250036744,1398,-3.3,53,GPS_Atti,
0.339218074861435,36.9100313963548,4200,2017-11-08 08:25:35,1648.6947304582395,2.4000000768,0.0,0.122309003913888,1648.6947304582395,2.4000000768,0.35999970196000003,0.122309003913888,1399,-3.5,53,GPS_Atti,
0.339218118583935,36.9100315140476,4300,2017-11-08 08:25:36,1648.8947304646395,2.6000000832000003,0.0,0.13386500428368,1648.8947304646395,2.6000000832000003,0.35999970196000003,0.13386500428368,1399,-3.5,53,GPS_Atti,
0.33921815089145,36.9100316063282,4400,2017-11-08 08:25:36,1649.0947304710396,2.8000000896,0.0,0.143057004577824,1649.0947304710396,2.8000000896,0.35999970196000003,0.143057004577824,1398,-3.9,53,GPS_Atti,
0.339218207333319,36.9100317250135,4500,2017-11-08 08:25:36,1649.3947304806397,3.1000000992000003,0.0,0.156428005005696,1649.3947304806397,3.1000000992000003,0.35999970196000003,0.156428005005696,1399,-4.6,53,GPS_Atti,
0.339218261926497,36.9100318185478,4600,2017-11-08 08:25:36,1649.5947304870394,3.3000001056,0.0,0.167932005373824,1649.5947304870394,3.3000001056,0.35999970196000003,0.167932005373824,1397,-5.3,53,GPS_Atti,
0.339218296007387,36.91003188382,4700,2017-11-08 08:25:36,1649.7947304934396,3.500000112,0.0,0.175681005621792,1649.7947304934396,3.500000112,0.35999970196000003,0.175681005621792,1399,-5.9,53,GPS_Atti,
0.339218328750103,36.9100318986876,4800,2017-11-08 08:25:36,1649.9947304998395,3.7000001184,0.35999970196000003,0.179453005742496,1649.9947304998395,3.7000001184,0.35999970196000003,0.179453005742496,1397,-6.6,53,GPS_Atti,
0.339218402187839,36.9100318242188,4900,2017-11-08 08:25:36,1650.1947305062397,3.9000001248,0.35999970196000003,0.18003700576118403,1650.1947305062397,3.9000001248,0.35999970196000003,0.18003700576118403,1396,-7.3,53,GPS_Atti,
0.339218435796887,36.9100317300089,5000,2017-11-08 08:25:36,1650.4947305158394,4.200000134400001,0.35999970196000003,0.176497005647904,1650.4947305158394,4.200000134400001,0.35999970196000003,0.18003700576118403,1397,-8.0,53,GPS_Atti,
0.33921844416485,36.9100316408834,5100,2017-11-08 08:25:36,1650.6947305222395,4.4000001408000005,0.0,0.17156400549004802,1650.6947305222395,4.4000001408000005,0.35999970196000003,0.18003700576118403,1398,-8.6,53,GPS_Atti,
0.339218432313238,36.9100315809568,5200,2017-11-08 08:25:36,1650.8947305286395,4.6000001472,0.0,0.16684400533900803,1650.8947305286395,4.6000001472,0.35999970196000003,0.18003700576118403,1398,-9.3,53,GPS_Atti,
0.33921841954522,36.9100315418354,5300,2017-11-08 08:25:37,1651.0947305350396,4.8000001536,0.35999970196000003,0.163362005227584,1651.0947305350396,4.8000001536,0.35999970196000003,0.18003700576118403,1398,-10.0,53,GPS_Atti,
0.339218408692251,36.9100314915154,5400,2017-11-08 08:25:37,1651.2947305414395,5.00000016,0.35999970196000003,0.159504005104128,1651.2947305414395,5.00000016,0.35999970196000003,0.18003700576118403,1395,-10.6,53,GPS_Atti,
0.339218424402257,36.9100314410145,5500,2017-11-08 08:25:37,1651.5947305510394,5.3000001696000005,0.35999970196000003,0.158368005067776,1651.5947305510394,5.3000001696000005,0.35999970196000003,0.18003700576118403,1398,-11.3,53,GPS_Atti,
0.339218438284743,36.910031390444,5600,2017-11-08 08:25:37,1651.7947305574396,5.5000001759999995,0.35999970196000003,0.157257005032224,1651.7947305574396,5.5000001759999995,0.35999970196000003,0.18003700576118403,1400,-11.3,53,GPS_Atti,
0.339218495713856,36.9100313042776,5700,2017-11-08 08:25:37,1651.9947305638393,5.7000001824,0.35999970196000003,0.15934500509904,1651.9947305638393,5.7000001824,0.35999970196000003,0.18003700576118403,1407,-11.9,53,GPS_Atti,
0.339218547329424,36.9100312307038,5800,2017-11-08 08:25:37,1652.1947305702395,5.9000001888,0.35999970196000003,0.16203000518496,1652.1947305702395,5.9000001888,0.35999970196000003,0.18003700576118403,1407,-12.6,53,GPS_Atti,
0.339218597558982,36.9100311654991,5900,2017-11-08 08:25:37,1652.4947305798396,6.200000198400001,0.35999970196000003,0.165362005291584,1652.4947305798396,6.200000198400001,0.35999970196000003,0.18003700576118403,1405,-13.9,53,GPS_Atti,
0.339218725557734,36.9100310479198,6100,2017-11-08 08:25:37,1652.8947305926397,6.6000002112,0.35999970196000003,0.17654200564934402,1652.8947305926397,6.6000002112,0.35999970196000003,0.18003700576118403,1405,-14.5,53,GPS_Atti,
0.33921880318912,36.9100310119,6200,2017-11-08 08:25:37,1653.0947305990394,6.800000217600001,0.0,0.18447500590319998,1653.0947305990394,6.800000217600001,0.35999970196000003,0.18447500590319998,1406,-15.2,53,GPS_Atti,
0.339218893652237,36.9100310087545,6300,2017-11-08 08:25:38,1653.3947306086395,7.1000002272,0.0,0.194402006220864,1653.3947306086395,7.1000002272,0.35999970196000003,0.194402006220864,1400,-15.8,53,GPS_Atti,
0.339218985710619,36.9100310326453,6400,2017-11-08 08:25:38,1653.5947306150397,7.3000002336000005,0.0,0.204898006556736,1653.5947306150397,7.3000002336000005,0.35999970196000003,0.204898006556736,1398,-16.5,53,GPS_Atti,
0.339219068850827,36.9100311075573,6500,2017-11-08 08:25:38,1653.7947306214396,7.50000024,0.0,0.215289006889248,1653.7947306214396,7.50000024,0.35999970196000003,0.215289006889248,1396,-17.1,53,GPS_Atti,
0.339219139013558,36.9100311954206,6600,2017-11-08 08:25:38,1654.0947306310395,7.8000002496,0.0,0.22476000719232,1654.0947306310395,7.8000002496,0.35999970196000003,0.22476000719232,1395,-17.8,53,GPS_Atti,
0.339219220019283,36.9100312768463,6700,2017-11-08 08:25:38,1654.2947306374394,8.000000256,0.0,0.23552000753664,1654.2947306374394,8.000000256,0.35999970196000003,0.23552000753664,1394,-18.4,53,GPS_Atti,
0.339219284632684,36.9100313701868,6800,2017-11-08 08:25:38,1654.4947306438396,8.200000262400001,0.0,0.24506000784192,1654.4947306438396,8.200000262400001,0.35999970196000003,0.24506000784192,1394,-19.0,53,GPS_Atti,
0.339219314095714,36.9100315075511,6900,2017-11-08 08:25:38,1654.7947306534395,8.500000272,0.0,0.25264700808470403,1654.7947306534395,8.500000272,0.35999970196000003,0.25264700808470403,1391,-19.7,53,GPS_Atti,
0.339219317118921,36.9100316609157,7000,2017-11-08 08:25:38,1654.9947306598394,8.700000278400001,0.0,0.25888000828416,1654.9947306598394,8.700000278400001,0.35999970196000003,0.25888000828416,1391,-20.3,53,GPS_Atti,
0.339219281858223,36.9100318736395,7100,2017-11-08 08:25:38,1655.1947306662396,8.9000002848,0.35999970196000003,0.265168008485376,1655.1947306662396,8.9000002848,0.35999970196000003,0.265168008485376,1392,-20.3,53,GPS_Atti,
0.339219237880261,36.9100320805638,7200,2017-11-08 08:25:38,1655.3947306726395,9.1000002912,0.35999970196000003,0.272258008712256,1655.3947306726395,9.1000002912,0.35999970196000003,0.272258008712256,1392,-20.9,53,GPS_Atti,
0.339219210604638,36.9100322572368,7300,2017-11-08 08:25:39,1655.5947306790397,9.3000002976,0.35999970196000003,0.28066500898128,1655.5947306790397,9.3000002976,0.35999970196000003,0.28066500898128,1391,-21.4,53,GPS_Atti,
0.339219206288854,36.9100324362683,7400,2017-11-08 08:25:39,1655.7947306854394,9.500000304,0.35999970196000003,0.292343009354976,1655.7947306854394,9.500000304,0.35999970196000003,0.292343009354976,1376,-21.6,53,GPS_Atti,
0.339219195480057,36.9100326325229,7500,2017-11-08 08:25:39,1655.9947306918395,9.7000003104,0.0,0.30562000977984,1655.9947306918395,9.7000003104,0.35999970196000003,0.30562000977984,1375,-21.7,53,GPS_Atti,
0.339219205213674,36.9100328006384,7600,2017-11-08 08:25:39,1656.2947307014397,10.00000032,0.35999970196000003,0.319251010216032,1656.2947307014397,10.00000032,0.35999970196000003,0.319251010216032,1384,-21.8,53,GPS_Atti,
0.339219249192247,36.9100329154373,7700,2017-11-08 08:25:39,1656.4947307078394,10.2000003264,0.35999970196000003,0.331742010615744,1656.4947307078394,10.2000003264,0.35999970196000003,0.331742010615744,1387,-21.9,53,GPS_Atti,
0.339219328408312,36.9100330189616,7800,2017-11-08 08:25:39,1656.6947307142395,10.400000332800001,0.0,0.34613301107625605,1656.6947307142395,10.400000332800001,0.35999970196000003,0.34613301107625605,1382,-21.9,53,GPS_Atti,
0.339219441578249,36.9100331078376,7900,2017-11-08 08:25:39,1656.8947307206395,10.600000339200001,0.0,0.361998011583936,1656.8947307206395,10.600000339200001,0.35999970196000003,0.361998011583936,1380,-21.9,53,GPS_Atti,
0.339219527690775,36.910033174886,8000,2017-11-08 08:25:39,1657.0947307270396,10.8000003456,0.35999970196000003,0.374031011968992,1657.0947307270396,10.8000003456,0.35999970196000003,0.374031011968992,1388,-21.9,53,GPS_Atti,
0.339219574203613,36.9100331904228,8100,2017-11-08 08:25:39,1657.2947307334396,11.000000351999999,0.35999970196000003,0.37890801212505604,1657.2947307334396,11.000000351999999,0.35999970196000003,0.37890801212505604,1389,-21.9,53,GPS_Atti,
0.339219564840875,36.9100331941078,8200,2017-11-08 08:25:39,1657.4947307398395,11.2000003584,0.35999970196000003,0.37846101211075206,1657.4947307398395,11.2000003584,0.35999970196000003,0.37890801212505604,1389,-22.0,53,GPS_Atti,
0.339219546728099,36.9100331681165,8300,2017-11-08 08:25:40,1657.6947307462394,11.4000003648,0.0,0.374993011999776,1657.6947307462394,11.4000003648,0.35999970196000003,0.37890801212505604,1389,-22.3,53,GPS_Atti,
0.339219588867752,36.9100331132689,8400,2017-11-08 08:25:40,1657.9947307558396,11.7000003744,0.0,0.37408001197056007,1657.9947307558396,11.7000003744,0.35999970196000003,0.37890801212505604,1389,-22.5,53,GPS_Atti,
0.339219804832809,36.9100328368466,8600,2017-11-08 08:25:40,1658.3947307686394,12.1000003872,0.0,0.372188011910016,1658.3947307686394,12.1000003872,0.35999970196000003,0.37890801212505604,1381,-22.7,53,GPS_Atti,
0.339219928559134,36.910032715744,8700,2017-11-08 08:25:40,1658.5947307750396,12.300000393600001,0.0,0.37529601200947205,1658.5947307750396,12.300000393600001,0.35999970196000003,0.37890801212505604,1375,-23.0,53,GPS_Atti,
0.33922005082678,36.9100325778808,8800,2017-11-08 08:25:40,1658.7947307814395,12.500000400000001,0.0,0.37823401210348806,1658.7947307814395,12.500000400000001,0.35999970196000003,0.37890801212505604,1369,-23.2,53,GPS_Atti,
0.339220188602913,36.9100323759327,8900,2017-11-08 08:25:40,1659.0947307910396,12.8000004096,0.0,0.380399012172768,1659.0947307910396,12.8000004096,0.35999970196000003,0.380399012172768,1364,-23.5,53,GPS_Atti,
0.339220357732292,36.9100321764803,9000,2017-11-08 08:25:40,1659.2947307974393,13.000000416,0.35999970196000003,0.38778501240912,1659.2947307974393,13.000000416,0.35999970196000003,0.38778501240912,1362,-23.7,53,GPS_Atti,
0.339220606119262,36.9100319298715,9100,2017-11-08 08:25:40,1659.4947308038395,13.2000004224,0.35999970196000003,0.403807012921824,1659.4947308038395,13.2000004224,0.35999970196000003,0.403807012921824,1360,-23.9,53,GPS_Atti,
0.33922082417687,36.9100317165577,9200,2017-11-08 08:25:40,1659.6947308102394,13.4000004288,0.35999970196000003,0.42043401345388803,1659.6947308102394,13.4000004288,0.35999970196000003,0.42043401345388803,1366,-24.2,53,GPS_Atti,
0.339221018614712,36.9100315015439,9300,2017-11-08 08:25:41,1659.8947308166396,13.600000435200002,0.0,0.436439013966048,1659.8947308166396,13.600000435200002,0.35999970196000003,0.436439013966048,1372,-24.4,53,GPS_Atti,
0.339221212406875,36.9100313192855,9400,2017-11-08 08:25:41,1660.0947308230398,13.800000441600002,0.0,0.45456201454598405,1660.0947308230398,13.800000441600002,0.35999970196000003,0.45456201454598405,1372,-24.7,52,GPS_Atti,
0.33922141648022,36.9100311801697,9500,2017-11-08 08:25:41,1660.2947308294395,14.000000448,0.35999970196000003,0.475397015212704,1660.2947308294395,14.000000448,0.35999970196000003,0.475397015212704,1372,-24.7,52,GPS_Atti,
0.339221614434279,36.9100310440441,9600,2017-11-08 08:25:41,1660.4947308358396,14.2000004544,0.35999970196000003,0.496217015878944,1660.4947308358396,14.2000004544,0.35999970196000003,0.496217015878944,1389,-25.1,52,GPS_Atti,
0.33922180694445,36.9100308900404,9700,2017-11-08 08:25:41,1660.6947308422396,14.400000460800001,0.5075995797636,0.5169250165416001,1660.6947308422396,14.400000460800001,0.5075995797636,0.5169250165416001,1396,-25.1,52,GPS_Atti,
0.339221999927685,36.9100307557852,9800,2017-11-08 08:25:41,1660.8947308486397,14.600000467200001,0.35999970196000003,0.5382680172245761,1660.8947308486397,14.600000467200001,0.5075995797636,0.5382680172245761,1397,-25.5,52,GPS_Atti,
0.339222238461754,36.9100306247215,9900,2017-11-08 08:25:41,1661.0947308550394,14.8000004736,0.35999970196000003,0.565069018082208,1661.0947308550394,14.8000004736,0.5075995797636,0.565069018082208,1399,-25.5,52,GPS_Atti,
0.339222438678536,36.9100305136344,10000,2017-11-08 08:25:41,1661.2947308614396,15.00000048,0.0,0.5878310188105921,1661.2947308614396,15.00000048,0.5075995797636,0.5878310188105921,1398,-25.6,52,GPS_Atti,
0.339222613377601,36.9100303553739,10100,2017-11-08 08:25:41,1661.4947308678395,15.200000486400002,0.0,0.608367019467744,1661.4947308678395,15.200000486400002,0.5075995797636,0.608367019467744,1391,-25.8,52,GPS_Atti,
0.339222746500048,36.9100302309652,10200,2017-11-08 08:25:41,1661.6947308742397,15.4000004928,0.0,0.624342019978944,1661.6947308742397,15.4000004928,0.5075995797636,0.624342019978944,1389,-26.0,52,GPS_Atti,
0.339222881829444,36.9100301322951,10300,2017-11-08 08:25:42,1661.9947308838393,15.700000502400002,0.0,0.6404720204951041,1661.9947308838393,15.700000502400002,0.5075995797636,0.6404720204951041,1387,-26.2,52,GPS_Atti,
0.339222982071571,36.9100300697583,10400,2017-11-08 08:25:42,1662.1947308902395,15.900000508800002,0.0,0.652362020875584,1662.1947308902395,15.900000508800002,0.5075995797636,0.652362020875584,1387,-26.4,52,GPS_Atti,
0.33922308693278,36.9100299824068,10500,2017-11-08 08:25:42,1662.3947308966397,16.1000005152,0.0,0.665173021285536,1662.3947308966397,16.1000005152,0.5075995797636,0.665173021285536,1389,-26.6,52,GPS_Atti,
0.339223179397458,36.910029936669,10600,2017-11-08 08:25:42,1662.6947309062393,16.400000524800003,0.0,0.6760560216337921,1662.6947309062393,16.400000524800003,0.5075995797636,0.6760560216337921,1394,-26.8,52,GPS_Atti,
0.339223308520854,36.9100299106969,10700,2017-11-08 08:25:42,1662.8947309126395,16.600000531200003,0.0,0.690678022101696,1662.8947309126395,16.600000531200003,0.5075995797636,0.690678022101696,1398,-27.0,52,GPS_Atti,
0.339223401211072,36.9100299082142,10800,2017-11-08 08:25:42,1663.0947309190394,16.800000537600003,0.0,0.700923022429536,1663.0947309190394,16.800000537600003,0.5075995797636,0.700923022429536,1397,-27.2,52,GPS_Atti,
0.339223494967107,36.9100298950392,10900,2017-11-08 08:25:42,1663.2947309254396,17.000000544,0.0,0.711452022766464,1663.2947309254396,17.000000544,0.5075995797636,0.711452022766464,1398,-27.4,52,GPS_Atti,
0.339223565577253,36.9100299098297,11000,2017-11-08 08:25:42,1663.5947309350397,17.3000005536,0.0,0.719003023008096,1663.5947309350397,17.3000005536,0.5075995797636,0.719003023008096,1395,-27.6,52,GPS_Atti,
0.339223579419841,36.9100299285901,11100,2017-11-08 08:25:42,1663.7947309414394,17.50000056,0.0,0.7202490230479681,1663.7947309414394,17.50000056,0.5075995797636,0.7202490230479681,1395,-27.8,52,GPS_Atti,
0.339223589823969,36.9100299693688,11200,2017-11-08 08:25:42,1664.0947309510395,17.8000005696,0.0,0.720811023065952,1664.0947309510395,17.8000005696,0.5075995797636,0.720811023065952,1395,-28.0,52,GPS_Atti,
0.339223644045455,36.91002999795,11300,2017-11-08 08:25:43,1664.2947309574395,18.000000576,0.0,0.726402023244864,1664.2947309574395,18.000000576,0.5075995797636,0.726402023244864,1394,-28.0,52,GPS_Atti,
0.339223683362607,36.9100300474574,11400,2017-11-08 08:25:43,1664.4947309638396,18.2000005824,0.0,0.730103023363296,1664.4947309638396,18.2000005824,0.5075995797636,0.730103023363296,1394,-28.2,52,GPS_Atti,
0.339223727077372,36.9100301041979,11500,2017-11-08 08:25:43,1664.6947309702396,18.4000005888,0.0,0.73425502349616,1664.6947309702396,18.4000005888,0.5075995797636,0.73425502349616,1394,-28.3,52,GPS_Atti,
0.339223746490867,36.9100301742911,11600,2017-11-08 08:25:43,1664.8947309766395,18.6000005952,0.35999970196000003,0.7356400235404801,1664.8947309766395,18.6000005952,0.5075995797636,0.7356400235404801,1394,-28.5,52,GPS_Atti,
0.339223742084297,36.9100302374038,11700,2017-11-08 08:25:43,1665.0947309830397,18.8000006016,0.35999970196000003,0.734536023505152,1665.0947309830397,18.8000006016,0.5075995797636,0.7356400235404801,1396,-28.7,52,GPS_Atti,
0.339223737228277,36.9100303130086,11800,2017-11-08 08:25:43,1665.3947309926393,19.1000006112,0.35999970196000003,0.733346023467072,1665.3947309926393,19.1000006112,0.5075995797636,0.7356400235404801,1397,-28.9,52,GPS_Atti,
0.339223726198012,36.910030362319,11900,2017-11-08 08:25:43,1665.5947309990395,19.300000617600002,0.0,0.731749023415968,1665.5947309990395,19.300000617600002,0.5075995797636,0.7356400235404801,1390,-29.1,52,GPS_Atti,
0.339223706119297,36.9100304131379,12000,2017-11-08 08:25:43,1665.7947310054394,19.500000624000002,0.0,0.7291780233336961,1665.7947310054394,19.500000624000002,0.5075995797636,0.7356400235404801,1397,-29.3,52,GPS_Atti,
0.339223687183751,36.9100304427779,12100,2017-11-08 08:25:43,1666.0947310150395,19.800000633600003,0.0,0.7268950232606401,1666.0947310150395,19.800000633600003,0.5075995797636,0.7356400235404801,1414,-29.5,52,GPS_Atti,
0.33922367534822,36.9100304941332,12200,2017-11-08 08:25:43,1666.2947310214397,20.00000064,0.35999970196000003,0.7253020232096641,1666.2947310214397,20.00000064,0.5075995797636,0.7356400235404801,1414,-29.7,52,GPS_Atti,
0.339223642471564,36.9100306160923,12300,2017-11-08 08:25:44,1666.4947310278394,20.200000646400003,0.35999970196000003,0.721166023077312,1666.4947310278394,20.200000646400003,0.5075995797636,0.7356400235404801,1409,-29.9,52,GPS_Atti,
0.339223610469382,36.9100307190941,12400,2017-11-08 08:25:44,1666.6947310342396,20.4000006528,0.0,0.717398022956736,1666.6947310342396,20.4000006528,0.5075995797636,0.7356400235404801,1411,-30.1,52,GPS_Atti,
0.339223547008106,36.91003078994,12500,2017-11-08 08:25:44,1666.9947310438397,20.7000006624,0.0,0.710302022729664,1666.9947310438397,20.7000006624,0.5075995797636,0.7356400235404801,1411,-30.3,52,GPS_Atti,
0.339223491652409,36.9100308559124,12600,2017-11-08 08:25:44,1667.2947310534394,21.000000672,0.0,0.704189022534048,1667.2947310534394,21.000000672,0.5075995797636,0.7356400235404801,1411,-30.5,52,GPS_Atti,
0.339223414570012,36.9100309399546,12700,2017-11-08 08:25:44,1667.4947310598395,21.200000678400002,0.0,0.6957840222650881,1667.4947310598395,21.200000678400002,0.5075995797636,0.7356400235404801,1411,-30.5,52,GPS_Atti,
0.339223347518831,36.9100310179393,12800,2017-11-08 08:25:44,1667.6947310662395,21.400000684800002,0.0,0.6886000220352001,1667.6947310662395,21.400000684800002,0.5075995797636,0.7356400235404801,1414,-30.7,52,GPS_Atti,
0.339223264304528,36.9100311091536,12900,2017-11-08 08:25:44,1667.9947310758396,21.7000006944,0.0,0.6798130217540159,1667.9947310758396,21.7000006944,0.5075995797636,0.7356400235404801,1405,-30.9,52,GPS_Atti,
0.339223178749337,36.9100311868814,13000,2017-11-08 08:25:44,1668.2947310854395,22.000000703999998,0.0,0.67083002146656,1668.2947310854395,22.000000703999998,0.5075995797636,0.7356400235404801,1402,-31.1,52,GPS_Atti,
0.33922305357329,36.9100312463177,13100,2017-11-08 08:25:44,1668.4947310918394,22.2000007104,0.0,0.657423021037536,1668.4947310918394,22.2000007104,0.5075995797636,0.7356400235404801,1406,-31.3,52,GPS_Atti,
0.339222949879676,36.9100313036384,13200,2017-11-08 08:25:44,1668.7947311014395,22.50000072,0.0,0.646463020686816,1668.7947311014395,22.50000072,0.5075995797636,0.7356400235404801,1406,-31.5,52,GPS_Atti,
0.33922284448678,36.910031384138,13300,2017-11-08 08:25:45,1668.9947311078397,22.7000007264,0.0,0.635664020341248,1668.9947311078397,22.7000007264,0.5075995797636,0.7356400235404801,1406,-31.7,52,GPS_Atti,
0.339222763613366,36.9100314401376,13400,2017-11-08 08:25:45,1669.2947311174396,23.000000736000004,0.0,0.6274120200771841,1669.2947311174396,23.000000736000004,0.5075995797636,0.7356400235404801,1406,-31.9,52,GPS_Atti,
0.339222663600036,36.9100314662832,13500,2017-11-08 08:25:45,1669.4947311238395,23.2000007424,0.0,0.6167160197349121,1669.4947311238395,23.2000007424,0.5075995797636,0.7356400235404801,1406,-32.0,52,GPS_Atti,
0.339222575793114,36.9100314733417,13600,2017-11-08 08:25:45,1669.7947311334397,23.500000752000002,0.0,0.607124019427968,1669.7947311334397,23.500000752000002,0.5075995797636,0.7356400235404801,1406,-32.3,52,GPS_Atti,
0.339222468868667,36.9100314692488,13700,2017-11-08 08:25:45,1669.9947311398394,23.7000007584,0.0,0.595272019048704,1669.9947311398394,23.7000007584,0.5075995797636,0.7356400235404801,1415,-32.6,52,GPS_Atti,
0.339222328215073,36.9100314155659,13900,2017-11-08 08:25:45,1670.4947311558396,24.2000007744,0.0,0.57901001852832,1670.4947311558396,24.2000007744,0.5075995797636,0.7356400235404801,1413,-32.8,52,GPS_Atti,
0.339222294260795,36.910031379377,14000,2017-11-08 08:25:45,1670.6947311622396,24.400000780800003,0.0,0.574786018393152,1670.6947311622396,24.400000780800003,0.5075995797636,0.7356400235404801,1414,-33.0,52,GPS_Atti,
0.339222253247619,36.9100313636293,14100,2017-11-08 08:25:45,1670.9947311718395,24.7000007904,0.0,0.5700550182417601,1670.9947311718395,24.7000007904,0.5075995797636,0.7356400235404801,1414,-33.2,52,GPS_Atti,
0.339222243304747,36.9100313540238,14200,2017-11-08 08:25:45,1671.1947311782396,24.9000007968,0.0,0.5688370182027841,1671.1947311782396,24.9000007968,0.5075995797636,0.7356400235404801,1414,-33.2,52,GPS_Atti,
0.339222235052607,36.9100313790933,14300,2017-11-08 08:25:46,1671.3947311846396,25.100000803200004,0.0,0.5682420181837441,1671.3947311846396,25.100000803200004,0.5075995797636,0.7356400235404801,1412,-33.6,52,GPS_Atti,
0.339222239490117,36.9100314197499,14500,2017-11-08 08:25:46,1671.8947312006394,25.6000008192,0.0,0.569274018216768,1671.8947312006394,25.6000008192,0.5075995797636,0.7356400235404801,1413,-33.8,52,GPS_Atti,
0.339222249401641,36.9100314355683,14600,2017-11-08 08:25:46,1672.1947312102395,25.9000008288,0.0,0.570588018258816,1672.1947312102395,25.9000008288,0.5075995797636,0.7356400235404801,1413,-34.0,52,GPS_Atti,
0.339222241971865,36.9100314633882,14700,2017-11-08 08:25:46,1672.3947312166397,26.100000835200003,0.0,0.570168018245376,1672.3947312166397,26.100000835200003,0.5075995797636,0.7356400235404801,1417,-34.0,52,GPS_Atti,
0.33922225101665,36.9100314932412,14800,2017-11-08 08:25:46,1672.5947312230394,26.3000008416,0.0,0.571612018291584,1672.5947312230394,26.3000008416,0.5075995797636,0.7356400235404801,1417,-34.4,52,GPS_Atti,
0.339222228949606,36.9100315220483,14900,2017-11-08 08:25:46,1672.7947312294395,26.500000848000003,0.0,0.5696330182282561,1672.7947312294395,26.500000848000003,0.5075995797636,0.7356400235404801,1412,-34.6,52,GPS_Atti,
0.339222219690273,36.9100315531004,15000,2017-11-08 08:25:46,1673.0947312390394,26.8000008576,0.0,0.569121018211872,1673.0947312390394,26.8000008576,0.5075995797636,0.7356400235404801,1408,-34.8,52,GPS_Atti,
0.339222189579122,36.9100315370198,15100,2017-11-08 08:25:46,1673.2947312454396,27.000000864,0.0,0.5655440180974081,1673.2947312454396,27.000000864,0.5075995797636,0.7356400235404801,1412,-35.0,52,GPS_Atti,
0.339222173083799,36.9100315432647,15200,2017-11-08 08:25:46,1673.4947312518398,27.200000870400004,0.0,0.5638330180426561,1673.4947312518398,27.200000870400004,0.5075995797636,0.7356400235404801,1417,-35.2,52,GPS_Atti,
0.339222114609225,36.9100315453449,15300,2017-11-08 08:25:47,1673.7947312614394,27.50000088,0.0,0.5574390178380481,1673.7947312614394,27.50000088,0.5075995797636,0.7356400235404801,1415,-35.4,52,GPS_Atti,
0.339222099401186,36.9100315677122,15400,2017-11-08 08:25:47,1673.9947312678396,27.7000008864,0.0,0.5561510177968321,1673.9947312678396,27.7000008864,0.5075995797636,0.7356400235404801,1415,-35.6,52,GPS_Atti,
0.339222097798797,36.9100315627231,15500,2017-11-08 08:25:47,1674.1947312742395,27.9000008928,0.0,0.555888017788416,1674.1947312742395,27.9000008928,0.5075995797636,0.7356400235404801,1416,-35.8,52,GPS_Atti,
0.339222118369302,36.9100315695033,15600,2017-11-08 08:25:47,1674.4947312838394,28.200000902400003,0.0,0.55826501786448,1674.4947312838394,28.200000902400003,0.5075995797636,0.7356400235404801,1417,-36.0,52,GPS_Atti,
0.339222142945779,36.9100315913674,15700,2017-11-08 08:25:47,1674.6947312902396,28.4000009088,0.0,0.561348017963136,1674.6947312902396,28.4000009088,0.5075995797636,0.7356400235404801,1417,-36.0,52,GPS_Atti,
0.339222182337432,36.9100316250736,15800,2017-11-08 08:25:47,1674.8947312966395,28.600000915200003,0.0,0.5662780181208961,1674.8947312966395,28.600000915200003,0.5075995797636,0.7356400235404801,1417,-36.1,52,GPS_Atti,
0.339222224221011,36.9100315985823,15900,2017-11-08 08:25:47,1675.1947313062396,28.9000009248,0.0,0.5703990182527681,1675.1947313062396,28.9000009248,0.5075995797636,0.7356400235404801,1417,-36.3,52,GPS_Atti,
0.339222274844043,36.9100315835284,16000,2017-11-08 08:25:47,1675.3947313126394,29.1000009312,0.0,0.575698018422336,1675.3947313126394,29.1000009312,0.5075995797636,0.7356400235404801,1415,-36.5,52,GPS_Atti,
0.339222349365711,36.9100315790243,16100,2017-11-08 08:25:47,1675.6947313222395,29.4000009408,0.0,0.583812018681984,1675.6947313222395,29.4000009408,0.5075995797636,0.7356400235404801,1415,-36.7,52,GPS_Atti,
0.339222416023624,36.9100315881973,16200,2017-11-08 08:25:47,1675.8947313286396,29.6000009472,0.0,0.5912940189214081,1675.8947313286396,29.6000009472,0.5075995797636,0.7356400235404801,1418,-36.9,52,GPS_Atti,
0.339222429426532,36.9100315913814,16300,2017-11-08 08:25:48,1676.1947313382395,29.900000956800003,0.0,0.5928200189702401,1676.1947313382395,29.900000956800003,0.5075995797636,0.7356400235404801,1419,-37.1,52,GPS_Atti,
0.33922241986553,36.9100316051152,16400,2017-11-08 08:25:48,1676.3947313446395,30.1000009632,0.0,0.592002018944064,1676.3947313446395,30.1000009632,0.5075995797636,0.7356400235404801,1412,-37.3,52,GPS_Atti,
0.339222373083184,36.9100315779055,16500,2017-11-08 08:25:48,1676.5947313510396,30.300000969600003,0.0,0.5864000187648001,1676.5947313510396,30.300000969600003,0.5075995797636,0.7356400235404801,1409,-37.5,52,GPS_Atti,
0.339222316891688,36.9100315866139,16600,2017-11-08 08:25:48,1676.8947313606395,30.6000009792,0.0,0.580371018571872,1676.8947313606395,30.6000009792,0.5075995797636,0.7356400235404801,1418,-37.7,52,GPS_Atti,
0.339222227920836,36.9100316269258,16700,2017-11-08 08:25:48,1677.1947313702394,30.900000988800002,0.0,0.5713120182819841,1677.1947313702394,30.900000988800002,0.5075995797636,0.7356400235404801,1429,-37.9,52,GPS_Atti,
0.339222191954208,36.9100316753176,16800,2017-11-08 08:25:48,1677.3947313766396,31.100000995200002,0.0,0.568278018184896,1677.3947313766396,31.100000995200002,0.5075995797636,0.7356400235404801,1436,-38.1,52,GPS_Atti,
0.339222262494738,36.9100316723402,16900,2017-11-08 08:25:48,1677.5947313830395,31.300001001600002,0.0,0.575948018430336,1677.5947313830395,31.300001001600002,0.5075995797636,0.7356400235404801,1446,-38.3,52,GPS_Atti,
0.339222367842444,36.9100316447558,17000,2017-11-08 08:25:48,1677.8947313926394,31.6000010112,0.0,0.5869870187835841,1677.8947313926394,31.6000010112,0.5075995797636,0.7356400235404801,1460,-38.5,52,GPS_Atti,
0.339222488763367,36.9100315612221,17100,2017-11-08 08:25:48,1678.0947313990396,31.800001017600003,0.0,0.598852019163264,1678.0947313990396,31.800001017600003,0.5075995797636,0.7356400235404801,1476,-38.7,52,GPS_Atti,
0.339222562313669,36.9100314900669,17200,2017-11-08 08:25:48,1678.3947314086395,32.1000010272,0.0,0.605875019388,1678.3947314086395,32.1000010272,0.5075995797636,0.7356400235404801,1476,-38.7,52,GPS_Atti,
0.339222586003865,36.9100313859388,17300,2017-11-08 08:25:49,1678.5947314150396,32.3000010336,0.0,0.607106019427392,1678.5947314150396,32.3000010336,0.5075995797636,0.7356400235404801,1509,-38.9,52,GPS_Atti,
0.339222603747391,36.9100312976912,17400,2017-11-08 08:25:49,1678.8947314246395,32.6000010432,0.0,0.608071019458272,1678.8947314246395,32.6000010432,0.5075995797636,0.7356400235404801,1509,-39.1,52,GPS_Atti,
0.339222619636119,36.9100312233401,17500,2017-11-08 08:25:49,1679.1947314342394,32.9000010528,0.0,0.60911501949168,1679.1947314342394,32.9000010528,0.5075995797636,0.7356400235404801,1520,-39.3,52,GPS_Atti,
0.339222641899391,36.9100311726529,17600,2017-11-08 08:25:49,1679.4947314438396,33.200001062400005,0.0,0.611161019557152,1679.4947314438396,33.200001062400005,0.5075995797636,0.7356400235404801,1530,-39.5,52,GPS_Atti,
0.339222647912827,36.9100311382883,17700,2017-11-08 08:25:49,1679.7947314534395,33.500001072,0.0,0.611571019570272,1679.7947314534395,33.500001072,0.5075995797636,0.7356400235404801,1532,-39.7,52,GPS_Atti,
0.339222645012569,36.9100310957859,17800,2017-11-08 08:25:49,1680.0947314630396,33.8000010816,0.0,0.61096501955088,1680.0947314630396,33.8000010816,0.5075995797636,0.7356400235404801,1535,-39.9,52,GPS_Atti,
0.339222603179064,36.910031025242,17900,2017-11-08 08:25:49,1680.4947314758397,34.2000010944,0.0,0.6059260193896321,1680.4947314758397,34.2000010944,0.5075995797636,0.7356400235404801,1536,-40.1,52,GPS_Atti,
0.33922258102449,36.9100309726245,18000,2017-11-08 08:25:49,1680.7947314854396,34.500001104,0.0,0.60323501930352,1680.7947314854396,34.500001104,0.5075995797636,0.7356400235404801,1536,-40.3,52,GPS_Atti,
0.339222568952428,36.9100309269777,18100,2017-11-08 08:25:49,1681.1947314982397,34.900001116800006,0.0,0.60174001925568,1681.1947314982397,34.900001116800006,0.5075995797636,0.7356400235404801,1536,-40.5,52,GPS_Atti,
0.339222555915512,36.9100309056285,18200,2017-11-08 08:25:49,1681.5947315110395,35.300001129600005,0.0,0.6002330192074561,1681.5947315110395,35.300001129600005,0.5075995797636,0.7356400235404801,1537,-40.7,52,GPS_Atti,
0.339222553177284,36.9100308900254,18300,2017-11-08 08:25:50,1681.8947315206394,35.6000011392,0.0,0.599893019196576,1681.8947315206394,35.6000011392,0.5075995797636,0.7356400235404801,1537,-40.9,52,GPS_Atti,
0.339222555969251,36.9100308839539,18400,2017-11-08 08:25:50,1682.2947315334397,36.000001152,0.0,0.6001910192061121,1682.2947315334397,36.000001152,0.5075995797636,0.7356400235404801,1537,-41.1,52,GPS_Atti,
0.339222567622396,36.9100308869816,18500,2017-11-08 08:25:50,1682.5947315430394,36.3000011616,0.0,0.601493019247776,1682.5947315430394,36.3000011616,0.5075995797636,0.7356400235404801,1536,-41.2,52,GPS_Atti,
0.339222592205794,36.9100308837944,18600,2017-11-08 08:25:50,1682.9947315558395,36.7000011744,0.0,0.60422001933504,1682.9947315558395,36.7000011744,0.5075995797636,0.7356400235404801,1536,-41.5,52,GPS_Atti,
0.339222622097105,36.9100308723988,18700,2017-11-08 08:25:50,1683.2947315654394,37.000001184000006,0.0,0.607522019440704,1683.2947315654394,37.000001184000006,0.5075995797636,0.7356400235404801,1532,-41.5,52,GPS_Atti,
0.339222647513859,36.9100308449974,18800,2017-11-08 08:25:50,1683.6947315782395,37.400001196800005,0.0,0.610308019529856,1683.6947315782395,37.400001196800005,0.5075995797636,0.7356400235404801,1532,-41.6,52,GPS_Atti,
0.339222647105933,36.9100307292842,18900,2017-11-08 08:25:50,1683.9947315878396,37.7000012064,0.0,0.6102600195283201,1683.9947315878396,37.7000012064,0.5075995797636,0.7356400235404801,1526,-41.9,52,GPS_Atti,
0.339222662596507,36.9100306245192,19000,2017-11-08 08:25:50,1684.2947315974395,38.000001216,0.0,0.612214019590848,1684.2947315974395,38.000001216,0.5075995797636,0.7356400235404801,1526,-42.1,52,GPS_Atti,
0.339222670215589,36.910030500499,19100,2017-11-08 08:25:50,1684.6947316102396,38.4000012288,0.0,0.613621019635872,1684.6947316102396,38.4000012288,0.5075995797636,0.7356400235404801,1526,-42.3,52,GPS_Atti,
0.339222677495141,36.9100303960337,19200,2017-11-08 08:25:50,1684.9947316198397,38.7000012384,0.0,0.6151390196844481,1684.9947316198397,38.7000012384,0.5075995797636,0.7356400235404801,1520,-42.5,52,GPS_Atti,
0.339222686570459,36.9100302758454,19300,2017-11-08 08:25:51,1685.3947316326396,39.100001251200005,0.0,0.617231019751392,1685.3947316326396,39.100001251200005,0.5075995797636,0.7356400235404801,1518,-42.7,52,GPS_Atti,
0.339222669389561,36.9100301677582,19400,2017-11-08 08:25:51,1685.6947316422395,39.4000012608,0.0,0.616554019729728,1685.6947316422395,39.4000012608,0.5075995797636,0.7356400235404801,1516,-42.8,52,GPS_Atti,
0.339222582188421,36.9100300482239,19500,2017-11-08 08:25:51,1686.0947316550394,39.800001273599996,0.0,0.608568019474176,1686.0947316550394,39.800001273599996,0.5075995797636,0.7356400235404801,1514,-42.8,52,GPS_Atti,
0.339222510698101,36.9100299536993,19600,2017-11-08 08:25:51,1686.3947316646395,40.10000128320001,0.0,0.6022170192709441,1686.3947316646395,40.10000128320001,0.5075995797636,0.7356400235404801,1514,-42.8,52,GPS_Atti,
0.339222432249032,36.9100298233411,19700,2017-11-08 08:25:51,1686.7947316774394,40.500001296,0.0,0.596032019073024,1686.7947316774394,40.500001296,0.5075995797636,0.7356400235404801,1513,-42.8,52,GPS_Atti,
0.339222363856013,36.9100297108184,19800,2017-11-08 08:25:51,1687.0947316870395,40.8000013056,0.0,0.590956018910592,1687.0947316870395,40.8000013056,0.5075995797636,0.7356400235404801,1504,-42.8,52,GPS_Atti,
0.339222288524194,36.9100295838348,19900,2017-11-08 08:25:51,1687.3947316966396,41.100001315200004,0.0,0.58581501874608,1687.3947316966396,41.100001315200004,0.5075995797636,0.7356400235404801,1503,-42.9,52,GPS_Atti,
0.339222230872391,36.9100294813919,20000,2017-11-08 08:25:51,1687.6947317062397,41.4000013248,0.0,0.5823090186338881,1687.6947317062397,41.4000013248,0.5075995797636,0.7356400235404801,1504,-42.8,52,GPS_Atti,
0.339222133859875,36.9100293365119,20100,2017-11-08 08:25:51,1688.0947317190396,41.80000133760001,0.0,0.576166018437312,1688.0947317190396,41.80000133760001,0.5075995797636,0.7356400235404801,1502,-42.8,52,GPS_Atti,
0.339222047536466,36.9100292150859,20200,2017-11-08 08:25:51,1688.3947317286395,42.100001347200006,0.0,0.570943018270176,1688.3947317286395,42.100001347200006,0.5075995797636,0.7356400235404801,1502,-42.8,52,GPS_Atti,
0.339221958146697,36.910029081821,20300,2017-11-08 08:25:52,1688.6947317382394,42.400001356800004,0.0,0.566274018120768,1688.6947317382394,42.400001356800004,0.5075995797636,0.7356400235404801,1503,-42.7,52,GPS_Atti,
0.339221883856675,36.9100289814701,20400,2017-11-08 08:25:52,1689.0947317510395,42.800001369600004,0.0,0.562381017996192,1689.0947317510395,42.800001369600004,0.5075995797636,0.7356400235404801,1502,-42.7,52,GPS_Atti,
0.339221830003217,36.9100288398052,20500,2017-11-08 08:25:52,1689.3947317606396,43.1000013792,0.0,0.562661018005152,1689.3947317606396,43.1000013792,0.5075995797636,0.7356400235404801,1502,-42.7,52,GPS_Atti,
0.339221799199978,36.910028738011,20600,2017-11-08 08:25:52,1689.6947317702395,43.4000013888,0.0,0.563977018047264,1689.6947317702395,43.4000013888,0.5075995797636,0.7356400235404801,1503,-42.6,52,GPS_Atti,
0.339221748354664,36.9100286372768,20700,2017-11-08 08:25:52,1690.0947317830396,43.80000140160001,0.0,0.563468018030976,1690.0947317830396,43.80000140160001,0.5075995797636,0.7356400235404801,1502,-42.6,52,GPS_Atti,
0.339221720827854,36.9100285610747,20800,2017-11-08 08:25:52,1690.3947317926397,44.100001411200004,0.0,0.5643610180595521,1690.3947317926397,44.100001411200004,0.5075995797636,0.7356400235404801,1501,-42.5,52,GPS_Atti,
0.339221681131274,36.9100284648477,20900,2017-11-08 08:25:52,1690.6947318022394,44.4000014208,0.0,0.565203018086496,1690.6947318022394,44.4000014208,0.5075995797636,0.7356400235404801,1500,-42.5,52,GPS_Atti,
0.339221637919699,36.9100283955232,21000,2017-11-08 08:25:52,1690.9947318118395,44.7000014304,0.0,0.564522018064704,1690.9947318118395,44.7000014304,0.5075995797636,0.7356400235404801,1500,-42.4,52,GPS_Atti,
0.339221568873673,36.9100283015157,21100,2017-11-08 08:25:52,1691.3947318246394,45.1000014432,0.0,0.5628180180101761,1691.3947318246394,45.1000014432,0.5075995797636,0.7356400235404801,1506,-42.4,52,GPS_Atti,
0.3392215223474,36.9100282501037,21200,2017-11-08 08:25:52,1691.6947318342395,45.4000014528,0.0,0.561168017957376,1691.6947318342395,45.4000014528,0.5075995797636,0.7356400235404801,1500,-42.4,52,GPS_Atti,
0.339221503740799,36.9100282140272,21300,2017-11-08 08:25:53,1691.9947318438396,45.7000014624,0.0,0.561413017965216,1691.9947318438396,45.7000014624,0.5075995797636,0.7356400235404801,1497,-42.3,52,GPS_Atti,
0.339221498511051,36.91002819386,21400,2017-11-08 08:25:53,1692.3947318566395,46.1000014752,0.0,0.56206001798592,1692.3947318566395,46.1000014752,0.5075995797636,0.7356400235404801,1502,-42.3,52,GPS_Atti,
0.339221484531673,36.9100281141558,21500,2017-11-08 08:25:53,1692.6947318662396,46.4000014848,0.0,0.5653340180906881,1692.6947318662396,46.4000014848,0.5075995797636,0.7356400235404801,1505,-42.2,52,GPS_Atti,
0.339221481106241,36.9100280842739,21600,2017-11-08 08:25:53,1692.9947318758393,46.7000014944,0.0,0.5667650181364801,1692.9947318758393,46.7000014944,0.5075995797636,0.7356400235404801,1506,-42.2,52,GPS_Atti,
0.339221446004724,36.9100280560717,21700,2017-11-08 08:25:53,1693.2947318854394,47.000001504000004,0.0,0.5651370180843841,1693.2947318854394,47.000001504000004,0.5075995797636,0.7356400235404801,1506,-42.1,52,GPS_Atti,
0.339221424352118,36.9100280661655,21800,2017-11-08 08:25:53,1693.5947318950396,47.3000015136,0.0,0.5625030180000961,1693.5947318950396,47.3000015136,0.5075995797636,0.7356400235404801,1505,-42.1,52,GPS_Atti,
0.339221365877951,36.9100280815545,21900,2017-11-08 08:25:53,1693.9947319078394,47.70000152640001,0.0,0.556104017795328,1693.9947319078394,47.70000152640001,0.5075995797636,0.7356400235404801,1502,-42.1,52,GPS_Atti,
0.33922132881538,36.9100281227283,22000,2017-11-08 08:25:53,1694.2947319174395,48.000001536000006,0.0,0.550164017605248,1694.2947319174395,48.000001536000006,0.5075995797636,0.7356400235404801,1502,-42.1,52,GPS_Atti,
0.339221344144331,36.9100281805244,22100,2017-11-08 08:25:53,1694.5947319270397,48.300001545600004,0.0,0.548177017541664,1694.5947319270397,48.300001545600004,0.5075995797636,0.7356400235404801,1502,-42.0,52,GPS_Atti,
0.339221368784724,36.9100282484314,22200,2017-11-08 08:25:53,1694.8947319366393,48.6000015552,0.0,0.546567017490144,1694.8947319366393,48.6000015552,0.5075995797636,0.7356400235404801,1501,-42.0,52,GPS_Atti,
0.339221358562981,36.9100282692035,22300,2017-11-08 08:25:54,1695.2947319494394,49.000001568,0.0,0.544403017420896,1695.2947319494394,49.000001568,0.5075995797636,0.7356400235404801,1501,-41.9,52,GPS_Atti,
0.339221357303379,36.9100283070122,22400,2017-11-08 08:25:54,1695.5947319590396,49.3000015776,0.0,0.542133017348256,1695.5947319590396,49.3000015776,0.5075995797636,0.7356400235404801,1501,-41.9,52,GPS_Atti,
0.339221346356165,36.9100283327734,22500,2017-11-08 08:25:54,1695.8947319686395,49.600001587200005,0.0,0.539631017268192,1695.8947319686395,49.600001587200005,0.5075995797636,0.7356400235404801,1501,-41.9,52,GPS_Atti,
0.339221342948238,36.9100283751869,22600,2017-11-08 08:25:54,1696.1947319782396,49.9000015968,0.0,0.536933017181856,1696.1947319782396,49.9000015968,0.5075995797636,0.7356400235404801,1500,-41.8,52,GPS_Atti,
0.339221327384792,36.910028370807,22700,2017-11-08 08:25:54,1696.5947319910395,50.3000016096,0.0,0.535678017141696,1696.5947319910395,50.3000016096,0.5075995797636,0.7356400235404801,1499,-41.8,52,GPS_Atti,
0.339221321925434,36.9100283911102,22800,2017-11-08 08:25:54,1696.8947320006396,50.6000016192,0.0,0.534023017088736,1696.8947320006396,50.6000016192,0.5075995797636,0.7356400235404801,1493,-41.7,52,GPS_Atti,
0.339221313503935,36.9100283707214,22900,2017-11-08 08:25:54,1697.1947320102395,50.9000016288,0.0,0.534348017099136,1697.1947320102395,50.9000016288,0.5075995797636,0.7356400235404801,1488,-41.7,52,GPS_Atti,
0.339221316941988,36.9100283776504,23000,2017-11-08 08:25:54,1697.4947320198394,51.2000016384,0.0,0.534292017097344,1697.4947320198394,51.2000016384,0.5075995797636,0.7356400235404801,1495,-41.7,52,GPS_Atti,
0.339221320020968,36.9100283902986,23100,2017-11-08 08:25:54,1697.7947320294395,51.500001648,0.0,0.53388501708432,1697.7947320294395,51.500001648,0.5075995797636,0.7356400235404801,1489,-41.6,52,GPS_Atti,
0.33922132315613,36.910028426388,23200,2017-11-08 08:25:54,1698.0947320390396,51.8000016576,0.0,0.532197017030304,1698.0947320390396,51.8000016576,0.5075995797636,0.7356400235404801,1482,-41.6,52,GPS_Atti,
0.339221316578031,36.9100284769157,23300,2017-11-08 08:25:55,1698.3947320486398,52.1000016672,0.35999970196000003,0.528809016921888,1698.3947320486398,52.1000016672,0.5075995797636,0.7356400235404801,1490,-41.6,52,GPS_Atti,
0.339221316064257,36.9100285374419,23400,2017-11-08 08:25:55,1698.6947320582394,52.40000167680001,0.0,0.525523016816736,1698.6947320582394,52.40000167680001,0.5075995797636,0.7356400235404801,1490,-41.6,51,GPS_Atti,
0.339221305725266,36.9100285912982,23500,2017-11-08 08:25:55,1698.9947320678395,52.70000168640001,0.0,0.521683016693856,1698.9947320678395,52.70000168640001,0.5075995797636,0.7356400235404801,1495,-41.5,51,GPS_Atti,
0.33922129918177,36.9100286505107,23600,2017-11-08 08:25:55,1699.2947320774394,53.000001696000005,0.0,0.517988016575616,1699.2947320774394,53.000001696000005,0.5075995797636,0.7356400235404801,1496,-41.5,51,GPS_Atti,
0.339221242779798,36.91002865843,23700,2017-11-08 08:25:55,1699.5947320870396,53.3000017056,0.0,0.5120150163844801,1699.5947320870396,53.3000017056,0.5075995797636,0.7356400235404801,1499,-41.5,51,GPS_Atti,
0.339221197772456,36.9100286819001,23800,2017-11-08 08:25:55,1699.8947320966395,53.6000017152,0.0,0.50637001620384,1699.8947320966395,53.6000017152,0.5075995797636,0.7356400235404801,1499,-41.5,51,GPS_Atti,
0.339221170550165,36.9100287055243,23900,2017-11-08 08:25:55,1700.1947321062394,53.900001724800006,0.0,0.5024720160791041,1700.1947321062394,53.900001724800006,0.5075995797636,0.7356400235404801,1499,-41.4,51,GPS_Atti,
0.339221169468878,36.9100287526421,24000,2017-11-08 08:25:55,1700.5947321190395,54.3000017376,0.0,0.4999730159991361,1700.5947321190395,54.3000017376,0.5075995797636,0.7356400235404801,1501,-41.4,51,GPS_Atti,
0.339221194109678,36.9100287669915,24100,2017-11-08 08:25:55,1700.8947321286396,54.6000017472,0.0,0.501703016054496,1700.8947321286396,54.6000017472,0.5075995797636,0.7356400235404801,1505,-41.4,51,GPS_Atti,
0.339221232779524,36.9100288015167,24200,2017-11-08 08:25:55,1701.1947321382395,54.9000017568,0.0,0.503858016123456,1701.1947321382395,54.9000017568,0.5075995797636,0.7356400235404801,1505,-41.3,51,GPS_Atti,
0.339221272632027,36.910028833253,24300,2017-11-08 08:25:56,1701.4947321478396,55.20000176640001,0.0,0.506322016202304,1701.4947321478396,55.20000176640001,0.5075995797636,0.7356400235404801,1512,-41.3,51,GPS_Atti,
0.339221315498372,36.9100288787413,24400,2017-11-08 08:25:56,1701.7947321574395,55.500001776000005,0.0,0.508502016272064,1701.7947321574395,55.500001776000005,0.5075995797636,0.7356400235404801,1507,-41.3,51,GPS_Atti,
0.339221327655114,36.9100289552839,24500,2017-11-08 08:25:56,1702.0947321670394,55.8000017856,0.0,0.506248016199936,1702.0947321670394,55.8000017856,0.5075995797636,0.7356400235404801,1507,-41.3,51,GPS_Atti,
0.339221344093849,36.910029034382,24600,2017-11-08 08:25:56,1702.3947321766395,56.10000179520001,0.0,0.5044600161427201,1702.3947321766395,56.10000179520001,0.5075995797636,0.7356400235404801,1504,-41.2,51,GPS_Atti,
0.339221357331877,36.9100290610725,24700,2017-11-08 08:25:56,1702.7947321894394,56.500001808,0.35999970196000003,0.504683016149856,1702.7947321894394,56.500001808,0.5075995797636,0.7356400235404801,1504,-41.2,51,GPS_Atti,
0.339221367992893,36.9100291057279,24800,2017-11-08 08:25:56,1703.0947321990395,56.8000018176,0.35999970196000003,0.503917016125344,1703.0947321990395,56.8000018176,0.5075995797636,0.7356400235404801,1504,-41.2,51,GPS_Atti,
0.339221392120733,36.9100291804665,24900,2017-11-08 08:25:56,1703.3947322086397,57.100001827199996,0.35999970196000003,0.503402016108864,1703.3947322086397,57.100001827199996,0.5075995797636,0.7356400235404801,1504,-41.2,51,GPS_Atti,
0.339221411967802,36.9100292625002,25000,2017-11-08 08:25:56,1703.6947322182393,57.4000018368,0.35999970196000003,0.502316016074112,1703.6947322182393,57.4000018368,0.5075995797636,0.7356400235404801,1495,-41.1,51,GPS_Atti,
0.339221413233103,36.9100293299811,25100,2017-11-08 08:25:56,1703.9947322278394,57.700001846400006,0.35999970196000003,0.49996701599894405,1703.9947322278394,57.700001846400006,0.5075995797636,0.7356400235404801,1481,-41.1,51,GPS_Atti,
0.33922142387702,36.9100294011578,25200,2017-11-08 08:25:56,1704.3947322406395,58.100001859200006,0.35999970196000003,0.49858501595472005,1704.3947322406395,58.100001859200006,0.5075995797636,0.7356400235404801,1465,-41.1,51,GPS_Atti,
0.33922143341563,36.9100294377482,25300,2017-11-08 08:25:57,1704.6947322502394,58.400001868800004,0.0,0.49835501594736004,1704.6947322502394,58.400001868800004,0.5075995797636,0.7356400235404801,1449,-41.1,51,GPS_Atti,
0.339221455117904,36.9100294702992,25400,2017-11-08 08:25:57,1704.9947322598396,58.7000018784,0.0,0.49958501598672,1704.9947322598396,58.7000018784,0.5075995797636,0.7356400235404801,1446,-41.0,51,GPS_Atti,
0.339221471857901,36.910029481682,25500,2017-11-08 08:25:57,1705.1947322662395,58.900001884800005,0.0,0.500997016031904,1705.1947322662395,58.900001884800005,0.5075995797636,0.7356400235404801,1445,-41.0,51,GPS_Atti,
0.339221504133661,36.9100295118198,25600,2017-11-08 08:25:57,1705.4947322758394,59.2000018944,0.0,0.5034800161113601,1705.4947322758394,59.2000018944,0.5075995797636,0.7356400235404801,1441,-41.0,51,GPS_Atti,
0.33922156392646,36.9100295089067,25700,2017-11-08 08:25:57,1705.7947322854395,59.500001904,0.0,0.509954016318528,1705.7947322854395,59.500001904,0.5075995797636,0.7356400235404801,1437,-41.0,51,GPS_Atti,
0.339221622464544,36.9100295267153,25800,2017-11-08 08:25:57,1705.9947322918395,59.700001910400005,0.0,0.5156680165013761,1705.9947322918395,59.700001910400005,0.5075995797636,0.7356400235404801,1439,-40.9,51,GPS_Atti,
0.339221637331016,36.9100295607662,25900,2017-11-08 08:25:57,1706.2947323014396,60.00000192,0.0,0.516247016519904,1706.2947323014396,60.00000192,0.5075995797636,0.7356400235404801,1429,-40.9,51,GPS_Atti,
0.339221645110907,36.9100296149929,26000,2017-11-08 08:25:57,1706.4947323078395,60.2000019264,0.0,0.5155250164968,1706.4947323078395,60.2000019264,0.5075995797636,0.7356400235404801,1433,-40.9,51,GPS_Atti,
0.339221644694026,36.910029642057,26100,2017-11-08 08:25:57,1706.7947323174394,60.500001936000004,0.0,0.5147280164712961,1706.7947323174394,60.500001936000004,0.5075995797636,0.7356400235404801,1447,-40.8,51,GPS_Atti,
0.339221642433745,36.9100296831044,26200,2017-11-08 08:25:57,1707.0947323270395,60.80000194560001,0.0,0.5133740164279681,1707.0947323270395,60.80000194560001,0.5075995797636,0.7356400235404801,1441,-40.8,51,GPS_Atti,
0.33922161713139,36.9100296825113,26300,2017-11-08 08:25:58,1707.2947323334395,61.000001952,0.0,0.510658016341056,1707.2947323334395,61.000001952,0.5075995797636,0.7356400235404801,1430,-40.8,51,GPS_Atti,
0.339221592091214,36.9100296982322,26400,2017-11-08 08:25:58,1707.5947323430396,61.3000019616,0.0,0.507536016241152,1707.5947323430396,61.3000019616,0.5075995797636,0.7356400235404801,1410,-40.8,51,GPS_Atti,
0.339221564142636,36.9100296725524,26500,2017-11-08 08:25:58,1707.8947323526395,61.6000019712,0.0,0.505211016166752,1707.8947323526395,61.6000019712,0.5075995797636,0.7356400235404801,1403,-40.8,51,GPS_Atti,
0.339221542033252,36.9100296711264,26600,2017-11-08 08:25:58,1708.0947323590397,61.800001977600004,0.0,0.502866016091712,1708.0947323590397,61.800001977600004,0.5075995797636,0.7356400235404801,1394,-40.8,51,GPS_Atti,
0.339221524053602,36.910029679535,26700,2017-11-08 08:25:58,1708.3947323686396,62.1000019872,0.0,0.5006980160223361,1708.3947323686396,62.1000019872,0.5075995797636,0.7356400235404801,1394,-40.7,51,GPS_Atti,
0.339221504914093,36.9100297246914,26800,2017-11-08 08:25:58,1708.5947323750395,62.300001993600006,0.0,0.49742001591744006,1708.5947323750395,62.300001993600006,0.5075995797636,0.7356400235404801,1401,-40.7,51,GPS_Atti,
0.339221500459891,36.9100297486518,26900,2017-11-08 08:25:58,1708.8947323846396,62.600002003200004,0.0,0.496312015881984,1708.8947323846396,62.600002003200004,0.5075995797636,0.7356400235404801,1409,-40.7,51,GPS_Atti,
0.33922150624331,36.9100297875633,27000,2017-11-08 08:25:58,1709.0947323910398,62.80000200960001,0.0,0.49595101587043205,1709.0947323910398,62.80000200960001,0.5075995797636,0.7356400235404801,1414,-40.7,51,GPS_Atti,
0.339221511326905,36.9100297746934,27100,2017-11-08 08:25:58,1709.2947323974395,63.000002015999996,0.0,0.496824015898368,1709.2947323974395,63.000002015999996,0.5075995797636,0.7356400235404801,1415,-40.7,51,GPS_Atti,
0.339221531150361,36.9100297633513,27200,2017-11-08 08:25:58,1709.4947324038396,63.2000020224,0.0,0.499258015976256,1709.4947324038396,63.2000020224,0.5075995797636,0.7356400235404801,1415,-40.7,51,GPS_Atti,
0.339221543352699,36.910029690391,27300,2017-11-08 08:25:59,1709.7947324134395,63.500002032,0.0,0.50248501607952,1709.7947324134395,63.500002032,0.5075995797636,0.7356400235404801,1414,-40.6,51,GPS_Atti,
0.339221555742715,36.9100296383634,27400,2017-11-08 08:25:59,1709.9947324198395,63.7000020384,0.0,0.505252016168064,1709.9947324198395,63.7000020384,0.5075995797636,0.7356400235404801,1412,-40.6,51,GPS_Atti,
0.339221548340623,36.910029547011,27500,2017-11-08 08:25:59,1710.1947324262394,63.900002044800004,0.0,0.507122016227904,1710.1947324262394,63.900002044800004,0.5075995797636,0.7356400235404801,1412,-40.6,51,GPS_Atti,
0.339221535328948,36.9100295068083,27600,2017-11-08 08:25:59,1710.4947324358395,64.2000020544,0.0,0.506966016222912,1710.4947324358395,64.2000020544,0.5075995797636,0.7356400235404801,1412,-40.6,51,GPS_Atti,
0.339221497281169,36.9100294704994,27700,2017-11-08 08:25:59,1710.6947324422397,64.4000020608,0.0,0.504063016130016,1710.6947324422397,64.4000020608,0.5075995797636,0.7356400235404801,1412,-40.6,51,GPS_Atti,
0.339221458595446,36.9100294925509,27800,2017-11-08 08:25:59,1710.8947324486394,64.6000020672,0.0,0.499236015975552,1710.8947324486394,64.6000020672,0.5075995797636,0.7356400235404801,1411,-40.6,51,GPS_Atti,
0.339221423364874,36.9100295021479,27900,2017-11-08 08:25:59,1711.1947324582395,64.9000020768,0.0,0.49517701584566404,1711.1947324582395,64.9000020768,0.5075995797636,0.7356400235404801,1411,-40.6,51,GPS_Atti,
0.339221394356994,36.9100295484895,28000,2017-11-08 08:25:59,1711.3947324646397,65.10000208320001,0.0,0.49061801569977603,1711.3947324646397,65.10000208320001,0.5075995797636,0.7356400235404801,1419,-40.5,51,GPS_Atti,
0.339221345676289,36.9100295553479,28100,2017-11-08 08:25:59,1711.5947324710396,65.3000020896,0.0,0.485209015526688,1711.5947324710396,65.3000020896,0.5075995797636,0.7356400235404801,1429,-40.5,51,GPS_Atti,
0.33922132758102,36.9100295859439,28200,2017-11-08 08:25:59,1711.8947324806395,65.60000209920001,0.0,0.48232601543443204,1711.8947324806395,65.60000209920001,0.5075995797636,0.7356400235404801,1429,-40.5,51,GPS_Atti,
0.339221303645743,36.9100295963246,28300,2017-11-08 08:26:00,1712.0947324870394,65.8000021056,0.0,0.479449015342368,1712.0947324870394,65.8000021056,0.5075995797636,0.7356400235404801,1432,-40.5,51,GPS_Atti,
0.339221281331175,36.9100296300918,28400,2017-11-08 08:26:00,1712.3947324966396,66.10000211520001,0.0,0.476036015233152,1712.3947324966396,66.10000211520001,0.5075995797636,0.7356400235404801,1432,-40.5,51,GPS_Atti,
0.339221255142538,36.9100296032376,28500,2017-11-08 08:26:00,1712.5947325030397,66.3000021216,0.0,0.47405301516969606,1712.5947325030397,66.3000021216,0.5075995797636,0.7356400235404801,1432,-40.5,51,GPS_Atti,
0.339221230768395,36.9100296018961,28600,2017-11-08 08:26:00,1712.8947325126394,66.6000021312,0.0,0.4714910150877121,1712.8947325126394,66.6000021312,0.5075995797636,0.7356400235404801,1431,-40.5,51,GPS_Atti,
