latitude,longitude,time_millisecond,datetime_utc,altitude_m,ascent_m,speed_kph,distance_m,max_altitude_m,max_ascent_m,max_speed_kph,max_distance_m,rc_throttle,gimbal_pitch_degrees,battery_percent,flycState,message
0.313732350786408,36.8862372212019,0,2018-03-30 08:02:05,1779.2882649372166,0.0,0.0,0.0,1779.2882649372166,0.0,0.0,0.0,364,0.0,98,P-GPS,Setting new Return-To-Home altitude to 30m (98 ft). Setting new Maximum Flight Altitude to 120m (394 ft)
0.313732349864708,36.8862372347214,100,2018-03-30 08:02:05,1779.2882649372166,0.0,0.0,0.00150691004822112,1779.2882649372166,0.0,0.0,0.00150691004822112,364,0.0,98,Motors_Started,
0.313732346291902,36.8862372129573,200,2018-03-30 08:02:05,1779.2882649372166,0.0,0.0,0.00104423003341536,1779.2882649372166,0.0,0.0,0.00150691004822112,364,0.0,98,Motors_Started,
0.313732339631566,36.8862371622874,400,2018-03-30 08:02:05,1779.2882649372166,0.0,0.0,0.00666797021337504,1779.2882649372166,0.0,0.0,0.00666797021337504,364,0.0,98,Motors_Started,
0.313732338097572,36.8862371460636,500,2018-03-30 08:02:05,1779.2882649372166,0.0,0.0,0.00847402027116864,1779.2882649372166,0.0,0.0,0.00847402027116864,364,0.0,98,Motors_Started,
0.313732334075315,36.8862371614138,600,2018-03-30 08:02:05,1779.2882649372166,0.0,0.0,0.00690354022091328,1779.2882649372166,0.0,0.0,0.00847402027116864,364,0.0,98,Motors_Started,
0.313732333166644,36.8862371807636,700,2018-03-30 08:02:06,1779.2882649372166,0.0,0.0,0.00490527015696864,1779.2882649372166,0.0,0.0,0.00847402027116864,364,0.0,98,Motors_Started,
0.313732330307096,36.8862371995621,800,2018-03-30 08:02:06,1779.2882649372166,0.0,0.0,0.003313250106024,1779.2882649372166,0.0,0.0,0.00847402027116864,364,0.0,98,Motors_Started,
0.313732329971637,36.8862372122679,900,2018-03-30 08:02:06,1779.2882649372166,0.0,0.0,0.0025189300806057603,1779.2882649372166,0.0,0.0,0.00847402027116864,364,0.0,98,Motors_Started,
0.313732327763467,36.8862372214621,1000,2018-03-30 08:02:06,1779.2882649372166,0.0,0.0,0.0025604500819344004,1779.2882649372166,0.0,0.0,0.00847402027116864,364,0.0,98,Motors_Started,
0.313732326538877,36.8862372269724,1100,2018-03-30 08:02:06,1779.2882649372166,0.0,0.0,0.00277178008869696,1779.2882649372166,0.0,0.0,0.00847402027116864,364,0.0,98,Motors_Started,
0.313732356798623,36.8862372293909,1200,2018-03-30 08:02:06,1779.2882649372166,0.0,0.0,0.0011297300361513601,1779.2882649372166,0.0,0.0,0.00847402027116864,364,0.0,98,Motors_Started,
0.3137323886803,36.8862372309293,1300,2018-03-30 08:02:06,1779.2882649372166,0.0,0.0,0.004350660139221121,1779.2882649372166,0.0,0.0,0.00847402027116864,364,0.0,98,Motors_Started,
0.31373241512623,36.8862372303084,1400,2018-03-30 08:02:06,1779.2882649372166,0.0,0.0,0.00722629023124128,1779.2882649372166,0.0,0.0,0.00847402027116864,1008,0.0,98,Motors_Started,
0.313732433892419,36.8862372308116,1500,2018-03-30 08:02:06,1779.2882649372166,0.0,0.0,0.009303470297711041,1779.2882649372166,0.0,0.0,0.009303470297711041,1024,0.0,98,Motors_Started,
0.313732447818872,36.8862372295836,1600,2018-03-30 08:02:06,1779.2882649372166,0.0,0.0,0.0108308003465856,1779.2882649372166,0.0,0.0,0.0108308003465856,1024,0.0,98,Assisted_Takeoff,
0.313732458468896,36.8862372301842,1700,2018-03-30 08:02:07,1779.2882649372166,0.0,0.0,0.012016500384528,1779.2882649372166,0.0,0.0,0.012016500384528,1024,0.0,98,Assisted_Takeoff,
0.313732464461569,36.8862372278471,1800,2018-03-30 08:02:07,1779.2882649372166,0.0,0.0,0.012663000405216,1779.2882649372166,0.0,0.0,0.012663000405216,1024,0.0,98,Assisted_Takeoff,
0.313732464998956,36.8862372262091,1900,2018-03-30 08:02:07,1779.2882649372166,0.0,0.0,0.012713300406825601,1779.2882649372166,0.0,0.0,0.012713300406825601,1024,0.0,98,Assisted_Takeoff,
0.313732463018768,36.8862372234202,2000,2018-03-30 08:02:07,1779.2882649372166,0.0,0.0,0.012483400399468802,1779.2882649372166,0.0,0.0,0.012713300406825601,1024,0.0,98,Assisted_Takeoff,
0.313732462986199,36.8862372217544,2100,2018-03-30 08:02:07,1779.2882649372166,0.0,0.0,0.01247750039928,1779.2882649372166,0.0,0.0,0.012713300406825601,1024,0.0,98,Assisted_Takeoff,
0.313732454743016,36.8862372195051,2200,2018-03-30 08:02:07,1779.2882649372166,0.0,0.0,0.011562100369987201,1779.2882649372166,0.0,0.0,0.012713300406825601,1024,0.0,98,Assisted_Takeoff,
0.313732454436868,36.8862372186218,2300,2018-03-30 08:02:07,1779.2882649372166,0.0,0.0,0.011530100368963202,1779.2882649372166,0.0,0.0,0.012713300406825601,1024,0.0,98,Assisted_Takeoff,
0.313732448274836,36.8862371845642,2400,2018-03-30 08:02:07,1779.2882649372166,0.0,0.0,0.011581600370611199,1779.2882649372166,0.0,0.0,0.012713300406825601,1024,0.0,98,Assisted_Takeoff,
0.31373244402134,36.8862371540352,2500,2018-03-30 08:02:07,1779.2882649372166,0.0,0.0,0.012778500408912001,1779.2882649372166,0.0,0.0,0.012778500408912001,1024,0.0,98,Assisted_Takeoff,
0.313732438904769,36.8862371275296,2600,2018-03-30 08:02:07,1779.2882649372166,0.0,0.0,0.014301600457651201,1779.2882649372166,0.0,0.0,0.014301600457651201,1024,0.0,98,Assisted_Takeoff,
0.313732432944664,36.8862371083403,2700,2018-03-30 08:02:08,1779.2882649372166,0.0,0.0,0.015524000496768,1779.2882649372166,0.0,0.0,0.015524000496768,1024,0.0,98,Assisted_Takeoff,
0.313732426499283,36.8862370944698,2800,2018-03-30 08:02:08,1779.2882649372166,0.0,0.0,0.0164167005253344,1779.2882649372166,0.0,0.0,0.0164167005253344,1024,0.0,98,Assisted_Takeoff,
0.313732422597531,36.8862370841396,2900,2018-03-30 08:02:08,1779.2882649372166,0.0,0.0,0.0172073005506336,1779.2882649372166,0.0,0.0,0.0172073005506336,1024,0.0,98,Assisted_Takeoff,
0.313732417145501,36.8862370796838,3000,2018-03-30 08:02:08,1779.2882649372166,0.0,0.0,0.0173817005562144,1779.2882649372166,0.0,0.0,0.0173817005562144,1024,0.0,98,Assisted_Takeoff,
0.313732411257047,36.8862370766048,3200,2018-03-30 08:02:08,1779.2882649372166,0.0,0.0,0.017429400557740803,1779.2882649372166,0.0,0.0,0.017429400557740803,1024,0.0,98,Assisted_Takeoff,
0.313732407739608,36.8862370755578,3300,2018-03-30 08:02:08,1779.2882649372166,0.0,0.0,0.0173906005564992,1779.2882649372166,0.0,0.0,0.017429400557740803,1024,0.0,98,Assisted_Takeoff,
0.313732404863776,36.8862371121677,3400,2018-03-30 08:02:08,1779.2882649372166,0.0,0.0,0.013534500433104002,1779.2882649372166,0.0,0.0,0.017429400557740803,1024,0.0,98,Assisted_Takeoff,
0.313732401062988,36.8862371432587,3500,2018-03-30 08:02:08,1779.2882649372166,0.0,0.0,0.010314400330060801,1779.2882649372166,0.0,0.0,0.017429400557740803,1024,0.0,98,Assisted_Takeoff,
0.313732399473626,36.886237173611,3600,2018-03-30 08:02:09,1779.2882649372166,0.0,0.0,0.007571230242279361,1779.2882649372166,0.0,0.0,0.017429400557740803,1024,0.0,98,Assisted_Takeoff,
0.313732425333317,36.8862372127903,3800,2018-03-30 08:02:09,1779.2882649372166,0.0,0.0,0.00834268026696576,1779.2882649372166,0.0,0.0,0.017429400557740803,1024,0.0,98,Assisted_Takeoff,
0.313732454515034,36.8862372252102,3900,2018-03-30 08:02:09,1779.2882649372166,0.0,0.0,0.0115439003694048,1779.2882649372166,0.0,0.0,0.017429400557740803,1024,0.0,98,Assisted_Takeoff,
0.313732485312166,36.8862372031015,4000,2018-03-30 08:02:09,1779.2882649372166,0.0,0.0,0.015094900483036801,1779.2882649372166,0.0,0.0,0.017429400557740803,1024,0.0,98,Assisted_Takeoff,
0.313732503042665,36.8862371803407,4100,2018-03-30 08:02:09,1779.2882649372166,0.0,0.0,0.017530900560988803,1779.2882649372166,0.0,0.0,0.017530900560988803,1024,0.0,98,Assisted_Takeoff,
0.313732518161139,36.8862371550748,4200,2018-03-30 08:02:09,1779.2882649372166,0.0,0.0,0.0200131006404192,1779.2882649372166,0.0,0.0,0.0200131006404192,1024,0.0,98,Assisted_Takeoff,
0.313732529488595,36.8862371391316,4300,2018-03-30 08:02:09,1779.2882649372166,0.0,0.0,0.0218683006997856,1779.2882649372166,0.0,0.0,0.0218683006997856,1024,0.0,98,Assisted_Takeoff,
0.313732535666912,36.886237123002,4400,2018-03-30 08:02:09,1779.2882649372166,0.0,0.0,0.023280000744960002,1779.2882649372166,0.0,0.0,0.023280000744960002,1024,0.0,98,Assisted_Takeoff,
0.313732540861648,36.8862371125285,4500,2018-03-30 08:02:09,1779.2882649372166,0.0,0.0,0.0243483007791456,1779.2882649372166,0.0,0.0,0.0243483007791456,1024,0.0,98,Assisted_Takeoff,
0.313732539483984,36.8862371052452,4600,2018-03-30 08:02:09,1779.2882649372166,0.0,0.0,0.0246297007881504,1779.2882649372166,0.0,0.0,0.0246297007881504,1148,0.0,98,Assisted_Takeoff,
0.313732538145403,36.8862370995486,4700,2018-03-30 08:02:10,1779.2882649372166,0.0,0.0,0.0248422007949504,1779.2882649372166,0.0,0.0,0.0248422007949504,1684,0.0,98,Assisted_Takeoff,
0.313732535513838,36.8862370968475,4800,2018-03-30 08:02:10,1779.2882649372166,0.0,0.0,0.024763700792438403,1779.2882649372166,0.0,0.0,0.0248422007949504,1684,0.0,98,Assisted_Takeoff,
0.313732536168472,36.8862370943563,4900,2018-03-30 08:02:10,1779.2882649372166,0.0,0.0,0.024979500799344002,1779.2882649372166,0.0,0.0,0.024979500799344002,1684,0.0,98,Assisted_Takeoff,
0.313732537963018,36.8862370941229,5000,2018-03-30 08:02:10,1779.2882649372166,0.0,0.0,0.0251591008050912,1779.2882649372166,0.0,0.0,0.0251591008050912,1684,0.0,98,Assisted_Takeoff,
0.313732537979302,36.8862370795575,5100,2018-03-30 08:02:10,1779.2882649372166,0.0,0.0,0.0261047008353504,1779.2882649372166,0.0,0.0,0.0261047008353504,1684,0.0,98,Assisted_Takeoff,
0.313732582403254,36.8862369088058,5300,2018-03-30 08:02:10,1779.2882649372166,0.0,0.0,0.0432468013838976,1779.2882649372166,0.0,0.0,0.0432468013838976,1684,0.0,98,P-GPS,
0.313732640639669,36.8862368425224,5400,2018-03-30 08:02:10,1779.2882649372166,0.0,0.0,0.053031301697001605,1779.2882649372166,0.0,0.0,0.053031301697001605,1684,0.0,98,P-GPS,Obstacle Avoided. Revise Flight Route
0.313732682523248,36.8862367768181,5500,2018-03-30 08:02:10,1779.3882649404168,0.1000000032,0.0,0.061668801973401605,1779.3882649404168,0.1000000032,0.0,0.061668801973401605,1684,0.0,98,P-GPS,
0.313732693671576,36.8862366487755,5600,2018-03-30 08:02:10,1779.4882649436167,0.2000000064,0.35999970196000003,0.0742031023744992,1779.4882649436167,0.2000000064,0.35999970196000003,0.0742031023744992,1684,0.0,98,P-GPS,
0.313732674641579,36.8862364766696,5700,2018-03-30 08:02:11,1779.5882649468167,0.3000000096,0.35999970196000003,0.0902891028892512,1779.5882649468167,0.3000000096,0.35999970196000003,0.0902891028892512,1684,0.0,98,P-GPS,
0.313732584227112,36.8862362581129,5800,2018-03-30 08:02:11,1779.7882649532166,0.500000016,0.35999970196000003,0.11020100352643201,1779.7882649532166,0.500000016,0.35999970196000003,0.11020100352643201,1684,0.0,98,P-GPS,
0.313732470799473,36.8862360408002,5900,2018-03-30 08:02:11,1780.0882649628165,0.8000000256,0.35999970196000003,0.131943004222176,1780.0882649628165,0.8000000256,0.35999970196000003,0.131943004222176,1684,0.0,98,P-GPS,
0.313732360280236,36.8862358550742,6000,2018-03-30 08:02:11,1780.3882649724167,1.1000000352000001,0.35999970196000003,0.151923004861536,1780.3882649724167,1.1000000352000001,0.35999970196000003,0.151923004861536,1684,0.0,98,P-GPS,
0.31373229514899,36.8862356822531,6100,2018-03-30 08:02:11,1780.6882649820166,1.4000000448,0.35999970196000003,0.17125000548000002,1780.6882649820166,1.4000000448,0.35999970196000003,0.17125000548000002,1684,0.0,98,P-GPS,Home Point Recorded. RTH Altitude:  30m.
0.313732235427435,36.8862354463057,6200,2018-03-30 08:02:11,1781.0882649948167,1.8000000576000001,0.35999970196000003,0.19779300632937602,1781.0882649948167,1.8000000576000001,0.35999970196000003,0.19779300632937602,1684,0.0,98,P-GPS,
0.313732144938059,36.8862352397074,6300,2018-03-30 08:02:11,1781.5882650108165,2.3000000736,0.35999970196000003,0.22153700708918403,1781.5882650108165,2.3000000736,0.35999970196000003,0.22153700708918403,1684,0.0,98,P-GPS,
0.313731806570195,36.8862349219198,6500,2018-03-30 08:02:11,1782.4882650396166,3.2000001024,0.503999582744,0.26275500840816,1782.4882650396166,3.2000001024,0.503999582744,0.26275500840816,1684,0.0,98,P-GPS,
0.313731313311251,36.8862345734812,6700,2018-03-30 08:02:12,1783.5882650748167,4.3000001376,0.503999582744,0.316236010119552,1783.5882650748167,4.3000001376,0.503999582744,0.316236010119552,1684,0.0,98,P-GPS,
0.313731172203322,36.8862344202155,6800,2018-03-30 08:02:12,1784.0882650908168,4.8000001536,0.35999970196000003,0.337934010813888,1784.0882650908168,4.8000001536,0.503999582744,0.337934010813888,1684,0.0,98,P-GPS,
0.313731099703367,36.8862342855738,6900,2018-03-30 08:02:12,1784.5882651068166,5.3000001696000005,0.35999970196000003,0.35486501135568,1784.5882651068166,5.3000001696000005,0.503999582744,0.35486501135568,1684,0.0,98,P-GPS,
0.31373104348948,36.8862341424273,7000,2018-03-30 08:02:12,1785.0882651228167,5.8000001856,0.503999582744,0.371961011902752,1785.0882651228167,5.8000001856,0.503999582744,0.371961011902752,1684,0.0,98,P-GPS,
0.313730977830618,36.8862339964309,7100,2018-03-30 08:02:12,1785.5882651388167,6.3000002016,0.503999582744,0.38975901247228806,1785.5882651388167,6.3000002016,0.503999582744,0.38975901247228806,1684,0.0,98,P-GPS,
0.313730922268109,36.8862338558453,7200,2018-03-30 08:02:12,1786.0882651548166,6.800000217600001,0.503999582744,0.406564013010048,1786.0882651548166,6.800000217600001,0.503999582744,0.406564013010048,1684,0.0,98,P-GPS,
0.313730868364984,36.8862337170668,7300,2018-03-30 08:02:12,1786.5882651708166,7.3000002336000005,0.35999970196000003,0.423112013539584,1786.5882651708166,7.3000002336000005,0.503999582744,0.423112013539584,1684,0.0,98,P-GPS,
0.31373086006969,36.8862335475603,7400,2018-03-30 08:02:12,1787.0882651868167,7.8000002496,0.35999970196000003,0.44088001410816,1787.0882651868167,7.8000002496,0.503999582744,0.44088001410816,1684,0.0,98,P-GPS,
0.313730861919603,36.8862333422767,7500,2018-03-30 08:02:12,1787.5882652028167,8.300000265600001,0.7199994039200001,0.46203901478524806,1787.5882652028167,8.300000265600001,0.7199994039200001,0.46203901478524806,1684,0.0,98,P-GPS,
0.313730884794356,36.8862331160203,7600,2018-03-30 08:02:12,1788.0882652188166,8.800000281600001,0.7199994039200001,0.48475101551203204,1788.0882652188166,8.800000281600001,0.7199994039200001,0.48475101551203204,1684,0.0,98,P-GPS,
0.313730906327271,36.8862328740819,7700,2018-03-30 08:02:13,1788.5882652348168,9.3000002976,0.7199994039200001,0.509408016301056,1788.5882652348168,9.3000002976,0.7199994039200001,0.509408016301056,1684,0.0,98,P-GPS,
0.313730935417794,36.8862326377876,7800,2018-03-30 08:02:13,1789.0882652508167,9.8000003136,0.7199994039200001,0.5334450170702401,1789.0882652508167,9.8000003136,0.7199994039200001,0.5334450170702401,1684,0.0,98,P-GPS,
0.313730944426346,36.8862324060134,7900,2018-03-30 08:02:13,1789.5882652668165,10.3000003296,0.7199994039200001,0.557842017850944,1789.5882652668165,10.3000003296,0.7199994039200001,0.557842017850944,1684,0.0,98,P-GPS,
0.313730940187507,36.8862321826712,8000,2018-03-30 08:02:13,1790.0882652828168,10.8000003456,0.7199994039200001,0.581852018619264,1790.0882652828168,10.8000003456,0.7199994039200001,0.581852018619264,1684,0.0,98,P-GPS,
0.313730918696931,36.8862319892947,8100,2018-03-30 08:02:13,1790.5882652988166,11.3000003616,0.7199994039200001,0.603214019302848,1790.5882652988166,11.3000003616,0.7199994039200001,0.603214019302848,1684,0.0,98,P-GPS,
0.313730894776717,36.8862318592587,8200,2018-03-30 08:02:13,1791.0882653148167,11.8000003776,0.35999970196000003,0.6178650197716801,1791.0882653148167,11.8000003776,0.7199994039200001,0.6178650197716801,1684,0.0,98,P-GPS,
0.313730868420351,36.8862317395089,8300,2018-03-30 08:02:13,1791.5882653308167,12.300000393600001,0.35999970196000003,0.63148502020752,1791.5882653308167,12.300000393600001,0.7199994039200001,0.63148502020752,1684,0.0,98,P-GPS,
0.313730849787695,36.886231599011,8400,2018-03-30 08:02:13,1792.0882653468168,12.8000004096,0.35999970196000003,0.6471110207075521,1792.0882653468168,12.8000004096,0.7199994039200001,0.6471110207075521,1684,0.0,98,P-GPS,
0.313730827515466,36.8862314389043,8500,2018-03-30 08:02:13,1792.5882653628166,13.3000004256,0.7199994039200001,0.664956021278592,1792.5882653628166,13.3000004256,0.7199994039200001,0.664956021278592,1684,0.0,98,P-GPS,
0.313730784804637,36.88623128648,8600,2018-03-30 08:02:13,1793.0882653788165,13.800000441600002,0.7199994039200001,0.6825570218418241,1793.0882653788165,13.800000441600002,0.7199994039200001,0.6825570218418241,1684,0.0,98,P-GPS,
0.313730744000716,36.8862311658952,8700,2018-03-30 08:02:14,1793.5882653948167,14.300000457600001,0.35999970196000003,0.696681022293792,1793.5882653948167,14.300000457600001,0.7199994039200001,0.696681022293792,1684,0.0,98,P-GPS,
0.313730713117276,36.8862310482052,8800,2018-03-30 08:02:14,1794.0882654108166,14.8000004736,0.35999970196000003,0.710212022726784,1794.0882654108166,14.8000004736,0.7199994039200001,0.710212022726784,1684,0.0,98,P-GPS,
0.313730682412964,36.8862309460709,8900,2018-03-30 08:02:14,1794.6882654300168,15.4000004928,0.35999970196000003,0.722066023106112,1794.6882654300168,15.4000004928,0.7199994039200001,0.722066023106112,1684,0.0,98,P-GPS,
0.313730619664132,36.8862308706157,9000,2018-03-30 08:02:14,1795.0882654428167,15.8000005056,0.0,0.7319820234234241,1795.0882654428167,15.8000005056,0.7199994039200001,0.7319820234234241,1684,0.0,98,P-GPS,
0.313730542855314,36.8862308371426,9100,2018-03-30 08:02:14,1795.5882654588167,16.3000005216,0.0,0.737856023611392,1795.5882654588167,16.3000005216,0.7199994039200001,0.737856023611392,1684,0.0,98,P-GPS,
0.313730448032648,36.8862308597877,9200,2018-03-30 08:02:14,1796.0882654748166,16.800000537600003,0.0,0.73838502362832,1796.0882654748166,16.800000537600003,0.7199994039200001,0.73838502362832,1684,0.0,98,P-GPS,
0.31373035017782,36.886230897556,9300,2018-03-30 08:02:14,1796.5882654908169,17.3000005536,0.0,0.7375720236023041,1796.5882654908169,17.3000005536,0.7199994039200001,0.73838502362832,1684,0.0,98,P-GPS,
0.313730096405993,36.8862309683499,9500,2018-03-30 08:02:14,1797.5882655228165,18.3000005856,0.0,0.739159023653088,1797.5882655228165,18.3000005856,0.7199994039200001,0.739159023653088,1684,0.0,98,P-GPS,
0.313729972530258,36.8862309788181,9600,2018-03-30 08:02:14,1798.0882655388166,18.8000006016,0.0,0.742856023771392,1798.0882655388166,18.8000006016,0.7199994039200001,0.742856023771392,1684,0.0,98,P-GPS,
0.313729870601063,36.8862310164943,9700,2018-03-30 08:02:15,1798.5882655548166,19.300000617600002,0.0,0.7430740237783681,1798.5882655548166,19.300000617600002,0.7199994039200001,0.7430740237783681,1684,0.0,98,P-GPS,
0.313729740846645,36.8862310830743,9800,2018-03-30 08:02:15,1799.0882655708167,19.800000633600003,0.0,0.741731023735392,1799.0882655708167,19.800000633600003,0.7199994039200001,0.7430740237783681,1684,0.0,98,P-GPS,
0.313729629342199,36.8862311523265,9900,2018-03-30 08:02:15,1799.5882655868165,20.3000006496,0.0,0.739637023668384,1799.5882655868165,20.3000006496,0.7199994039200001,0.7430740237783681,1684,0.0,98,P-GPS,
0.31372951346701,36.8862311839453,10000,2018-03-30 08:02:15,1800.0882656028168,20.800000665600002,0.0,0.7418180237381761,1800.0882656028168,20.800000665600002,0.7199994039200001,0.7430740237783681,1684,0.0,98,P-GPS,
0.313729406494524,36.8862311979465,10100,2018-03-30 08:02:15,1800.5882656188166,21.3000006816,0.0,0.745557023857824,1800.5882656188166,21.3000006816,0.7199994039200001,0.745557023857824,1684,0.0,98,P-GPS,
0.313729304555558,36.886231238963,10200,2018-03-30 08:02:15,1801.0882656348165,21.8000006976,0.0,0.7465370238891841,1801.0882656348165,21.8000006976,0.7199994039200001,0.7465370238891841,1684,0.0,98,P-GPS,
0.31372922179152,36.8862312781637,10300,2018-03-30 08:02:15,1801.5882656508168,22.300000713600003,0.0,0.746898023900736,1801.5882656508168,22.300000713600003,0.7199994039200001,0.746898023900736,1684,0.0,98,P-GPS,
0.313729103967083,36.8862313403521,10400,2018-03-30 08:02:15,1802.0882656668166,22.8000007296,0.0,0.74703002390496,1802.0882656668166,22.8000007296,0.7199994039200001,0.74703002390496,1684,0.0,98,P-GPS,
0.313729004765532,36.8862314042364,10500,2018-03-30 08:02:15,1802.5882656828167,23.300000745600002,0.0,0.7462580238802561,1802.5882656828167,23.300000745600002,0.7199994039200001,0.74703002390496,1684,0.0,98,P-GPS,
0.313728894148588,36.8862315239627,10600,2018-03-30 08:02:15,1803.0882656988167,23.8000007616,0.0,0.7410530237136961,1803.0882656988167,23.8000007616,0.7199994039200001,0.74703002390496,1684,0.0,98,P-GPS,
0.313728814428112,36.8862316232942,10700,2018-03-30 08:02:16,1803.5882657148168,24.3000007776,0.0,0.736328023562496,1803.5882657148168,24.3000007776,0.7199994039200001,0.74703002390496,1684,0.0,98,P-GPS,
0.313728660940752,36.8862318718124,11000,2018-03-30 08:02:16,1805.1882657660167,25.9000008288,0.0,0.722669023125408,1805.1882657660167,25.9000008288,0.7199994039200001,0.74703002390496,1684,0.0,98,P-GPS,
0.313728614929067,36.8862319245818,11100,2018-03-30 08:02:16,1805.6882657820165,26.4000008448,0.0,0.720783023065056,1805.6882657820165,26.4000008448,0.7199994039200001,0.74703002390496,1684,0.0,98,P-GPS,
0.313728547312815,36.8862320348205,11200,2018-03-30 08:02:16,1806.1882657980168,26.900000860800002,0.0,0.715222022887104,1806.1882657980168,26.900000860800002,0.7199994039200001,0.74703002390496,1684,0.0,98,P-GPS,
0.313728500276838,36.8862321275165,11300,2018-03-30 08:02:16,1806.6882658140166,27.4000008768,0.0,0.710078022722496,1806.6882658140166,27.4000008768,0.7199994039200001,0.74703002390496,1684,0.0,98,P-GPS,
0.313728461400995,36.8862322555355,11400,2018-03-30 08:02:16,1807.1882658300167,27.9000008928,0.0,0.7014310224457921,1807.1882658300167,27.9000008928,0.7199994039200001,0.74703002390496,1684,0.0,98,P-GPS,
0.313728454095795,36.8862323542718,11500,2018-03-30 08:02:16,1807.6882658460167,28.4000009088,0.0,0.693328022186496,1807.6882658460167,28.4000009088,0.7199994039200001,0.74703002390496,1684,0.0,98,P-GPS,
0.313728464073271,36.8862324897935,11600,2018-03-30 08:02:16,1808.1882658620166,28.9000009248,0.0,0.6809240217895681,1808.1882658620166,28.9000009248,0.7199994039200001,0.74703002390496,1684,0.0,98,P-GPS,
0.313728494790611,36.8862326023468,11700,2018-03-30 08:02:17,1808.6882658780166,29.4000009408,0.0,0.6691050214113601,1808.6882658780166,29.4000009408,0.7199994039200001,0.74703002390496,1684,0.0,98,P-GPS,
0.313728515131505,36.8862326967536,11800,2018-03-30 08:02:17,1809.1882658940165,29.900000956800003,0.0,0.65961502110768,1809.1882658940165,29.900000956800003,0.7199994039200001,0.74703002390496,1684,0.0,98,P-GPS,
0.313728526835132,36.8862327377016,11900,2018-03-30 08:02:17,1809.6882659100168,30.400000972800004,0.0,0.6553030209696961,1809.6882659100168,30.400000972800004,0.7199994039200001,0.74703002390496,1684,0.0,98,P-GPS,
0.313728524130286,36.886232804121,12000,2018-03-30 08:02:17,1810.1882659260166,30.900000988800002,0.0,0.649898020796736,1810.1882659260166,30.900000988800002,0.7199994039200001,0.74703002390496,1684,0.0,98,P-GPS,
0.313728543485971,36.8862328709644,12100,2018-03-30 08:02:17,1810.6882659420166,31.400001004800004,0.0,0.6428780205720961,1810.6882659420166,31.400001004800004,0.7199994039200001,0.74703002390496,1684,0.0,98,P-GPS,
0.313728588528732,36.8862329725719,12200,2018-03-30 08:02:17,1811.2882659612167,32.000001024,0.0,0.631087020194784,1811.2882659612167,32.000001024,0.7199994039200001,0.74703002390496,1684,0.0,98,P-GPS,
0.313728663901263,36.8862330262042,12300,2018-03-30 08:02:17,1811.7882659772165,32.50000104,0.35999970196000003,0.62107001987424,1811.7882659772165,32.50000104,0.7199994039200001,0.74703002390496,1684,0.0,98,P-GPS,
0.313728747227114,36.886233073338,12400,2018-03-30 08:02:17,1812.2882659932168,33.000001056,0.35999970196000003,0.6110260195528321,1812.2882659932168,33.000001056,0.7199994039200001,0.74703002390496,1684,0.0,98,P-GPS,
0.31372882308492,36.886233092887,12500,2018-03-30 08:02:17,1812.7882660092166,33.500001072,0.0,0.6038720193239041,1812.7882660092166,33.500001072,0.7199994039200001,0.74703002390496,1684,0.0,98,P-GPS,
0.313728895011663,36.8862331127015,12600,2018-03-30 08:02:17,1813.2882660252167,34.000001088,0.0,0.5970190191046081,1813.2882660252167,34.000001088,0.7199994039200001,0.74703002390496,1684,0.0,98,P-GPS,
0.313728965568885,36.8862330950667,12700,2018-03-30 08:02:18,1813.7882660412165,34.500001104,0.0,0.593513018992416,1813.7882660412165,34.500001104,0.7199994039200001,0.74703002390496,1684,0.0,98,P-GPS,
0.313729040877906,36.8862330635507,12800,2018-03-30 08:02:18,1814.3882660604165,35.1000011232,0.0,0.5909750189112,1814.3882660604165,35.1000011232,0.7199994039200001,0.74703002390496,1684,0.0,98,P-GPS,
0.313729110896112,36.8862330122823,12900,2018-03-30 08:02:18,1814.8882660764166,35.6000011392,0.0,0.5906640189012481,1814.8882660764166,35.6000011392,0.7199994039200001,0.74703002390496,1684,0.0,98,P-GPS,
0.313729189173787,36.886232991956,13000,2018-03-30 08:02:18,1815.3882660924166,36.1000011552,0.0,0.587204018790528,1815.3882660924166,36.1000011552,0.7199994039200001,0.74703002390496,1684,0.0,98,P-GPS,
0.313729243972556,36.8862329597313,13100,2018-03-30 08:02:18,1815.8882661084167,36.6000011712,0.0,0.5864670187669441,1815.8882661084167,36.6000011712,0.7199994039200001,0.74703002390496,1684,0.0,98,P-GPS,
0.313729319869445,36.8862329427967,13200,2018-03-30 08:02:18,1816.3882661244165,37.10000118720001,0.0,0.583071018658272,1816.3882661244165,37.10000118720001,0.7199994039200001,0.74703002390496,1684,0.0,98,P-GPS,
0.313729396743401,36.8862329257058,13300,2018-03-30 08:02:18,1816.8882661404168,37.6000012032,0.0,0.579736018551552,1816.8882661404168,37.6000012032,0.7199994039200001,0.74703002390496,1684,0.0,98,P-GPS,
0.313729486609083,36.8862329243868,13400,2018-03-30 08:02:18,1817.3882661564166,38.1000012192,0.0,0.5742540183761281,1817.3882661564166,38.1000012192,0.7199994039200001,0.74703002390496,1684,0.0,98,P-GPS,
0.313729564546413,36.8862329264231,13500,2018-03-30 08:02:18,1817.8882661724167,38.600001235200004,0.0,0.569302018217664,1817.8882661724167,38.600001235200004,0.7199994039200001,0.74703002390496,1684,0.0,98,P-GPS,
0.313729656778224,36.8862329626047,13600,2018-03-30 08:02:18,1818.3882661884168,39.100001251200005,0.0,0.560381017932192,1818.3882661884168,39.100001251200005,0.7199994039200001,0.74703002390496,1684,0.0,98,P-GPS,
0.313729741371004,36.8862330140145,13700,2018-03-30 08:02:19,1818.7882662012169,39.500001264,0.0,0.550543017617376,1818.7882662012169,39.500001264,0.7199994039200001,0.74703002390496,1684,0.0,98,P-GPS,
0.313729812524236,36.8862330860031,13800,2018-03-30 08:02:19,1819.2882662172167,40.00000128,0.0,0.5395750172664,1819.2882662172167,40.00000128,0.7199994039200001,0.74703002390496,1684,0.0,98,P-GPS,
0.313729854749789,36.8862331622891,13900,2018-03-30 08:02:19,1819.8882662364165,40.6000012992,0.0,0.5298880169564161,1819.8882662364165,40.6000012992,0.7199994039200001,0.74703002390496,1684,0.0,98,P-GPS,
0.313729913344461,36.8862332469771,14000,2018-03-30 08:02:19,1820.3882662524168,41.100001315200004,0.0,0.518453016590496,1820.3882662524168,41.100001315200004,0.7199994039200001,0.74703002390496,1684,0.0,98,P-GPS,
0.313729965329278,36.8862333295581,14100,2018-03-30 08:02:19,1820.8882662684166,41.600001331200005,0.0,0.5076020162432641,1820.8882662684166,41.600001331200005,0.7199994039200001,0.74703002390496,1684,0.0,98,P-GPS,
0.313730061490525,36.8862334648829,14300,2018-03-30 08:02:19,1821.8882663004167,42.6000013632,0.0,0.48918501565392003,1821.8882663004167,42.6000013632,0.7199994039200001,0.74703002390496,1684,0.0,98,P-GPS,
0.313730065154524,36.8862335681991,14400,2018-03-30 08:02:19,1822.3882663164168,43.1000013792,0.0,0.47919601533427203,1822.3882663164168,43.1000013792,0.7199994039200001,0.74703002390496,1684,0.0,98,P-GPS,
0.313730043680233,36.8862336778575,14500,2018-03-30 08:02:19,1822.8882663324166,43.6000013952,0.35999970196000003,0.47020101504643197,1822.8882663324166,43.6000013952,0.7199994039200001,0.74703002390496,1684,0.0,98,P-GPS,
0.313730016262121,36.8862337613828,14600,2018-03-30 08:02:19,1823.3882663484167,44.100001411200004,0.0,0.46414401485260803,1823.3882663484167,44.100001411200004,0.7199994039200001,0.74703002390496,1684,0.0,98,P-GPS,
0.313729971178649,36.8862337974553,14700,2018-03-30 08:02:20,1823.8882663644167,44.600001427200006,0.0,0.463667014837344,1823.8882663644167,44.600001427200006,0.7199994039200001,0.74703002390496,1684,0.0,98,P-GPS,
0.313729904560634,36.8862338281149,14800,2018-03-30 08:02:20,1824.3882663804166,45.1000014432,0.0,0.46516501488528006,1824.3882663804166,45.1000014432,0.7199994039200001,0.74703002390496,1684,0.0,98,P-GPS,
0.313729829451911,36.8862338757925,14900,2018-03-30 08:02:20,1824.8882663964166,45.6000014592,0.0,0.465853014907296,1824.8882663964166,45.6000014592,0.7199994039200001,0.74703002390496,1684,0.0,98,P-GPS,
0.313729803737152,36.8862339403363,15000,2018-03-30 08:02:20,1825.4882664156166,46.2000014784,0.0,0.46189001478048003,1825.4882664156166,46.2000014784,0.7199994039200001,0.74703002390496,1684,0.0,98,P-GPS,
0.31372979450876,36.8862340044754,15100,2018-03-30 08:02:20,1825.9882664316165,46.7000014944,0.0,0.45691501462128,1825.9882664316165,46.7000014944,0.7199994039200001,0.74703002390496,1684,0.0,98,P-GPS,
0.313729765734155,36.8862340907114,15200,2018-03-30 08:02:20,1826.4882664476168,47.2000015104,0.35999970196000003,0.451477014447264,1826.4882664476168,47.2000015104,0.7199994039200001,0.74703002390496,1684,0.0,98,P-GPS,
0.313729729227697,36.8862341855379,15300,2018-03-30 08:02:20,1826.9882664636166,47.70000152640001,0.35999970196000003,0.44604001427328005,1826.9882664636166,47.70000152640001,0.7199994039200001,0.74703002390496,1684,0.0,98,P-GPS,
0.313729712111122,36.8862342947017,15400,2018-03-30 08:02:20,1827.4882664796166,48.20000154240001,0.35999970196000003,0.43819701402230404,1827.4882664796166,48.20000154240001,0.7199994039200001,0.74703002390496,1684,0.0,98,P-GPS,
0.313729697178291,36.8862343881942,15500,2018-03-30 08:02:20,1827.9882664956167,48.7000015584,0.0,0.43166501381328,1827.9882664956167,48.7000015584,0.7199994039200001,0.74703002390496,1684,0.0,98,P-GPS,
0.313729672662066,36.8862344548085,15600,2018-03-30 08:02:20,1828.4882665116168,49.200001574400005,0.0,0.42818001370176006,1828.4882665116168,49.200001574400005,0.7199994039200001,0.74703002390496,1684,0.0,98,P-GPS,
0.313729640604518,36.8862344873994,15700,2018-03-30 08:02:21,1828.9882665276166,49.70000159040001,0.0,0.428086013698752,1828.9882665276166,49.70000159040001,0.7199994039200001,0.74703002390496,1684,0.0,98,P-GPS,
0.313729612228881,36.8862345054195,15800,2018-03-30 08:02:21,1829.4882665436169,50.20000160640001,0.0,0.4289000137248,1829.4882665436169,50.20000160640001,0.7199994039200001,0.74703002390496,1684,0.0,98,P-GPS,
0.313729575466758,36.8862345309317,15900,2018-03-30 08:02:21,1829.9882665596167,50.7000016224,0.0,0.42983301375465605,1829.9882665596167,50.7000016224,0.7199994039200001,0.74703002390496,1684,0.0,98,P-GPS,
0.313729450252442,36.8862346372756,16100,2018-03-30 08:02:21,1830.9882665916166,51.700001654400005,0.0,0.431983013823456,1830.9882665916166,51.700001654400005,0.7199994039200001,0.74703002390496,1684,0.0,98,P-GPS,
0.313729390426667,36.8862346784676,16200,2018-03-30 08:02:21,1831.5882666108166,52.3000016736,0.0,0.4339750138872,1831.5882666108166,52.3000016736,0.7199994039200001,0.74703002390496,1684,0.0,98,P-GPS,
0.313729341000134,36.8862346897859,16300,2018-03-30 08:02:21,1832.0882666268167,52.8000016896,0.0,0.437348013995136,1832.0882666268167,52.8000016896,0.7199994039200001,0.74703002390496,1684,0.0,98,P-GPS,
0.313729303900923,36.8862347052581,16400,2018-03-30 08:02:21,1832.5882666428167,53.3000017056,0.0,0.43941601406131203,1832.5882666428167,53.3000017056,0.7199994039200001,0.74703002390496,1684,0.0,98,P-GPS,
0.313729275943797,36.8862347232761,16500,2018-03-30 08:02:21,1833.0882666588166,53.800001721600005,0.0,0.44055201409766404,1833.0882666588166,53.800001721600005,0.7199994039200001,0.74703002390496,1684,0.0,98,P-GPS,
0.313729277717172,36.8862347536123,16600,2018-03-30 08:02:21,1833.5882666748166,54.3000017376,0.0,0.43827901402492797,1833.5882666748166,54.3000017376,0.7199994039200001,0.74703002390496,1684,0.0,98,P-GPS,
0.313729284014365,36.8862347905648,16700,2018-03-30 08:02:22,1834.0882666908167,54.8000017536,0.0,0.435169013925408,1834.0882666908167,54.8000017536,0.7199994039200001,0.74703002390496,1684,0.0,98,P-GPS,
0.313729282630188,36.8862348588556,16800,2018-03-30 08:02:22,1834.5882667068167,55.3000017696,0.0,0.43061501377968003,1834.5882667068167,55.3000017696,0.7199994039200001,0.74703002390496,1684,0.0,98,P-GPS,
0.313729262132963,36.8862349346963,16900,2018-03-30 08:02:22,1835.0882667228166,55.8000017856,0.0,0.42735201367526404,1835.0882667228166,55.8000017856,0.7199994039200001,0.74703002390496,1684,0.0,98,P-GPS,
0.313729240981104,36.8862349926687,17000,2018-03-30 08:02:22,1835.5882667388166,56.3000018016,0.0,0.425457013614624,1835.5882667388166,56.3000018016,0.7199994039200001,0.74703002390496,1684,0.0,98,P-GPS,
0.313729222850009,36.8862350329957,17100,2018-03-30 08:02:22,1836.0882667548167,56.8000018176,0.0,0.424512013584384,1836.0882667548167,56.8000018176,0.7199994039200001,0.74703002390496,1684,0.0,98,P-GPS,
0.313729194703983,36.886235099019,17200,2018-03-30 08:02:22,1836.5882667708167,57.3000018336,0.0,0.42294001353408006,1836.5882667708167,57.3000018336,0.7199994039200001,0.74703002390496,1684,0.0,98,P-GPS,
0.31372916403224,36.8862351681171,17300,2018-03-30 08:02:22,1837.1882667900168,57.9000018528,0.0,0.4215640134900481,1837.1882667900168,57.9000018528,0.7199994039200001,0.74703002390496,1684,0.0,98,P-GPS,
0.313729144902908,36.8862352416067,17400,2018-03-30 08:02:22,1837.6882668060166,58.400001868800004,0.0,0.41900301340809604,1837.6882668060166,58.400001868800004,0.7199994039200001,0.74703002390496,1684,0.0,98,P-GPS,
0.313729131007396,36.8862353040221,17500,2018-03-30 08:02:22,1838.1882668220167,58.900001884800005,0.0,0.4167250133352,1838.1882668220167,58.900001884800005,0.7199994039200001,0.74703002390496,1684,0.0,98,P-GPS,
0.313729105343118,36.8862353373645,17600,2018-03-30 08:02:22,1838.6882668380167,59.40000190080001,0.0,0.41730701335382403,1838.6882668380167,59.40000190080001,0.7199994039200001,0.74703002390496,1684,0.0,98,P-GPS,
0.313729083307014,36.8862353661977,17700,2018-03-30 08:02:23,1839.1882668540168,59.9000019168,0.0,0.417836013370752,1839.1882668540168,59.9000019168,0.7199994039200001,0.74703002390496,1684,0.0,98,P-GPS,
0.313729046645854,36.8862354069058,17800,2018-03-30 08:02:23,1839.6882668700166,60.4000019328,0.0,0.419188013414016,1839.6882668700166,60.4000019328,0.7199994039200001,0.74703002390496,1684,0.0,98,P-GPS,
0.313729011531717,36.8862354698586,17900,2018-03-30 08:02:23,1840.0882668828167,60.80000194560001,0.0,0.419318013418176,1840.0882668828167,60.80000194560001,0.7199994039200001,0.74703002390496,1684,0.0,98,P-GPS,
0.313728956827397,36.8862355581053,18000,2018-03-30 08:02:23,1840.5882668988165,61.3000019616,0.0,0.420306013449792,1840.5882668988165,61.3000019616,0.7199994039200001,0.74703002390496,1684,0.0,98,P-GPS,
0.313728909848417,36.8862356519382,18100,2018-03-30 08:02:23,1841.0882669148168,61.800001977600004,0.0,0.42056701345814407,1841.0882669148168,61.800001977600004,0.7199994039200001,0.74703002390496,1684,0.0,98,P-GPS,
0.313728873566684,36.8862357394611,18200,2018-03-30 08:02:23,1841.5882669308166,62.300001993600006,0.0,0.42033201345062404,1841.5882669308166,62.300001993600006,0.7199994039200001,0.74703002390496,1684,0.0,98,P-GPS,
0.313728832008793,36.8862358108588,18300,2018-03-30 08:02:23,1842.0882669468165,62.80000200960001,0.0,0.42156901349020803,1842.0882669468165,62.80000200960001,0.7199994039200001,0.74703002390496,1684,0.0,98,P-GPS,
0.31372876745076,36.8862358493786,18400,2018-03-30 08:02:23,1842.5882669628168,63.30000202560001,0.0,0.42669201365414405,1842.5882669628168,63.30000202560001,0.7199994039200001,0.74703002390496,1684,0.0,98,P-GPS,
0.313728714487247,36.8862358640585,18500,2018-03-30 08:02:23,1843.0882669788166,63.8000020416,0.0,0.43162401381196797,1843.0882669788166,63.8000020416,0.7199994039200001,0.74703002390496,1684,0.0,98,P-GPS,
0.313728693729471,36.8862358657672,18600,2018-03-30 08:02:23,1843.5882669948166,64.3000020576,0.0,0.433721013879072,1843.5882669948166,64.3000020576,0.7199994039200001,0.74703002390496,1684,0.0,98,P-GPS,
0.313728675326426,36.8862358747473,18700,2018-03-30 08:02:24,1844.0882670108167,64.8000020736,0.0,0.43529601392947204,1844.0882670108167,64.8000020736,0.7199994039200001,0.74703002390496,1684,0.0,98,P-GPS,
0.313728653431996,36.8862359119867,18800,2018-03-30 08:02:24,1844.5882670268168,65.3000020896,0.0,0.436183013957856,1844.5882670268168,65.3000020896,0.7199994039200001,0.74703002390496,1684,0.0,98,P-GPS,
0.313728653360345,36.8862359649231,18900,2018-03-30 08:02:24,1845.0882670428166,65.8000021056,0.0,0.434262013896384,1845.0882670428166,65.8000021056,0.7199994039200001,0.74703002390496,1684,0.0,98,P-GPS,
0.313728693039011,36.8862360212811,19000,2018-03-30 08:02:24,1845.5882670588169,66.3000021216,0.0,0.428091013698912,1845.5882670588169,66.3000021216,0.7199994039200001,0.74703002390496,1684,0.0,98,P-GPS,
0.313728750718498,36.8862360952825,19100,2018-03-30 08:02:24,1846.0882670748167,66.8000021376,0.0,0.41947201342310403,1846.0882670748167,66.8000021376,0.7199994039200001,0.74703002390496,1684,0.0,98,P-GPS,
0.313728830308698,36.8862361588477,19200,2018-03-30 08:02:24,1846.5882670908165,67.3000021536,0.0,0.40893501308592,1846.5882670908165,67.3000021536,0.7199994039200001,0.74703002390496,1684,0.0,98,P-GPS,
0.313728923200029,36.8862362022109,19300,2018-03-30 08:02:24,1847.0882671068166,67.8000021696,0.35999970196000003,0.397656012724992,1847.0882671068166,67.8000021696,0.7199994039200001,0.74703002390496,1684,0.0,98,P-GPS,
0.313729020338342,36.8862362111204,19400,2018-03-30 08:02:24,1847.5882671228167,68.3000021856,0.35999970196000003,0.3870250123848,1847.5882671228167,68.3000021856,0.7199994039200001,0.74703002390496,1684,0.0,98,P-GPS,
0.313729112036023,36.8862362131095,19500,2018-03-30 08:02:24,1848.1882671420165,68.9000022048,0.0,0.37721201207078403,1848.1882671420165,68.9000022048,0.7199994039200001,0.74703002390496,1684,0.0,98,P-GPS,
0.313729171265788,36.8862362186252,19600,2018-03-30 08:02:24,1848.6882671580167,69.4000022208,0.0,0.370743011863776,1848.6882671580167,69.4000022208,0.7199994039200001,0.74703002390496,1684,0.0,98,P-GPS,
0.313729213294299,36.8862362275154,19700,2018-03-30 08:02:24,1849.1882671740166,69.9000022368,0.0,0.36598901171164805,1849.1882671740166,69.9000022368,0.7199994039200001,0.74703002390496,1684,0.0,98,P-GPS,
0.313729252279249,36.8862362238668,19800,2018-03-30 08:02:25,1849.6882671900166,70.40000225280001,0.0,0.361982011583424,1849.6882671900166,70.40000225280001,0.7199994039200001,0.74703002390496,1684,0.0,98,P-GPS,
0.313729293837139,36.8862362061443,19900,2018-03-30 08:02:25,1850.1882672060167,70.90000226880001,0.0,0.358202011462464,1850.1882672060167,70.90000226880001,0.7199994039200001,0.74703002390496,1684,0.0,98,P-GPS,
0.313729318175863,36.8862361569207,20000,2018-03-30 08:02:25,1850.6882672220167,71.40000228480001,0.0,0.35740901143708803,1850.6882672220167,71.40000228480001,0.7199994039200001,0.74703002390496,1684,0.0,97,P-GPS,
0.313729338226894,36.8862360991388,20100,2018-03-30 08:02:25,1851.1882672380166,71.9000023008,0.0,0.35749801143993604,1851.1882672380166,71.9000023008,0.7199994039200001,0.74703002390496,1684,0.0,97,P-GPS,
0.313729355854801,36.8862360646872,20200,2018-03-30 08:02:25,1851.6882672540164,72.4000023168,0.0,0.35702401142476803,1851.6882672540164,72.4000023168,0.7199994039200001,0.74703002390496,1684,0.0,97,P-GPS,
0.313729381102196,36.8862360358626,20300,2018-03-30 08:02:25,1852.1882672700167,72.9000023328,0.0,0.355582011378624,1852.1882672700167,72.9000023328,0.7199994039200001,0.74703002390496,1684,0.0,97,P-GPS,
0.313729410749648,36.8862359895596,20400,2018-03-30 08:02:25,1852.6882672860165,73.4000023488,0.0,0.35447901134332804,1852.6882672860165,73.4000023488,0.7199994039200001,0.74703002390496,1684,0.0,97,P-GPS,
0.313729421556002,36.886235924806,20500,2018-03-30 08:02:25,1853.1882673020166,73.9000023648,0.0,0.356224011399168,1853.1882673020166,73.9000023648,0.7199994039200001,0.74703002390496,1684,0.0,97,P-GPS,
0.313729444308622,36.8862358167898,20600,2018-03-30 08:02:25,1853.6882673180166,74.4000023808,0.0,0.358972011487104,1853.6882673180166,74.4000023808,0.7199994039200001,0.74703002390496,1684,0.0,97,P-GPS,
0.313729462542309,36.8862357051508,20700,2018-03-30 08:02:26,1854.1882673340167,74.9000023968,0.0,0.362748011607936,1854.1882673340167,74.9000023968,0.7199994039200001,0.74703002390496,1351,0.0,97,P-GPS,
0.313729501072923,36.8862355710423,20800,2018-03-30 08:02:26,1854.6882673500165,75.4000024128,0.0,0.36620101171843206,1854.6882673500165,75.4000024128,0.7199994039200001,0.74703002390496,1024,0.0,97,P-GPS,
0.313729523936276,36.8862354524016,20900,2018-03-30 08:02:26,1855.1882673660168,75.90000242880001,0.35999970196000003,0.370829011866528,1855.1882673660168,75.90000242880001,0.7199994039200001,0.74703002390496,1024,0.0,97,P-GPS,
0.313729530130877,36.8862353024697,21000,2018-03-30 08:02:26,1855.6882673820166,76.4000024448,0.35999970196000003,0.37936601213971205,1855.6882673820166,76.4000024448,0.7199994039200001,0.74703002390496,1024,0.0,97,P-GPS,
0.313729515554675,36.8862351611025,21100,2018-03-30 08:02:26,1856.0882673948167,76.8000024576,0.35999970196000003,0.38973601247155204,1856.0882673948167,76.8000024576,0.7199994039200001,0.74703002390496,1024,0.0,97,P-GPS,
0.313729470700814,36.886235016635,21200,2018-03-30 08:02:26,1856.3882674044166,77.1000024672,0.35999970196000003,0.40334001290688004,1856.3882674044166,77.1000024672,0.7199994039200001,0.74703002390496,1024,0.0,97,P-GPS,
0.313729411146988,36.8862348606906,21300,2018-03-30 08:02:26,1856.5882674108166,77.3000024736,0.35999970196000003,0.419253013416096,1856.5882674108166,77.3000024736,0.7199994039200001,0.74703002390496,1024,0.0,97,P-GPS,
0.313729366270328,36.8862346690207,21400,2018-03-30 08:02:26,1856.6882674140168,77.4000024768,0.35999970196000003,0.43669801397433605,1856.6882674140168,77.4000024768,0.7199994039200001,0.74703002390496,1024,0.0,97,P-GPS,
0.313729327558958,36.886234497176,21500,2018-03-30 08:02:26,1856.7882674172167,77.50000248,0.35999970196000003,0.452542014481344,1856.7882674172167,77.50000248,0.7199994039200001,0.74703002390496,1024,0.0,97,P-GPS,
0.313729317066893,36.8862343233657,21600,2018-03-30 08:02:26,1856.7882674172167,77.50000248,0.35999970196000003,0.466544014929408,1856.7882674172167,77.50000248,0.7199994039200001,0.74703002390496,1024,0.0,97,P-GPS,
0.313729313070692,36.8862341753073,21700,2018-03-30 08:02:27,1856.8882674204167,77.6000024832,0.35999970196000003,0.478379015308128,1856.8882674204167,77.6000024832,0.7199994039200001,0.74703002390496,1024,0.0,97,P-GPS,
0.313729339998641,36.8862340170484,21800,2018-03-30 08:02:27,1856.8882674204167,77.6000024832,0.35999970196000003,0.48894201564614403,1856.8882674204167,77.6000024832,0.7199994039200001,0.74703002390496,1024,0.0,97,P-GPS,
0.313729352703762,36.8862339000436,21900,2018-03-30 08:02:27,1856.8882674204167,77.6000024832,0.0,0.497556015921792,1856.8882674204167,77.6000024832,0.7199994039200001,0.74703002390496,1005,0.0,97,P-GPS,
0.313729355473745,36.8862337975881,22000,2018-03-30 08:02:27,1856.8882674204167,77.6000024832,0.0,0.505868016187776,1856.8882674204167,77.6000024832,0.7199994039200001,0.74703002390496,847,0.0,97,P-GPS,
0.313729370180223,36.8862337379134,22100,2018-03-30 08:02:27,1856.8882674204167,77.6000024832,0.0,0.509816016314112,1856.8882674204167,77.6000024832,0.7199994039200001,0.74703002390496,821,0.0,97,P-GPS,
0.313729418683427,36.8862336792986,22200,2018-03-30 08:02:27,1856.8882674204167,77.6000024832,0.0,0.51133001636256,1856.8882674204167,77.6000024832,0.7199994039200001,0.74703002390496,807,0.0,97,P-GPS,
0.313729486670964,36.8862336800458,22300,2018-03-30 08:02:27,1856.7882674172167,77.50000248,0.35999970196000003,0.506477016207264,1856.8882674204167,77.6000024832,0.7199994039200001,0.74703002390496,795,0.0,97,P-GPS,
0.313729560050279,36.886233746097,22400,2018-03-30 08:02:27,1856.7882674172167,77.50000248,0.35999970196000003,0.495637015860384,1856.8882674204167,77.6000024832,0.7199994039200001,0.74703002390496,772,0.0,97,P-GPS,
0.313729640917179,36.8862338409427,22500,2018-03-30 08:02:27,1856.7882674172167,77.50000248,0.35999970196000003,0.48178301541705604,1856.8882674204167,77.6000024832,0.7199994039200001,0.74703002390496,775,0.0,97,P-GPS,
0.313729755113443,36.8862339774001,22600,2018-03-30 08:02:27,1856.6882674140168,77.4000024768,0.35999970196000003,0.46200001478400005,1856.8882674204167,77.6000024832,0.7199994039200001,0.74703002390496,768,0.0,97,P-GPS,
0.313729908460757,36.8862341467996,22700,2018-03-30 08:02:27,1856.6882674140168,77.4000024768,0.7919993443119999,0.43664001397248003,1856.8882674204167,77.6000024832,0.7919993443119999,0.74703002390496,769,0.0,97,P-GPS,
0.313730070714032,36.8862343221752,22800,2018-03-30 08:02:28,1856.5882674108166,77.3000024736,0.7919993443119999,0.410151013124832,1856.8882674204167,77.6000024832,0.7919993443119999,0.74703002390496,769,0.0,97,P-GPS,
0.313730250748286,36.8862345032869,22900,2018-03-30 08:02:28,1856.4882674076166,77.20000247040001,0.7919993443119999,0.381957012222624,1856.8882674204167,77.6000024832,0.7919993443119999,0.74703002390496,776,0.0,97,P-GPS,
0.313730445629065,36.886234662595,23000,2018-03-30 08:02:28,1856.3882674044166,77.1000024672,0.7919993443119999,0.354744011351808,1856.8882674204167,77.6000024832,0.7919993443119999,0.74703002390496,768,0.0,97,P-GPS,
0.313730641275212,36.8862348242627,23100,2018-03-30 08:02:28,1856.288267401217,77.000002464,0.7919993443119999,0.32739901047676806,1856.8882674204167,77.6000024832,0.7919993443119999,0.74703002390496,777,0.0,97,P-GPS,
0.313730832881189,36.8862350130699,23200,2018-03-30 08:02:28,1856.1882673980165,76.9000024608,0.7919993443119999,0.297977009535264,1856.8882674204167,77.6000024832,0.7919993443119999,0.74703002390496,774,0.0,97,P-GPS,
0.31373101317111,36.8862352195546,23300,2018-03-30 08:02:28,1856.0882673948167,76.8000024576,0.7919993443119999,0.26772000856704004,1856.8882674204167,77.6000024832,0.7919993443119999,0.74703002390496,770,0.0,97,P-GPS,
0.313731165780739,36.8862353717262,23400,2018-03-30 08:02:28,1856.0882673948167,76.8000024576,0.7919993443119999,0.244266007816512,1856.8882674204167,77.6000024832,0.7919993443119999,0.74703002390496,774,0.0,97,P-GPS,
0.313731295033596,36.8862355156671,23500,2018-03-30 08:02:28,1855.9882673916168,76.7000024544,0.7199994039200001,0.22306100713795202,1856.8882674204167,77.6000024832,0.7919993443119999,0.74703002390496,775,0.0,97,P-GPS,
0.313731402025623,36.8862356620189,23600,2018-03-30 08:02:28,1855.8882673884166,76.6000024512,0.35999970196000003,0.202966006494912,1856.8882674204167,77.6000024832,0.7919993443119999,0.74703002390496,789,0.0,97,P-GPS,
0.313731497543634,36.8862358000694,23700,2018-03-30 08:02:29,1855.7882673852166,76.500002448,0.35999970196000003,0.184333005898656,1856.8882674204167,77.6000024832,0.7919993443119999,0.74703002390496,930,0.0,97,P-GPS,
0.313731584053093,36.8862358794815,23800,2018-03-30 08:02:29,1855.6882673820166,76.4000024448,0.35999970196000003,0.1718500054992,1856.8882674204167,77.6000024832,0.7919993443119999,0.74703002390496,1024,0.0,97,P-GPS,
0.313731669605027,36.886235922183,23900,2018-03-30 08:02:29,1855.5882673788167,76.3000024416,0.0,0.163114005219648,1856.8882674204167,77.6000024832,0.7919993443119999,0.74703002390496,1024,0.0,97,P-GPS,
0.313731804951521,36.8862359121131,24000,2018-03-30 08:02:29,1855.5882673788167,76.3000024416,0.0,0.15772500504720002,1856.8882674204167,77.6000024832,0.7919993443119999,0.74703002390496,1024,0.0,97,P-GPS,
0.313731892415248,36.8862358116532,24100,2018-03-30 08:02:29,1855.4882673756165,76.2000024384,0.35999970196000003,0.164828005274496,1856.8882674204167,77.6000024832,0.7919993443119999,0.74703002390496,1024,0.0,97,P-GPS,
0.313731954540387,36.8862356582269,24200,2018-03-30 08:02:29,1855.4882673756165,76.2000024384,0.35999970196000003,0.17930900573788802,1856.8882674204167,77.6000024832,0.7919993443119999,0.74703002390496,1024,0.0,97,P-GPS,
0.313731976941263,36.8862355163544,24300,2018-03-30 08:02:29,1855.3882673724165,76.1000024352,0.0,0.19409100621091202,1856.8882674204167,77.6000024832,0.7919993443119999,0.74703002390496,1024,0.0,97,P-GPS,
0.313732007897983,36.8862353922901,24400,2018-03-30 08:02:29,1855.3882673724165,76.1000024352,0.0,0.20692700662166402,1856.8882674204167,77.6000024832,0.7919993443119999,0.74703002390496,1024,0.0,97,P-GPS,
0.313732041062873,36.8862353244061,24500,2018-03-30 08:02:29,1855.3882673724165,76.1000024352,0.0,0.213726006839232,1856.8882674204167,77.6000024832,0.7919993443119999,0.74703002390496,1024,0.0,97,P-GPS,
0.313732115472993,36.8862353077863,24600,2018-03-30 08:02:29,1855.3882673724165,76.1000024352,0.0,0.214383006860256,1856.8882674204167,77.6000024832,0.7919993443119999,0.74703002390496,957,0.0,97,P-GPS,
0.313732189925453,36.8862353314356,24700,2018-03-30 08:02:30,1855.3882673724165,76.1000024352,0.0,0.21091000674912003,1856.8882674204167,77.6000024832,0.7919993443119999,0.74703002390496,847,0.0,97,P-GPS,
0.313732281965108,36.8862353516376,24800,2018-03-30 08:02:30,1855.3882673724165,76.1000024352,0.0,0.20804500665744,1856.8882674204167,77.6000024832,0.7919993443119999,0.74703002390496,802,0.0,97,P-GPS,
0.313732353466827,36.8862353624784,24900,2018-03-30 08:02:30,1855.3882673724165,76.1000024352,0.0,0.20669900661436802,1856.8882674204167,77.6000024832,0.7919993443119999,0.74703002390496,800,0.0,97,P-GPS,
0.313732425017399,36.8862353514578,25000,2018-03-30 08:02:30,1855.3882673724165,76.1000024352,0.0,0.20808800665881602,1856.8882674204167,77.6000024832,0.7919993443119999,0.74703002390496,795,0.0,97,P-GPS,
0.313732483713034,36.8862353431029,25100,2018-03-30 08:02:30,1855.2882673692168,76.000002432,0.0,0.2093750067,1856.8882674204167,77.6000024832,0.7919993443119999,0.74703002390496,798,0.0,97,P-GPS,
0.313732560946876,36.8862352962175,25300,2018-03-30 08:02:30,1855.1882673660168,75.90000242880001,0.0,0.215339006890848,1856.8882674204167,77.6000024832,0.7919993443119999,0.74703002390496,793,0.0,97,P-GPS,
0.313732543535553,36.8862352500857,25400,2018-03-30 08:02:30,1855.0882673628166,75.8000024256,0.0,0.22024200704774402,1856.8882674204167,77.6000024832,0.7919993443119999,0.74703002390496,817,0.0,97,P-GPS,
0.313732508162493,36.8862351866147,25500,2018-03-30 08:02:30,1854.9882673596167,75.7000024224,0.0,0.226931007261792,1856.8882674204167,77.6000024832,0.7919993443119999,0.74703002390496,888,0.0,97,P-GPS,
0.313732503589822,36.8862351189406,25600,2018-03-30 08:02:30,1854.8882673564167,75.60000241920001,0.0,0.234398007500736,1856.8882674204167,77.6000024832,0.7919993443119999,0.74703002390496,1024,0.0,97,P-GPS,
0.313732515907372,36.8862350559642,25700,2018-03-30 08:02:31,1854.7882673532167,75.500002416,0.0,0.241483007727456,1856.8882674204167,77.6000024832,0.7919993443119999,0.74703002390496,1024,0.0,97,P-GPS,
0.313732485882122,36.886234892378,25900,2018-03-30 08:02:31,1854.7882673532167,75.500002416,0.0,0.259411008301152,1856.8882674204167,77.6000024832,0.7919993443119999,0.74703002390496,1024,0.0,97,P-GPS,
0.313732484087576,36.8862348432957,26000,2018-03-30 08:02:31,1854.6882673500165,75.4000024128,0.0,0.264849008475168,1856.8882674204167,77.6000024832,0.7919993443119999,0.74703002390496,1024,0.0,97,P-GPS,
0.313732494216498,36.8862348216034,26100,2018-03-30 08:02:31,1854.6882673500165,75.4000024128,0.0,0.267322008554304,1856.8882674204167,77.6000024832,0.7919993443119999,0.74703002390496,1024,0.0,97,P-GPS,
0.313732513949983,36.886234806386,26200,2018-03-30 08:02:31,1854.6882673500165,75.4000024128,0.0,0.26915100861283203,1856.8882674204167,77.6000024832,0.7919993443119999,0.74703002390496,1024,0.0,97,P-GPS,
0.31373251655875,36.8862348022707,26300,2018-03-30 08:02:31,1854.6882673500165,75.4000024128,0.0,0.269627008628064,1856.8882674204167,77.6000024832,0.7919993443119999,0.74703002390496,1024,0.0,97,P-GPS,
0.313732495838428,36.8862347955666,26400,2018-03-30 08:02:31,1854.6882673500165,75.4000024128,0.0,0.270223008647136,1856.8882674204167,77.6000024832,0.7919993443119999,0.74703002390496,1024,0.0,97,P-GPS,
0.313732463748311,36.8862347919844,26500,2018-03-30 08:02:31,1854.6882673500165,75.4000024128,0.0,0.270432008653824,1856.8882674204167,77.6000024832,0.7919993443119999,0.74703002390496,1024,0.0,97,P-GPS,
0.31373243651747,36.8862347787948,26600,2018-03-30 08:02:31,1854.6882673500165,75.4000024128,0.0,0.27177400869676804,1856.8882674204167,77.6000024832,0.7919993443119999,0.74703002390496,1024,0.0,97,P-GPS,
0.313732411980076,36.8862347661233,26700,2018-03-30 08:02:31,1854.6882673500165,75.4000024128,0.0,0.27310000873920004,1856.8882674204167,77.6000024832,0.7919993443119999,0.74703002390496,1024,0.0,97,P-GPS,
0.313732367233692,36.8862347688918,26800,2018-03-30 08:02:31,1854.5882673468166,75.3000024096,0.0,0.27271400872684803,1856.8882674204167,77.6000024832,0.7919993443119999,0.74703002390496,1024,0.0,97,P-GPS,
0.313732317520554,36.8862347728701,26900,2018-03-30 08:02:32,1854.5882673468166,75.3000024096,0.0,0.27229000871328,1856.8882674204167,77.6000024832,0.7919993443119999,0.74703002390496,1024,0.0,97,P-GPS,
0.313732204711724,36.8862347837023,27100,2018-03-30 08:02:32,1854.5882673468166,75.3000024096,0.0,0.27154700868950404,1856.8882674204167,77.6000024832,0.7919993443119999,0.74703002390496,1024,0.0,97,P-GPS,
0.313732139427405,36.8862347967978,27200,2018-03-30 08:02:32,1854.5882673468166,75.3000024096,0.0,0.270627008660064,1856.8882674204167,77.6000024832,0.7919993443119999,0.74703002390496,1024,0.0,97,P-GPS,
0.31373207024459,36.8862348202609,27300,2018-03-30 08:02:32,1854.5882673468166,75.3000024096,0.0,0.268812008601984,1856.8882674204167,77.6000024832,0.7919993443119999,0.74703002390496,1024,0.0,97,P-GPS,
0.313731981510676,36.8862348702339,27400,2018-03-30 08:02:32,1854.5882673468166,75.3000024096,0.0,0.26464400846860797,1856.8882674204167,77.6000024832,0.7919993443119999,0.74703002390496,1024,0.0,97,P-GPS,
0.31373189915375,36.88623491628,27500,2018-03-30 08:02:32,1854.5882673468166,75.3000024096,0.0,0.261192008358144,1856.8882674204167,77.6000024832,0.7919993443119999,0.74703002390496,1024,0.0,97,P-GPS,
0.313731821151282,36.8862349528363,27600,2018-03-30 08:02:32,1854.5882673468166,75.3000024096,0.0,0.259037008289184,1856.8882674204167,77.6000024832,0.7919993443119999,0.74703002390496,1024,0.0,97,P-GPS,
0.313731764406523,36.8862349585961,27700,2018-03-30 08:02:33,1854.5882673468166,75.3000024096,0.0,0.259924008317568,1856.8882674204167,77.6000024832,0.7919993443119999,0.74703002390496,1024,-1.7,97,P-GPS,
0.313731680173629,36.8862349433145,27800,2018-03-30 08:02:33,1854.5882673468166,75.3000024096,0.0,0.264061008449952,1856.8882674204167,77.6000024832,0.7919993443119999,0.74703002390496,1024,-3.9,97,P-GPS,
0.31373160245451,36.8862349238812,27900,2018-03-30 08:02:33,1854.5882673468166,75.3000024096,0.0,0.26868500859792,1856.8882674204167,77.6000024832,0.7919993443119999,0.74703002390496,1024,-5.9,97,P-GPS,
0.313731521550156,36.8862349151666,28000,2018-03-30 08:02:33,1854.5882673468166,75.3000024096,0.0,0.272518008720576,1856.8882674204167,77.6000024832,0.7919993443119999,0.74703002390496,1024,-8.1,97,P-GPS,
0.313731449745546,36.8862349111261,28100,2018-03-30 08:02:33,1854.5882673468166,75.3000024096,0.0,0.275741008823712,1856.8882674204167,77.6000024832,0.7919993443119999,0.74703002390496,1024,-10.1,97,P-GPS,
0.313731365366092,36.886234914233,28200,2018-03-30 08:02:33,1854.5882673468166,75.3000024096,0.0,0.27897000892704,1856.8882674204167,77.6000024832,0.7919993443119999,0.74703002390496,1024,-12.0,97,P-GPS,
0.31373128660477,36.8862349109185,28300,2018-03-30 08:02:33,1854.5882673468166,75.3000024096,0.0,0.28286000905152003,1856.8882674204167,77.6000024832,0.7919993443119999,0.74703002390496,1024,-13.9,97,P-GPS,
0.313731188546386,36.8862349089015,28400,2018-03-30 08:02:33,1854.5882673468166,75.3000024096,0.0,0.287793009209376,1856.8882674204167,77.6000024832,0.7919993443119999,0.74703002390496,1024,-15.8,97,P-GPS,
0.313731101722637,36.8862348936584,28500,2018-03-30 08:02:33,1854.5882673468166,75.3000024096,0.0,0.2937500094,1856.8882674204167,77.6000024832,0.7919993443119999,0.74703002390496,1024,-16.5,97,P-GPS,
0.313731018002703,36.8862348782141,28600,2018-03-30 08:02:33,1854.5882673468166,75.3000024096,0.0,0.299756009592192,1856.8882674204167,77.6000024832,0.7919993443119999,0.74703002390496,1024,-16.5,97,P-GPS,
0.313730967849885,36.8862348557702,28700,2018-03-30 08:02:33,1854.5882673468166,75.3000024096,0.0,0.30470500975056003,1856.8882674204167,77.6000024832,0.7919993443119999,0.74703002390496,1024,-16.5,97,P-GPS,
0.313730941824093,36.8862348510061,28800,2018-03-30 08:02:34,1854.5882673468166,75.3000024096,0.0,0.306631009812192,1856.8882674204167,77.6000024832,0.7919993443119999,0.74703002390496,1024,-16.5,97,P-GPS,
0.313730928913789,36.8862348536569,28900,2018-03-30 08:02:34,1854.5882673468166,75.3000024096,0.0,0.30711500982768003,1856.8882674204167,77.6000024832,0.7919993443119999,0.74703002390496,1024,-16.5,97,P-GPS,
0.313730905630296,36.88623488698,29000,2018-03-30 08:02:34,1854.5882673468166,75.3000024096,0.0,0.30529900976956803,1856.8882674204167,77.6000024832,0.7919993443119999,0.74703002390496,1024,-16.5,97,P-GPS,
0.31373087860464,36.8862349180336,29100,2018-03-30 08:02:34,1854.5882673468166,75.3000024096,0.0,0.303976009727232,1856.8882674204167,77.6000024832,0.7919993443119999,0.74703002390496,1024,-16.5,97,P-GPS,
0.31373082491647,36.8862349961952,29200,2018-03-30 08:02:34,1854.5882673468166,75.3000024096,0.0,0.30002500960080003,1856.8882674204167,77.6000024832,0.7919993443119999,0.74703002390496,1024,-16.5,97,P-GPS,
0.313730782839105,36.886235079697,29300,2018-03-30 08:02:34,1854.5882673468166,75.3000024096,0.0,0.29515500944496004,1856.8882674204167,77.6000024832,0.7919993443119999,0.74703002390496,1024,-16.5,97,P-GPS,
0.313730750695249,36.8862351703353,29400,2018-03-30 08:02:34,1854.5882673468166,75.3000024096,0.0,0.28926900925660803,1856.8882674204167,77.6000024832,0.7919993443119999,0.74703002390496,1024,-16.5,97,P-GPS,
0.313730691984958,36.8862352193769,29500,2018-03-30 08:02:34,1854.5882673468166,75.3000024096,0.0,0.28911000925152003,1856.8882674204167,77.6000024832,0.7919993443119999,0.74703002390496,1024,-16.5,97,P-GPS,
0.313730551671709,36.8862352180387,29600,2018-03-30 08:02:34,1854.5882673468166,75.3000024096,0.35999970196000003,0.29941800958137604,1856.8882674204167,77.6000024832,0.7919993443119999,0.74703002390496,1024,-16.5,97,P-GPS,
0.313730310663626,36.8862350969078,29700,2018-03-30 08:02:35,1854.5882673468166,75.3000024096,1.295998927056,0.327532010481024,1856.8882674204167,77.6000024832,1.295998927056,0.74703002390496,1024,-16.5,97,P-GPS,
0.313729898133165,36.8862348003286,29800,2018-03-30 08:02:35,1854.5882673468166,75.3000024096,1.295998927056,0.383233012263456,1856.8882674204167,77.6000024832,1.295998927056,0.74703002390496,1024,-16.5,97,P-GPS,
0.313729322395162,36.8862343146875,29900,2018-03-30 08:02:35,1854.5882673468166,75.3000024096,3.05999746666,0.46678401493708804,1856.8882674204167,77.6000024832,3.05999746666,0.74703002390496,1024,-16.5,97,P-GPS,
0.313728524804462,36.8862336169174,30000,2018-03-30 08:02:35,1854.5882673468166,75.3000024096,4.31999642352,0.584532018705024,1856.8882674204167,77.6000024832,4.31999642352,0.74703002390496,1024,-16.5,97,P-GPS,
0.313727538117217,36.8862327352114,30100,2018-03-30 08:02:35,1854.5882673468166,75.3000024096,5.363995559204,0.731642023412544,1856.8882674204167,77.6000024832,5.363995559204,0.74703002390496,1024,-16.5,97,P-GPS,
0.313726351794136,36.8862316378777,30200,2018-03-30 08:02:35,1854.6882673500165,75.4000024128,5.363995559204,0.9113510291632321,1856.8882674204167,77.6000024832,5.363995559204,0.9113510291632321,1024,-16.5,97,P-GPS,
