latitude,longitude,time_millisecond,datetime_utc,altitude_m,ascent_m,speed_kph,distance_m,max_altitude_m,max_ascent_m,max_speed_kph,max_distance_m,rc_throttle,gimbal_pitch_degrees,battery_percent,flycState,message
0.350064526826365,36.9146468035793,100,2017-11-12 05:49:25,1650.2275919072679,0.0,0.0,0.0,1650.2275919072679,0.0,0.0,0.0,1024,0.0,100,Motors_Started,
0.350064492172109,36.914646774053,200,2017-11-12 05:49:25,1650.2275919072679,0.0,0.0,0.005062850162011199,1650.2275919072679,0.0,0.0,0.005062850162011199,1024,0.0,100,Motors_Started,
0.350064450830038,36.9146467698664,300,2017-11-12 05:49:25,1650.2275919072679,0.0,0.0,0.00924547029585504,1650.2275919072679,0.0,0.0,0.00924547029585504,1024,0.0,100,Motors_Started,
0.350064405545555,36.9146467641118,400,2017-11-12 05:49:25,1650.2275919072679,0.0,0.0,0.014183300453865599,1650.2275919072679,0.0,0.0,0.014183300453865599,1024,0.0,100,Motors_Started,
0.350064353311433,36.9146467819231,500,2017-11-12 05:49:25,1650.2275919072679,0.0,0.0,0.0194456006222592,1650.2275919072679,0.0,0.0,0.0194456006222592,916,0.0,100,Motors_Started,
0.35006430128397,36.9146467902838,600,2017-11-12 05:49:25,1650.2275919072679,0.0,0.0,0.0251252008040064,1650.2275919072679,0.0,0.0,0.0251252008040064,1024,0.0,100,Motors_Started,
0.350064266321838,36.9146467957025,700,2017-11-12 05:49:25,1650.2275919072679,0.0,0.0,0.0289829009274528,1650.2275919072679,0.0,0.0,0.0289829009274528,1024,0.0,100,Motors_Started,
0.350064239948373,36.9146467815506,800,2017-11-12 05:49:26,1650.2275919072679,0.0,0.0,0.031996501023888,1650.2275919072679,0.0,0.0,0.031996501023888,1024,0.0,100,Motors_Started,
0.350064210824619,36.9146467583457,900,2017-11-12 05:49:26,1650.2275919072679,0.0,0.0,0.035499501135984,1650.2275919072679,0.0,0.0,0.035499501135984,1024,0.0,100,Motors_Started,
0.350064174155877,36.9146467286238,1000,2017-11-12 05:49:26,1650.2275919072679,0.0,0.0,0.0400951012830432,1650.2275919072679,0.0,0.0,0.0400951012830432,1024,0.0,100,Motors_Started,
0.350064134658324,36.9146467103695,1100,2017-11-12 05:49:26,1650.2275919072679,0.0,0.0,0.04482630143444161,1650.2275919072679,0.0,0.0,0.04482630143444161,1024,0.0,100,Motors_Started,
0.350064092044692,36.9146466939471,1200,2017-11-12 05:49:26,1650.2275919072679,0.0,0.0,0.0498637015956384,1650.2275919072679,0.0,0.0,0.0498637015956384,1024,0.0,100,Motors_Started,
0.350064064874511,36.9146466736313,1300,2017-11-12 05:49:26,1650.2275919072679,0.0,0.0,0.0533656017076992,1650.2275919072679,0.0,0.0,0.0533656017076992,1024,0.0,100,Motors_Started,
0.350064044833506,36.9146466410278,1400,2017-11-12 05:49:26,1650.2275919072679,0.0,0.0,0.056566501810128,1650.2275919072679,0.0,0.0,0.056566501810128,1024,0.0,100,Motors_Started,
0.350064021206513,36.9146466227366,1500,2017-11-12 05:49:26,1650.2275919072679,0.0,0.0,0.05971620191091841,1650.2275919072679,0.0,0.0,0.05971620191091841,1024,0.0,100,Assisted_Takeoff,
0.350063987903307,36.9146466060149,1600,2017-11-12 05:49:26,1650.2275919072679,0.0,0.0,0.06383160204261121,1650.2275919072679,0.0,0.0,0.06383160204261121,1024,0.0,100,Assisted_Takeoff,
0.350063948845587,36.9146465819482,1700,2017-11-12 05:49:26,1650.2275919072679,0.0,0.0,0.06883830220282561,1650.2275919072679,0.0,0.0,0.06883830220282561,1024,0.0,100,Assisted_Takeoff,
0.350063904949148,36.9146465488643,1800,2017-11-12 05:49:27,1650.2275919072679,0.0,0.0,0.07473250239144001,1650.2275919072679,0.0,0.0,0.07473250239144001,1024,0.0,100,Assisted_Takeoff,
0.350063854840807,36.9146465046907,1900,2017-11-12 05:49:27,1650.2275919072679,0.0,0.0,0.0817872026171904,1650.2275919072679,0.0,0.0,0.0817872026171904,1024,0.0,100,Assisted_Takeoff,
0.350063804199354,36.9146464602841,2000,2017-11-12 05:49:27,1650.2275919072679,0.0,0.0,0.08896740284695681,1650.2275919072679,0.0,0.0,0.08896740284695681,1024,0.0,100,Assisted_Takeoff,
0.35006374868641,36.9146464260854,2100,2017-11-12 05:49:27,1650.2275919072679,0.0,0.0,0.0961787030777184,1650.2275919072679,0.0,0.0,0.0961787030777184,1024,0.0,100,Assisted_Takeoff,
0.350063695000479,36.9146464044681,2200,2017-11-12 05:49:27,1650.2275919072679,0.0,0.0,0.1026000032832,1650.2275919072679,0.0,0.0,0.1026000032832,1024,0.0,100,Assisted_Takeoff,
0.350063637198453,36.9146463966901,2300,2017-11-12 05:49:27,1650.2275919072679,0.0,0.0,0.108788003481216,1650.2275919072679,0.0,0.0,0.108788003481216,1024,0.0,100,Assisted_Takeoff,
0.350063581719503,36.9146463916078,2400,2017-11-12 05:49:27,1650.2275919072679,0.0,0.0,0.11465200366886401,1650.2275919072679,0.0,0.0,0.11465200366886401,1024,0.0,100,Assisted_Takeoff,
0.350063545886305,36.9146464003336,2500,2017-11-12 05:49:27,1650.2275919072679,0.0,0.0,0.117944003774208,1650.2275919072679,0.0,0.0,0.117944003774208,1024,0.0,100,Assisted_Takeoff,
0.350063520010127,36.9146464049493,2600,2017-11-12 05:49:27,1650.2275919072679,0.0,0.0,0.12042000385344,1650.2275919072679,0.0,0.0,0.12042000385344,1024,0.0,100,Assisted_Takeoff,
0.350063494133236,36.9146464192059,2700,2017-11-12 05:49:27,1650.2275919072679,0.0,0.0,0.122538003921216,1650.2275919072679,0.0,0.0,0.122538003921216,1024,0.0,100,Assisted_Takeoff,
0.350063458704808,36.9146464289228,2800,2017-11-12 05:49:28,1650.2275919072679,0.0,0.0,0.125877004028064,1650.2275919072679,0.0,0.0,0.125877004028064,1024,0.0,100,Assisted_Takeoff,
0.350063420634434,36.9146464453215,2900,2017-11-12 05:49:28,1650.2275919072679,0.0,0.0,0.129306004137792,1650.2275919072679,0.0,0.0,0.129306004137792,1024,0.0,100,Assisted_Takeoff,
0.350063376421975,36.9146464568981,3000,2017-11-12 05:49:28,1650.2275919072679,0.0,0.0,0.13361500427568002,1650.2275919072679,0.0,0.0,0.13361500427568002,1024,0.0,100,Assisted_Takeoff,
0.350063349834574,36.9146464716921,3100,2017-11-12 05:49:28,1650.2275919072679,0.0,0.0,0.13599300435177603,1650.2275919072679,0.0,0.0,0.13599300435177603,1024,0.0,100,Assisted_Takeoff,
0.350063329815908,36.9146464825642,3200,2017-11-12 05:49:28,1650.2275919072679,0.0,0.0,0.137818004410176,1650.2275919072679,0.0,0.0,0.137818004410176,1024,0.0,100,Assisted_Takeoff,
0.350063329572659,36.9146464939371,3300,2017-11-12 05:49:28,1650.2275919072679,0.0,0.0,0.137522004400704,1650.2275919072679,0.0,0.0,0.137818004410176,1024,0.0,100,Assisted_Takeoff,
0.350063326025501,36.9146465031436,3400,2017-11-12 05:49:28,1650.2275919072679,0.0,0.0,0.137652004404864,1650.2275919072679,0.0,0.0,0.137818004410176,1024,0.0,100,Assisted_Takeoff,
0.350063320097456,36.9146465107509,3500,2017-11-12 05:49:28,1650.2275919072679,0.0,0.0,0.13809000441888,1650.2275919072679,0.0,0.0,0.13809000441888,1024,0.0,100,Assisted_Takeoff,
0.350063296061928,36.9146465179192,3600,2017-11-12 05:49:28,1650.2275919072679,0.0,0.0,0.14050700449622402,1650.2275919072679,0.0,0.0,0.14050700449622402,1024,0.0,100,Assisted_Takeoff,
0.350063285699732,36.9146465220812,3700,2017-11-12 05:49:28,1650.2275919072679,0.0,0.0,0.14152600452883202,1650.2275919072679,0.0,0.0,0.14152600452883202,1024,0.0,100,Assisted_Takeoff,
0.350063275815993,36.9146465276222,3800,2017-11-12 05:49:29,1650.2275919072679,0.0,0.0,0.142464004558848,1650.2275919072679,0.0,0.0,0.142464004558848,1024,0.0,100,Assisted_Takeoff,
0.350063258834681,36.9146465302184,3900,2017-11-12 05:49:29,1650.2275919072679,0.0,0.0,0.144248004615936,1650.2275919072679,0.0,0.0,0.144248004615936,1024,0.0,100,Assisted_Takeoff,
0.350063228131082,36.9146465343607,4000,2017-11-12 05:49:29,1650.2275919072679,0.0,0.0,0.147493004719776,1650.2275919072679,0.0,0.0,0.147493004719776,1024,0.0,100,Assisted_Takeoff,
0.350063188543608,36.9146465347608,4100,2017-11-12 05:49:29,1650.2275919072679,0.0,0.0,0.151798004857536,1650.2275919072679,0.0,0.0,0.151798004857536,1024,0.0,100,Assisted_Takeoff,
0.350063143993858,36.9146465376798,4200,2017-11-12 05:49:29,1650.2275919072679,0.0,0.0,0.15659600501107201,1650.2275919072679,0.0,0.0,0.15659600501107201,1024,0.0,100,Assisted_Takeoff,
0.350063090246657,36.914646536431,4300,2017-11-12 05:49:29,1650.2275919072679,0.0,0.0,0.16249500519984,1650.2275919072679,0.0,0.0,0.16249500519984,1024,0.0,100,Assisted_Takeoff,
0.350063036662911,36.9146465381758,4400,2017-11-12 05:49:29,1650.2275919072679,0.0,0.0,0.16832300538633602,1650.2275919072679,0.0,0.0,0.16832300538633602,1024,0.0,100,Assisted_Takeoff,
0.350062975630255,36.9146465358108,4500,2017-11-12 05:49:29,1650.2275919072679,0.0,0.0,0.175054005601728,1650.2275919072679,0.0,0.0,0.175054005601728,1024,0.0,100,Assisted_Takeoff,
0.350062917420506,36.9146465374151,4600,2017-11-12 05:49:29,1650.2275919072679,0.0,0.0,0.181407005805024,1650.2275919072679,0.0,0.0,0.181407005805024,1024,0.0,100,Assisted_Takeoff,
0.350062853903048,36.9146465349666,4700,2017-11-12 05:49:29,1650.2275919072679,0.0,0.0,0.188422006029504,1650.2275919072679,0.0,0.0,0.188422006029504,1024,0.0,100,Assisted_Takeoff,
0.35006279403819,36.9146465356202,4800,2017-11-12 05:49:30,1650.2275919072679,0.0,0.0,0.194987006239584,1650.2275919072679,0.0,0.0,0.194987006239584,1024,0.0,100,Assisted_Takeoff,
0.350062750389174,36.9146465317216,4900,2017-11-12 05:49:30,1650.2275919072679,0.0,0.0,0.19985000639520004,1650.2275919072679,0.0,0.0,0.19985000639520004,1024,0.0,100,Assisted_Takeoff,
0.350062720126985,36.9146465315361,5000,2017-11-12 05:49:30,1650.2275919072679,0.0,0.0,0.20318100650179202,1650.2275919072679,0.0,0.0,0.20318100650179202,1024,0.0,100,Assisted_Takeoff,
0.350062691172233,36.9146465271854,5100,2017-11-12 05:49:30,1650.2275919072679,0.0,0.0,0.20643700660598402,1650.2275919072679,0.0,0.0,0.20643700660598402,1024,0.0,100,Assisted_Takeoff,
0.35006265034592,36.9146465266016,5200,2017-11-12 05:49:30,1650.2275919072679,0.0,0.0,0.21093700674998403,1650.2275919072679,0.0,0.0,0.21093700674998403,1024,0.0,100,Assisted_Takeoff,
0.350062628335261,36.9146465427463,5300,2017-11-12 05:49:30,1650.2275919072679,0.0,0.0,0.21310700681942402,1650.2275919072679,0.0,0.0,0.21310700681942402,1024,0.0,100,Assisted_Takeoff,
0.350062611991179,36.9146465723167,5400,2017-11-12 05:49:30,1650.2275919072679,0.0,0.0,0.214489006863648,1650.2275919072679,0.0,0.0,0.214489006863648,1024,0.0,100,Assisted_Takeoff,
0.350062617176145,36.9146466016029,5500,2017-11-12 05:49:30,1650.2275919072679,0.0,0.0,0.213549006833568,1650.2275919072679,0.0,0.0,0.214489006863648,1024,0.0,100,Assisted_Takeoff,
0.350062614330235,36.9146466218788,5600,2017-11-12 05:49:30,1650.2275919072679,0.0,0.0,0.21363900683644801,1650.2275919072679,0.0,0.0,0.214489006863648,1025,0.0,100,Assisted_Takeoff,
0.350062609076875,36.9146466373966,5700,2017-11-12 05:49:30,1650.2275919072679,0.0,0.0,0.21406500685008,1650.2275919072679,0.0,0.0,0.214489006863648,1031,0.0,100,Assisted_Takeoff,
0.350062585157272,36.914646649309,5800,2017-11-12 05:49:31,1650.2275919072679,0.0,0.0,0.216606006931392,1650.2275919072679,0.0,0.0,0.216606006931392,1027,0.0,100,Assisted_Takeoff,
0.350062555475826,36.9146466541806,5900,2017-11-12 05:49:31,1650.2275919072679,0.0,0.0,0.21985500703536,1650.2275919072679,0.0,0.0,0.21985500703536,1024,0.0,100,Assisted_Takeoff,
0.350062514670277,36.9146466601482,6000,2017-11-12 05:49:31,1650.2275919072679,0.0,0.0,0.22433200717862403,1650.2275919072679,0.0,0.0,0.22433200717862403,1024,0.0,100,Assisted_Takeoff,
0.350062467137218,36.9146466596729,6100,2017-11-12 05:49:31,1650.2275919072679,0.0,0.0,0.229608007347456,1650.2275919072679,0.0,0.0,0.229608007347456,1024,0.0,100,Assisted_Takeoff,
0.350062416540445,36.9146466612957,6200,2017-11-12 05:49:31,1650.2275919072679,0.0,0.0,0.23520900752668802,1650.2275919072679,0.0,0.0,0.23520900752668802,1024,0.0,100,Assisted_Takeoff,
0.350062378815708,36.914646656768,6300,2017-11-12 05:49:31,1650.2275919072679,0.0,0.0,0.239429007661728,1650.2275919072679,0.0,0.0,0.239429007661728,1036,0.0,100,Assisted_Takeoff,
0.350062351806539,36.9146466560986,6400,2017-11-12 05:49:31,1650.2275919072679,0.0,0.0,0.242431007757792,1650.2275919072679,0.0,0.0,0.242431007757792,1066,0.0,100,Assisted_Takeoff,
0.350062322566199,36.914646650498,6500,2017-11-12 05:49:31,1650.2275919072679,0.0,0.0,0.245718007862976,1650.2275919072679,0.0,0.0,0.245718007862976,1102,0.0,100,Assisted_Takeoff,
0.350062282566525,36.9146466491782,6600,2017-11-12 05:49:31,1650.2275919072679,0.0,0.0,0.25016500800528,1650.2275919072679,0.0,0.0,0.25016500800528,1137,0.0,100,Assisted_Takeoff,
0.35006223912656,36.9146466443267,6700,2017-11-12 05:49:31,1650.2275919072679,0.0,0.0,0.25502200816070403,1650.2275919072679,0.0,0.0,0.25502200816070403,1192,0.0,100,Assisted_Takeoff,
0.35006219113367,36.9146466433286,6800,2017-11-12 05:49:32,1650.2275919072679,0.0,0.0,0.26035400833132805,1650.2275919072679,0.0,0.0,0.26035400833132805,1251,0.0,100,Assisted_Takeoff,
0.350062139830152,36.9146466393205,6900,2017-11-12 05:49:32,1650.2275919072679,0.0,0.0,0.266076008514432,1650.2275919072679,0.0,0.0,0.266076008514432,1310,0.0,100,Assisted_Takeoff,
0.350062087035184,36.9146466401735,7000,2017-11-12 05:49:32,1650.2275919072679,0.0,0.0,0.27192700870166403,1650.2275919072679,0.0,0.0,0.27192700870166403,1384,0.0,100,Assisted_Takeoff,
0.350062011976129,36.9146466411097,7100,2017-11-12 05:49:32,1650.2275919072679,0.0,0.0,0.280250008968,1650.2275919072679,0.0,0.0,0.280250008968,1441,0.0,100,Assisted_Takeoff,
0.350061926343994,36.9146466703319,7200,2017-11-12 05:49:32,1650.2275919072679,0.0,0.0,0.289569009266208,1650.2275919072679,0.0,0.0,0.289569009266208,1512,0.0,100,Assisted_Takeoff,
0.350061834967727,36.9146467573675,7300,2017-11-12 05:49:32,1650.2275919072679,0.0,0.35999970196000003,0.29939500958064,1650.2275919072679,0.0,0.35999970196000003,0.29939500958064,1568,0.0,100,GPS_Atti,Obstacle Avoided. Revise Flight Route
0.350061749551768,36.9146468931799,7400,2017-11-12 05:49:32,1650.2275919072679,0.0,0.35999970196000003,0.309011009888352,1650.2275919072679,0.0,0.35999970196000003,0.309011009888352,1623,0.0,100,GPS_Atti,
0.350061661340381,36.9146470302991,7500,2017-11-12 05:49:32,1650.2275919072679,0.0,0.35999970196000003,0.31965501022896,1650.2275919072679,0.0,0.35999970196000003,0.31965501022896,1655,0.0,100,GPS_Atti,
0.350061590495333,36.9146471359634,7600,2017-11-12 05:49:32,1650.327591910468,0.1000000032,0.35999970196000003,0.328623010515936,1650.327591910468,0.1000000032,0.35999970196000003,0.328623010515936,1663,0.0,100,GPS_Atti,
0.35006155580459,36.9146472025936,7700,2017-11-12 05:49:32,1650.427591913668,0.2000000064,0.0,0.33336201066758403,1650.427591913668,0.2000000064,0.35999970196000003,0.33336201066758403,1664,0.0,100,GPS_Atti,
0.350061549001155,36.914647230657,7800,2017-11-12 05:49:33,1650.6275919200677,0.4000000128,0.0,0.334541010705312,1650.6275919200677,0.4000000128,0.35999970196000003,0.334541010705312,1657,0.0,100,GPS_Atti,
0.350061587959845,36.9146472141656,7900,2017-11-12 05:49:33,1650.827591926468,0.6000000192,0.0,0.329994010559808,1650.827591926468,0.6000000192,0.35999970196000003,0.334541010705312,1639,0.0,100,GPS_Atti,
0.35006164117882,36.9146471594534,8000,2017-11-12 05:49:33,1651.127591936068,0.9000000288000001,0.0,0.323333010346656,1651.127591936068,0.9000000288000001,0.35999970196000003,0.334541010705312,1635,0.0,100,GPS_Atti,Setting new Return-To-Home altitude to 30m (98 ft). Setting new Maximum Flight Altitude to 150m (492 ft)
0.350061746378745,36.9146470339162,8100,2017-11-12 05:49:33,1651.4275919456677,1.2000000384,0.0,0.31026200992838404,1651.4275919456677,1.2000000384,0.35999970196000003,0.334541010705312,1606,0.0,100,GPS_Atti,Home Point Recorded. RTH Altitude:  30m.
0.350061847122026,36.9146468717967,8200,2017-11-12 05:49:33,1651.8275919584678,1.6000000512,0.35999970196000003,0.298096009539072,1651.8275919584678,1.6000000512,0.35999970196000003,0.334541010705312,1601,0.0,100,GPS_Atti,
0.350062006292656,36.9146466655664,8300,2017-11-12 05:49:33,1652.2275919712679,2.000000064,0.35999970196000003,0.280719008983008,1652.2275919712679,2.000000064,0.35999970196000003,0.334541010705312,1602,0.0,100,GPS_Atti,
0.350062152357568,36.914646465695,8400,2017-11-12 05:49:33,1652.627591984068,2.4000000768,0.35999970196000003,0.26671500853488,1652.627591984068,2.4000000768,0.35999970196000003,0.334541010705312,1605,0.0,100,GPS_Atti,
0.350062381393128,36.9146462533101,8500,2017-11-12 05:49:33,1653.027591996868,2.8000000896,0.0,0.246308007881856,1653.027591996868,2.8000000896,0.35999970196000003,0.334541010705312,1595,0.0,100,GPS_Atti,
0.350062603777511,36.9146460537458,8600,2017-11-12 05:49:33,1653.527592012868,3.3000001056,0.0,0.229536007345152,1653.527592012868,3.3000001056,0.35999970196000003,0.334541010705312,1594,0.0,100,GPS_Atti,
0.350062894848644,36.9146458532966,8700,2017-11-12 05:49:33,1653.927592025668,3.7000001184,0.35999970196000003,0.21001000672032002,1653.927592025668,3.7000001184,0.35999970196000003,0.334541010705312,1597,0.0,100,GPS_Atti,
0.350063162709158,36.9146456837187,8800,2017-11-12 05:49:34,1654.4275920416678,4.200000134400001,0.35999970196000003,0.196267006280544,1654.4275920416678,4.200000134400001,0.35999970196000003,0.334541010705312,1612,0.0,100,GPS_Atti,
0.350063450684212,36.9146455008889,8900,2017-11-12 05:49:34,1654.827592054468,4.6000001472,0.0,0.187903006012896,1654.827592054468,4.6000001472,0.35999970196000003,0.334541010705312,1621,0.0,100,GPS_Atti,
0.350063646890951,36.9146453207999,9000,2017-11-12 05:49:34,1655.2275920672678,5.00000016,0.0,0.191741006135712,1655.2275920672678,5.00000016,0.35999970196000003,0.334541010705312,1631,0.0,100,GPS_Atti,
0.350063829732542,36.9146451541804,9100,2017-11-12 05:49:34,1655.727592083268,5.5000001759999995,0.0,0.19912900637212802,1655.727592083268,5.5000001759999995,0.35999970196000003,0.334541010705312,1627,0.0,100,GPS_Atti,
0.350063965661917,36.9146450149012,9200,2017-11-12 05:49:34,1656.127592096068,5.9000001888,0.0,0.208468006670976,1656.127592096068,5.9000001888,0.35999970196000003,0.334541010705312,1621,0.0,100,GPS_Atti,
0.350064069566008,36.9146448793892,9300,2017-11-12 05:49:34,1656.527592108868,6.3000002016,0.0,0.21993700703798402,1656.527592108868,6.3000002016,0.35999970196000003,0.334541010705312,1626,0.0,100,GPS_Atti,
0.350064120005432,36.9146447370114,9400,2017-11-12 05:49:34,1656.9275921216679,6.7000002144,0.0,0.234221007495072,1656.9275921216679,6.7000002144,0.35999970196000003,0.334541010705312,1634,0.0,100,GPS_Atti,
0.350064148802225,36.9146445575179,9500,2017-11-12 05:49:34,1657.427592137668,7.200000230400001,0.35999970196000003,0.253284008105088,1657.427592137668,7.200000230400001,0.35999970196000003,0.334541010705312,1635,0.0,100,GPS_Atti,
0.350064191991562,36.9146443624515,9600,2017-11-12 05:49:34,1657.8275921504678,7.600000243200001,0.35999970196000003,0.27400500876816003,1657.8275921504678,7.600000243200001,0.35999970196000003,0.334541010705312,1637,0.0,100,GPS_Atti,
0.350064249709877,36.9146441669954,9700,2017-11-12 05:49:34,1658.227592163268,8.000000256,0.5075995797636,0.294814009434048,1658.227592163268,8.000000256,0.5075995797636,0.334541010705312,1669,0.0,100,GPS_Atti,
0.350064331840857,36.9146439926096,9800,2017-11-12 05:49:35,1658.7275921792677,8.500000272,0.35999970196000003,0.313342010026944,1658.7275921792677,8.500000272,0.5075995797636,0.334541010705312,1684,0.0,100,GPS_Atti,
0.350064392706394,36.9146438403594,9900,2017-11-12 05:49:35,1659.127592192068,8.9000002848,0.35999970196000003,0.32985901055548805,1659.127592192068,8.9000002848,0.5075995797636,0.334541010705312,1684,0.0,100,GPS_Atti,
0.350064442285796,36.9146437265164,10000,2017-11-12 05:49:35,1659.6275922080679,9.4000003008,0.0,0.342311010953952,1659.6275922080679,9.4000003008,0.5075995797636,0.342311010953952,1684,0.0,100,GPS_Atti,
0.350064455667688,36.9146436300008,10100,2017-11-12 05:49:35,1660.027592220868,9.8000003136,0.0,0.353003011296096,1660.027592220868,9.8000003136,0.5075995797636,0.353003011296096,1684,0.0,100,GPS_Atti,
0.350064457222953,36.9146435491056,10200,2017-11-12 05:49:35,1660.5275922368678,10.3000003296,0.0,0.36199301158377606,1660.5275922368678,10.3000003296,0.5075995797636,0.36199301158377606,1684,0.0,100,GPS_Atti,
0.35006441338636,36.9146434811626,10300,2017-11-12 05:49:35,1661.0275922528679,10.8000003456,0.0,0.369681011829792,1661.0275922528679,10.8000003456,0.5075995797636,0.369681011829792,1684,0.0,100,GPS_Atti,
0.350064352275234,36.9146434315213,10400,2017-11-12 05:49:35,1661.527592268868,11.3000003616,0.0,0.375488012015616,1661.527592268868,11.3000003616,0.5075995797636,0.375488012015616,1684,0.0,100,GPS_Atti,
0.350064231606821,36.914643405159,10500,2017-11-12 05:49:35,1662.027592284868,11.8000003776,0.0,0.379341012138912,1662.027592284868,11.8000003776,0.5075995797636,0.379341012138912,1684,0.0,100,GPS_Atti,
0.350064099036722,36.9146434184609,10600,2017-11-12 05:49:35,1662.5275923008678,12.300000393600001,0.0,0.37943301214185604,1662.5275923008678,12.300000393600001,0.5075995797636,0.37943301214185604,1684,0.0,100,GPS_Atti,
0.350063950661912,36.9146434820705,10700,2017-11-12 05:49:35,1663.027592316868,12.8000004096,0.35999970196000003,0.37488101199619206,1663.027592316868,12.8000004096,0.5075995797636,0.37943301214185604,1684,0.0,100,GPS_Atti,
0.350063819769518,36.9146435569446,10800,2017-11-12 05:49:36,1663.527592332868,13.3000004256,0.35999970196000003,0.36950201182406406,1663.527592332868,13.3000004256,0.5075995797636,0.37943301214185604,1684,0.0,100,GPS_Atti,
0.350063669881324,36.9146436100194,10900,2017-11-12 05:49:36,1664.0275923488678,13.800000441600002,0.35999970196000003,0.367701011766432,1664.0275923488678,13.800000441600002,0.5075995797636,0.37943301214185604,1684,0.0,100,GPS_Atti,
0.350063514197498,36.9146436288906,11000,2017-11-12 05:49:36,1664.527592364868,14.300000457600001,0.0,0.37056301185801604,1664.527592364868,14.300000457600001,0.5075995797636,0.37943301214185604,1684,0.0,100,GPS_Atti,
0.350063340604859,36.9146436261477,11100,2017-11-12 05:49:36,1665.0275923808679,14.8000004736,0.0,0.37716401206924804,1665.0275923808679,14.8000004736,0.5075995797636,0.37943301214185604,1684,0.0,100,GPS_Atti,
0.350063161667158,36.9146436197106,11200,2017-11-12 05:49:36,1665.527592396868,15.3000004896,0.0,0.385234012327488,1665.527592396868,15.3000004896,0.5075995797636,0.385234012327488,1684,0.0,100,GPS_Atti,
0.350062964227687,36.9146436395438,11300,2017-11-12 05:49:36,1666.027592412868,15.8000005056,0.0,0.39242501255760004,1666.027592412868,15.8000005056,0.5075995797636,0.39242501255760004,1684,0.0,100,GPS_Atti,
0.350062747060024,36.9146436809424,11400,2017-11-12 05:49:36,1666.6275924320678,16.400000524800003,0.0,0.39969401279020805,1666.6275924320678,16.400000524800003,0.5075995797636,0.39969401279020805,1684,0.0,100,GPS_Atti,
0.350062498114701,36.9146437394232,11500,2017-11-12 05:49:36,1667.1275924480678,16.9000005408,0.0,0.408663013077216,1667.1275924480678,16.9000005408,0.5075995797636,0.408663013077216,1684,-0.9,100,GPS_Atti,
0.350062213836418,36.914643821683,11600,2017-11-12 05:49:36,1667.627592464068,17.400000556800002,0.0,0.419666013429312,1667.627592464068,17.400000556800002,0.5075995797636,0.419666013429312,1684,-2.0,100,GPS_Atti,
0.350061884736232,36.9146439168683,11700,2017-11-12 05:49:36,1668.127592480068,17.9000005728,0.0,0.435176013925632,1668.127592480068,17.9000005728,0.5075995797636,0.435176013925632,1684,-2.9,100,GPS_Atti,
0.350061534492126,36.9146440178623,11800,2017-11-12 05:49:37,1668.6275924960678,18.4000005888,0.35999970196000003,0.454641014548512,1668.6275924960678,18.4000005888,0.5075995797636,0.454641014548512,1684,-3.5,100,GPS_Atti,
0.350061141593982,36.9146441380406,11900,2017-11-12 05:49:37,1669.127592512068,18.900000604800002,0.35999970196000003,0.47915001533280005,1669.127592512068,18.900000604800002,0.5075995797636,0.47915001533280005,1684,-3.6,100,GPS_Atti,
0.350060745593856,36.9146442637203,12000,2017-11-12 05:49:37,1669.627592528068,19.4000006208,0.35999970196000003,0.506548016209536,1669.627592528068,19.4000006208,0.5075995797636,0.506548016209536,1684,-3.6,99,GPS_Atti,
0.350060354293013,36.9146444046724,12100,2017-11-12 05:49:37,1670.2275925472682,20.00000064,0.35999970196000003,0.5352300171273601,1670.2275925472682,20.00000064,0.5075995797636,0.5352300171273601,1684,-3.6,99,GPS_Atti,
0.350059992190577,36.9146445378742,12200,2017-11-12 05:49:37,1670.727592563268,20.500000656,0.35999970196000003,0.563719018039008,1670.727592563268,20.500000656,0.5075995797636,0.563719018039008,1684,-3.6,99,GPS_Atti,
0.350059608312588,36.9146446566921,12300,2017-11-12 05:49:37,1671.2275925792678,21.000000672,0.35999970196000003,0.5968020190976641,1671.2275925792678,21.000000672,0.5075995797636,0.5968020190976641,1684,-3.6,99,GPS_Atti,
0.350059230788788,36.914644750503,12400,2017-11-12 05:49:37,1671.7275925952679,21.500000688,0.35999970196000003,0.6316560202129919,1671.7275925952679,21.500000688,0.5075995797636,0.6316560202129919,1684,-3.6,99,GPS_Atti,
0.350058822300125,36.9146448540782,12500,2017-11-12 05:49:37,1672.227592611268,22.000000703999998,0.35999970196000003,0.6703990214527681,1672.227592611268,22.000000703999998,0.5075995797636,0.6703990214527681,1684,-3.6,99,GPS_Atti,
0.350058431756915,36.9146449602157,12600,2017-11-12 05:49:37,1672.727592627268,22.50000072,0.35999970196000003,0.7081280226600961,1672.727592627268,22.50000072,0.5075995797636,0.7081280226600961,1684,-3.6,99,GPS_Atti,
0.350058034430829,36.9146450710114,12700,2017-11-12 05:49:37,1673.2275926432678,23.000000736000004,0.35999970196000003,0.747259023912288,1673.2275926432678,23.000000736000004,0.5075995797636,0.747259023912288,1684,-3.6,99,GPS_Atti,
0.35005767952123,36.9146451631942,12800,2017-11-12 05:49:38,1673.727592659268,23.500000752000002,0.35999970196000003,0.7830070250562241,1673.727592659268,23.500000752000002,0.5075995797636,0.7830070250562241,1684,-3.6,99,GPS_Atti,
0.350057318386905,36.9146452765428,12900,2017-11-12 05:49:38,1674.227592675268,24.000000768000003,0.0,0.819411026221152,1674.227592675268,24.000000768000003,0.5075995797636,0.819411026221152,1684,-3.7,99,GPS_Atti,
0.350056998787672,36.9146453882574,13000,2017-11-12 05:49:38,1674.7275926912678,24.500000784,0.0,0.85183002725856,1674.7275926912678,24.500000784,0.5075995797636,0.85183002725856,1684,-3.8,99,GPS_Atti,
0.350056681205267,36.9146455058807,13100,2017-11-12 05:49:38,1675.227592707268,25.000000800000002,0.0,0.88433502829872,1675.227592707268,25.000000800000002,0.5075995797636,0.88433502829872,1684,-4.0,99,GPS_Atti,
0.350056403426104,36.9146456090756,13200,2017-11-12 05:49:38,1675.8275927264679,25.6000008192,0.0,0.91308502921872,1675.8275927264679,25.6000008192,0.5075995797636,0.91308502921872,1684,-4.1,99,GPS_Atti,
0.350056121548962,36.9146457465773,13300,2017-11-12 05:49:38,1676.327592742468,26.100000835200003,0.0,0.94208003014656,1676.327592742468,26.100000835200003,0.5075995797636,0.94208003014656,1684,-4.3,99,GPS_Atti,
0.350055873646047,36.9146458824584,13400,2017-11-12 05:49:38,1676.827592758468,26.6000008512,0.0,0.9677230309671361,1676.827592758468,26.6000008512,0.5075995797636,0.9677230309671361,1684,-4.4,99,GPS_Atti,
0.350055622162183,36.9146460203819,13500,2017-11-12 05:49:38,1677.3275927744678,27.100000867200002,0.0,0.994076031810432,1677.3275927744678,27.100000867200002,0.5075995797636,0.994076031810432,1684,-4.6,99,GPS_Atti,
0.350055396620247,36.914646127875,13600,2017-11-12 05:49:38,1677.927592793668,27.7000008864,0.0,1.01811003257952,1677.927592793668,27.7000008864,0.5075995797636,1.01811003257952,1684,-4.7,99,GPS_Atti,
0.350055191074789,36.9146462267832,13700,2017-11-12 05:49:38,1678.4275928096679,28.200000902400003,0.0,1.04017003328544,1678.4275928096679,28.200000902400003,0.5075995797636,1.04017003328544,1684,-4.9,99,GPS_Atti,
0.350055016800341,36.9146463579059,13800,2017-11-12 05:49:39,1678.927592825668,28.7000009184,0.0,1.05873003387936,1678.927592825668,28.7000009184,0.5075995797636,1.05873003387936,1684,-5.0,99,GPS_Atti,
0.350054794558446,36.9146465704865,13900,2017-11-12 05:49:39,1679.427592841668,29.200000934400002,0.0,1.0826000346432,1679.427592841668,29.200000934400002,0.5075995797636,1.0826000346432,1684,-5.1,99,GPS_Atti,
0.350054588118972,36.9146466991123,14000,2017-11-12 05:49:39,1680.0275928608678,29.8000009536,0.0,1.1053100353699201,1680.0275928608678,29.8000009536,0.5075995797636,1.1053100353699201,1684,-5.3,99,GPS_Atti,
0.350054379054447,36.9146468266323,14100,2017-11-12 05:49:39,1680.5275928768679,30.300000969600003,0.0,1.1285000361120001,1680.5275928768679,30.300000969600003,0.5075995797636,1.1285000361120001,1684,-5.4,99,GPS_Atti,
0.350054206951529,36.9146469230451,14200,2017-11-12 05:49:39,1681.027592892868,30.8000009856,0.0,1.1477100367267201,1681.027592892868,30.8000009856,0.5075995797636,1.1477100367267201,1684,-5.4,99,GPS_Atti,
0.350054060575583,36.9146470009341,14300,2017-11-12 05:49:39,1681.627592912068,31.400001004800004,0.0,1.16412003725184,1681.627592912068,31.400001004800004,0.5075995797636,1.16412003725184,1684,-5.6,99,GPS_Atti,
0.350053905116177,36.9146471288732,14400,2017-11-12 05:49:39,1682.127592928068,31.9000010208,0.0,1.181750037816,1682.127592928068,31.9000010208,0.5075995797636,1.181750037816,1684,-5.7,99,GPS_Atti,
0.350053775908102,36.9146472670413,14500,2017-11-12 05:49:39,1682.627592944068,32.4000010368,0.0,1.1966800382937601,1682.627592944068,32.4000010368,0.5075995797636,1.1966800382937601,1684,-5.8,99,GPS_Atti,
0.350053679492004,36.9146473893148,14600,2017-11-12 05:49:39,1683.127592960068,32.9000010528,0.0,1.2080500386576,1683.127592960068,32.9000010528,0.5075995797636,1.2080500386576,1684,-6.0,99,GPS_Atti,
0.350053580108067,36.9146475190362,14700,2017-11-12 05:49:39,1683.6275929760682,33.4000010688,0.0,1.2199400390380801,1683.6275929760682,33.4000010688,0.5075995797636,1.2199400390380801,1684,-6.1,99,GPS_Atti,
0.350053509686821,36.9146476196082,14800,2017-11-12 05:49:40,1684.227592995268,34.000001088,0.0,1.2285300393129601,1684.227592995268,34.000001088,0.5075995797636,1.2285300393129601,1684,-6.2,99,GPS_Atti,
0.350053455148603,36.9146477257572,14900,2017-11-12 05:49:40,1684.7275930112678,34.500001104,0.0,1.235500039536,1684.7275930112678,34.500001104,0.5075995797636,1.235500039536,1684,-6.4,99,GPS_Atti,
0.350053443746238,36.9146478189469,15000,2017-11-12 05:49:40,1685.227593027268,35.00000112,0.0,1.23767003960544,1685.227593027268,35.00000112,0.5075995797636,1.23767003960544,1684,-6.5,99,GPS_Atti,
0.350053443785321,36.9146479345577,15100,2017-11-12 05:49:40,1685.727593043268,35.500001136,0.0,1.2389000396448,1685.727593043268,35.500001136,0.5075995797636,1.2389000396448,1684,-6.7,99,GPS_Atti,
0.350053451825763,36.9146480556935,15200,2017-11-12 05:49:40,1686.2275930592677,36.000001152,0.35999970196000003,1.2394500396624002,1686.2275930592677,36.000001152,0.5075995797636,1.2394500396624002,1684,-6.8,99,GPS_Atti,
0.35005349230481,36.9146482026364,15300,2017-11-12 05:49:40,1686.727593075268,36.500001168000004,0.35999970196000003,1.23693003958176,1686.727593075268,36.500001168000004,0.5075995797636,1.2394500396624002,1684,-6.9,99,GPS_Atti,
0.350053584902206,36.9146483615833,15400,2017-11-12 05:49:40,1687.2275930912679,37.000001184000006,0.5075995797636,1.22908003933056,1687.2275930912679,37.000001184000006,0.5075995797636,1.2394500396624002,1684,-7.1,99,GPS_Atti,
0.350053718799386,36.914648604152,15500,2017-11-12 05:49:40,1687.827593110468,37.6000012032,0.8063993323904,1.2184800389913601,1687.827593110468,37.6000012032,0.8063993323904,1.2394500396624002,1684,-7.2,99,GPS_Atti,
0.350053881659256,36.9146488976501,15600,2017-11-12 05:49:40,1688.327593126468,38.1000012192,1.0187991565468,1.20649003860768,1688.327593126468,38.1000012192,1.0187991565468,1.2394500396624002,1684,-7.3,99,GPS_Atti,
0.350054077588752,36.9146492387965,15700,2017-11-12 05:49:40,1688.827593142468,38.600001235200004,1.2995989240756,1.19316003818112,1688.827593142468,38.600001235200004,1.2995989240756,1.2394500396624002,1684,-7.3,99,GPS_Atti,
0.350054344822111,36.9146496108325,15800,2017-11-12 05:49:41,1689.3275931584678,39.100001251200005,1.5263987363104,1.1745500375856,1689.3275931584678,39.100001251200005,1.5263987363104,1.2394500396624002,1684,-7.4,99,GPS_Atti,
0.35005466927655,36.9146500619089,15900,2017-11-12 05:49:41,1689.8275931744681,39.60000126720001,1.7999985098000002,1.1545500369456,1689.8275931744681,39.60000126720001,1.7999985098000002,1.2394500396624002,1684,-7.6,99,GPS_Atti,
0.350055006579412,36.914650566857,16000,2017-11-12 05:49:41,1690.327593190468,40.10000128320001,1.7999985098000002,1.1384200364294401,1690.327593190468,40.10000128320001,1.7999985098000002,1.2394500396624002,1684,-7.7,99,GPS_Atti,
0.350055407945261,36.9146511451359,16100,2017-11-12 05:49:41,1690.8275932064678,40.6000012992,2.303998092544,1.1231400359404802,1690.8275932064678,40.6000012992,2.303998092544,1.2394500396624002,1684,-7.8,99,GPS_Atti,
0.350055847403672,36.9146517539986,16200,2017-11-12 05:49:41,1691.427593225668,41.2000013184,2.303998092544,1.11116003555712,1691.427593225668,41.2000013184,2.303998092544,1.2394500396624002,1684,-7.9,99,GPS_Atti,
0.350056363415235,36.9146524263687,16300,2017-11-12 05:49:41,1691.827593238468,41.600001331200005,2.8115976723076,1.10232003527424,1691.827593238468,41.600001331200005,2.8115976723076,1.2394500396624002,1684,-8.1,99,GPS_Atti,
0.350056926978991,36.9146531276246,16400,2017-11-12 05:49:41,1692.327593254468,42.100001347200006,3.3191972520712003,1.09948003518336,1692.327593254468,42.100001347200006,3.3191972520712003,1.2394500396624002,1684,-8.2,99,GPS_Atti,
0.350057581409108,36.9146539177132,16500,2017-11-12 05:49:41,1692.827593270468,42.6000013632,3.3191972520712003,1.10564003538048,1692.827593270468,42.6000013632,3.3191972520712003,1.2394500396624002,1684,-8.3,99,GPS_Atti,
0.350058289579098,36.9146547688423,16600,2017-11-12 05:49:41,1693.327593286468,43.1000013792,3.8267968318348005,1.1250300360009602,1693.327593286468,43.1000013792,3.8267968318348005,1.2394500396624002,1684,-8.4,99,GPS_Atti,
0.350059085729847,36.914655720679,16700,2017-11-12 05:49:41,1693.827593302468,43.6000013952,4.334396411598401,1.1616500371728,1693.827593302468,43.6000013952,4.334396411598401,1.2394500396624002,1684,-8.5,99,GPS_Atti,
0.350059936635396,36.9146567326619,16800,2017-11-12 05:49:42,1694.3275933184677,44.100001411200004,4.841995991362,1.21644003892608,1694.3275933184677,44.100001411200004,4.841995991362,1.2394500396624002,1684,-8.6,99,GPS_Atti,
0.350060894268758,36.9146578451296,16900,2017-11-12 05:49:42,1694.827593334468,44.600001427200006,5.0903957857144,1.29261004136352,1694.827593334468,44.600001427200006,5.0903957857144,1.29261004136352,1684,-8.7,99,GPS_Atti,
0.350061914217786,36.9146590023041,17000,2017-11-12 05:49:42,1695.3275933504679,45.1000014432,5.6015953624976,1.38731004439392,1695.3275933504679,45.1000014432,5.6015953624976,1.38731004439392,1684,-8.8,99,GPS_Atti,
0.350063025343597,36.9146602707045,17100,2017-11-12 05:49:42,1695.727593363268,45.50000145600001,5.8607951479088,1.50688004822016,1695.727593363268,45.50000145600001,5.8607951479088,1.50688004822016,1684,-8.9,99,GPS_Atti,
0.350064169596132,36.9146615806309,17200,2017-11-12 05:49:42,1696.2275933792678,46.00000147200001,6.109194942261199,1.6437500526,1696.2275933792678,46.00000147200001,6.109194942261199,1.6437500526,1684,-9.0,99,GPS_Atti,
0.350065385241382,36.9146629867715,17300,2017-11-12 05:49:42,1696.727593395268,46.500001487999995,6.3683947276724,1.80217005766944,1696.727593395268,46.500001487999995,6.3683947276724,1.80217005766944,1684,-9.0,99,GPS_Atti,
0.350066619649869,36.9146644093268,17400,2017-11-12 05:49:42,1697.227593411268,47.000001504000004,6.875994307436,1.97161006309152,1697.227593411268,47.000001504000004,6.875994307436,1.97161006309152,1684,-9.0,99,GPS_Atti,
0.350067908738553,36.9146659087427,17500,2017-11-12 05:49:42,1697.7275934272677,47.500001520000005,6.875994307436,2.1576000690432,1697.7275934272677,47.500001520000005,6.875994307436,2.1576000690432,1684,-9.0,99,GPS_Atti,
0.350069195908117,36.9146674079381,17600,2017-11-12 05:49:42,1698.227593443268,48.000001536000006,6.875994307436,2.34938007518016,1698.227593443268,48.000001536000006,6.875994307436,2.34938007518016,1684,-9.0,99,GPS_Atti,
0.350070554499809,36.9146689898857,17700,2017-11-12 05:49:43,1698.7275934592678,48.50000155200001,6.875994307436,2.55664008181248,1698.7275934592678,48.50000155200001,6.875994307436,2.55664008181248,1664,-9.0,99,GPS_Atti,
0.350071871810447,36.9146704809359,17800,2017-11-12 05:49:43,1699.227593475268,49.000001568,6.3683947276724,2.7568000882176,1699.227593475268,49.000001568,6.875994307436,2.7568000882176,1666,-9.0,99,GPS_Atti,
0.350073094741762,36.9146718704723,17900,2017-11-12 05:49:43,1699.727593491268,49.500001584,5.6015953624976,2.94588009426816,1699.727593491268,49.500001584,6.875994307436,2.94588009426816,1673,-9.0,99,GPS_Atti,
0.350074098615605,36.9146730058656,18000,2017-11-12 05:49:43,1700.327593510468,50.1000016032,4.334396411598401,3.1021400992684804,1700.327593510468,50.1000016032,6.875994307436,3.1021400992684804,1680,-9.0,99,GPS_Atti,
0.350074965488455,36.914673965134,18100,2017-11-12 05:49:43,1700.8275935264678,50.6000016192,3.3191972520712003,3.2358601035475205,1700.8275935264678,50.6000016192,6.875994307436,3.2358601035475205,1684,-9.0,99,GPS_Atti,
0.350075636785995,36.9146746705698,18200,2017-11-12 05:49:43,1701.327593542468,51.1000016352,2.303998092544,3.33613010675616,1701.327593542468,51.1000016352,6.875994307436,3.33613010675616,1684,-9.0,99,GPS_Atti,
0.350076214748453,36.9146752636829,18300,2017-11-12 05:49:43,1701.827593558468,51.6000016512,1.7999985098000002,3.42138010948416,1701.827593558468,51.6000016512,6.875994307436,3.42138010948416,1684,-9.0,99,GPS_Atti,
0.350076667480311,36.9146757111279,18400,2017-11-12 05:49:43,1702.3275935744678,52.1000016672,1.2995989240756,3.4866401115724805,1702.3275935744678,52.1000016672,6.875994307436,3.4866401115724805,1684,-9.0,99,GPS_Atti,
0.350077149183816,36.9146761569242,18500,2017-11-12 05:49:43,1702.827593590468,52.6000016832,1.0187991565468,3.5532201137030404,1702.827593590468,52.6000016832,6.875994307436,3.5532201137030404,1684,-9.0,99,GPS_Atti,
0.350077612832762,36.9146765642275,18600,2017-11-12 05:49:43,1703.3275936064679,53.1000016992,1.0187991565468,3.61532011569024,1703.3275936064679,53.1000016992,6.875994307436,3.61532011569024,1684,-9.0,99,GPS_Atti,
0.350078166161748,36.9146770207599,18700,2017-11-12 05:49:43,1703.827593622468,53.6000017152,1.0187991565468,3.6867401179756802,1703.827593622468,53.6000017152,6.875994307436,3.6867401179756802,1684,-9.0,99,GPS_Atti,
0.350078659855486,36.9146774307055,18800,2017-11-12 05:49:44,1704.327593638468,54.1000017312,0.8063993323904,3.75101012003232,1704.327593638468,54.1000017312,6.875994307436,3.75101012003232,1684,-9.0,99,GPS_Atti,
0.350079245540025,36.9146779077702,18900,2017-11-12 05:49:44,1704.827593654468,54.6000017472,0.8063993323904,3.8266501224528002,1704.827593654468,54.6000017472,6.875994307436,3.8266501224528002,1684,-9.0,99,GPS_Atti,
0.350079730422253,36.9146783156067,19000,2017-11-12 05:49:44,1705.227593667268,55.00000176,0.8063993323904,3.89082012450624,1705.227593667268,55.00000176,6.875994307436,3.89082012450624,1684,-9.0,99,GPS_Atti,
0.350080299698591,36.9146787637733,19100,2017-11-12 05:49:44,1705.8275936864677,55.6000017792,0.8063993323904,3.96337012682784,1705.8275936864677,55.6000017792,6.875994307436,3.96337012682784,1684,-9.0,99,GPS_Atti,
0.350080785390155,36.9146791301448,19200,2017-11-12 05:49:44,1706.327593702468,56.10000179520001,0.8063993323904,4.0239201287654405,1706.327593702468,56.10000179520001,6.875994307436,4.0239201287654405,1684,-9.0,99,GPS_Atti,
0.350081326178494,36.9146795344182,19300,2017-11-12 05:49:44,1706.7275937152679,56.500001808,0.8063993323904,4.09125013092,1706.7275937152679,56.500001808,6.875994307436,4.09125013092,1684,-9.0,99,GPS_Atti,
0.350081753200478,36.9146798560358,19400,2017-11-12 05:49:44,1707.227593731268,57.000001824,0.35999970196000003,4.14483013263456,1707.227593731268,57.000001824,6.875994307436,4.14483013263456,1684,-9.0,99,GPS_Atti,
0.350082192287603,36.9146801879227,19500,2017-11-12 05:49:44,1707.7275937472677,57.50000184,0.35999970196000003,4.200210134406721,1707.7275937472677,57.50000184,6.875994307436,4.200210134406721,1684,-9.0,99,GPS_Atti,
0.350082513543778,36.9146804428837,19600,2017-11-12 05:49:44,1708.227593763268,58.000001856000004,0.35999970196000003,4.2420201357446405,1708.227593763268,58.000001856000004,6.875994307436,4.2420201357446405,1684,-9.0,99,GPS_Atti,
0.350082854469928,36.9146806962816,19700,2017-11-12 05:49:44,1708.7275937792679,58.500001872,0.35999970196000003,4.28479013711328,1708.7275937792679,58.500001872,6.875994307436,4.28479013711328,1684,-9.0,99,GPS_Atti,
0.35008309676611,36.9146808399219,19800,2017-11-12 05:49:45,1709.3275937984681,59.10000189120001,0.0,4.311690137974081,1709.3275937984681,59.10000189120001,6.875994307436,4.311690137974081,1684,-9.0,99,GPS_Atti,
0.350083358983048,36.9146809860119,19900,2017-11-12 05:49:45,1709.827593814468,59.6000019072,0.0,4.3399501388784,1709.827593814468,59.6000019072,6.875994307436,4.3399501388784,1684,-9.0,99,GPS_Atti,
0.350083528992601,36.9146810770721,20000,2017-11-12 05:49:45,1710.3275938304678,60.100001923200004,0.0,4.35796013945472,1710.3275938304678,60.100001923200004,6.875994307436,4.35796013945472,1684,-9.0,99,GPS_Atti,
0.35008370307815,36.9146811752841,20100,2017-11-12 05:49:45,1710.827593846468,60.600001939200006,0.0,4.376910140061121,1710.827593846468,60.600001939200006,6.875994307436,4.376910140061121,1684,-9.0,99,GPS_Atti,
0.350083793663604,36.9146812236031,20200,2017-11-12 05:49:45,1711.327593862468,61.10000195520001,0.35999970196000003,4.38652014036864,1711.327593862468,61.10000195520001,6.875994307436,4.38652014036864,1684,-9.0,99,GPS_Atti,
0.350083888647485,36.9146812788855,20300,2017-11-12 05:49:45,1711.827593878468,61.6000019712,0.35999970196000003,4.3970501407056,1711.827593878468,61.6000019712,6.875994307436,4.3970501407056,1684,-9.0,99,GPS_Atti,
0.350083935040226,36.9146812926344,20400,2017-11-12 05:49:45,1712.3275938944678,62.1000019872,0.35999970196000003,4.4009101408291205,1712.3275938944678,62.1000019872,6.875994307436,4.4009101408291205,1684,-9.0,99,GPS_Atti,
0.350083985609926,36.9146813067108,20500,2017-11-12 05:49:45,1712.827593910468,62.600002003200004,0.35999970196000003,4.40503014096096,1712.827593910468,62.600002003200004,6.875994307436,4.40503014096096,1684,-9.0,99,GPS_Atti,
0.350083977493761,36.9146812856732,20600,2017-11-12 05:49:45,1713.327593926468,63.100002019200005,0.35999970196000003,4.4025501408816,1713.327593926468,63.100002019200005,6.875994307436,4.40503014096096,1684,-9.0,99,GPS_Atti,
0.350083970592416,36.914681272571,20700,2017-11-12 05:49:46,1713.8275939424677,63.600002035200006,0.5075995797636,4.4009101408291205,1713.8275939424677,63.600002035200006,6.875994307436,4.40503014096096,1684,-9.0,99,GPS_Atti,
0.350083913645729,36.9146812436729,20800,2017-11-12 05:49:46,1714.427593961668,64.2000020544,0.5075995797636,4.3950001406400006,1714.427593961668,64.2000020544,6.875994307436,4.40503014096096,1684,-9.0,99,GPS_Atti,
0.350083846558722,36.91468123062,20900,2017-11-12 05:49:46,1714.9275939776678,64.7000020704,0.5075995797636,4.39008014048256,1714.9275939776678,64.7000020704,6.875994307436,4.40503014096096,1684,-9.0,99,GPS_Atti,
0.350083743559639,36.9146812089678,21000,2017-11-12 05:49:46,1715.427593993668,65.2000020864,0.5075995797636,4.38238014023616,1715.427593993668,65.2000020864,6.875994307436,4.40503014096096,1684,-9.0,99,GPS_Atti,
0.350083652195789,36.9146812028182,21100,2017-11-12 05:49:46,1715.927594009668,65.7000021024,0.5075995797636,4.376840140058881,1715.927594009668,65.7000021024,6.875994307436,4.40503014096096,1684,-9.0,99,GPS_Atti,
0.350083552691347,36.9146811860395,21200,2017-11-12 05:49:46,1716.427594025668,66.20000211840001,0.5075995797636,4.36984013983488,1716.427594025668,66.20000211840001,6.875994307436,4.40503014096096,1684,-9.0,99,GPS_Atti,
0.350083467088931,36.9146811877246,21300,2017-11-12 05:49:46,1716.9275940416678,66.70000213440001,0.5075995797636,4.365400139692801,1716.9275940416678,66.70000213440001,6.875994307436,4.40503014096096,1684,-9.0,99,GPS_Atti,
0.35008335582061,36.9146811657106,21400,2017-11-12 05:49:46,1717.4275940576679,67.20000215040001,0.5075995797636,4.3573001394336,1717.4275940576679,67.20000215040001,6.875994307436,4.40503014096096,1684,-9.0,99,GPS_Atti,
0.350083276893186,36.914681164503,21500,2017-11-12 05:49:46,1718.027594076868,67.8000021696,0.5075995797636,4.35297013929504,1718.027594076868,67.8000021696,6.875994307436,4.40503014096096,1684,-9.0,99,GPS_Atti,
0.350083192269465,36.9146811412213,21600,2017-11-12 05:49:46,1718.527594092868,68.3000021856,0.5075995797636,4.346190139078081,1718.527594092868,68.3000021856,6.875994307436,4.40503014096096,1684,-9.0,99,GPS_Atti,
0.35008312077426,36.9146811300912,21700,2017-11-12 05:49:46,1719.027594108868,68.8000022016,0.5075995797636,4.34131013892192,1719.027594108868,68.8000022016,6.875994307436,4.40503014096096,1684,-9.0,99,GPS_Atti,
0.350083024870308,36.9146810945125,21800,2017-11-12 05:49:47,1719.5275941248678,69.30000221760001,0.5075995797636,4.33276013864832,1719.5275941248678,69.30000221760001,6.875994307436,4.40503014096096,1684,-9.0,99,GPS_Atti,
0.350082938908006,36.9146810869667,21900,2017-11-12 05:49:47,1720.0275941408681,69.80000223360001,0.5075995797636,4.32749013847968,1720.0275941408681,69.80000223360001,6.875994307436,4.40503014096096,1684,-9.0,99,GPS_Atti,
0.350082839625032,36.9146810711173,22000,2017-11-12 05:49:47,1720.527594156868,70.30000224960001,0.5075995797636,4.32072013826304,1720.527594156868,70.30000224960001,6.875994307436,4.40503014096096,1684,-9.0,99,GPS_Atti,
0.350082772974448,36.9146810791727,22100,2017-11-12 05:49:47,1721.1275941760678,70.90000226880001,0.5075995797636,4.318030138176961,1721.1275941760678,70.90000226880001,6.875994307436,4.40503014096096,1684,-9.0,99,GPS_Atti,
0.350082709105246,36.914681074933,22200,2017-11-12 05:49:47,1721.627594192068,71.40000228480001,0.5075995797636,4.31428013805696,1721.627594192068,71.40000228480001,6.875994307436,4.40503014096096,1684,-9.0,99,GPS_Atti,
0.35008267264927,36.9146811194064,22300,2017-11-12 05:49:47,1722.1275942080679,71.9000023008,0.5075995797636,4.316750138136,1722.1275942080679,71.9000023008,6.875994307436,4.40503014096096,1684,-9.0,99,GPS_Atti,
0.350082624582489,36.9146811643573,22400,2017-11-12 05:49:47,1722.627594224068,72.4000023168,0.35999970196000003,4.31868013819776,1722.627594224068,72.4000023168,6.875994307436,4.40503014096096,1684,-9.0,99,GPS_Atti,
0.350082585322332,36.9146812314229,22500,2017-11-12 05:49:47,1723.127594240068,72.9000023328,0.35999970196000003,4.323250138344,1723.127594240068,72.9000023328,6.875994307436,4.40503014096096,1684,-9.0,99,GPS_Atti,
0.350082508267619,36.9146812513942,22600,2017-11-12 05:49:47,1723.6275942560678,73.4000023488,0.5075995797636,4.32124013827968,1723.6275942560678,73.4000023488,6.875994307436,4.40503014096096,1684,-9.0,99,GPS_Atti,
0.350082443960366,36.9146812750805,22700,2017-11-12 05:49:47,1724.1275942720679,73.9000023648,0.5075995797636,4.32027013824864,1724.1275942720679,73.9000023648,6.875994307436,4.40503014096096,1684,-9.0,99,GPS_Atti,
0.350082365542645,36.9146812663957,22800,2017-11-12 05:49:48,1724.627594288068,74.4000023808,0.5075995797636,4.315400138092801,1724.627594288068,74.4000023808,6.875994307436,4.40503014096096,1684,-9.0,99,GPS_Atti,
0.350082309112175,36.9146812745302,22900,2017-11-12 05:49:48,1725.127594304068,74.9000023968,0.5075995797636,4.31332013802624,1725.127594304068,74.9000023968,6.875994307436,4.40503014096096,1684,-9.0,99,GPS_Atti,
0.350082245440015,36.914681271434,23000,2017-11-12 05:49:48,1725.6275943200678,75.4000024128,0.5075995797636,4.30977013791264,1725.6275943200678,75.4000024128,6.875994307436,4.40503014096096,1684,-9.0,99,GPS_Atti,
0.350082190862715,36.9146812873883,23100,2017-11-12 05:49:48,1726.1275943360681,75.90000242880001,0.35999970196000003,4.30858013787456,1726.1275943360681,75.90000242880001,6.875994307436,4.40503014096096,1684,-9.0,99,GPS_Atti,
0.350082112837449,36.9146812996448,23200,2017-11-12 05:49:48,1726.627594352068,76.4000024448,0.35999970196000003,4.3058501377872,1726.627594352068,76.4000024448,6.875994307436,4.40503014096096,1684,-9.0,99,GPS_Atti,
0.35008205707627,36.9146813290353,23300,2017-11-12 05:49:48,1727.127594368068,76.9000024608,0.35999970196000003,4.305950137790401,1727.127594368068,76.9000024608,6.875994307436,4.40503014096096,1684,-9.0,99,GPS_Atti,
0.350081996047074,36.9146813394803,23400,2017-11-12 05:49:48,1727.6275943840678,77.4000024768,0.0,4.303920137725441,1727.6275943840678,77.4000024768,6.875994307436,4.40503014096096,1684,-9.0,99,GPS_Atti,
0.350081926061436,36.914681337763,23500,2017-11-12 05:49:48,1728.0275943968677,77.8000024896,0.0,4.30024013760768,1728.0275943968677,77.8000024896,6.875994307436,4.40503014096096,1684,-9.0,99,GPS_Atti,
0.350081908446558,36.9146813448805,23600,2017-11-12 05:49:48,1728.527594412868,78.3000025056,0.0,4.30006013760192,1728.527594412868,78.3000025056,6.875994307436,4.40503014096096,1684,-9.0,99,GPS_Atti,
0.350081901100647,36.9146813609804,23700,2017-11-12 05:49:48,1729.0275944288678,78.8000025216,0.0,4.301300137641601,1729.0275944288678,78.8000025216,6.875994307436,4.40503014096096,1684,-9.0,99,GPS_Atti,
0.350081875815797,36.9146813749969,23800,2017-11-12 05:49:49,1729.5275944448679,79.30000253760001,0.0,4.30143013764576,1729.5275944448679,79.30000253760001,6.875994307436,4.40503014096096,1684,-9.0,99,GPS_Atti,
0.350081864105656,36.9146814149845,23900,2017-11-12 05:49:49,1730.027594460868,79.80000255360001,0.0,4.30482013775424,1730.027594460868,79.80000255360001,6.875994307436,4.40503014096096,1684,-9.0,99,GPS_Atti,
0.350081835910777,36.914681438628,24000,2017-11-12 05:49:49,1730.527594476868,80.30000256960001,0.0,4.3057701377846405,1730.527594476868,80.30000256960001,6.875994307436,4.40503014096096,1684,-9.0,99,GPS_Atti,
0.350081841229275,36.9146814791401,24100,2017-11-12 05:49:49,1731.0275944928678,80.80000258560001,0.0,4.31006013792192,1731.0275944928678,80.80000258560001,6.875994307436,4.40503014096096,1684,-9.0,99,GPS_Atti,
0.350081856025317,36.9146814944371,24200,2017-11-12 05:49:49,1731.527594508868,81.3000026016,0.0,4.312320137994241,1731.527594508868,81.3000026016,6.875994307436,4.40503014096096,1684,-9.0,99,GPS_Atti,
0.35008187336336,36.9146815099589,24300,2017-11-12 05:49:49,1732.027594524868,81.8000026176,0.0,4.31472013807104,1732.027594524868,81.8000026176,6.875994307436,4.40503014096096,1684,-9.0,99,GPS_Atti,
0.350081884580082,36.9146815922401,24400,2017-11-12 05:49:49,1732.6275945440677,82.4000026368,0.0,4.32347013835104,1732.6275945440677,82.4000026368,6.875994307436,4.40503014096096,1684,-9.0,99,GPS_Atti,
0.350081889048533,36.9146816775596,24500,2017-11-12 05:49:49,1733.127594560068,82.9000026528,0.0,4.33218013862976,1733.127594560068,82.9000026528,6.875994307436,4.40503014096096,1684,-9.0,99,GPS_Atti,
0.350081879759888,36.9146817379553,24600,2017-11-12 05:49:49,1733.6275945760678,83.4000026688,0.0,4.33774013880768,1733.6275945760678,83.4000026688,6.875994307436,4.40503014096096,1684,-9.0,99,GPS_Atti,
0.350081876340156,36.9146818149433,24700,2017-11-12 05:49:49,1734.127594592068,83.9000026848,0.0,4.3452401390476805,1734.127594592068,83.9000026848,6.875994307436,4.40503014096096,1611,-9.0,99,GPS_Atti,
0.350081862477212,36.914681865924,24800,2017-11-12 05:49:50,1734.627594608068,84.4000027008,0.0,4.34963013918816,1734.627594608068,84.4000027008,6.875994307436,4.40503014096096,1464,-9.0,99,GPS_Atti,
0.350081851499871,36.9146819293452,24900,2017-11-12 05:49:50,1735.127594624068,84.9000027168,0.0,4.35542013937344,1735.127594624068,84.9000027168,6.875994307436,4.40503014096096,1314,-9.0,99,GPS_Atti,
0.350081838578168,36.9146819686325,25000,2017-11-12 05:49:50,1735.6275946400679,85.4000027328,0.0,4.3587001394784,1735.6275946400679,85.4000027328,6.875994307436,4.40503014096096,1180,-9.0,99,GPS_Atti,
0.350081827849979,36.9146820054831,25100,2017-11-12 05:49:50,1736.0275946528677,85.80000274560001,0.0,4.3618501395792,1736.0275946528677,85.80000274560001,6.875994307436,4.40503014096096,1117,-9.0,99,GPS_Atti,
0.350081792413409,36.9146820063439,25200,2017-11-12 05:49:50,1736.3275946624678,86.10000275520001,0.0,4.3602001395264,1736.3275946624678,86.10000275520001,6.875994307436,4.40503014096096,1060,-9.0,99,GPS_Atti,
0.350081757462116,36.9146820242253,25300,2017-11-12 05:49:50,1736.627594672068,86.4000027648,0.0,4.36028013952896,1736.627594672068,86.4000027648,6.875994307436,4.40503014096096,1038,-9.0,99,GPS_Atti,
0.350081725766082,36.9146820446206,25400,2017-11-12 05:49:50,1736.727594675268,86.500002768,0.0,4.36077013954464,1736.727594675268,86.500002768,6.875994307436,4.40503014096096,1027,-9.0,99,GPS_Atti,
0.350081692843829,36.9146820881861,25500,2017-11-12 05:49:50,1736.827594678468,86.60000277120001,0.0,4.36352013963264,1736.827594678468,86.60000277120001,6.875994307436,4.40503014096096,1024,-9.0,99,GPS_Atti,
0.350081659989972,36.9146821230626,25600,2017-11-12 05:49:50,1736.927594681668,86.7000027744,0.0,4.36541013969312,1736.927594681668,86.7000027744,6.875994307436,4.40503014096096,1024,-9.0,99,GPS_Atti,
0.350081615495996,36.9146821637631,25700,2017-11-12 05:49:50,1737.0275946848678,86.8000027776,0.0,4.367330139754561,1737.0275946848678,86.8000027776,6.875994307436,4.40503014096096,1024,-9.0,99,GPS_Atti,
0.350081566802264,36.9146821748761,25800,2017-11-12 05:49:51,1737.1275946880678,86.90000278080001,0.35999970196000003,4.36609013971488,1737.1275946880678,86.90000278080001,6.875994307436,4.40503014096096,1024,-9.0,99,GPS_Atti,
0.350081494126437,36.9146821981342,25900,2017-11-12 05:49:51,1737.1275946880678,86.90000278080001,0.7199994039200001,4.36492013967744,1737.1275946880678,86.90000278080001,6.875994307436,4.40503014096096,1024,-9.0,99,GPS_Atti,
0.350081454794629,36.9146821968537,26000,2017-11-12 05:49:51,1737.1275946880678,86.90000278080001,0.7199994039200001,4.3629001396128,1737.1275946880678,86.90000278080001,6.875994307436,4.40503014096096,1004,-9.0,98,GPS_Atti,
0.350081436235253,36.9146821869762,26100,2017-11-12 05:49:51,1737.1275946880678,86.90000278080001,0.7199994039200001,4.3610201395526405,1737.1275946880678,86.90000278080001,6.875994307436,4.40503014096096,910,-9.0,98,GPS_Atti,
0.350081489809432,36.9146821431388,26200,2017-11-12 05:49:51,1737.1275946880678,86.90000278080001,0.7199994039200001,4.35919013949408,1737.1275946880678,86.90000278080001,6.875994307436,4.40503014096096,857,-9.0,98,GPS_Atti,
0.350081635872716,36.9146821016781,26300,2017-11-12 05:49:51,1737.1275946880678,86.90000278080001,0.7199994039200001,4.3621001395872,1737.1275946880678,86.90000278080001,6.875994307436,4.40503014096096,838,-9.0,98,GPS_Atti,
0.35008190359868,36.9146820358223,26400,2017-11-12 05:49:51,1737.1275946880678,86.90000278080001,0.7199994039200001,4.3686001397952,1737.1275946880678,86.90000278080001,6.875994307436,4.40503014096096,835,-9.0,98,GPS_Atti,
0.350082253857442,36.9146819830323,26500,2017-11-12 05:49:51,1737.1275946880678,86.90000278080001,0.35999970196000003,4.3807201401830405,1737.1275946880678,86.90000278080001,6.875994307436,4.40503014096096,832,-9.0,98,GPS_Atti,
0.350082666817812,36.9146819096951,26600,2017-11-12 05:49:51,1737.0275946848678,86.8000027776,0.35999970196000003,4.39433014061856,1737.1275946880678,86.90000278080001,6.875994307436,4.40503014096096,826,-9.0,98,GPS_Atti,
0.350083197640073,36.9146818465779,26700,2017-11-12 05:49:51,1737.0275946848678,86.8000027776,0.35999970196000003,4.4155501412976,1737.1275946880678,86.90000278080001,6.875994307436,4.4155501412976,833,-9.0,98,GPS_Atti,
0.350083807005446,36.9146817504001,26800,2017-11-12 05:49:52,1736.927594681668,86.7000027744,0.35999970196000003,4.4384501420304,1737.1275946880678,86.90000278080001,6.875994307436,4.4384501420304,910,-9.0,98,GPS_Atti,
0.350084500761671,36.9146816599373,26900,2017-11-12 05:49:52,1736.927594681668,86.7000027744,0.35999970196000003,4.46749014295968,1737.1275946880678,86.90000278080001,6.875994307436,4.46749014295968,979,-9.0,98,GPS_Atti,
0.350085225288974,36.9146815433857,27000,2017-11-12 05:49:52,1736.827594678468,86.60000277120001,0.5075995797636,4.4969601439027205,1737.1275946880678,86.90000278080001,6.875994307436,4.4969601439027205,969,-9.0,98,GPS_Atti,
0.350086040631342,36.9146814484819,27100,2017-11-12 05:49:52,1736.827594678468,86.60000277120001,0.5075995797636,4.535070145122241,1737.1275946880678,86.90000278080001,6.875994307436,4.535070145122241,976,-9.0,98,GPS_Atti,
0.350086894689966,36.9146813449361,27200,2017-11-12 05:49:52,1736.827594678468,86.60000277120001,0.8063993323904,4.57621014643872,1737.1275946880678,86.90000278080001,6.875994307436,4.57621014643872,963,-9.0,98,GPS_Atti,
0.350087816596081,36.9146812774402,27300,2017-11-12 05:49:52,1736.727594675268,86.500002768,0.8063993323904,4.62652014804864,1737.1275946880678,86.90000278080001,6.875994307436,4.62652014804864,873,-9.0,98,GPS_Atti,
0.350088728430269,36.9146812067088,27400,2017-11-12 05:49:52,1736.727594675268,86.500002768,1.1375990581936,4.6776001496832,1737.1275946880678,86.90000278080001,6.875994307436,4.6776001496832,827,-9.0,98,GPS_Atti,
0.350089674357561,36.9146811359132,27500,2017-11-12 05:49:52,1736.727594675268,86.500002768,1.1375990581936,4.7325501514416,1737.1275946880678,86.90000278080001,6.875994307436,4.7325501514416,806,-9.0,98,GPS_Atti,
0.350090589328133,36.914681012758,27600,2017-11-12 05:49:52,1736.627594672068,86.4000027648,1.1375990581936,4.78248015303936,1737.1275946880678,86.90000278080001,6.875994307436,4.78248015303936,819,-9.0,98,GPS_Atti,
0.350091500848032,36.9146808968916,27700,2017-11-12 05:49:52,1736.527594668868,86.3000027616,1.1375990581936,4.83447015470304,1737.1275946880678,86.90000278080001,6.875994307436,4.83447015470304,808,-9.0,98,GPS_Atti,
0.350092340491669,36.9146807705074,27800,2017-11-12 05:49:53,1736.527594668868,86.3000027616,1.1375990581936,4.8820701562262405,1737.1275946880678,86.90000278080001,6.875994307436,4.8820701562262405,816,-9.0,98,GPS_Atti,
0.350093159455697,36.9146806654927,27900,2017-11-12 05:49:53,1736.4275946656678,86.2000027584,1.1375990581936,4.9313501578032,1737.1275946880678,86.90000278080001,6.875994307436,4.9313501578032,853,-9.0,98,GPS_Atti,
0.350093927413601,36.9146805601205,28000,2017-11-12 05:49:53,1736.3275946624678,86.10000275520001,1.1375990581936,4.97808015929856,1737.1275946880678,86.90000278080001,6.875994307436,4.97808015929856,855,-9.0,98,GPS_Atti,
0.350094669984064,36.9146804828348,28100,2017-11-12 05:49:53,1736.3275946624678,86.10000275520001,1.1375990581936,5.02629016084128,1737.1275946880678,86.90000278080001,6.875994307436,5.02629016084128,861,-9.0,98,GPS_Atti,
0.350095358431562,36.9146803997357,28200,2017-11-12 05:49:53,1736.2275946592679,86.000002752,0.8063993323904,5.07086016226752,1737.1275946880678,86.90000278080001,6.875994307436,5.07086016226752,858,-9.0,98,GPS_Atti,
0.350095999536936,36.9146803434362,28300,2017-11-12 05:49:53,1736.1275946560681,85.9000027488,0.8063993323904,5.114770163672641,1737.1275946880678,86.90000278080001,6.875994307436,5.114770163672641,858,-9.0,98,GPS_Atti,
0.35009657183078,36.9146802803512,28400,2017-11-12 05:49:53,1736.1275946560681,85.9000027488,0.7199994039200001,5.153460164910721,1737.1275946880678,86.90000278080001,6.875994307436,5.153460164910721,880,-9.0,98,GPS_Atti,
0.350097079494939,36.9146802306639,28500,2017-11-12 05:49:53,1736.0275946528677,85.80000274560001,0.35999970196000003,5.1887001660384,1737.1275946880678,86.90000278080001,6.875994307436,5.1887001660384,905,-9.0,98,GPS_Atti,
0.35009752586121,36.9146801635897,28600,2017-11-12 05:49:53,1736.0275946528677,85.80000274560001,0.35999970196000003,5.218140166980481,1737.1275946880678,86.90000278080001,6.875994307436,5.218140166980481,894,-9.0,98,GPS_Atti,
0.3500983025834,36.9146800663092,28800,2017-11-12 05:49:54,1735.927594649668,85.7000027424,0.0,5.2716501686928,1737.1275946880678,86.90000278080001,6.875994307436,5.2716501686928,1024,-9.0,98,GPS_Atti,
0.350098624872008,36.9146800317155,28900,2017-11-12 05:49:54,1735.927594649668,85.7000027424,0.0,5.294560169425921,1737.1275946880678,86.90000278080001,6.875994307436,5.294560169425921,1024,-9.0,98,GPS_Atti,
