latitude,longitude,time_millisecond,datetime_utc,altitude_m,ascent_m,speed_kph,distance_m,max_altitude_m,max_ascent_m,max_speed_kph,max_distance_m,rc_throttle,gimbal_pitch_degrees,battery_percent,flycState,message
0.37330608881328503,36.9148113909823,0,2018-03-30 06:05:37,1643.0310584770057,0.0,0.0,0.0,1643.0310584770057,0.0,0.0,0.0,364,0.0,98,Motors_Started,
0.373306094356712,36.9148114072295,100,2018-03-30 06:05:37,1643.0310584770057,0.0,0.0,0.0019090200610886402,1643.0310584770057,0.0,0.0,0.0019090200610886402,364,0.0,98,Motors_Started,
0.37330609807740206,36.9148114194945,200,2018-03-30 06:05:37,1643.0310584770057,0.0,0.0,0.0033338401066828802,1643.0310584770057,0.0,0.0,0.0033338401066828802,364,0.0,98,Motors_Started,Setting new Return-To-Home altitude to 30m (98 ft). Setting new Maximum Flight Altitude to 120m (394 ft)
0.3733061012282371,36.91481142839461,300,2018-03-30 06:05:37,1643.0310584770057,0.0,0.0,0.004383480140271361,1643.0310584770057,0.0,0.0,0.004383480140271361,364,0.0,98,Motors_Started,
0.373306103388673,36.914811434686605,400,2018-03-30 06:05:37,1643.0310584770057,0.0,0.0,0.005123250163944001,1643.0310584770057,0.0,0.0,0.005123250163944001,364,0.0,98,Motors_Started,
0.37330610476155296,36.9148113972561,500,2018-03-30 06:05:37,1643.0310584770057,0.0,0.0,0.0019058400609868803,1643.0310584770057,0.0,0.0,0.005123250163944001,364,0.0,98,Motors_Started,
0.373306105795106,36.914811371000205,600,2018-03-30 06:05:38,1643.0310584770057,0.0,0.0,0.00291616009331712,1643.0310584770057,0.0,0.0,0.005123250163944001,434,0.0,98,Motors_Started,
0.37330606467659005,36.9148113467025,700,2018-03-30 06:05:38,1643.0310584770057,0.0,0.0,0.00560814017946048,1643.0310584770057,0.0,0.0,0.00560814017946048,595,0.0,98,Motors_Started,
0.373306035851707,36.914811331974,800,2018-03-30 06:05:38,1643.0310584770057,0.0,0.0,0.00881743028215776,1643.0310584770057,0.0,0.0,0.00881743028215776,1024,0.0,98,Motors_Started,
0.373306012605669,36.9148113194975,900,2018-03-30 06:05:38,1643.0310584770057,0.0,0.0,0.011619600371827202,1643.0310584770057,0.0,0.0,0.011619600371827202,1024,0.0,98,Motors_Started,
0.37330599429758204,36.91481130806171,1000,2018-03-30 06:05:38,1643.0310584770057,0.0,0.0,0.013982300447433602,1643.0310584770057,0.0,0.0,0.013982300447433602,1024,0.0,98,Motors_Started,
0.37330598473851395,36.914811301525,1100,2018-03-30 06:05:38,1643.0310584770057,0.0,0.0,0.015261500488368001,1643.0310584770057,0.0,0.0,0.015261500488368001,1024,0.0,98,Motors_Started,
0.37330597836916,36.9148112992205,1200,2018-03-30 06:05:38,1643.0310584770057,0.0,0.0,0.015968000510976,1643.0310584770057,0.0,0.0,0.015968000510976,1024,0.0,98,Motors_Started,
0.37330597962122997,36.9148112696355,1300,2018-03-30 06:05:38,1643.0310584770057,0.0,0.0,0.018153300580905602,1643.0310584770057,0.0,0.0,0.018153300580905602,1024,0.0,98,Motors_Started,
0.37330597950937605,36.9148112467302,1400,2018-03-30 06:05:38,1643.0310584770057,0.0,0.0,0.020126500644048,1643.0310584770057,0.0,0.0,0.020126500644048,1024,0.0,98,Motors_Started,
0.37330594350906,36.9148112260035,1500,2018-03-30 06:05:38,1643.0310584770057,0.0,0.0,0.0244477007823264,1643.0310584770057,0.0,0.0,0.0244477007823264,1024,0.0,98,Motors_Started,
0.37330591642528793,36.9148112091059,1600,2018-03-30 06:05:39,1643.0310584770057,0.0,0.0,0.0278671008917472,1643.0310584770057,0.0,0.0,0.0278671008917472,1024,0.0,98,Assisted_Takeoff,
0.373305902482245,36.9148112110084,1700,2018-03-30 06:05:39,1643.0310584770057,0.0,0.0,0.0288083009218656,1643.0310584770057,0.0,0.0,0.0288083009218656,1024,0.0,98,Assisted_Takeoff,
0.37330589096609296,36.914811217463104,1800,2018-03-30 06:05:39,1643.0310584770057,0.0,0.0,0.029264600936467204,1643.0310584770057,0.0,0.0,0.029264600936467204,1024,0.0,98,Assisted_Takeoff,
0.373305884655974,36.9148112248959,1900,2018-03-30 06:05:39,1643.0310584770057,0.0,0.0,0.029267200936550403,1643.0310584770057,0.0,0.0,0.029267200936550403,1024,0.0,98,Assisted_Takeoff,
0.373305879874659,36.914811227939204,2000,2018-03-30 06:05:39,1643.0310584770057,0.0,0.0,0.0294722009431104,1643.0310584770057,0.0,0.0,0.0294722009431104,1024,0.0,98,Assisted_Takeoff,
0.37330584274827294,36.914811229925206,2100,2018-03-30 06:05:39,1643.0310584770057,0.0,0.0,0.0327041010465312,1643.0310584770057,0.0,0.0,0.0327041010465312,1024,0.0,98,Assisted_Takeoff,
0.37330581512070293,36.914811237436105,2200,2018-03-30 06:05:39,1643.0310584770057,0.0,0.35999970196000003,0.0348987011167584,1643.0310584770057,0.0,0.35999970196000003,0.0348987011167584,1024,0.0,98,Assisted_Takeoff,
0.37330579773228006,36.914811206149395,2300,2018-03-30 06:05:39,1643.0310584770057,0.0,0.0,0.0383443012270176,1643.0310584770057,0.0,0.35999970196000003,0.0383443012270176,1024,0.0,98,Assisted_Takeoff,
0.373305787222302,36.9148111862621,2400,2018-03-30 06:05:39,1643.0310584770057,0.0,0.0,0.040535501297136005,1643.0310584770057,0.0,0.35999970196000003,0.040535501297136005,1024,0.0,98,Assisted_Takeoff,
0.37330574753681706,36.914811129229605,2500,2018-03-30 06:05:39,1643.0310584770057,0.0,0.0,0.047829101530531194,1643.0310584770057,0.0,0.35999970196000003,0.047829101530531194,1024,0.0,98,Assisted_Takeoff,
0.373305721210678,36.9148110941834,2600,2018-03-30 06:05:40,1643.0310584770057,0.0,0.0,0.052540301681289606,1643.0310584770057,0.0,0.35999970196000003,0.052540301681289606,1024,0.0,98,Assisted_Takeoff,
0.373305706969325,36.9148110668879,2700,2018-03-30 06:05:40,1643.0310584770057,0.0,0.0,0.055696101782275194,1643.0310584770057,0.0,0.35999970196000003,0.055696101782275194,1024,0.0,98,Assisted_Takeoff,
0.37330569867718605,36.9148110510979,2800,2018-03-30 06:05:40,1643.0310584770057,0.0,0.0,0.0575402018412864,1643.0310584770057,0.0,0.35999970196000003,0.0575402018412864,1024,0.0,98,Assisted_Takeoff,
0.373305699310956,36.9148110409457,2900,2018-03-30 06:05:40,1643.0310584770057,0.0,0.0,0.05823550186353601,1643.0310584770057,0.0,0.35999970196000003,0.05823550186353601,1024,0.0,98,Assisted_Takeoff,
0.373305702431055,36.9148110376466,3000,2018-03-30 06:05:40,1643.0310584770057,0.0,0.0,0.0582249018631968,1643.0310584770057,0.0,0.35999970196000003,0.05823550186353601,1024,0.0,98,Assisted_Takeoff,
0.373305669436642,36.91481103951,3100,2018-03-30 06:05:40,1643.0310584770057,0.0,0.0,0.0608496019471872,1643.0310584770057,0.0,0.35999970196000003,0.0608496019471872,1024,0.0,98,Assisted_Takeoff,
0.37330564845465003,36.9148110459846,3200,2018-03-30 06:05:40,1643.0310584770057,0.0,0.0,0.0622093019906976,1643.0310584770057,0.0,0.35999970196000003,0.0622093019906976,1024,0.0,98,Assisted_Takeoff,
0.373305633760895,36.914811053953706,3300,2018-03-30 06:05:40,1643.0310584770057,0.0,0.0,0.0629721020151072,1643.0310584770057,0.0,0.35999970196000003,0.0629721020151072,1024,0.0,98,Assisted_Takeoff,
0.37330562588736793,36.9148110666684,3400,2018-03-30 06:05:40,1643.0310584770057,0.0,0.0,0.0628561020113952,1643.0310584770057,0.0,0.35999970196000003,0.0629721020151072,1024,0.0,98,Assisted_Takeoff,
0.37330558296351796,36.9148110364373,3500,2018-03-30 06:05:40,1643.0310584770057,0.0,0.0,0.06869450219822401,1643.0310584770057,0.0,0.35999970196000003,0.06869450219822401,1024,0.0,98,Assisted_Takeoff,
0.373305553066101,36.914811020124795,3600,2018-03-30 06:05:41,1643.0310584770057,0.0,0.0,0.072459502318704,1643.0310584770057,0.0,0.35999970196000003,0.072459502318704,1024,0.0,98,Assisted_Takeoff,
0.373305529695385,36.9148110010046,3700,2018-03-30 06:05:41,1643.0310584770057,0.0,0.0,0.07580710242582721,1643.0310584770057,0.0,0.35999970196000003,0.07580710242582721,1024,0.0,98,Assisted_Takeoff,
0.37330551643669607,36.914810995644004,3800,2018-03-30 06:05:41,1643.0310584770057,0.0,0.0,0.0773583024754656,1643.0310584770057,0.0,0.35999970196000003,0.0773583024754656,1024,0.0,98,Assisted_Takeoff,
0.37330551057470396,36.914810987641104,3900,2018-03-30 06:05:41,1643.0310584770057,0.0,0.0,0.0784012025088384,1643.0310584770057,0.0,0.35999970196000003,0.0784012025088384,1024,0.0,98,Assisted_Takeoff,
0.37330550861762,36.9148109890142,4000,2018-03-30 06:05:41,1643.0310584770057,0.0,0.0,0.07849280251176961,1643.0310584770057,0.0,0.35999970196000003,0.07849280251176961,1024,0.0,98,Assisted_Takeoff,
0.37330547101623707,36.914810985878404,4100,2018-03-30 06:05:41,1643.0310584770057,0.0,0.503999582744,0.08215530262896961,1643.0310584770057,0.0,0.503999582744,0.08215530262896961,1024,0.0,98,Assisted_Takeoff,
0.373305446279562,36.9148109909413,4200,2018-03-30 06:05:41,1643.0310584770057,0.0,0.7199994039200001,0.08417030269344962,1643.0310584770057,0.0,0.7199994039200001,0.08417030269344962,1024,0.0,98,Assisted_Takeoff,
0.373305428755266,36.914810990559104,4300,2018-03-30 06:05:41,1643.0310584770057,0.0,0.7199994039200001,0.0858529027472928,1643.0310584770057,0.0,0.7199994039200001,0.0858529027472928,1024,0.0,98,Assisted_Takeoff,
0.37330541897218505,36.9148109980294,4400,2018-03-30 06:05:41,1642.9310584738057,-0.10000000320000002,0.7199994039200001,0.0863616027635712,1643.0310584770057,0.0,0.7199994039200001,0.0863616027635712,1024,0.0,98,Assisted_Takeoff,
0.373305373472442,36.914810956234,4500,2018-03-30 06:05:41,1642.9310584738057,-0.10000000320000002,0.35999970196000003,0.0930889029788448,1643.0310584770057,0.0,0.7199994039200001,0.0930889029788448,1024,0.0,98,Assisted_Takeoff,
0.37330534307610996,36.9148109355533,4600,2018-03-30 06:05:42,1642.9310584738057,-0.10000000320000002,0.35999970196000003,0.09717220310951041,1643.0310584770057,0.0,0.7199994039200001,0.09717220310951041,1024,0.0,98,Assisted_Takeoff,
0.37330532169443703,36.914810913028,4700,2018-03-30 06:05:42,1642.9310584738057,-0.10000000320000002,0.0,0.10051100321635201,1643.0310584770057,0.0,0.7199994039200001,0.10051100321635201,1024,0.0,98,Assisted_Takeoff,
0.37330530459597794,36.9148109026119,4800,2018-03-30 06:05:42,1642.9310584738057,-0.10000000320000002,0.0,0.102737003287584,1643.0310584770057,0.0,0.7199994039200001,0.102737003287584,1024,0.0,98,Assisted_Takeoff,
0.37330525262357706,36.914810888446,4900,2018-03-30 06:05:42,1642.9310584738057,-0.10000000320000002,0.0,0.10849000347168,1643.0310584770057,0.0,0.7199994039200001,0.10849000347168,1024,0.0,98,Assisted_Takeoff,
0.37330521008373496,36.914810881184,5000,2018-03-30 06:05:42,1642.9310584738057,-0.10000000320000002,0.0,0.112974003615168,1643.0310584770057,0.0,0.7199994039200001,0.112974003615168,1024,0.0,98,Assisted_Takeoff,
0.373305177573275,36.9148108671659,5100,2018-03-30 06:05:42,1642.9310584738057,-0.10000000320000002,0.0,0.116884003740288,1643.0310584770057,0.0,0.7199994039200001,0.116884003740288,1024,0.0,98,Assisted_Takeoff,
0.373305147635757,36.91481085883321,5200,2018-03-30 06:05:42,1642.9310584738057,-0.10000000320000002,0.0,0.12023600384755201,1643.0310584770057,0.0,0.7199994039200001,0.12023600384755201,1024,0.0,98,Assisted_Takeoff,
0.37330513185287795,36.9148108459322,5300,2018-03-30 06:05:42,1642.9310584738057,-0.10000000320000002,0.0,0.12247000391904,1643.0310584770057,0.0,0.7199994039200001,0.12247000391904,1024,0.0,98,Assisted_Takeoff,
0.37330511243103703,36.9148108341115,5400,2018-03-30 06:05:42,1643.0310584770057,0.0,0.0,0.12499800399993598,1643.0310584770057,0.0,0.7199994039200001,0.12499800399993598,1024,0.0,98,Assisted_Takeoff,
0.373305072639398,36.914810822226,5500,2018-03-30 06:05:42,1643.0310584770057,0.0,0.0,0.129500004144,1643.0310584770057,0.0,0.7199994039200001,0.129500004144,1035,0.0,98,Assisted_Takeoff,
0.37330503243148705,36.9148108100734,5600,2018-03-30 06:05:43,1643.0310584770057,0.0,0.0,0.134066004290112,1643.0310584770057,0.0,0.7199994039200001,0.134066004290112,1130,0.0,98,Assisted_Takeoff,
0.373305009126825,36.914810799228,5700,2018-03-30 06:05:43,1643.0310584770057,0.0,0.0,0.136918004381376,1643.0310584770057,0.0,0.7199994039200001,0.136918004381376,1244,0.0,98,Assisted_Takeoff,
0.37330498361501,36.914810789208104,5800,2018-03-30 06:05:43,1643.0310584770057,0.0,0.0,0.139942004478144,1643.0310584770057,0.0,0.7199994039200001,0.139942004478144,1342,0.0,98,Assisted_Takeoff,
0.373304979874067,36.9148107841473,5900,2018-03-30 06:05:43,1642.9310584738057,-0.10000000320000002,0.0,0.140577004498464,1643.0310584770057,0.0,0.7199994039200001,0.140577004498464,1338,0.0,98,Assisted_Takeoff,
0.37330496641294203,36.9148107789837,6000,2018-03-30 06:05:43,1642.9310584738057,-0.10000000320000002,0.0,0.142166004549312,1643.0310584770057,0.0,0.7199994039200001,0.142166004549312,1318,0.0,98,Assisted_Takeoff,
0.373304973394489,36.914810777220396,6100,2018-03-30 06:05:43,1642.9310584738057,-0.10000000320000002,0.0,0.14157900453052802,1643.0310584770057,0.0,0.7199994039200001,0.142166004549312,1299,0.0,98,Assisted_Takeoff,
0.37330496993262,36.9148107537251,6200,2018-03-30 06:05:43,1642.9310584738057,-0.10000000320000002,0.0,0.14319200458214398,1643.0310584770057,0.0,0.7199994039200001,0.14319200458214398,1289,0.0,98,Assisted_Takeoff,
0.373304988522734,36.9148106932656,6300,2018-03-30 06:05:43,1642.9310584738057,-0.10000000320000002,0.0,0.14488500463632004,1643.0310584770057,0.0,0.7199994039200001,0.14488500463632004,1292,0.0,98,Assisted_Takeoff,Home Point Recorded. RTH Altitude:  30m.
0.373304986919734,36.91481059109571,6400,2018-03-30 06:05:43,1642.9310584738057,-0.10000000320000002,0.35999970196000003,0.151418004845376,1643.0310584770057,0.0,0.7199994039200001,0.151418004845376,1296,0.0,98,P-GPS,Obstacle Avoided. Revise Flight Route
0.373304965084132,36.9148104980048,6500,2018-03-30 06:05:43,1643.0310584770057,0.0,0.35999970196000003,0.15961600510771198,1643.0310584770057,0.0,0.7199994039200001,0.15961600510771198,1294,0.0,98,P-GPS,
0.373304974639434,36.9148104159369,6600,2018-03-30 06:05:44,1643.0310584770057,0.0,0.35999970196000003,0.16464700526870402,1643.0310584770057,0.0,0.7199994039200001,0.16464700526870402,1306,0.0,98,P-GPS,
0.37330501235826796,36.9148103045935,6700,2018-03-30 06:05:44,1643.0310584770057,0.0,0.35999970196000003,0.17007400544236803,1643.0310584770057,0.0,0.7199994039200001,0.17007400544236803,1322,0.0,98,P-GPS,
0.37330503557458705,36.9148102209411,6800,2018-03-30 06:05:44,1643.1310584802056,0.10000000320000002,0.35999970196000003,0.175066005602112,1643.1310584802056,0.10000000320000002,0.7199994039200001,0.175066005602112,1323,0.0,98,P-GPS,
0.373305086334815,36.914810163842795,6900,2018-03-30 06:05:44,1643.2310584834058,0.20000000640000004,0.0,0.17621100563875203,1643.2310584834058,0.20000000640000004,0.7199994039200001,0.17621100563875203,1324,0.0,98,P-GPS,
0.373305122595174,36.9148101162628,7000,2018-03-30 06:05:44,1643.3310584866058,0.3000000096,0.0,0.17787500569200002,1643.3310584866058,0.3000000096,0.7199994039200001,0.17787500569200002,1333,0.0,98,P-GPS,
0.373305120402067,36.9148100723979,7100,2018-03-30 06:05:44,1643.5310584930057,0.500000016,0.0,0.18193000582176,1643.5310584930057,0.500000016,0.7199994039200001,0.18193000582176,1342,0.0,98,P-GPS,
0.37330510774193304,36.9148100302851,7200,2018-03-30 06:05:44,1643.631058496206,0.6000000192,0.0,0.18654500596944001,1643.631058496206,0.6000000192,0.7199994039200001,0.18654500596944001,1333,0.0,98,P-GPS,
0.373305093510757,36.914810017185005,7300,2018-03-30 06:05:44,1643.8310585026056,0.8000000256000002,0.0,0.188653006036896,1643.8310585026056,0.8000000256000002,0.7199994039200001,0.188653006036896,1317,0.0,98,P-GPS,
0.3733050843943211,36.9148100076249,7400,2018-03-30 06:05:44,1643.9310585058056,0.9000000288000001,0.0,0.19010900608348802,1643.9310585058056,0.9000000288000001,0.7199994039200001,0.19010900608348802,1330,0.0,98,P-GPS,
0.373305082320904,36.9148099516999,7500,2018-03-30 06:05:44,1644.1310585122058,1.1000000352,0.0,0.19530800624985603,1644.1310585122058,1.1000000352,0.7199994039200001,0.19530800624985603,1349,0.0,98,P-GPS,
0.373305074241379,36.9148099158251,7600,2018-03-30 06:05:45,1644.3310585186057,1.3000000416000002,0.0,0.199098006371136,1644.3310585186057,1.3000000416000002,0.7199994039200001,0.199098006371136,1373,0.0,98,P-GPS,
0.37330507120941997,36.9148098998541,7700,2018-03-30 06:05:45,1644.4310585218059,1.4000000448000003,0.0,0.20075400642412802,1644.4310585218059,1.4000000448000003,0.7199994039200001,0.20075400642412802,1384,0.0,98,P-GPS,
0.373305067716204,36.9148098831171,7800,2018-03-30 06:05:45,1644.6310585282056,1.6000000512000003,0.0,0.202511006480352,1644.6310585282056,1.6000000512000003,0.7199994039200001,0.202511006480352,1384,0.0,98,P-GPS,
0.373305037732479,36.9148098605907,7900,2018-03-30 06:05:45,1644.8310585346057,1.8000000576000001,0.0,0.20645900660668803,1644.8310585346057,1.8000000576000001,0.7199994039200001,0.20645900660668803,1379,0.0,98,P-GPS,
0.37330501483676004,36.9148098241891,8000,2018-03-30 06:05:45,1645.0310585410057,2.000000064,0.0,0.21123800675961601,1645.0310585410057,2.000000064,0.7199994039200001,0.21123800675961601,1385,0.0,98,P-GPS,
0.37330500239646597,36.9148097913665,8100,2018-03-30 06:05:45,1645.2310585474058,2.2000000704,0.0,0.215033006881056,1645.2310585474058,2.2000000704,0.7199994039200001,0.215033006881056,1392,0.0,98,P-GPS,
0.37330499006283396,36.9148097607511,8200,2018-03-30 06:05:45,1645.4310585538055,2.4000000768,0.0,0.21862100699587197,1645.4310585538055,2.4000000768,0.7199994039200001,0.21862100699587197,1392,0.0,98,P-GPS,
0.37330498117722993,36.9148097574241,8300,2018-03-30 06:05:45,1645.6310585602057,2.6000000832000003,0.0,0.21948100702339202,1645.6310585602057,2.6000000832000003,0.7199994039200001,0.21948100702339202,1393,0.0,98,P-GPS,
0.373304962562486,36.91480974633139,8400,2018-03-30 06:05:45,1645.8310585666056,2.8000000896000006,0.0,0.22166600709331197,1645.8310585666056,2.8000000896000006,0.7199994039200001,0.22166600709331197,1388,0.0,98,P-GPS,
0.37330495828843197,36.914809751798,8500,2018-03-30 06:05:45,1646.0310585730058,3.0000000960000004,0.0,0.22143400708588803,1646.0310585730058,3.0000000960000004,0.7199994039200001,0.22166600709331197,1386,0.0,98,P-GPS,
0.373304961645673,36.9148097318406,8600,2018-03-30 06:05:46,1646.2310585794057,3.2000001024000007,0.0,0.22305500713776005,1646.2310585794057,3.2000001024000007,0.7199994039200001,0.22305500713776005,1382,0.0,98,P-GPS,
0.37330497538994295,36.914809682979104,8700,2018-03-30 06:05:46,1646.4310585858057,3.4000001088000005,0.0,0.226731007255392,1646.4310585858057,3.4000001088000005,0.7199994039200001,0.226731007255392,1372,0.0,98,P-GPS,
0.373304975869113,36.9148096290118,8800,2018-03-30 06:05:46,1646.6310585922056,3.6000001152000003,0.0,0.23175300741609603,1646.6310585922056,3.6000001152000003,0.7199994039200001,0.23175300741609603,1379,0.0,98,P-GPS,
0.37330498173497206,36.914809562281704,8900,2018-03-30 06:05:46,1646.8310585986058,3.8000001215999997,0.0,0.23772200760710402,1646.8310585986058,3.8000001215999997,0.7199994039200001,0.23772200760710402,1388,0.0,98,P-GPS,
0.373304991413018,36.914809501901296,9000,2018-03-30 06:05:46,1647.0310586050057,4.000000128,0.0,0.242948007774336,1647.0310586050057,4.000000128,0.7199994039200001,0.242948007774336,1389,0.0,98,P-GPS,
0.373305044742116,36.9148094406597,9100,2018-03-30 06:05:46,1647.2310586114056,4.2000001344,0.0,0.24600600787219198,1647.2310586114056,4.2000001344,0.7199994039200001,0.24600600787219198,1390,0.0,98,P-GPS,
0.37330508190443,36.91480937315389,9200,2018-03-30 06:05:46,1647.5310586210057,4.5000001439999995,0.35999970196000003,0.250777008024864,1647.5310586210057,4.5000001439999995,0.7199994039200001,0.250777008024864,1389,0.0,98,P-GPS,
0.373305109180052,36.914809309846,9300,2018-03-30 06:05:46,1647.7310586274057,4.700000150400001,0.35999970196000003,0.255789008185248,1647.7310586274057,4.700000150400001,0.7199994039200001,0.255789008185248,1388,0.0,98,P-GPS,
0.373305131095448,36.91480924780571,9400,2018-03-30 06:05:46,1647.9310586338058,4.9000001568,0.0,0.261044008353408,1647.9310586338058,4.9000001568,0.7199994039200001,0.261044008353408,1413,0.0,98,P-GPS,
0.373305108977311,36.9148091752551,9500,2018-03-30 06:05:46,1648.1310586402055,5.1000001632,0.0,0.26941500862128004,1648.1310586402055,5.1000001632,0.7199994039200001,0.26941500862128004,1422,0.0,98,P-GPS,
0.373305097958241,36.9148091207156,9600,2018-03-30 06:05:47,1648.3310586466057,5.3000001696,0.0,0.275461008814752,1648.3310586466057,5.3000001696,0.7199994039200001,0.275461008814752,1384,0.0,98,P-GPS,
0.37330511932424104,36.9148090749391,9700,2018-03-30 06:05:47,1648.5310586530056,5.500000176000001,0.0,0.279208008934656,1648.5310586530056,5.500000176000001,0.7199994039200001,0.279208008934656,1328,0.0,98,P-GPS,
0.37330513639827206,36.9148090257634,9800,2018-03-30 06:05:47,1648.8310586626058,5.8000001856,0.35999970196000003,0.28354500907344,1648.8310586626058,5.8000001856,0.7199994039200001,0.28354500907344,1365,0.0,98,P-GPS,
0.373305155909474,36.914808972416,9900,2018-03-30 06:05:47,1649.031058669006,6.000000192000001,0.0,0.288269009224608,1649.031058669006,6.000000192000001,0.7199994039200001,0.288269009224608,1426,0.0,98,P-GPS,
0.373305195380921,36.914808952559206,10000,2018-03-30 06:05:47,1649.2310586754056,6.2000001984,0.0,0.288791009241312,1649.2310586754056,6.2000001984,0.7199994039200001,0.288791009241312,1413,0.0,98,P-GPS,
0.373305224309415,36.9148089495261,10100,2018-03-30 06:05:47,1649.4310586818058,6.400000204800001,0.0,0.28801800921657605,1649.4310586818058,6.400000204800001,0.7199994039200001,0.288791009241312,1389,0.0,98,P-GPS,
0.373305243823466,36.914808946252705,10200,2018-03-30 06:05:47,1649.6310586882057,6.6000002112,0.0,0.28764500920464003,1649.6310586882057,6.6000002112,0.7199994039200001,0.288791009241312,1417,0.0,98,P-GPS,
0.37330523474142996,36.914808956392,10300,2018-03-30 06:05:47,1649.8310586946059,6.800000217600001,0.0,0.286912009181184,1649.8310586946059,6.800000217600001,0.7199994039200001,0.288791009241312,1450,0.0,98,P-GPS,
0.373305233832759,36.9148089724604,10400,2018-03-30 06:05:47,1650.0310587010056,7.000000224,0.0,0.28526000912832,1650.0310587010056,7.000000224,0.7199994039200001,0.288791009241312,1464,0.0,98,P-GPS,
0.373305209617389,36.9148089982479,10500,2018-03-30 06:05:47,1650.3310587106057,7.3000002336000005,0.0,0.283476009071232,1650.3310587106057,7.3000002336000005,0.7199994039200001,0.288791009241312,1485,0.0,98,P-GPS,
0.373305201438122,36.9148090235001,10600,2018-03-30 06:05:48,1650.5310587170059,7.50000024,0.0,0.281159008997088,1650.5310587170059,7.50000024,0.7199994039200001,0.288791009241312,1496,0.0,98,P-GPS,
0.37330515487663396,36.914809005261,10700,2018-03-30 06:05:48,1650.8310587266055,7.8000002496,0.0,0.28490600911699204,1650.8310587266055,7.8000002496,0.7199994039200001,0.288791009241312,1502,0.0,98,P-GPS,
0.37330512084520706,36.9148089927101,10800,2018-03-30 06:05:48,1651.0310587330057,8.000000256,0.0,0.287601009203232,1651.0310587330057,8.000000256,0.7199994039200001,0.288791009241312,1500,0.0,98,P-GPS,
0.37330508289818803,36.914808971206206,10900,2018-03-30 06:05:48,1651.3310587426058,8.3000002656,0.0,0.291414009325248,1651.3310587426058,8.3000002656,0.7199994039200001,0.291414009325248,1499,0.0,98,P-GPS,
0.37330506822204,36.914808961009605,11000,2018-03-30 06:05:48,1651.6310587522055,8.6000002752,0.0,0.293089009378848,1651.6310587522055,8.6000002752,0.7199994039200001,0.293089009378848,1500,0.0,98,P-GPS,
0.373305021086117,36.9148089471434,11100,2018-03-30 06:05:48,1652.0310587650058,9.000000287999999,0.0,0.29657100949027204,1652.0310587650058,9.000000287999999,0.7199994039200001,0.29657100949027204,1567,0.0,98,P-GPS,
0.373304990894766,36.9148089423979,11200,2018-03-30 06:05:48,1652.3310587746057,9.3000002976,0.0,0.298413009549216,1652.3310587746057,9.3000002976,0.7199994039200001,0.298413009549216,1628,0.0,98,P-GPS,
0.37330496569052396,36.9148089347349,11300,2018-03-30 06:05:48,1652.6310587842056,9.6000003072,0.0,0.30034500961104005,1652.6310587842056,9.6000003072,0.7199994039200001,0.30034500961104005,1642,0.0,98,P-GPS,
0.373304950542534,36.91480893126771,11400,2018-03-30 06:05:48,1652.9310587938057,9.900000316799998,0.0,0.301399009644768,1652.9310587938057,9.900000316799998,0.7199994039200001,0.301399009644768,1647,0.0,98,P-GPS,
0.37330494027723,36.914808881693794,11500,2018-03-30 06:05:48,1653.3310588066058,10.300000329600001,0.0,0.306884009820288,1653.3310588066058,10.300000329600001,0.7199994039200001,0.306884009820288,1635,0.0,98,P-GPS,
0.37330494234820394,36.9148088338274,11600,2018-03-30 06:05:49,1653.7310588194057,10.700000342400001,0.0,0.31163800997241603,1653.7310588194057,10.700000342400001,0.7199994039200001,0.31163800997241603,1639,0.0,98,P-GPS,
0.373304956719019,36.914808761508105,11700,2018-03-30 06:05:49,1654.2310588354057,11.200000358400002,0.0,0.318358010187456,1654.2310588354057,11.200000358400002,0.7199994039200001,0.318358010187456,1664,0.0,98,P-GPS,
0.373304980791696,36.914808730657604,11800,2018-03-30 06:05:49,1654.6310588482056,11.6000003712,0.0,0.3204730102551361,1654.6310588482056,11.6000003712,0.7199994039200001,0.3204730102551361,1684,0.0,98,P-GPS,
0.373305010061552,36.9148087399608,11900,2018-03-30 06:05:49,1655.0310588610057,12.000000384000002,0.0,0.318277010184864,1655.0310588610057,12.000000384000002,0.7199994039200001,0.3204730102551361,1684,0.0,98,P-GPS,
0.373305048172637,36.9148087549923,12000,2018-03-30 06:05:49,1655.5310588770058,12.500000400000001,0.0,0.31514901008476803,1655.5310588770058,12.500000400000001,0.7199994039200001,0.3204730102551361,1684,0.0,98,P-GPS,
0.37330510309822096,36.914808764451706,12100,2018-03-30 06:05:49,1656.0310588930058,13.000000416,0.0,0.311972009983104,1656.0310588930058,13.000000416,0.7199994039200001,0.3204730102551361,1684,0.0,98,P-GPS,
0.37330515072226894,36.914808790585,12200,2018-03-30 06:05:49,1656.5310589090057,13.500000432000002,0.0,0.307416009837312,1656.5310589090057,13.500000432000002,0.7199994039200001,0.3204730102551361,1684,0.0,98,P-GPS,
0.373305208299367,36.9148087782419,12300,2018-03-30 06:05:49,1657.031058925006,14.000000448,0.0,0.30660300981129607,1657.031058925006,14.000000448,0.7199994039200001,0.3204730102551361,1684,0.0,98,P-GPS,
0.37330527319937395,36.914808798669796,12400,2018-03-30 06:05:49,1657.5310589410058,14.500000464,0.0,0.302207009670624,1657.5310589410058,14.500000464,0.7199994039200001,0.3204730102551361,1684,0.0,98,P-GPS,
0.373305344805925,36.9148088447622,12500,2018-03-30 06:05:49,1658.0310589570056,15.00000048,0.0,0.29499000943968,1658.0310589570056,15.00000048,0.7199994039200001,0.3204730102551361,1684,0.0,98,P-GPS,
0.37330540739903706,36.91480889322379,12600,2018-03-30 06:05:50,1658.5310589730059,15.500000496,0.0,0.287911009213152,1658.5310589730059,15.500000496,0.7199994039200001,0.3204730102551361,1684,0.0,98,P-GPS,
0.373305461217483,36.914808900201,12700,2018-03-30 06:05:50,1659.0310589890057,16.000000512,0.0,0.285642009140544,1659.0310589890057,16.000000512,0.7199994039200001,0.3204730102551361,1684,0.0,98,P-GPS,
0.373305508834101,36.9148089200385,12800,2018-03-30 06:05:50,1659.5310590050058,16.500000528,0.0,0.28224600903187197,1659.5310590050058,16.500000528,0.7199994039200001,0.3204730102551361,1684,0.0,98,P-GPS,
0.373305536531593,36.914808949797504,12900,2018-03-30 06:05:50,1660.0310590210056,17.000000544000002,0.0,0.27833000890656,1660.0310590210056,17.000000544000002,0.7199994039200001,0.3204730102551361,1684,0.0,98,P-GPS,
0.373305544061823,36.9148089958947,13000,2018-03-30 06:05:50,1660.531059037006,17.50000056,0.0,0.27314500874064,1660.531059037006,17.50000056,0.7199994039200001,0.3204730102551361,1684,0.0,98,P-GPS,
0.37330549993608003,36.91480901411129,13100,2018-03-30 06:05:50,1661.0310590530057,18.000000575999998,0.0,0.272309008713888,1661.0310590530057,18.000000575999998,0.7199994039200001,0.3204730102551361,1684,0.0,98,P-GPS,
0.373305466240825,36.9148090561909,13200,2018-03-30 06:05:50,1661.5310590690056,18.500000592000003,0.0,0.26871000859872,1661.5310590690056,18.500000592000003,0.7199994039200001,0.3204730102551361,1684,0.0,98,P-GPS,
0.37330538156010906,36.9148090651686,13300,2018-03-30 06:05:50,1662.0310590850058,19.000000608,0.0,0.270333008650656,1662.0310590850058,19.000000608,0.7199994039200001,0.3204730102551361,1684,0.0,98,P-GPS,
0.37330529939656,36.9148090901365,13400,2018-03-30 06:05:50,1662.5310591010057,19.500000624000002,0.0,0.27050400865612806,1662.5310591010057,19.500000624000002,0.7199994039200001,0.3204730102551361,1684,0.0,98,P-GPS,
0.373305183344481,36.9148091148561,13500,2018-03-30 06:05:50,1663.131059120206,20.1000006432,0.0,0.272407008717024,1663.131059120206,20.1000006432,0.7199994039200001,0.3204730102551361,1684,0.0,98,P-GPS,
0.37330507196685003,36.9148091602509,13600,2018-03-30 06:05:51,1663.6310591362057,20.600000659200003,0.0,0.272623008723936,1663.6310591362057,20.600000659200003,0.7199994039200001,0.3204730102551361,1684,0.0,98,P-GPS,
0.37330494832642497,36.914809174317796,13700,2018-03-30 06:05:51,1664.1310591522056,21.1000006752,0.0,0.277216008870912,1664.1310591522056,21.1000006752,0.7199994039200001,0.3204730102551361,1684,0.0,98,P-GPS,
0.37330483042341606,36.9148092096889,13800,2018-03-30 06:05:51,1664.6310591682056,21.600000691199998,0.0,0.28004000896128,1664.6310591682056,21.600000691199998,0.7199994039200001,0.3204730102551361,1670,0.0,98,P-GPS,
0.373304695767382,36.9148092322485,13900,2018-03-30 06:05:51,1665.1310591842057,22.1000007072,0.0,0.28570500914256003,1665.1310591842057,22.1000007072,0.7199994039200001,0.3204730102551361,1661,0.0,98,P-GPS,
0.373304564816465,36.9148092498174,14000,2018-03-30 06:05:51,1665.6310592002058,22.6000007232,0.0,0.29226200935238394,1665.6310592002058,22.6000007232,0.7199994039200001,0.3204730102551361,1650,0.0,98,P-GPS,
0.37330440077454796,36.9148092511294,14100,2018-03-30 06:05:51,1666.1310592162056,23.100000739200006,0.0,0.30309000969888006,1666.1310592162056,23.100000739200006,0.7199994039200001,0.3204730102551361,1647,0.0,98,P-GPS,
0.37330424577192106,36.9148092605161,14200,2018-03-30 06:05:51,1666.6310592322059,23.6000007552,0.0,0.31326801002457605,1666.6310592322059,23.6000007552,0.7199994039200001,0.3204730102551361,1645,0.0,98,P-GPS,
0.37330405903010494,36.9148092409205,14300,2018-03-30 06:05:51,1667.1310592482057,24.100000771199998,0.0,0.32881301052201606,1667.1310592482057,24.100000771199998,0.7199994039200001,0.32881301052201606,1629,0.0,98,P-GPS,
0.373303885629725,36.914809239110106,14400,2018-03-30 06:05:51,1667.6310592642058,24.600000787200003,0.0,0.34247801095929603,1667.6310592642058,24.600000787200003,0.7199994039200001,0.34247801095929603,1617,0.0,98,P-GPS,
0.37330370159316206,36.914809264367705,14500,2018-03-30 06:05:51,1668.1310592802058,25.100000803199997,0.0,0.355531011376992,1668.1310592802058,25.100000803199997,0.7199994039200001,0.355531011376992,1626,-4.1,98,P-GPS,
0.37330353598692106,36.9148092874561,14600,2018-03-30 06:05:52,1668.531059293006,25.500000816,0.0,0.367848011771136,1668.531059293006,25.500000816,0.7199994039200001,0.367848011771136,1626,-9.7,98,P-GPS,
0.37330333006977096,36.914809247106106,14700,2018-03-30 06:05:52,1669.0310593090057,26.000000832,0.0,0.388532012433024,1669.0310593090057,26.000000832,0.7199994039200001,0.388532012433024,1630,-15.3,98,P-GPS,
0.37330314382055996,36.914809217388296,14800,2018-03-30 06:05:52,1669.5310593250056,26.500000848000003,0.0,0.40704001302528,1669.5310593250056,26.500000848000003,0.7199994039200001,0.40704001302528,1616,-20.9,98,P-GPS,
0.373302971872751,36.9148091639424,14900,2018-03-30 06:05:52,1669.9310593378057,26.9000008608,0.0,0.42600501363216,1669.9310593378057,26.9000008608,0.7199994039200001,0.42600501363216,1593,-21.7,98,P-GPS,
0.37330283186890706,36.914809102404206,15000,2018-03-30 06:05:52,1670.431059353806,27.4000008768,0.0,0.44266501416528004,1670.431059353806,27.4000008768,0.7199994039200001,0.44266501416528004,1582,-21.7,98,P-GPS,
0.3733026828068429,36.9148090305174,15100,2018-03-30 06:05:52,1670.8310593666058,27.8000008896,0.0,0.46083401474668806,1670.8310593666058,27.8000008896,0.7199994039200001,0.46083401474668806,1581,-21.7,98,P-GPS,
0.37330254454217704,36.9148089694091,15200,2018-03-30 06:05:52,1671.231059379406,28.200000902400003,0.0,0.47735301527529606,1671.231059379406,28.200000902400003,0.7199994039200001,0.47735301527529606,1555,-21.3,98,P-GPS,
0.373302384074084,36.914808945773004,15300,2018-03-30 06:05:52,1671.6310593922058,28.600000915200003,0.0,0.49363301579625607,1671.6310593922058,28.600000915200003,0.7199994039200001,0.49363301579625607,1555,-17.0,98,P-GPS,
0.373302240976603,36.914808941789296,15400,2018-03-30 06:05:52,1672.1310594082058,29.1000009312,0.0,0.507228016231296,1672.1310594082058,29.1000009312,0.7199994039200001,0.507228016231296,1545,-17.0,98,P-GPS,
0.373302081073581,36.914808906874704,15500,2018-03-30 06:05:52,1672.5310594210057,29.500000944,0.35999970196000003,0.5243520167792639,1672.5310594210057,29.500000944,0.7199994039200001,0.5243520167792639,1536,-13.7,98,P-GPS,
0.373301947555015,36.9148088867289,15600,2018-03-30 06:05:53,1672.9310594338058,29.900000956800003,0.0,0.5381850172219199,1672.9310594338058,29.900000956800003,0.7199994039200001,0.5381850172219199,1540,-13.7,98,P-GPS,
0.37330178651859497,36.9148088876603,15700,2018-03-30 06:05:53,1673.3310594466057,30.300000969600003,0.0,0.5535350177131201,1673.3310594466057,30.300000969600003,0.7199994039200001,0.5535350177131201,1518,-13.7,98,P-GPS,
0.373301678935442,36.914808882776704,15800,2018-03-30 06:05:53,1673.6310594562058,30.6000009792,0.0,0.564176018053632,1673.6310594562058,30.6000009792,0.7199994039200001,0.564176018053632,1452,-13.7,98,P-GPS,
0.37330157393133795,36.914808866699204,15900,2018-03-30 06:05:53,1674.0310594690056,31.000000992,0.0,0.5752260184072321,1674.0310594690056,31.000000992,0.7199994039200001,0.5752260184072321,1460,-13.7,98,P-GPS,
0.37330149905507604,36.9148088468097,16000,2018-03-30 06:05:53,1674.4310594818057,31.400001004800004,0.0,0.583577018674464,1674.4310594818057,31.400001004800004,0.7199994039200001,0.583577018674464,1520,-13.7,98,P-GPS,
0.37330142510621206,36.9148088105751,16100,2018-03-30 06:05:53,1674.7310594914059,31.7000010144,0.0,0.592723018967136,1674.7310594914059,31.7000010144,0.7199994039200001,0.592723018967136,1556,-13.7,98,P-GPS,
0.373301392413978,36.9148088022976,16200,2018-03-30 06:05:53,1675.0310595010058,32.000001024,0.0,0.5963510190832321,1675.0310595010058,32.000001024,0.7199994039200001,0.5963510190832321,1548,-13.7,98,P-GPS,
0.37330132497441204,36.914808775164396,16300,2018-03-30 06:05:53,1675.4310595138058,32.4000010368,0.0,0.604376019340032,1675.4310595138058,32.4000010368,0.7199994039200001,0.604376019340032,1539,-13.7,98,P-GPS,
0.373301288396303,36.914808750813606,16400,2018-03-30 06:05:53,1675.7310595234055,32.700001046400004,0.0,0.6092450194958401,1675.7310595234055,32.700001046400004,0.7199994039200001,0.6092450194958401,1522,-13.7,98,P-GPS,
0.37330121405050704,36.914808724572204,16500,2018-03-30 06:05:53,1676.1310595362056,33.100001059200004,0.0,0.6178970197727041,1676.1310595362056,33.100001059200004,0.7199994039200001,0.6178970197727041,1521,-13.7,98,P-GPS,
0.37330118997152,36.91480870784321,16600,2018-03-30 06:05:53,1676.4310595458057,33.4000010688,0.0,0.621139019876448,1676.4310595458057,33.4000010688,0.7199994039200001,0.621139019876448,1536,-13.7,98,P-GPS,
0.37330116466102203,36.9148086175739,16700,2018-03-30 06:05:54,1676.8310595586056,33.800001081599994,0.0,0.628474020111168,1676.8310595586056,33.800001081599994,0.7199994039200001,0.628474020111168,1552,-13.7,98,P-GPS,
0.37330118921673605,36.914808546262606,16800,2018-03-30 06:05:54,1677.1310595682055,34.1000010912,0.0,0.630041020161312,1677.1310595682055,34.1000010912,0.7199994039200001,0.630041020161312,1561,-13.7,98,P-GPS,
0.37330116723966295,36.9148084368275,16900,2018-03-30 06:05:54,1677.5310595810054,34.500001104,0.0,0.638332020426624,1677.5310595810054,34.500001104,0.7199994039200001,0.638332020426624,1575,-13.7,98,P-GPS,
0.373301192732139,36.9148083378203,17000,2018-03-30 06:05:54,1677.9310595938055,34.9000011168,0.0,0.64166002053312,1677.9310595938055,34.9000011168,0.7199994039200001,0.64166002053312,1590,-13.7,98,P-GPS,
0.37330120755342205,36.9148082329215,17100,2018-03-30 06:05:54,1678.3310596066055,35.300001129600005,0.35999970196000003,0.6465240206887679,1678.3310596066055,35.300001129600005,0.7199994039200001,0.6465240206887679,1576,-13.7,98,P-GPS,
0.37330126925190904,36.9148081619608,17200,2018-03-30 06:05:54,1678.7310596194056,35.7000011424,0.35999970196000003,0.645133020644256,1678.7310596194056,35.7000011424,0.7199994039200001,0.6465240206887679,1570,-13.7,98,P-GPS,
0.37330132904308,36.9148080796804,17300,2018-03-30 06:05:54,1679.0310596290055,36.000001151999996,0.35999970196000003,0.6448000206336,1679.0310596290055,36.000001151999996,0.7199994039200001,0.6465240206887679,1572,-13.7,98,P-GPS,
0.37330140931519107,36.914808020597704,17400,2018-03-30 06:05:54,1679.4310596418054,36.4000011648,0.35999970196000003,0.64131002052192,1679.4310596418054,36.4000011648,0.7199994039200001,0.6465240206887679,1581,-13.7,98,P-GPS,
0.373301401303247,36.914807932040794,17500,2018-03-30 06:05:54,1679.8310596546055,36.8000011776,0.35999970196000003,0.647832020730624,1679.8310596546055,36.8000011776,0.7199994039200001,0.647832020730624,1584,-13.7,98,P-GPS,
0.373301409138505,36.914807868944294,17600,2018-03-30 06:05:55,1680.2310596674056,37.2000011904,0.0,0.651326020842432,1680.2310596674056,37.2000011904,0.7199994039200001,0.651326020842432,1574,-13.7,98,P-GPS,
0.3733014104848211,36.9148077693788,17700,2018-03-30 06:05:55,1680.6310596802057,37.60000120320001,0.0,0.6579250210536001,1680.6310596802057,37.60000120320001,0.7199994039200001,0.6579250210536001,1575,-13.7,98,P-GPS,
0.3733014387542021,36.914807688074795,17800,2018-03-30 06:05:55,1681.1310596962055,38.1000012192,0.35999970196000003,0.6610360211531521,1681.1310596962055,38.1000012192,0.7199994039200001,0.6610360211531521,1578,-13.7,98,P-GPS,
0.37330143089614504,36.9148075807869,17900,2018-03-30 06:05:55,1681.5310597090056,38.500001232,0.35999970196000003,0.6692090214146881,1681.5310597090056,38.500001232,0.7199994039200001,0.6692090214146881,1585,-13.7,98,P-GPS,
0.37330146406917797,36.9148074915325,18000,2018-03-30 06:05:55,1681.9310597218055,38.9000012448,0.35999970196000003,0.6727130215268161,1681.9310597218055,38.9000012448,0.7199994039200001,0.6727130215268161,1595,-13.7,98,P-GPS,
0.373301470575219,36.9148073638974,18100,2018-03-30 06:05:55,1682.3310597346056,39.3000012576,0.35999970196000003,0.6814030218048961,1682.3310597346056,39.3000012576,0.7199994039200001,0.6814030218048961,1592,-13.7,98,P-GPS,
0.373301506043543,36.9148072734622,18200,2018-03-30 06:05:55,1682.7310597474054,39.7000012704,0.35999970196000003,0.68511502192368,1682.7310597474054,39.7000012704,0.7199994039200001,0.68511502192368,1586,-13.7,98,P-GPS,
0.373301532647433,36.914807177226294,18300,2018-03-30 06:05:55,1683.0310597570056,40.00000128,0.35999970196000003,0.690138022084416,1683.0310597570056,40.00000128,0.7199994039200001,0.690138022084416,1586,-13.7,98,P-GPS,
0.373301571985754,36.914807121398795,18400,2018-03-30 06:05:55,1683.5310597730056,40.500001296,0.35999970196000003,0.691182022117824,1683.5310597730056,40.500001296,0.7199994039200001,0.691182022117824,1586,-13.7,98,P-GPS,
0.37330158511142003,36.914807052988294,18500,2018-03-30 06:05:55,1683.9310597858055,40.90000130880001,0.0,0.695378022252096,1683.9310597858055,40.90000130880001,0.7199994039200001,0.695378022252096,1590,-13.7,98,P-GPS,
0.37330160043182103,36.914807021867496,18600,2018-03-30 06:05:55,1684.3310597986056,41.30000132160001,0.0,0.6965620222899841,1684.3310597986056,41.30000132160001,0.7199994039200001,0.6965620222899841,1594,-13.7,98,P-GPS,
0.37330155764934003,36.9148069907381,18700,2018-03-30 06:05:56,1684.7310598114054,41.7000013344,0.0,0.7023860224763521,1684.7310598114054,41.7000013344,0.7199994039200001,0.7023860224763521,1589,-13.7,98,P-GPS,
0.373301533884236,36.9148069842555,18800,2018-03-30 06:05:56,1685.1310598242055,42.1000013472,0.0,0.70478502255312,1685.1310598242055,42.1000013472,0.7199994039200001,0.70478502255312,1589,-13.7,98,P-GPS,
0.373301491467748,36.9148069434242,18900,2018-03-30 06:05:56,1685.5310598370054,42.50000136,0.0,0.711332022762624,1685.5310598370054,42.50000136,0.7199994039200001,0.711332022762624,1590,-13.7,98,P-GPS,
0.373301481447525,36.914806927688204,19000,2018-03-30 06:05:56,1685.9310598498055,42.900001372800006,0.0,0.7133500228272001,1685.9310598498055,42.900001372800006,0.7199994039200001,0.7133500228272001,1590,-13.7,98,P-GPS,
0.3733014640427151,36.914806869759104,19100,2018-03-30 06:05:56,1686.3310598626053,43.300001385600005,0.0,0.71923002301536,1686.3310598626053,43.300001385600005,0.7199994039200001,0.71923002301536,1610,-13.7,98,P-GPS,
0.37330145518438707,36.9148068398867,19200,2018-03-30 06:05:56,1686.7310598754054,43.700001398400005,0.0,0.7222590231122881,1686.7310598754054,43.700001398400005,0.7199994039200001,0.7222590231122881,1641,-13.7,98,P-GPS,
0.37330143101339297,36.9148068110313,19300,2018-03-30 06:05:56,1687.1310598882058,44.100001411200004,0.0,0.7264250232456001,1687.1310598882058,44.100001411200004,0.7199994039200001,0.7264250232456001,1677,-13.7,98,P-GPS,
0.37330142064997496,36.9148068044706,19400,2018-03-30 06:05:56,1687.6310599042056,44.6000014272,0.0,0.7277580232882561,1687.6310599042056,44.6000014272,0.7199994039200001,0.7277580232882561,1684,-13.7,98,P-GPS,
0.37330136425858795,36.914806763362996,19500,2018-03-30 06:05:56,1688.0310599170057,45.00000144,0.0,0.7354360235339521,1688.0310599170057,45.00000144,0.7199994039200001,0.7354360235339521,1684,-13.7,98,P-GPS,
0.373301320889053,36.914806748200895,19600,2018-03-30 06:05:57,1688.5310599330055,45.50000145600001,0.0,0.74006502368208,1688.5310599330055,45.50000145600001,0.7199994039200001,0.74006502368208,1684,-13.7,98,P-GPS,
0.37330127268548297,36.9148067259855,19700,2018-03-30 06:05:57,1689.0310599490053,46.000001471999994,0.0,0.7456310238601921,1689.0310599490053,46.000001471999994,0.7199994039200001,0.7456310238601921,1684,-13.7,98,P-GPS,
0.373301247013877,36.914806731748705,19800,2018-03-30 06:05:57,1689.5310599650056,46.50000148800001,0.0,0.7472400239116801,1689.5310599650056,46.50000148800001,0.7199994039200001,0.7472400239116801,1684,-13.7,98,P-GPS,
0.373301174550562,36.914806748324,19900,2018-03-30 06:05:57,1690.0310599810055,47.000001504000004,0.0,0.7518000240576,1690.0310599810055,47.000001504000004,0.7199994039200001,0.7518000240576,1684,-13.7,98,P-GPS,
0.373301119590984,36.9148067821963,20000,2018-03-30 06:05:57,1690.5310599970055,47.500001520000005,0.0,0.753688024118016,1690.5310599970055,47.500001520000005,0.7199994039200001,0.753688024118016,1684,-13.7,98,P-GPS,
0.37330111855529396,36.9148068266742,20100,2018-03-30 06:05:57,1691.0310600130056,48.000001536000006,0.0,0.750419024013408,1691.0310600130056,48.000001536000006,0.7199994039200001,0.753688024118016,1681,-13.7,98,P-GPS,
0.37330112596430703,36.9148068692613,20200,2018-03-30 06:05:57,1691.6310600322054,48.6000015552,0.0,0.746614023891648,1691.6310600322054,48.6000015552,0.7199994039200001,0.753688024118016,1681,-13.7,98,P-GPS,
0.373301081678365,36.9148069076976,20300,2018-03-30 06:05:57,1692.1310600482057,49.1000015712,0.0,0.7474040239169281,1692.1310600482057,49.1000015712,0.7199994039200001,0.753688024118016,1652,-13.7,98,P-GPS,
0.37330104836772904,36.9148069519196,20400,2018-03-30 06:05:57,1692.6310600642055,49.6000015872,0.0,0.7469090239010879,1692.6310600642055,49.6000015872,0.7199994039200001,0.753688024118016,1649,-13.7,98,P-GPS,
0.373300961467851,36.9148069408719,20500,2018-03-30 06:05:57,1693.1310600802055,50.100001603200006,0.0,0.754993024159776,1693.1310600802055,50.100001603200006,0.7199994039200001,0.754993024159776,1649,-13.7,98,P-GPS,
0.3733008936948621,36.9148069434124,20600,2018-03-30 06:05:57,1693.5310600930054,50.500001616000006,0.0,0.7605170243365441,1693.5310600930054,50.500001616000006,0.7199994039200001,0.7605170243365441,1668,-13.7,98,P-GPS,
0.373300796382305,36.914806943831,20700,2018-03-30 06:05:58,1694.0310601090057,51.000001632,0.0,0.76874002459968,1694.0310601090057,51.000001632,0.7199994039200001,0.76874002459968,1668,-13.7,98,P-GPS,
0.37330072531456604,36.9148069512847,20800,2018-03-30 06:05:58,1694.5310601250055,51.50000164800001,0.0,0.774279024776928,1694.5310601250055,51.50000164800001,0.7199994039200001,0.774279024776928,1670,-13.7,98,P-GPS,
0.37330061731331105,36.914806941445704,20900,2018-03-30 06:05:58,1695.0310601410056,52.000001664,0.0,0.7842580250962562,1695.0310601410056,52.000001664,0.7199994039200001,0.7842580250962562,1669,-13.7,98,P-GPS,
0.373300532345174,36.9148069476264,21000,2018-03-30 06:05:58,1695.4310601538054,52.400001676799995,0.0,0.791182025317824,1695.4310601538054,52.400001676799995,0.7199994039200001,0.791182025317824,1668,-13.7,98,P-GPS,
0.37330044247094296,36.914806941491705,21100,2018-03-30 06:05:58,1695.9310601698057,52.90000169280001,0.0,0.799434025581888,1695.9310601698057,52.90000169280001,0.7199994039200001,0.799434025581888,1667,-13.7,98,P-GPS,
0.373300387221909,36.9148069621365,21200,2018-03-30 06:05:58,1696.4310601858056,53.400001708800005,0.0,0.8028590256914879,1696.4310601858056,53.400001708800005,0.7199994039200001,0.8028590256914879,1666,-13.7,98,P-GPS,
0.37330028849423497,36.9148069713214,21300,2018-03-30 06:05:58,1696.9310602018054,53.900001724800006,0.0,0.8109380259500161,1696.9310602018054,53.900001724800006,0.7199994039200001,0.8109380259500161,1667,-13.7,98,P-GPS,
0.37330020911491796,36.91480699010221,21400,2018-03-30 06:05:58,1697.4310602178055,54.40000174080001,0.0,0.816724026135168,1697.4310602178055,54.40000174080001,0.7199994039200001,0.816724026135168,1667,-13.7,98,P-GPS,
0.373300098071322,36.9148069764111,21500,2018-03-30 06:05:59,1697.9310602338055,54.9000017568,0.0,0.8275450264814399,1697.9310602338055,54.9000017568,0.7199994039200001,0.8275450264814399,1659,-13.7,98,P-GPS,
0.37329994652913795,36.914806964452296,21700,2018-03-30 06:05:59,1698.9310602658054,55.900001788800004,0.0,0.8419480269423361,1698.9310602658054,55.900001788800004,0.7199994039200001,0.8419480269423361,1652,-13.7,98,P-GPS,
0.373299899831064,36.9148069701994,21800,2018-03-30 06:05:59,1699.4310602818057,56.400001804800006,0.0,0.84579502706544,1699.4310602818057,56.400001804800006,0.7199994039200001,0.84579502706544,1664,-13.7,98,P-GPS,
0.37329980956641295,36.9148069534345,21900,2018-03-30 06:05:59,1699.9310602978055,56.90000182080001,0.0,0.855058027361856,1699.9310602978055,56.90000182080001,0.7199994039200001,0.855058027361856,1667,-13.7,98,P-GPS,
0.373299746543187,36.9148069475247,22000,2018-03-30 06:05:59,1700.4310603138056,57.4000018368,0.0,0.861168027557376,1700.4310603138056,57.4000018368,0.7199994039200001,0.861168027557376,1658,-13.7,98,P-GPS,
0.373299681971312,36.9148069288863,22100,2018-03-30 06:05:59,1700.9310603298056,57.90000185280001,0.0,0.8682420277837442,1700.9310603298056,57.90000185280001,0.7199994039200001,0.8682420277837442,1661,-13.7,98,P-GPS,
0.37329964986002506,36.9148069334246,22200,2018-03-30 06:05:59,1701.4310603458055,58.400001868800004,0.0,0.8708870278683841,1701.4310603458055,58.400001868800004,0.7199994039200001,0.8708870278683841,1667,-13.7,98,P-GPS,
0.37329957493287397,36.914806930201,22300,2018-03-30 06:05:59,1701.9310603618055,58.900001884800005,0.0,0.877953028094496,1701.9310603618055,58.900001884800005,0.7199994039200001,0.877953028094496,1664,-13.7,98,P-GPS,
0.37329953960948103,36.9148069364202,22400,2018-03-30 06:05:59,1702.3310603746054,59.30000189760001,0.0,0.8808080281858559,1702.3310603746054,59.30000189760001,0.7199994039200001,0.8808080281858559,1665,-13.7,98,P-GPS,
0.37329949726668,36.9148069196896,22500,2018-03-30 06:05:59,1702.8310603906057,59.800001913600006,0.0,0.8857490283439681,1702.8310603906057,59.800001913600006,0.7199994039200001,0.8857490283439681,1664,-13.7,98,P-GPS,
0.373299487182541,36.914806910948,22600,2018-03-30 06:05:59,1703.3310604066055,60.30000192960001,0.0,0.8872220283911041,1703.3310604066055,60.30000192960001,0.7199994039200001,0.8872220283911041,1664,-13.7,98,P-GPS,
0.373299436334377,36.9148068529504,22700,2018-03-30 06:06:00,1703.8310604226056,60.800001945599995,0.0,0.8955260286568322,1703.8310604226056,60.800001945599995,0.7199994039200001,0.8955260286568322,1665,-13.7,98,P-GPS,
0.37329941353534707,36.91480683254971,22800,2018-03-30 06:06:00,1704.3310604386054,61.3000019616,0.0,0.898899028764768,1704.3310604386054,61.3000019616,0.7199994039200001,0.898899028764768,1664,-13.7,98,P-GPS,
0.37329938875205704,36.914806816620995,22900,2018-03-30 06:06:00,1704.7310604514055,61.7000019744,0.0,0.902174028869568,1704.7310604514055,61.7000019744,0.7199994039200001,0.902174028869568,1661,-13.7,98,P-GPS,
0.37329938656098605,36.9148068161018,23000,2018-03-30 06:06:00,1705.2310604674055,62.200001990400004,0.0,0.902407028877024,1705.2310604674055,62.200001990400004,0.7199994039200001,0.902407028877024,1661,-13.7,98,P-GPS,
0.37329933757983297,36.91480676830071,23100,2018-03-30 06:06:00,1705.7310604834056,62.7000020064,0.0,0.909904029116928,1705.7310604834056,62.7000020064,0.7199994039200001,0.909904029116928,1661,-13.7,98,P-GPS,
0.373299312968345,36.914806737943294,23200,2018-03-30 06:06:00,1706.2310604994054,63.2000020224,0.0,0.9140700292502401,1706.2310604994054,63.2000020224,0.7199994039200001,0.9140700292502401,1665,-13.7,98,P-GPS,
0.373299248232811,36.9148066996708,23300,2018-03-30 06:06:00,1706.7310605154057,63.7000020384,0.0,0.9224140295172479,1706.7310605154057,63.7000020384,0.7199994039200001,0.9224140295172479,1666,-13.7,98,P-GPS,
0.3732992208326121,36.9148066825837,23400,2018-03-30 06:06:00,1707.2310605314055,64.2000020544,0.0,0.926002029632064,1707.2310605314055,64.2000020544,0.7199994039200001,0.926002029632064,1667,-13.7,98,P-GPS,
0.37329920646810705,36.914806637084396,23500,2018-03-30 06:06:00,1707.7310605474054,64.7000020704,0.0,0.9301860297659521,1707.7310605474054,64.7000020704,0.7199994039200001,0.9301860297659521,1667,-13.7,98,P-GPS,
0.37329921429115204,36.9148066153401,23600,2018-03-30 06:06:01,1708.2310605634057,65.2000020864,0.0,0.930848029787136,1708.2310605634057,65.2000020864,0.7199994039200001,0.930848029787136,1667,-13.7,98,P-GPS,
0.37329921902341096,36.914806565175205,23700,2018-03-30 06:06:01,1708.7310605794055,65.7000021024,0.0,0.933611029875552,1708.7310605794055,65.7000021024,0.7199994039200001,0.933611029875552,1668,-13.7,98,P-GPS,
0.37329924755293503,36.914806536524296,23800,2018-03-30 06:06:01,1709.2310605954056,66.20000211840001,0.0,0.932857029851424,1709.2310605954056,66.20000211840001,0.7199994039200001,0.933611029875552,1668,-13.7,98,P-GPS,
0.3732992614468189,36.9148065024175,23900,2018-03-30 06:06:01,1709.6310606082054,66.6000021312,0.0,0.9338000298815999,1709.6310606082054,66.6000021312,0.7199994039200001,0.9338000298815999,1667,-13.7,98,P-GPS,
0.373299300680921,36.9148064942166,24000,2018-03-30 06:06:01,1710.1310606242057,67.10000214720002,0.35999970196000003,0.9307890297852479,1710.1310606242057,67.10000214720002,0.7199994039200001,0.9338000298815999,1668,-13.7,98,P-GPS,
0.37329931478813105,36.9148064806358,24100,2018-03-30 06:06:01,1710.6310606402055,67.60000216319999,0.35999970196000003,0.930403029772896,1710.6310606402055,67.60000216319999,0.7199994039200001,0.9338000298815999,1667,-13.7,98,P-GPS,
0.373299355080721,36.9148064804484,24200,2018-03-30 06:06:01,1711.1310606562056,68.1000021792,0.35999970196000003,0.926791029657312,1711.1310606562056,68.1000021792,0.7199994039200001,0.9338000298815999,1663,-13.7,98,P-GPS,
0.37329939626488395,36.9148064800341,24300,2018-03-30 06:06:01,1711.6310606722056,68.6000021952,0.35999970196000003,0.923122029539904,1711.6310606722056,68.6000021952,0.7199994039200001,0.9338000298815999,1660,-13.7,98,P-GPS,
0.373299448581904,36.9148065007667,24400,2018-03-30 06:06:01,1712.1310606882055,69.1000022112,0.35999970196000003,0.9170690293462082,1712.1310606882055,69.1000022112,0.7199994039200001,0.9338000298815999,1647,-13.7,98,P-GPS,
0.373299528349605,36.9148065558725,24600,2018-03-30 06:06:02,1713.1310607202054,70.1000022432,0.0,0.906292029001344,1713.1310607202054,70.1000022432,0.7199994039200001,0.9338000298815999,1636,-13.7,98,P-GPS,
0.37329952597614796,36.914806525658605,24700,2018-03-30 06:06:02,1713.5310607330055,70.50000225600002,0.0,0.908501029072032,1713.5310607330055,70.50000225600002,0.7199994039200001,0.9338000298815999,1617,-13.7,98,P-GPS,
0.373299548881841,36.9148065207562,24800,2018-03-30 06:06:02,1714.0310607490055,71.000002272,0.0,0.906782029017024,1714.0310607490055,71.000002272,0.7199994039200001,0.9338000298815999,1615,-13.7,98,P-GPS,
0.373299568991496,36.914806495869605,24900,2018-03-30 06:06:02,1714.5310607650056,71.500002288,0.0,0.906648029012736,1714.5310607650056,71.500002288,0.7199994039200001,0.9338000298815999,1612,-13.7,98,P-GPS,
0.37329960351776503,36.9148064943504,25000,2018-03-30 06:06:02,1714.9310607778054,71.9000023008,0.0,0.903682028917824,1714.9310607778054,71.9000023008,0.7199994039200001,0.9338000298815999,1611,-13.7,98,P-GPS,
0.373299641998711,36.9148064671395,25100,2018-03-30 06:06:02,1715.4310607938055,72.40000231680001,0.0,0.902104028867328,1715.4310607938055,72.40000231680001,0.7199994039200001,0.9338000298815999,1617,-13.7,98,P-GPS,
0.373299669563383,36.914806425152,25200,2018-03-30 06:06:02,1715.8310608066054,72.8000023296,0.0,0.902519028880608,1715.8310608066054,72.8000023296,0.7199994039200001,0.9338000298815999,1606,-13.7,97,P-GPS,
0.37329969080724895,36.9148063843988,25300,2018-03-30 06:06:02,1716.3310608226057,73.3000023456,0.0,0.9034380289100161,1716.3310608226057,73.3000023456,0.7199994039200001,0.9338000298815999,1576,-13.7,97,P-GPS,
0.37329971385136,36.9148063504676,25400,2018-03-30 06:06:02,1716.7310608354055,73.7000023584,0.0,0.903756028920192,1716.7310608354055,73.7000023584,0.7199994039200001,0.9338000298815999,1510,-13.7,97,P-GPS,
0.373299734180855,36.91480628254,25500,2018-03-30 06:06:03,1717.1310608482056,74.1000023712,0.0,0.9066980290143362,1717.1310608482056,74.1000023712,0.7199994039200001,0.9338000298815999,1255,-13.7,97,P-GPS,
0.373299758782573,36.9148061844915,25700,2018-03-30 06:06:03,1718.0310608770055,75.0000024,0.0,0.911454029166528,1718.0310608770055,75.0000024,0.7199994039200001,0.9338000298815999,1107,-13.7,97,P-GPS,
0.37329978677389597,36.914806158590004,25800,2018-03-30 06:06:03,1718.3310608866054,75.30000240960001,0.0,0.910889029148448,1718.3310608866054,75.30000240960001,0.7199994039200001,0.9338000298815999,1069,-13.7,97,P-GPS,
0.373299832511189,36.914806104452,25900,2018-03-30 06:06:03,1718.6310608962056,75.60000241920001,0.0,0.9108560291473922,1718.6310608962056,75.60000241920001,0.7199994039200001,0.9338000298815999,1077,-13.7,97,P-GPS,
0.37329989020288795,36.914806071994,26000,2018-03-30 06:06:03,1718.7310608994055,75.7000024224,0.0,0.9083110290659522,1718.7310608994055,75.7000024224,0.7199994039200001,0.9338000298815999,1102,-13.7,97,P-GPS,
0.373299911282282,36.9148060052001,26100,2018-03-30 06:06:03,1718.9310609058057,75.90000242880001,0.0,0.911397029164704,1718.9310609058057,75.90000242880001,0.7199994039200001,0.9338000298815999,1095,-13.7,97,P-GPS,
0.373299950100316,36.9148059653538,26200,2018-03-30 06:06:03,1718.9310609058057,75.90000242880001,0.0,0.9110760291544321,1718.9310609058057,75.90000242880001,0.7199994039200001,0.9338000298815999,1024,-13.7,97,P-GPS,
0.37329993654026206,36.914805890169504,26300,2018-03-30 06:06:03,1719.0310609090056,76.000002432,0.0,0.917758029368256,1719.0310609090056,76.000002432,0.7199994039200001,0.9338000298815999,1024,-13.7,97,P-GPS,
0.3732999480476621,36.9148058353045,26400,2018-03-30 06:06:03,1719.0310609090056,76.000002432,0.0,0.9208860294683522,1719.0310609090056,76.000002432,0.7199994039200001,0.9338000298815999,1024,-13.7,97,P-GPS,
0.37329996782755703,36.914805797770704,26500,2018-03-30 06:06:03,1719.0310609090056,76.000002432,0.0,0.9220670295061442,1719.0310609090056,76.000002432,0.7199994039200001,0.9338000298815999,1024,-13.7,97,P-GPS,
0.37330001495635495,36.9148057732995,26600,2018-03-30 06:06:04,1719.0310609090056,76.000002432,0.0,0.9200500294416001,1719.0310609090056,76.000002432,0.7199994039200001,0.9338000298815999,1024,-13.7,97,P-GPS,
0.37330004293709396,36.9148057228765,26700,2018-03-30 06:06:04,1719.1310609122056,76.10000243520001,0.0,0.921594029491008,1719.1310609122056,76.10000243520001,0.7199994039200001,0.9338000298815999,1024,-13.7,97,P-GPS,
0.37330011280304104,36.9148056842935,26800,2018-03-30 06:06:04,1719.1310609122056,76.10000243520001,0.0,0.918899029404768,1719.1310609122056,76.10000243520001,0.7199994039200001,0.9338000298815999,1024,-13.7,97,P-GPS,
0.3733001954213329,36.914805584153,26900,2018-03-30 06:06:04,1719.1310609122056,76.10000243520001,0.0,0.920058029441856,1719.1310609122056,76.10000243520001,0.7199994039200001,0.9338000298815999,1024,-13.7,97,P-GPS,
0.373300310965134,36.914805523992705,27000,2018-03-30 06:06:04,1719.1310609122056,76.10000243520001,0.0,0.915704029302528,1719.1310609122056,76.10000243520001,0.7199994039200001,0.9338000298815999,1024,-13.7,97,P-GPS,
0.37330041800275804,36.9148054552568,27100,2018-03-30 06:06:04,1719.1310609122056,76.10000243520001,0.0,0.9129030292128961,1719.1310609122056,76.10000243520001,0.7199994039200001,0.9338000298815999,1024,-13.7,97,P-GPS,
0.373300580531646,36.9148054056368,27200,2018-03-30 06:06:04,1719.1310609122056,76.10000243520001,0.0,0.904564028946048,1719.1310609122056,76.10000243520001,0.7199994039200001,0.9338000298815999,1024,-13.7,97,P-GPS,
0.373300755089851,36.9148053356385,27300,2018-03-30 06:06:04,1719.1310609122056,76.10000243520001,0.0,0.89736002871552,1719.1310609122056,76.10000243520001,0.7199994039200001,0.9338000298815999,1024,-13.7,97,P-GPS,
0.373300979688918,36.9148052732621,27400,2018-03-30 06:06:04,1719.1310609122056,76.10000243520001,0.35999970196000003,0.886363028363616,1719.1310609122056,76.10000243520001,0.7199994039200001,0.9338000298815999,1024,-13.7,97,P-GPS,
0.373301197949267,36.914805183457396,27500,2018-03-30 06:06:04,1719.1310609122056,76.10000243520001,0.35999970196000003,0.878826028122432,1719.1310609122056,76.10000243520001,0.7199994039200001,0.9338000298815999,1024,-13.7,97,P-GPS,
0.373301441934553,36.9148051041929,27600,2018-03-30 06:06:05,1719.1310609122056,76.10000243520001,0.35999970196000003,0.869369027819808,1719.1310609122056,76.10000243520001,0.7199994039200001,0.9338000298815999,1024,-13.7,97,P-GPS,
0.373301707445425,36.9148050193902,27700,2018-03-30 06:06:05,1719.1310609122056,76.10000243520001,0.35999970196000003,0.8599030275168961,1719.1310609122056,76.10000243520001,0.7199994039200001,0.9338000298815999,1024,-13.7,97,P-GPS,
0.37330198657090397,36.914804955896,27800,2018-03-30 06:06:05,1719.1310609122056,76.10000243520001,0.35999970196000003,0.8486490271567679,1719.1310609122056,76.10000243520001,0.7199994039200001,0.9338000298815999,1024,-13.7,97,P-GPS,
0.37330224550082797,36.9148048660709,27900,2018-03-30 06:06:05,1719.1310609122056,76.10000243520001,0.35999970196000003,0.84211502694768,1719.1310609122056,76.10000243520001,0.7199994039200001,0.9338000298815999,1024,-13.7,97,P-GPS,
0.37330251500546,36.9148048053753,28000,2018-03-30 06:06:05,1719.1310609122056,76.10000243520001,0.35999970196000003,0.8332330266634561,1719.1310609122056,76.10000243520001,0.7199994039200001,0.9338000298815999,1024,-13.7,97,P-GPS,
0.373302749367456,36.914804723577795,28100,2018-03-30 06:06:05,1719.1310609122056,76.10000243520001,0.35999970196000003,0.82924502653584,1719.1310609122056,76.10000243520001,0.7199994039200001,0.9338000298815999,1024,-13.7,97,P-GPS,
0.373302991880221,36.9148046718883,28200,2018-03-30 06:06:05,1719.1310609122056,76.10000243520001,0.35999970196000003,0.8227400263276801,1719.1310609122056,76.10000243520001,0.7199994039200001,0.9338000298815999,1024,-13.7,97,P-GPS,
0.37330321139121503,36.9148045450819,28300,2018-03-30 06:06:05,1719.1310609122056,76.10000243520001,0.35999970196000003,0.8258050264257601,1719.1310609122056,76.10000243520001,0.7199994039200001,0.9338000298815999,1024,-13.7,97,P-GPS,
0.37330343665102295,36.9148044704104,28400,2018-03-30 06:06:05,1719.1310609122056,76.10000243520001,0.35999970196000003,0.824173026373536,1719.1310609122056,76.10000243520001,0.7199994039200001,0.9338000298815999,1024,-13.7,97,P-GPS,
