latitude,longitude,time_millisecond,datetime_utc,altitude_m,ascent_m,speed_kph,distance_m,max_altitude_m,max_ascent_m,max_speed_kph,max_distance_m,rc_throttle,gimbal_pitch_degrees,battery_percent,flycState,message
0.354611627413091,36.8888859478235,0,2018-04-03 05:11:43,1771.5878252908012,0.0,0.0,0.0,1771.5878252908012,0.0,0.0,0.0,364,0.0,98,Motors_Started,
0.354611599027276,36.8888859463531,100,2018-04-03 05:11:43,1771.5878252908012,0.0,0.0,0.00316091010114912,1771.5878252908012,0.0,0.0,0.00316091010114912,364,0.0,98,Motors_Started,
0.354611590638754,36.8888859473091,200,2018-04-03 05:11:43,1771.5878252908012,0.0,0.0,0.00408993013087776,1771.5878252908012,0.0,0.0,0.00408993013087776,364,0.0,98,Motors_Started,
0.354611603270187,36.8888859419422,300,2018-04-03 05:11:43,1771.5878252908012,0.0,0.0,0.0027633500884272,1771.5878252908012,0.0,0.0,0.00408993013087776,364,0.0,98,Motors_Started,
0.354611596373727,36.8888859408818,400,2018-04-03 05:11:44,1771.5878252908012,0.0,0.0,0.00353703011318496,1771.5878252908012,0.0,0.0,0.00408993013087776,364,0.0,98,Motors_Started,Setting new Return-To-Home altitude to 45m (148 ft). Setting new Maximum Flight Altitude to 150m (492 ft)
0.354611576402897,36.8888859329733,500,2018-04-03 05:11:44,1771.5878252908012,0.0,0.0,0.00590813018906016,1771.5878252908012,0.0,0.0,0.00590813018906016,364,0.0,98,Motors_Started,
0.354611556563563,36.8888859529244,600,2018-04-03 05:11:44,1771.5878252908012,0.0,0.0,0.00789929025277728,1771.5878252908012,0.0,0.0,0.00789929025277728,364,0.0,98,Motors_Started,
0.354611545280075,36.8888859744252,700,2018-04-03 05:11:44,1771.5878252908012,0.0,0.0,0.0096008003072256,1771.5878252908012,0.0,0.0,0.0096008003072256,364,0.0,98,Motors_Started,
0.35461153568284,36.8888860050812,800,2018-04-03 05:11:44,1771.5878252908012,0.0,0.0,0.0120251003848032,1771.5878252908012,0.0,0.0,0.0120251003848032,930,0.0,98,Motors_Started,
0.354611531160651,36.888886017355,900,2018-04-03 05:11:44,1771.5878252908012,0.0,0.0,0.013204500422543999,1771.5878252908012,0.0,0.0,0.013204500422543999,930,0.0,98,Motors_Started,
0.354611527903763,36.8888860315833,1000,2018-04-03 05:11:44,1771.5878252908012,0.0,0.0,0.0144643004628576,1771.5878252908012,0.0,0.0,0.0144643004628576,1024,0.0,98,Motors_Started,
0.354611527188876,36.8888860352105,1100,2018-04-03 05:11:44,1771.5878252908012,0.0,0.0,0.0147871004731872,1771.5878252908012,0.0,0.0,0.0147871004731872,1024,0.0,98,Motors_Started,
0.354611528413873,36.8888860654907,1200,2018-04-03 05:11:44,1771.5878252908012,0.0,0.0,0.0171004005472128,1771.5878252908012,0.0,0.0,0.0171004005472128,1024,0.0,98,Motors_Started,
0.354611530385919,36.8888860937261,1300,2018-04-03 05:11:45,1771.5878252908012,0.0,0.0,0.019485200623526402,1771.5878252908012,0.0,0.0,0.019485200623526402,1024,0.0,98,Motors_Started,
0.354611533668048,36.8888861255924,1400,2018-04-03 05:11:45,1771.5878252908012,0.0,0.0,0.022349000715168002,1771.5878252908012,0.0,0.0,0.022349000715168002,1024,0.0,98,Motors_Started,
0.354611539263381,36.8888861420973,1500,2018-04-03 05:11:45,1771.5878252908012,0.0,0.0,0.023724000759168,1771.5878252908012,0.0,0.0,0.023724000759168,1024,0.0,98,Assisted_Takeoff,
0.354611542770643,36.8888861563844,1600,2018-04-03 05:11:45,1771.5878252908012,0.0,0.0,0.025030100800963198,1771.5878252908012,0.0,0.0,0.025030100800963198,1024,0.0,98,Assisted_Takeoff,
0.354611543777428,36.8888861575979,1700,2018-04-03 05:11:45,1771.5878252908012,0.0,0.0,0.025113500803632,1771.5878252908012,0.0,0.0,0.025113500803632,1024,0.0,98,Assisted_Takeoff,
0.354611548105832,36.8888861639487,1800,2018-04-03 05:11:45,1771.5878252908012,0.0,0.0,0.0256011008192352,1771.5878252908012,0.0,0.0,0.0256011008192352,1024,0.0,98,Assisted_Takeoff,
0.354611553320924,36.8888861642795,1900,2018-04-03 05:11:45,1771.5878252908012,0.0,0.0,0.025441900814140803,1771.5878252908012,0.0,0.0,0.0256011008192352,1024,0.0,98,Assisted_Takeoff,
0.354611554390812,36.8888861613445,2000,2018-04-03 05:11:45,1771.5878252908012,0.0,0.0,0.0250946008030272,1771.5878252908012,0.0,0.0,0.0256011008192352,1024,0.0,98,Assisted_Takeoff,
0.354611561027128,36.8888861576696,2100,2018-04-03 05:11:45,1771.5878252908012,0.0,0.0,0.0244757007832224,1771.5878252908012,0.0,0.0,0.0256011008192352,1024,0.0,98,Assisted_Takeoff,
0.354611544723554,36.8888861585459,2200,2018-04-03 05:11:45,1771.5878252908012,0.0,0.0,0.0251728008055296,1771.5878252908012,0.0,0.0,0.0256011008192352,1024,0.0,98,Assisted_Takeoff,
0.354611520309108,36.8888861512118,2300,2018-04-03 05:11:45,1771.5878252908012,0.0,0.0,0.025562000817984005,1771.5878252908012,0.0,0.0,0.0256011008192352,1024,0.0,98,Assisted_Takeoff,
0.354611516894668,36.8888861733159,2400,2018-04-03 05:11:46,1771.5878252908012,0.0,0.0,0.0279256008936192,1771.5878252908012,0.0,0.0,0.0279256008936192,1024,0.0,98,Assisted_Takeoff,
0.354611534329603,36.8888861965692,2500,2018-04-03 05:11:46,1771.5878252908012,0.0,0.0,0.0295349009451168,1771.5878252908012,0.0,0.0,0.0295349009451168,1024,0.0,98,Assisted_Takeoff,
0.354611526994684,36.8888862235301,2600,2018-04-03 05:11:46,1771.5878252908012,0.0,0.0,0.03263000104416,1771.5878252908012,0.0,0.0,0.03263000104416,1024,0.0,98,Assisted_Takeoff,
0.354611513487556,36.8888862375083,2700,2018-04-03 05:11:46,1771.5878252908012,0.0,0.0,0.034615901107708805,1771.5878252908012,0.0,0.0,0.034615901107708805,1024,0.0,98,Assisted_Takeoff,
0.354611495624746,36.8888862513388,2800,2018-04-03 05:11:46,1771.5878252908012,0.0,0.0,0.0367966011774912,1771.5878252908012,0.0,0.0,0.0367966011774912,1024,0.0,98,Assisted_Takeoff,
0.354611490374643,36.8888862559028,2900,2018-04-03 05:11:46,1771.5878252908012,0.0,0.0,0.037496201199878405,1771.5878252908012,0.0,0.0,0.037496201199878405,1024,0.0,98,Assisted_Takeoff,
0.354611482354963,36.8888862605331,3000,2018-04-03 05:11:46,1771.5878252908012,0.0,0.0,0.0383339012266848,1771.5878252908012,0.0,0.0,0.0383339012266848,1024,0.0,98,Assisted_Takeoff,
0.354611482470176,36.8888862581286,3100,2018-04-03 05:11:46,1771.5878252908012,0.0,0.0,0.0380861012187552,1771.5878252908012,0.0,0.0,0.0383339012266848,1024,0.0,98,Assisted_Takeoff,
0.354611480564489,36.8888862794126,3200,2018-04-03 05:11:46,1771.5878252908012,0.0,0.0,0.0403284012905088,1771.5878252908012,0.0,0.0,0.0403284012905088,1024,0.0,98,Assisted_Takeoff,
0.354611484148287,36.8888863036755,3300,2018-04-03 05:11:47,1771.5878252908012,0.0,0.0,0.0426589013650848,1771.5878252908012,0.0,0.0,0.0426589013650848,1024,0.0,98,Assisted_Takeoff,
0.354611484258614,36.8888863323739,3400,2018-04-03 05:11:47,1771.5878252908012,0.0,0.0,0.0456306014601792,1771.5878252908012,0.0,0.0,0.0456306014601792,1024,0.0,98,Assisted_Takeoff,
0.354611489713088,36.8888863435231,3500,2018-04-03 05:11:47,1771.5878252908012,0.0,0.0,0.046591701490934403,1771.5878252908012,0.0,0.0,0.046591701490934403,1024,0.0,98,Assisted_Takeoff,
0.354611491490534,36.8888863552547,3600,2018-04-03 05:11:47,1771.5878252908012,0.0,0.0,0.0477628015284096,1771.5878252908012,0.0,0.0,0.0477628015284096,1024,0.0,98,Assisted_Takeoff,
0.354611498307201,36.8888863571128,3700,2018-04-03 05:11:47,1771.5878252908012,0.0,0.0,0.04772540152721281,1771.5878252908012,0.0,0.0,0.0477628015284096,1024,0.0,98,Assisted_Takeoff,
0.354611501105682,36.8888863589113,3800,2018-04-03 05:11:47,1771.5878252908012,0.0,0.0,0.04782380153036161,1771.5878252908012,0.0,0.0,0.04782380153036161,1024,0.0,98,Assisted_Takeoff,
0.354611508705223,36.8888863544652,3900,2018-04-03 05:11:47,1771.5878252908012,0.0,0.0,0.047107601507443204,1771.5878252908012,0.0,0.0,0.04782380153036161,1024,0.0,98,Assisted_Takeoff,
0.354611510937819,36.8888863508101,4000,2018-04-03 05:11:47,1771.5878252908012,0.0,0.0,0.04664810149273921,1771.5878252908012,0.0,0.0,0.04782380153036161,1024,0.0,98,Assisted_Takeoff,
0.354611518786512,36.8888863415762,4100,2018-04-03 05:11:47,1771.5878252908012,0.0,0.0,0.045422601453523205,1771.5878252908012,0.0,0.0,0.04782380153036161,1024,0.0,98,Assisted_Takeoff,
0.354611520099853,36.888886357177,4200,2018-04-03 05:11:47,1771.5878252908012,0.0,0.0,0.047060001505920004,1771.5878252908012,0.0,0.0,0.04782380153036161,1024,0.0,98,Assisted_Takeoff,
0.354611526722327,36.8888863753418,4300,2018-04-03 05:11:47,1771.5878252908012,0.0,0.0,0.0488426015629632,1771.5878252908012,0.0,0.0,0.0488426015629632,1025,0.0,98,Assisted_Takeoff,
0.354611525941895,36.8888863989972,4400,2018-04-03 05:11:48,1771.5878252908012,0.0,0.0,0.051425601645619205,1771.5878252908012,0.0,0.0,0.051425601645619205,1028,0.0,98,Assisted_Takeoff,
0.354611531929277,36.8888864057543,4500,2018-04-03 05:11:48,1771.5878252908012,0.0,0.0,0.052019001664608,1771.5878252908012,0.0,0.0,0.052019001664608,1070,0.0,98,Assisted_Takeoff,
0.354611530602909,36.888886416206,4600,2018-04-03 05:11:48,1771.5878252908012,0.0,0.0,0.053187001701984,1771.5878252908012,0.0,0.0,0.053187001701984,1085,0.0,98,Assisted_Takeoff,
0.354611537006358,36.8888864148806,4700,2018-04-03 05:11:48,1771.5878252908012,0.0,0.0,0.0529027016928864,1771.5878252908012,0.0,0.0,0.053187001701984,1082,0.0,98,Assisted_Takeoff,
0.354611535615667,36.8888864187203,4800,2018-04-03 05:11:48,1771.5878252908012,0.0,0.0,0.053351401707244804,1771.5878252908012,0.0,0.0,0.053351401707244804,1097,0.0,98,Assisted_Takeoff,
0.354611542606577,36.8888864108835,4900,2018-04-03 05:11:48,1771.5878252908012,0.0,0.0,0.052350601675219204,1771.5878252908012,0.0,0.0,0.053351401707244804,1122,0.0,98,Assisted_Takeoff,
0.354611542329742,36.888886408397,5000,2018-04-03 05:11:48,1771.5878252908012,0.0,0.0,0.052084201666694405,1771.5878252908012,0.0,0.0,0.053351401707244804,1125,0.0,98,Assisted_Takeoff,
0.354611548677823,36.8888863977735,5100,2018-04-03 05:11:48,1771.5878252908012,0.0,0.0,0.050796501625487996,1771.5878252908012,0.0,0.0,0.053351401707244804,1122,0.0,98,Assisted_Takeoff,
0.354611546931317,36.8888863937186,5200,2018-04-03 05:11:48,1771.5878252908012,0.0,0.0,0.050386601612371205,1771.5878252908012,0.0,0.0,0.053351401707244804,1117,0.0,98,Assisted_Takeoff,
0.354611554008128,36.888886381509,5300,2018-04-03 05:11:49,1771.5878252908012,0.0,0.0,0.048913501565232005,1771.5878252908012,0.0,0.0,0.053351401707244804,1107,0.0,98,Assisted_Takeoff,
0.354611573700494,36.8888863772908,5400,2018-04-03 05:11:49,1771.5878252908012,0.0,0.0,0.048130601540179195,1771.5878252908012,0.0,0.0,0.053351401707244804,1101,0.0,98,Assisted_Takeoff,
0.354611610290816,36.8888863657878,5500,2018-04-03 05:11:49,1771.5878252908012,0.0,0.0,0.0465183014885856,1771.5878252908012,0.0,0.0,0.053351401707244804,1099,0.0,98,Assisted_Takeoff,
0.354611615545805,36.8888863628629,5600,2018-04-03 05:11:49,1771.5878252908012,0.0,0.0,0.04617290147753281,1771.5878252908012,0.0,0.0,0.053351401707244804,1092,0.0,98,Assisted_Takeoff,
0.354611610478901,36.8888863522849,5700,2018-04-03 05:11:49,1771.5878252908012,0.0,0.0,0.04501710144054721,1771.5878252908012,0.0,0.0,0.053351401707244804,1093,0.0,98,Assisted_Takeoff,
0.354611611786135,36.8888863497503,5800,2018-04-03 05:11:49,1771.5878252908012,0.0,0.0,0.0447296014313472,1771.5878252908012,0.0,0.0,0.053351401707244804,1108,0.0,98,Assisted_Takeoff,
0.354611637703228,36.8888863329772,5900,2018-04-03 05:11:49,1771.5878252908012,0.0,0.0,0.0428459013710688,1771.5878252908012,0.0,0.0,0.053351401707244804,1108,0.0,98,Assisted_Takeoff,
0.354611650187694,36.8888863402969,6000,2018-04-03 05:11:49,1771.5878252908012,0.0,0.0,0.043718001398976004,1771.5878252908012,0.0,0.0,0.053351401707244804,1099,0.0,98,P-GPS,Obstacle Avoided. Revise Flight Route
0.35461167936249,36.8888863596982,6100,2018-04-03 05:11:49,1771.5878252908012,0.0,0.0,0.04616500147728,1771.5878252908012,0.0,0.0,0.053351401707244804,1099,0.0,98,P-GPS,
0.35461171300655,36.8888864240192,6200,2018-04-03 05:11:49,1771.5878252908012,0.0,0.0,0.053803501721712006,1771.5878252908012,0.0,0.0,0.053803501721712006,1101,0.0,98,P-GPS,
0.354611758537844,36.8888864806291,6300,2018-04-03 05:11:49,1771.5878252908012,0.0,0.0,0.0610181019525792,1771.5878252908012,0.0,0.0,0.0610181019525792,1113,0.0,98,P-GPS,
0.354611781384099,36.8888865258993,6400,2018-04-03 05:11:50,1771.5878252908012,0.0,0.0,0.0665256021288192,1771.5878252908012,0.0,0.0,0.0665256021288192,1120,0.0,98,P-GPS,Home Point Recorded. RTH Altitude:  45m.
0.354611807665557,36.8888865327442,6500,2018-04-03 05:11:50,1771.5878252908012,0.0,0.0,0.0680641021780512,1771.5878252908012,0.0,0.0,0.0680641021780512,1121,0.0,98,P-GPS,
0.354611818252071,36.8888865495263,6600,2018-04-03 05:11:50,1771.5878252908012,0.0,0.0,0.0701967022462944,1771.5878252908012,0.0,0.0,0.0701967022462944,1133,0.0,98,P-GPS,
0.35461183365878,36.8888865518758,6700,2018-04-03 05:11:50,1771.6878252940012,0.1000000032,0.0,0.07098070227138241,1771.6878252940012,0.1000000032,0.0,0.07098070227138241,1162,0.0,98,P-GPS,
0.354611820073079,36.8888865740494,6800,2018-04-03 05:11:50,1771.6878252940012,0.1000000032,0.0,0.07286010233152321,1771.6878252940012,0.1000000032,0.0,0.07286010233152321,1185,0.0,98,P-GPS,
0.354611811189509,36.8888865784325,6900,2018-04-03 05:11:50,1771.6878252940012,0.1000000032,0.0,0.073043502337392,1771.6878252940012,0.1000000032,0.0,0.073043502337392,1197,0.0,98,P-GPS,
0.354611805256274,36.8888865725527,7000,2018-04-03 05:11:50,1771.6878252940012,0.1000000032,0.0,0.07223260231144321,1771.6878252940012,0.1000000032,0.0,0.073043502337392,1197,0.0,98,P-GPS,
0.354611814465125,36.888886536131,7100,2018-04-03 05:11:50,1771.6878252940012,0.1000000032,0.0,0.068649502196784,1771.6878252940012,0.1000000032,0.0,0.073043502337392,1198,0.0,98,P-GPS,
0.354611815768694,36.888886518569,7200,2018-04-03 05:11:50,1771.7878252972014,0.2000000064,0.0,0.0668362021387584,1771.7878252972014,0.2000000064,0.0,0.073043502337392,1213,0.0,98,P-GPS,
0.354611829319384,36.8888865022236,7300,2018-04-03 05:11:51,1771.7878252972014,0.2000000064,0.0,0.0656129020996128,1771.7878252972014,0.2000000064,0.0,0.073043502337392,1210,0.0,98,P-GPS,
0.354611820296175,36.8888865051196,7400,2018-04-03 05:11:51,1771.8878253004013,0.3000000096,0.0,0.0655806020985792,1771.8878253004013,0.3000000096,0.0,0.073043502337392,1204,0.0,98,P-GPS,
0.35461181558468,36.8888864938499,7500,2018-04-03 05:11:51,1771.8878253004013,0.3000000096,0.0,0.0642250020552,1771.8878253004013,0.3000000096,0.0,0.073043502337392,1205,0.0,98,P-GPS,
0.354611789715626,36.8888865065258,7600,2018-04-03 05:11:51,1771.9878253036013,0.4000000128,0.0,0.06469850207035201,1771.9878253036013,0.4000000128,0.0,0.073043502337392,1205,0.0,98,P-GPS,
0.354611778220032,36.8888865046988,7700,2018-04-03 05:11:51,1772.0878253068015,0.500000016,0.0,0.0641574020530368,1772.0878253068015,0.500000016,0.0,0.073043502337392,1202,0.0,98,P-GPS,
0.35461175256634,36.8888865013361,7800,2018-04-03 05:11:51,1772.1878253100015,0.6000000192,0.0,0.0631067020194144,1772.1878253100015,0.6000000192,0.0,0.073043502337392,1209,0.0,98,P-GPS,
0.354611735624008,36.8888864615634,7900,2018-04-03 05:11:51,1772.2878253132014,0.7000000224,0.0,0.058383501868272,1772.2878253132014,0.7000000224,0.0,0.073043502337392,1227,0.0,98,P-GPS,
0.354611713853748,36.8888864410015,8000,2018-04-03 05:11:51,1772.2878253132014,0.7000000224,0.0,0.0556794017817408,1772.2878253132014,0.7000000224,0.0,0.073043502337392,1238,0.0,98,P-GPS,
0.354611710104255,36.8888864154919,8100,2018-04-03 05:11:51,1772.3878253164012,0.8000000256,0.0,0.052813301690025606,1772.3878253164012,0.8000000256,0.0,0.073043502337392,1245,0.0,98,P-GPS,
0.354611692613546,36.8888864212147,8200,2018-04-03 05:11:51,1772.4878253196016,0.9000000288000001,0.0,0.05314000170048,1772.4878253196016,0.9000000288000001,0.0,0.073043502337392,1245,0.0,98,P-GPS,
0.354611688423559,36.8888864203609,8300,2018-04-03 05:11:51,1772.5878253228013,1.000000032,0.0,0.05298420169549441,1772.5878253228013,1.000000032,0.0,0.073043502337392,1248,0.0,98,P-GPS,
0.354611706152022,36.8888864465847,8400,2018-04-03 05:11:51,1772.6878253260013,1.1000000352000001,0.0,0.056151101796835204,1772.6878253260013,1.1000000352000001,0.0,0.073043502337392,1250,0.0,98,P-GPS,
0.354611757145524,36.8888864503414,8500,2018-04-03 05:11:52,1772.7878253292013,1.2000000384,0.0,0.0577143018468576,1772.7878253292013,1.2000000384,0.0,0.073043502337392,1255,0.0,98,P-GPS,
0.354611781566892,36.8888864927831,8600,2018-04-03 05:11:52,1772.8878253324015,1.3000000416000002,0.0,0.0629797020153504,1772.8878253324015,1.3000000416000002,0.0,0.073043502337392,1257,0.0,98,P-GPS,
0.354611791806548,36.8888865228438,8700,2018-04-03 05:11:52,1772.9878253356014,1.4000000448,0.0,0.06650650212820801,1772.9878253356014,1.4000000448,0.0,0.073043502337392,1255,0.0,98,P-GPS,
0.354611794295624,36.8888865674524,8800,2018-04-03 05:11:52,1773.0878253388014,1.5000000480000002,0.0,0.0713606022835392,1773.0878253388014,1.5000000480000002,0.0,0.073043502337392,1251,0.0,98,P-GPS,
0.354611817217195,36.8888865794865,8900,2018-04-03 05:11:52,1773.1878253420014,1.6000000512,0.0,0.0733462023470784,1773.1878253420014,1.6000000512,0.0,0.0733462023470784,1279,0.0,98,P-GPS,
0.354611874883654,36.8888866525622,9100,2018-04-03 05:11:52,1773.3878253484013,1.8000000576000001,0.0,0.0830613026579616,1773.3878253484013,1.8000000576000001,0.0,0.0830613026579616,1279,0.0,98,P-GPS,
0.354611884193875,36.8888867251337,9200,2018-04-03 05:11:52,1773.4878253516013,1.9000000608000003,0.0,0.09103460291310721,1773.4878253516013,1.9000000608000003,0.0,0.09103460291310721,1293,0.0,98,P-GPS,
0.354611887799657,36.8888867763618,9300,2018-04-03 05:11:53,1773.5878253548012,2.000000064,0.0,0.09657980309055361,1773.5878253548012,2.000000064,0.0,0.09657980309055361,1294,0.0,98,P-GPS,
0.354611871859633,36.8888868570366,9500,2018-04-03 05:11:53,1773.8878253644014,2.3000000736,0.0,0.104699003350368,1773.8878253644014,2.3000000736,0.0,0.104699003350368,1291,0.0,98,P-GPS,
0.354611850535973,36.8888869055748,9600,2018-04-03 05:11:53,1773.9878253676013,2.4000000768,0.0,0.109358003499456,1773.9878253676013,2.4000000768,0.0,0.109358003499456,1286,0.0,98,P-GPS,
0.354611840059379,36.8888869324505,9700,2018-04-03 05:11:53,1774.0878253708015,2.50000008,0.0,0.112019003584608,1774.0878253708015,2.50000008,0.0,0.112019003584608,1308,0.0,98,P-GPS,
0.35461181899057,36.888886978665,9800,2018-04-03 05:11:53,1774.2878253772012,2.7000000864,0.0,0.116597003731104,1774.2878253772012,2.7000000864,0.0,0.116597003731104,1363,0.0,98,P-GPS,
0.354611809285044,36.888886990941,9900,2018-04-03 05:11:53,1774.3878253804014,2.8000000896,0.0,0.11774900376796801,1774.3878253804014,2.8000000896,0.0,0.11774900376796801,1356,0.0,98,P-GPS,
0.354611772669888,36.8888870235567,10000,2018-04-03 05:11:53,1774.4878253836014,2.9000000928,0.0,0.120711003862752,1774.4878253836014,2.9000000928,0.0,0.120711003862752,1325,0.0,98,P-GPS,
0.354611743456824,36.8888870346754,10100,2018-04-03 05:11:53,1774.6878253900013,3.1000000992000003,0.0,0.12154900388956802,1774.6878253900013,3.1000000992000003,0.0,0.12154900388956802,1325,0.0,98,P-GPS,
0.354611699225435,36.8888870568555,10200,2018-04-03 05:11:53,1774.8878253964015,3.3000001056,0.0,0.12358700395478402,1774.8878253964015,3.3000001056,0.0,0.12358700395478402,1331,0.0,98,P-GPS,
0.354611669169652,36.8888870429201,10300,2018-04-03 05:11:53,1774.9878253996014,3.4000001088000005,0.0,0.121868003899776,1774.9878253996014,3.4000001088000005,0.0,0.12358700395478402,1341,0.0,98,P-GPS,
0.354611590592343,36.8888870394706,10400,2018-04-03 05:11:53,1775.1878254060014,3.6000001152000003,0.0,0.12146500388688,1775.1878254060014,3.6000001152000003,0.0,0.12358700395478402,1345,0.0,98,P-GPS,
0.354611529083571,36.8888870137035,10500,2018-04-03 05:11:54,1775.3878254124013,3.8000001216000006,0.0,0.11903300380905601,1775.3878254124013,3.8000001216000006,0.0,0.12358700395478402,1347,0.0,98,P-GPS,
0.354611471715524,36.8888870339506,10600,2018-04-03 05:11:54,1775.4878254156013,3.9000001248,0.0,0.122016003904512,1775.4878254156013,3.9000001248,0.0,0.12358700395478402,1354,0.0,98,P-GPS,
0.35461145351522,36.888887047104,10700,2018-04-03 05:11:54,1775.6878254220014,4.100000131200001,0.0,0.12376500396048001,1775.6878254220014,4.100000131200001,0.0,0.12376500396048001,1360,0.0,98,P-GPS,
0.354611433938473,36.8888870897212,10800,2018-04-03 05:11:54,1775.8878254284014,4.3000001376,0.0,0.128793004121376,1775.8878254284014,4.3000001376,0.0,0.128793004121376,1361,0.0,98,P-GPS,
0.354611433154378,36.8888871128568,10900,2018-04-03 05:11:54,1776.0878254348013,4.500000144,0.0,0.13134500420304002,1776.0878254348013,4.500000144,0.0,0.13134500420304002,1361,0.0,98,P-GPS,
0.354611400508147,36.8888871656827,11000,2018-04-03 05:11:54,1776.1878254380013,4.6000001472,0.0,0.137761004408352,1776.1878254380013,4.6000001472,0.0,0.137761004408352,1371,0.0,98,P-GPS,
0.354611367569203,36.888887196714,11100,2018-04-03 05:11:54,1776.3878254444014,4.8000001536,0.0,0.141856004539392,1776.3878254444014,4.8000001536,0.0,0.141856004539392,1371,0.0,98,P-GPS,
0.354611325190169,36.8888872653965,11200,2018-04-03 05:11:54,1776.5878254508013,5.00000016,0.0,0.1503250048104,1776.5878254508013,5.00000016,0.0,0.1503250048104,1376,0.0,98,P-GPS,
0.354611299801099,36.8888873174645,11300,2018-04-03 05:11:55,1776.7878254572015,5.200000166400001,0.0,0.156606005011392,1776.7878254572015,5.200000166400001,0.0,0.156606005011392,1381,0.0,98,P-GPS,
0.35461125363919,36.8888874168665,11400,2018-04-03 05:11:55,1776.9878254636012,5.4000001728,0.0,0.168568005394176,1776.9878254636012,5.4000001728,0.0,0.168568005394176,1380,0.0,98,P-GPS,
0.354611217798766,36.88888749508,11500,2018-04-03 05:11:55,1777.1878254700014,5.6000001792,0.0,0.177989005695648,1777.1878254700014,5.6000001792,0.0,0.177989005695648,1384,0.0,98,P-GPS,
0.354611159359203,36.8888875894384,11600,2018-04-03 05:11:55,1777.3878254764013,5.8000001856,0.0,0.18983000607456002,1777.3878254764013,5.8000001856,0.0,0.18983000607456002,1398,0.0,98,P-GPS,
0.354611044270552,36.8888877207867,11800,2018-04-03 05:11:55,1777.7878254892012,6.200000198400001,0.0,0.207552006641664,1777.7878254892012,6.200000198400001,0.0,0.207552006641664,1399,0.0,98,P-GPS,
0.354611014445193,36.8888877671139,11900,2018-04-03 05:11:55,1777.9878254956013,6.4000002048,0.0,0.213487006831584,1777.9878254956013,6.4000002048,0.0,0.213487006831584,1397,0.0,98,P-GPS,
0.354610983501093,36.8888878495236,12000,2018-04-03 05:11:55,1778.1878255020013,6.6000002112,0.0,0.22327100714467202,1778.1878255020013,6.6000002112,0.0,0.22327100714467202,1405,0.0,98,P-GPS,
0.354610917177419,36.8888880197504,12200,2018-04-03 05:11:55,1778.5878255148011,7.000000224,0.0,0.243568007794176,1778.5878255148011,7.000000224,0.0,0.243568007794176,1403,0.0,98,P-GPS,
0.354610883918893,36.8888880783158,12300,2018-04-03 05:11:55,1778.8878255244013,7.3000002336000005,0.0,0.250932008029824,1778.8878255244013,7.3000002336000005,0.0,0.250932008029824,1397,0.0,98,P-GPS,
0.354610825170333,36.8888881625242,12400,2018-04-03 05:11:56,1779.0878255308014,7.50000024,0.0,0.26194400838220805,1779.0878255308014,7.50000024,0.0,0.26194400838220805,1398,0.0,98,P-GPS,
0.354610792548529,36.8888882169252,12500,2018-04-03 05:11:56,1779.2878255372013,7.7000002464,0.0,0.26887100860387203,1779.2878255372013,7.7000002464,0.0,0.26887100860387203,1407,0.0,98,P-GPS,
0.354610801515963,36.8888883154887,12700,2018-04-03 05:11:56,1779.6878255500012,8.1000002592,0.0,0.278853008923296,1779.6878255500012,8.1000002592,0.0,0.278853008923296,1410,0.0,98,P-GPS,
0.35461082362779,36.8888883821986,12800,2018-04-03 05:11:56,1779.9878255596013,8.400000268800001,0.0,0.285088009122816,1779.9878255596013,8.400000268800001,0.0,0.285088009122816,1417,0.0,98,P-GPS,
0.354610859613145,36.8888884231302,12900,2018-04-03 05:11:56,1780.1878255660015,8.6000002752,0.0,0.28820200922246403,1780.1878255660015,8.6000002752,0.0,0.28820200922246403,1406,0.0,98,P-GPS,
0.354610897999641,36.888888509991,13100,2018-04-03 05:11:56,1780.5878255788014,9.000000288,0.0,0.29624500947984,1780.5878255788014,9.000000288,0.0,0.29624500947984,1405,0.0,98,P-GPS,
0.354610900506631,36.8888885861024,13200,2018-04-03 05:11:56,1780.8878255884015,9.3000002976,0.0,0.30432000973824,1780.8878255884015,9.3000002976,0.0,0.30432000973824,1403,-0.1,98,P-GPS,
0.35461091685743,36.8888886375954,13300,2018-04-03 05:11:57,1781.0878255948014,9.500000304,0.0,0.30937500990000005,1781.0878255948014,9.500000304,0.0,0.30937500990000005,1399,-0.3,98,P-GPS,
0.354610966765167,36.8888887224544,13500,2018-04-03 05:11:57,1781.4878256076013,9.900000316800002,0.0,0.317176010149632,1781.4878256076013,9.900000316800002,0.0,0.317176010149632,1397,-0.6,98,P-GPS,
0.354610980877263,36.8888887962231,13600,2018-04-03 05:11:57,1781.7878256172014,10.2000003264,0.0,0.32481101039395205,1781.7878256172014,10.2000003264,0.0,0.32481101039395205,1397,-1.0,98,P-GPS,
0.354610997960862,36.8888888412615,13700,2018-04-03 05:11:57,1781.9878256236013,10.400000332800001,0.0,0.329288010537216,1781.9878256236013,10.400000332800001,0.0,0.329288010537216,1378,-1.6,98,P-GPS,
0.354610984831532,36.8888888963876,13800,2018-04-03 05:11:57,1782.1878256300015,10.600000339200001,0.0,0.335588010738816,1782.1878256300015,10.600000339200001,0.0,0.335588010738816,1378,-2.3,98,P-GPS,
0.35461097934164,36.8888888991013,13900,2018-04-03 05:11:57,1782.3878256364012,10.8000003456,0.0,0.336014010752448,1782.3878256364012,10.8000003456,0.0,0.336014010752448,1377,-3.0,98,P-GPS,
0.354610973837092,36.8888889385649,14000,2018-04-03 05:11:57,1782.6878256460013,11.1000003552,0.0,0.340432010893824,1782.6878256460013,11.1000003552,0.0,0.340432010893824,1380,-3.8,98,P-GPS,
0.354610979099002,36.8888889503682,14100,2018-04-03 05:11:57,1782.8878256524015,11.3000003616,0.0,0.34159001093088004,1782.8878256524015,11.3000003616,0.0,0.34159001093088004,1380,-4.5,98,P-GPS,
0.354610931027335,36.8888890030761,14200,2018-04-03 05:11:57,1783.0878256588012,11.500000368000002,0.0,0.34847001115104,1783.0878256588012,11.500000368000002,0.0,0.34847001115104,1384,-5.3,98,P-GPS,
0.354610874109146,36.8888890291489,14300,2018-04-03 05:11:58,1783.3878256684013,11.8000003776,0.0,0.35274701128790403,1783.3878256684013,11.8000003776,0.0,0.35274701128790403,1385,-6.6,98,P-GPS,
0.35461076624183,36.8888890999381,14500,2018-04-03 05:11:58,1783.7878256812014,12.200000390400001,0.0,0.36337501162800007,1783.7878256812014,12.200000390400001,0.0,0.36337501162800007,1380,-7.1,98,P-GPS,
0.354610680608474,36.8888891569875,14600,2018-04-03 05:11:58,1783.9878256876016,12.400000396800001,0.0,0.37208001190656004,1783.9878256876016,12.400000396800001,0.0,0.37208001190656004,1382,-7.4,98,P-GPS,
0.35461059300063,36.8888891896461,14700,2018-04-03 05:11:58,1784.2878256972012,12.700000406400001,0.0,0.378412012109184,1784.2878256972012,12.700000406400001,0.0,0.378412012109184,1383,-7.6,98,P-GPS,
0.354610493539749,36.8888892563293,14800,2018-04-03 05:11:58,1784.4878257036014,12.9000004128,0.0,0.388927012445664,1784.4878257036014,12.9000004128,0.0,0.388927012445664,1383,-7.7,98,P-GPS,
0.354610420008582,36.8888892868649,14900,2018-04-03 05:11:58,1784.6878257100013,13.100000419200002,0.0,0.394846012635072,1784.6878257100013,13.100000419200002,0.0,0.394846012635072,1385,-7.7,98,P-GPS,
0.35461031982345,36.8888893455312,15000,2018-04-03 05:11:58,1784.8878257164015,13.3000004256,0.0,0.404854012955328,1784.8878257164015,13.3000004256,0.0,0.404854012955328,1390,-7.8,98,P-GPS,
0.35461023063805,36.8888893616482,15100,2018-04-03 05:11:58,1785.1878257260014,13.600000435200002,0.0,0.410179013125728,1785.1878257260014,13.600000435200002,0.0,0.410179013125728,1395,-7.8,98,P-GPS,
0.354610107211766,36.8888893834287,15200,2018-04-03 05:11:58,1785.3878257324013,13.800000441600002,0.0,0.41778501336912005,1785.3878257324013,13.800000441600002,0.0,0.41778501336912005,1396,-7.8,98,P-GPS,
0.354609840670495,36.8888893772768,15400,2018-04-03 05:11:58,1785.8878257484014,14.300000457600001,0.0,0.43002601376083205,1785.8878257484014,14.300000457600001,0.0,0.43002601376083205,1403,-7.8,98,P-GPS,
0.354609711420895,36.8888893744536,15500,2018-04-03 05:11:59,1786.0878257548013,14.500000464000001,0.0,0.43657901397052806,1786.0878257548013,14.500000464000001,0.0,0.43657901397052806,1405,-7.8,98,P-GPS,
0.354609584082274,36.8888894102356,15600,2018-04-03 05:11:59,1786.2878257612015,14.7000004704,0.0,0.44708501430672004,1786.2878257612015,14.7000004704,0.0,0.44708501430672004,1410,-7.8,98,P-GPS,
0.354609379801303,36.8888894621786,15800,2018-04-03 05:11:59,1786.7878257772013,15.200000486400002,0.0,0.46390401484492805,1786.7878257772013,15.200000486400002,0.0,0.46390401484492805,1410,-7.8,98,P-GPS,
0.354609281253165,36.8888894846874,15900,2018-04-03 05:11:59,1786.9878257836012,15.4000004928,0.0,0.471983015103456,1786.9878257836012,15.4000004928,0.0,0.471983015103456,1413,-7.8,98,P-GPS,
0.354609169510966,36.8888895306007,16000,2018-04-03 05:11:59,1787.2878257932014,15.700000502400002,0.0,0.483166015461312,1787.2878257932014,15.700000502400002,0.0,0.483166015461312,1421,-7.8,98,P-GPS,
0.354609083324753,36.8888895405835,16100,2018-04-03 05:11:59,1787.4878257996015,15.900000508800002,0.0,0.489557015665824,1787.4878257996015,15.900000508800002,0.0,0.489557015665824,1420,-7.8,98,P-GPS,
0.354608983848809,36.8888896107905,16200,2018-04-03 05:11:59,1787.7878258092014,16.2000005184,0.0,0.5023420160749441,1787.7878258092014,16.2000005184,0.0,0.5023420160749441,1420,-7.8,98,P-GPS,
0.354608903701681,36.8888896649371,16300,2018-04-03 05:12:00,1787.9878258156014,16.400000524800003,0.0,0.5124540163985281,1787.9878258156014,16.400000524800003,0.0,0.5124540163985281,1421,-7.8,98,P-GPS,
0.354608805903034,36.8888897878527,16400,2018-04-03 05:12:00,1788.2878258252015,16.7000005344,0.0,0.529908016957056,1788.2878258252015,16.7000005344,0.0,0.529908016957056,1423,-7.8,98,P-GPS,
0.354608731171296,36.8888898847853,16500,2018-04-03 05:12:00,1788.4878258316012,16.9000005408,0.0,0.543516017392512,1788.4878258316012,16.9000005408,0.0,0.543516017392512,1423,-7.8,98,P-GPS,
0.354608639204922,36.888890007194,16600,2018-04-03 05:12:00,1788.7878258412013,17.2000005504,0.0,0.560541017937312,1788.7878258412013,17.2000005504,0.0,0.560541017937312,1423,-7.8,98,P-GPS,
0.354608561902685,36.8888900834167,16700,2018-04-03 05:12:00,1788.9878258476015,17.400000556800002,0.0,0.5724670183189441,1788.9878258476015,17.400000556800002,0.0,0.5724670183189441,1422,-7.8,98,P-GPS,
0.354608455678469,36.8888902056404,16800,2018-04-03 05:12:00,1789.2878258572011,17.7000005664,0.0,0.5904220188935041,1789.2878258572011,17.7000005664,0.0,0.5904220188935041,1423,-7.8,98,P-GPS,
0.354608365807087,36.8888902884912,16900,2018-04-03 05:12:00,1789.4878258636013,17.9000005728,0.0,0.6037860193211521,1789.4878258636013,17.9000005728,0.0,0.6037860193211521,1423,-7.8,98,P-GPS,
0.354608151733468,36.8888904313592,17100,2018-04-03 05:12:00,1789.9878258796014,18.4000005888,0.0,0.63086002018752,1789.9878258796014,18.4000005888,0.0,0.63086002018752,1422,-7.9,98,P-GPS,
0.354608036820689,36.8888905087474,17200,2018-04-03 05:12:00,1790.2878258892013,18.700000598400003,0.0,0.645509020656288,1790.2878258892013,18.700000598400003,0.0,0.645509020656288,1422,-7.9,98,P-GPS,
0.354607957136039,36.8888905555186,17300,2018-04-03 05:12:00,1790.4878258956014,18.900000604800002,0.0,0.655088020962816,1790.4878258956014,18.900000604800002,0.0,0.655088020962816,1425,-7.9,98,P-GPS,
0.354607869044547,36.8888906584265,17400,2018-04-03 05:12:01,1790.7878259052013,19.2000006144,0.0,0.670143021444576,1790.7878259052013,19.2000006144,0.0,0.670143021444576,1423,-7.9,98,P-GPS,
0.354607825997444,36.8888907397741,17500,2018-04-03 05:12:01,1791.0878259148014,19.500000624000002,0.0,0.680202021766464,1791.0878259148014,19.500000624000002,0.0,0.680202021766464,1424,-8.0,98,P-GPS,
0.354607803563999,36.8888908540721,17600,2018-04-03 05:12:01,1791.2878259212014,19.7000006304,0.0,0.691736022135552,1791.2878259212014,19.7000006304,0.0,0.691736022135552,1424,-8.0,98,P-GPS,
0.354607827555865,36.8888909188999,17700,2018-04-03 05:12:01,1791.5878259308013,20.00000064,0.0,0.6958120222659839,1791.5878259308013,20.00000064,0.0,0.6958120222659839,1425,-8.2,98,P-GPS,
0.354607829688312,36.8888910102463,17800,2018-04-03 05:12:01,1791.7878259372014,20.200000646400003,0.0,0.703767022520544,1791.7878259372014,20.200000646400003,0.0,0.703767022520544,1425,-8.4,98,P-GPS,
0.354607836596172,36.8888910639654,17900,2018-04-03 05:12:01,1792.0878259468013,20.500000656,0.0,0.708097022659104,1792.0878259468013,20.500000656,0.0,0.708097022659104,1426,-8.7,98,P-GPS,
0.354607872807066,36.8888911522141,18100,2018-04-03 05:12:01,1792.5878259628014,21.000000672,0.0,0.7136430228365761,1792.5878259628014,21.000000672,0.0,0.7136430228365761,1425,-9.0,98,P-GPS,
0.354607883361012,36.8888912172453,18200,2018-04-03 05:12:01,1792.7878259692015,21.200000678400002,0.0,0.7188390230028481,1792.7878259692015,21.200000678400002,0.0,0.7188390230028481,1424,-9.3,98,P-GPS,
0.354607897015515,36.8888912581946,18300,2018-04-03 05:12:02,1793.0878259788012,21.500000688,0.0,0.721682023093824,1793.0878259788012,21.500000688,0.0,0.721682023093824,1424,-10.0,98,P-GPS,
0.354607894388835,36.8888913774502,18500,2018-04-03 05:12:02,1793.5878259948015,22.000000703999998,0.0,0.7327390234476481,1793.5878259948015,22.000000703999998,0.0,0.7327390234476481,1426,-10.3,98,P-GPS,
0.354607886760389,36.8888914520608,18600,2018-04-03 05:12:02,1793.8878260044012,22.300000713600003,0.0,0.740068023682176,1793.8878260044012,22.300000713600003,0.0,0.740068023682176,1423,-10.7,98,P-GPS,
0.354607901383002,36.8888914944602,18700,2018-04-03 05:12:02,1794.0878260108013,22.50000072,0.0,0.743064023778048,1794.0878260108013,22.50000072,0.0,0.743064023778048,1424,-11.1,98,P-GPS,
0.354607914382056,36.888891562305,18800,2018-04-03 05:12:02,1794.3878260204015,22.8000007296,0.0,0.74854002395328,1794.3878260204015,22.8000007296,0.0,0.74854002395328,1425,-11.5,98,P-GPS,
0.354607953064115,36.8888915813186,18900,2018-04-03 05:12:02,1794.5878260268014,23.000000736000004,0.0,0.747946023934272,1794.5878260268014,23.000000736000004,0.0,0.74854002395328,1425,-11.8,98,P-GPS,
0.354607998860031,36.8888916266667,19000,2018-04-03 05:12:02,1794.8878260364013,23.300000745600002,0.0,0.74942002398144,1794.8878260364013,23.300000745600002,0.0,0.74942002398144,1424,-11.8,98,P-GPS,
0.354608060850823,36.8888916272762,19100,2018-04-03 05:12:02,1795.1878260460014,23.6000007552,0.35999970196000003,0.745789023865248,1795.1878260460014,23.6000007552,0.35999970196000003,0.74942002398144,1427,-12.6,98,P-GPS,
0.354608117089136,36.8888916407799,19200,2018-04-03 05:12:02,1795.3878260524014,23.8000007616,0.35999970196000003,0.743759023800288,1795.3878260524014,23.8000007616,0.35999970196000003,0.74942002398144,1431,-13.2,98,P-GPS,
0.354608171997825,36.8888916163475,19300,2018-04-03 05:12:02,1795.6878260620012,24.100000771200005,0.35999970196000003,0.738251023624032,1795.6878260620012,24.100000771200005,0.35999970196000003,0.74942002398144,1432,-13.8,98,P-GPS,
0.354608218858744,36.8888916206315,19400,2018-04-03 05:12:03,1795.8878260684014,24.3000007776,0.35999970196000003,0.7359610235507521,1795.8878260684014,24.3000007776,0.35999970196000003,0.74942002398144,1430,-14.4,98,P-GPS,
0.354608264538226,36.8888915979606,19500,2018-04-03 05:12:03,1796.1878260780013,24.600000787200003,0.35999970196000003,0.73119002339808,1796.1878260780013,24.600000787200003,0.35999970196000003,0.74942002398144,1430,-14.4,98,P-GPS,
0.354608281300615,36.8888916273196,19600,2018-04-03 05:12:03,1796.3878260844015,24.800000793600002,0.35999970196000003,0.7330490234575681,1796.3878260844015,24.800000793600002,0.35999970196000003,0.74942002398144,1428,-15.0,98,P-GPS,
0.35460829989256,36.8888916848663,19800,2018-04-03 05:12:03,1796.9878261036015,25.400000812800002,0.35999970196000003,0.7375300236009601,1796.9878261036015,25.400000812800002,0.35999970196000003,0.74942002398144,1423,-16.0,98,P-GPS,
0.35460832638083,36.8888916955652,19900,2018-04-03 05:12:03,1797.2878261132012,25.7000008224,0.0,0.7370880235868161,1797.2878261132012,25.7000008224,0.35999970196000003,0.74942002398144,1425,-16.1,98,P-GPS,
0.354608356599865,36.88889171427,20000,2018-04-03 05:12:03,1797.4878261196013,25.9000008288,0.0,0.737229023591328,1797.4878261196013,25.9000008288,0.35999970196000003,0.74942002398144,1432,-16.1,98,P-GPS,
0.354608393730017,36.8888916932769,20100,2018-04-03 05:12:03,1797.7878261292014,26.200000838400005,0.0,0.7331650234612801,1797.7878261292014,26.200000838400005,0.35999970196000003,0.74942002398144,1432,-16.1,98,P-GPS,
0.35460841276327,36.8888917145068,20200,2018-04-03 05:12:03,1797.9878261356014,26.4000008448,0.0,0.734191023494112,1797.9878261356014,26.4000008448,0.35999970196000003,0.74942002398144,1441,-16.1,98,P-GPS,
0.354608428726907,36.8888917164402,20300,2018-04-03 05:12:04,1798.2878261452013,26.700000854400002,0.0,0.733516023472512,1798.2878261452013,26.700000854400002,0.35999970196000003,0.74942002398144,1443,-16.1,98,P-GPS,
0.354608447557419,36.88889173549,20400,2018-04-03 05:12:04,1798.4878261516012,26.900000860800002,0.35999970196000003,0.7343580234994561,1798.4878261516012,26.900000860800002,0.35999970196000003,0.74942002398144,1447,-16.1,98,P-GPS,
0.354608476840913,36.8888917125177,20500,2018-04-03 05:12:04,1798.7878261612013,27.200000870400004,0.35999970196000003,0.730553023377696,1798.7878261612013,27.200000870400004,0.35999970196000003,0.74942002398144,1445,-16.1,98,P-GPS,
0.354608490199039,36.8888917348752,20600,2018-04-03 05:12:04,1799.0878261708015,27.50000088,0.35999970196000003,0.7320270234248641,1799.0878261708015,27.50000088,0.35999970196000003,0.74942002398144,1438,-16.1,98,P-GPS,
0.354608504193072,36.8888917359948,20700,2018-04-03 05:12:04,1799.2878261772014,27.7000008864,0.35999970196000003,0.731396023404672,1799.2878261772014,27.7000008864,0.35999970196000003,0.74942002398144,1433,-16.1,98,P-GPS,
0.354608504749186,36.8888917688221,20800,2018-04-03 05:12:04,1799.5878261868013,28.000000896,0.35999970196000003,0.734581023506592,1799.5878261868013,28.000000896,0.35999970196000003,0.74942002398144,1450,-16.1,98,P-GPS,
0.354608505279245,36.8888917623367,20900,2018-04-03 05:12:04,1799.8878261964014,28.300000905600005,0.35999970196000003,0.733918023485376,1799.8878261964014,28.300000905600005,0.35999970196000003,0.74942002398144,1456,-16.1,98,P-GPS,
0.354608484381423,36.8888917693178,21000,2018-04-03 05:12:04,1800.0878262028016,28.500000912,0.35999970196000003,0.7357030235424961,1800.0878262028016,28.500000912,0.35999970196000003,0.74942002398144,1472,-16.1,98,P-GPS,
0.354608468688922,36.8888917386616,21100,2018-04-03 05:12:04,1800.3878262124013,28.800000921600002,0.35999970196000003,0.7335390234732481,1800.3878262124013,28.800000921600002,0.35999970196000003,0.74942002398144,1481,-16.1,98,P-GPS,
0.354608444588765,36.8888917387592,21200,2018-04-03 05:12:04,1800.6878262220014,29.1000009312,0.35999970196000003,0.734836023514752,1800.6878262220014,29.1000009312,0.35999970196000003,0.74942002398144,1495,-16.1,98,P-GPS,
0.354608428800187,36.8888917220961,21300,2018-04-03 05:12:04,1800.9878262316013,29.4000009408,0.0,0.734062023489984,1800.9878262316013,29.4000009408,0.35999970196000003,0.74942002398144,1503,-16.1,98,P-GPS,
0.35460838406113,36.8888917359462,21400,2018-04-03 05:12:04,1801.2878262412014,29.700000950400003,0.0,0.7378290236105279,1801.2878262412014,29.700000950400003,0.35999970196000003,0.74942002398144,1509,-16.1,97,P-GPS,
0.354608342118113,36.8888917242357,21500,2018-04-03 05:12:05,1801.5878262508015,30.00000096,0.0,0.7389880236476161,1801.5878262508015,30.00000096,0.35999970196000003,0.74942002398144,1510,-16.1,97,P-GPS,
0.354608306175911,36.8888917616857,21600,2018-04-03 05:12:05,1801.8878262604012,30.300000969600003,0.0,0.7445850238267201,1801.8878262604012,30.300000969600003,0.35999970196000003,0.74942002398144,1511,-16.1,97,P-GPS,
0.354608296171565,36.8888917795504,21700,2018-04-03 05:12:05,1802.2878262732013,30.700000982400002,0.0,0.7468620238995841,1802.2878262732013,30.700000982400002,0.35999970196000003,0.74942002398144,1512,-16.1,97,P-GPS,
0.354608266604722,36.8888918252489,21800,2018-04-03 05:12:05,1802.5878262828014,31.000000992,0.0,0.752906024092992,1802.5878262828014,31.000000992,0.35999970196000003,0.752906024092992,1516,-16.1,97,P-GPS,
0.354608238253512,36.8888918287205,21900,2018-04-03 05:12:05,1802.9878262956013,31.400001004800004,0.0,0.75481002415392,1802.9878262956013,31.400001004800004,0.35999970196000003,0.75481002415392,1518,-16.1,97,P-GPS,
0.354608185290813,36.8888918756951,22000,2018-04-03 05:12:05,1803.2878263052014,31.7000010144,0.35999970196000003,0.7622810243929921,1803.2878263052014,31.7000010144,0.35999970196000003,0.7622810243929921,1515,-16.1,97,P-GPS,
0.354608140435324,36.8888918951993,22100,2018-04-03 05:12:05,1803.5878263148015,32.000001024,0.0,0.7666690245334081,1803.5878263148015,32.000001024,0.35999970196000003,0.7666690245334081,1515,-16.1,97,P-GPS,
0.354608076408162,36.8888919399688,22200,2018-04-03 05:12:05,1803.9878263276014,32.4000010368,0.0,0.7745730247863359,1803.9878263276014,32.4000010368,0.35999970196000003,0.7745730247863359,1516,-16.1,97,P-GPS,
0.354608031085309,36.8888919500021,22300,2018-04-03 05:12:06,1804.2878263372015,32.700001046400004,0.0,0.7781120248995841,1804.2878263372015,32.700001046400004,0.35999970196000003,0.7781120248995841,1514,-16.1,97,P-GPS,
0.354607951562689,36.8888920015216,22400,2018-04-03 05:12:06,1804.5878263468012,33.000001056,0.0,0.7875850252027201,1804.5878263468012,33.000001056,0.35999970196000003,0.7875850252027201,1510,-16.1,97,P-GPS,
0.354607866974794,36.8888920403276,22500,2018-04-03 05:12:06,1804.9878263596013,33.4000010688,0.0,0.796177025477664,1804.9878263596013,33.4000010688,0.35999970196000003,0.796177025477664,1509,-16.1,97,P-GPS,
0.354607756424617,36.8888921035323,22600,2018-04-03 05:12:06,1805.2878263692014,33.7000010784,0.0,0.808644025876608,1805.2878263692014,33.7000010784,0.35999970196000003,0.808644025876608,1509,-16.1,97,P-GPS,
0.354607685845411,36.8888921131384,22700,2018-04-03 05:12:06,1805.5878263788013,34.000001088,0.0,0.813749026039968,1805.5878263788013,34.000001088,0.35999970196000003,0.813749026039968,1514,-16.1,97,P-GPS,
0.35460760925969,36.8888921585098,22800,2018-04-03 05:12:06,1805.9878263916014,34.4000011008,0.0,0.8226000263232,1805.9878263916014,34.4000011008,0.35999970196000003,0.8226000263232,1535,-16.1,97,P-GPS,
0.354607555349237,36.8888921842459,22900,2018-04-03 05:12:06,1806.2878264012013,34.7000011104,0.0,0.828267026504544,1806.2878264012013,34.7000011104,0.35999970196000003,0.828267026504544,1546,-16.1,97,P-GPS,
0.354607470815895,36.8888922539175,23000,2018-04-03 05:12:06,1806.5878264108014,35.00000112,0.0,0.839901026876832,1806.5878264108014,35.00000112,0.35999970196000003,0.839901026876832,1554,-16.1,97,P-GPS,
0.354607398267901,36.8888922927126,23100,2018-04-03 05:12:06,1806.9878264236015,35.4000011328,0.0,0.8479550271345601,1806.9878264236015,35.4000011328,0.35999970196000003,0.8479550271345601,1560,-16.1,97,P-GPS,
0.354607316696698,36.8888923641578,23200,2018-04-03 05:12:06,1807.2878264332012,35.700001142400005,0.0,0.8596030275072961,1807.2878264332012,35.700001142400005,0.35999970196000003,0.8596030275072961,1569,-16.1,97,P-GPS,
0.354607256740647,36.8888924027628,23300,2018-04-03 05:12:06,1807.6878264460015,36.1000011552,0.0,0.8668900277404801,1807.6878264460015,36.1000011552,0.35999970196000003,0.8668900277404801,1574,-16.1,97,P-GPS,
0.354607166794357,36.8888924903255,23400,2018-04-03 05:12:07,1808.0878264588016,36.500001168000004,0.0,0.880566028178112,1808.0878264588016,36.500001168000004,0.35999970196000003,0.880566028178112,1573,-16.1,97,P-GPS,
0.354607087446795,36.8888925479168,23500,2018-04-03 05:12:07,1808.4878264716015,36.900001180800004,0.0,0.890836028506752,1808.4878264716015,36.900001180800004,0.35999970196000003,0.890836028506752,1569,-16.1,97,P-GPS,
0.354606985043723,36.8888926375484,23600,2018-04-03 05:12:07,1808.8878264844016,37.3000011936,0.0,0.905509028976288,1808.8878264844016,37.3000011936,0.35999970196000003,0.905509028976288,1574,-16.1,97,P-GPS,
0.354606906548651,36.8888926768665,23700,2018-04-03 05:12:07,1809.2878264972014,37.7000012064,0.0,0.91409002925088,1809.2878264972014,37.7000012064,0.35999970196000003,0.91409002925088,1573,-16.1,97,P-GPS,
0.354606822497328,36.888892765959,23800,2018-04-03 05:12:07,1809.6878265100015,38.1000012192,0.0,0.9275710296822721,1809.6878265100015,38.1000012192,0.35999970196000003,0.9275710296822721,1575,-16.1,97,P-GPS,
0.354606769969425,36.888892819112,23900,2018-04-03 05:12:07,1810.0878265228014,38.500001232,0.0,0.935768029944576,1810.0878265228014,38.500001232,0.35999970196000003,0.935768029944576,1574,-16.1,97,P-GPS,
0.354606675231438,36.8888929288017,24000,2018-04-03 05:12:07,1810.4878265356015,38.9000012448,0.0,0.951812030457984,1810.4878265356015,38.9000012448,0.35999970196000003,0.951812030457984,1574,-16.1,97,P-GPS,
0.354606588572977,36.8888930019881,24100,2018-04-03 05:12:07,1810.8878265484013,39.3000012576,0.0,0.9640310308489921,1810.8878265484013,39.3000012576,0.35999970196000003,0.9640310308489921,1571,-16.1,97,P-GPS,
0.354606491496545,36.8888931203778,24200,2018-04-03 05:12:07,1811.2878265612014,39.7000012704,0.0,0.981019031392608,1811.2878265612014,39.7000012704,0.35999970196000003,0.981019031392608,1571,-16.1,97,P-GPS,
0.354606436190515,36.8888931813481,24300,2018-04-03 05:12:08,1811.5878265708016,40.00000128,0.0,0.9901130316836161,1811.5878265708016,40.00000128,0.35999970196000003,0.9901130316836161,1571,-16.1,97,P-GPS,
0.354606347255489,36.888893291329,24400,2018-04-03 05:12:08,1811.9878265836014,40.400001292800006,0.0,1.00582003218624,1811.9878265836014,40.400001292800006,0.35999970196000003,1.00582003218624,1574,-16.1,97,P-GPS,
0.354606271943211,36.8888933664675,24500,2018-04-03 05:12:08,1812.3878265964015,40.8000013056,0.0,1.01749003255968,1812.3878265964015,40.8000013056,0.35999970196000003,1.01749003255968,1575,-16.1,97,P-GPS,
0.354606188130456,36.8888934866091,24600,2018-04-03 05:12:08,1812.7878266092014,41.2000013184,0.0,1.0337800330809601,1812.7878266092014,41.2000013184,0.35999970196000003,1.0337800330809601,1571,-16.1,97,P-GPS,
0.354606142656157,36.8888935562681,24700,2018-04-03 05:12:08,1813.1878266220015,41.600001331200005,0.0,1.04302003337664,1813.1878266220015,41.600001331200005,0.35999970196000003,1.04302003337664,1575,-16.1,97,P-GPS,
0.354606096631444,36.8888936726446,24800,2018-04-03 05:12:08,1813.5878266348013,42.000001344,0.0,1.05652003380864,1813.5878266348013,42.000001344,0.35999970196000003,1.05652003380864,1572,-16.1,97,P-GPS,
0.354606079023894,36.8888937390125,24900,2018-04-03 05:12:08,1813.9878266476014,42.400001356800004,0.0,1.06366003403712,1813.9878266476014,42.400001356800004,0.35999970196000003,1.06366003403712,1570,-16.2,97,P-GPS,
0.354606030537788,36.888893855487,25000,2018-04-03 05:12:08,1814.3878266604013,42.800001369600004,0.0,1.07734003447488,1814.3878266604013,42.800001369600004,0.35999970196000003,1.07734003447488,1571,-16.3,97,P-GPS,
0.354606003662762,36.888893927002,25100,2018-04-03 05:12:08,1814.7878266732014,43.2000013824,0.0,1.0855600347379202,1814.7878266732014,43.2000013824,0.35999970196000003,1.0855600347379202,1571,-16.3,97,P-GPS,
0.354605978428394,36.8888940445492,25200,2018-04-03 05:12:08,1815.1878266860012,43.6000013952,0.0,1.09788003513216,1815.1878266860012,43.6000013952,0.35999970196000003,1.09788003513216,1573,-16.4,97,P-GPS,
0.354605992176533,36.8888941043429,25300,2018-04-03 05:12:08,1815.5878266988013,44.000001407999996,0.35999970196000003,1.10247003527904,1815.5878266988013,44.000001407999996,0.35999970196000003,1.10247003527904,1573,-16.5,97,P-GPS,
0.354605981366107,36.8888941945482,25400,2018-04-03 05:12:09,1815.9878267116014,44.4000014208,0.35999970196000003,1.11141003556512,1815.9878267116014,44.4000014208,0.35999970196000003,1.11141003556512,1569,-16.8,97,P-GPS,
0.354605975916519,36.8888942459821,25500,2018-04-03 05:12:09,1816.3878267244013,44.8000014336,0.35999970196000003,1.11648003572736,1816.3878267244013,44.8000014336,0.35999970196000003,1.11648003572736,1569,-16.8,97,P-GPS,
0.35460594289656,36.8888943479856,25600,2018-04-03 05:12:09,1816.7878267372014,45.2000014464,0.35999970196000003,1.12793003609376,1816.7878267372014,45.2000014464,0.35999970196000003,1.12793003609376,1570,-17.2,97,P-GPS,
0.354605930263906,36.8888944539806,25800,2018-04-03 05:12:09,1817.5878267628013,46.00000147200001,0.35999970196000003,1.1384900364316801,1817.5878267628013,46.00000147200001,0.35999970196000003,1.1384900364316801,1570,-18.0,97,P-GPS,
0.35460593796726,36.8888944924857,25900,2018-04-03 05:12:09,1817.9878267756012,46.4000014848,0.35999970196000003,1.1415700365302401,1817.9878267756012,46.4000014848,0.35999970196000003,1.1415700365302401,1568,-18.5,97,P-GPS,
0.354605931294711,36.8888945686396,26000,2018-04-03 05:12:09,1818.2878267852013,46.7000014944,0.35999970196000003,1.1490400367692801,1818.2878267852013,46.7000014944,0.35999970196000003,1.1490400367692801,1569,-18.9,97,P-GPS,
0.354605949036608,36.8888945958218,26100,2018-04-03 05:12:09,1818.6878267980012,47.100001507200005,0.35999970196000003,1.15048003681536,1818.6878267980012,47.100001507200005,0.35999970196000003,1.15048003681536,1569,-19.4,97,P-GPS,
0.354605972526913,36.8888946814921,26200,2018-04-03 05:12:09,1819.0878268108013,47.500001520000005,0.35999970196000003,1.15703003702496,1819.0878268108013,47.500001520000005,0.35999970196000003,1.15703003702496,1569,-19.9,97,P-GPS,
0.354606023687738,36.8888947354871,26300,2018-04-03 05:12:09,1819.4878268236014,47.9000015328,0.35999970196000003,1.15901003708832,1819.4878268236014,47.9000015328,0.35999970196000003,1.15901003708832,1570,-20.4,97,P-GPS,
0.354606054260146,36.8888948310028,26400,2018-04-03 05:12:10,1819.8878268364012,48.300001545600004,0.503999582744,1.16617003731744,1819.8878268364012,48.300001545600004,0.503999582744,1.16617003731744,1570,-20.9,97,P-GPS,
0.354606099500763,36.8888948664827,26500,2018-04-03 05:12:10,1820.2878268492013,48.7000015584,0.503999582744,1.1668500373392001,1820.2878268492013,48.7000015584,0.503999582744,1.1668500373392001,1570,-21.4,97,P-GPS,
0.354606139291792,36.8888949380962,26600,2018-04-03 05:12:10,1820.6878268620012,49.1000015712,0.503999582744,1.1713200374822401,1820.6878268620012,49.1000015712,0.503999582744,1.1713200374822401,1570,-21.4,97,P-GPS,
0.354606194953636,36.8888949658627,26700,2018-04-03 05:12:10,1821.0878268748015,49.500001584,0.503999582744,1.170750037464,1821.0878268748015,49.500001584,0.503999582744,1.1713200374822401,1562,-22.3,97,P-GPS,
0.354606250633393,36.8888950156527,26800,2018-04-03 05:12:10,1821.4878268876014,49.9000015968,0.503999582744,1.17233003751456,1821.4878268876014,49.9000015968,0.503999582744,1.17233003751456,1562,-22.8,97,P-GPS,
0.35460633332985,36.8888950125672,26900,2018-04-03 05:12:10,1821.8878269004015,50.3000016096,0.503999582744,1.16737003735584,1821.8878269004015,50.3000016096,0.503999582744,1.17233003751456,1560,-23.3,97,P-GPS,
0.354606399438977,36.8888950491519,27000,2018-04-03 05:12:10,1822.2878269132016,50.7000016224,0.503999582744,1.1672000373504,1822.2878269132016,50.7000016224,0.503999582744,1.17233003751456,1559,-23.3,97,P-GPS,
0.354606465734561,36.8888950530446,27100,2018-04-03 05:12:10,1822.6878269260014,51.1000016352,0.503999582744,1.16392003724544,1822.6878269260014,51.1000016352,0.503999582744,1.17233003751456,1558,-23.8,97,P-GPS,
0.354606578788471,36.8888951178754,27300,2018-04-03 05:12:11,1823.3878269484014,51.8000016576,0.35999970196000003,1.16409003725088,1823.3878269484014,51.8000016576,0.503999582744,1.17233003751456,1553,-24.2,97,P-GPS,
0.354606605880079,36.888895156574,27400,2018-04-03 05:12:11,1823.7878269612015,52.200001670400006,0.35999970196000003,1.16641003732512,1823.7878269612015,52.200001670400006,0.503999582744,1.17233003751456,1552,-24.2,97,P-GPS,
0.354606645526177,36.8888951542343,27600,2018-04-03 05:12:11,1824.5878269868015,53.000001696000005,0.35999970196000003,1.16408003725056,1824.5878269868015,53.000001696000005,0.503999582744,1.17233003751456,1552,-24.2,97,P-GPS,
0.354606674524694,36.8888951184209,27700,2018-04-03 05:12:11,1824.8878269964011,53.3000017056,0.35999970196000003,1.1590400370892802,1824.8878269964011,53.3000017056,0.503999582744,1.17233003751456,1553,-24.2,97,P-GPS,
0.354606715196711,36.8888951079026,27800,2018-04-03 05:12:11,1825.2878270092012,53.7000017184,0.35999970196000003,1.15587003698784,1825.2878270092012,53.7000017184,0.503999582744,1.17233003751456,1554,-24.2,97,P-GPS,
0.354606785016247,36.8888950669758,27900,2018-04-03 05:12:11,1825.6878270220016,54.1000017312,0.35999970196000003,1.1482000367424,1825.6878270220016,54.1000017312,0.503999582744,1.17233003751456,1554,-24.2,97,P-GPS,
0.354606852945974,36.8888950903466,28000,2018-04-03 05:12:11,1826.0878270348014,54.500001744,0.35999970196000003,1.14698003670336,1826.0878270348014,54.500001744,0.503999582744,1.17233003751456,1554,-24.2,97,P-GPS,
0.354606920823591,36.8888950821879,28100,2018-04-03 05:12:11,1826.4878270476015,54.9000017568,0.35999970196000003,1.1427000365664,1826.4878270476015,54.9000017568,0.503999582744,1.17233003751456,1556,-24.2,97,P-GPS,
0.354606978686277,36.8888951003278,28200,2018-04-03 05:12:11,1826.8878270604014,55.3000017696,0.35999970196000003,1.14156003652992,1826.8878270604014,55.3000017696,0.503999582744,1.17233003751456,1558,-24.2,97,P-GPS,
0.354607038578819,36.8888950677265,28300,2018-04-03 05:12:11,1827.1878270700013,55.6000017792,0.35999970196000003,1.13532003633024,1827.1878270700013,55.6000017792,0.503999582744,1.17233003751456,1557,-24.2,97,P-GPS,
0.354607058637992,36.8888950788733,28400,2018-04-03 05:12:12,1827.5878270828011,56.000001792,0.35999970196000003,1.13543003633376,1827.5878270828011,56.000001792,0.503999582744,1.17233003751456,1563,-24.2,97,P-GPS,
0.354607071597964,36.8888950559706,28500,2018-04-03 05:12:12,1827.9878270956015,56.400001804800006,0.35999970196000003,1.13251003624032,1827.9878270956015,56.400001804800006,0.503999582744,1.17233003751456,1564,-24.2,97,P-GPS,
0.354607075857159,36.8888950691004,28600,2018-04-03 05:12:12,1828.3878271084016,56.8000018176,0.35999970196000003,1.1336000362752001,1828.3878271084016,56.8000018176,0.503999582744,1.17233003751456,1567,-24.2,97,P-GPS,
0.354607099460641,36.8888950550801,28700,2018-04-03 05:12:12,1828.7878271212014,57.200001830400005,0.35999970196000003,1.13103003619296,1828.7878271212014,57.200001830400005,0.503999582744,1.17233003751456,1569,-24.2,97,P-GPS,
0.354607123009569,36.8888950625764,28800,2018-04-03 05:12:12,1829.1878271340015,57.600001843200005,0.35999970196000003,1.1306200361798402,1829.1878271340015,57.600001843200005,0.503999582744,1.17233003751456,1575,-24.2,97,P-GPS,
0.354607186321844,36.8888949697214,29000,2018-04-03 05:12:12,1829.8878271564013,58.30000186560001,0.35999970196000003,1.11824003578368,1829.8878271564013,58.30000186560001,0.503999582744,1.17233003751456,1575,-24.2,97,P-GPS,
0.354607206214915,36.8888948898311,29100,2018-04-03 05:12:12,1830.2878271692016,58.7000018784,0.35999970196000003,1.1093000354976,1830.2878271692016,58.7000018784,0.503999582744,1.17233003751456,1575,-24.2,97,P-GPS,
0.354607199372194,36.8888948523559,29200,2018-04-03 05:12:12,1830.6878271820015,59.10000189120001,0.35999970196000003,1.1059000353888,1830.6878271820015,59.10000189120001,0.503999582744,1.17233003751456,1575,-24.2,97,P-GPS,
0.354607198645908,36.8888948005267,29300,2018-04-03 05:12:13,1831.0878271948015,59.500001904,0.35999970196000003,1.10078003522496,1831.0878271948015,59.500001904,0.503999582744,1.17233003751456,1577,-24.2,97,P-GPS,
0.354607179971726,36.8888948085933,29400,2018-04-03 05:12:13,1831.4878272076014,59.9000019168,0.35999970196000003,1.10251003528032,1831.4878272076014,59.9000019168,0.503999582744,1.17233003751456,1575,-24.2,97,P-GPS,
0.354607168556334,36.8888947891534,29500,2018-04-03 05:12:13,1831.8878272204015,60.30000192960001,0.35999970196000003,1.1011500352368,1831.8878272204015,60.30000192960001,0.503999582744,1.17233003751456,1576,-24.2,97,P-GPS,
0.35460712651968,36.8888947921,29600,2018-04-03 05:12:13,1832.2878272332014,60.7000019424,0.35999970196000003,1.10356003531392,1832.2878272332014,60.7000019424,0.503999582744,1.17233003751456,1576,-24.2,97,P-GPS,
0.354607092377724,36.8888947455646,29700,2018-04-03 05:12:13,1832.6878272460015,61.10000195520001,0.35999970196000003,1.10068003522176,1832.6878272460015,61.10000195520001,0.503999582744,1.17233003751456,1577,-24.2,97,P-GPS,
0.354607033747226,36.8888947495954,29800,2018-04-03 05:12:13,1833.0878272588013,61.500001968,0.35999970196000003,1.10408003533056,1833.0878272588013,61.500001968,0.503999582744,1.17233003751456,1576,-24.2,97,P-GPS,
0.354606997848178,36.8888947333052,29900,2018-04-03 05:12:13,1833.4878272716014,61.900001980800006,0.35999970196000003,1.1043300353385601,1833.4878272716014,61.900001980800006,0.503999582744,1.17233003751456,1576,-24.2,97,P-GPS,
0.354606943992278,36.8888947494196,30000,2018-04-03 05:12:13,1833.8878272844013,62.300001993600006,0.35999970196000003,1.10872003547904,1833.8878272844013,62.300001993600006,0.503999582744,1.17233003751456,1577,-24.2,97,P-GPS,
0.35460690530452,36.8888947243778,30100,2018-04-03 05:12:13,1834.2878272972014,62.7000020064,0.35999970196000003,1.10829003546528,1834.2878272972014,62.7000020064,0.503999582744,1.17233003751456,1577,-24.2,97,P-GPS,
0.354606783587288,36.888894721807,30300,2018-04-03 05:12:13,1834.9878273196014,63.4000020288,0.35999970196000003,1.11452003566464,1834.9878273196014,63.4000020288,0.503999582744,1.17233003751456,1603,-24.2,97,P-GPS,
0.35460670753651,36.8888947208761,30400,2018-04-03 05:12:13,1835.3878273324015,63.8000020416,0.35999970196000003,1.11854003579328,1835.3878273324015,63.8000020416,0.503999582744,1.17233003751456,1605,-24.2,97,P-GPS,
0.354606653928134,36.8888946805061,30500,2018-04-03 05:12:14,1835.7878273452013,64.2000020544,0.35999970196000003,1.11757003576224,1835.7878273452013,64.2000020544,0.503999582744,1.17233003751456,1605,-24.2,97,P-GPS,
0.35460658619382,36.8888946974945,30600,2018-04-03 05:12:14,1836.1878273580014,64.6000020672,0.35999970196000003,1.1229500359344,1836.1878273580014,64.6000020672,0.503999582744,1.17233003751456,1604,-24.2,97,P-GPS,
0.354606537954423,36.8888946994481,30700,2018-04-03 05:12:14,1836.6878273740012,65.10000208320001,0.35999970196000003,1.12582003602624,1836.6878273740012,65.10000208320001,0.503999582744,1.17233003751456,1605,-24.2,97,P-GPS,
0.354606473363007,36.8888947147197,30800,2018-04-03 05:12:14,1837.0878273868013,65.500002096,0.35999970196000003,1.13092003618944,1837.0878273868013,65.500002096,0.503999582744,1.17233003751456,1607,-24.2,97,P-GPS,
0.354606432262709,36.8888946718968,30900,2018-04-03 05:12:14,1837.4878273996012,65.90000210880001,0.35999970196000003,1.1291500361328002,1837.4878273996012,65.90000210880001,0.503999582744,1.17233003751456,1605,-24.2,97,P-GPS,
0.354606366195107,36.8888946748158,31000,2018-04-03 05:12:14,1837.8878274124013,66.3000021216,0.35999970196000003,1.1332000362624002,1837.8878274124013,66.3000021216,0.503999582744,1.17233003751456,1601,-24.2,97,P-GPS,
0.354606321796396,36.8888946583388,31100,2018-04-03 05:12:14,1838.3878274284014,66.8000021376,0.35999970196000003,1.1341900362940802,1838.3878274284014,66.8000021376,0.503999582744,1.17233003751456,1602,-24.2,97,P-GPS,
0.354606267390896,36.888894681354,31200,2018-04-03 05:12:14,1838.7878274412014,67.20000215040001,0.35999970196000003,1.13953003646496,1838.7878274412014,67.20000215040001,0.503999582744,1.17233003751456,1597,-24.2,97,P-GPS,
0.354606244456705,36.8888946536477,31300,2018-04-03 05:12:15,1839.1878274540015,67.6000021632,0.35999970196000003,1.138250036424,1839.1878274540015,67.6000021632,0.503999582744,1.17233003751456,1597,-24.2,97,P-GPS,
0.354606187759985,36.8888946715596,31400,2018-04-03 05:12:15,1839.5878274668014,68.000002176,0.35999970196000003,1.1432600365843202,1839.5878274668014,68.000002176,0.503999582744,1.17233003751456,1603,-24.2,97,P-GPS,
0.354606138239817,36.8888946644747,31500,2018-04-03 05:12:15,1840.0878274828012,68.500002192,0.35999970196000003,1.14552003665664,1840.0878274828012,68.500002192,0.503999582744,1.17233003751456,1603,-24.2,97,P-GPS,
