latitude,longitude,time_millisecond,datetime_utc,altitude_m,ascent_m,speed_kph,distance_m,max_altitude_m,max_ascent_m,max_speed_kph,max_distance_m,rc_throttle,gimbal_pitch_degrees,battery_percent,flycState,message
0.37413203805587,36.9266630685594,0,2018-04-18 05:16:20,1632.4633090388206,0.0,0.0,0.0,1632.4633090388206,0.0,0.0,0.0,364,0.0,99,P-GPS,
0.37413206425672,36.9266630911137,100,2018-04-18 05:16:20,1632.4633090388206,0.0,0.0,0.0038445101230243205,1632.4633090388206,0.0,0.0,0.0038445101230243205,364,0.0,99,Motors_Started,
0.374132088862102,36.926663112803,200,2018-04-18 05:16:20,1632.4633090388206,0.0,0.0,0.007491920239741441,1632.4633090388206,0.0,0.0,0.007491920239741441,364,0.0,99,Motors_Started,
0.37413210890499,36.926663097917,300,2018-04-18 05:16:21,1632.4633090388206,0.0,0.0,0.0085284502729104,1632.4633090388206,0.0,0.0,0.0085284502729104,364,0.0,99,Motors_Started,
0.374132123675792,36.9266630873237,400,2018-04-18 05:16:21,1632.4633090388206,0.0,0.0,0.00974743031191776,1632.4633090388206,0.0,0.0,0.00974743031191776,364,0.0,99,Motors_Started,
0.374132090322409,36.9266630816944,500,2018-04-18 05:16:21,1632.4633090388206,0.0,0.0,0.0059930801917785605,1632.4633090388206,0.0,0.0,0.00974743031191776,364,0.0,99,Motors_Started,
0.374132074618102,36.9266630783225,600,2018-04-18 05:16:21,1632.4633090388206,0.0,0.0,0.004208400134668801,1632.4633090388206,0.0,0.0,0.00974743031191776,364,0.0,99,Motors_Started,Setting new Return-To-Home altitude to 30m (98 ft). Setting new Maximum Flight Altitude to 150m (492 ft)
0.374132088755439,36.9266630776009,700,2018-04-18 05:16:21,1632.4633090388206,0.0,0.0,0.005727050183265601,1632.4633090388206,0.0,0.0,0.00974743031191776,364,0.0,99,Motors_Started,
0.374132101981661,36.9266630772963,800,2018-04-18 05:16:21,1632.4633090388206,0.0,0.0,0.0071750202296006396,1632.4633090388206,0.0,0.0,0.00974743031191776,364,0.0,99,Motors_Started,
0.374132112814885,36.926663080316,900,2018-04-18 05:16:21,1632.4633090388206,0.0,0.0,0.00841583026930656,1632.4633090388206,0.0,0.0,0.00974743031191776,364,0.0,99,Motors_Started,
0.374132120893595,36.9266630824941,1000,2018-04-18 05:16:21,1632.4633090388206,0.0,0.0,0.009341480298927361,1632.4633090388206,0.0,0.0,0.00974743031191776,364,0.0,99,Motors_Started,
0.374132125487029,36.9266630858693,1100,2018-04-18 05:16:21,1632.4633090388206,0.0,0.0,0.009911590317170881,1632.4633090388206,0.0,0.0,0.009911590317170881,413,0.0,99,Motors_Started,
0.374132131153199,36.9266630892931,1200,2018-04-18 05:16:22,1632.4633090388206,0.0,0.0,0.0106066003394112,1632.4633090388206,0.0,0.0,0.0106066003394112,481,0.0,99,Motors_Started,
0.374132131888849,36.9266630916737,1300,2018-04-18 05:16:22,1632.4633090388206,0.0,0.0,0.010746700343894402,1632.4633090388206,0.0,0.0,0.010746700343894402,669,0.0,99,Motors_Started,
0.374132134233401,36.9266630933947,1400,2018-04-18 05:16:22,1632.4633090388206,0.0,0.0,0.0110463003534816,1632.4633090388206,0.0,0.0,0.0110463003534816,850,0.0,99,Motors_Started,
0.374132133197711,36.9266630538041,1500,2018-04-18 05:16:22,1632.4633090388206,0.0,0.0,0.010706800342617602,1632.4633090388206,0.0,0.0,0.0110463003534816,1003,0.0,99,Motors_Started,
0.374132131456904,36.9266630256296,1600,2018-04-18 05:16:22,1632.4633090388206,0.0,0.0,0.011431300365801601,1632.4633090388206,0.0,0.0,0.011431300365801601,1024,0.0,99,Assisted_Takeoff,
0.374132130305187,36.9266630433388,1700,2018-04-18 05:16:22,1632.4633090388206,0.0,0.0,0.0106352003403264,1632.4633090388206,0.0,0.0,0.011431300365801601,1024,0.0,99,Assisted_Takeoff,
0.374132129698999,36.9266630572847,1800,2018-04-18 05:16:22,1632.4633090388206,0.0,0.0,0.010268100328579199,1632.4633090388206,0.0,0.0,0.011431300365801601,1024,0.0,99,Assisted_Takeoff,
0.374132126583786,36.9266630728168,1900,2018-04-18 05:16:22,1632.4633090388206,0.0,0.0,0.00985622031539904,1632.4633090388206,0.0,0.0,0.011431300365801601,1024,0.0,99,Assisted_Takeoff,
0.374132125174774,36.9266630838555,2000,2018-04-18 05:16:22,1632.4633090388206,0.0,0.0,0.009836340314762881,1632.4633090388206,0.0,0.0,0.011431300365801601,1024,0.0,99,Assisted_Takeoff,
0.374132122875412,36.9266630921426,2100,2018-04-18 05:16:22,1632.4633090388206,0.0,0.0,0.009790240313287681,1632.4633090388206,0.0,0.0,0.011431300365801601,1024,0.0,99,Assisted_Takeoff,
0.374132120731972,36.9266630989609,2200,2018-04-18 05:16:22,1632.4633090388206,0.0,0.0,0.0097959503134704,1632.4633090388206,0.0,0.0,0.011431300365801601,1024,0.0,99,Assisted_Takeoff,
0.374132118687054,36.9266631024816,2300,2018-04-18 05:16:23,1632.4633090388206,0.0,0.0,0.00972787031129184,1632.4633090388206,0.0,0.0,0.011431300365801601,1024,0.0,99,Assisted_Takeoff,
0.374132117362721,36.926663106513,2400,2018-04-18 05:16:23,1632.4633090388206,0.0,0.0,0.009777280312872961,1632.4633090388206,0.0,0.0,0.011431300365801601,1024,0.0,99,Assisted_Takeoff,
0.374132075396498,36.9266631082689,2500,2018-04-18 05:16:23,1632.4633090388206,0.0,0.0,0.00606159019397088,1632.4633090388206,0.0,0.0,0.011431300365801601,1024,0.0,99,Assisted_Takeoff,
0.374132045929804,36.9266631114277,2600,2018-04-18 05:16:23,1632.4633090388206,0.0,0.0,0.004846860155099521,1632.4633090388206,0.0,0.0,0.011431300365801601,1024,0.0,99,Assisted_Takeoff,
0.37413202247614,36.9266631114749,2700,2018-04-18 05:16:23,1632.4633090388206,0.0,0.0,0.0050771201624678405,1632.4633090388206,0.0,0.0,0.011431300365801601,1024,0.0,99,Assisted_Takeoff,
0.374132003522273,36.9266631134753,2800,2018-04-18 05:16:23,1632.4633090388206,0.0,0.0,0.0063005102016163205,1632.4633090388206,0.0,0.0,0.011431300365801601,1024,0.0,99,Assisted_Takeoff,
0.374131992536382,36.926663070501,2900,2018-04-18 05:16:23,1632.4633090388206,0.0,0.0,0.0050666501621328,1632.4633090388206,0.0,0.0,0.011431300365801601,1024,0.0,99,Assisted_Takeoff,
0.374131981641685,36.9266630415391,3000,2018-04-18 05:16:23,1632.4633090388206,0.0,0.0,0.006956050222593601,1632.4633090388206,0.0,0.0,0.011431300365801601,1026,0.0,99,Assisted_Takeoff,
0.374131979332551,36.9266630163521,3100,2018-04-18 05:16:23,1632.4633090388206,0.0,0.0,0.008737940279614081,1632.4633090388206,0.0,0.0,0.011431300365801601,1081,0.0,99,Assisted_Takeoff,
0.374131975040787,36.9266629985669,3200,2018-04-18 05:16:24,1632.4633090388206,0.0,0.0,0.0104733003351456,1632.4633090388206,0.0,0.0,0.011431300365801601,1171,0.0,99,Assisted_Takeoff,
0.374131978004962,36.9266629876653,3300,2018-04-18 05:16:24,1632.4633090388206,0.0,0.0,0.011203500358512001,1632.4633090388206,0.0,0.0,0.011431300365801601,1193,0.0,99,Assisted_Takeoff,
0.374131977214353,36.9266629790966,3400,2018-04-18 05:16:24,1632.4633090388206,0.0,0.0,0.0120313003850016,1632.4633090388206,0.0,0.0,0.0120313003850016,1217,0.0,99,Assisted_Takeoff,
0.374131981350601,36.926662976685,3500,2018-04-18 05:16:24,1632.4633090388206,0.0,0.0,0.0120062003841984,1632.4633090388206,0.0,0.0,0.0120313003850016,1277,0.0,99,Assisted_Takeoff,
0.374131982572748,36.926662974404,3600,2018-04-18 05:16:24,1632.4633090388206,0.0,0.0,0.012153200388902401,1632.4633090388206,0.0,0.0,0.012153200388902401,1284,0.0,99,Assisted_Takeoff,
0.374131984627437,36.9266629749731,3700,2018-04-18 05:16:24,1632.4633090388206,0.0,0.0,0.011983800383481602,1632.4633090388206,0.0,0.0,0.012153200388902401,1300,0.0,99,Assisted_Takeoff,
0.374131987047712,36.9266629803444,3800,2018-04-18 05:16:24,1632.4633090388206,0.0,0.0,0.0113318003626176,1632.4633090388206,0.0,0.0,0.012153200388902401,1314,0.0,99,Assisted_Takeoff,
0.374132011497984,36.9266629787845,3900,2018-04-18 05:16:24,1632.4633090388206,0.0,0.0,0.010411000333152001,1632.4633090388206,0.0,0.0,0.012153200388902401,1345,0.0,99,Assisted_Takeoff,
0.37413206090009,36.9266630039955,4000,2018-04-18 05:16:24,1632.4633090388206,0.0,0.0,0.007615940243710081,1632.4633090388206,0.0,0.0,0.012153200388902401,1357,0.0,99,P-GPS,Obstacle Avoided. Revise Flight Route
0.374132142697646,36.9266630701938,4100,2018-04-18 05:16:24,1632.4633090388206,0.0,0.0,0.011638200372422402,1632.4633090388206,0.0,0.0,0.012153200388902401,1362,0.0,99,P-GPS,
0.374132238317028,36.9266631317048,4200,2018-04-18 05:16:24,1632.4633090388206,0.0,0.0,0.0233511007472352,1632.4633090388206,0.0,0.0,0.0233511007472352,1364,0.0,99,P-GPS,
0.374132382690394,36.926663204785,4300,2018-04-18 05:16:25,1632.5633090420208,0.1000000032,0.35999970196000003,0.0412108013187456,1632.5633090420208,0.1000000032,0.35999970196000003,0.0412108013187456,1394,0.0,99,P-GPS,
0.374132506656101,36.9266632755564,4400,2018-04-18 05:16:25,1632.7633090484205,0.3000000096,0.0,0.0569688018230016,1632.7633090484205,0.3000000096,0.35999970196000003,0.0569688018230016,1411,0.0,99,P-GPS,
0.374132573907988,36.9266633895077,4500,2018-04-18 05:16:25,1632.8633090516205,0.4000000128,0.0,0.06946070222274241,1632.8633090516205,0.4000000128,0.35999970196000003,0.06946070222274241,1407,0.0,99,P-GPS,
0.374132628617396,36.9266634871421,4600,2018-04-18 05:16:25,1632.9633090548207,0.500000016,0.0,0.0804972025759104,1632.9633090548207,0.500000016,0.35999970196000003,0.0804972025759104,1401,0.0,99,P-GPS,
0.374132693810319,36.9266635646226,4700,2018-04-18 05:16:25,1633.1633090612206,0.7000000224,0.0,0.0914383029260256,1633.1633090612206,0.7000000224,0.35999970196000003,0.0914383029260256,1398,0.0,99,P-GPS,Home Point Recorded. RTH Altitude:  30m.
0.374132754349964,36.9266636235304,4800,2018-04-18 05:16:25,1633.3633090676208,0.9000000288000001,0.0,0.100766003224512,1633.3633090676208,0.9000000288000001,0.35999970196000003,0.100766003224512,1390,0.0,99,P-GPS,
0.3741328704511,36.9266637332859,4900,2018-04-18 05:16:25,1633.5633090740205,1.1000000352000001,0.0,0.118461003790752,1633.5633090740205,1.1000000352000001,0.35999970196000003,0.118461003790752,1387,0.0,99,P-GPS,
0.374132955684673,36.9266638081246,5000,2018-04-18 05:16:25,1633.7633090804206,1.3000000416000002,0.0,0.131062004193984,1633.7633090804206,1.3000000416000002,0.35999970196000003,0.131062004193984,1387,0.0,99,P-GPS,
0.374133068566986,36.9266639046289,5100,2018-04-18 05:16:25,1634.0633090900208,1.6000000512,0.0,0.147571004722272,1634.0633090900208,1.6000000512,0.35999970196000003,0.147571004722272,1387,0.0,99,P-GPS,
0.374133176470128,36.9266639906562,5200,2018-04-18 05:16:26,1634.2633090964207,1.8000000576000001,0.0,0.16291600521331198,1634.2633090964207,1.8000000576000001,0.35999970196000003,0.16291600521331198,1390,0.0,99,P-GPS,
0.374133256685651,36.9266640568277,5300,2018-04-18 05:16:26,1634.4633091028209,2.000000064,0.0,0.17448000558336002,1634.4633091028209,2.000000064,0.35999970196000003,0.17448000558336002,1390,0.0,99,P-GPS,
0.37413332740816,36.9266641246998,5400,2018-04-18 05:16:26,1634.7633091124205,2.3000000736,0.0,0.18534500593104003,1634.7633091124205,2.3000000736,0.35999970196000003,0.18534500593104003,1390,0.0,99,P-GPS,
0.374133416156933,36.9266642409294,5500,2018-04-18 05:16:26,1634.9633091188207,2.50000008,0.0,0.20120500643856,1634.9633091188207,2.50000008,0.35999970196000003,0.20120500643856,1390,0.0,99,P-GPS,
0.374133486135649,36.9266643401617,5600,2018-04-18 05:16:26,1635.1633091252206,2.7000000864,0.0,0.214309006857888,1635.1633091252206,2.7000000864,0.35999970196000003,0.214309006857888,1391,0.0,99,P-GPS,
0.374133493847146,36.9266643497679,5700,2018-04-18 05:16:26,1635.3633091316208,2.9000000928,0.0,0.21565800690105602,1635.3633091316208,2.9000000928,0.35999970196000003,0.21565800690105602,1405,0.0,99,P-GPS,
0.374133505805014,36.926664374867,5800,2018-04-18 05:16:26,1635.5633091380205,3.1000000992000003,0.0,0.21850400699212802,1635.5633091380205,3.1000000992000003,0.35999970196000003,0.21850400699212802,1424,0.0,99,P-GPS,
0.374133479189521,36.9266643547361,5900,2018-04-18 05:16:26,1635.8633091476206,3.4000001088000005,0.0,0.21480500687376003,1635.8633091476206,3.4000001088000005,0.35999970196000003,0.21850400699212802,1424,0.0,99,P-GPS,
0.374133466918178,36.9266643589083,6000,2018-04-18 05:16:26,1636.0633091540208,3.6000001152000003,0.0,0.214099006851168,1636.0633091540208,3.6000001152000003,0.35999970196000003,0.21850400699212802,1468,0.0,99,P-GPS,
0.374133437174852,36.926664366598,6100,2018-04-18 05:16:26,1636.2633091604205,3.8000001216000006,0.0,0.21223700679158403,1636.2633091604205,3.8000001216000006,0.35999970196000003,0.21850400699212802,1489,0.0,99,P-GPS,
0.374133422522113,36.9266643762856,6200,2018-04-18 05:16:26,1636.4633091668206,4.000000128,0.0,0.21178300677705603,1636.4633091668206,4.000000128,0.35999970196000003,0.21850400699212802,1522,0.0,99,P-GPS,
0.374133400297516,36.9266643537024,6300,2018-04-18 05:16:27,1636.7633091764208,4.3000001376,0.0,0.20826200666438402,1636.7633091764208,4.3000001376,0.35999970196000003,0.21850400699212802,1538,0.0,99,P-GPS,
0.374133389395898,36.9266643502732,6400,2018-04-18 05:16:27,1636.9633091828207,4.500000144,0.0,0.207119006627808,1636.9633091828207,4.500000144,0.35999970196000003,0.21850400699212802,1538,0.0,99,P-GPS,
0.374133376041436,36.9266643370863,6500,2018-04-18 05:16:27,1637.2633091924206,4.8000001536,0.0,0.20503300656105602,1637.2633091924206,4.8000001536,0.35999970196000003,0.21850400699212802,1550,0.0,99,P-GPS,
0.374133377358847,36.9266643401933,6600,2018-04-18 05:16:27,1637.5633092020207,5.1000001632,0.0,0.205377006572064,1637.5633092020207,5.1000001632,0.35999970196000003,0.21850400699212802,1615,0.0,99,P-GPS,
0.374133384891418,36.92666432368,6700,2018-04-18 05:16:27,1637.8633092116206,5.4000001728,0.0,0.204729006551328,1637.8633092116206,5.4000001728,0.35999970196000003,0.21850400699212802,1615,0.0,99,P-GPS,
0.374133393423447,36.9266643160459,6800,2018-04-18 05:16:27,1638.2633092244205,5.8000001856,0.0,0.20484800655513602,1638.2633092244205,5.8000001856,0.35999970196000003,0.21850400699212802,1662,0.0,99,P-GPS,
0.374133431666233,36.9266642895506,6900,2018-04-18 05:16:27,1638.6633092372208,6.200000198400001,0.0,0.20604400659340802,1638.6633092372208,6.200000198400001,0.35999970196000003,0.21850400699212802,1684,0.0,99,P-GPS,
0.374133462945589,36.9266642705958,7000,2018-04-18 05:16:27,1639.0633092500207,6.6000002112,0.0,0.207307006633824,1639.0633092500207,6.6000002112,0.35999970196000003,0.21850400699212802,1684,0.0,99,P-GPS,
0.374133525065435,36.9266642845016,7100,2018-04-18 05:16:27,1639.4633092628208,7.000000224,0.0,0.21361000683552,1639.4633092628208,7.000000224,0.35999970196000003,0.21850400699212802,1684,0.0,99,P-GPS,
0.37413357169715,36.9266642982901,7200,2018-04-18 05:16:28,1639.9633092788206,7.50000024,0.0,0.21860500699536,1639.9633092788206,7.50000024,0.35999970196000003,0.21860500699536,1684,0.0,99,P-GPS,
0.374133609830627,36.9266643206266,7300,2018-04-18 05:16:28,1640.4633092948206,8.000000256,0.0,0.223468007150976,1640.4633092948206,8.000000256,0.35999970196000003,0.223468007150976,1684,0.0,99,P-GPS,
0.374133621105159,36.926664353044,7400,2018-04-18 05:16:28,1640.9633093108207,8.500000272,0.0,0.226704007254528,1640.9633093108207,8.500000272,0.35999970196000003,0.226704007254528,1684,0.0,99,P-GPS,
0.374133608420598,36.9266643776897,7500,2018-04-18 05:16:28,1641.4633093268208,9.000000288,0.0,0.227356007275392,1641.4633093268208,9.000000288,0.35999970196000003,0.227356007275392,1684,0.0,99,P-GPS,
0.374133597763857,36.9266643996305,7600,2018-04-18 05:16:28,1641.9633093428206,9.500000304,0.0,0.22802300729673602,1641.9633093428206,9.500000304,0.35999970196000003,0.22802300729673602,1684,0.0,99,P-GPS,
0.374133585509612,36.9266644458627,7700,2018-04-18 05:16:28,1642.4633093588204,10.00000032,0.0,0.230374007371968,1642.4633093588204,10.00000032,0.35999970196000003,0.230374007371968,1684,0.0,99,P-GPS,
0.374133567369153,36.9266644995587,7800,2018-04-18 05:16:28,1642.9633093748207,10.500000336,0.0,0.23290900745308804,1642.9633093748207,10.500000336,0.35999970196000003,0.23290900745308804,1684,0.0,99,P-GPS,
0.37413352034193,36.9266645388704,7900,2018-04-18 05:16:28,1643.4633093908205,11.000000351999999,0.0,0.23217600742963201,1643.4633093908205,11.000000351999999,0.35999970196000003,0.23290900745308804,1684,0.0,99,P-GPS,
0.374133487099892,36.9266645892748,8000,2018-04-18 05:16:28,1643.9633094068206,11.500000368000002,0.0,0.23359100747491202,1643.9633094068206,11.500000368000002,0.35999970196000003,0.23359100747491202,1684,-0.2,99,P-GPS,
0.374133431945104,36.9266646129715,8100,2018-04-18 05:16:28,1644.4633094228207,12.000000384000002,0.0,0.231352007403264,1644.4633094228207,12.000000384000002,0.35999970196000003,0.23359100747491202,1684,-0.7,99,P-GPS,
0.374133378375403,36.9266646570678,8200,2018-04-18 05:16:28,1644.9633094388207,12.500000400000001,0.0,0.23113000739616002,1644.9633094388207,12.500000400000001,0.35999970196000003,0.23359100747491202,1684,-1.6,99,P-GPS,
0.374133341081593,36.9266647119511,8300,2018-04-18 05:16:29,1645.4633094548205,13.000000416,0.0,0.233228007463296,1645.4633094548205,13.000000416,0.35999970196000003,0.23359100747491202,1684,-2.9,99,P-GPS,
0.374133311256234,36.9266647898625,8400,2018-04-18 05:16:29,1645.9633094708208,13.500000432,0.0,0.23809000761888002,1645.9633094708208,13.500000432,0.35999970196000003,0.23809000761888002,1684,-2.9,99,P-GPS,
0.374133273739938,36.9266648715018,8500,2018-04-18 05:16:29,1646.4633094868207,14.000000448,0.0,0.24306600777811202,1646.4633094868207,14.000000448,0.35999970196000003,0.24306600777811202,1684,-4.7,99,P-GPS,
0.37413323842713,36.92666497309,8600,2018-04-18 05:16:29,1646.9633095028205,14.500000464000001,0.0,0.25034900801116805,1646.9633095028205,14.500000464000001,0.35999970196000003,0.25034900801116805,1684,-7.1,98,P-GPS,
0.374133191887015,36.9266650997539,8700,2018-04-18 05:16:29,1647.4633095188208,15.00000048,0.0,0.259778008312896,1647.4633095188208,15.00000048,0.35999970196000003,0.259778008312896,1684,-9.8,98,P-GPS,
0.374133153215134,36.9266652386699,8800,2018-04-18 05:16:29,1647.9633095348206,15.500000496,0.0,0.271324008682368,1647.9633095348206,15.500000496,0.35999970196000003,0.271324008682368,1684,-12.4,98,P-GPS,
0.374133098924846,36.926665366327,8900,2018-04-18 05:16:29,1648.4633095508207,16.000000512,0.0,0.28144000900608,1648.4633095508207,16.000000512,0.35999970196000003,0.28144000900608,1684,-15.1,98,P-GPS,
0.374133051383238,36.9266654926852,9000,2018-04-18 05:16:29,1648.9633095668205,16.500000528,0.0,0.292177009349664,1648.9633095668205,16.500000528,0.35999970196000003,0.292177009349664,1684,-17.8,98,P-GPS,
0.374132989001009,36.9266655925856,9100,2018-04-18 05:16:29,1649.4633095828208,17.000000544,0.0,0.299942009598144,1649.4633095828208,17.000000544,0.35999970196000003,0.299942009598144,1684,-20.5,98,P-GPS,
0.374132940068506,36.9266656959885,9200,2018-04-18 05:16:30,1649.9633095988206,17.50000056,0.0,0.308919009885408,1649.9633095988206,17.50000056,0.35999970196000003,0.308919009885408,1684,-23.1,98,P-GPS,
0.374132883529948,36.9266658137911,9300,2018-04-18 05:16:30,1650.4633096148204,18.000000576,0.0,0.31943101022179204,1650.4633096148204,18.000000576,0.35999970196000003,0.31943101022179204,1684,-25.3,98,P-GPS,
0.374132833560534,36.9266659318374,9400,2018-04-18 05:16:30,1650.9633096308207,18.500000592000003,0.0,0.330468010574976,1650.9633096308207,18.500000592000003,0.35999970196000003,0.330468010574976,1684,-25.3,98,P-GPS,
0.374132811877395,36.926666069738,9500,2018-04-18 05:16:30,1651.4633096468206,19.000000608,0.0,0.344658011029056,1651.4633096468206,19.000000608,0.35999970196000003,0.344658011029056,1684,-25.3,98,P-GPS,
0.374132792883427,36.9266662009324,9600,2018-04-18 05:16:30,1651.9633096628206,19.500000624000002,0.0,0.358303011465696,1651.9633096628206,19.500000624000002,0.35999970196000003,0.358303011465696,1684,-25.3,98,P-GPS,
0.374132766855193,36.9266663536769,9700,2018-04-18 05:16:30,1652.4633096788207,20.00000064,0.0,0.3742000119744,1652.4633096788207,20.00000064,0.35999970196000003,0.3742000119744,1684,-25.3,98,P-GPS,
0.37413274224859,36.9266664927741,9800,2018-04-18 05:16:30,1652.9633096948207,20.500000656,0.0,0.38875501244016003,1652.9633096948207,20.500000656,0.35999970196000003,0.38875501244016003,1684,-25.3,98,P-GPS,
0.374132737336592,36.9266666043117,9900,2018-04-18 05:16:30,1653.4633097108206,21.000000672,0.0,0.40080501282576,1653.4633097108206,21.000000672,0.35999970196000003,0.40080501282576,1684,-25.3,98,P-GPS,
0.374132740198582,36.9266667077534,10000,2018-04-18 05:16:30,1653.9633097268204,21.500000688,0.0,0.41215601318899203,1653.9633097268204,21.500000688,0.35999970196000003,0.41215601318899203,1684,-25.3,98,P-GPS,
0.374132767198998,36.9266668190833,10100,2018-04-18 05:16:30,1654.4633097428207,22.000000703999998,0.0,0.42488101359619207,1654.4633097428207,22.000000703999998,0.35999970196000003,0.42488101359619207,1684,-25.3,98,P-GPS,
0.37413279492916,36.9266669182537,10200,2018-04-18 05:16:30,1654.9633097588205,22.50000072,0.0,0.43629601396147205,1654.9633097588205,22.50000072,0.35999970196000003,0.43629601396147205,1684,-25.3,98,P-GPS,
0.374132866233837,36.9266670480858,10300,2018-04-18 05:16:31,1655.4633097748206,23.000000736000004,0.0,0.45202001446464,1655.4633097748206,23.000000736000004,0.35999970196000003,0.45202001446464,1684,-25.3,98,P-GPS,
0.374132920730326,36.9266671615812,10400,2018-04-18 05:16:31,1655.9633097908206,23.500000752000002,0.0,0.465623014899936,1655.9633097908206,23.500000752000002,0.35999970196000003,0.465623014899936,1684,-25.3,98,P-GPS,
0.374132959157941,36.926667316452,10500,2018-04-18 05:16:31,1656.5633098100207,24.100000771200005,0.0,0.48336001546752005,1656.5633098100207,24.100000771200005,0.35999970196000003,0.48336001546752005,1684,-25.3,98,P-GPS,
0.374132989836808,36.9266674383467,10600,2018-04-18 05:16:31,1656.9633098228205,24.500000784,0.0,0.49733001591456005,1656.9633098228205,24.500000784,0.35999970196000003,0.49733001591456005,1684,-25.3,98,P-GPS,
0.374132997711352,36.9266675873623,10700,2018-04-18 05:16:31,1657.4633098388208,25.000000800000002,0.0,0.51371501643888,1657.4633098388208,25.000000800000002,0.35999970196000003,0.51371501643888,1684,-25.3,98,P-GPS,
0.374133005057263,36.9266677029209,10800,2018-04-18 05:16:31,1657.9633098548206,25.500000816000004,0.0,0.526458016846656,1657.9633098548206,25.500000816000004,0.35999970196000003,0.526458016846656,1684,-25.3,98,P-GPS,
0.37413303466095,36.9266678094441,10900,2018-04-18 05:16:31,1658.4633098708205,26.000000832,0.0,0.538727017239264,1658.4633098708205,26.000000832,0.35999970196000003,0.538727017239264,1684,-25.3,98,P-GPS,
0.374133062516706,36.9266678918326,11000,2018-04-18 05:16:31,1658.9633098868208,26.500000848000003,0.0,0.5483320175466241,1658.9633098868208,26.500000848000003,0.35999970196000003,0.5483320175466241,1684,-25.3,98,P-GPS,
0.374133082129889,36.9266679813355,11100,2018-04-18 05:16:31,1659.5633099060205,27.100000867200002,0.0,0.558521017872672,1659.5633099060205,27.100000867200002,0.35999970196000003,0.558521017872672,1684,-25.3,98,P-GPS,
0.374133104799255,36.9266680482354,11200,2018-04-18 05:16:31,1660.0633099220206,27.600000883200003,0.0,0.5663230181223361,1660.0633099220206,27.600000883200003,0.35999970196000003,0.5663230181223361,1684,-25.3,98,P-GPS,
0.374133149335366,36.9266680910166,11300,2018-04-18 05:16:32,1660.5633099380207,28.1000008992,0.0,0.5720250183048,1660.5633099380207,28.1000008992,0.35999970196000003,0.5720250183048,1684,-25.3,98,P-GPS,
0.37413318500806,36.9266681248202,11400,2018-04-18 05:16:32,1661.0633099540207,28.600000915200003,0.0,0.57656001844992,1661.0633099540207,28.600000915200003,0.35999970196000003,0.57656001844992,1684,-25.3,98,P-GPS,
0.374133194260268,36.926668156124,11500,2018-04-18 05:16:32,1661.5633099700206,29.1000009312,0.0,0.5801830185658561,1661.5633099700206,29.1000009312,0.35999970196000003,0.5801830185658561,1684,-25.3,98,P-GPS,
0.374133203356146,36.9266681781559,11600,2018-04-18 05:16:32,1662.0633099860208,29.6000009472,0.0,0.5827960186494721,1662.0633099860208,29.6000009472,0.35999970196000003,0.5827960186494721,1684,-25.3,98,P-GPS,
0.374133240226764,36.9266681726137,11700,2018-04-18 05:16:32,1662.5633100020207,30.1000009632,0.0,0.5831220186599041,1662.5633100020207,30.1000009632,0.35999970196000003,0.5831220186599041,1684,-25.3,98,P-GPS,
0.374133275836763,36.9266681715426,11800,2018-04-18 05:16:32,1663.0633100180205,30.6000009792,0.0,0.5839270186856641,1663.0633100180205,30.6000009792,0.35999970196000003,0.5839270186856641,1684,-25.3,98,P-GPS,
0.374133296786899,36.9266681621011,11900,2018-04-18 05:16:32,1663.5633100340208,31.100000995200002,0.0,0.5834610186707521,1663.5633100340208,31.100000995200002,0.35999970196000003,0.5839270186856641,1684,-25.3,98,P-GPS,
0.374133323717698,36.9266681486252,12000,2018-04-18 05:16:32,1664.0633100500206,31.6000010112,0.0,0.582734018647488,1664.0633100500206,31.6000010112,0.35999970196000003,0.5839270186856641,1684,-25.3,98,P-GPS,
0.37413337742256,36.9266681619629,12100,2018-04-18 05:16:32,1664.5633100660207,32.1000010272,0.0,0.5856620187411841,1664.5633100660207,32.1000010272,0.35999970196000003,0.5856620187411841,1684,-25.3,98,P-GPS,
0.374133436420679,36.9266681746166,12200,2018-04-18 05:16:32,1665.0633100820205,32.6000010432,0.0,0.588722018839104,1665.0633100820205,32.6000010432,0.35999970196000003,0.588722018839104,1684,-25.3,98,P-GPS,
0.37413351353422,36.9266681852663,12300,2018-04-18 05:16:33,1665.5633100980208,33.100001059200004,0.0,0.592183018949856,1665.5633100980208,33.100001059200004,0.35999970196000003,0.592183018949856,1684,-25.3,98,P-GPS,
0.374133573610165,36.926668183616,12400,2018-04-18 05:16:33,1666.1633101172206,33.7000010784,0.0,0.593893019004576,1666.1633101172206,33.7000010784,0.35999970196000003,0.593893019004576,1684,-25.3,98,P-GPS,
0.374133613458393,36.9266681314722,12500,2018-04-18 05:16:33,1666.5633101300205,34.1000010912,0.0,0.5896430188685761,1666.5633101300205,34.1000010912,0.35999970196000003,0.593893019004576,1684,-25.3,98,P-GPS,
0.374133636788092,36.9266680825937,12600,2018-04-18 05:16:33,1667.0633101460207,34.6000011072,0.0,0.585238018727616,1667.0633101460207,34.6000011072,0.35999970196000003,0.593893019004576,1684,-25.3,98,P-GPS,
0.374133661715499,36.9266680449998,12700,2018-04-18 05:16:33,1667.6633101652205,35.200001126400004,0.0,0.5821100186275201,1667.6633101652205,35.200001126400004,0.35999970196000003,0.593893019004576,1684,-25.3,98,P-GPS,
0.374133691962828,36.9266680131741,12800,2018-04-18 05:16:33,1668.1633101812208,35.700001142400005,0.0,0.57980501855376,1668.1633101812208,35.700001142400005,0.35999970196000003,0.593893019004576,1684,-25.3,98,P-GPS,
0.374133708975183,36.9266679635407,12900,2018-04-18 05:16:33,1668.6633101972207,36.2000011584,0.0,0.5751820184058241,1668.6633101972207,36.2000011584,0.35999970196000003,0.593893019004576,1684,-25.3,98,P-GPS,
0.374133730585042,36.9266679128773,13000,2018-04-18 05:16:33,1669.1633102132205,36.7000011744,0.0,0.5706410182605121,1669.1633102132205,36.7000011744,0.35999970196000003,0.593893019004576,1684,-25.3,98,P-GPS,
0.374133774643001,36.9266678412851,13100,2018-04-18 05:16:33,1669.6633102292205,37.2000011904,0.0,0.564788018073216,1669.6633102292205,37.2000011904,0.35999970196000003,0.593893019004576,1684,-25.3,98,P-GPS,
0.374133818182505,36.9266677780353,13200,2018-04-18 05:16:34,1670.1633102452206,37.7000012064,0.0,0.559877017916064,1670.1633102452206,37.7000012064,0.35999970196000003,0.593893019004576,1684,-25.3,98,P-GPS,
0.374133881363689,36.9266676778026,13300,2018-04-18 05:16:34,1670.6633102612207,38.2000012224,0.0,0.5520350176651201,1670.6633102612207,38.2000012224,0.35999970196000003,0.593893019004576,1684,-25.3,98,P-GPS,
0.374133928089243,36.9266676079548,13400,2018-04-18 05:16:34,1671.1633102772205,38.7000012384,0.0,0.546807017497824,1671.1633102772205,38.7000012384,0.35999970196000003,0.593893019004576,1684,-25.3,98,P-GPS,
0.374133995814601,36.926667555436,13500,2018-04-18 05:16:34,1671.5633102900206,39.100001251200005,0.0,0.544388017420416,1671.5633102900206,39.100001251200005,0.35999970196000003,0.593893019004576,1684,-25.3,98,P-GPS,
0.37413403480586,36.9266675212206,13600,2018-04-18 05:16:34,1672.0633103060206,39.60000126720001,0.0,0.542662017365184,1672.0633103060206,39.60000126720001,0.35999970196000003,0.593893019004576,1684,-25.3,98,P-GPS,
0.374134064846988,36.9266674823212,13700,2018-04-18 05:16:34,1672.5633103220207,40.10000128320001,0.0,0.540104017283328,1672.5633103220207,40.10000128320001,0.35999970196000003,0.593893019004576,1684,-25.3,98,P-GPS,
0.37413407023612,36.9266674542637,13800,2018-04-18 05:16:34,1673.0633103380205,40.6000012992,0.0,0.537522017200704,1673.0633103380205,40.6000012992,0.35999970196000003,0.593893019004576,1684,-25.3,98,P-GPS,
0.374134062682582,36.92666740874,13900,2018-04-18 05:16:34,1673.5633103540208,41.100001315200004,0.0,0.5325770170424641,1673.5633103540208,41.100001315200004,0.35999970196000003,0.593893019004576,1684,-25.3,98,P-GPS,
0.374134049204766,36.9266673795829,14000,2018-04-18 05:16:34,1674.0633103700206,41.600001331200005,0.0,0.52900501692816,1674.0633103700206,41.600001331200005,0.35999970196000003,0.593893019004576,1684,-25.3,98,P-GPS,
0.374134044423451,36.9266672988946,14100,2018-04-18 05:16:34,1674.5633103860205,42.100001347200006,0.0,0.520659016661088,1674.5633103860205,42.100001347200006,0.35999970196000003,0.593893019004576,1684,-25.3,98,P-GPS,
0.374134036974744,36.9266672438407,14200,2018-04-18 05:16:34,1675.0633104020208,42.6000013632,0.0,0.514776016472832,1675.0633104020208,42.6000013632,0.35999970196000003,0.593893019004576,1684,-25.3,98,P-GPS,
0.374134044875751,36.9266671683015,14300,2018-04-18 05:16:35,1675.6633104212206,43.2000013824,0.0,0.507598016243136,1675.6633104212206,43.2000013824,0.35999970196000003,0.593893019004576,1684,-25.3,98,P-GPS,
0.374134047927658,36.9266671083493,14400,2018-04-18 05:16:35,1676.0633104340207,43.6000013952,0.0,0.5017700160566401,1676.0633104340207,43.6000013952,0.35999970196000003,0.593893019004576,1684,-25.3,98,P-GPS,
0.374134095104902,36.9266670213981,14500,2018-04-18 05:16:35,1676.5633104500207,44.100001411200004,0.0,0.49553201585702406,1676.5633104500207,44.100001411200004,0.35999970196000003,0.593893019004576,1684,-25.3,98,P-GPS,
0.374134116690945,36.926666954247,14600,2018-04-18 05:16:35,1677.0633104660208,44.600001427200006,0.0,0.49004701568150405,1677.0633104660208,44.600001427200006,0.35999970196000003,0.593893019004576,1684,-25.3,98,P-GPS,
0.374134129282685,36.9266668867148,14700,2018-04-18 05:16:35,1677.5633104820206,45.1000014432,0.0,0.48411001549152,1677.5633104820206,45.1000014432,0.35999970196000003,0.593893019004576,1684,-25.3,98,P-GPS,
0.374134120123095,36.9266668446746,14800,2018-04-18 05:16:35,1678.0633104980204,45.6000014592,0.0,0.47952201534470407,1678.0633104980204,45.6000014592,0.35999970196000003,0.593893019004576,1684,-25.3,98,P-GPS,
0.374134114547506,36.926666769943,14900,2018-04-18 05:16:35,1678.5633105140207,46.1000014752,0.0,0.47195801510265606,1678.5633105140207,46.1000014752,0.35999970196000003,0.593893019004576,1684,-25.3,98,P-GPS,
0.374134113622346,36.9266667246719,15000,2018-04-18 05:16:35,1679.0633105300205,46.600001491200004,0.0,0.46752301496073606,1679.0633105300205,46.600001491200004,0.35999970196000003,0.593893019004576,1684,-25.3,98,P-GPS,
0.374134134200382,36.9266666390743,15100,2018-04-18 05:16:35,1679.5633105460206,47.100001507200005,0.0,0.460424014733568,1679.5633105460206,47.100001507200005,0.35999970196000003,0.593893019004576,1684,-25.3,98,P-GPS,
0.374134152010471,36.926666586022,15200,2018-04-18 05:16:35,1680.0633105620207,47.6000015232,0.0,0.456363014603616,1680.0633105620207,47.6000015232,0.35999970196000003,0.593893019004576,1684,-25.3,98,P-GPS,
0.374134183074058,36.9266665054621,15300,2018-04-18 05:16:36,1680.5633105780207,48.1000015392,0.0,0.45052701441686405,1680.5633105780207,48.1000015392,0.35999970196000003,0.593893019004576,1684,-25.3,98,P-GPS,
0.374134201763302,36.9266664451531,15400,2018-04-18 05:16:36,1681.0633105940205,48.6000015552,0.0,0.44597001427104,1681.0633105940205,48.6000015552,0.35999970196000003,0.593893019004576,1684,-25.3,98,P-GPS,
0.374134205678082,36.926666371532,15500,2018-04-18 05:16:36,1681.5633106100208,49.1000015712,0.0,0.439338014058816,1681.5633106100208,49.1000015712,0.35999970196000003,0.593893019004576,1684,-25.3,98,P-GPS,
0.374134206655555,36.9266663265583,15600,2018-04-18 05:16:36,1682.0633106260207,49.600001587200005,0.0,0.435226013927232,1682.0633106260207,49.600001587200005,0.35999970196000003,0.593893019004576,1684,-25.3,98,P-GPS,
0.374134215511441,36.9266662607693,15700,2018-04-18 05:16:36,1682.5633106420205,50.1000016032,0.0,0.429709013750688,1682.5633106420205,50.1000016032,0.35999970196000003,0.593893019004576,1684,-25.3,98,P-GPS,
0.374134226427715,36.9266662101593,15800,2018-04-18 05:16:36,1683.0633106580206,50.6000016192,0.0,0.42576401362444805,1683.0633106580206,50.6000016192,0.35999970196000003,0.593893019004576,1684,-25.3,98,P-GPS,
0.374134238156583,36.9266661772909,15900,2018-04-18 05:16:36,1683.5633106740206,51.1000016352,0.0,0.4235220135527041,1683.5633106740206,51.1000016352,0.35999970196000003,0.593893019004576,1684,-25.3,98,P-GPS,
0.374134264645057,36.9266661622476,16000,2018-04-18 05:16:36,1684.0633106900207,51.6000016512,0.0,0.423872013563904,1684.0633106900207,51.6000016512,0.35999970196000003,0.593893019004576,1684,-25.3,98,P-GPS,
0.374134306923738,36.9266661006555,16100,2018-04-18 05:16:36,1684.5633107060205,52.1000016672,0.0,0.42113201347622403,1684.5633107060205,52.1000016672,0.35999970196000003,0.593893019004576,1684,-25.3,98,P-GPS,
0.374134364209853,36.9266660512127,16200,2018-04-18 05:16:36,1685.0633107220208,52.6000016832,0.0,0.42063001346016005,1685.0633107220208,52.6000016832,0.35999970196000003,0.593893019004576,1684,-25.3,98,P-GPS,
0.374134441914417,36.926666019291,16300,2018-04-18 05:16:37,1685.5633107380206,53.1000016992,0.0,0.423241013543712,1685.5633107380206,53.1000016992,0.35999970196000003,0.593893019004576,1684,-25.3,98,P-GPS,
0.374134502735477,36.9266660132345,16400,2018-04-18 05:16:37,1686.0633107540204,53.6000017152,0.0,0.427028013664896,1686.0633107540204,53.6000017152,0.35999970196000003,0.593893019004576,1684,-25.3,98,P-GPS,
0.374134539275623,36.9266659931087,16500,2018-04-18 05:16:37,1686.5633107700207,54.1000017312,0.0,0.427944013694208,1686.5633107700207,54.1000017312,0.35999970196000003,0.593893019004576,1684,-25.3,98,P-GPS,
0.37413456097871,36.9266659959977,16600,2018-04-18 05:16:37,1687.0633107860206,54.6000017472,0.0,0.42976001375232004,1687.0633107860206,54.6000017472,0.35999970196000003,0.593893019004576,1684,-25.3,98,P-GPS,
0.374134572407945,36.926665969559,16700,2018-04-18 05:16:37,1687.5633108020206,55.1000017632,0.0,0.428373013707936,1687.5633108020206,55.1000017632,0.35999970196000003,0.593893019004576,1684,-25.3,98,P-GPS,
0.374134579022989,36.9266659618312,16800,2018-04-18 05:16:37,1688.0633108180207,55.6000017792,0.0,0.42821101370275205,1688.0633108180207,55.6000017792,0.35999970196000003,0.593893019004576,1684,-25.3,98,P-GPS,
0.374134599741581,36.926665941362,16900,2018-04-18 05:16:37,1688.5633108340207,56.10000179520001,0.0,0.42803301369705604,1688.5633108340207,56.10000179520001,0.35999970196000003,0.593893019004576,1684,-25.3,98,P-GPS,
0.374134612121012,36.9266659406629,17000,2018-04-18 05:16:37,1689.0633108500206,56.60000181120001,0.0,0.428893013724576,1689.0633108500206,56.60000181120001,0.35999970196000003,0.593893019004576,1684,-25.3,98,P-GPS,
0.374134656165638,36.9266659260767,17100,2018-04-18 05:16:37,1689.5633108660206,57.100001827199996,0.0,0.43098001379136003,1689.5633108660206,57.100001827199996,0.35999970196000003,0.593893019004576,1684,-25.3,98,P-GPS,
0.374134690463926,36.9266659258353,17200,2018-04-18 05:16:38,1690.0633108820207,57.600001843200005,0.0,0.433546013873472,1690.0633108820207,57.600001843200005,0.35999970196000003,0.593893019004576,1684,-25.3,98,P-GPS,
0.374134711547696,36.9266659143528,17300,2018-04-18 05:16:38,1690.5633108980205,58.100001859200006,0.0,0.43421301389481604,1690.5633108980205,58.100001859200006,0.35999970196000003,0.593893019004576,1684,-25.3,98,P-GPS,
0.374134723525003,36.9266659182427,17400,2018-04-18 05:16:38,1691.0633109140206,58.60000187520001,0.0,0.43544101393411205,1691.0633109140206,58.60000187520001,0.35999970196000003,0.593893019004576,1684,-25.3,98,P-GPS,
0.374134765437386,36.9266659168401,17500,2018-04-18 05:16:38,1691.5633109300206,59.10000189120001,0.0,0.438538014033216,1691.5633109300206,59.10000189120001,0.35999970196000003,0.593893019004576,1684,-25.3,98,P-GPS,
0.374134795572454,36.926665930879,17600,2018-04-18 05:16:38,1692.0633109460207,59.6000019072,0.0,0.44198501414352,1692.0633109460207,59.6000019072,0.35999970196000003,0.593893019004576,1684,-25.3,98,P-GPS,
0.374134815280291,36.9266659333633,17700,2018-04-18 05:16:38,1692.5633109620205,60.100001923200004,0.0,0.443707014198624,1692.5633109620205,60.100001923200004,0.35999970196000003,0.593893019004576,1684,-25.3,98,P-GPS,
0.374134829053059,36.9266659460558,17800,2018-04-18 05:16:38,1693.1633109812208,60.7000019424,0.0,0.445787014265184,1693.1633109812208,60.7000019424,0.35999970196000003,0.593893019004576,1684,-25.3,98,P-GPS,
0.374134838669734,36.9266659437818,17900,2018-04-18 05:16:38,1693.6633109972206,61.2000019584,0.0,0.44635101428323204,1693.6633109972206,61.2000019584,0.35999970196000003,0.593893019004576,1684,-25.3,98,P-GPS,
0.374134843923399,36.9266659514534,18000,2018-04-18 05:16:38,1694.1633110132204,61.7000019744,0.0,0.44737001431584006,1694.1633110132204,61.7000019744,0.35999970196000003,0.593893019004576,1684,-25.3,98,P-GPS,
0.374134871392094,36.9266659357243,18100,2018-04-18 05:16:38,1694.5633110260208,62.1000019872,0.0,0.44826001434432006,1694.5633110260208,62.1000019872,0.35999970196000003,0.593893019004576,1684,-25.3,98,P-GPS,
0.374134888615638,36.9266659268411,18200,2018-04-18 05:16:38,1695.0633110420206,62.600002003200004,0.0,0.448908014365056,1695.0633110420206,62.600002003200004,0.35999970196000003,0.593893019004576,1684,-25.3,98,P-GPS,
0.374134926385157,36.9266659056492,18300,2018-04-18 05:16:39,1695.5633110580206,63.100002019200005,0.0,0.45022901440732804,1695.5633110580206,63.100002019200005,0.35999970196000003,0.593893019004576,1684,-25.3,98,P-GPS,
0.374134948721811,36.9266658961958,18400,2018-04-18 05:16:39,1696.0633110740205,63.600002035200006,0.0,0.45127201444070403,1696.0633110740205,63.600002035200006,0.35999970196000003,0.593893019004576,1684,-25.3,98,P-GPS,
0.374134959366848,36.926665885469,18500,2018-04-18 05:16:39,1696.5633110900208,64.1000020512,0.0,0.45129301444137604,1696.5633110900208,64.1000020512,0.35999970196000003,0.593893019004576,1684,-25.3,98,P-GPS,
0.374134943582747,36.9266658928576,18600,2018-04-18 05:16:39,1697.0633111060206,64.6000020672,0.0,0.450603014419296,1697.0633111060206,64.6000020672,0.35999970196000003,0.593893019004576,1684,-25.3,98,P-GPS,
0.374134924523337,36.926665901516,18700,2018-04-18 05:16:39,1697.5633111220207,65.10000208320001,0.0,0.44976001439232,1697.5633111220207,65.10000208320001,0.35999970196000003,0.593893019004576,1684,-25.3,98,P-GPS,
0.374134901410831,36.9266659223531,18800,2018-04-18 05:16:39,1698.0633111380207,65.60000209920001,0.0,0.44956101438595203,1698.0633111380207,65.60000209920001,0.35999970196000003,0.593893019004576,1684,-25.3,98,P-GPS,
0.374134898567059,36.9266659666787,18900,2018-04-18 05:16:39,1698.5633111540208,66.10000211520001,0.0,0.452832014490624,1698.5633111540208,66.10000211520001,0.35999970196000003,0.593893019004576,1684,-25.3,98,P-GPS,
0.374134893608142,36.9266660149397,19000,2018-04-18 05:16:39,1699.0633111700206,66.6000021312,0.0,0.456283014601056,1699.0633111700206,66.6000021312,0.35999970196000003,0.593893019004576,1684,-25.3,98,P-GPS,
0.374134899840706,36.9266660356204,19100,2018-04-18 05:16:39,1699.5633111860207,67.1000021472,0.0,0.45841901466940804,1699.5633111860207,67.1000021472,0.35999970196000003,0.593893019004576,1684,-25.3,98,P-GPS,
0.374134891172498,36.9266660556879,19200,2018-04-18 05:16:40,1700.0633112020207,67.6000021632,0.0,0.45936101469955204,1700.0633112020207,67.6000021632,0.35999970196000003,0.593893019004576,1684,-25.3,98,P-GPS,
0.374134895539171,36.9266660481192,19300,2018-04-18 05:16:40,1700.5633112180205,68.1000021792,0.0,0.459089014690848,1700.5633112180205,68.1000021792,0.35999970196000003,0.593893019004576,1684,-25.3,98,P-GPS,
0.374134907455004,36.9266660504036,19500,2018-04-18 05:16:40,1701.5633112500207,69.1000022112,0.0,0.46019001472608,1701.5633112500207,69.1000022112,0.35999970196000003,0.593893019004576,1684,-25.3,98,P-GPS,
0.374134911879996,36.9266660570567,19600,2018-04-18 05:16:40,1702.0633112660207,69.60000222720001,0.0,0.461064014754048,1702.0633112660207,69.60000222720001,0.35999970196000003,0.593893019004576,1684,-25.3,97,P-GPS,
0.374134929040437,36.9266660815515,19700,2018-04-18 05:16:40,1702.5633112820205,70.10000224320001,0.0,0.46435101485923197,1702.5633112820205,70.10000224320001,0.35999970196000003,0.593893019004576,1684,-25.3,97,P-GPS,
0.374134931877492,36.926666110396,19800,2018-04-18 05:16:40,1703.0633112980208,70.60000225920001,0.0,0.46688801494041604,1703.0633112980208,70.60000225920001,0.35999970196000003,0.593893019004576,1684,-25.3,97,P-GPS,
0.374134937942529,36.9266661209368,19900,2018-04-18 05:16:40,1703.5633113140207,71.1000022752,0.0,0.468202014982464,1703.5633113140207,71.1000022752,0.35999970196000003,0.593893019004576,1684,-25.3,97,P-GPS,
0.374134932133768,36.926666140557,20000,2018-04-18 05:16:40,1704.1633113332207,71.70000229440001,0.0,0.469343015018976,1704.1633113332207,71.70000229440001,0.35999970196000003,0.593893019004576,1684,-25.3,97,P-GPS,
0.374134932815577,36.9266661396992,20100,2018-04-18 05:16:40,1704.6633113492207,72.2000023104,0.0,0.469326015018432,1704.6633113492207,72.2000023104,0.35999970196000003,0.593893019004576,1684,-25.3,97,P-GPS,
0.374134926558993,36.9266661522343,20200,2018-04-18 05:16:40,1705.1633113652206,72.7000023264,0.0,0.46986501503568,1705.1633113652206,72.7000023264,0.35999970196000003,0.593893019004576,1684,-25.3,97,P-GPS,
0.374134928944257,36.9266661482358,20300,2018-04-18 05:16:41,1705.6633113812209,73.2000023424,0.0,0.469722015031104,1705.6633113812209,73.2000023424,0.35999970196000003,0.593893019004576,1684,-25.3,97,P-GPS,
0.374134924608219,36.9266661586677,20400,2018-04-18 05:16:41,1706.1633113972207,73.7000023584,0.0,0.47023901504764803,1706.1633113972207,73.7000023584,0.35999970196000003,0.593893019004576,1684,-25.3,97,P-GPS,
0.374134893898005,36.9266661472846,20500,2018-04-18 05:16:41,1706.6633114132205,74.20000237440001,0.0,0.466986014943552,1706.6633114132205,74.20000237440001,0.35999970196000003,0.593893019004576,1684,-25.3,97,P-GPS,
0.374134865309754,36.9266661456706,20600,2018-04-18 05:16:41,1707.1633114292206,74.7000023904,0.0,0.464697014870304,1707.1633114292206,74.7000023904,0.35999970196000003,0.593893019004576,1684,-25.3,97,P-GPS,
0.37413488928849,36.9266661629101,20700,2018-04-18 05:16:41,1707.6633114452206,75.2000024064,0.0,0.467914014973248,1707.6633114452206,75.2000024064,0.35999970196000003,0.593893019004576,1482,-25.3,97,P-GPS,
0.374134900997613,36.926666185865,20800,2018-04-18 05:16:41,1708.1633114612207,75.7000024224,0.0,0.47067401506156803,1708.1633114612207,75.7000024224,0.35999970196000003,0.593893019004576,1024,-25.3,97,P-GPS,
0.374134889368488,36.926666159407,20900,2018-04-18 05:16:41,1708.5633114740206,76.1000024352,0.0,0.46763301496425597,1708.5633114740206,76.1000024352,0.35999970196000003,0.593893019004576,1024,-25.3,97,P-GPS,
0.374134872300563,36.9266661528505,21000,2018-04-18 05:16:41,1709.0633114900206,76.6000024512,0.0,0.465811014905952,1709.0633114900206,76.6000024512,0.35999970196000003,0.593893019004576,1024,-25.3,97,P-GPS,
0.374134853852837,36.926666172024,21100,2018-04-18 05:16:41,1709.3633114996205,76.9000024608,0.0,0.466003014912096,1709.3633114996205,76.9000024608,0.35999970196000003,0.593893019004576,1024,-25.3,97,P-GPS,
0.374134831450638,36.9266661926289,21200,2018-04-18 05:16:42,1709.6633115092206,77.20000247040001,0.0,0.466038014913216,1709.6633115092206,77.20000247040001,0.35999970196000003,0.593893019004576,1024,-25.3,97,P-GPS,
0.374134834077725,36.9266661944308,21300,2018-04-18 05:16:42,1709.8633115156206,77.4000024768,0.0,0.466382014924224,1709.8633115156206,77.4000024768,0.35999970196000003,0.593893019004576,1024,-25.3,97,P-GPS,
0.374134837585801,36.9266662019214,21400,2018-04-18 05:16:42,1710.0633115220207,77.6000024832,0.0,0.467263014952416,1710.0633115220207,77.6000024832,0.35999970196000003,0.593893019004576,1024,-25.3,97,P-GPS,
0.37413489416395,36.9266661945992,21500,2018-04-18 05:16:42,1710.0633115220207,77.6000024832,0.0,0.470877015068064,1710.0633115220207,77.6000024832,0.35999970196000003,0.593893019004576,1024,-25.3,97,P-GPS,
0.374134948407114,36.9266661941369,21600,2018-04-18 05:16:42,1710.1633115252205,77.70000248640001,0.0,0.47492901519772807,1710.1633115252205,77.70000248640001,0.35999970196000003,0.593893019004576,983,-25.3,97,P-GPS,
0.374135018435295,36.9266661759952,21700,2018-04-18 05:16:42,1710.1633115252205,77.70000248640001,0.0,0.47881201532198403,1710.1633115252205,77.70000248640001,0.35999970196000003,0.593893019004576,855,-25.3,97,P-GPS,
0.374135089610918,36.9266661533788,21800,2018-04-18 05:16:42,1710.1633115252205,77.70000248640001,0.0,0.482533015441056,1710.1633115252205,77.70000248640001,0.35999970196000003,0.593893019004576,741,-25.3,97,P-GPS,
0.374135151666797,36.9266661468263,21900,2018-04-18 05:16:42,1710.1633115252205,77.70000248640001,0.0,0.48689901558076804,1710.1633115252205,77.70000248640001,0.35999970196000003,0.593893019004576,644,-25.3,97,P-GPS,
0.374135213985058,36.9266661252196,22000,2018-04-18 05:16:42,1710.1633115252205,77.70000248640001,0.0,0.49018201568582404,1710.1633115252205,77.70000248640001,0.35999970196000003,0.593893019004576,570,-25.3,97,P-GPS,
0.37413530470145,36.926666094967,22100,2018-04-18 05:16:42,1710.1633115252205,77.70000248640001,0.35999970196000003,0.4952070158466241,1710.1633115252205,77.70000248640001,0.35999970196000003,0.593893019004576,502,-25.3,97,P-GPS,
0.374135378006874,36.9266660484235,22200,2018-04-18 05:16:42,1710.0633115220207,77.6000024832,0.35999970196000003,0.497757015928224,1710.1633115252205,77.70000248640001,0.35999970196000003,0.593893019004576,456,-25.3,97,P-GPS,
0.374135438284797,36.9266659694313,22300,2018-04-18 05:16:43,1709.8633115156206,77.4000024768,0.35999970196000003,0.49703301590505605,1710.1633115252205,77.70000248640001,0.35999970196000003,0.593893019004576,400,-25.3,97,P-GPS,
0.374135488804422,36.926665872356,22400,2018-04-18 05:16:43,1709.7633115124206,77.3000024736,0.35999970196000003,0.49444301582217604,1710.1633115252205,77.70000248640001,0.35999970196000003,0.593893019004576,364,-25.3,97,P-GPS,
0.374135532730885,36.9266657232883,22500,2018-04-18 05:16:43,1709.5633115060207,77.1000024672,0.0,0.48804201561734406,1710.1633115252205,77.70000248640001,0.35999970196000003,0.593893019004576,364,-25.3,97,P-GPS,
0.374135582330847,36.9266655554995,22600,2018-04-18 05:16:43,1709.2633114964208,76.8000024576,0.0,0.48149101540771205,1710.1633115252205,77.70000248640001,0.35999970196000003,0.593893019004576,364,-25.3,97,P-GPS,
0.374135673827644,36.9266653303319,22700,2018-04-18 05:16:43,1708.9633114868207,76.500002448,0.0,0.476168015237376,1710.1633115252205,77.70000248640001,0.35999970196000003,0.593893019004576,400,-25.3,97,P-GPS,
0.374135757068994,36.9266651218885,22800,2018-04-18 05:16:43,1708.6633114772205,76.2000024384,0.0,0.47242401511756804,1710.1633115252205,77.70000248640001,0.35999970196000003,0.593893019004576,646,-25.3,97,P-GPS,
0.374135832985298,36.9266648839173,22900,2018-04-18 05:16:43,1708.3633114676209,75.90000242880001,0.0,0.46781801497017605,1710.1633115252205,77.70000248640001,0.35999970196000003,0.593893019004576,1024,-25.3,97,P-GPS,
0.374135866310208,36.9266643122853,23100,2018-04-18 05:16:43,1707.8633114516206,75.4000024128,0.0,0.44762801432409605,1710.1633115252205,77.70000248640001,0.35999970196000003,0.593893019004576,1024,-25.3,97,P-GPS,
0.374135950305893,36.9266640319319,23200,2018-04-18 05:16:44,1707.7633114484206,75.3000024096,0.35999970196000003,0.448062014337984,1710.1633115252205,77.70000248640001,0.35999970196000003,0.593893019004576,1024,-25.3,97,P-GPS,
0.374136086898602,36.9266636755075,23300,2018-04-18 05:16:44,1707.6633114452206,75.2000024064,0.503999582744,0.455287014569184,1710.1633115252205,77.70000248640001,0.503999582744,0.593893019004576,1024,-25.3,97,P-GPS,
0.374136131759404,36.9266631964764,23400,2018-04-18 05:16:44,1707.5633114420204,75.10000240320001,0.503999582744,0.45546701457494404,1710.1633115252205,77.70000248640001,0.503999582744,0.593893019004576,1024,-25.3,97,P-GPS,
0.374135979560899,36.9266626201782,23500,2018-04-18 05:16:44,1707.5633114420204,75.10000240320001,1.007999165488,0.44114601411667204,1710.1633115252205,77.70000248640001,1.007999165488,0.593893019004576,1024,-25.3,97,P-GPS,
0.374135686630242,36.926662102679,23600,2018-04-18 05:16:44,1707.5633114420204,75.10000240320001,1.295998927056,0.41972001343104,1710.1633115252205,77.70000248640001,1.295998927056,0.593893019004576,1024,-25.3,97,P-GPS,
0.374135348339271,36.9266615689691,23700,2018-04-18 05:16:44,1707.5633114420204,75.10000240320001,1.295998927056,0.404134012932288,1710.1633115252205,77.70000248640001,1.295998927056,0.593893019004576,1024,-25.3,97,P-GPS,
0.374135020223021,36.9266610831749,23800,2018-04-18 05:16:44,1707.6633114452206,75.2000024064,1.295998927056,0.39840501274896,1710.1633115252205,77.70000248640001,1.295998927056,0.593893019004576,1024,-25.3,97,P-GPS,
0.374134761902441,36.9266605812576,23900,2018-04-18 05:16:44,1707.6633114452206,75.2000024064,1.007999165488,0.410194013126208,1710.1633115252205,77.70000248640001,1.295998927056,0.593893019004576,1024,-25.3,97,P-GPS,
0.374134537672115,36.9266601393139,24000,2018-04-18 05:16:44,1707.6633114452206,75.2000024064,1.007999165488,0.42822601370323204,1710.1633115252205,77.70000248640001,1.295998927056,0.593893019004576,1024,-25.3,97,P-GPS,
0.374134346846569,36.9266596871619,24100,2018-04-18 05:16:44,1707.6633114452206,75.2000024064,1.007999165488,0.45531901457020807,1710.1633115252205,77.70000248640001,1.295998927056,0.593893019004576,1024,-25.3,97,P-GPS,
0.374134054926507,36.9266593459907,24200,2018-04-18 05:16:44,1707.6633114452206,75.2000024064,1.475998778036,0.47082001506624005,1710.1633115252205,77.70000248640001,1.475998778036,0.593893019004576,1024,-25.3,97,P-GPS,
0.374133615131009,36.9266591233289,24300,2018-04-18 05:16:45,1707.6633114452206,75.2000024064,2.15999821176,0.47248001511936005,1710.1633115252205,77.70000248640001,2.15999821176,0.593893019004576,1024,-25.3,97,P-GPS,
0.374131870138053,36.9266595024077,24500,2018-04-18 05:16:45,1707.5633114420204,75.10000240320001,5.1479957380279995,0.397009012704288,1710.1633115252205,77.70000248640001,5.1479957380279995,0.593893019004576,1024,-25.3,97,P-GPS,
0.374130493726705,36.9266601787054,24600,2018-04-18 05:16:45,1707.5633114420204,75.10000240320001,6.623994516063999,0.364374011659968,1710.1633115252205,77.70000248640001,6.623994516063999,0.593893019004576,1024,-25.3,97,P-GPS,
0.374128770818708,36.9266611958628,24700,2018-04-18 05:16:45,1707.5633114420204,75.10000240320001,8.099993294099999,0.418786013401152,1710.1633115252205,77.70000248640001,8.099993294099999,0.593893019004576,1024,-25.3,97,P-GPS,
0.374126802439469,36.9266624666262,24800,2018-04-18 05:16:45,1707.5633114420204,75.10000240320001,9.575992072136,0.586068018754176,1710.1633115252205,77.70000248640001,9.575992072136,0.593893019004576,1024,-25.3,97,P-GPS,
0.374124577280667,36.9266639443357,24900,2018-04-18 05:16:45,1707.6633114452206,75.2000024064,11.087990820367999,0.83538002673216,1710.1633115252205,77.70000248640001,11.087990820367999,0.83538002673216,1024,-25.3,97,P-GPS,
0.374122141091808,36.9266656354656,25000,2018-04-18 05:16:45,1707.6633114452206,75.2000024064,12.095989985855999,1.13702003638464,1710.1633115252205,77.70000248640001,12.095989985855999,1.13702003638464,1024,-25.3,97,P-GPS,
0.374119438789959,36.9266674676845,25100,2018-04-18 05:16:45,1707.6633114452206,75.2000024064,13.391988912912,1.4840600474899202,1710.1633115252205,77.70000248640001,13.391988912912,1.4840600474899202,1024,-25.3,97,P-GPS,
0.374116546605026,36.9266695090591,25200,2018-04-18 05:16:46,1707.6633114452206,75.2000024064,14.399988078400002,1.86569005970208,1710.1633115252205,77.70000248640001,14.399988078400002,1.86569005970208,1024,-25.3,97,P-GPS,
0.374113335513762,36.9266717260459,25300,2018-04-18 05:16:46,1707.6633114452206,75.2000024064,14.399988078400002,2.2918500733392,1710.1633115252205,77.70000248640001,14.399988078400002,2.2918500733392,1024,-25.3,97,P-GPS,
0.374109970928625,36.926674144444,25400,2018-04-18 05:16:46,1707.6633114452206,75.2000024064,16.703986170944,2.745750087864,1710.1633115252205,77.70000248640001,16.703986170944,2.745750087864,1024,-25.3,97,P-GPS,
0.37410642539079,36.9266767011032,25500,2018-04-18 05:16:46,1707.6633114452206,75.2000024064,17.495985515256002,3.2266001032512,1710.1633115252205,77.70000248640001,17.495985515256002,3.2266001032512,1024,-25.3,97,P-GPS,
0.374102709265305,36.926679459678,25600,2018-04-18 05:16:46,1707.7633114484206,75.3000024096,18.503984680744,3.73632011956224,1710.1633115252205,77.70000248640001,18.503984680744,3.73632011956224,1024,-25.3,97,P-GPS,
0.374098751664373,36.9266823464487,25700,2018-04-18 05:16:46,1707.7633114484206,75.3000024096,19.511983846232003,4.277610136883521,1710.1633115252205,77.70000248640001,19.511983846232003,4.277610136883521,1024,-25.3,97,P-GPS,
0.374094632049548,36.9266854315095,25800,2018-04-18 05:16:46,1707.7633114484206,75.3000024096,20.51998301172,4.846460155086721,1710.1633115252205,77.70000248640001,20.51998301172,4.846460155086721,1024,-25.3,97,P-GPS,
0.374090362656958,36.9266886174572,25900,2018-04-18 05:16:46,1707.7633114484206,75.3000024096,21.527982177208003,5.4361001739552,1710.1633115252205,77.70000248640001,21.527982177208003,5.4361001739552,1024,-25.3,97,P-GPS,
0.374085922339629,36.9266919985625,26000,2018-04-18 05:16:46,1707.7633114484206,75.3000024096,22.535981342696,6.0539101937251205,1710.1633115252205,77.70000248640001,22.535981342696,6.0539101937251205,1024,-25.3,97,P-GPS,
0.374081141172686,36.9266955988307,26100,2018-04-18 05:16:46,1707.7633114484206,75.3000024096,23.831980269752,6.717310214953921,1710.1633115252205,77.70000248640001,23.831980269752,6.717310214953921,1024,-25.3,97,P-GPS,
0.374076227779349,36.9266993731802,26200,2018-04-18 05:16:46,1707.7633114484206,75.3000024096,24.623979614064,7.403990236927681,1710.1633115252205,77.70000248640001,24.623979614064,7.403990236927681,1024,-25.3,97,P-GPS,
0.374071179290297,36.9267032523693,26300,2018-04-18 05:16:47,1707.7633114484206,75.3000024096,25.631978779552,8.11001025952032,1710.1633115252205,77.70000248640001,25.631978779552,8.11001025952032,1024,-25.5,97,P-GPS,
0.374065989035425,36.9267072969248,26400,2018-04-18 05:16:47,1707.8633114516206,75.4000024128,26.351978183472,8.83969028287008,1710.1633115252205,77.70000248640001,26.351978183472,8.83969028287008,1024,-25.9,97,P-GPS,
0.374060555705974,36.9267115209018,26500,2018-04-18 05:16:47,1707.8633114516206,75.4000024128,27.395977319156,9.603250307304,1710.1633115252205,77.70000248640001,27.395977319156,9.603250307304,1024,-25.9,97,P-GPS,
0.374054999161937,36.926715892569,26600,2018-04-18 05:16:47,1707.8633114516206,75.4000024128,28.151976693271997,10.387700332406402,1710.1633115252205,77.70000248640001,28.151976693271997,10.387700332406402,1024,-26.5,97,P-GPS,
0.374049188789077,36.9267204252495,26700,2018-04-18 05:16:47,1707.8633114516206,75.4000024128,29.195975828955998,11.205700358582401,1710.1633115252205,77.70000248640001,29.195975828955998,11.205700358582401,1024,-27.7,97,P-GPS,
0.374043285940139,36.9267250950853,26800,2018-04-18 05:16:47,1707.8633114516206,75.4000024128,29.951975203072,12.0411003853152,1710.1633115252205,77.70000248640001,29.951975203072,12.0411003853152,1024,-29.5,97,P-GPS,
0.374037178851755,36.9267299230308,26900,2018-04-18 05:16:47,1707.8633114516206,75.4000024128,30.707974577188,12.905500412976,1710.1633115252205,77.70000248640001,30.707974577188,12.905500412976,1024,-31.7,97,P-GPS,
0.374030999707981,36.9267348756354,27000,2018-04-18 05:16:47,1707.8633114516206,75.4000024128,31.4999739215,13.784500441104,1710.1633115252205,77.70000248640001,31.4999739215,13.784500441104,1024,-34.1,97,P-GPS,
0.374024743473669,36.9267399005969,27100,2018-04-18 05:16:47,1707.9633114548208,75.500002416,31.4999739215,14.6754004696128,1710.1633115252205,77.70000248640001,31.4999739215,14.6754004696128,1024,-36.4,97,P-GPS,
0.37401839547328,36.9267450524488,27200,2018-04-18 05:16:47,1707.9633114548208,75.500002416,32.723972908164,15.583000498656002,1710.1633115252205,77.70000248640001,32.723972908164,15.583000498656002,1024,-38.8,97,P-GPS,
0.374011602816487,36.9267505790145,27300,2018-04-18 05:16:48,1707.9633114548208,75.500002416,33.731972073651995,16.5553005297696,1710.1633115252205,77.70000248640001,33.731972073651995,16.5553005297696,1024,-41.0,97,P-GPS,
0.374004785576704,36.9267561722243,27400,2018-04-18 05:16:48,1707.9633114548208,75.500002416,34.235971656395996,17.534300561097602,1710.1633115252205,77.70000248640001,34.235971656395996,17.534300561097602,1024,-41.2,97,P-GPS,
0.373997786889176,36.9267619142936,27500,2018-04-18 05:16:48,1707.9633114548208,75.500002416,35.027971000708,18.5396005932672,1710.1633115252205,77.70000248640001,35.027971000708,18.5396005932672,1024,-41.2,97,P-GPS,
0.37399076329297,36.9267677185104,27600,2018-04-18 05:16:48,1707.9633114548208,75.500002416,35.783970374824,19.551300625641602,1710.1633115252205,77.70000248640001,35.783970374824,19.551300625641602,1024,-41.2,97,P-GPS,
0.373983715048635,36.9267735860825,27700,2018-04-18 05:16:48,1707.9633114548208,75.500002416,36.287969957568,20.569600658227202,1710.1633115252205,77.70000248640001,36.287969957568,20.569600658227202,1024,-41.2,97,P-GPS,
0.373976594931296,36.9267795391416,27800,2018-04-18 05:16:48,1707.9633114548208,75.500002416,36.791969540312,21.6002006912064,1710.1633115252205,77.70000248640001,36.791969540312,21.6002006912064,1024,-41.2,97,P-GPS,
0.373969356784336,36.9267855879659,27900,2018-04-18 05:16:48,1707.9633114548208,75.500002416,37.583968884624,22.647700724726402,1710.1633115252205,77.70000248640001,37.583968884624,22.647700724726402,1024,-41.2,97,P-GPS,
0.373962033267827,36.9267917259088,28000,2018-04-18 05:16:48,1707.9633114548208,75.500002416,38.087968467368,23.709000758688,1710.1633115252205,77.70000248640001,38.087968467368,23.709000758688,1024,-41.2,97,P-GPS,
0.373954896371001,36.9267976998237,28100,2018-04-18 05:16:48,1707.9633114548208,75.500002416,38.807967871288,24.742800791769604,1710.1633115252205,77.70000248640001,38.807967871288,24.742800791769604,1024,-41.2,97,P-GPS,
0.373947643997954,36.926803784758,28200,2018-04-18 05:16:49,1707.9633114548208,75.500002416,39.311967454032,25.7944008254208,1710.1633115252205,77.70000248640001,39.311967454032,25.7944008254208,1024,-41.2,97,P-GPS,
0.373940197814017,36.9268099930194,28300,2018-04-18 05:16:49,1707.9633114548208,75.500002416,39.815967036776,26.871500859888002,1710.1633115252205,77.70000248640001,39.815967036776,26.871500859888002,1024,-41.2,97,P-GPS,
0.373924392318968,36.9268231913029,28500,2018-04-18 05:16:49,1707.9633114548208,75.500002416,41.111965963832,29.159500933104,1710.1633115252205,77.70000248640001,41.111965963832,29.159500933104,1024,-41.2,97,P-GPS,
0.373916189820501,36.926830055865,28600,2018-04-18 05:16:49,1708.0633114580207,75.60000241920001,41.3999657254,30.3481009711392,1710.1633115252205,77.70000248640001,41.3999657254,30.3481009711392,1024,-41.2,97,P-GPS,
0.373907664147551,36.9268371854963,28700,2018-04-18 05:16:49,1708.0633114580207,75.60000241920001,41.903965308143995,31.583101010659203,1710.1633115252205,77.70000248640001,41.903965308143995,31.583101010659203,1024,-41.2,97,P-GPS,
0.373899226853515,36.9268442558236,28800,2018-04-18 05:16:49,1708.0633114580207,75.60000241920001,41.903965308143995,32.806501049808006,1710.1633115252205,77.70000248640001,41.903965308143995,32.806501049808006,1024,-41.2,97,P-GPS,
