latitude,longitude,time_millisecond,datetime_utc,altitude_m,ascent_m,speed_kph,distance_m,max_altitude_m,max_ascent_m,max_speed_kph,max_distance_m,rc_throttle,gimbal_pitch_degrees,battery_percent,flycState,message
0.36469246582622,36.925784649289,0,2018-04-03 07:41:49,1628.44011561007,0.0,0.0,0.0,1628.44011561007,0.0,0.0,0.0,364,0.0,98,Motors_Started,
0.364692512326845,36.9257845502436,100,2018-04-03 07:41:49,1628.44011561007,0.0,0.0,0.012167700389366402,1628.44011561007,0.0,0.0,0.012167700389366402,364,0.0,98,Motors_Started,
0.364692563528789,36.925784467598,200,2018-04-03 07:41:49,1628.44011561007,0.0,0.0,0.0229408007341056,1628.44011561007,0.0,0.0,0.0229408007341056,364,0.0,98,Motors_Started,
0.364692614264997,36.9257843953846,300,2018-04-03 07:41:49,1628.44011561007,0.0,0.0,0.032706501046608,1628.44011561007,0.0,0.0,0.032706501046608,364,0.0,98,Motors_Started,
0.364692666748526,36.9257843178223,400,2018-04-03 07:41:49,1628.44011561007,0.0,0.0,0.043103701379318404,1628.44011561007,0.0,0.0,0.043103701379318404,364,0.0,98,Motors_Started,
0.3646927180038,36.9257842337902,500,2018-04-03 07:41:49,1628.44011561007,0.0,0.0,0.0540496017295872,1628.44011561007,0.0,0.0,0.0540496017295872,364,0.0,98,Motors_Started,
0.364692770935151,36.9257841418602,600,2018-04-03 07:41:49,1628.44011561007,0.0,0.0,0.065843502106992,1628.44011561007,0.0,0.0,0.065843502106992,364,0.0,98,Motors_Started,
0.364692822714378,36.9257840477547,700,2018-04-03 07:41:50,1628.44011561007,0.0,0.0,0.077780502488976,1628.44011561007,0.0,0.0,0.077780502488976,364,0.0,98,Motors_Started,Setting new Return-To-Home altitude to 45m (148 ft). Setting new Maximum Flight Altitude to 150m (492 ft)
0.364692876047954,36.9257839687331,800,2018-04-03 07:41:50,1628.44011561007,0.0,0.0,0.088366502827728,1628.44011561007,0.0,0.0,0.088366502827728,364,0.0,98,Motors_Started,
0.364692927154634,36.9257838982498,900,2018-04-03 07:41:50,1628.44011561007,0.0,0.0,0.0980167031365344,1628.44011561007,0.0,0.0,0.0980167031365344,364,0.0,98,Motors_Started,
0.364692979216395,36.9257838446138,1000,2018-04-03 07:41:50,1628.44011561007,0.0,0.0,0.10614500339664001,1628.44011561007,0.0,0.0,0.10614500339664001,364,0.0,98,Motors_Started,
0.364693029521473,36.9257837906427,1100,2018-04-03 07:41:50,1628.44011561007,0.0,0.0,0.114223003655136,1628.44011561007,0.0,0.0,0.114223003655136,368,0.0,98,Motors_Started,
0.364693060866984,36.9257837510629,1200,2018-04-03 07:41:50,1628.44011561007,0.0,0.0,0.119817003834144,1628.44011561007,0.0,0.0,0.119817003834144,600,0.0,98,Motors_Started,
0.364693086134736,36.9257837086727,1300,2018-04-03 07:41:50,1628.44011561007,0.0,0.0,0.125299004009568,1628.44011561007,0.0,0.0,0.125299004009568,1024,0.0,98,Motors_Started,
0.36469310462246,36.9257836777692,1400,2018-04-03 07:41:50,1628.44011561007,0.0,0.0,0.129299004137568,1628.44011561007,0.0,0.0,0.129299004137568,1024,0.0,98,Motors_Started,
0.364693138075993,36.9257836378114,1500,2018-04-03 07:41:50,1628.44011561007,0.0,0.0,0.135058004321856,1628.44011561007,0.0,0.0,0.135058004321856,1024,0.0,98,Assisted_Takeoff,
0.364693174868242,36.9257835836797,1600,2018-04-03 07:41:51,1628.44011561007,0.0,0.0,0.142336004554752,1628.44011561007,0.0,0.0,0.142336004554752,1024,0.0,98,Assisted_Takeoff,
0.364693218452324,36.9257835163301,1700,2018-04-03 07:41:51,1628.44011561007,0.0,0.0,0.151256004840192,1628.44011561007,0.0,0.0,0.151256004840192,1024,0.0,98,Assisted_Takeoff,
0.364693239601334,36.9257834722943,1800,2018-04-03 07:41:51,1628.44011561007,0.0,0.0,0.156638005012416,1628.44011561007,0.0,0.0,0.156638005012416,1024,0.0,98,Assisted_Takeoff,
0.364693256589261,36.9257834427045,1900,2018-04-03 07:41:51,1628.44011561007,0.0,0.0,0.16042600513363203,1628.44011561007,0.0,0.0,0.16042600513363203,1024,0.0,98,Assisted_Takeoff,
0.364693274551406,36.9257834204848,2000,2018-04-03 07:41:51,1628.44011561007,0.0,0.0,0.163588005234816,1628.44011561007,0.0,0.0,0.163588005234816,1024,0.0,98,Assisted_Takeoff,
0.364693303326418,36.9257833867506,2100,2018-04-03 07:41:51,1628.44011561007,0.0,0.0,0.16848200539142402,1628.44011561007,0.0,0.0,0.16848200539142402,1024,0.0,98,Assisted_Takeoff,
0.364693315927318,36.9257833565622,2200,2018-04-03 07:41:51,1628.44011561007,0.0,0.0,0.17205500550576,1628.44011561007,0.0,0.0,0.17205500550576,1024,0.0,98,Assisted_Takeoff,
0.364693324996937,36.925783319099,2300,2018-04-03 07:41:51,1628.44011561007,0.0,0.0,0.17609600563507202,1628.44011561007,0.0,0.0,0.17609600563507202,1039,0.0,98,Assisted_Takeoff,
0.364693341596888,36.9257832817814,2400,2018-04-03 07:41:51,1628.44011561007,0.0,0.0,0.18058500577872,1628.44011561007,0.0,0.0,0.18058500577872,1076,0.0,98,Assisted_Takeoff,
0.364693369513303,36.9257832399169,2500,2018-04-03 07:41:51,1628.44011561007,0.0,0.0,0.18618000595776002,1628.44011561007,0.0,0.0,0.18618000595776002,1141,0.0,98,Assisted_Takeoff,
0.364693385292925,36.9257832194916,2600,2018-04-03 07:41:51,1628.44011561007,0.0,0.0,0.189039006049248,1628.44011561007,0.0,0.0,0.189039006049248,1147,0.0,98,Assisted_Takeoff,
0.364693396298357,36.9257832045468,2700,2018-04-03 07:41:52,1628.44011561007,0.0,0.0,0.191099006115168,1628.44011561007,0.0,0.0,0.191099006115168,1140,0.0,98,Assisted_Takeoff,
0.364693416195907,36.9257831877616,2800,2018-04-03 07:41:52,1628.44011561007,0.0,0.0,0.19386800620377603,1628.44011561007,0.0,0.0,0.19386800620377603,1149,0.0,98,Assisted_Takeoff,
0.364693445750537,36.9257831589854,2900,2018-04-03 07:41:52,1628.44011561007,0.0,0.0,0.19834500634704,1628.44011561007,0.0,0.0,0.19834500634704,1174,0.0,98,Assisted_Takeoff,
0.364693465854086,36.9257831248754,3000,2018-04-03 07:41:52,1628.44011561007,0.0,0.0,0.20274300648777602,1628.44011561007,0.0,0.0,0.20274300648777602,1177,0.0,98,Assisted_Takeoff,
0.364693478573862,36.9257830856456,3100,2018-04-03 07:41:52,1628.44011561007,0.0,0.0,0.20717000662944,1628.44011561007,0.0,0.0,0.20717000662944,1168,0.0,98,Assisted_Takeoff,
0.364693502164723,36.9257830392299,3200,2018-04-03 07:41:52,1628.44011561007,0.0,0.0,0.212929006813728,1628.44011561007,0.0,0.0,0.212929006813728,1155,0.0,98,Assisted_Takeoff,
0.364693522985601,36.9257829977155,3300,2018-04-03 07:41:52,1628.44011561007,0.0,0.0,0.21806500697808,1628.44011561007,0.0,0.0,0.21806500697808,1162,0.0,98,Assisted_Takeoff,
0.364693508394335,36.9257829726586,3400,2018-04-03 07:41:52,1628.44011561007,0.0,0.35999970196000003,0.21955600702579203,1628.44011561007,0.0,0.35999970196000003,0.21955600702579203,1181,0.0,98,Assisted_Takeoff,
0.364693424268104,36.9257829789207,3500,2018-04-03 07:41:52,1628.44011561007,0.0,0.35999970196000003,0.214158006853056,1628.44011561007,0.0,0.35999970196000003,0.21955600702579203,1214,0.0,98,Assisted_Takeoff,
0.364693258127327,36.9257829690902,3600,2018-04-03 07:41:53,1628.44011561007,0.0,0.35999970196000003,0.206577006610464,1628.44011561007,0.0,0.35999970196000003,0.21955600702579203,1244,0.0,98,P-GPS,Obstacle Avoided. Revise Flight Route
0.364693048558391,36.9257829412166,3700,2018-04-03 07:41:53,1628.44011561007,0.0,0.35999970196000003,0.20069500642224003,1628.44011561007,0.0,0.35999970196000003,0.21955600702579203,1226,0.0,98,P-GPS,
0.364692846913463,36.925782886647,3800,2018-04-03 07:41:53,1628.44011561007,0.0,0.35999970196000003,0.200542006417344,1628.44011561007,0.0,0.35999970196000003,0.21955600702579203,1227,0.0,98,P-GPS,Home Point Recorded. RTH Altitude:  45m.
0.364692692101363,36.9257828334339,3900,2018-04-03 07:41:53,1628.5401156132698,0.1000000032,0.35999970196000003,0.203492006511744,1628.5401156132698,0.1000000032,0.35999970196000003,0.21955600702579203,1245,0.0,98,P-GPS,
0.364692577916906,36.9257827861017,4000,2018-04-03 07:41:53,1628.5401156132698,0.1000000032,0.35999970196000003,0.207568006642176,1628.5401156132698,0.1000000032,0.35999970196000003,0.21955600702579203,1234,0.0,98,P-GPS,
0.364692505411251,36.9257827591927,4100,2018-04-03 07:41:53,1628.6401156164698,0.2000000064,0.35999970196000003,0.210232006727424,1628.6401156164698,0.2000000064,0.35999970196000003,0.21955600702579203,1351,0.0,98,P-GPS,
0.364692467837755,36.9257826710719,4300,2018-04-03 07:41:53,1628.74011561967,0.3000000096,0.0,0.21998500703952,1628.74011561967,0.3000000096,0.35999970196000003,0.21998500703952,1351,0.0,98,P-GPS,
0.364692522681714,36.925782606037,4400,2018-04-03 07:41:53,1628.84011562287,0.4000000128,0.0,0.22730500727376002,1628.84011562287,0.4000000128,0.35999970196000003,0.22730500727376002,1404,0.0,98,P-GPS,
0.364692600657719,36.9257825108052,4500,2018-04-03 07:41:53,1628.9401156260699,0.500000016,0.0,0.23828000762496002,1628.9401156260699,0.500000016,0.35999970196000003,0.23828000762496002,1376,0.0,98,P-GPS,
0.364692685893327,36.9257823775791,4600,2018-04-03 07:41:53,1629.0401156292698,0.6000000192,0.0,0.25380500812176005,1629.0401156292698,0.6000000192,0.35999970196000003,0.25380500812176005,1333,0.0,98,P-GPS,
0.364692749602535,36.9257822235305,4700,2018-04-03 07:41:54,1629.24011563567,0.8000000256,0.0,0.271593008690976,1629.24011563567,0.8000000256,0.35999970196000003,0.271593008690976,1358,0.0,98,P-GPS,
0.364692793634032,36.9257820935506,4800,2018-04-03 07:41:54,1629.4401156420697,1.000000032,0.0,0.286536009169152,1629.4401156420697,1.000000032,0.35999970196000003,0.286536009169152,1358,0.0,98,P-GPS,
0.364692825120811,36.925781970291,4900,2018-04-03 07:41:54,1629.6401156484699,1.2000000384,0.0,0.300582009618624,1629.6401156484699,1.2000000384,0.35999970196000003,0.300582009618624,1363,0.0,98,P-GPS,
0.364692823949146,36.9257818447777,5000,2018-04-03 07:41:54,1629.8401156548698,1.4000000448,0.0,0.31440501006096006,1629.8401156548698,1.4000000448,0.35999970196000003,0.31440501006096006,1351,0.0,98,P-GPS,
0.364692831534031,36.9257817031366,5100,2018-04-03 07:41:54,1630.04011566127,1.6000000512,0.0,0.33013801056441605,1630.04011566127,1.6000000512,0.35999970196000003,0.33013801056441605,1334,0.0,98,P-GPS,
0.364692872245538,36.9257816094379,5200,2018-04-03 07:41:54,1630.2401156676701,1.8000000576000001,0.0,0.34105101091363205,1630.2401156676701,1.8000000576000001,0.35999970196000003,0.34105101091363205,1353,0.0,98,P-GPS,
0.364692962219104,36.9257815391697,5300,2018-04-03 07:41:54,1630.34011567087,1.9000000608000003,0.0,0.35023501120752004,1630.34011567087,1.9000000608000003,0.35999970196000003,0.35023501120752004,1376,0.0,98,P-GPS,
0.364693030544136,36.9257815608766,5400,2018-04-03 07:41:54,1630.5401156772698,2.1000000672000003,0.0,0.34913801117241605,1630.5401156772698,2.1000000672000003,0.35999970196000003,0.35023501120752004,1383,0.0,98,P-GPS,
0.364693076144232,36.9257815859538,5500,2018-04-03 07:41:54,1630.74011568367,2.3000000736,0.0,0.3473500111152,1630.74011568367,2.3000000736,0.35999970196000003,0.35023501120752004,1376,0.0,98,P-GPS,
0.364693059114372,36.9257816583696,5600,2018-04-03 07:41:55,1630.94011569007,2.50000008,0.0,0.339082010850624,1630.94011569007,2.50000008,0.35999970196000003,0.35023501120752004,1368,0.0,98,P-GPS,
0.364693032316697,36.925781690166,5700,2018-04-03 07:41:55,1631.14011569647,2.7000000864,0.0,0.335042010721344,1631.14011569647,2.7000000864,0.35999970196000003,0.35023501120752004,1378,0.0,98,P-GPS,
0.364692955495666,36.9257817411854,5800,2018-04-03 07:41:55,1631.3401157028698,2.9000000928,0.0,0.32794501049424,1631.3401157028698,2.9000000928,0.35999970196000003,0.35023501120752004,1395,0.0,98,P-GPS,
0.364692867838561,36.9257817489613,5900,2018-04-03 07:41:55,1631.54011570927,3.1000000992000003,0.0,0.325611010419552,1631.54011570927,3.1000000992000003,0.35999970196000003,0.35023501120752004,1392,0.0,98,P-GPS,
0.364692762882903,36.9257817537813,6000,2018-04-03 07:41:55,1631.7401157156698,3.3000001056,0.35999970196000003,0.323682010357824,1631.7401157156698,3.3000001056,0.35999970196000003,0.35023501120752004,1396,0.0,98,P-GPS,
0.364692684863337,36.9257817277437,6100,2018-04-03 07:41:55,1631.94011572207,3.500000112,0.35999970196000003,0.325799010425568,1631.94011572207,3.500000112,0.35999970196000003,0.35023501120752004,1399,0.0,98,P-GPS,
0.364692605826807,36.9257816791396,6200,2018-04-03 07:41:55,1632.1401157284697,3.7000001184,0.35999970196000003,0.33065901058108804,1632.1401157284697,3.7000001184,0.35999970196000003,0.35023501120752004,1398,0.0,98,P-GPS,
0.3646925524342,36.925781591506,6300,2018-04-03 07:41:55,1632.3401157348699,3.9000001248,0.35999970196000003,0.34017401088556803,1632.3401157348699,3.9000001248,0.35999970196000003,0.35023501120752004,1399,0.0,98,P-GPS,
0.364692521116372,36.9257814869544,6400,2018-04-03 07:41:55,1632.54011574127,4.100000131200001,0.35999970196000003,0.351718011254976,1632.54011574127,4.100000131200001,0.35999970196000003,0.351718011254976,1402,0.0,98,P-GPS,
0.364692503215701,36.9257813795261,6500,2018-04-03 07:41:55,1632.74011574767,4.3000001376,0.35999970196000003,0.363634011636288,1632.74011574767,4.3000001376,0.35999970196000003,0.363634011636288,1404,0.0,98,P-GPS,
0.364692511565955,36.9257812404566,6600,2018-04-03 07:41:56,1632.9401157540701,4.500000144,0.35999970196000003,0.379109012131488,1632.9401157540701,4.500000144,0.35999970196000003,0.379109012131488,1404,0.0,98,P-GPS,
0.36469251834191,36.9257811232417,6700,2018-04-03 07:41:56,1633.2401157636698,4.8000001536,0.0,0.39215401254892807,1633.2401157636698,4.8000001536,0.35999970196000003,0.39215401254892807,1404,0.0,98,P-GPS,
0.364692536352501,36.9257810226214,6800,2018-04-03 07:41:56,1633.44011577007,5.00000016,0.0,0.40337601290803204,1633.44011577007,5.00000016,0.35999970196000003,0.40337601290803204,1409,0.0,98,P-GPS,
0.364692538403119,36.9257809556701,6900,2018-04-03 07:41:56,1633.6401157764699,5.200000166400001,0.0,0.410824013146368,1633.6401157764699,5.200000166400001,0.35999970196000003,0.410824013146368,1407,0.0,98,P-GPS,
0.364692523675472,36.925780898804,7000,2018-04-03 07:41:56,1633.84011578287,5.4000001728,0.0,0.417118013347776,1633.84011578287,5.4000001728,0.35999970196000003,0.417118013347776,1412,0.0,98,P-GPS,
0.364692488377727,36.9257808555295,7100,2018-04-03 07:41:56,1634.14011579247,5.7000001824,0.0,0.421888013500416,1634.14011579247,5.7000001824,0.35999970196000003,0.421888013500416,1415,0.0,98,P-GPS,
0.364692467093149,36.9257808164732,7200,2018-04-03 07:41:56,1634.3401157988699,5.9000001888,0.0,0.426224013639168,1634.3401157988699,5.9000001888,0.35999970196000003,0.426224013639168,1419,0.0,98,P-GPS,
0.364692447646271,36.9257807797144,7300,2018-04-03 07:41:56,1634.54011580527,6.100000195200001,0.0,0.430316013770112,1634.54011580527,6.100000195200001,0.35999970196000003,0.430316013770112,1421,0.0,98,P-GPS,
0.364692409193416,36.9257807499619,7400,2018-04-03 07:41:56,1634.8401158148702,6.4000002048,0.0,0.433666013877312,1634.8401158148702,6.4000002048,0.35999970196000003,0.433666013877312,1420,0.0,98,P-GPS,
0.36469236055098,36.9257807328415,7500,2018-04-03 07:41:56,1635.0401158212699,6.6000002112,0.0,0.43568101394179204,1635.0401158212699,6.6000002112,0.35999970196000003,0.43568101394179204,1420,0.0,98,P-GPS,
0.364692314569014,36.9257806975849,7600,2018-04-03 07:41:56,1635.24011582767,6.800000217600001,0.0,0.43976601407251203,1635.24011582767,6.800000217600001,0.35999970196000003,0.43976601407251203,1427,0.0,98,P-GPS,
0.364692289584612,36.9257806534967,7700,2018-04-03 07:41:57,1635.54011583727,7.1000002272,0.0,0.44477901423292804,1635.54011583727,7.1000002272,0.35999970196000003,0.44477901423292804,1431,0.0,98,P-GPS,
0.364692284579996,36.9257806230493,7800,2018-04-03 07:41:57,1635.7401158436699,7.3000002336000005,0.0,0.448187014341984,1635.7401158436699,7.3000002336000005,0.35999970196000003,0.448187014341984,1419,0.0,98,P-GPS,
0.364692293882075,36.9257806144168,7900,2018-04-03 07:41:57,1635.9401158500698,7.50000024,0.0,0.44910101437123207,1635.9401158500698,7.50000024,0.35999970196000003,0.44910101437123207,1412,0.0,98,P-GPS,
0.364692310508896,36.925780596515,8000,2018-04-03 07:41:57,1636.24011585967,7.8000002496,0.0,0.45101501443248,1636.24011585967,7.8000002496,0.35999970196000003,0.45101501443248,1488,0.0,98,P-GPS,
0.364692343314307,36.9257805650173,8100,2018-04-03 07:41:57,1636.44011586607,8.000000256,0.0,0.45439101454051206,1636.44011586607,8.000000256,0.35999970196000003,0.45439101454051206,1519,0.0,98,P-GPS,
0.364692377750605,36.9257805475158,8200,2018-04-03 07:41:57,1636.74011587567,8.300000265600001,0.0,0.456238014599616,1636.74011587567,8.300000265600001,0.35999970196000003,0.456238014599616,1482,0.0,98,P-GPS,
0.364692418568368,36.9257805358867,8300,2018-04-03 07:41:57,1636.94011588207,8.500000272,0.0,0.457456014638592,1636.94011588207,8.500000272,0.35999970196000003,0.457456014638592,1500,0.0,98,P-GPS,
0.364692463573675,36.925780485318,8400,2018-04-03 07:41:57,1637.24011589167,8.800000281600001,0.0,0.4630500148176,1637.24011589167,8.800000281600001,0.35999970196000003,0.4630500148176,1480,0.0,98,P-GPS,
0.364692514394155,36.9257804247562,8500,2018-04-03 07:41:57,1637.54011590127,9.1000002912,0.0,0.46981501503408,1637.54011590127,9.1000002912,0.35999970196000003,0.46981501503408,1471,0.0,98,P-GPS,
0.364692581155067,36.9257804125425,8600,2018-04-03 07:41:58,1637.8401159108698,9.4000003008,0.0,0.471317015082144,1637.8401159108698,9.4000003008,0.35999970196000003,0.471317015082144,1485,0.0,98,P-GPS,
0.364692648319832,36.9257804257187,8700,2018-04-03 07:41:58,1638.14011592047,9.7000003104,0.0,0.47011601504371203,1638.14011592047,9.7000003104,0.35999970196000003,0.471317015082144,1490,0.0,98,P-GPS,
0.364692689297997,36.9257804873897,8800,2018-04-03 07:41:58,1638.4401159300699,10.00000032,0.0,0.46348601483155205,1638.4401159300699,10.00000032,0.35999970196000003,0.471317015082144,1519,0.0,98,P-GPS,
0.364692702992397,36.9257805596096,8900,2018-04-03 07:41:58,1638.74011593967,10.3000003296,0.0,0.455552014577664,1638.74011593967,10.3000003296,0.35999970196000003,0.471317015082144,1524,0.0,98,P-GPS,
0.364692716209662,36.9257806222474,9000,2018-04-03 07:41:58,1639.04011594927,10.600000339200001,0.0,0.448687014357984,1639.04011594927,10.600000339200001,0.35999970196000003,0.471317015082144,1519,0.0,98,P-GPS,
0.364692737351751,36.9257806672178,9100,2018-04-03 07:41:58,1639.3401159588698,10.9000003488,0.0,0.4438500142032001,1639.3401159588698,10.9000003488,0.35999970196000003,0.471317015082144,1522,0.0,98,P-GPS,
0.364692756138702,36.9257807009927,9200,2018-04-03 07:41:58,1639.64011596847,11.2000003584,0.0,0.440251014088032,1639.64011596847,11.2000003584,0.35999970196000003,0.471317015082144,1522,0.0,98,P-GPS,
0.364692772499679,36.9257807317988,9300,2018-04-03 07:41:58,1639.94011597807,11.500000368000002,0.0,0.43697301398313604,1639.94011597807,11.500000368000002,0.35999970196000003,0.471317015082144,1535,0.0,98,P-GPS,
0.364692771677315,36.9257807604058,9400,2018-04-03 07:41:58,1640.34011599087,11.9000003808,0.0,0.433794013881408,1640.34011599087,11.9000003808,0.35999970196000003,0.471317015082144,1534,0.0,98,P-GPS,
0.364692757058773,36.9257807849455,9500,2018-04-03 07:41:58,1640.64011600047,12.200000390400001,0.0,0.430949013790368,1640.64011600047,12.200000390400001,0.35999970196000003,0.471317015082144,1540,0.0,98,P-GPS,
0.364692742892939,36.9257808144379,9600,2018-04-03 07:41:58,1641.04011601327,12.6000004032,0.0,0.42756201368198404,1641.04011601327,12.6000004032,0.35999970196000003,0.471317015082144,1530,0.0,98,P-GPS,
0.36469275139708,36.9257808236967,9700,2018-04-03 07:41:59,1641.34011602287,12.9000004128,0.0,0.426604013651328,1641.34011602287,12.9000004128,0.35999970196000003,0.471317015082144,1504,0.0,98,P-GPS,
0.36469273705456,36.9257808072872,9800,2018-04-03 07:41:59,1641.74011603567,13.3000004256,0.0,0.42830901370588803,1641.74011603567,13.3000004256,0.35999970196000003,0.471317015082144,1486,0.0,98,P-GPS,
0.364692699827516,36.9257807759309,9900,2018-04-03 07:41:59,1642.14011604847,13.7000004384,0.0,0.431518013808576,1642.14011604847,13.7000004384,0.35999970196000003,0.471317015082144,1515,0.0,98,P-GPS,
0.36469264865692,36.9257807200112,10000,2018-04-03 07:41:59,1642.4401160580699,14.000000448,0.0,0.43742401399756803,1642.4401160580699,14.000000448,0.35999970196000003,0.471317015082144,1520,0.0,98,P-GPS,
0.364692604597332,36.9257806618047,10100,2018-04-03 07:41:59,1642.8401160708697,14.400000460800001,0.0,0.44369201419814397,1642.8401160708697,14.400000460800001,0.35999970196000003,0.471317015082144,1505,0.0,98,P-GPS,
0.364692564031978,36.9257805936082,10200,2018-04-03 07:41:59,1643.2401160836698,14.8000004736,0.0,0.45113901443644805,1643.2401160836698,14.8000004736,0.35999970196000003,0.471317015082144,1505,0.0,98,P-GPS,
0.364692514379092,36.9257805143115,10300,2018-04-03 07:41:59,1643.54011609327,15.1000004832,0.0,0.459857014715424,1643.54011609327,15.1000004832,0.35999970196000003,0.471317015082144,1519,0.0,98,P-GPS,
0.364692419981043,36.9257804148872,10400,2018-04-03 07:41:59,1643.9401161060698,15.500000496,0.0,0.47090901506908805,1643.9401161060698,15.500000496,0.35999970196000003,0.471317015082144,1542,0.0,98,P-GPS,
0.364692306566026,36.9257803296046,10500,2018-04-03 07:41:59,1644.24011611567,15.8000005056,0.0,0.48069201538214407,1644.24011611567,15.8000005056,0.35999970196000003,0.48069201538214407,1526,0.0,98,P-GPS,
0.364692194996035,36.9257802469794,10600,2018-04-03 07:42:00,1644.6401161284698,16.2000005184,0.0,0.490479015695328,1644.6401161284698,16.2000005184,0.35999970196000003,0.490479015695328,1529,0.0,98,P-GPS,
0.364692100671266,36.9257801576328,10700,2018-04-03 07:42:00,1645.04011614127,16.600000531200003,0.0,0.501137016036384,1645.04011614127,16.600000531200003,0.35999970196000003,0.501137016036384,1527,0.0,97,P-GPS,
0.364692025376494,36.9257800500042,10800,2018-04-03 07:42:00,1645.34011615087,16.9000005408,0.0,0.513798016441536,1645.34011615087,16.9000005408,0.35999970196000003,0.513798016441536,1521,0.0,97,P-GPS,
0.364691986248242,36.9257799411605,10900,2018-04-03 07:42:00,1645.7401161636699,17.3000005536,0.0,0.526271016840672,1645.7401161636699,17.3000005536,0.35999970196000003,0.526271016840672,1522,0.0,97,P-GPS,
0.364691945194761,36.9257798606069,11000,2018-04-03 07:42:00,1646.14011617647,17.7000005664,0.0,0.535658017141056,1646.14011617647,17.7000005664,0.35999970196000003,0.535658017141056,1511,0.0,97,P-GPS,
0.364691896678936,36.9257798096314,11100,2018-04-03 07:42:00,1646.5401161892698,18.1000005792,0.0,0.5418970173407041,1646.5401161892698,18.1000005792,0.35999970196000003,0.5418970173407041,1495,0.0,97,P-GPS,
0.36469183778056,36.9257797506712,11200,2018-04-03 07:42:00,1646.94011620207,18.500000592000003,0.0,0.5492040175745281,1646.94011620207,18.500000592000003,0.35999970196000003,0.5492040175745281,1494,0.0,97,P-GPS,
0.364691785134594,36.9257796851941,11300,2018-04-03 07:42:00,1647.2401162116698,18.8000006016,0.0,0.557192017830144,1647.2401162116698,18.8000006016,0.35999970196000003,0.557192017830144,1511,0.0,97,P-GPS,
0.364691715706291,36.9257796288719,11400,2018-04-03 07:42:00,1647.64011622447,19.2000006144,0.0,0.564487018063584,1647.64011622447,19.2000006144,0.35999970196000003,0.564487018063584,1502,0.0,97,P-GPS,
0.364691661220183,36.9257795899526,11500,2018-04-03 07:42:00,1647.94011623407,19.500000624000002,0.0,0.569688018230016,1647.94011623407,19.500000624000002,0.35999970196000003,0.569688018230016,1485,0.0,97,P-GPS,
0.364691621859878,36.9257795544594,11600,2018-04-03 07:42:00,1648.34011624687,19.900000636799998,0.0,0.574286018377152,1648.34011624687,19.900000636799998,0.35999970196000003,0.574286018377152,1487,0.0,97,P-GPS,
0.364691598240519,36.92577952051,11700,2018-04-03 07:42:01,1648.74011625967,20.3000006496,0.0,0.578443018510176,1648.74011625967,20.3000006496,0.35999970196000003,0.578443018510176,1466,0.0,97,P-GPS,
0.36469159534596,36.9257794909554,11800,2018-04-03 07:42:01,1649.0401162692701,20.6000006592,0.0,0.581737018615584,1649.0401162692701,20.6000006592,0.35999970196000003,0.581737018615584,1479,0.0,97,P-GPS,
0.364691616052846,36.9257794540383,11900,2018-04-03 07:42:01,1649.44011628207,21.000000672,0.0,0.58541001873312,1649.44011628207,21.000000672,0.35999970196000003,0.58541001873312,1478,0.0,97,P-GPS,
0.364691637331317,36.9257794238521,12000,2018-04-03 07:42:01,1649.74011629167,21.3000006816,0.0,0.588347018827104,1649.74011629167,21.3000006816,0.35999970196000003,0.588347018827104,1476,0.0,97,P-GPS,
0.36469166452796,36.9257794024064,12100,2018-04-03 07:42:01,1650.14011630447,21.7000006944,0.0,0.5902390188876481,1650.14011630447,21.7000006944,0.35999970196000003,0.5902390188876481,1479,0.0,97,P-GPS,
0.364691672799234,36.9257793768432,12200,2018-04-03 07:42:01,1650.4401163140699,22.000000703999998,0.0,0.592912018973184,1650.4401163140699,22.000000703999998,0.35999970196000003,0.592912018973184,1479,0.0,97,P-GPS,
0.364691663703968,36.9257793666616,12300,2018-04-03 07:42:01,1650.74011632367,22.300000713600003,0.0,0.5941820190138241,1650.74011632367,22.300000713600003,0.35999970196000003,0.5941820190138241,1473,0.0,97,P-GPS,
0.364691602875478,36.925779355737,12400,2018-04-03 07:42:01,1651.04011633327,22.6000007232,0.0,0.5964340190858881,1651.04011633327,22.6000007232,0.35999970196000003,0.5964340190858881,1468,0.0,97,P-GPS,
0.364691540022425,36.9257793469407,12500,2018-04-03 07:42:01,1651.44011634607,23.000000736000004,0.0,0.598562019153984,1651.44011634607,23.000000736000004,0.35999970196000003,0.598562019153984,1481,0.0,97,P-GPS,
0.364691486220263,36.9257793479824,12600,2018-04-03 07:42:02,1651.74011635567,23.300000745600002,0.0,0.5995060191841921,1651.74011635567,23.300000745600002,0.35999970196000003,0.5995060191841921,1489,0.0,97,P-GPS,
0.364691462095273,36.9257793831117,12700,2018-04-03 07:42:02,1652.0401163652698,23.6000007552,0.0,0.596162019077184,1652.0401163652698,23.6000007552,0.35999970196000003,0.5995060191841921,1488,0.0,97,P-GPS,
0.364691438571992,36.9257794184272,12800,2018-04-03 07:42:02,1652.34011637487,23.9000007648,0.0,0.592803018969696,1652.34011637487,23.9000007648,0.35999970196000003,0.5995060191841921,1484,0.0,97,P-GPS,
0.364691438507261,36.9257794539119,12900,2018-04-03 07:42:02,1652.6401163844698,24.2000007744,0.0,0.588933018845856,1652.6401163844698,24.2000007744,0.35999970196000003,0.5995060191841921,1481,0.0,97,P-GPS,
0.364691427485545,36.925779493117,13000,2018-04-03 07:42:02,1653.04011639727,24.600000787200003,0.0,0.5848970187167041,1653.04011639727,24.600000787200003,0.35999970196000003,0.5995060191841921,1462,0.0,97,P-GPS,
0.364691405226751,36.9257795374258,13100,2018-04-03 07:42:02,1653.34011640687,24.9000007968,0.0,0.5805660185781121,1653.34011640687,24.9000007968,0.35999970196000003,0.5995060191841921,1469,0.0,97,P-GPS,
0.364691363270706,36.9257795723195,13200,2018-04-03 07:42:02,1653.74011641967,25.3000008096,0.0,0.577739018487648,1653.74011641967,25.3000008096,0.35999970196000003,0.5995060191841921,1476,0.0,97,P-GPS,
0.36469131334872,36.9257796163499,13300,2018-04-03 07:42:02,1654.04011642927,25.6000008192,0.0,0.5741690183734081,1654.04011642927,25.6000008192,0.35999970196000003,0.5995060191841921,1481,0.0,97,P-GPS,
0.364691239227649,36.9257796613952,13400,2018-04-03 07:42:02,1654.44011644207,26.000000832,0.0,0.571199018278368,1654.44011644207,26.000000832,0.35999970196000003,0.5995060191841921,1468,0.0,97,P-GPS,
0.364691165468499,36.9257797039653,13500,2018-04-03 07:42:02,1654.74011645167,26.3000008416,0.0,0.568634018196288,1654.74011645167,26.3000008416,0.35999970196000003,0.5995060191841921,1487,0.0,97,P-GPS,
0.364691071004091,36.9257797372595,13600,2018-04-03 07:42:02,1655.14011646447,26.700000854400002,0.0,0.567833018170656,1655.14011646447,26.700000854400002,0.35999970196000003,0.5995060191841921,1481,0.0,97,P-GPS,
0.364690987113985,36.9257797539473,13700,2018-04-03 07:42:03,1655.4401164740698,27.000000864,0.0,0.5686750181976,1655.4401164740698,27.000000864,0.35999970196000003,0.5995060191841921,1460,0.0,97,P-GPS,
0.364690911826948,36.9257797615883,13800,2018-04-03 07:42:03,1655.74011648367,27.3000008736,0.0,0.570343018250976,1655.74011648367,27.3000008736,0.35999970196000003,0.5995060191841921,1463,0.0,97,P-GPS,
0.364690837990447,36.9257797576645,13900,2018-04-03 07:42:03,1656.04011649327,27.600000883200003,0.0,0.5732980183455361,1656.04011649327,27.600000883200003,0.35999970196000003,0.5995060191841921,1393,0.0,97,P-GPS,
0.364690753888235,36.9257797802204,14000,2018-04-03 07:42:03,1656.34011650287,27.9000008928,0.0,0.573953018366496,1656.34011650287,27.9000008928,0.35999970196000003,0.5995060191841921,1415,0.0,97,P-GPS,
0.364690676973568,36.9257798238268,14100,2018-04-03 07:42:03,1656.6401165124698,28.200000902400003,0.0,0.572297018313504,1656.6401165124698,28.200000902400003,0.35999970196000003,0.5995060191841921,1427,0.0,97,P-GPS,
0.364690585675874,36.9257798945317,14200,2018-04-03 07:42:03,1656.94011652207,28.500000912,0.0,0.5685860181947521,1656.94011652207,28.500000912,0.35999970196000003,0.5995060191841921,1410,0.0,97,P-GPS,
0.364690512776339,36.9257799829148,14300,2018-04-03 07:42:03,1657.2401165316699,28.800000921600002,0.0,0.5625380180012161,1657.2401165316699,28.800000921600002,0.35999970196000003,0.5995060191841921,1473,0.0,97,P-GPS,
0.36469039691662,36.9257800332394,14400,2018-04-03 07:42:03,1657.44011653807,29.000000928000002,0.35999970196000003,0.5625250180008,1657.44011653807,29.000000928000002,0.35999970196000003,0.5995060191841921,1429,0.0,97,P-GPS,
0.364690261055741,36.9257800693482,14500,2018-04-03 07:42:03,1657.74011654767,29.300000937600004,0.35999970196000003,0.565251018088032,1657.74011654767,29.300000937600004,0.35999970196000003,0.5995060191841921,1452,0.0,97,P-GPS,
0.364690117578629,36.9257800924341,14600,2018-04-03 07:42:04,1658.0401165572698,29.6000009472,0.35999970196000003,0.570069018242208,1658.0401165572698,29.6000009472,0.35999970196000003,0.5995060191841921,1462,0.0,97,P-GPS,
0.36468998139715,36.925780083656,14700,2018-04-03 07:42:04,1658.24011656367,29.8000009536,0.35999970196000003,0.5780210184966721,1658.24011656367,29.8000009536,0.35999970196000003,0.5995060191841921,1456,0.0,97,P-GPS,
0.364689871434841,36.925780099938,14800,2018-04-03 07:42:04,1658.5401165732699,30.1000009632,0.0,0.5823910186365121,1658.5401165732699,30.1000009632,0.35999970196000003,0.5995060191841921,1451,0.0,97,P-GPS,
0.364689795134097,36.9257801290782,14900,2018-04-03 07:42:04,1658.8401165828698,30.400000972800004,0.0,0.5838490186831681,1658.8401165828698,30.400000972800004,0.35999970196000003,0.5995060191841921,1455,0.0,97,P-GPS,
0.364689762481759,36.9257801679236,15000,2018-04-03 07:42:04,1659.14011659247,30.700000982400002,0.0,0.582001018624032,1659.14011659247,30.700000982400002,0.35999970196000003,0.5995060191841921,1460,0.0,97,P-GPS,
0.36468975845706,36.9257802231859,15100,2018-04-03 07:42:04,1659.44011660207,31.000000992,0.0,0.576981018463392,1659.44011660207,31.000000992,0.35999970196000003,0.5995060191841921,1463,0.0,97,P-GPS,
0.364689777853864,36.9257802855004,15200,2018-04-03 07:42:04,1659.7401166116701,31.300001001600002,0.0,0.5699470182383041,1659.7401166116701,31.300001001600002,0.35999970196000003,0.5995060191841921,1468,0.0,97,P-GPS,
0.364689812067268,36.9257803214519,15300,2018-04-03 07:42:04,1659.9401166180699,31.500001007999998,0.0,0.564549018065568,1659.9401166180699,31.500001007999998,0.35999970196000003,0.5995060191841921,1475,0.0,97,P-GPS,
0.364689852339096,36.9257803723567,15400,2018-04-03 07:42:04,1660.24011662767,31.800001017600003,0.0,0.557382017836224,1660.24011662767,31.800001017600003,0.35999970196000003,0.5995060191841921,1464,0.0,97,P-GPS,
0.364689866975957,36.9257804222167,15500,2018-04-03 07:42:04,1660.54011663727,32.1000010272,0.0,0.55180501765776,1660.54011663727,32.1000010272,0.35999970196000003,0.5995060191841921,1474,0.0,97,P-GPS,
0.364689855937753,36.9257804813642,15600,2018-04-03 07:42:04,1660.8401166468698,32.4000010368,0.0,0.5468630174996161,1660.8401166468698,32.4000010368,0.35999970196000003,0.5995060191841921,1500,0.0,97,P-GPS,
0.364689832420172,36.9257805233358,15700,2018-04-03 07:42:05,1661.14011665647,32.700001046400004,0.0,0.54431501741808,1661.14011665647,32.700001046400004,0.35999970196000003,0.5995060191841921,1521,0.0,97,P-GPS,
0.364689855494002,36.9257805203595,15800,2018-04-03 07:42:05,1661.5401166692698,33.100001059200004,0.0,0.543219017383008,1661.5401166692698,33.100001059200004,0.35999970196000003,0.5995060191841921,1534,0.0,97,P-GPS,
0.364689930428074,36.9257804730776,15900,2018-04-03 07:42:05,1661.84011667887,33.4000010688,0.35999970196000003,0.5432990173855681,1661.84011667887,33.4000010688,0.35999970196000003,0.5995060191841921,1542,0.0,97,P-GPS,
0.364690040589664,36.9257804109269,16000,2018-04-03 07:42:05,1662.24011669167,33.8000010816,0.503999582744,0.543032017377024,1662.24011669167,33.8000010816,0.503999582744,0.5995060191841921,1547,0.0,97,P-GPS,
0.364690163117047,36.9257803326463,16100,2018-04-03 07:42:05,1662.6401167044698,34.2000010944,0.503999582744,0.54406001740992,1662.6401167044698,34.2000010944,0.503999582744,0.5995060191841921,1547,0.0,97,P-GPS,
0.364690299296898,36.9257802391339,16200,2018-04-03 07:42:05,1663.04011671727,34.6000011072,0.503999582744,0.5464120174851841,1663.04011671727,34.6000011072,0.503999582744,0.5995060191841921,1543,0.0,97,P-GPS,
0.364690442869884,36.9257801497498,16300,2018-04-03 07:42:05,1663.4401167300698,35.00000112,0.35999970196000003,0.548612017555584,1663.4401167300698,35.00000112,0.503999582744,0.5995060191841921,1545,0.0,97,P-GPS,
0.364690599546552,36.925780094313,16400,2018-04-03 07:42:05,1663.84011674287,35.4000011328,0.35999970196000003,0.5474000175168,1663.84011674287,35.4000011328,0.503999582744,0.5995060191841921,1544,0.0,97,P-GPS,
0.364690754583988,36.9257800755428,16500,2018-04-03 07:42:05,1664.2401167556698,35.8000011456,0.35999970196000003,0.5430530173776961,1664.2401167556698,35.8000011456,0.503999582744,0.5995060191841921,1547,0.0,97,P-GPS,
0.364690900267845,36.9257800917981,16600,2018-04-03 07:42:06,1664.5401167652699,36.1000011552,0.35999970196000003,0.53588001714816,1664.5401167652699,36.1000011552,0.503999582744,0.5995060191841921,1556,0.0,97,P-GPS,
0.364691020735246,36.9257801215924,16700,2018-04-03 07:42:06,1664.94011677807,36.500001168000004,0.35999970196000003,0.5285210169126721,1664.94011677807,36.500001168000004,0.503999582744,0.5995060191841921,1548,0.0,97,P-GPS,
0.364691112704064,36.9257801658712,16800,2018-04-03 07:42:06,1665.2401167876699,36.8000011776,0.35999970196000003,0.520786016665152,1665.2401167876699,36.8000011776,0.503999582744,0.5995060191841921,1546,0.0,97,P-GPS,
0.364691178970743,36.9257802114144,16900,2018-04-03 07:42:06,1665.64011680047,37.2000011904,0.0,0.513839016442848,1665.64011680047,37.2000011904,0.503999582744,0.5995060191841921,1548,0.0,97,P-GPS,
0.364691222949315,36.9257802446379,17000,2018-04-03 07:42:06,1666.0401168132698,37.6000012032,0.0,0.508941016286112,1666.0401168132698,37.6000012032,0.503999582744,0.5995060191841921,1549,0.0,97,P-GPS,
0.364691250648741,36.9257802691413,17100,2018-04-03 07:42:06,1666.44011682607,38.000001216,0.0,0.505487016175584,1666.44011682607,38.000001216,0.503999582744,0.5995060191841921,1545,0.0,97,P-GPS,
0.364691249413159,36.9257802685878,17200,2018-04-03 07:42:06,1666.74011683567,38.3000012256,0.0,0.5055830161786561,1666.74011683567,38.3000012256,0.503999582744,0.5995060191841921,1545,0.0,97,P-GPS,
0.364691232169565,36.9257802646918,17300,2018-04-03 07:42:06,1667.14011684847,38.7000012384,0.0,0.5065170162085441,1667.14011684847,38.7000012384,0.503999582744,0.5995060191841921,1546,0.0,97,P-GPS,
0.364691185462127,36.9257802648866,17400,2018-04-03 07:42:06,1667.44011685807,39.000001248000004,0.0,0.5079280162536961,1667.44011685807,39.000001248000004,0.503999582744,0.5995060191841921,1544,0.0,97,P-GPS,
0.364691119958782,36.9257802804406,17500,2018-04-03 07:42:06,1667.84011687087,39.4000012608,0.0,0.508364016267648,1667.84011687087,39.4000012608,0.503999582744,0.5995060191841921,1544,0.0,97,P-GPS,
0.364691040322985,36.9257802989538,17600,2018-04-03 07:42:06,1668.14011688047,39.7000012704,0.0,0.50908501629072,1668.14011688047,39.7000012704,0.503999582744,0.5995060191841921,1544,0.0,97,P-GPS,
0.364690992537924,36.9257803343368,17700,2018-04-03 07:42:07,1668.5401168932701,40.10000128320001,0.0,0.507039016225248,1668.5401168932701,40.10000128320001,0.503999582744,0.5995060191841921,1549,0.0,97,P-GPS,
0.364690987517432,36.925780371345,17800,2018-04-03 07:42:07,1668.8401169028698,40.400001292800006,0.0,0.503328016106496,1668.8401169028698,40.400001292800006,0.503999582744,0.5995060191841921,1554,0.0,97,P-GPS,
0.364690990215356,36.9257804237894,17900,2018-04-03 07:42:07,1669.24011691567,40.8000013056,0.0,0.4977210159270721,1669.24011691567,40.8000013056,0.503999582744,0.5995060191841921,1559,0.0,97,P-GPS,
0.364690947400714,36.9257804999277,18000,2018-04-03 07:42:07,1669.5401169252698,41.100001315200004,0.0,0.491351015723232,1669.5401169252698,41.100001315200004,0.503999582744,0.5995060191841921,1564,0.0,97,P-GPS,
0.364690900324433,36.9257805732846,18100,2018-04-03 07:42:07,1669.9401169380699,41.500001328,0.0,0.48555101553763197,1669.9401169380699,41.500001328,0.503999582744,0.5995060191841921,1564,0.0,97,P-GPS,
0.364690877970783,36.9257806126289,18200,2018-04-03 07:42:07,1670.3401169508697,41.9000013408,0.0,0.48237401543596803,1670.3401169508697,41.9000013408,0.503999582744,0.5995060191841921,1575,0.0,97,P-GPS,
0.364690885562588,36.9257806367243,18300,2018-04-03 07:42:07,1670.6401169604699,42.2000013504,0.0,0.479571015346272,1670.6401169604699,42.2000013504,0.503999582744,0.5995060191841921,1578,0.0,97,P-GPS,
0.364690921037427,36.9257806816337,18400,2018-04-03 07:42:07,1671.04011697327,42.6000013632,0.0,0.473482015151424,1671.04011697327,42.6000013632,0.503999582744,0.5995060191841921,1584,0.0,97,P-GPS,
0.364690969612283,36.925780752602,18500,2018-04-03 07:42:07,1671.4401169860698,43.000001376,0.0,0.464173014853536,1671.4401169860698,43.000001376,0.503999582744,0.5995060191841921,1571,0.0,97,P-GPS,
0.364690991484321,36.9257808281483,18600,2018-04-03 07:42:08,1671.84011699887,43.4000013888,0.0,0.455459014574688,1671.84011699887,43.4000013888,0.503999582744,0.5995060191841921,1576,0.0,97,P-GPS,
0.364690988414704,36.925780872502,18700,2018-04-03 07:42:08,1672.2401170116698,43.80000140160001,0.0,0.45098501443152,1672.2401170116698,43.80000140160001,0.503999582744,0.5995060191841921,1574,0.0,97,P-GPS,
0.364690967928065,36.9257809128634,18800,2018-04-03 07:42:08,1672.6401170244699,44.2000014144,0.0,0.447651014324832,1672.6401170244699,44.2000014144,0.503999582744,0.5995060191841921,1554,0.0,97,P-GPS,
0.364690941761412,36.9257809747582,18900,2018-04-03 07:42:08,1673.0401170372697,44.600001427200006,0.0,0.44237701415606406,1673.0401170372697,44.600001427200006,0.503999582744,0.5995060191841921,1558,0.0,97,P-GPS,
0.364690853444788,36.9257810554296,19000,2018-04-03 07:42:08,1673.4401170500698,45.00000144,0.0,0.438032014017024,1673.4401170500698,45.00000144,0.503999582744,0.5995060191841921,1561,0.0,97,P-GPS,
0.364690742300431,36.9257811333312,19100,2018-04-03 07:42:08,1673.84011706287,45.4000014528,0.0,0.43544001393408,1673.84011706287,45.4000014528,0.503999582744,0.5995060191841921,1555,0.0,97,P-GPS,
0.364690608478771,36.9257812190891,19200,2018-04-03 07:42:08,1674.1401170724698,45.7000014624,0.0,0.433783013881056,1674.1401170724698,45.7000014624,0.503999582744,0.5995060191841921,1558,0.0,97,P-GPS,
0.364690486510962,36.9257812961525,19300,2018-04-03 07:42:08,1674.54011708527,46.1000014752,0.0,0.433001013856032,1674.54011708527,46.1000014752,0.503999582744,0.5995060191841921,1556,0.0,97,P-GPS,
0.364690356549936,36.9257813827979,19400,2018-04-03 07:42:08,1674.8401170948698,46.4000014848,0.0,0.432398013836736,1674.8401170948698,46.4000014848,0.503999582744,0.5995060191841921,1546,-0.1,97,P-GPS,
0.364690266554996,36.9257814740363,19500,2018-04-03 07:42:08,1675.14011710447,46.7000014944,0.0,0.429529013744928,1675.14011710447,46.7000014944,0.503999582744,0.5995060191841921,1549,-0.3,97,P-GPS,
0.36469016585609,36.9257815514423,19600,2018-04-03 07:42:08,1675.54011711727,47.100001507200005,0.0,0.42906101372995203,1675.54011711727,47.100001507200005,0.503999582744,0.5995060191841921,1548,-0.6,97,P-GPS,
0.364690087074616,36.9257816199888,19700,2018-04-03 07:42:09,1675.84011712687,47.4000015168,0.0,0.42832001370624,1675.84011712687,47.4000015168,0.503999582744,0.5995060191841921,1551,-1.3,97,P-GPS,
0.364689998315055,36.9257816990072,19800,2018-04-03 07:42:09,1676.24011713967,47.8000015296,0.0,0.427709013686688,1676.24011713967,47.8000015296,0.503999582744,0.5995060191841921,1549,-2.4,97,P-GPS,
0.364689926461388,36.9257817487686,19900,2018-04-03 07:42:09,1676.64011715247,48.20000154240001,0.0,0.42870001371840005,1676.64011715247,48.20000154240001,0.503999582744,0.5995060191841921,1550,-4.2,97,P-GPS,
0.364689849332581,36.9257817699166,20000,2018-04-03 07:42:09,1677.04011716527,48.6000015552,0.0,0.4326540138449281,1677.04011716527,48.6000015552,0.503999582744,0.5995060191841921,1548,-6.2,97,P-GPS,
0.364689779052602,36.9257817593538,20100,2018-04-03 07:42:09,1677.44011717807,49.000001568,0.0,0.43880801404185604,1677.44011717807,49.000001568,0.503999582744,0.5995060191841921,1544,-8.1,97,P-GPS,
0.364689724561609,36.9257817384135,20200,2018-04-03 07:42:09,1677.84011719087,49.4000015808,0.0,0.444649014228768,1677.84011719087,49.4000015808,0.503999582744,0.5995060191841921,1538,-9.7,97,P-GPS,
0.364689697846782,36.9257817105624,20300,2018-04-03 07:42:09,1678.24011720367,49.8000015936,0.0,0.44894001436608,1678.24011720367,49.8000015936,0.503999582744,0.5995060191841921,1540,-9.9,97,P-GPS,
0.364689644189755,36.9257816957503,20400,2018-04-03 07:42:09,1678.54011721327,50.1000016032,0.0,0.45424201453574403,1678.54011721327,50.1000016032,0.503999582744,0.5995060191841921,1544,-9.9,97,P-GPS,
0.364689592828632,36.9257816845559,20500,2018-04-03 07:42:09,1678.94011722607,50.500001616000006,0.0,0.45909901469116804,1678.94011722607,50.500001616000006,0.503999582744,0.5995060191841921,1545,-9.9,97,P-GPS,
0.364689534850733,36.9257816530893,20600,2018-04-03 07:42:10,1679.3401172388699,50.9000016288,0.0,0.46610401491532805,1679.3401172388699,50.9000016288,0.503999582744,0.5995060191841921,1545,-9.9,97,P-GPS,
0.364689505092344,36.9257816001984,20700,2018-04-03 07:42:10,1679.64011724847,51.2000016384,0.0,0.472626015124032,1679.64011724847,51.2000016384,0.503999582744,0.5995060191841921,1547,-9.9,97,P-GPS,
0.364689472169481,36.9257815259957,20800,2018-04-03 07:42:10,1680.04011726127,51.6000016512,0.0,0.481107015395424,1680.04011726127,51.6000016512,0.503999582744,0.5995060191841921,1546,-10.0,97,P-GPS,
0.364689473273159,36.9257814498424,20900,2018-04-03 07:42:10,1680.44011727407,52.000001664,0.0,0.48717201558950407,1680.44011727407,52.000001664,0.503999582744,0.5995060191841921,1546,-10.2,97,P-GPS,
0.364689503722212,36.9257813604305,21000,2018-04-03 07:42:10,1680.94011729007,52.500001680000004,0.0,0.49220701575062403,1680.94011729007,52.500001680000004,0.503999582744,0.5995060191841921,1546,-10.5,97,P-GPS,
0.364689600387869,36.925781237082,21100,2018-04-03 07:42:10,1681.3401173028699,52.9000016928,0.503999582744,0.495503015856096,1681.3401173028699,52.9000016928,0.503999582744,0.5995060191841921,1546,-10.9,97,P-GPS,
0.364689712828873,36.9257810877827,21200,2018-04-03 07:42:10,1681.74011731567,53.3000017056,0.503999582744,0.5005860160187521,1681.74011731567,53.3000017056,0.503999582744,0.5995060191841921,1546,-11.5,97,P-GPS,
0.364689850206852,36.9257809644171,21300,2018-04-03 07:42:10,1682.0401173252699,53.6000017152,0.35999970196000003,0.502514016080448,1682.0401173252699,53.6000017152,0.503999582744,0.5995060191841921,1546,-12.0,97,P-GPS,
0.364689950612637,36.9257808833078,21400,2018-04-03 07:42:10,1682.44011733807,54.000001728,0.35999970196000003,0.503609016115488,1682.44011733807,54.000001728,0.503999582744,0.5995060191841921,1546,-12.6,97,P-GPS,
0.364690027410871,36.9257808324929,21500,2018-04-03 07:42:10,1682.84011735087,54.40000174080001,0.35999970196000003,0.503669016117408,1682.84011735087,54.40000174080001,0.503999582744,0.5995060191841921,1545,-13.2,97,P-GPS,
0.36469006633455,36.9257807921444,21600,2018-04-03 07:42:10,1683.14011736047,54.700001750400006,0.0,0.5051560161649921,1683.14011736047,54.700001750400006,0.503999582744,0.5995060191841921,1546,-13.9,97,P-GPS,
0.364690104792901,36.9257807634335,21700,2018-04-03 07:42:11,1683.54011737327,55.1000017632,0.0,0.505636016180352,1683.54011737327,55.1000017632,0.503999582744,0.5995060191841921,1547,-14.5,97,P-GPS,
0.364690120739235,36.9257807455359,21800,2018-04-03 07:42:11,1683.84011738287,55.4000017728,0.0,0.506423016205536,1683.84011738287,55.4000017728,0.503999582744,0.5995060191841921,1546,-15.1,97,P-GPS,
0.36469014969073,36.9257807407931,21900,2018-04-03 07:42:11,1684.1401173924698,55.7000017824,0.0,0.5052260161672321,1684.1401173924698,55.7000017824,0.503999582744,0.5995060191841921,1545,-15.7,97,P-GPS,
0.364690157771884,36.9257807307892,22000,2018-04-03 07:42:11,1684.54011740527,56.10000179520001,0.0,0.505727016183264,1684.54011740527,56.10000179520001,0.503999582744,0.5995060191841921,1545,-16.3,97,P-GPS,
0.364690183638088,36.9257807234447,22100,2018-04-03 07:42:11,1684.8401174148698,56.400001804800006,0.0,0.5049790161593279,1684.8401174148698,56.400001804800006,0.503999582744,0.5995060191841921,1544,-16.3,97,P-GPS,
0.364690203323737,36.9257807215154,22200,2018-04-03 07:42:11,1685.24011742767,56.8000018176,0.0,0.504068016130176,1685.24011742767,56.8000018176,0.503999582744,0.5995060191841921,1546,-16.9,97,P-GPS,
0.364690239553155,36.925780730999,22300,2018-04-03 07:42:11,1685.5401174372698,57.100001827199996,0.0,0.5011520160368641,1685.5401174372698,57.100001827199996,0.503999582744,0.5995060191841921,1545,-17.6,97,P-GPS,
0.364690263548481,36.9257807383595,22400,2018-04-03 07:42:11,1685.84011744687,57.4000018368,0.0,0.49912601597203204,1685.84011744687,57.4000018368,0.503999582744,0.5995060191841921,1545,-18.2,97,P-GPS,
0.364690293129166,36.9257807562057,22500,2018-04-03 07:42:11,1686.24011745967,57.8000018496,0.0,0.49578601586515203,1686.24011745967,57.8000018496,0.503999582744,0.5995060191841921,1545,-18.8,97,P-GPS,
0.36469029495852,36.925780744339,22600,2018-04-03 07:42:12,1686.54011746927,58.100001859200006,0.0,0.49684001589888,1686.54011746927,58.100001859200006,0.503999582744,0.5995060191841921,1545,-19.5,97,P-GPS,
0.364690286494275,36.9257807238151,22700,2018-04-03 07:42:12,1686.94011748207,58.500001872,0.0,0.499292015977344,1686.94011748207,58.500001872,0.503999582744,0.5995060191841921,1541,-20.1,97,P-GPS,
0.364690247957351,36.9257806916365,22800,2018-04-03 07:42:12,1687.3401174948701,58.900001884800005,0.0,0.50450501614416,1687.3401174948701,58.900001884800005,0.503999582744,0.5995060191841921,1541,-20.4,97,P-GPS,
0.36469021528649,36.9257806806198,22900,2018-04-03 07:42:12,1687.6401175044698,59.2000018944,0.0,0.5073560162353921,1687.6401175044698,59.2000018944,0.503999582744,0.5995060191841921,1540,-20.4,97,P-GPS,
0.364690183323188,36.9257806900359,23000,2018-04-03 07:42:12,1688.04011751727,59.6000019072,0.0,0.508211016262752,1688.04011751727,59.6000019072,0.503999582744,0.5995060191841921,1540,-20.4,97,P-GPS,
0.364690136551223,36.9257807534382,23100,2018-04-03 07:42:12,1688.3401175268698,59.9000019168,0.35999970196000003,0.50476501615248,1688.3401175268698,59.9000019168,0.503999582744,0.5995060191841921,1541,-20.4,97,P-GPS,
0.364690029245516,36.9257808246517,23200,2018-04-03 07:42:12,1688.7401175396699,60.30000192960001,0.35999970196000003,0.50429501613744,1688.7401175396699,60.30000192960001,0.503999582744,0.5995060191841921,1544,-20.4,97,P-GPS,
0.364689902055287,36.9257808846761,23300,2018-04-03 07:42:12,1689.04011754927,60.600001939200006,0.35999970196000003,0.506503016208096,1689.04011754927,60.600001939200006,0.503999582744,0.5995060191841921,1544,-20.4,97,P-GPS,
0.364689765062029,36.9257809225515,23400,2018-04-03 07:42:12,1689.4401175620699,61.000001952,0.0,0.511816016378112,1689.4401175620699,61.000001952,0.503999582744,0.5995060191841921,1545,-20.4,97,P-GPS,
0.364689639995901,36.9257809559538,23500,2018-04-03 07:42:12,1689.74011757167,61.3000019616,0.0,0.517144016548608,1689.74011757167,61.3000019616,0.503999582744,0.5995060191841921,1545,-20.4,97,P-GPS,
0.364689529434528,36.9257809765558,23600,2018-04-03 07:42:12,1690.1401175844699,61.7000019744,0.0,0.52291501673328,1690.1401175844699,61.7000019744,0.503999582744,0.5995060191841921,1547,-20.4,97,P-GPS,
0.36468947412911,36.925780999647,23700,2018-04-03 07:42:13,1690.44011759407,62.000001984,0.0,0.5247890167932481,1690.44011759407,62.000001984,0.503999582744,0.5995060191841921,1549,-20.4,97,P-GPS,
0.364689446123333,36.9257810025954,23800,2018-04-03 07:42:13,1690.7401176036701,62.300001993600006,0.0,0.526516016848512,1690.7401176036701,62.300001993600006,0.503999582744,0.5995060191841921,1541,-20.4,97,P-GPS,
0.364689430124278,36.9257810039605,23900,2018-04-03 07:42:13,1691.14011761647,62.7000020064,0.0,0.527536016881152,1691.14011761647,62.7000020064,0.503999582744,0.5995060191841921,1546,-20.4,97,P-GPS,
0.364689383285547,36.9257809994285,24000,2018-04-03 07:42:13,1691.54011762927,63.100002019200005,0.0,0.53127001700064,1691.54011762927,63.100002019200005,0.503999582744,0.5995060191841921,1549,-20.4,97,P-GPS,
0.364689341500895,36.9257810235015,24100,2018-04-03 07:42:13,1691.8401176388697,63.4000020288,0.0,0.532249017031968,1691.8401176388697,63.4000020288,0.503999582744,0.5995060191841921,1553,-20.4,97,P-GPS,
0.364689273281102,36.9257810457726,24200,2018-04-03 07:42:13,1692.2401176516698,63.8000020416,0.0,0.535376017132032,1692.2401176516698,63.8000020416,0.503999582744,0.5995060191841921,1556,-20.4,97,P-GPS,
0.364689213420111,36.9257810592367,24300,2018-04-03 07:42:13,1692.6401176644702,64.2000020544,0.0,0.538703017238496,1692.6401176644702,64.2000020544,0.503999582744,0.5995060191841921,1558,-20.4,97,P-GPS,
0.364689162535714,36.9257810380791,24400,2018-04-03 07:42:13,1692.9401176740698,64.500002064,0.0,0.544252017416064,1692.9401176740698,64.500002064,0.503999582744,0.5995060191841921,1564,-20.4,97,P-GPS,
0.364689140509177,36.9257809895521,24500,2018-04-03 07:42:13,1693.34011768687,64.9000020768,0.0,0.54989001759648,1693.34011768687,64.9000020768,0.503999582744,0.5995060191841921,1573,-20.4,97,P-GPS,
0.364689110177576,36.9257809267033,24600,2018-04-03 07:42:14,1693.7401176996698,65.3000020896,0.0,0.5573350178347201,1693.7401176996698,65.3000020896,0.503999582744,0.5995060191841921,1574,-20.4,97,P-GPS,
0.364689091310627,36.9257808680001,24700,2018-04-03 07:42:14,1694.1401177124699,65.7000021024,0.0,0.563596018035072,1694.1401177124699,65.7000021024,0.503999582744,0.5995060191841921,1583,-20.4,96,P-GPS,
0.364689060464641,36.9257807887633,24800,2018-04-03 07:42:14,1694.64011772847,66.20000211840001,0.0,0.5724630183188161,1694.64011772847,66.20000211840001,0.503999582744,0.5995060191841921,1580,-20.4,96,P-GPS,
0.364689019266433,36.9257807031382,24900,2018-04-03 07:42:14,1695.04011774127,66.6000021312,0.0,0.582642018644544,1695.04011774127,66.6000021312,0.503999582744,0.5995060191841921,1581,-20.4,96,P-GPS,
0.364688971618263,36.9257806429768,25000,2018-04-03 07:42:14,1695.44011775407,67.000002144,0.0,0.591167018917344,1695.44011775407,67.000002144,0.503999582744,0.5995060191841921,1586,-20.4,96,P-GPS,
0.364688935003616,36.9257806116182,25100,2018-04-03 07:42:14,1695.84011776687,67.4000021568,0.0,0.596472019087104,1695.84011776687,67.4000021568,0.503999582744,0.5995060191841921,1588,-20.4,96,P-GPS,
0.36468888846401,36.925780619968,25200,2018-04-03 07:42:14,1696.2401177796698,67.8000021696,0.0,0.599196019174272,1696.2401177796698,67.8000021696,0.503999582744,0.5995060191841921,1594,-20.4,96,P-GPS,
0.36468886013397,36.9257806477806,25300,2018-04-03 07:42:14,1696.64011779247,68.2000021824,0.0,0.598992019167744,1696.64011779247,68.2000021824,0.503999582744,0.5995060191841921,1594,-20.4,96,P-GPS,
0.364688824718468,36.9257806812975,25400,2018-04-03 07:42:14,1696.94011780207,68.500002192,0.0,0.598884019164288,1696.94011780207,68.500002192,0.503999582744,0.5995060191841921,1594,-20.4,96,P-GPS,
0.364688797896367,36.9257807277561,25500,2018-04-03 07:42:14,1697.34011781487,68.9000022048,0.0,0.5971210191078721,1697.34011781487,68.9000022048,0.503999582744,0.5995060191841921,1592,-20.4,96,P-GPS,
0.364688778062021,36.9257807752467,25600,2018-04-03 07:42:14,1697.84011783087,69.4000022208,0.0,0.594794019033408,1697.84011783087,69.4000022208,0.503999582744,0.5995060191841921,1595,-20.4,96,P-GPS,
0.36468878554238,36.9257808090934,25700,2018-04-03 07:42:15,1698.1401178404699,69.7000022304,0.0,0.5914970189279041,1698.1401178404699,69.7000022304,0.503999582744,0.5995060191841921,1592,-20.4,96,P-GPS,
0.364688781163698,36.9257808326867,25800,2018-04-03 07:42:15,1698.54011785327,70.10000224320001,0.0,0.589944018878208,1698.54011785327,70.10000224320001,0.503999582744,0.5995060191841921,1576,-20.4,96,P-GPS,
0.36468877791597,36.9257808528144,25900,2018-04-03 07:42:15,1698.9401178660698,70.500002256,0.0,0.588587018834784,1698.9401178660698,70.500002256,0.503999582744,0.5995060191841921,1577,-20.4,96,P-GPS,
0.364688772696196,36.9257808722033,26000,2018-04-03 07:42:15,1699.34011787887,70.90000226880001,0.0,0.587448018798336,1699.34011787887,70.90000226880001,0.503999582744,0.5995060191841921,1565,-20.4,96,P-GPS,
0.364688784518089,36.9257809137606,26100,2018-04-03 07:42:15,1699.74011789167,71.3000022816,0.0,0.583229018663328,1699.74011789167,71.3000022816,0.503999582744,0.5995060191841921,1540,-20.4,96,P-GPS,
0.364688783429168,36.9257809421149,26200,2018-04-03 07:42:15,1700.14011790447,71.70000229440001,0.0,0.581073018594336,1700.14011790447,71.70000229440001,0.503999582744,0.5995060191841921,1492,-20.4,96,P-GPS,
0.364688769670445,36.9257809672692,26300,2018-04-03 07:42:15,1700.54011791727,72.1000023072,0.0,0.5801750185656,1700.54011791727,72.1000023072,0.503999582744,0.5995060191841921,1457,-20.4,96,P-GPS,
0.364688698511819,36.9257810007294,26400,2018-04-03 07:42:15,1700.8401179268699,72.4000023168,0.0,0.583213018662816,1700.8401179268699,72.4000023168,0.503999582744,0.5995060191841921,1437,-20.4,96,P-GPS,
0.364688606629818,36.9257810668103,26500,2018-04-03 07:42:15,1701.24011793967,72.8000023296,0.35999970196000003,0.585572018738304,1701.24011793967,72.8000023296,0.503999582744,0.5995060191841921,1441,-20.4,96,P-GPS,
0.364688514326762,36.9257811578945,26600,2018-04-03 07:42:16,1701.54011794927,73.1000023392,0.35999970196000003,0.586381018764192,1701.54011794927,73.1000023392,0.503999582744,0.5995060191841921,1416,-20.4,96,P-GPS,
0.364688446168544,36.9257812559528,26700,2018-04-03 07:42:16,1701.7401179556698,73.3000023456,0.35999970196000003,0.58499001871968,1701.7401179556698,73.3000023456,0.503999582744,0.5995060191841921,1430,-20.4,96,P-GPS,
0.364688360336315,36.9257813287155,26800,2018-04-03 07:42:16,1702.04011796527,73.6000023552,0.0,0.587194018790208,1702.04011796527,73.6000023552,0.503999582744,0.5995060191841921,1428,-20.4,96,P-GPS,
0.364688268836184,36.9257814043249,26900,2018-04-03 07:42:16,1702.24011797167,73.80000236160001,0.35999970196000003,0.5899600188787201,1702.24011797167,73.80000236160001,0.503999582744,0.5995060191841921,1422,-20.4,96,P-GPS,
0.364688179626663,36.9257814974487,27000,2018-04-03 07:42:16,1702.5401179812698,74.1000023712,0.35999970196000003,0.591646018932672,1702.5401179812698,74.1000023712,0.503999582744,0.5995060191841921,1400,-20.4,96,P-GPS,
0.364688104002233,36.9257816109325,27100,2018-04-03 07:42:16,1702.74011798767,74.30000237760001,0.35999970196000003,0.591139018916448,1702.74011798767,74.30000237760001,0.503999582744,0.5995060191841921,1348,-20.4,96,P-GPS,
0.364688024576251,36.925781733205,27200,2018-04-03 07:42:16,1702.9401179940699,74.50000238400001,0.35999970196000003,0.5908370189067841,1702.9401179940699,74.50000238400001,0.503999582744,0.5995060191841921,1303,-20.4,96,P-GPS,
0.364687982885336,36.9257818787378,27300,2018-04-03 07:42:16,1703.14011800047,74.7000023904,0.35999970196000003,0.586051018753632,1703.14011800047,74.7000023904,0.503999582744,0.5995060191841921,1095,-20.4,96,P-GPS,
0.364687973430183,36.9257820282309,27400,2018-04-03 07:42:16,1703.3401180068697,74.9000023968,0.35999970196000003,0.578392018508544,1703.3401180068697,74.9000023968,0.503999582744,0.5995060191841921,1024,-20.4,96,P-GPS,
0.364687995844188,36.9257821795912,27500,2018-04-03 07:42:16,1703.44011801007,75.0000024,0.35999970196000003,0.567913018173216,1703.44011801007,75.0000024,0.503999582744,0.5995060191841921,1024,-20.4,96,P-GPS,
0.364688030202423,36.9257823309,27600,2018-04-03 07:42:16,1703.5401180132699,75.10000240320001,0.35999970196000003,0.55658001781056,1703.5401180132699,75.10000240320001,0.503999582744,0.5995060191841921,1024,-20.4,96,P-GPS,
0.364688100764173,36.9257824912717,27700,2018-04-03 07:42:17,1703.6401180164698,75.2000024064,0.35999970196000003,0.541502017328064,1703.6401180164698,75.2000024064,0.503999582744,0.5995060191841921,1024,-20.4,96,P-GPS,
0.364688178822873,36.9257826245181,27800,2018-04-03 07:42:17,1703.6401180164698,75.2000024064,0.35999970196000003,0.527238016871616,1703.6401180164698,75.2000024064,0.503999582744,0.5995060191841921,1024,-20.4,96,P-GPS,
0.364688242929879,36.9257827348489,27900,2018-04-03 07:42:17,1703.6401180164698,75.2000024064,0.0,0.51561501649968,1703.6401180164698,75.2000024064,0.503999582744,0.5995060191841921,1024,-20.4,96,P-GPS,
0.364688285827063,36.9257828085687,28000,2018-04-03 07:42:17,1703.6401180164698,75.2000024064,0.0,0.5079150162532801,1703.6401180164698,75.2000024064,0.503999582744,0.5995060191841921,1024,-20.4,96,P-GPS,
0.364688324538637,36.9257828749001,28100,2018-04-03 07:42:17,1703.6401180164698,75.2000024064,0.0,0.501027016032864,1703.6401180164698,75.2000024064,0.503999582744,0.5995060191841921,1024,-20.4,96,P-GPS,
0.364688492463884,36.9257830185562,28300,2018-04-03 07:42:17,1703.5401180132699,75.10000240320001,0.35999970196000003,0.47762701528406404,1703.6401180164698,75.2000024064,0.503999582744,0.5995060191841921,1024,-20.4,96,P-GPS,
0.364688612923041,36.9257831138951,28400,2018-04-03 07:42:17,1703.5401180132699,75.10000240320001,0.35999970196000003,0.461233014759456,1703.6401180164698,75.2000024064,0.503999582744,0.5995060191841921,1024,-20.4,96,P-GPS,
0.36468873524921,36.9257832359042,28500,2018-04-03 07:42:17,1703.44011801007,75.0000024,0.35999970196000003,0.4436380141964161,1703.6401180164698,75.2000024064,0.503999582744,0.5995060191841921,1024,-20.4,96,P-GPS,
0.364688847267634,36.9257833678948,28600,2018-04-03 07:42:18,1703.44011801007,75.0000024,0.503999582744,0.426891013660512,1703.6401180164698,75.2000024064,0.503999582744,0.5995060191841921,1024,-20.4,96,P-GPS,
0.364688955889937,36.9257834837939,28700,2018-04-03 07:42:18,1703.44011801007,75.0000024,0.35999970196000003,0.41128201316102403,1703.6401180164698,75.2000024064,0.503999582744,0.5995060191841921,1024,-20.4,96,P-GPS,
0.364689058121107,36.9257835987262,28800,2018-04-03 07:42:18,1703.44011801007,75.0000024,0.35999970196000003,0.396557012689824,1703.6401180164698,75.2000024064,0.503999582744,0.5995060191841921,1024,-20.4,96,P-GPS,
0.364689172468205,36.9257837237856,28900,2018-04-03 07:42:18,1703.44011801007,75.0000024,0.35999970196000003,0.38042801217369604,1703.6401180164698,75.2000024064,0.503999582744,0.5995060191841921,1024,-20.4,96,P-GPS,
0.364689297983172,36.9257838056153,29000,2018-04-03 07:42:18,1703.44011801007,75.0000024,0.35999970196000003,0.364562011665984,1703.6401180164698,75.2000024064,0.503999582744,0.5995060191841921,1024,-20.4,96,P-GPS,
0.36468943862557,36.925783853986,29100,2018-04-03 07:42:18,1703.44011801007,75.0000024,0.35999970196000003,0.34806701113814403,1703.6401180164698,75.2000024064,0.503999582744,0.5995060191841921,1024,-20.4,96,P-GPS,
0.364689573639251,36.92578390465,29200,2018-04-03 07:42:18,1703.44011801007,75.0000024,0.35999970196000003,0.332118010627776,1703.6401180164698,75.2000024064,0.503999582744,0.5995060191841921,1024,-20.4,96,P-GPS,
0.364689686385589,36.925783975189,29300,2018-04-03 07:42:18,1703.44011801007,75.0000024,0.35999970196000003,0.31805101017763204,1703.6401180164698,75.2000024064,0.503999582744,0.5995060191841921,1024,-20.4,96,P-GPS,
