latitude,longitude,time_millisecond,datetime_utc,altitude_m,ascent_m,speed_kph,distance_m,max_altitude_m,max_ascent_m,max_speed_kph,max_distance_m,rc_throttle,gimbal_pitch_degrees,battery_percent,flycState,message
0.375914681878198,36.925440010113704,0,2018-04-17 06:40:58,1630.4994417759915,0.0,0.0,0.0,1630.4994417759915,0.0,0.0,0.0,364,0.0,99,Motors_Started,
0.37591467997149297,36.9254399950959,100,2018-04-17 06:40:58,1630.4994417759915,0.0,0.0,0.0016834500538704,1630.4994417759915,0.0,0.0,0.0016834500538704,364,0.0,99,Motors_Started,
0.375914681320863,36.9254399814853,200,2018-04-17 06:40:58,1630.4994417759915,0.0,0.0,0.0031841901018940803,1630.4994417759915,0.0,0.0,0.0031841901018940803,364,0.0,99,Motors_Started,
0.37591468288696794,36.925439970960795,300,2018-04-17 06:40:58,1630.4994417759915,0.0,0.0,0.0043554001393728,1630.4994417759915,0.0,0.0,0.0043554001393728,364,0.0,99,Motors_Started,
0.375914686016786,36.9254399631969,400,2018-04-17 06:40:58,1630.4994417759915,0.0,0.0,0.005237590167602879,1630.4994417759915,0.0,0.0,0.005237590167602879,364,0.0,99,Motors_Started,Setting new Return-To-Home altitude to 30m (98 ft). Setting new Maximum Flight Altitude to 150m (492 ft)
0.37591468882366397,36.9254399560558,500,2018-04-17 06:40:58,1630.4994417759915,0.0,0.0,0.0060608501939472,1630.4994417759915,0.0,0.0,0.0060608501939472,372,0.0,99,Motors_Started,
0.37591466003542,36.925439953487206,600,2018-04-17 06:40:59,1630.4994417759915,0.0,0.0,0.00674934021597888,1630.4994417759915,0.0,0.0,0.00674934021597888,442,0.0,99,Motors_Started,
0.375914633176068,36.92543994997121,700,2018-04-17 06:40:59,1630.4994417759915,0.0,0.0,0.00860599027539168,1630.4994417759915,0.0,0.0,0.00860599027539168,511,0.0,99,Motors_Started,
0.3759146081782321,36.9254399511473,800,2018-04-17 06:40:59,1630.4994417759915,0.0,0.0,0.010496200335878399,1630.4994417759915,0.0,0.0,0.010496200335878399,540,0.0,99,Motors_Started,
0.37591459118058396,36.925439950042204,900,2018-04-17 06:40:59,1630.4994417759915,0.0,0.0,0.0120977003871264,1630.4994417759915,0.0,0.0,0.0120977003871264,684,0.0,99,Motors_Started,
0.37591457890450797,36.92543995279421,1000,2018-04-17 06:40:59,1630.4994417759915,0.0,0.0,0.0131058004193856,1630.4994417759915,0.0,0.0,0.0131058004193856,821,0.0,99,Motors_Started,
0.3759145693945479,36.925439952863,1100,2018-04-17 06:40:59,1630.4994417759915,0.0,0.0,0.0140358004491456,1630.4994417759915,0.0,0.0,0.0140358004491456,972,0.0,99,Motors_Started,
0.37591456558704206,36.925439955683,1200,2018-04-17 06:40:59,1630.4994417759915,0.0,0.0,0.014278700456918402,1630.4994417759915,0.0,0.0,0.014278700456918402,1024,0.0,99,Motors_Started,
0.375914562003295,36.925439955794104,1300,2018-04-17 06:40:59,1630.4994417759915,0.0,0.0,0.014635500468336003,1630.4994417759915,0.0,0.0,0.014635500468336003,1024,0.0,99,Motors_Started,
0.37591456364904097,36.9254399580635,1400,2018-04-17 06:40:59,1630.4994417759915,0.0,0.0,0.014365500459696,1630.4994417759915,0.0,0.0,0.014635500468336003,1024,0.0,99,Motors_Started,
0.375914564110146,36.9254399585169,1500,2018-04-17 06:40:59,1630.4994417759915,0.0,0.0,0.014298300457545602,1630.4994417759915,0.0,0.0,0.014635500468336003,1024,0.0,99,Motors_Started,
0.37591456882067403,36.9254399934077,1600,2018-04-17 06:41:00,1630.4994417759915,0.0,0.0,0.0127092004066944,1630.4994417759915,0.0,0.0,0.014635500468336003,1024,0.0,99,Assisted_Takeoff,
0.375914570763052,36.925440022298005,1700,2018-04-17 06:41:00,1630.4994417759915,0.0,0.0,0.012430700397782402,1630.4994417759915,0.0,0.0,0.014635500468336003,1024,0.0,99,Assisted_Takeoff,
0.375914575561974,36.9254400169216,1800,2018-04-17 06:41:00,1630.4994417759915,0.0,0.0,0.0118472003791104,1630.4994417759915,0.0,0.0,0.014635500468336003,1024,0.0,99,Assisted_Takeoff,
0.37591457827944,36.9254400038934,1900,2018-04-17 06:41:00,1630.4994417759915,0.0,0.0,0.011541600369331202,1630.4994417759915,0.0,0.0,0.014635500468336003,1024,0.0,99,Assisted_Takeoff,
0.375914582340322,36.9254400238172,2000,2018-04-17 06:41:00,1630.4994417759915,0.0,0.0,0.011173600357555201,1630.4994417759915,0.0,0.0,0.014635500468336003,1024,0.0,99,Assisted_Takeoff,
0.375914584669353,36.925440042916605,2100,2018-04-17 06:41:00,1630.4994417759915,0.0,0.0,0.0114091003650912,1630.4994417759915,0.0,0.0,0.014635500468336003,1024,0.0,99,Assisted_Takeoff,
0.375914587595361,36.925440027387204,2200,2018-04-17 06:41:00,1630.4994417759915,0.0,0.0,0.0106593003410976,1630.4994417759915,0.0,0.0,0.014635500468336003,1024,0.0,99,Assisted_Takeoff,
0.37591458987345294,36.9254400085903,2300,2018-04-17 06:41:00,1630.4994417759915,0.0,0.0,0.010232900327452802,1630.4994417759915,0.0,0.0,0.014635500468336003,1024,0.0,99,Assisted_Takeoff,
0.37591459220278906,36.925440019642004,2400,2018-04-17 06:41:00,1630.4994417759915,0.0,0.0,0.010028600320915201,1630.4994417759915,0.0,0.0,0.014635500468336003,1024,0.0,99,Assisted_Takeoff,
0.37591459410216493,36.925440036896205,2500,2018-04-17 06:41:00,1630.4994417759915,0.0,0.0,0.010205500326576,1630.4994417759915,0.0,0.0,0.014635500468336003,1024,0.0,99,Assisted_Takeoff,
0.37591459637374297,36.925440056839705,2600,2018-04-17 06:41:01,1630.4994417759915,0.0,0.0,0.0108357003467424,1630.4994417759915,0.0,0.0,0.014635500468336003,1024,0.0,99,Assisted_Takeoff,
0.375914598673818,36.925440066980705,2700,2018-04-17 06:41:01,1630.4994417759915,0.0,0.0,0.0112074003586368,1630.4994417759915,0.0,0.0,0.014635500468336003,1024,0.0,99,Assisted_Takeoff,
0.375914600742349,36.9254400439045,2800,2018-04-17 06:41:01,1630.4994417759915,0.0,0.0,0.00977399031276768,1630.4994417759915,0.0,0.0,0.014635500468336003,1024,0.0,99,Assisted_Takeoff,
0.37591460263897797,36.9254400196755,2900,2018-04-17 06:41:01,1630.4994417759915,0.0,0.0,0.0088758002840256,1630.4994417759915,0.0,0.0,0.014635500468336003,1024,0.0,99,Assisted_Takeoff,
0.3759146033264871,36.9254400285153,3000,2018-04-17 06:41:01,1630.4994417759915,0.0,0.0,0.00897191028710112,1630.4994417759915,0.0,0.0,0.014635500468336003,1024,0.0,99,Assisted_Takeoff,
0.375914604550567,36.925440053859894,3200,2018-04-17 06:41:01,1630.4994417759915,0.0,0.0,0.00987996031615872,1630.4994417759915,0.0,0.0,0.014635500468336003,1024,0.0,99,Assisted_Takeoff,
0.375914605243878,36.9254400612298,3300,2018-04-17 06:41:01,1630.4994417759915,0.0,0.0,0.010244000327808,1630.4994417759915,0.0,0.0,0.014635500468336003,1024,0.0,99,Assisted_Takeoff,
0.37591463753551496,36.9254400685342,3400,2018-04-17 06:41:01,1630.4994417759915,0.0,0.0,0.00815609026099488,1630.4994417759915,0.0,0.0,0.014635500468336003,1024,0.0,99,Assisted_Takeoff,
0.375914668039884,36.9254400720677,3500,2018-04-17 06:41:01,1630.4994417759915,0.0,0.0,0.00705929022589728,1630.4994417759915,0.0,0.0,0.014635500468336003,1024,0.0,99,Assisted_Takeoff,
0.375914695008698,36.9254400748551,3600,2018-04-17 06:41:02,1630.4994417759915,0.0,0.0,0.00734607023507424,1630.4994417759915,0.0,0.0,0.014635500468336003,1024,0.0,99,Assisted_Takeoff,
0.375914714902177,36.9254400752735,3700,2018-04-17 06:41:02,1630.4994417759915,0.0,0.0,0.00812352025995264,1630.4994417759915,0.0,0.0,0.014635500468336003,1024,0.0,99,Assisted_Takeoff,
0.37591472792637,36.925440042515895,3800,2018-04-17 06:41:02,1630.4994417759915,0.0,0.0,0.00626149020036768,1630.4994417759915,0.0,0.0,0.014635500468336003,1024,0.0,99,Assisted_Takeoff,
0.375914738948595,36.9254400113798,3900,2018-04-17 06:41:02,1630.4994417759915,0.0,0.0,0.00634814020314048,1630.4994417759915,0.0,0.0,0.014635500468336003,1024,0.0,99,Assisted_Takeoff,
0.37591474250425205,36.925439984085,4000,2018-04-17 06:41:02,1630.4994417759915,0.0,0.0,0.007337060234785921,1630.4994417759915,0.0,0.0,0.014635500468336003,1024,0.0,99,Assisted_Takeoff,
0.375914746806906,36.925439963191295,4100,2018-04-17 06:41:02,1630.4994417759915,0.0,0.0,0.00890854028507328,1630.4994417759915,0.0,0.0,0.014635500468336003,1024,0.0,99,Assisted_Takeoff,
0.37591477549209995,36.9254399489349,4200,2018-04-17 06:41:02,1630.4994417759915,0.0,0.0,0.012436300397961599,1630.4994417759915,0.0,0.0,0.014635500468336003,1024,0.0,99,Assisted_Takeoff,
0.375914805765891,36.9254399368205,4300,2018-04-17 06:41:02,1630.4994417759915,0.0,0.0,0.0160074005122368,1630.4994417759915,0.0,0.0,0.0160074005122368,1024,0.0,99,Assisted_Takeoff,
0.375914828038883,36.9254399324821,4400,2018-04-17 06:41:02,1630.4994417759915,0.0,0.0,0.018404300588937602,1630.4994417759915,0.0,0.0,0.018404300588937602,1024,0.0,99,Assisted_Takeoff,
0.37591484492946103,36.9254399269213,4500,2018-04-17 06:41:02,1630.4994417759915,0.0,0.0,0.020356000651392002,1630.4994417759915,0.0,0.0,0.020356000651392002,1024,0.0,99,Assisted_Takeoff,
0.37591485205049296,36.925439895706205,4600,2018-04-17 06:41:03,1630.4994417759915,0.0,0.0,0.0228033007297056,1630.4994417759915,0.0,0.0,0.0228033007297056,1024,0.0,99,Assisted_Takeoff,
0.375914859963459,36.9254398634684,4700,2018-04-17 06:41:03,1630.4994417759915,0.0,0.0,0.0256542008209344,1630.4994417759915,0.0,0.0,0.0256542008209344,1024,0.0,99,Assisted_Takeoff,
0.37591485818189,36.9254398404109,4800,2018-04-17 06:41:03,1630.4994417759915,0.0,0.0,0.027212700870806402,1630.4994417759915,0.0,0.0,0.027212700870806402,1024,0.0,99,Assisted_Takeoff,
0.375914859425207,36.9254398207251,4900,2018-04-17 06:41:03,1630.4994417759915,0.0,0.0,0.028868500923792003,1630.4994417759915,0.0,0.0,0.028868500923792003,1024,0.0,99,Assisted_Takeoff,
0.375914853526729,36.9254398115796,5000,2018-04-17 06:41:03,1630.4994417759915,0.0,0.0,0.029185500933936,1630.4994417759915,0.0,0.0,0.029185500933936,1024,0.0,99,Assisted_Takeoff,
0.37591485060392604,36.92543980143861,5100,2018-04-17 06:41:03,1630.4994417759915,0.0,0.0,0.0298422009549504,1630.4994417759915,0.0,0.0,0.0298422009549504,1024,0.0,99,Assisted_Takeoff,
0.37591484146520004,36.925439801840604,5200,2018-04-17 06:41:03,1630.4994417759915,0.0,0.0,0.0291784009337088,1630.4994417759915,0.0,0.0,0.0298422009549504,1024,0.0,99,Assisted_Takeoff,
0.375914837333431,36.9254397971331,5300,2018-04-17 06:41:03,1630.4994417759915,0.0,0.0,0.0293224009383168,1630.4994417759915,0.0,0.0,0.0298422009549504,1024,0.0,99,Assisted_Takeoff,
0.375914860584456,36.9254398022627,5400,2018-04-17 06:41:03,1630.4994417759915,0.0,0.0,0.030482700975446402,1630.4994417759915,0.0,0.0,0.030482700975446402,1024,0.0,99,Assisted_Takeoff,
0.37591488635743203,36.9254398008187,5500,2018-04-17 06:41:03,1630.4994417759915,0.0,0.0,0.0325388010412416,1630.4994417759915,0.0,0.0,0.0325388010412416,1024,0.0,99,Assisted_Takeoff,
0.375914907511123,36.925439775265396,5600,2018-04-17 06:41:04,1630.4994417759915,0.0,0.0,0.0362166011589312,1630.4994417759915,0.0,0.0,0.0362166011589312,1024,0.0,99,Assisted_Takeoff,
0.375914922958288,36.9254397446188,5700,2018-04-17 06:41:04,1630.4994417759915,0.0,0.0,0.0398801012761632,1630.4994417759915,0.0,0.0,0.0398801012761632,1024,0.0,99,Assisted_Takeoff,
0.37591493890029704,36.9254397023048,5900,2018-04-17 06:41:04,1630.4994417759915,0.0,0.0,0.044593901427004805,1630.4994417759915,0.0,0.0,0.044593901427004805,1024,0.0,99,Assisted_Takeoff,
0.37591493974663,36.9254396931529,6000,2018-04-17 06:41:04,1630.4994417759915,0.0,0.0,0.0454391014540512,1630.4994417759915,0.0,0.0,0.0454391014540512,1024,0.0,99,Assisted_Takeoff,
0.37591494186828905,36.9254396811662,6100,2018-04-17 06:41:04,1630.4994417759915,0.0,0.0,0.0466266014920512,1630.4994417759915,0.0,0.0,0.0466266014920512,1024,-0.3,99,Assisted_Takeoff,
0.37591493757469296,36.925439681750206,6200,2018-04-17 06:41:04,1630.4994417759915,0.0,0.0,0.0462808014809856,1630.4994417759915,0.0,0.0,0.0466266014920512,1024,-0.3,99,Assisted_Takeoff,
0.37591493665044895,36.9254396746884,6300,2018-04-17 06:41:04,1630.4994417759915,0.0,0.0,0.0468406014988992,1630.4994417759915,0.0,0.0,0.0468406014988992,1024,-1.1,99,Assisted_Takeoff,
0.375914930745355,36.925439646792,6400,2018-04-17 06:41:04,1630.4994417759915,0.0,0.0,0.0489726015671232,1630.4994417759915,0.0,0.0,0.0489726015671232,1024,-2.2,99,Assisted_Takeoff,
0.375914928350117,36.9254396131891,6500,2018-04-17 06:41:04,1630.4994417759915,0.0,0.0,0.0519573016626336,1630.4994417759915,0.0,0.0,0.0519573016626336,1024,-3.8,99,Assisted_Takeoff,
0.3759148948255949,36.9254396504816,6600,2018-04-17 06:41:05,1630.4994417759915,0.0,0.0,0.0464778014872896,1630.4994417759915,0.0,0.0,0.0519573016626336,1024,-6.0,99,Assisted_Takeoff,
0.37591486166920296,36.925439691703794,6700,2018-04-17 06:41:05,1630.4994417759915,0.0,0.0,0.040663301301225606,1630.4994417759915,0.0,0.0,0.0519573016626336,1024,-8.1,99,Assisted_Takeoff,
0.37591479369041897,36.9254397795074,6800,2018-04-17 06:41:05,1630.4994417759915,0.0,0.0,0.028499800911993597,1630.4994417759915,0.0,0.0,0.0519573016626336,1024,-10.2,99,Assisted_Takeoff,
0.37591474376309,36.9254398329452,6900,2018-04-17 06:41:05,1630.4994417759915,0.0,0.0,0.020869200667814402,1630.4994417759915,0.0,0.0,0.0519573016626336,1024,-12.2,99,Assisted_Takeoff,
0.375914667714348,36.9254399206356,7000,2018-04-17 06:41:05,1630.4994417759915,0.0,0.0,0.010074200322374402,1630.4994417759915,0.0,0.0,0.0519573016626336,1024,-14.2,99,Assisted_Takeoff,
0.375914607227475,36.9254399823822,7100,2018-04-17 06:41:05,1630.4994417759915,0.0,0.0,0.0088559002833888,1630.4994417759915,0.0,0.0,0.0519573016626336,1024,-16.2,99,Assisted_Takeoff,
0.37591452806555503,36.925440070322104,7200,2018-04-17 06:41:05,1630.4994417759915,0.0,0.0,0.0183686005877952,1630.4994417759915,0.0,0.0,0.0519573016626336,1024,-18.1,99,Assisted_Takeoff,
0.375914463337731,36.9254401345051,7300,2018-04-17 06:41:05,1630.4994417759915,0.0,0.0,0.027964000894848,1630.4994417759915,0.0,0.0,0.0519573016626336,1024,-20.0,99,Assisted_Takeoff,
0.375914387884669,36.925440215517604,7400,2018-04-17 06:41:05,1630.4994417759915,0.0,0.0,0.03988270127624641,1630.4994417759915,0.0,0.0,0.0519573016626336,1024,-20.4,99,Assisted_Takeoff,
0.37591432354075,36.9254402782411,7500,2018-04-17 06:41:05,1630.4994417759915,0.0,0.0,0.049769501592624006,1630.4994417759915,0.0,0.0,0.0519573016626336,1024,-20.4,99,Assisted_Takeoff,
0.375914250968482,36.9254403562694,7600,2018-04-17 06:41:06,1630.4994417759915,0.0,0.0,0.061466101966915196,1630.4994417759915,0.0,0.0,0.061466101966915196,1024,-20.4,99,Assisted_Takeoff,
0.375914188941323,36.9254404150605,7700,2018-04-17 06:41:06,1630.4994417759915,0.0,0.0,0.0709423022701536,1630.4994417759915,0.0,0.0,0.0709423022701536,1024,-20.4,99,Assisted_Takeoff,
0.37591412292281395,36.9254404842314,7800,2018-04-17 06:41:06,1630.4994417759915,0.0,0.0,0.08150800260825601,1630.4994417759915,0.0,0.0,0.08150800260825601,1024,-20.4,99,Assisted_Takeoff,
0.375914002163129,36.9254406031594,8000,2018-04-17 06:41:06,1630.4994417759915,0.0,0.0,0.10031400321004799,1630.4994417759915,0.0,0.0,0.10031400321004799,1080,-20.4,99,Assisted_Takeoff,
0.37591394449347704,36.925440655156606,8100,2018-04-17 06:41:06,1630.4994417759915,0.0,0.0,0.108948003486336,1630.4994417759915,0.0,0.0,0.108948003486336,1191,-20.4,99,Assisted_Takeoff,
0.375913886801523,36.9254407146886,8200,2018-04-17 06:41:06,1630.4994417759915,0.0,0.0,0.118138003780416,1630.4994417759915,0.0,0.0,0.118138003780416,1269,-20.4,99,Assisted_Takeoff,
0.375913830924915,36.9254407637483,8300,2018-04-17 06:41:06,1630.4994417759915,0.0,0.0,0.12640700404502403,1630.4994417759915,0.0,0.0,0.12640700404502403,1286,-20.4,99,Assisted_Takeoff,
0.375913775790712,36.9254408194517,8400,2018-04-17 06:41:06,1630.4994417759915,0.0,0.0,0.13510500432336,1630.4994417759915,0.0,0.0,0.13510500432336,1286,-20.4,99,Assisted_Takeoff,
0.37591372227909997,36.925440867203896,8500,2018-04-17 06:41:06,1630.4994417759915,0.0,0.0,0.14308000457856,1630.4994417759915,0.0,0.0,0.14308000457856,1286,-20.4,99,Assisted_Takeoff,
0.375913672645069,36.925440927996796,8600,2018-04-17 06:41:07,1630.4994417759915,0.0,0.0,0.15170700485462402,1630.4994417759915,0.0,0.0,0.15170700485462402,1286,-20.4,99,Assisted_Takeoff,
0.37591362225798397,36.925441015840896,8700,2018-04-17 06:41:07,1630.4994417759915,0.0,0.0,0.162461005198752,1630.4994417759915,0.0,0.0,0.162461005198752,1286,-20.4,99,Assisted_Takeoff,
0.37591361698355497,36.9254411601959,8800,2018-04-17 06:41:07,1630.4994417759915,0.0,0.35999970196000003,0.174301005577632,1630.4994417759915,0.0,0.35999970196000003,0.174301005577632,1286,-20.4,99,P-GPS,
0.37591361940591705,36.925441342072794,8900,2018-04-17 06:41:07,1630.4994417759915,0.0,0.35999970196000003,0.189471006063072,1630.4994417759915,0.0,0.35999970196000003,0.189471006063072,1286,-20.4,99,P-GPS,
0.375913619411209,36.9254415998301,9000,2018-04-17 06:41:07,1630.4994417759915,0.0,0.35999970196000003,0.21263100680419197,1630.4994417759915,0.0,0.35999970196000003,0.21263100680419197,1285,-20.4,99,P-GPS,
0.37591361541510904,36.925441816787,9100,2018-04-17 06:41:07,1630.5994417791915,0.10000000320000002,0.35999970196000003,0.233302007465664,1630.5994417791915,0.10000000320000002,0.35999970196000003,0.233302007465664,1287,-20.4,99,P-GPS,
0.375913591076589,36.925442081606704,9200,2018-04-17 06:41:07,1630.6994417823917,0.20000000640000004,0.0,0.26034500833104,1630.6994417823917,0.20000000640000004,0.35999970196000003,0.26034500833104,1287,-20.4,99,P-GPS,
0.375913550849493,36.9254422767984,9300,2018-04-17 06:41:07,1630.7994417855916,0.3000000096,0.0,0.281702009014464,1630.7994417855916,0.3000000096,0.35999970196000003,0.281702009014464,1287,-20.4,99,P-GPS,
0.375913500069877,36.925442429225605,9400,2018-04-17 06:41:07,1630.8994417887916,0.4000000128000001,0.0,0.299401009580832,1630.8994417887916,0.4000000128000001,0.35999970196000003,0.299401009580832,1288,-20.4,99,P-GPS,
0.37591342915322706,36.9254425279981,9500,2018-04-17 06:41:07,1630.9994417919918,0.500000016,0.0,0.31274001000768004,1630.9994417919918,0.500000016,0.35999970196000003,0.31274001000768004,1286,-20.4,99,P-GPS,Home Point Recorded. RTH Altitude:  30m.
0.37591333924602,36.9254426698069,9600,2018-04-17 06:41:08,1631.0994417951918,0.6000000192,0.0,0.3313180106021761,1631.0994417951918,0.6000000192,0.35999970196000003,0.3313180106021761,1286,-20.4,99,P-GPS,
0.375913246541604,36.9254427826859,9700,2018-04-17 06:41:08,1631.1994417983915,0.7000000224000001,0.0,0.34718801111001607,1631.1994417983915,0.7000000224000001,0.35999970196000003,0.34718801111001607,1285,-20.4,99,P-GPS,
0.37591313926353,36.925443010554105,9800,2018-04-17 06:41:08,1631.3994418047916,0.9000000288000001,0.0,0.375177012005664,1631.3994418047916,0.9000000288000001,0.35999970196000003,0.375177012005664,1286,-20.4,99,P-GPS,
0.375913042730184,36.925443192245204,9900,2018-04-17 06:41:08,1631.4994418079916,1.000000032,0.0,0.39805501273776,1631.4994418079916,1.000000032,0.35999970196000003,0.39805501273776,1286,-20.4,99,P-GPS,
0.375912946099131,36.925443377450705,10000,2018-04-17 06:41:08,1631.5994418111916,1.1000000352,0.0,0.42128501348111996,1631.5994418111916,1.1000000352,0.35999970196000003,0.42128501348111996,1285,-20.4,99,P-GPS,
0.37591286113791494,36.925443519142796,10100,2018-04-17 06:41:08,1631.7994418175917,1.3000000416000002,0.0,0.439621014067872,1631.7994418175917,1.3000000416000002,0.35999970196000003,0.439621014067872,1284,-20.4,99,P-GPS,
0.375912836034739,36.9254435963486,10200,2018-04-17 06:41:08,1631.8994418207917,1.4000000448000003,0.0,0.44853001435296,1631.8994418207917,1.4000000448000003,0.35999970196000003,0.44853001435296,1284,-20.4,99,P-GPS,
0.37591282280505606,36.9254436504654,10300,2018-04-17 06:41:08,1631.9994418239917,1.5000000480000002,0.0,0.45455601454579203,1631.9994418239917,1.5000000480000002,0.35999970196000003,0.45455601454579203,1284,-20.4,99,P-GPS,
0.3759128017198621,36.9254436831467,10400,2018-04-17 06:41:08,1632.1994418303916,1.7000000544000002,0.0,0.4588590146834881,1632.1994418303916,1.7000000544000002,0.35999970196000003,0.4588590146834881,1284,-20.4,99,P-GPS,
0.375912778203705,36.9254437154881,10500,2018-04-17 06:41:08,1632.2994418335916,1.8000000576000001,0.0,0.46325301482409603,1632.2994418335916,1.8000000576000001,0.35999970196000003,0.46325301482409603,1284,-20.4,99,P-GPS,
0.37591275812142894,36.9254437658181,10600,2018-04-17 06:41:09,1632.3994418367915,1.9000000607999998,0.0,0.46925201501606395,1632.3994418367915,1.9000000607999998,0.35999970196000003,0.46925201501606395,1285,-20.4,99,P-GPS,
0.375912741669259,36.9254438218652,10700,2018-04-17 06:41:09,1632.5994418431917,2.1000000672,0.0,0.47563501522032003,1632.5994418431917,2.1000000672,0.35999970196000003,0.47563501522032003,1285,-20.4,99,P-GPS,
0.3759127328557129,36.9254438580512,10800,2018-04-17 06:41:09,1632.6994418463917,2.2000000704,0.0,0.47966701534934403,1632.6994418463917,2.2000000704,0.35999970196000003,0.47966701534934403,1286,-20.4,99,P-GPS,
0.375912719848211,36.925443897279294,10900,2018-04-17 06:41:09,1632.7994418495916,2.3000000736,0.0,0.484212015494784,1632.7994418495916,2.3000000736,0.35999970196000003,0.484212015494784,1285,-20.4,99,P-GPS,
0.37591269279904405,36.9254439729403,11000,2018-04-17 06:41:09,1632.9994418559918,2.50000008,0.0,0.49308001577856,1632.9994418559918,2.50000008,0.35999970196000003,0.49308001577856,1285,-20.4,99,P-GPS,
0.37591266589552097,36.9254440514897,11100,2018-04-17 06:41:09,1633.0994418591915,2.6000000832000003,0.0,0.502231016071392,1633.0994418591915,2.6000000832000003,0.35999970196000003,0.502231016071392,1286,-20.4,99,P-GPS,
0.37591264564928,36.9254441207558,11200,2018-04-17 06:41:09,1633.1994418623915,2.7000000863999998,0.0,0.51013001632416,1633.1994418623915,2.7000000863999998,0.35999970196000003,0.51013001632416,1289,-20.4,99,P-GPS,
0.375912621086543,36.925444180579,11300,2018-04-17 06:41:09,1633.2994418655917,2.8000000896000006,0.0,0.517304016553728,1633.2994418655917,2.8000000896000006,0.35999970196000003,0.517304016553728,1289,-20.4,99,P-GPS,
0.37591257518325105,36.925444267898506,11400,2018-04-17 06:41:09,1633.4994418719916,3.0000000960000004,0.0,0.5282710169046722,1633.4994418719916,3.0000000960000004,0.35999970196000003,0.5282710169046722,1287,-20.4,99,P-GPS,
0.37591252501720207,36.925444354114205,11500,2018-04-17 06:41:09,1633.5994418751916,3.1000000992,0.0,0.5393390172588479,1633.5994418751916,3.1000000992,0.35999970196000003,0.5393390172588479,1287,-20.4,99,P-GPS,
0.375912493983334,36.925444435070894,11600,2018-04-17 06:41:10,1633.6994418783918,3.2000001024000007,0.0,0.548938017566016,1633.6994418783918,3.2000001024000007,0.35999970196000003,0.548938017566016,1287,-20.4,99,P-GPS,
0.3759124688240779,36.9254445139844,11700,2018-04-17 06:41:10,1633.8994418847915,3.4000001088000005,0.0,0.5580460178574721,1633.8994418847915,3.4000001088000005,0.35999970196000003,0.5580460178574721,1286,-20.4,99,P-GPS,
0.37591246634304204,36.9254446142948,11800,2018-04-17 06:41:10,1633.9994418879915,3.500000112,0.0,0.568199018182368,1633.9994418879915,3.500000112,0.35999970196000003,0.568199018182368,1286,-20.4,99,P-GPS,
0.375912457136837,36.9254447159012,11900,2018-04-17 06:41:10,1634.0994418911916,3.6000001152000003,0.0,0.578838018522816,1634.0994418911916,3.6000001152000003,0.35999970196000003,0.578838018522816,1284,-20.4,99,P-GPS,
0.37591243247181394,36.9254448986062,12000,2018-04-17 06:41:10,1634.1994418943916,3.7000001184,0.0,0.5984100191491201,1634.1994418943916,3.7000001184,0.35999970196000003,0.5984100191491201,1284,-20.4,99,P-GPS,
0.37591239032412105,36.9254450701955,12100,2018-04-17 06:41:10,1634.3994419007915,3.9000001248,0.0,0.61771501976688,1634.3994419007915,3.9000001248,0.35999970196000003,0.61771501976688,1282,-20.4,99,P-GPS,
0.375912333205226,36.925445213599,12200,2018-04-17 06:41:10,1634.4994419039917,4.000000128,0.0,0.634863020315616,1634.4994419039917,4.000000128,0.35999970196000003,0.634863020315616,1282,-20.4,99,P-GPS,
0.375912278458161,36.92544533349329,12300,2018-04-17 06:41:10,1634.5994419071917,4.100000131200001,0.0,0.64952002078464,1634.5994419071917,4.100000131200001,0.35999970196000003,0.64952002078464,1282,-20.4,99,P-GPS,
0.375912220620308,36.9254454448841,12400,2018-04-17 06:41:10,1634.7994419135914,4.3000001376,0.0,0.6634560212305921,1634.7994419135914,4.3000001376,0.35999970196000003,0.6634560212305921,1281,-20.4,99,P-GPS,
0.37591216358446394,36.925445545320294,12500,2018-04-17 06:41:11,1634.8994419167916,4.4000001408,0.0,0.676248021639936,1634.8994419167916,4.4000001408,0.35999970196000003,0.676248021639936,1281,-20.4,99,P-GPS,
0.37591213418189007,36.9254456338447,12600,2018-04-17 06:41:11,1634.9994419199916,4.5000001439999995,0.0,0.6865640219700481,1634.9994419199916,4.5000001439999995,0.35999970196000003,0.6865640219700481,1281,-20.4,99,P-GPS,
0.375912102114978,36.925445719622005,12700,2018-04-17 06:41:11,1635.0994419231915,4.6000001472,0.0,0.696724022295168,1635.0994419231915,4.6000001472,0.35999970196000003,0.696724022295168,1280,-20.4,99,P-GPS,
0.37591206927089105,36.925445835500895,12800,2018-04-17 06:41:11,1635.1994419263915,4.700000150400001,0.0,0.709974022719168,1635.1994419263915,4.700000150400001,0.35999970196000003,0.709974022719168,1277,-20.4,99,P-GPS,
0.37591202597972495,36.925445946881,12900,2018-04-17 06:41:11,1635.3994419327917,4.9000001568,0.0,0.7232460231438721,1635.3994419327917,4.9000001568,0.35999970196000003,0.7232460231438721,1278,-20.4,99,P-GPS,
0.375911976527545,36.925446058123,13000,2018-04-17 06:41:11,1635.4994419359916,5.00000016,0.0,0.7367840235770879,1635.4994419359916,5.00000016,0.35999970196000003,0.7367840235770879,1278,-20.4,99,P-GPS,
0.37591191791414597,36.92544614954029,13100,2018-04-17 06:41:11,1635.5994419391918,5.1000001632,0.0,0.748727023959264,1635.5994419391918,5.1000001632,0.35999970196000003,0.748727023959264,1278,-20.4,99,P-GPS,
0.37591185576010205,36.9254462372157,13200,2018-04-17 06:41:11,1635.6994419423916,5.200000166400001,0.0,0.760458024334656,1635.6994419423916,5.200000166400001,0.35999970196000003,0.760458024334656,1279,-20.4,99,P-GPS,
0.37591179070295094,36.9254463127546,13300,2018-04-17 06:41:11,1635.8994419487915,5.4000001727999996,0.0,0.7711040246753279,1635.8994419487915,5.4000001727999996,0.35999970196000003,0.7711040246753279,1279,-20.4,99,P-GPS,
0.375911732498698,36.925446400802606,13400,2018-04-17 06:41:11,1635.9994419519917,5.500000176000001,0.0,0.7827040250465279,1635.9994419519917,5.500000176000001,0.35999970196000003,0.7827040250465279,1279,-20.4,99,P-GPS,
0.37591167083400207,36.925446476381104,13500,2018-04-17 06:41:11,1636.0994419551917,5.600000179200001,0.0,0.793214025382848,1636.0994419551917,5.600000179200001,0.35999970196000003,0.793214025382848,1279,-20.4,99,P-GPS,
0.37591162167127795,36.9254465680446,13600,2018-04-17 06:41:12,1636.1994419583916,5.7000001824,0.0,0.804762025752384,1636.1994419583916,5.7000001824,0.35999970196000003,0.804762025752384,1279,-20.4,99,P-GPS,
0.375911570754109,36.925446648933395,13700,2018-04-17 06:41:12,1636.3994419647918,5.9000001888,0.0,0.815309026089888,1636.3994419647918,5.9000001888,0.35999970196000003,0.815309026089888,1281,-20.4,99,P-GPS,
0.375911496408312,36.9254467822645,13800,2018-04-17 06:41:12,1636.4994419679917,6.000000192000001,0.0,0.8322440266318081,1636.4994419679917,6.000000192000001,0.35999970196000003,0.8322440266318081,1280,-20.4,99,P-GPS,
0.37591141724985294,36.9254468972944,13900,2018-04-17 06:41:12,1636.5994419711915,6.1000001952,0.0,0.84757002712224,1636.5994419711915,6.1000001952,0.35999970196000003,0.84757002712224,1280,-20.4,99,P-GPS,
0.375911348549261,36.9254470271898,14000,2018-04-17 06:41:12,1636.6994419743914,6.2000001984,0.0,0.8638950276446401,1636.6994419743914,6.2000001984,0.35999970196000003,0.8638950276446401,1281,-20.4,99,P-GPS,
0.37591128362991705,36.9254471307983,14100,2018-04-17 06:41:12,1636.8994419807916,6.400000204800001,0.0,0.8774020280768641,1636.8994419807916,6.400000204800001,0.35999970196000003,0.8774020280768641,1283,-20.4,99,P-GPS,
0.375911230386719,36.925447214482496,14200,2018-04-17 06:41:12,1636.9994419839916,6.500000208,0.0,0.8883520284272641,1636.9994419839916,6.500000208,0.35999970196000003,0.8883520284272641,1285,-20.4,99,P-GPS,
0.37591117576056504,36.925447281368605,14300,2018-04-17 06:41:12,1637.0994419871915,6.6000002112,0.0,0.897687028725984,1637.0994419871915,6.6000002112,0.35999970196000003,0.897687028725984,1285,-20.4,99,P-GPS,
0.37591113248018704,36.9254473599555,14400,2018-04-17 06:41:12,1637.1994419903917,6.7000002144,0.0,0.907649029044768,1637.1994419903917,6.7000002144,0.35999970196000003,0.907649029044768,1286,-20.4,99,P-GPS,
0.375911087211276,36.9254474286221,14500,2018-04-17 06:41:13,1637.3994419967914,6.9000002208,0.0,0.916716029334912,1637.3994419967914,6.9000002208,0.35999970196000003,0.916716029334912,1289,-20.4,99,P-GPS,
0.375911018887466,36.925447518070506,14600,2018-04-17 06:41:13,1637.4994419999914,7.000000224,0.0,0.928984029727488,1637.4994419999914,7.000000224,0.35999970196000003,0.928984029727488,1289,-20.4,99,P-GPS,
0.375910939441993,36.9254475939648,14700,2018-04-17 06:41:13,1637.5994420031916,7.100000227200002,0.0,0.9404520300944641,1637.5994420031916,7.100000227200002,0.35999970196000003,0.9404520300944641,1288,-20.4,99,P-GPS,
0.37591086201986296,36.92544763532079,14800,2018-04-17 06:41:13,1637.7994420095915,7.3000002336000005,0.0,0.9484030303488961,1637.7994420095915,7.3000002336000005,0.35999970196000003,0.9484030303488961,1287,-20.5,99,P-GPS,
0.375910788612661,36.9254476612042,14900,2018-04-17 06:41:13,1637.8994420127917,7.4000002368,0.0,0.954652030548864,1637.8994420127917,7.4000002368,0.35999970196000003,0.954652030548864,1287,-20.6,99,P-GPS,
0.375910758026208,36.925447750268205,15000,2018-04-17 06:41:13,1637.9994420159917,7.50000024,0.0,0.965023030880736,1637.9994420159917,7.50000024,0.35999970196000003,0.965023030880736,1288,-20.7,99,P-GPS,
0.375910722646837,36.9254478344192,15100,2018-04-17 06:41:13,1638.0994420191917,7.600000243199999,0.0,0.975149031204768,1638.0994420191917,7.600000243199999,0.35999970196000003,0.975149031204768,1287,-20.8,99,P-GPS,
0.3759106704134779,36.92544798336,15200,2018-04-17 06:41:13,1638.2994420255918,7.8000002496,0.0,0.9925530317616961,1638.2994420255918,7.8000002496,0.35999970196000003,0.9925530317616961,1287,-20.9,99,P-GPS,
0.375910613192399,36.9254481124225,15300,2018-04-17 06:41:13,1638.3994420287916,7.9000002528,0.0,1.00823003226336,1638.3994420287916,7.9000002528,0.35999970196000003,1.00823003226336,1287,-20.9,99,P-GPS,
0.37591056525833505,36.9254482349253,15400,2018-04-17 06:41:13,1638.4994420319915,8.000000256,0.0,1.0228000327296,1638.4994420319915,8.000000256,0.35999970196000003,1.0228000327296,1285,-21.0,99,P-GPS,
0.37591051435887607,36.9254483263812,15500,2018-04-17 06:41:13,1638.6994420383917,8.200000262400001,0.0,1.03443003310176,1638.6994420383917,8.200000262400001,0.35999970196000003,1.03443003310176,1285,-21.1,99,P-GPS,
0.37591046849700704,36.925448438218396,15600,2018-04-17 06:41:14,1638.7994420415916,8.3000002656,0.0,1.0478300335305601,1638.7994420415916,8.3000002656,0.35999970196000003,1.0478300335305601,1286,-21.2,99,P-GPS,
0.37591041819193,36.925448533658,15700,2018-04-17 06:41:14,1638.8994420447916,8.4000002688,0.0,1.05983003391456,1638.8994420447916,8.4000002688,0.35999970196000003,1.05983003391456,1286,-21.3,99,P-GPS,
0.375910400722389,36.9254486427674,15800,2018-04-17 06:41:14,1639.0994420511918,8.6000002752,0.0,1.0715500342896,1639.0994420511918,8.6000002752,0.35999970196000003,1.0715500342896,1284,-21.4,99,P-GPS,
0.375910378905311,36.9254487315263,15900,2018-04-17 06:41:14,1639.1994420543917,8.700000278400001,0.0,1.08148003460736,1639.1994420543917,8.700000278400001,0.35999970196000003,1.08148003460736,1285,-21.6,99,P-GPS,
0.37591036134172795,36.9254488036445,16000,2018-04-17 06:41:14,1639.2994420575915,8.8000002816,0.0,1.0895400348652802,1639.2994420575915,8.8000002816,0.35999970196000003,1.0895400348652802,1284,-21.7,99,P-GPS,
0.375910335304944,36.9254488572324,16100,2018-04-17 06:41:14,1639.3994420607914,8.9000002848,0.0,1.09616003507712,1639.3994420607914,8.9000002848,0.35999970196000003,1.09616003507712,1284,-21.8,99,P-GPS,
0.37591031057661495,36.9254489613719,16200,2018-04-17 06:41:14,1639.5994420671916,9.1000002912,0.0,1.1077700354486402,1639.5994420671916,9.1000002912,0.35999970196000003,1.1077700354486402,1284,-21.9,99,P-GPS,
0.37591027432338103,36.9254490485731,16300,2018-04-17 06:41:14,1639.6994420703916,9.2000002944,0.0,1.1182500357840002,1639.6994420703916,9.2000002944,0.35999970196000003,1.1182500357840002,1282,-22.0,99,P-GPS,
0.37591023066968204,36.9254491266504,16400,2018-04-17 06:41:15,1639.7994420735915,9.3000002976,0.0,1.12819003610208,1639.7994420735915,9.3000002976,0.35999970196000003,1.12819003610208,1284,-22.2,99,P-GPS,
0.375910174049092,36.92544921491471,16600,2018-04-17 06:41:15,1640.0994420831914,9.6000003072,0.0,1.13977003647264,1640.0994420831914,9.6000003072,0.35999970196000003,1.13977003647264,1284,-22.3,99,P-GPS,
0.375910160591631,36.9254492305362,16700,2018-04-17 06:41:15,1640.1994420863916,9.7000003104,0.0,1.1419900365436801,1640.1994420863916,9.7000003104,0.35999970196000003,1.1419900365436801,1289,-22.4,99,P-GPS,
0.3759101421397321,36.9254492772367,16800,2018-04-17 06:41:15,1640.2994420895916,9.8000003136,0.0,1.1475500367216,1640.2994420895916,9.8000003136,0.35999970196000003,1.1475500367216,1302,-22.5,99,P-GPS,
0.37591011504405203,36.9254493111958,16900,2018-04-17 06:41:15,1640.4994420959915,10.00000032,0.0,1.15227003687264,1640.4994420959915,10.00000032,0.35999970196000003,1.15227003687264,1317,-22.5,99,P-GPS,
0.375910079224798,36.925449362360894,17000,2018-04-17 06:41:15,1640.5994420991917,10.100000323200002,0.0,1.1591300370921602,1640.5994420991917,10.100000323200002,0.35999970196000003,1.1591300370921602,1331,-22.6,99,P-GPS,
0.375910039742359,36.9254493904101,17100,2018-04-17 06:41:15,1640.7994421055917,10.300000329600001,0.0,1.16387003724384,1640.7994421055917,10.300000329600001,0.35999970196000003,1.16387003724384,1337,-22.8,99,P-GPS,
0.37591000262157104,36.9254494465001,17200,2018-04-17 06:41:15,1640.8994421087916,10.400000332800001,0.0,1.1713000374816,1640.8994421087916,10.400000332800001,0.35999970196000003,1.1713000374816,1354,-22.9,99,P-GPS,
0.375909948415963,36.925449483201,17300,2018-04-17 06:41:15,1641.0994421151916,10.6000003392,0.0,1.17764003768448,1641.0994421151916,10.6000003392,0.35999970196000003,1.17764003768448,1362,-23.0,99,P-GPS,
0.37590987540182597,36.9254495459995,17400,2018-04-17 06:41:15,1641.1994421183915,10.700000342400001,0.0,1.18752003800064,1641.1994421183915,10.700000342400001,0.35999970196000003,1.18752003800064,1366,-23.1,99,P-GPS,
0.375909803600474,36.9254495901423,17500,2018-04-17 06:41:15,1641.3994421247917,10.9000003488,0.0,1.19551003825632,1641.3994421247917,10.9000003488,0.35999970196000003,1.19551003825632,1373,-23.2,99,P-GPS,
0.37590975149311495,36.925449666733606,17600,2018-04-17 06:41:16,1641.5994421311916,11.1000003552,0.0,1.20573003858336,1641.5994421311916,11.1000003552,0.35999970196000003,1.20573003858336,1382,-23.3,99,P-GPS,
0.37590966910036294,36.9254498433511,17800,2018-04-17 06:41:16,1641.9994421439915,11.500000367999998,0.0,1.22739003927648,1641.9994421439915,11.500000367999998,0.35999970196000003,1.22739003927648,1389,-23.5,99,P-GPS,
0.37590962972377295,36.92544993512271,17900,2018-04-17 06:41:16,1642.1994421503916,11.700000374400002,0.0,1.2384700396310402,1642.1994421503916,11.700000374400002,0.35999970196000003,1.2384700396310402,1389,-23.5,99,P-GPS,
0.37590959327024,36.925450032309605,18000,2018-04-17 06:41:16,1642.3994421567916,11.900000380800002,0.0,1.24994003999808,1642.3994421567916,11.900000380800002,0.35999970196000003,1.24994003999808,1390,-23.6,99,P-GPS,
0.37590955981507895,36.925450098134704,18100,2018-04-17 06:41:16,1642.5994421631917,12.1000003872,0.0,1.2581500402608001,1642.5994421631917,12.1000003872,0.35999970196000003,1.2581500402608001,1394,-23.7,99,P-GPS,
0.37590953708078007,36.9254501918249,18200,2018-04-17 06:41:16,1642.7994421695914,12.300000393600001,0.0,1.26859004059488,1642.7994421695914,12.300000393600001,0.35999970196000003,1.26859004059488,1396,-23.8,99,P-GPS,
0.3759095181085929,36.925450257308505,18300,2018-04-17 06:41:16,1642.9994421759916,12.500000400000001,0.0,1.27604004083328,1642.9994421759916,12.500000400000001,0.35999970196000003,1.27604004083328,1395,-23.9,99,P-GPS,
0.37590949418145797,36.925450330215796,18400,2018-04-17 06:41:16,1643.1994421823915,12.700000406400001,0.0,1.28448004110336,1643.1994421823915,12.700000406400001,0.35999970196000003,1.28448004110336,1397,-24.0,99,P-GPS,
0.37590947082957105,36.925450374328705,18500,2018-04-17 06:41:16,1643.3994421887917,12.900000412799999,0.0,1.29003004128096,1643.3994421887917,12.900000412799999,0.35999970196000003,1.29003004128096,1402,-24.0,99,P-GPS,
0.375909432317685,36.9254504564701,18600,2018-04-17 06:41:17,1643.5994421951914,13.100000419199999,0.0,1.30011004160352,1643.5994421951914,13.100000419199999,0.35999970196000003,1.30011004160352,1408,-24.1,99,P-GPS,
0.375909400125383,36.925450518032,18700,2018-04-17 06:41:17,1643.7994422015915,13.3000004256,0.0,1.3078400418508802,1643.7994422015915,13.3000004256,0.35999970196000003,1.3078400418508802,1410,-24.2,99,P-GPS,
0.375909385004873,36.925450563264704,18800,2018-04-17 06:41:17,1644.0994422111917,13.600000435200002,0.0,1.3130800420185602,1644.0994422111917,13.600000435200002,0.35999970196000003,1.3130800420185602,1414,-24.3,99,P-GPS,
0.375909380676876,36.9254505853988,18900,2018-04-17 06:41:17,1644.2994422175916,13.8000004416,0.0,1.3155000420960001,1644.2994422175916,13.8000004416,0.35999970196000003,1.3155000420960001,1416,-24.4,99,P-GPS,
0.37590939121372297,36.9254506608531,19000,2018-04-17 06:41:17,1644.5994422271915,14.100000451200001,0.0,1.32249004231968,1644.5994422271915,14.100000451200001,0.35999970196000003,1.32249004231968,1417,-24.5,99,P-GPS,
0.375909403815437,36.9254507266728,19100,2018-04-17 06:41:17,1644.7994422335917,14.300000457600001,0.0,1.3284200425094401,1644.7994422335917,14.300000457600001,0.35999970196000003,1.3284200425094401,1417,-24.6,99,P-GPS,
0.375909420275749,36.925450809596896,19200,2018-04-17 06:41:17,1644.9994422399916,14.500000464,0.0,1.3359000427488004,1644.9994422399916,14.500000464,0.35999970196000003,1.3359000427488004,1424,-24.7,99,P-GPS,
0.375909433988468,36.9254508657339,19300,2018-04-17 06:41:17,1645.2994422495917,14.8000004736,0.0,1.3408500429072001,1645.2994422495917,14.8000004736,0.35999970196000003,1.3408500429072001,1433,-24.7,99,P-GPS,
0.37590947705836997,36.925450931709996,19400,2018-04-17 06:41:17,1645.4994422559914,15.00000048,0.0,1.34539004305248,1645.4994422559914,15.00000048,0.35999970196000003,1.34539004305248,1441,-24.8,99,P-GPS,
0.375909519723195,36.9254509739953,19500,2018-04-17 06:41:17,1645.7994422655916,15.3000004896,0.0,1.34761004312352,1645.7994422655916,15.3000004896,0.35999970196000003,1.34761004312352,1457,-24.8,99,P-GPS,
0.375909551260456,36.9254510641268,19600,2018-04-17 06:41:18,1645.9994422719917,15.500000496,0.0,1.35521004336672,1645.9994422719917,15.500000496,0.35999970196000003,1.35521004336672,1480,-24.9,99,P-GPS,
0.37590956878088505,36.9254511466386,19700,2018-04-17 06:41:18,1646.2994422815914,15.8000005056,0.0,1.3627200436070401,1646.2994422815914,15.8000005056,0.35999970196000003,1.3627200436070401,1498,-24.9,99,P-GPS,
0.37590959948886,36.925451277743896,19800,2018-04-17 06:41:18,1646.4994422879915,16.000000512,0.0,1.37458004398656,1646.4994422879915,16.000000512,0.35999970196000003,1.37458004398656,1512,-24.9,99,P-GPS,
0.37590962783599896,36.9254513871241,19900,2018-04-17 06:41:18,1646.7994422975917,16.3000005216,0.0,1.38439004430048,1646.7994422975917,16.3000005216,0.35999970196000003,1.38439004430048,1524,-24.9,99,P-GPS,
0.37590964883804107,36.925451496188394,20000,2018-04-17 06:41:18,1647.0994423071918,16.6000005312,0.0,1.3945400446252803,1647.0994423071918,16.6000005312,0.35999970196000003,1.3945400446252803,1533,-24.9,99,P-GPS,
0.37590966223932104,36.9254515700646,20100,2018-04-17 06:41:18,1647.4994423199917,17.000000544000002,0.0,1.4014800448473599,1647.4994423199917,17.000000544000002,0.35999970196000003,1.4014800448473599,1522,-24.9,99,P-GPS,
0.375909697268373,36.9254517008851,20200,2018-04-17 06:41:18,1647.7994423295916,17.3000005536,0.0,1.4133000452256,1647.7994423295916,17.3000005536,0.35999970196000003,1.4133000452256,1521,-24.9,99,P-GPS,
0.37590973095803,36.9254518106732,20300,2018-04-17 06:41:18,1648.0994423391915,17.6000005632,0.0,1.42309004553888,1648.0994423391915,17.6000005632,0.35999970196000003,1.42309004553888,1515,-24.9,99,P-GPS,
0.37590978138320497,36.9254519495587,20400,2018-04-17 06:41:18,1648.4994423519915,18.000000575999998,0.0,1.4352000459264,1648.4994423519915,18.000000575999998,0.35999970196000003,1.4352000459264,1510,-24.9,99,P-GPS,
0.37590982853520793,36.92545207906979,20500,2018-04-17 06:41:19,1648.7994423615917,18.3000005856,0.0,1.44657004629024,1648.7994423615917,18.3000005856,0.35999970196000003,1.44657004629024,1501,-24.9,99,P-GPS,
0.375909864305202,36.9254522442327,20600,2018-04-17 06:41:19,1649.1994423743915,18.7000005984,0.0,1.46216004678912,1649.1994423743915,18.7000005984,0.35999970196000003,1.46216004678912,1501,-24.9,99,P-GPS,
0.375909876597104,36.9254523689838,20700,2018-04-17 06:41:19,1649.4994423839917,19.000000608,0.0,1.47459004718688,1649.4994423839917,19.000000608,0.35999970196000003,1.47459004718688,1502,-24.9,99,P-GPS,
0.37590989757960497,36.9254525418466,20800,2018-04-17 06:41:19,1649.7994423935918,19.300000617600002,0.0,1.49168004773376,1649.7994423935918,19.300000617600002,0.35999970196000003,1.49168004773376,1502,-24.9,99,P-GPS,
0.375909911520307,36.9254526722399,20900,2018-04-17 06:41:19,1650.1994424063917,19.7000006304,0.0,1.50469004815008,1650.1994424063917,19.7000006304,0.35999970196000003,1.50469004815008,1495,-24.9,99,P-GPS,
0.375909918172501,36.9254528056556,21000,2018-04-17 06:41:19,1650.4994424159916,20.00000064,0.0,1.5183300485865603,1650.4994424159916,20.00000064,0.35999970196000003,1.5183300485865603,1483,-24.9,99,P-GPS,
0.3759099104801379,36.9254529047075,21100,2018-04-17 06:41:19,1650.7994424255915,20.3000006496,0.0,1.5289500489264003,1650.7994424255915,20.3000006496,0.35999970196000003,1.5289500489264003,1483,-24.9,99,P-GPS,
0.375909926397364,36.925453043461296,21200,2018-04-17 06:41:19,1651.0994424351916,20.600000659200003,0.0,1.5428200493702402,1651.0994424351916,20.600000659200003,0.35999970196000003,1.5428200493702402,1484,-24.9,99,P-GPS,
0.375909941323682,36.9254531559217,21300,2018-04-17 06:41:19,1651.3994424447917,20.900000668800004,0.0,1.55401004972832,1651.3994424447917,20.900000668800004,0.35999970196000003,1.55401004972832,1484,-24.9,99,P-GPS,
0.37590996664842896,36.925453308631,21400,2018-04-17 06:41:19,1651.6994424543918,21.2000006784,0.0,1.5690600502099201,1651.6994424543918,21.2000006784,0.35999970196000003,1.5690600502099201,1482,-24.9,99,P-GPS,
0.375909978904505,36.925453423903896,21500,2018-04-17 06:41:19,1651.9994424639915,21.500000688,0.0,1.58069005058208,1651.9994424639915,21.500000688,0.35999970196000003,1.58069005058208,1485,-24.9,99,P-GPS,
0.375909996798255,36.9254535738789,21600,2018-04-17 06:41:20,1652.2994424735916,21.8000006976,0.0,1.59579005106528,1652.2994424735916,21.8000006976,0.35999970196000003,1.59579005106528,1491,-24.9,99,P-GPS,
0.375910013228848,36.925453686226895,21700,2018-04-17 06:41:20,1652.5994424831915,22.1000007072,0.0,1.60701005142432,1652.5994424831915,22.1000007072,0.35999970196000003,1.60701005142432,1494,-24.9,99,P-GPS,
0.375910025341622,36.9254538406899,21800,2018-04-17 06:41:20,1652.8994424927916,22.400000716800005,0.0,1.6228500519312001,1652.8994424927916,22.400000716800005,0.35999970196000003,1.6228500519312001,1496,-24.9,99,P-GPS,
0.375910024199675,36.925453963485,21900,2018-04-17 06:41:20,1653.1994425023915,22.700000726400003,0.0,1.63583005234656,1653.1994425023915,22.700000726400003,0.35999970196000003,1.63583005234656,1496,-24.9,99,P-GPS,
0.375910019535812,36.9254540813906,22000,2018-04-17 06:41:20,1653.5994425151916,23.100000739200006,0.0,1.6484400527500802,1653.5994425151916,23.100000739200006,0.35999970196000003,1.6484400527500802,1499,-24.9,99,P-GPS,
0.375910013837886,36.9254541497809,22100,2018-04-17 06:41:20,1653.8994425247915,23.400000748800004,0.0,1.65586005298752,1653.8994425247915,23.400000748800004,0.35999970196000003,1.65586005298752,1510,-24.9,99,P-GPS,
0.37590998408295706,36.9254542297907,22200,2018-04-17 06:41:20,1654.1994425343917,23.700000758399998,0.0,1.6653500532912,1654.1994425343917,23.700000758399998,0.35999970196000003,1.6653500532912,1517,-24.9,99,P-GPS,
0.375909957870301,36.9254542755738,22300,2018-04-17 06:41:20,1654.4994425439916,24.000000768000003,0.0,1.67109005347488,1654.4994425439916,24.000000768000003,0.35999970196000003,1.67109005347488,1520,-24.9,99,P-GPS,
0.37590996475169897,36.925454351294704,22400,2018-04-17 06:41:20,1654.7994425535917,24.3000007776,0.0,1.6788500537232,1654.7994425535917,24.3000007776,0.35999970196000003,1.6788500537232,1522,-24.9,99,P-GPS,
0.37590997213262106,36.9254544032059,22500,2018-04-17 06:41:20,1655.1994425663918,24.7000007904,0.0,1.68408005389056,1655.1994425663918,24.7000007904,0.35999970196000003,1.68408005389056,1526,-24.9,99,P-GPS,
0.375909947285415,36.9254544955525,22600,2018-04-17 06:41:21,1655.4994425759917,25.000000800000002,0.0,1.6947000542304,1655.4994425759917,25.000000800000002,0.35999970196000003,1.6947000542304,1532,-24.9,99,P-GPS,
0.37590991072847607,36.9254545713655,22700,2018-04-17 06:41:21,1655.8994425887918,25.400000812800002,0.0,1.7039800545273602,1655.8994425887918,25.400000812800002,0.35999970196000003,1.7039800545273602,1536,-24.9,99,P-GPS,
0.375909880918587,36.9254546748208,22800,2018-04-17 06:41:21,1656.1994425983914,25.7000008224,0.0,1.7159400549100803,1656.1994425983914,25.7000008224,0.35999970196000003,1.7159400549100803,1540,-24.9,99,P-GPS,
0.375909854768627,36.92545475127079,22900,2018-04-17 06:41:21,1656.4994426079916,26.000000832,0.0,1.72493005519776,1656.4994426079916,26.000000832,0.35999970196000003,1.72493005519776,1542,-24.9,99,P-GPS,
0.375909838704027,36.92545487105,23000,2018-04-17 06:41:21,1656.8994426207917,26.4000008448,0.0,1.73814005562048,1656.8994426207917,26.4000008448,0.35999970196000003,1.73814005562048,1547,-24.9,99,P-GPS,
0.375909821053729,36.92545494659421,23100,2018-04-17 06:41:21,1657.2994426335915,26.8000008576,0.0,1.7467400558956798,1657.2994426335915,26.8000008576,0.35999970196000003,1.7467400558956798,1547,-24.9,99,P-GPS,
0.375909818613913,36.9254550353767,23200,2018-04-17 06:41:21,1657.5994426431917,27.100000867200002,0.0,1.75621005619872,1657.5994426431917,27.100000867200002,0.35999970196000003,1.75621005619872,1547,-24.9,99,P-GPS,
0.375909808353087,36.9254550834648,23300,2018-04-17 06:41:21,1657.9994426559915,27.50000088,0.0,1.7616500563728001,1657.9994426559915,27.50000088,0.35999970196000003,1.7616500563728001,1549,-24.9,99,P-GPS,
0.37590980188450107,36.925455106787204,23400,2018-04-17 06:41:21,1658.2994426655916,27.8000008896,0.0,1.76434005645888,1658.2994426655916,27.8000008896,0.35999970196000003,1.76434005645888,1551,-24.9,99,P-GPS,
0.37590977907610706,36.925455093702105,23500,2018-04-17 06:41:21,1658.6994426783917,28.200000902400003,0.0,1.7637400564396801,1658.6994426783917,28.200000902400003,0.35999970196000003,1.76434005645888,1551,-24.9,99,P-GPS,
0.37590974124491,36.925455103849394,23600,2018-04-17 06:41:22,1658.9994426879916,28.500000912,0.35999970196000003,1.7661200565158404,1658.9994426879916,28.500000912,0.35999970196000003,1.7661200565158404,1552,-24.9,99,P-GPS,
0.375909690735463,36.9254550976784,23700,2018-04-17 06:41:22,1659.3994427007917,28.9000009248,0.35999970196000003,1.76722005655104,1659.3994427007917,28.9000009248,0.35999970196000003,1.76722005655104,1553,-25.0,99,P-GPS,
0.375909634231713,36.9254550998389,23800,2018-04-17 06:41:22,1659.7994427135916,29.300000937600004,0.35999970196000003,1.76943005662176,1659.7994427135916,29.300000937600004,0.35999970196000003,1.76943005662176,1553,-25.0,99,P-GPS,
0.37590957848193296,36.9254550762402,23900,2018-04-17 06:41:22,1660.0994427231917,29.6000009472,0.35999970196000003,1.76892005660544,1660.0994427231917,29.6000009472,0.35999970196000003,1.76943005662176,1553,-24.9,99,P-GPS,
0.37590952312297904,36.925455095323,24000,2018-04-17 06:41:22,1660.4994427359918,30.00000096,0.35999970196000003,1.7729100567331202,1660.4994427359918,30.00000096,0.35999970196000003,1.7729100567331202,1554,-25.0,99,P-GPS,
0.375909470425717,36.925455098963106,24100,2018-04-17 06:41:22,1660.8994427487917,30.400000972799997,0.35999970196000003,1.7752000568064,1660.8994427487917,30.400000972799997,0.35999970196000003,1.7752000568064,1554,-25.0,99,P-GPS,
0.375909418579724,36.9254551259107,24200,2018-04-17 06:41:22,1661.1994427583916,30.700000982400002,0.35999970196000003,1.7799200569574398,1661.1994427583916,30.700000982400002,0.35999970196000003,1.7799200569574398,1553,-25.0,99,P-GPS,
0.375909367760465,36.9254551288849,24300,2018-04-17 06:41:22,1661.5994427711914,31.100000995200002,0.35999970196000003,1.7821000570271999,1661.5994427711914,31.100000995200002,0.35999970196000003,1.7821000570271999,1553,-25.0,99,P-GPS,
0.37590932249460796,36.9254551288164,24400,2018-04-17 06:41:22,1661.9994427839915,31.500001007999998,0.35999970196000003,1.78377005708064,1661.9994427839915,31.500001007999998,0.35999970196000003,1.78377005708064,1553,-25.0,99,P-GPS,
0.375909278635318,36.925455108451,24500,2018-04-17 06:41:22,1662.2994427935917,31.800001017600003,0.35999970196000003,1.78327005706464,1662.2994427935917,31.800001017600003,0.35999970196000003,1.78377005708064,1554,-25.0,99,P-GPS,
0.37590923419671,36.9254551141403,24600,2018-04-17 06:41:23,1662.6994428063915,32.2000010304,0.0,1.78554005713728,1662.6994428063915,32.2000010304,0.35999970196000003,1.78554005713728,1554,-25.0,99,P-GPS,
0.37590919097455,36.925455112814795,24700,2018-04-17 06:41:23,1663.0994428191916,32.6000010432,0.0,1.7870400571852803,1663.0994428191916,32.6000010432,0.35999970196000003,1.7870400571852803,1554,-25.0,99,P-GPS,
0.37590911819409495,36.925455128347394,24800,2018-04-17 06:41:23,1663.4994428319915,33.000001056,0.0,1.79144005732608,1663.4994428319915,33.000001056,0.35999970196000003,1.79144005732608,1554,-25.0,99,P-GPS,
0.375909035878286,36.925455126694395,24900,2018-04-17 06:41:23,1663.7994428415916,33.3000010656,0.0,1.7944500574224,1663.7994428415916,33.3000010656,0.35999970196000003,1.7944500574224,1554,-25.0,99,P-GPS,
0.375908948028211,36.9254551678491,25000,2018-04-17 06:41:23,1664.1994428543915,33.70000107840001,0.0,1.80217005766944,1664.1994428543915,33.70000107840001,0.35999970196000003,1.80217005766944,1555,-25.0,99,P-GPS,
0.37590888558023294,36.9254551943021,25100,2018-04-17 06:41:23,1664.5994428671916,34.1000010912,0.0,1.8073900578364799,1664.5994428671916,34.1000010912,0.35999970196000003,1.8073900578364799,1553,-25.0,99,P-GPS,
0.37590884128615,36.9254552303264,25200,2018-04-17 06:41:23,1664.9994428799914,34.500001104,0.0,1.81289005801248,1664.9994428799914,34.500001104,0.35999970196000003,1.81289005801248,1554,-25.0,99,P-GPS,
0.375908751590233,36.9254553107602,25400,2018-04-17 06:41:23,1665.6994429023916,35.2000011264,0.0,1.82482005839424,1665.6994429023916,35.2000011264,0.35999970196000003,1.82482005839424,1553,-25.0,99,P-GPS,
0.375908704007914,36.9254553540112,25500,2018-04-17 06:41:23,1666.0994429151915,35.6000011392,0.0,1.8312200585990401,1666.0994429151915,35.6000011392,0.35999970196000003,1.8312200585990401,1553,-25.0,99,P-GPS,
0.375908654071271,36.925455397917396,25600,2018-04-17 06:41:24,1666.3994429247916,35.9000011488,0.0,1.8377900588092801,1666.3994429247916,35.9000011488,0.35999970196000003,1.8377900588092801,1551,-25.0,99,P-GPS,
0.37590860574841706,36.925455426004206,25700,2018-04-17 06:41:24,1666.7994429375917,36.3000011616,0.0,1.84266005896512,1666.7994429375917,36.3000011616,0.35999970196000003,1.84266005896512,1550,-25.0,99,P-GPS,
0.375908555208436,36.925455479715204,25800,2018-04-17 06:41:24,1667.1994429503916,36.7000011744,0.0,1.85028005920896,1667.1994429503916,36.7000011744,0.35999970196000003,1.85028005920896,1550,-25.0,99,P-GPS,
0.37590851968637295,36.9254555187265,25900,2018-04-17 06:41:24,1667.5994429631917,37.1000011872,0.0,1.85577005938464,1667.5994429631917,37.1000011872,0.35999970196000003,1.85577005938464,1551,-25.0,99,P-GPS,
0.375908494850159,36.925455578916996,26000,2018-04-17 06:41:24,1667.8994429727916,37.4000011968,0.0,1.8630100596163202,1667.8994429727916,37.4000011968,0.35999970196000003,1.8630100596163202,1551,-25.0,99,P-GPS,
0.37590847213336603,36.9254556170697,26100,2018-04-17 06:41:24,1668.2994429855917,37.800001209600005,0.0,1.8678900597724801,1668.2994429855917,37.800001209600005,0.35999970196000003,1.8678900597724801,1551,-25.0,99,P-GPS,
0.37590842985611,36.925455673536504,26200,2018-04-17 06:41:24,1668.6994429983915,38.2000012224,0.0,1.8754600600147202,1668.6994429983915,38.2000012224,0.35999970196000003,1.8754600600147202,1550,-25.0,99,P-GPS,
0.3759083688204,36.925455694704794,26300,2018-04-17 06:41:24,1668.9994430079917,38.500001232,0.0,1.8801700601654399,1668.9994430079917,38.500001232,0.35999970196000003,1.8801700601654399,1550,-25.0,99,P-GPS,
0.375908306326012,36.9254557110725,26400,2018-04-17 06:41:24,1669.3994430207918,38.9000012448,0.0,1.8844700603030402,1669.3994430207918,38.9000012448,0.35999970196000003,1.8844700603030402,1549,-25.0,98,P-GPS,
0.37590825466118394,36.9254557000965,26500,2018-04-17 06:41:24,1669.7994430335916,39.3000012576,0.0,1.8855100603363202,1669.7994430335916,39.3000012576,0.35999970196000003,1.8855100603363202,1550,-25.0,98,P-GPS,
0.37590821904548494,36.9254556956877,26600,2018-04-17 06:41:25,1670.0994430431917,39.60000126719999,0.0,1.88656006036992,1670.0994430431917,39.60000126719999,0.35999970196000003,1.88656006036992,1551,-25.0,98,P-GPS,
0.375908194670121,36.9254556740654,26700,2018-04-17 06:41:25,1670.4994430559916,40.00000128,0.0,1.8853700603318402,1670.4994430559916,40.00000128,0.35999970196000003,1.88656006036992,1550,-25.0,98,P-GPS,
0.37590815239001507,36.925455712278,26800,2018-04-17 06:41:25,1670.8994430687917,40.400001292800006,0.0,1.8911000605152,1670.8994430687917,40.400001292800006,0.35999970196000003,1.8911000605152,1550,-25.0,98,P-GPS,
0.37590810911248795,36.9254557434267,26900,2018-04-17 06:41:25,1671.1994430783918,40.7000013024,0.0,1.8961500606768,1671.1994430783918,40.7000013024,0.35999970196000003,1.8961500606768,1550,-25.0,98,P-GPS,
0.37590808729378106,36.9254558012704,27000,2018-04-17 06:41:25,1671.5994430911917,41.100001315200004,0.0,1.9030200608966399,1671.5994430911917,41.100001315200004,0.35999970196000003,1.9030200608966399,1550,-25.0,98,P-GPS,
0.375908084011245,36.9254558301986,27100,2018-04-17 06:41:25,1671.9994431039918,41.500001328,0.0,1.90613006099616,1671.9994431039918,41.500001328,0.35999970196000003,1.90613006099616,1551,-25.0,98,P-GPS,
0.375908067638055,36.925455888875106,27200,2018-04-17 06:41:25,1672.2994431135915,41.80000133760001,0.0,1.9128500612112,1672.2994431135915,41.80000133760001,0.35999970196000003,1.9128500612112,1550,-25.0,98,P-GPS,
0.375908050525551,36.9254559179211,27300,2018-04-17 06:41:25,1672.6994431263915,42.2000013504,0.0,1.91656006132992,1672.6994431263915,42.2000013504,0.35999970196000003,1.91656006132992,1551,-25.0,98,P-GPS,
0.37590802318071903,36.9254559685616,27400,2018-04-17 06:41:25,1673.0994431391914,42.60000136320001,0.0,1.9229300615337601,1673.0994431391914,42.60000136320001,0.35999970196000003,1.9229300615337601,1551,-25.0,98,P-GPS,
0.37590797328641706,36.92545599218379,27500,2018-04-17 06:41:25,1673.4994431519917,43.000001376,0.0,1.92750006168,1673.4994431519917,43.000001376,0.35999970196000003,1.92750006168,1550,-25.0,98,P-GPS,
0.375907884719012,36.9254559967939,27600,2018-04-17 06:41:26,1673.7994431615916,43.300001385600005,0.0,1.9318000618176003,1673.7994431615916,43.300001385600005,0.35999970196000003,1.9318000618176003,1550,-25.0,98,P-GPS,
0.37590779081478903,36.925455975026004,27700,2018-04-17 06:41:26,1674.1994431743915,43.700001398400005,0.0,1.9336900618780803,1674.1994431743915,43.700001398400005,0.35999970196000003,1.9336900618780803,1550,-25.0,98,P-GPS,
0.37590770559546394,36.9254559948197,27800,2018-04-17 06:41:26,1674.5994431871916,44.100001411200004,0.0,1.93948006206336,1674.5994431871916,44.100001411200004,0.35999970196000003,1.93948006206336,1549,-25.0,98,P-GPS,
0.37590763886101497,36.9254560168638,27900,2018-04-17 06:41:26,1674.8994431967915,44.4000014208,0.0,1.9447100622307198,1674.8994431967915,44.4000014208,0.35999970196000003,1.9447100622307198,1550,-25.0,98,P-GPS,
0.375907595414536,36.925456061712204,28000,2018-04-17 06:41:26,1675.2994432095916,44.80000143360001,0.0,1.9512200624390403,1675.2994432095916,44.80000143360001,0.35999970196000003,1.9512200624390403,1549,-25.0,98,P-GPS,
0.37590757267413,36.9254560764761,28100,2018-04-17 06:41:26,1675.5994432191917,45.10000144320001,0.0,1.95374006251968,1675.5994432191917,45.10000144320001,0.35999970196000003,1.95374006251968,1549,-25.0,98,P-GPS,
0.375907553568818,36.9254561497089,28200,2018-04-17 06:41:26,1675.9994432319916,45.50000145600001,0.0,1.9620500627856003,1675.9994432319916,45.50000145600001,0.35999970196000003,1.9620500627856003,1549,-25.0,98,P-GPS,
0.37590752675689504,36.9254562220616,28300,2018-04-17 06:41:26,1676.3994432447917,45.9000014688,0.0,1.9706100630595202,1676.3994432447917,45.9000014688,0.35999970196000003,1.9706100630595202,1548,-25.0,98,P-GPS,
0.375907496734087,36.9254563207644,28400,2018-04-17 06:41:26,1676.6994432543916,46.20000147840001,0.0,1.982000063424,1676.6994432543916,46.20000147840001,0.35999970196000003,1.982000063424,1549,-25.0,98,P-GPS,
0.3759074774317329,36.9254563724027,28500,2018-04-17 06:41:26,1677.0994432671916,46.600001491200004,0.0,1.9881200636198404,1677.0994432671916,46.600001491200004,0.35999970196000003,1.9881200636198404,1549,-25.0,98,P-GPS,
0.375907486098719,36.925456431317,28600,2018-04-17 06:41:27,1677.4994432799917,47.000001504000004,0.0,1.9937400637996798,1677.4994432799917,47.000001504000004,0.35999970196000003,1.9937400637996798,1549,-25.0,98,P-GPS,
0.375907502751595,36.925456451813,28700,2018-04-17 06:41:27,1677.7994432895916,47.30000151360001,0.0,1.9950800638425603,1677.7994432895916,47.30000151360001,0.35999970196000003,1.9950800638425603,1547,-25.0,98,P-GPS,
0.37590749745223107,36.9254565212857,28800,2018-04-17 06:41:27,1678.1994433023917,47.700001526399994,0.0,2.0024000640768005,1678.1994433023917,47.700001526399994,0.35999970196000003,2.0024000640768005,1548,-25.0,98,P-GPS,
0.375907485525507,36.9254565738469,28900,2018-04-17 06:41:27,1678.5994433151916,48.1000015392,0.0,2.0082900642652803,1678.5994433151916,48.1000015392,0.35999970196000003,2.0082900642652803,1545,-25.0,98,P-GPS,
0.37590747507008204,36.9254566887483,29000,2018-04-17 06:41:27,1678.8994433247917,48.4000015488,0.0,2.02047006465504,1678.8994433247917,48.4000015488,0.35999970196000003,2.02047006465504,1541,-25.0,98,P-GPS,
0.375907475867206,36.92545677261229,29100,2018-04-17 06:41:27,1679.2994433375918,48.8000015616,0.0,2.0290000649280002,1679.2994433375918,48.8000015616,0.35999970196000003,2.0290000649280002,1539,-25.0,98,P-GPS,
0.375907480872228,36.9254568840898,29200,2018-04-17 06:41:27,1679.5994433471915,49.1000015712,0.0,2.0401800652857602,1679.5994433471915,49.1000015712,0.35999970196000003,2.0401800652857602,1537,-25.0,98,P-GPS,
0.375907484909955,36.9254569450233,29300,2018-04-17 06:41:27,1679.9994433599916,49.500001584,0.0,2.04624006547968,1679.9994433599916,49.500001584,0.35999970196000003,2.04624006547968,1535,-25.0,98,P-GPS,
0.375907484275676,36.925457047753795,29400,2018-04-17 06:41:27,1680.3994433727917,49.900001596799996,0.0,2.05678006581696,1680.3994433727917,49.900001596799996,0.35999970196000003,2.05678006581696,1535,-25.0,98,P-GPS,
0.375907489522523,36.9254571164664,29500,2018-04-17 06:41:27,1680.6994433823916,50.200001606399994,0.0,2.0636000660352,1680.6994433823916,50.200001606399994,0.35999970196000003,2.0636000660352,1535,-25.0,98,P-GPS,
0.375907521610605,36.9254572230619,29600,2018-04-17 06:41:28,1681.0994433951914,50.6000016192,0.0,2.0731600663411203,1681.0994433951914,50.6000016192,0.35999970196000003,2.0731600663411203,1529,-25.0,98,P-GPS,
