latitude,longitude,time_millisecond,datetime_utc,altitude_m,ascent_m,speed_kph,distance_m,max_altitude_m,max_ascent_m,max_speed_kph,max_distance_m,rc_throttle,gimbal_pitch_degrees,battery_percent,flycState,message
0.353883705281573,36.897190488209,0,2018-04-15 06:49:38,1769.5913652269146,0.0,0.0,0.0,1769.5913652269146,0.0,0.0,0.0,364,0.0,99,Motors_Started,
0.353883741498015,36.8971902487372,100,2018-04-15 06:49:38,1769.5913652269146,0.0,0.0,0.026933000861856002,1769.5913652269146,0.0,0.0,0.026933000861856002,364,0.0,99,Motors_Started,
0.353883780051121,36.8971900234918,200,2018-04-15 06:49:38,1769.5913652269146,0.0,0.0,0.052343001674976,1769.5913652269146,0.0,0.0,0.052343001674976,364,0.0,99,Motors_Started,
0.353883805285031,36.8971898234487,300,2018-04-15 06:49:39,1769.5913652269146,0.0,0.0,0.0747558023921856,1769.5913652269146,0.0,0.0,0.0747558023921856,364,0.0,99,Motors_Started,
0.353883820010236,36.8971896428739,400,2018-04-15 06:49:39,1769.5913652269146,0.0,0.0,0.09486650303572801,1769.5913652269146,0.0,0.0,0.09486650303572801,364,0.0,99,Motors_Started,
0.353883846432096,36.897189450454,500,2018-04-15 06:49:39,1769.5913652269146,0.0,0.0,0.11646500372688001,1769.5913652269146,0.0,0.0,0.11646500372688001,364,0.0,99,Motors_Started,
0.353883883558075,36.8971892390766,600,2018-04-15 06:49:39,1769.5913652269146,0.0,0.0,0.140316004490112,1769.5913652269146,0.0,0.0,0.140316004490112,364,0.0,99,Motors_Started,
0.353883934187875,36.8971890602495,700,2018-04-15 06:49:39,1769.5913652269146,0.0,0.0,0.16082200514630401,1769.5913652269146,0.0,0.0,0.16082200514630401,364,0.0,99,Motors_Started,
0.353884042335181,36.8971887408419,900,2018-04-15 06:49:39,1769.5913652269146,0.0,0.0,0.19789600633267201,1769.5913652269146,0.0,0.0,0.19789600633267201,364,0.0,99,Motors_Started,
0.35388409855889,36.8971885910666,1000,2018-04-15 06:49:39,1769.5913652269146,0.0,0.0,0.21545500689455999,1769.5913652269146,0.0,0.0,0.21545500689455999,364,0.0,99,Motors_Started,Setting new Return-To-Home altitude to 30m (98 ft). Setting new Maximum Flight Altitude to 150m (492 ft)
0.353884134239319,36.8971884695534,1100,2018-04-15 06:49:39,1769.5913652269146,0.0,0.0,0.22949500734383999,1769.5913652269146,0.0,0.0,0.22949500734383999,364,0.0,99,Motors_Started,
0.353884157779597,36.8971883273567,1200,2018-04-15 06:49:39,1769.5913652269146,0.0,0.0,0.24550800785625598,1769.5913652269146,0.0,0.0,0.24550800785625598,364,0.0,99,Motors_Started,
0.353884191628841,36.8971882326684,1300,2018-04-15 06:49:40,1769.5913652269146,0.0,0.0,0.25659000821088,1769.5913652269146,0.0,0.0,0.25659000821088,364,0.0,99,Motors_Started,
0.353884230224999,36.8971881356301,1400,2018-04-15 06:49:40,1769.5913652269146,0.0,0.0,0.26805000857760003,1769.5913652269146,0.0,0.0,0.26805000857760003,383,0.0,99,Motors_Started,
0.353884245761474,36.8971880438222,1500,2018-04-15 06:49:40,1769.5913652269146,0.0,0.0,0.27839100890851204,1769.5913652269146,0.0,0.0,0.27839100890851204,417,0.0,99,Motors_Started,
0.353884264824345,36.8971879343044,1600,2018-04-15 06:49:40,1769.5913652269146,0.0,0.0,0.29074100930371205,1769.5913652269146,0.0,0.0,0.29074100930371205,577,0.0,99,Assisted_Takeoff,
0.353884283910523,36.8971878120209,1700,2018-04-15 06:49:40,1769.5913652269146,0.0,0.0,0.30448000974336,1769.5913652269146,0.0,0.0,0.30448000974336,976,0.0,99,Assisted_Takeoff,
0.353884315091052,36.8971876912079,1800,2018-04-15 06:49:40,1769.5913652269146,0.0,0.0,0.31834501018704003,1769.5913652269146,0.0,0.0,0.31834501018704003,1024,0.0,99,Assisted_Takeoff,
0.353884358746786,36.8971875610855,1900,2018-04-15 06:49:40,1769.5913652269146,0.0,0.0,0.333521010672672,1769.5913652269146,0.0,0.0,0.333521010672672,1024,0.0,99,Assisted_Takeoff,
0.353884403960636,36.8971874296355,2000,2018-04-15 06:49:40,1769.5913652269146,0.0,0.0,0.34888701116438403,1769.5913652269146,0.0,0.0,0.34888701116438403,1024,0.0,99,Assisted_Takeoff,
0.35388442752137,36.8971873174846,2100,2018-04-15 06:49:40,1769.5913652269146,0.0,0.0,0.361629011572128,1769.5913652269146,0.0,0.0,0.361629011572128,1024,0.0,99,Assisted_Takeoff,
0.353884448185103,36.8971872081457,2200,2018-04-15 06:49:40,1769.5913652269146,0.0,0.0,0.37399501196784,1769.5913652269146,0.0,0.0,0.37399501196784,1024,0.0,99,Assisted_Takeoff,
0.353884448212074,36.8971871149824,2300,2018-04-15 06:49:41,1769.5913652269146,0.0,0.0,0.384107012291424,1769.5913652269146,0.0,0.0,0.384107012291424,1024,0.0,99,Assisted_Takeoff,
0.353884454819079,36.8971870197871,2400,2018-04-15 06:49:41,1769.5913652269146,0.0,0.0,0.39460601262739203,1769.5913652269146,0.0,0.0,0.39460601262739203,1024,0.0,99,Assisted_Takeoff,
0.353884443671769,36.8971869381445,2500,2018-04-15 06:49:41,1769.5913652269146,0.0,0.0,0.403231012903392,1769.5913652269146,0.0,0.0,0.403231012903392,1024,0.0,99,Assisted_Takeoff,
0.353884441353476,36.8971868476406,2600,2018-04-15 06:49:41,1769.5913652269146,0.0,0.0,0.41303801321721606,1769.5913652269146,0.0,0.0,0.41303801321721606,1024,0.0,99,Assisted_Takeoff,
0.353884424456435,36.8971867703066,2700,2018-04-15 06:49:41,1769.5913652269146,0.0,0.0,0.42111001347552,1769.5913652269146,0.0,0.0,0.42111001347552,1024,0.0,99,Assisted_Takeoff,
0.353884416920912,36.8971866823973,2800,2018-04-15 06:49:41,1769.5913652269146,0.0,0.0,0.430557013777824,1769.5913652269146,0.0,0.0,0.430557013777824,1066,0.0,99,Assisted_Takeoff,
0.353884428345058,36.8971866012718,2900,2018-04-15 06:49:41,1769.5913652269146,0.0,0.0,0.439658014069056,1769.5913652269146,0.0,0.0,0.439658014069056,1155,0.0,99,Assisted_Takeoff,
0.353884448999224,36.8971865122324,3000,2018-04-15 06:49:41,1769.5913652269146,0.0,0.0,0.44981301439401605,1769.5913652269146,0.0,0.0,0.44981301439401605,1346,0.0,99,Assisted_Takeoff,
0.353884461380894,36.8971863957671,3100,2018-04-15 06:49:41,1769.5913652269146,0.0,0.0,0.46279801480953603,1769.5913652269146,0.0,0.0,0.46279801480953603,1346,0.0,99,Assisted_Takeoff,
0.353884477530682,36.8971862802278,3200,2018-04-15 06:49:41,1769.5913652269146,0.0,0.0,0.475759015224288,1769.5913652269146,0.0,0.0,0.475759015224288,1411,0.0,99,Assisted_Takeoff,
0.353884485332455,36.8971861665015,3300,2018-04-15 06:49:42,1769.5913652269146,0.0,0.0,0.488357015627424,1769.5913652269146,0.0,0.0,0.488357015627424,1429,0.0,99,Assisted_Takeoff,
0.353884503532658,36.8971860544154,3400,2018-04-15 06:49:42,1769.5913652269146,0.0,0.0,0.500983016031456,1769.5913652269146,0.0,0.0,0.500983016031456,1440,0.0,99,Assisted_Takeoff,
0.353884548989349,36.8971859537462,3500,2018-04-15 06:49:42,1769.5913652269146,0.0,0.0,0.51290501641296,1769.5913652269146,0.0,0.0,0.51290501641296,1449,0.0,99,Assisted_Takeoff,
0.353884651576334,36.8971859000028,3600,2018-04-15 06:49:42,1769.5913652269146,0.0,0.503999582744,0.520966016670912,1769.5913652269146,0.0,0.503999582744,0.520966016670912,1459,0.0,99,P-GPS,Obstacle Avoided. Revise Flight Route
0.353884817929928,36.8971858922929,3700,2018-04-15 06:49:42,1769.5913652269146,0.0,0.503999582744,0.525849016827168,1769.5913652269146,0.0,0.503999582744,0.525849016827168,1466,0.0,99,P-GPS,
0.353885005030103,36.8971858715528,3800,2018-04-15 06:49:42,1769.6913652301146,0.1000000032,0.35999970196000003,0.5333490170671681,1769.6913652301146,0.1000000032,0.503999582744,0.5333490170671681,1470,0.0,99,P-GPS,
0.353885155885084,36.8971857786919,3900,2018-04-15 06:49:42,1769.7913652333148,0.2000000064,0.35999970196000003,0.547998017535936,1769.7913652333148,0.2000000064,0.503999582744,0.547998017535936,1464,0.0,99,P-GPS,
0.353885296717603,36.8971856448005,4000,2018-04-15 06:49:42,1769.9913652397145,0.4000000128,0.35999970196000003,0.566937018141984,1769.9913652397145,0.4000000128,0.503999582744,0.566937018141984,1449,0.0,99,P-GPS,
0.353885427140497,36.8971854848512,4100,2018-04-15 06:49:42,1770.1913652461146,0.6000000192,0.35999970196000003,0.58842001882944,1770.1913652461146,0.6000000192,0.503999582744,0.58842001882944,1449,0.0,99,P-GPS,Home Point Recorded. RTH Altitude:  30m.
0.353885552047444,36.8971853179303,4200,2018-04-15 06:49:42,1770.3913652525146,0.8000000256,0.35999970196000003,0.6105340195370881,1770.3913652525146,0.8000000256,0.503999582744,0.6105340195370881,1463,0.0,99,P-GPS,
0.353885701422576,36.897185170279,4300,2018-04-15 06:49:43,1770.5913652589147,1.000000032,0.0,0.6316650202132801,1770.5913652589147,1.000000032,0.503999582744,0.6316650202132801,1481,0.0,99,P-GPS,
0.353885836932322,36.8971850239745,4400,2018-04-15 06:49:43,1770.8913652685148,1.3000000416000002,0.0,0.6522470208719041,1770.8913652685148,1.3000000416000002,0.503999582744,0.6522470208719041,1504,0.0,99,P-GPS,
0.353885963655391,36.897184912185,4500,2018-04-15 06:49:43,1771.1913652781145,1.6000000512,0.0,0.6690050214081601,1771.1913652781145,1.6000000512,0.503999582744,0.6690050214081601,1575,0.0,99,P-GPS,
0.353886073005609,36.8971848046061,4600,2018-04-15 06:49:43,1771.4913652877146,1.9000000608000003,0.0,0.6846920219101441,1771.4913652877146,1.9000000608000003,0.503999582744,0.6846920219101441,1597,0.0,99,P-GPS,
0.353886170746242,36.8971847694006,4700,2018-04-15 06:49:43,1771.7913652973148,2.2000000704000002,0.0,0.6925380221612161,1771.7913652973148,2.2000000704000002,0.503999582744,0.6925380221612161,1597,0.0,99,P-GPS,
0.353886241325244,36.8971847314994,4800,2018-04-15 06:49:43,1772.0913653069147,2.50000008,0.0,0.6995380223852161,1772.0913653069147,2.50000008,0.503999582744,0.6995380223852161,1618,0.0,99,P-GPS,
0.353886305881853,36.8971846640004,4900,2018-04-15 06:49:43,1772.4913653197148,2.9000000928,0.0,0.7093100226979201,1772.4913653197148,2.9000000928,0.503999582744,0.7093100226979201,1647,0.0,99,P-GPS,
0.353886366897411,36.8971845602157,5000,2018-04-15 06:49:43,1772.8913653325146,3.3000001056,0.0,0.7226170231237441,1772.8913653325146,3.3000001056,0.503999582744,0.7226170231237441,1674,0.0,99,P-GPS,
0.353886411387722,36.8971844569299,5100,2018-04-15 06:49:43,1773.2913653453147,3.7000001184,0.0,0.7351210235238721,1773.2913653453147,3.7000001184,0.503999582744,0.7351210235238721,1684,0.0,99,P-GPS,
0.353886436565502,36.8971843742553,5200,2018-04-15 06:49:43,1773.6913653581146,4.100000131200001,0.0,0.744657023829024,1773.6913653581146,4.100000131200001,0.503999582744,0.744657023829024,1684,0.0,99,P-GPS,
0.353886418386774,36.8971843198401,5300,2018-04-15 06:49:43,1774.1913653741146,4.6000001472,0.0,0.74937002397984,1774.1913653741146,4.6000001472,0.503999582744,0.74937002397984,1684,0.0,99,P-GPS,
0.353886405676362,36.8971842608609,5400,2018-04-15 06:49:44,1774.5913653869145,5.00000016,0.0,0.754814024154048,1774.5913653869145,5.00000016,0.503999582744,0.754814024154048,1684,0.0,99,P-GPS,
0.353886390379166,36.8971841680263,5500,2018-04-15 06:49:44,1775.0913654029148,5.5000001759999995,0.0,0.76363002443616,1775.0913654029148,5.5000001759999995,0.503999582744,0.76363002443616,1684,0.0,99,P-GPS,
0.353886370733618,36.8971840741243,5600,2018-04-15 06:49:44,1775.5913654189146,6.000000192000001,0.0,0.7724110247171521,1775.5913654189146,6.000000192000001,0.503999582744,0.7724110247171521,1684,0.0,99,P-GPS,
0.353886359611345,36.8971839862872,5700,2018-04-15 06:49:44,1776.0913654349147,6.500000208,0.0,0.7809710249910721,1776.0913654349147,6.500000208,0.503999582744,0.7809710249910721,1684,0.0,99,P-GPS,
0.353886361602932,36.8971838947555,5800,2018-04-15 06:49:44,1776.5913654509145,7.000000224,0.0,0.790487025295584,1776.5913654509145,7.000000224,0.503999582744,0.790487025295584,1684,0.0,99,P-GPS,
0.353886355936354,36.8971837781505,5900,2018-04-15 06:49:44,1777.0913654669148,7.50000024,0.0,0.8022970256735041,1777.0913654669148,7.50000024,0.503999582744,0.8022970256735041,1684,0.0,99,P-GPS,
0.353886340917826,36.8971836386025,6000,2018-04-15 06:49:44,1777.5913654829146,8.000000256,0.0,0.8161490261167681,1777.5913654829146,8.000000256,0.503999582744,0.8161490261167681,1684,0.0,99,P-GPS,
0.353886330447745,36.8971835168939,6100,2018-04-15 06:49:44,1778.0913654989145,8.500000272,0.0,0.828384026508288,1778.0913654989145,8.500000272,0.503999582744,0.828384026508288,1684,0.0,99,P-GPS,
0.353886320494899,36.8971833898623,6200,2018-04-15 06:49:44,1778.5913655149147,9.000000288,0.0,0.8412350269195201,1778.5913655149147,9.000000288,0.503999582744,0.8412350269195201,1684,0.0,99,P-GPS,
0.35388629740336,36.8971832453382,6300,2018-04-15 06:49:45,1779.0913655309146,9.500000304,0.0,0.8554650273748801,1779.0913655309146,9.500000304,0.503999582744,0.8554650273748801,1684,0.0,99,P-GPS,
0.353886267519987,36.8971830810948,6400,2018-04-15 06:49:45,1779.5913655469146,10.00000032,0.0,0.871591027890912,1779.5913655469146,10.00000032,0.503999582744,0.871591027890912,1684,0.0,99,P-GPS,
0.353886235488494,36.8971829137446,6500,2018-04-15 06:49:45,1780.0913655629147,10.500000336,0.0,0.88806502841808,1780.0913655629147,10.500000336,0.503999582744,0.88806502841808,1684,0.0,99,P-GPS,
0.353886199472809,36.8971827458215,6600,2018-04-15 06:49:45,1780.5913655789147,11.000000351999999,0.0,0.904559028945888,1780.5913655789147,11.000000351999999,0.503999582744,0.904559028945888,1684,0.0,99,P-GPS,
0.353886139560115,36.8971825947293,6700,2018-04-15 06:49:45,1781.0913655949146,11.500000368000002,0.0,0.9185810293945921,1781.0913655949146,11.500000368000002,0.503999582744,0.9185810293945921,1684,0.0,99,P-GPS,
0.353886076220768,36.8971824412669,6800,2018-04-15 06:49:45,1781.5913656109149,12.000000384000002,0.0,0.932887029852384,1781.5913656109149,12.000000384000002,0.503999582744,0.932887029852384,1684,0.0,99,P-GPS,
0.353885979287232,36.8971822907142,6900,2018-04-15 06:49:45,1782.0913656269147,12.500000400000001,0.0,0.94602003027264,1782.0913656269147,12.500000400000001,0.503999582744,0.94602003027264,1684,0.0,99,P-GPS,
0.353885888679794,36.8971821343547,7000,2018-04-15 06:49:45,1782.5913656429145,13.000000416,0.0,0.9601890307260481,1782.5913656429145,13.000000416,0.503999582744,0.9601890307260481,1684,0.0,99,P-GPS,
0.35388580194622,36.8971819764707,7100,2018-04-15 06:49:45,1782.9913656557146,13.4000004288,0.0,0.974834031194688,1782.9913656557146,13.4000004288,0.503999582744,0.974834031194688,1684,0.0,99,P-GPS,
0.353885725943482,36.8971818091365,7200,2018-04-15 06:49:45,1783.4913656717147,13.9000004448,0.0,0.9909610317107521,1783.4913656717147,13.9000004448,0.503999582744,0.9909610317107521,1684,0.0,99,P-GPS,
0.353885650198038,36.8971816809015,7300,2018-04-15 06:49:45,1783.9913656877147,14.400000460800001,0.0,1.00301003209632,1783.9913656877147,14.400000460800001,0.503999582744,1.00301003209632,1684,0.0,99,P-GPS,
0.35388557886812,36.8971815535584,7400,2018-04-15 06:49:46,1784.4913657037146,14.9000004768,0.0,1.01518003248576,1784.4913657037146,14.9000004768,0.503999582744,1.01518003248576,1684,-0.1,99,P-GPS,
0.353885489026254,36.8971814607762,7500,2018-04-15 06:49:46,1784.9913657197146,15.4000004928,0.0,1.0233000327456,1784.9913657197146,15.4000004928,0.503999582744,1.0233000327456,1684,-1.5,99,P-GPS,
0.353885381536737,36.8971813853206,7600,2018-04-15 06:49:46,1785.4913657357147,15.900000508800002,0.0,1.0293000329376,1785.4913657357147,15.900000508800002,0.503999582744,1.0293000329376,1684,-1.5,99,P-GPS,
0.353885290764418,36.8971813274388,7700,2018-04-15 06:49:46,1785.9913657517147,16.400000524800003,0.0,1.03386003308352,1785.9913657517147,16.400000524800003,0.503999582744,1.03386003308352,1684,-4.1,99,P-GPS,
0.353885225119195,36.8971812557463,7800,2018-04-15 06:49:46,1786.4913657677146,16.9000005408,0.0,1.04051003329632,1786.4913657677146,16.9000005408,0.503999582744,1.04051003329632,1684,-7.5,99,P-GPS,
0.353885160622024,36.8971811642296,7900,2018-04-15 06:49:46,1786.9913657837149,17.400000556800002,0.0,1.04942003358144,1786.9913657837149,17.400000556800002,0.503999582744,1.04942003358144,1684,-11.6,99,P-GPS,
0.353885098483858,36.8971810418379,8000,2018-04-15 06:49:46,1787.4913657997147,17.9000005728,0.0,1.06184003397888,1787.4913657997147,17.9000005728,0.503999582744,1.06184003397888,1684,-15.6,99,P-GPS,
0.353885059211895,36.8971808787829,8100,2018-04-15 06:49:46,1787.9913658157145,18.4000005888,0.0,1.07916003453312,1787.9913658157145,18.4000005888,0.503999582744,1.07916003453312,1684,-19.5,99,P-GPS,
0.353885035248121,36.8971807175072,8200,2018-04-15 06:49:46,1788.4913658317148,18.900000604800002,0.0,1.09656003508992,1788.4913658317148,18.900000604800002,0.503999582744,1.09656003508992,1684,-21.9,99,P-GPS,
0.353885015634734,36.8971805898129,8300,2018-04-15 06:49:47,1789.0913658509146,19.500000624000002,0.0,1.1103400355308801,1789.0913658509146,19.500000624000002,0.503999582744,1.1103400355308801,1684,-21.9,99,P-GPS,
0.353884992743493,36.8971804870977,8400,2018-04-15 06:49:47,1789.5913658669144,20.00000064,0.0,1.12134003588288,1789.5913658669144,20.00000064,0.503999582744,1.12134003588288,1684,-21.9,99,P-GPS,
0.353884993013204,36.8971803943798,8500,2018-04-15 06:49:47,1790.0913658829147,20.500000656,0.0,1.13157003621024,1790.0913658829147,20.500000656,0.503999582744,1.13157003621024,1684,-21.9,99,P-GPS,
0.3538849964881,36.8971803196051,8600,2018-04-15 06:49:47,1790.5913658989145,21.000000672,0.0,1.13987003647584,1790.5913658989145,21.000000672,0.503999582744,1.13987003647584,1684,-21.9,99,P-GPS,
0.35388498121757,36.8971802892997,8700,2018-04-15 06:49:47,1791.0913659149146,21.500000688,0.0,1.143000036576,1791.0913659149146,21.500000688,0.503999582744,1.143000036576,1684,-21.9,99,P-GPS,
0.353884954476891,36.8971802741026,8800,2018-04-15 06:49:47,1791.5913659309147,22.000000703999998,0.0,1.14431003661792,1791.5913659309147,22.000000703999998,0.503999582744,1.14431003661792,1684,-21.9,99,P-GPS,
0.353884936492356,36.8971802725984,8900,2018-04-15 06:49:47,1792.0913659469147,22.50000072,0.0,1.14424003661568,1792.0913659469147,22.50000072,0.503999582744,1.14431003661792,1684,-21.9,99,P-GPS,
0.353884929396818,36.8971802739677,9000,2018-04-15 06:49:47,1792.6913659661147,23.1000007392,0.0,1.14399003660768,1792.6913659661147,23.1000007392,0.503999582744,1.14431003661792,1684,-21.9,99,P-GPS,
0.353884891946067,36.8971802589216,9200,2018-04-15 06:49:47,1793.6913659981146,24.100000771200005,0.0,1.14517003664544,1793.6913659981146,24.100000771200005,0.503999582744,1.14517003664544,1684,-21.9,99,P-GPS,
0.353884895833977,36.8971802952683,9300,2018-04-15 06:49:48,1794.1913660141145,24.600000787200003,0.0,1.1412000365184,1794.1913660141145,24.600000787200003,0.503999582744,1.14517003664544,1684,-21.9,99,P-GPS,
0.353884911645048,36.8971803624825,9400,2018-04-15 06:49:48,1794.7913660333147,25.2000008064,0.0,1.13398003628736,1794.7913660333147,25.2000008064,0.503999582744,1.14517003664544,1684,-21.9,99,P-GPS,
0.353884932050978,36.8971804535495,9500,2018-04-15 06:49:48,1795.2913660493145,25.7000008224,0.0,1.1242000359744,1795.2913660493145,25.7000008224,0.503999582744,1.14517003664544,1684,-21.9,99,P-GPS,
0.353884943489576,36.8971805417752,9600,2018-04-15 06:49:48,1795.7913660653148,26.200000838400005,0.0,1.1146200356678402,1795.7913660653148,26.200000838400005,0.503999582744,1.14517003664544,1684,-21.9,99,P-GPS,
0.353884937857603,36.8971806107259,9700,2018-04-15 06:49:48,1796.2913660813147,26.700000854400002,0.0,1.1069300354217602,1796.2913660813147,26.700000854400002,0.503999582744,1.14517003664544,1684,-21.9,99,P-GPS,
0.353884932848102,36.8971806625085,9800,2018-04-15 06:49:48,1796.8913661005147,27.3000008736,0.0,1.1011500352368,1796.8913661005147,27.3000008736,0.503999582744,1.14517003664544,1684,-21.9,99,P-GPS,
0.353884939903946,36.8971806643671,9900,2018-04-15 06:49:48,1797.3913661165147,27.8000008896,0.0,1.10104003523328,1797.3913661165147,27.8000008896,0.503999582744,1.14517003664544,1684,-21.9,99,P-GPS,
0.353884964779242,36.8971806722777,10000,2018-04-15 06:49:48,1797.8913661325146,28.300000905600005,0.0,1.10052003521664,1797.8913661325146,28.300000905600005,0.503999582744,1.14517003664544,1684,-21.9,99,P-GPS,
0.353884976958782,36.8971806963244,10100,2018-04-15 06:49:48,1798.3913661485146,28.800000921600002,0.0,1.09804003513728,1798.3913661485146,28.800000921600002,0.503999582744,1.14517003664544,1684,-21.9,99,P-GPS,
0.35388498383163,36.8971807878004,10300,2018-04-15 06:49:49,1799.4913661837145,29.900000956800003,0.0,1.0880500348176,1799.4913661837145,29.900000956800003,0.503999582744,1.14517003664544,1684,-21.9,99,P-GPS,
0.353885021374185,36.8971809324658,10500,2018-04-15 06:49:49,1800.4913662157146,30.900000988800002,0.0,1.07267003432544,1800.4913662157146,30.900000988800002,0.503999582744,1.14517003664544,1684,-21.9,99,P-GPS,
0.353885063788637,36.8971811206916,10700,2018-04-15 06:49:49,1801.5913662509147,32.000001024,0.0,1.0526000336832,1801.5913662509147,32.000001024,0.503999582744,1.14517003664544,1684,-21.9,99,P-GPS,
0.353885065712237,36.8971812075384,10800,2018-04-15 06:49:49,1802.0913662669145,32.50000104,0.0,1.04308003337856,1802.0913662669145,32.50000104,0.503999582744,1.14517003664544,1684,-21.9,99,P-GPS,
0.353885068942459,36.8971812913104,10900,2018-04-15 06:49:49,1802.5913662829146,33.000001056,0.0,1.03391003308512,1802.5913662829146,33.000001056,0.503999582744,1.14517003664544,1684,-21.9,99,P-GPS,
0.35388506971027,36.8971813417848,11000,2018-04-15 06:49:49,1803.0913662989146,33.500001072,0.0,1.02837003290784,1803.0913662989146,33.500001072,0.503999582744,1.14517003664544,1684,-21.9,99,P-GPS,
0.353885105248821,36.8971813893813,11100,2018-04-15 06:49:49,1803.5913663149147,34.000001088,0.0,1.02373003275936,1803.5913663149147,34.000001088,0.503999582744,1.14517003664544,1684,-21.9,99,P-GPS,
0.353885142370831,36.8971814207412,11200,2018-04-15 06:49:49,1804.0913663309145,34.500001104,0.0,1.02092003266944,1804.0913663309145,34.500001104,0.503999582744,1.14517003664544,1684,-21.9,99,P-GPS,
0.353885207291804,36.8971814897401,11300,2018-04-15 06:49:50,1804.5913663469148,35.00000112,0.0,1.01451003246432,1804.5913663469148,35.00000112,0.503999582744,1.14517003664544,1684,-21.9,99,P-GPS,
0.353885258894141,36.8971815418064,11400,2018-04-15 06:49:50,1805.1913663661146,35.6000011392,0.0,1.00977003231264,1805.1913663661146,35.6000011392,0.503999582744,1.14517003664544,1684,-21.9,99,P-GPS,
0.353885354384265,36.8971816363026,11500,2018-04-15 06:49:50,1805.6913663821144,36.1000011552,0.0,1.0013000320416,1805.6913663821144,36.1000011552,0.503999582744,1.14517003664544,1684,-21.9,99,P-GPS,
0.353885438747638,36.8971817277165,11600,2018-04-15 06:49:50,1806.1913663981147,36.6000011712,0.0,0.9930910317789121,1806.1913663981147,36.6000011712,0.503999582744,1.14517003664544,1684,-21.9,99,P-GPS,
0.353885537832552,36.8971818993942,11800,2018-04-15 06:49:50,1807.2913664333148,37.7000012064,0.0,0.97661003125152,1807.2913664333148,37.7000012064,0.503999582744,1.14517003664544,1684,-21.9,99,P-GPS,
0.353885587234251,36.897182010901,12000,2018-04-15 06:49:50,1808.2913664653145,38.7000012384,0.0,0.965662030901184,1808.2913664653145,38.7000012384,0.503999582744,1.14517003664544,1684,-21.9,99,P-GPS,
0.353885597251828,36.8971820596549,12100,2018-04-15 06:49:50,1808.7913664813148,39.2000012544,0.0,0.960613030739616,1808.7913664813148,39.2000012544,0.503999582744,1.14517003664544,1684,-21.9,99,P-GPS,
0.353885629684936,36.8971820719839,12300,2018-04-15 06:49:51,1809.7913665133146,40.2000012864,0.0,0.9600730307223361,1809.7913665133146,40.2000012864,0.503999582744,1.14517003664544,1684,-21.9,99,P-GPS,
0.35388566739176,36.8971820637628,12400,2018-04-15 06:49:51,1810.3913665325147,40.8000013056,0.0,0.961907030781024,1810.3913665325147,40.8000013056,0.503999582744,1.14517003664544,1684,-21.9,99,P-GPS,
0.353885731820944,36.8971820418755,12500,2018-04-15 06:49:51,1810.8913665485147,41.30000132160001,0.0,0.9659240309095681,1810.8913665485147,41.30000132160001,0.503999582744,1.14517003664544,1684,-21.9,99,P-GPS,
0.353885782369881,36.8971819964608,12600,2018-04-15 06:49:51,1811.3913665645146,41.80000133760001,0.0,0.9721560311089921,1811.3913665645146,41.80000133760001,0.503999582744,1.14517003664544,1684,-21.9,99,P-GPS,
0.353885813385429,36.8971819494713,12700,2018-04-15 06:49:51,1811.8913665805148,42.300001353599995,0.0,0.9780530312976959,1811.8913665805148,42.300001353599995,0.503999582744,1.14517003664544,1684,-21.9,99,P-GPS,
0.353885829355579,36.8971819012634,12800,2018-04-15 06:49:51,1812.3913665965147,42.800001369600004,0.0,0.983684031477888,1812.3913665965147,42.800001369600004,0.503999582744,1.14517003664544,1684,-21.9,99,P-GPS,
0.353885864864614,36.8971818911773,12900,2018-04-15 06:49:51,1812.8913666125145,43.300001385600005,0.0,0.985727031543264,1812.8913666125145,43.300001385600005,0.503999582744,1.14517003664544,1684,-21.9,99,P-GPS,
0.353885897467285,36.8971818865299,13000,2018-04-15 06:49:51,1813.3913666285148,43.80000140160001,0.0,0.9871180315877761,1813.3913666285148,43.80000140160001,0.503999582744,1.14517003664544,1684,-21.9,99,P-GPS,
0.35388595763198,36.8971819002828,13100,2018-04-15 06:49:51,1813.9913666477146,44.4000014208,0.0,0.9873120315939841,1813.9913666477146,44.4000014208,0.503999582744,1.14517003664544,1684,-21.9,99,P-GPS,
0.353886022114495,36.8971818828931,13200,2018-04-15 06:49:51,1814.4913666637144,44.900001436800004,0.0,0.9910230317127361,1814.4913666637144,44.900001436800004,0.503999582744,1.14517003664544,1684,-21.9,99,P-GPS,
0.353886076076854,36.8971818702044,13300,2018-04-15 06:49:52,1814.9913666797147,45.4000014528,0.0,0.99396003180672,1814.9913666797147,45.4000014528,0.503999582744,1.14517003664544,1684,-21.9,99,P-GPS,
0.353886116743579,36.8971818402426,13400,2018-04-15 06:49:52,1815.5913666989145,46.00000147200001,0.0,0.998378031948096,1815.5913666989145,46.00000147200001,0.503999582744,1.14517003664544,1684,-21.9,99,P-GPS,
0.353886177707433,36.8971817136018,13600,2018-04-15 06:49:52,1816.5913667309146,47.000001504000004,0.0,1.01377003244064,1816.5913667309146,47.000001504000004,0.503999582744,1.14517003664544,1684,-21.9,99,P-GPS,
0.353886203829914,36.8971816550905,13700,2018-04-15 06:49:52,1817.0913667469147,47.500001520000005,0.0,1.02082003266624,1817.0913667469147,47.500001520000005,0.503999582744,1.14517003664544,1684,-21.9,99,P-GPS,
0.353886217854074,36.8971815976584,13800,2018-04-15 06:49:52,1817.5913667629147,48.000001536000006,0.0,1.02739003287648,1817.5913667629147,48.000001536000006,0.503999582744,1.14517003664544,1684,-21.9,99,P-GPS,
0.353886241984764,36.8971815379715,13900,2018-04-15 06:49:52,1818.0913667789148,48.50000155200001,0.0,1.03451003310432,1818.0913667789148,48.50000155200001,0.503999582744,1.14517003664544,1684,-21.9,99,P-GPS,
0.353886261713567,36.89718147424,14000,2018-04-15 06:49:52,1818.6913667981146,49.1000015712,0.0,1.04192003334144,1818.6913667981146,49.1000015712,0.503999582744,1.14517003664544,1684,-21.9,99,P-GPS,
0.353886274984164,36.8971814195336,14100,2018-04-15 06:49:52,1819.1913668141146,49.600001587200005,0.0,1.0481800335417601,1819.1913668141146,49.600001587200005,0.503999582744,1.14517003664544,1684,-21.9,99,P-GPS,
0.353886270954783,36.8971813691235,14200,2018-04-15 06:49:52,1819.6913668301147,50.1000016032,0.0,1.0534500337104,1819.6913668301147,50.1000016032,0.503999582744,1.14517003664544,1684,-21.9,99,P-GPS,
0.353886260828507,36.897181336374,14300,2018-04-15 06:49:53,1820.1913668461145,50.6000016192,0.0,1.05666003381312,1820.1913668461145,50.6000016192,0.503999582744,1.14517003664544,1684,-21.9,99,P-GPS,
0.353886246299734,36.8971812928285,14500,2018-04-15 06:49:53,1821.1913668781146,51.6000016512,0.0,1.06089003394848,1821.1913668781146,51.6000016512,0.503999582744,1.14517003664544,1684,-21.9,99,P-GPS,
0.353886248799599,36.8971812702668,14600,2018-04-15 06:49:53,1821.6913668941145,52.1000016672,0.0,1.06338003402816,1821.6913668941145,52.1000016672,0.503999582744,1.14517003664544,1684,-21.9,99,P-GPS,
0.353886256446161,36.8971812585266,14700,2018-04-15 06:49:53,1822.1913669101148,52.6000016832,0.0,1.0648700340758401,1822.1913669101148,52.6000016832,0.503999582744,1.14517003664544,1684,-21.9,99,P-GPS,
0.353886250272119,36.8971812386938,14800,2018-04-15 06:49:53,1822.6913669261146,53.1000016992,0.0,1.06681003413792,1822.6913669261146,53.1000016992,0.503999582744,1.14517003664544,1684,-21.9,99,P-GPS,
0.353886274468558,36.8971812346534,14900,2018-04-15 06:49:53,1823.1913669421147,53.6000017152,0.0,1.06796003417472,1823.1913669421147,53.6000017152,0.503999582744,1.14517003664544,1684,-21.9,99,P-GPS,
0.353886314565327,36.8971812255769,15100,2018-04-15 06:49:53,1824.1913669741148,54.6000017472,0.0,1.0701300342441602,1824.1913669741148,54.6000017472,0.503999582744,1.14517003664544,1684,-21.9,99,P-GPS,
0.353886291579026,36.8971812837542,15300,2018-04-15 06:49:54,1825.1913670061144,55.6000017792,0.0,1.06321003402272,1825.1913670061144,55.6000017792,0.503999582744,1.14517003664544,1684,-21.9,99,P-GPS,
0.353886315623205,36.8971813699607,15500,2018-04-15 06:49:54,1826.1913670381145,56.60000181120001,0.0,1.05472003375104,1826.1913670381145,56.60000181120001,0.503999582744,1.14517003664544,1684,-21.9,99,P-GPS,
0.353886317148243,36.8971813868323,15600,2018-04-15 06:49:54,1826.6913670541146,57.100001827199996,0.0,1.05296003369472,1826.6913670541146,57.100001827199996,0.503999582744,1.14517003664544,1684,-21.9,99,P-GPS,
0.353886296050326,36.8971813996655,15700,2018-04-15 06:49:54,1827.1913670701147,57.600001843200005,0.0,1.0509500336304,1827.1913670701147,57.600001843200005,0.503999582744,1.14517003664544,1684,-21.9,99,P-GPS,
0.353886262488503,36.8971814134355,15800,2018-04-15 06:49:54,1827.6913670861147,58.100001859200006,0.0,1.0484500335504001,1827.6913670861147,58.100001859200006,0.503999582744,1.14517003664544,1684,-21.9,99,P-GPS,
0.35388623475203,36.8971814441905,15900,2018-04-15 06:49:54,1828.1913671021146,58.60000187520001,0.0,1.0443300334185601,1828.1913671021146,58.60000187520001,0.503999582744,1.14517003664544,1684,-21.9,99,P-GPS,
0.353886210619915,36.8971814606959,16000,2018-04-15 06:49:54,1828.6913671181148,59.10000189120001,0.0,1.0418400333388802,1828.6913671181148,59.10000189120001,0.503999582744,1.14517003664544,1684,-21.9,99,P-GPS,
0.353886191740346,36.8971815048473,16100,2018-04-15 06:49:54,1829.1913671341147,59.6000019072,0.0,1.0365500331696,1829.1913671341147,59.6000019072,0.503999582744,1.14517003664544,1684,-21.9,99,P-GPS,
0.353886166032304,36.8971815549234,16200,2018-04-15 06:49:54,1829.5913671469148,60.00000192,0.0,1.03042003297344,1829.5913671469148,60.00000192,0.503999582744,1.14517003664544,1684,-21.9,99,P-GPS,
0.353886064343508,36.8971816371933,16400,2018-04-15 06:49:55,1830.5913671789149,61.000001952,0.0,1.0186300325961601,1830.5913671789149,61.000001952,0.503999582744,1.14517003664544,1684,-21.9,99,P-GPS,
0.353885995456867,36.8971816813854,16600,2018-04-15 06:49:55,1831.5913672109145,62.000001984,0.0,1.01193003238176,1831.5913672109145,62.000001984,0.503999582744,1.14517003664544,1684,-21.9,99,P-GPS,
0.353885964139039,36.8971816598761,16700,2018-04-15 06:49:55,1832.0913672269146,62.50000200000001,0.0,1.01337003242784,1832.0913672269146,62.50000200000001,0.503999582744,1.14517003664544,1684,-21.9,99,P-GPS,
0.353885925436217,36.8971816299004,16800,2018-04-15 06:49:55,1832.5913672429147,63.000002015999996,0.0,1.0155500324976001,1832.5913672429147,63.000002015999996,0.503999582744,1.14517003664544,1684,-21.9,99,P-GPS,
0.353885888759587,36.8971816204032,16900,2018-04-15 06:49:55,1833.0913672589147,63.500002032,0.0,1.01559003249888,1833.0913672589147,63.500002032,0.503999582744,1.14517003664544,1684,-21.9,99,P-GPS,
0.353885855219748,36.8971816338595,17000,2018-04-15 06:49:55,1833.5913672749145,64.000002048,0.0,1.013250032424,1833.5913672749145,64.000002048,0.503999582744,1.14517003664544,1684,-21.9,99,P-GPS,
0.353885819493722,36.897181678619,17100,2018-04-15 06:49:55,1834.1913672941146,64.6000020672,0.0,1.00748003223936,1834.1913672941146,64.6000020672,0.503999582744,1.14517003664544,1684,-21.9,99,P-GPS,
0.353885780810646,36.8971817194515,17200,2018-04-15 06:49:55,1834.5913673069147,65.00000208,0.0,1.00207003206624,1834.5913673069147,65.00000208,0.503999582744,1.14517003664544,1684,-21.9,99,P-GPS,
0.353885733244814,36.8971817732736,17300,2018-04-15 06:49:56,1835.0913673229145,65.500002096,0.0,0.9950290318409281,1835.0913673229145,65.500002096,0.503999582744,1.14517003664544,1684,-21.9,99,P-GPS,
0.353885680670296,36.8971818134638,17400,2018-04-15 06:49:56,1835.5913673389148,66.000002112,0.0,0.9893620316595841,1835.5913673389148,66.000002112,0.503999582744,1.14517003664544,1684,-21.9,99,P-GPS,
0.353885655823091,36.8971818665568,17500,2018-04-15 06:49:56,1836.0913673549146,66.500002128,0.0,0.982993031455776,1836.0913673549146,66.500002128,0.503999582744,1.14517003664544,1684,-21.9,99,P-GPS,
0.353885650072241,36.8971819214495,17600,2018-04-15 06:49:56,1836.5913673709147,67.000002144,0.0,0.976898031260736,1836.5913673709147,67.000002144,0.503999582744,1.14517003664544,1684,-21.9,99,P-GPS,
0.353885645242683,36.8971820048939,17700,2018-04-15 06:49:56,1837.0913673869145,67.50000216000001,0.0,0.9677320309674241,1837.0913673869145,67.50000216000001,0.503999582744,1.14517003664544,1684,-21.9,99,P-GPS,
0.353885633760728,36.8971820737686,17800,2018-04-15 06:49:56,1837.5913674029148,68.000002176,0.0,0.9599810307193921,1837.5913674029148,68.000002176,0.503999582744,1.14517003664544,1684,-21.9,99,P-GPS,
0.353885611822127,36.8971821597964,17900,2018-04-15 06:49:56,1838.0913674189146,68.500002192,0.0,0.950111030403552,1838.0913674189146,68.500002192,0.503999582744,1.14517003664544,1684,-21.9,99,P-GPS,
0.353885593082604,36.8971822225333,18000,2018-04-15 06:49:56,1838.5913674349144,69.000002208,0.0,0.9428450301710402,1838.5913674349144,69.000002208,0.503999582744,1.14517003664544,1684,-21.9,98,P-GPS,
0.353885579447846,36.8971822764079,18100,2018-04-15 06:49:56,1839.0913674509147,69.500002224,0.0,0.9366670299733441,1839.0913674509147,69.500002224,0.503999582744,1.14517003664544,1684,-21.9,98,P-GPS,
0.353885572779368,36.8971823101541,18200,2018-04-15 06:49:56,1839.5913674669146,70.00000224,0.0,0.932843029850976,1839.5913674669146,70.00000224,0.503999582744,1.14517003664544,1684,-21.9,98,P-GPS,
0.353885575134301,36.8971823808552,18300,2018-04-15 06:49:57,1840.0913674829146,70.500002256,0.0,0.9252390296076481,1840.0913674829146,70.500002256,0.503999582744,1.14517003664544,1684,-21.9,98,P-GPS,
0.35388557701719,36.8971824429787,18400,2018-04-15 06:49:57,1840.5913674989147,71.000002272,0.0,0.9185560293937921,1840.5913674989147,71.000002272,0.503999582744,1.14517003664544,1684,-21.9,98,P-GPS,
0.35388556824354,36.897182515608,18500,2018-04-15 06:49:57,1841.0913675149147,71.500002288,0.0,0.910469029135008,1841.0913675149147,71.500002288,0.503999582744,1.14517003664544,1684,-21.9,98,P-GPS,
0.353885546664215,36.8971825607272,18600,2018-04-15 06:49:57,1841.6913675341148,72.1000023072,0.0,0.905038028961216,1841.6913675341148,72.1000023072,0.503999582744,1.14517003664544,1684,-21.9,98,P-GPS,
0.353885526137271,36.8971826125152,18700,2018-04-15 06:49:57,1842.1913675501146,72.6000023232,0.0,0.8989120287651841,1842.1913675501146,72.6000023232,0.503999582744,1.14517003664544,1684,-21.9,98,P-GPS,
0.353885511312528,36.8971826290259,18800,2018-04-15 06:49:57,1842.6913675661146,73.1000023392,0.0,0.896753028696096,1842.6913675661146,73.1000023392,0.503999582744,1.14517003664544,1684,-21.9,98,P-GPS,
0.353885487501216,36.8971826286608,18900,2018-04-15 06:49:57,1843.0913675789145,73.50000235200001,0.0,0.896203028678496,1843.0913675789145,73.50000235200001,0.503999582744,1.14517003664544,1684,-21.9,98,P-GPS,
0.35388545813691,36.8971826155974,19000,2018-04-15 06:49:57,1843.5913675949146,74.00000236800001,0.0,0.8969040287009281,1843.5913675949146,74.00000236800001,0.503999582744,1.14517003664544,1684,-21.9,98,P-GPS,
0.353885436770504,36.8971826397179,19100,2018-04-15 06:49:57,1844.1913676141146,74.6000023872,0.0,0.893771028600672,1844.1913676141146,74.6000023872,0.503999582744,1.14517003664544,1684,-21.9,98,P-GPS,
0.353885423171979,36.8971826609297,19200,2018-04-15 06:49:57,1844.6913676301147,75.10000240320001,0.0,0.8911430285165761,1844.6913676301147,75.10000240320001,0.503999582744,1.14517003664544,1684,-21.9,98,P-GPS,
0.353885423122718,36.8971827160557,19300,2018-04-15 06:49:58,1845.1913676461147,75.60000241920001,0.0,0.8851550283249601,1845.1913676461147,75.60000241920001,0.503999582744,1.14517003664544,1684,-21.9,98,P-GPS,
0.353885418254078,36.8971827638086,19400,2018-04-15 06:49:58,1845.6913676621148,76.1000024352,0.0,0.879853028155296,1845.6913676621148,76.1000024352,0.503999582744,1.14517003664544,1684,-21.9,98,P-GPS,
0.353885415071487,36.89718284663,19500,2018-04-15 06:49:58,1846.1913676781146,76.6000024512,0.0,0.8707860278651521,1846.1913676781146,76.6000024512,0.503999582744,1.14517003664544,1684,-21.9,98,P-GPS,
0.353885401424313,36.8971829078188,19600,2018-04-15 06:49:58,1846.5913676909145,77.000002464,0.0,0.8638150276420801,1846.5913676909145,77.000002464,0.503999582744,1.14517003664544,1684,-21.9,98,P-GPS,
0.353885365024925,36.8971829838333,19700,2018-04-15 06:49:58,1847.0913677069148,77.50000248,0.0,0.854684027349888,1847.0913677069148,77.50000248,0.503999582744,1.14517003664544,1684,-21.9,98,P-GPS,
0.353885297747186,36.8971830842766,19900,2018-04-15 06:49:58,1848.0913677389146,78.500002512,0.0,0.842177026949664,1848.0913677389146,78.500002512,0.503999582744,1.14517003664544,1684,-21.9,98,P-GPS,
0.353885279031072,36.8971831150991,20000,2018-04-15 06:49:58,1848.5913677549147,79.000002528,0.0,0.8383890268284481,1848.5913677549147,79.000002528,0.503999582744,1.14517003664544,1684,-21.9,98,P-GPS,
0.353885244692277,36.8971831686,20100,2018-04-15 06:49:58,1849.0913677709148,79.500002544,0.0,0.831777026616864,1849.0913677709148,79.500002544,0.503999582744,1.14517003664544,1684,-21.9,98,P-GPS,
0.353885206169196,36.8971832110524,20200,2018-04-15 06:49:58,1849.5913677869146,80.00000256,0.0,0.826282026441024,1849.5913677869146,80.00000256,0.503999582744,1.14517003664544,1684,-21.9,98,P-GPS,
0.353885189670004,36.8971832796701,20300,2018-04-15 06:49:59,1850.0913678029144,80.500002576,0.0,0.8184380261900159,1850.0913678029144,80.500002576,0.503999582744,1.14517003664544,1684,-21.9,98,P-GPS,
0.35388517788353,36.8971833243557,20400,2018-04-15 06:49:59,1850.5913678189147,81.000002592,0.0,0.813307026025824,1850.5913678189147,81.000002592,0.503999582744,1.14517003664544,1684,-21.9,98,P-GPS,
0.353885146143528,36.8971833874695,20500,2018-04-15 06:49:59,1851.0913678349145,81.500002608,0.0,0.805724025783168,1851.0913678349145,81.500002608,0.503999582744,1.14517003664544,1684,-21.9,98,P-GPS,
0.353885106757982,36.8971834459177,20600,2018-04-15 06:49:59,1851.5913678509146,82.000002624,0.0,0.798488025551616,1851.5913678509146,82.000002624,0.503999582744,1.14517003664544,1684,-21.9,98,P-GPS,
0.353885087708444,36.8971835425657,20700,2018-04-15 06:49:59,1852.0913678669147,82.50000264,0.0,0.7875340252010881,1852.0913678669147,82.50000264,0.503999582744,1.14517003664544,1684,-21.9,98,P-GPS,
0.353885078398833,36.8971836304414,20800,2018-04-15 06:49:59,1852.5913678829147,83.000002656,0.0,0.777748024887936,1852.5913678829147,83.000002656,0.503999582744,1.14517003664544,1684,-21.9,98,P-GPS,
0.353885090977545,36.8971837161822,20900,2018-04-15 06:49:59,1853.0913678989145,83.500002672,0.0,0.7686810245977921,1853.0913678989145,83.500002672,0.503999582744,1.14517003664544,1684,-21.9,98,P-GPS,
0.353885107558362,36.8971837623613,21000,2018-04-15 06:49:59,1853.6913679181148,84.10000269119999,0.0,0.7640250244488,1853.6913679181148,84.10000269119999,0.503999582744,1.14517003664544,1684,-21.9,98,P-GPS,
0.353885116680905,36.8971837808366,21200,2018-04-15 06:49:59,1854.6913679501145,85.1000027232,0.0,0.762222024391104,1854.6913679501145,85.1000027232,0.503999582744,1.14517003664544,1684,-21.9,98,P-GPS,
0.353885106692234,36.8971837899324,21300,2018-04-15 06:50:00,1855.1913679661147,85.60000273920001,0.0,0.7610040243521281,1855.1913679661147,85.60000273920001,0.503999582744,1.14517003664544,1684,-21.9,98,P-GPS,
0.353885100807648,36.8971837918659,21400,2018-04-15 06:50:00,1855.6913679821146,86.10000275520001,0.0,0.7606590243410881,1855.6913679821146,86.10000275520001,0.503999582744,1.14517003664544,1684,-21.9,98,P-GPS,
0.353885094102122,36.8971837923091,21500,2018-04-15 06:50:00,1856.1913679981146,86.60000277120001,0.0,0.7604590243346879,1856.1913679981146,86.60000277120001,0.503999582744,1.14517003664544,1684,-21.9,98,P-GPS,
0.353885084309881,36.8971837790037,21600,2018-04-15 06:50:00,1856.5913680109145,87.000002784,0.0,0.7616880243740161,1856.5913680109145,87.000002784,0.503999582744,1.14517003664544,1684,-21.9,98,P-GPS,
0.353885075189374,36.8971837760478,21700,2018-04-15 06:50:00,1857.1913680301147,87.60000280320001,0.0,0.761807024377824,1857.1913680301147,87.60000280320001,0.503999582744,1.14517003664544,1684,-21.9,98,P-GPS,
0.353885067705859,36.8971837571293,21800,2018-04-15 06:50:00,1857.6913680461146,88.10000281920001,0.0,0.763703024438496,1857.6913680461146,88.10000281920001,0.503999582744,1.14517003664544,1684,-21.9,98,P-GPS,
0.353885064795423,36.8971837476759,21900,2018-04-15 06:50:00,1858.1913680621149,88.60000283520002,0.0,0.764669024469408,1858.1913680621149,88.60000283520002,0.503999582744,1.14517003664544,1684,-21.9,98,P-GPS,
0.35388506405387,36.8971837343791,22000,2018-04-15 06:50:00,1858.6913680781147,89.1000028512,0.0,0.766102024515264,1858.6913680781147,89.1000028512,0.503999582744,1.14517003664544,1684,-21.9,98,P-GPS,
0.353885078048311,36.8971837362227,22100,2018-04-15 06:50:00,1859.1913680941145,89.6000028672,0.0,0.76621002451872,1859.1913680941145,89.6000028672,0.503999582744,1.14517003664544,1684,-21.9,98,P-GPS,
0.353885101212316,36.8971837170697,22200,2018-04-15 06:50:00,1859.6913681101148,90.1000028832,0.0,0.7688130246020161,1859.6913681101148,90.1000028832,0.503999582744,1.14517003664544,1684,-21.9,98,P-GPS,
0.353885097242169,36.897183709871,22300,2018-04-15 06:50:01,1860.1913681261146,90.6000028992,0.0,0.769508024624256,1860.1913681261146,90.6000028992,0.503999582744,1.14517003664544,1684,-21.9,98,P-GPS,
0.353885091350256,36.8971836892653,22400,2018-04-15 06:50:01,1860.6913681421147,91.10000291520001,0.0,0.7716220246919041,1860.6913681421147,91.10000291520001,0.503999582744,1.14517003664544,1684,-21.9,98,P-GPS,
0.353885118472805,36.8971836593282,22500,2018-04-15 06:50:01,1861.1913681581145,91.60000293120001,0.0,0.7754900248156801,1861.1913681581145,91.60000293120001,0.503999582744,1.14517003664544,1684,-21.9,98,P-GPS,
0.353885222816168,36.8971835959339,22700,2018-04-15 06:50:01,1862.1913681901146,92.60000296320001,0.0,0.7848080251138561,1862.1913681901146,92.60000296320001,0.503999582744,1.14517003664544,1684,-21.9,98,P-GPS,
0.353885261442249,36.8971835835963,22800,2018-04-15 06:50:01,1862.6913682061145,93.10000297920001,0.0,0.7870810251865921,1862.6913682061145,93.10000297920001,0.503999582744,1.14517003664544,1684,-21.9,98,P-GPS,
0.353885291074841,36.8971835947552,22900,2018-04-15 06:50:01,1863.1913682221148,93.6000029952,0.0,0.7866020251712641,1863.1913682221148,93.6000029952,0.503999582744,1.14517003664544,1684,-21.9,98,P-GPS,
0.353885316741764,36.8971835903165,23000,2018-04-15 06:50:01,1863.6913682381146,94.1000030112,0.0,0.787728025207296,1863.6913682381146,94.1000030112,0.503999582744,1.14517003664544,1684,-21.9,98,P-GPS,
0.353885318933853,36.8971836048777,23100,2018-04-15 06:50:01,1864.1913682541146,94.6000030272,0.0,0.7862070251586241,1864.1913682541146,94.6000030272,0.503999582744,1.14517003664544,1684,-21.9,98,P-GPS,
0.353885326903051,36.8971836012676,23200,2018-04-15 06:50:01,1864.6913682701147,95.1000030432,0.0,0.7868000251776001,1864.6913682701147,95.1000030432,0.503999582744,1.14517003664544,1684,-21.9,98,P-GPS,
0.353885354811732,36.8971835853114,23300,2018-04-15 06:50:02,1865.1913682861148,95.6000030592,0.0,0.789243025255776,1865.1913682861148,95.6000030592,0.503999582744,1.14517003664544,1684,-21.9,98,P-GPS,
0.353885392948872,36.8971835517365,23400,2018-04-15 06:50:02,1865.6913683021146,96.10000307520001,0.0,0.793867025403744,1865.6913683021146,96.10000307520001,0.503999582744,1.14517003664544,1684,-21.9,98,P-GPS,
0.353885412834412,36.8971835332815,23500,2018-04-15 06:50:02,1866.1913683181149,96.60000309120001,0.0,0.796386025484352,1866.1913683181149,96.60000309120001,0.503999582744,1.14517003664544,1684,-21.9,98,P-GPS,
0.353885424917874,36.897183510754,23600,2018-04-15 06:50:02,1866.6913683341147,97.10000310720001,0.0,0.7991390255724481,1866.6913683341147,97.10000310720001,0.503999582744,1.14517003664544,1684,-21.9,98,P-GPS,
0.353885443750218,36.8971835154743,23700,2018-04-15 06:50:02,1867.1913683501145,97.60000312320001,0.0,0.7991340255722881,1867.1913683501145,97.60000312320001,0.503999582744,1.14517003664544,1684,-21.9,98,P-GPS,
0.353885471053117,36.8971835131854,23800,2018-04-15 06:50:02,1867.6913683661146,98.10000313920001,0.0,0.80012002560384,1867.6913683661146,98.10000313920001,0.503999582744,1.14517003664544,1684,-21.9,98,P-GPS,
0.353885512665154,36.8971835645783,23900,2018-04-15 06:50:02,1868.2913683853146,98.70000315840001,0.0,0.7957370254635842,1868.2913683853146,98.70000315840001,0.503999582744,1.14517003664544,1684,-21.9,98,P-GPS,
0.353885557194955,36.897183619639,24000,2018-04-15 06:50:02,1868.7913684013147,99.20000317440001,0.0,0.791089025314848,1868.7913684013147,99.20000317440001,0.503999582744,1.14517003664544,1684,-21.9,98,P-GPS,
0.353885587162599,36.8971836891036,24100,2018-04-15 06:50:02,1869.2913684173147,99.7000031904,0.0,0.7845160251045121,1869.2913684173147,99.7000031904,0.503999582744,1.14517003664544,1684,-21.9,98,P-GPS,
0.353885602261939,36.8971837347367,24200,2018-04-15 06:50:02,1869.7913684333146,100.2000032064,0.0,0.780079024962528,1869.7913684333146,100.2000032064,0.503999582744,1.14517003664544,1684,-21.9,98,P-GPS,
0.353885613464412,36.8971838065609,24300,2018-04-15 06:50:03,1870.2913684493146,100.7000032224,0.0,0.772733024727456,1870.2913684493146,100.7000032224,0.503999582744,1.14517003664544,1684,-21.9,98,P-GPS,
0.353885617737042,36.8971838680527,24400,2018-04-15 06:50:03,1870.7913684653147,101.2000032384,0.0,0.766292024521344,1870.7913684653147,101.2000032384,0.503999582744,1.14517003664544,1684,-21.9,98,P-GPS,
0.353885638332788,36.8971839534938,24500,2018-04-15 06:50:03,1871.2913684813147,101.7000032544,0.0,0.75781502425008,1871.2913684813147,101.7000032544,0.503999582744,1.14517003664544,1684,-21.9,98,P-GPS,
0.353885659443529,36.8971840330477,24600,2018-04-15 06:50:03,1871.7913684973146,102.2000032704,0.0,0.750013024000416,1871.7913684973146,102.2000032704,0.503999582744,1.14517003664544,1684,-21.9,98,P-GPS,
0.353885676060375,36.897184181776,24800,2018-04-15 06:50:03,1872.7913685293147,103.2000033024,0.0,0.734748023511936,1872.7913685293147,103.2000033024,0.503999582744,1.14517003664544,1684,-21.9,98,P-GPS,
0.353885647635071,36.8971842180317,24900,2018-04-15 06:50:03,1873.2913685453148,103.70000331840001,0.0,0.7299590233586881,1873.2913685453148,103.70000331840001,0.503999582744,1.14517003664544,1684,-21.9,98,P-GPS,
0.353885601225638,36.8971842522748,25000,2018-04-15 06:50:03,1873.7913685613146,104.2000033344,0.0,0.724804023193728,1873.7913685613146,104.2000033344,0.503999582744,1.14517003664544,1684,-21.9,98,P-GPS,
0.353885555286012,36.897184348213,25100,2018-04-15 06:50:03,1874.2913685773146,104.7000033504,0.0,0.713113022819616,1874.2913685773146,104.7000033504,0.503999582744,1.14517003664544,1684,-21.9,98,P-GPS,
0.353885512283284,36.8971844479412,25200,2018-04-15 06:50:03,1874.7913685933147,105.2000033664,0.0,0.701116022435712,1874.7913685933147,105.2000033664,0.503999582744,1.14517003664544,1684,-21.9,98,P-GPS,
0.353885457167783,36.8971845645966,25300,2018-04-15 06:50:04,1875.2913686093145,105.7000033824,0.0,0.68693502198192,1875.2913686093145,105.7000033824,0.503999582744,1.14517003664544,1684,-21.9,98,P-GPS,
0.353885382589933,36.8971846589493,25400,2018-04-15 06:50:04,1875.7913686253148,106.2000033984,0.0,0.6745390215852481,1875.7913686253148,106.2000033984,0.503999582744,1.14517003664544,1664,-21.9,98,P-GPS,
0.353885286880987,36.8971847929505,25500,2018-04-15 06:50:04,1876.1913686381147,106.6000034112,0.0,0.6573040210337281,1876.1913686381147,106.6000034112,0.503999582744,1.14517003664544,1522,-21.9,98,P-GPS,
0.353885190346012,36.8971849227432,25600,2018-04-15 06:50:04,1876.6913686541147,107.10000342720001,0.0,0.640557020497824,1876.6913686541147,107.10000342720001,0.503999582744,1.14517003664544,1179,-21.9,98,P-GPS,
0.353885112831467,36.8971850718462,25700,2018-04-15 06:50:04,1877.1913686701146,107.60000344320001,0.0,0.622328019914496,1877.1913686701146,107.60000344320001,0.503999582744,1.14517003664544,1024,-21.9,98,P-GPS,
0.353885053411581,36.8971851837235,25800,2018-04-15 06:50:04,1877.6913686861149,108.1000034592,0.0,0.608633019476256,1877.6913686861149,108.1000034592,0.503999582744,1.14517003664544,1024,-21.9,98,P-GPS,
0.353884986212415,36.8971852784595,25900,2018-04-15 06:50:04,1877.9913686957145,108.40000346880001,0.0,0.5966000190912,1877.9913686957145,108.40000346880001,0.503999582744,1.14517003664544,1024,-21.9,98,P-GPS,
0.35388492008161,36.8971853407029,26000,2018-04-15 06:50:04,1878.2913687053147,108.70000347840002,0.0,0.5881480188207361,1878.2913687053147,108.70000347840002,0.503999582744,1.14517003664544,1015,-21.9,98,P-GPS,
0.35388486698945,36.8971854712547,26100,2018-04-15 06:50:04,1878.4913687117148,108.90000348480001,0.0,0.5726680183253761,1878.4913687117148,108.90000348480001,0.503999582744,1.14517003664544,849,-21.9,98,P-GPS,
0.353884825292531,36.89718560196,26200,2018-04-15 06:50:04,1878.5913687149148,109.000003488,0.0,0.557463017838816,1878.5913687149148,109.000003488,0.503999582744,1.14517003664544,694,-21.9,98,P-GPS,
0.353884791400133,36.8971857312613,26300,2018-04-15 06:50:05,1878.6913687181145,109.1000034912,0.0,0.5426050173633601,1878.6913687181145,109.1000034912,0.503999582744,1.14517003664544,610,-21.9,98,P-GPS,
0.353884770589738,36.8971858322881,26400,2018-04-15 06:50:05,1878.6913687181145,109.1000034912,0.0,0.531138016996416,1878.6913687181145,109.1000034912,0.503999582744,1.14517003664544,595,-21.9,98,P-GPS,
0.353884781413904,36.8971859263379,26500,2018-04-15 06:50:05,1878.6913687181145,109.1000034912,0.0,0.5212230166791361,1878.6913687181145,109.1000034912,0.503999582744,1.14517003664544,629,-21.9,98,P-GPS,
0.353884795641721,36.8971859993547,26600,2018-04-15 06:50:05,1878.5913687149148,109.000003488,0.0,0.513694016438208,1878.6913687181145,109.1000034912,0.503999582744,1.14517003664544,832,-21.9,98,P-GPS,
0.353884801678668,36.8971861148222,26700,2018-04-15 06:50:05,1878.4913687117148,108.90000348480001,0.0,0.501389016044448,1878.6913687181145,109.1000034912,0.503999582744,1.14517003664544,1016,-21.9,98,P-GPS,
0.353884805827842,36.8971862165883,26800,2018-04-15 06:50:05,1878.3913687085146,108.80000348160002,0.0,0.49053401569708804,1878.6913687181145,109.1000034912,0.503999582744,1.14517003664544,1142,-21.9,98,P-GPS,
0.353884816355121,36.8971863205646,26900,2018-04-15 06:50:05,1878.2913687053147,108.70000347840002,0.0,0.479646015348672,1878.6913687181145,109.1000034912,0.503999582744,1.14517003664544,1287,-21.9,98,P-GPS,
0.353884837783714,36.8971864053243,27000,2018-04-15 06:50:05,1878.1913687021147,108.6000034752,0.0,0.471176015077632,1878.6913687181145,109.1000034912,0.503999582744,1.14517003664544,1337,-21.9,98,P-GPS,
0.353884897154747,36.8971864872624,27100,2018-04-15 06:50:05,1878.1913687021147,108.6000034752,0.0,0.464244014855808,1878.6913687181145,109.1000034912,0.503999582744,1.14517003664544,1352,-21.9,98,P-GPS,
0.353884979491216,36.8971865163874,27200,2018-04-15 06:50:05,1878.2913687053147,108.70000347840002,0.0,0.46385601484339206,1878.6913687181145,109.1000034912,0.503999582744,1.14517003664544,1359,-21.9,98,P-GPS,
0.353885062320392,36.897186516996,27300,2018-04-15 06:50:05,1878.3913687085146,108.80000348160002,0.0,0.46668801493401607,1878.6913687181145,109.1000034912,0.503999582744,1.14517003664544,1357,-21.9,98,P-GPS,
0.353885141014133,36.897186464396,27400,2018-04-15 06:50:06,1878.4913687117148,108.90000348480001,0.0,0.47509601520307204,1878.6913687181145,109.1000034912,0.503999582744,1.14517003664544,1340,-21.9,98,P-GPS,
0.353885208654405,36.8971863940209,27500,2018-04-15 06:50:06,1878.6913687181145,109.1000034912,0.0,0.48501501552048004,1878.6913687181145,109.1000034912,0.503999582744,1.14517003664544,1336,-21.9,98,P-GPS,
0.353885287400053,36.8971862662083,27600,2018-04-15 06:50:06,1878.7913687213145,109.2000034944,0.35999970196000003,0.5013870160443841,1878.7913687213145,109.2000034944,0.503999582744,1.14517003664544,1324,-21.9,98,P-GPS,
0.353885359486994,36.8971861530125,27700,2018-04-15 06:50:06,1878.9913687277146,109.40000350080001,0.35999970196000003,0.5159960165118721,1878.9913687277146,109.40000350080001,0.503999582744,1.14517003664544,1312,-21.9,98,P-GPS,
0.353885446003578,36.8971860179557,27800,2018-04-15 06:50:06,1879.1913687341146,109.6000035072,0.35999970196000003,0.533471017071072,1879.1913687341146,109.6000035072,0.503999582744,1.14517003664544,1302,-21.9,98,P-GPS,
0.35388550810205,36.8971859445423,27900,2018-04-15 06:50:06,1879.3913687405147,109.8000035136,0.35999970196000003,0.54359501739504,1879.3913687405147,109.8000035136,0.503999582744,1.14517003664544,1249,-21.9,98,P-GPS,
0.353885570660151,36.8971858490729,28000,2018-04-15 06:50:06,1879.4913687437145,109.90000351680001,0.35999970196000003,0.55603501779312,1879.4913687437145,109.90000351680001,0.503999582744,1.14517003664544,1165,-21.9,98,P-GPS,
0.353885573501175,36.8971858268018,28100,2018-04-15 06:50:06,1879.6913687501146,110.1000035232,0.35999970196000003,0.558451017870432,1879.6913687501146,110.1000035232,0.503999582744,1.14517003664544,1165,-21.9,98,P-GPS,
0.353885581670265,36.8971857929646,28200,2018-04-15 06:50:06,1879.7913687533146,110.2000035264,0.35999970196000003,0.562282017993024,1879.7913687533146,110.2000035264,0.503999582744,1.14517003664544,1081,-21.9,98,P-GPS,
0.353885600023032,36.8971858218509,28300,2018-04-15 06:50:07,1879.8913687565146,110.3000035296,0.35999970196000003,0.56006501792208,1879.8913687565146,110.3000035296,0.503999582744,1.14517003664544,1065,-21.9,98,P-GPS,
0.353885637818403,36.8971858009475,28400,2018-04-15 06:50:07,1879.9913687597148,110.40000353280001,0.35999970196000003,0.563808018041856,1879.9913687597148,110.40000353280001,0.503999582744,1.14517003664544,1079,-21.9,98,P-GPS,
0.353885628718047,36.8971857834994,28600,2018-04-15 06:50:07,1879.9913687597148,110.40000353280001,0.35999970196000003,0.565219018087008,1879.9913687597148,110.40000353280001,0.503999582744,1.14517003664544,1024,-21.9,98,P-GPS,
0.353885623536746,36.8971858192284,28700,2018-04-15 06:50:07,1880.0913687629147,110.50000353600001,0.35999970196000003,0.561324017962368,1880.0913687629147,110.50000353600001,0.503999582744,1.14517003664544,1024,-21.9,98,P-GPS,
0.353885639742817,36.8971858361321,28800,2018-04-15 06:50:07,1880.0913687629147,110.50000353600001,0.0,0.5602750179288,1880.0913687629147,110.50000353600001,0.503999582744,1.14517003664544,1024,-21.9,98,P-GPS,
0.353885663896305,36.8971859588492,29000,2018-04-15 06:50:07,1880.0913687629147,110.50000353600001,0.0,0.54876001756032,1880.0913687629147,110.50000353600001,0.503999582744,1.14517003664544,1024,-21.9,98,P-GPS,
0.353885666902413,36.8971860430227,29100,2018-04-15 06:50:07,1880.0913687629147,110.50000353600001,0.0,0.540316017290112,1880.0913687629147,110.50000353600001,0.503999582744,1.14517003664544,1024,-21.9,98,P-GPS,
0.353885699723905,36.89718617899,29300,2018-04-15 06:50:08,1880.0913687629147,110.50000353600001,0.0,0.528041016897312,1880.0913687629147,110.50000353600001,0.503999582744,1.14517003664544,1024,-21.9,98,P-GPS,
0.353885727114333,36.8971862551303,29400,2018-04-15 06:50:08,1880.0913687629147,110.50000353600001,0.0,0.5216750166936001,1880.0913687629147,110.50000353600001,0.503999582744,1.14517003664544,1024,-21.9,98,P-GPS,
0.353885723026328,36.897186365937,29500,2018-04-15 06:50:08,1880.0913687629147,110.50000353600001,0.0,0.510384016332288,1880.0913687629147,110.50000353600001,0.503999582744,1.14517003664544,1024,-21.9,98,P-GPS,
0.353885712968854,36.8971864553136,29600,2018-04-15 06:50:08,1880.0913687629147,110.50000353600001,0.0,0.500976016031232,1880.0913687629147,110.50000353600001,0.503999582744,1.14517003664544,1024,-21.9,98,P-GPS,
0.353885678722474,36.897186593632,29700,2018-04-15 06:50:08,1880.0913687629147,110.50000353600001,0.0,0.48552201553670404,1880.0913687629147,110.50000353600001,0.503999582744,1.14517003664544,1024,-21.9,98,P-GPS,
0.353885646570679,36.8971867133985,29800,2018-04-15 06:50:08,1880.0913687629147,110.50000353600001,0.0,0.472034015105088,1880.0913687629147,110.50000353600001,0.503999582744,1.14517003664544,1024,-21.9,98,P-GPS,
0.353885591708197,36.8971868588289,29900,2018-04-15 06:50:08,1880.0913687629147,110.50000353600001,0.0,0.454866014555712,1880.0913687629147,110.50000353600001,0.503999582744,1.14517003664544,1024,-21.9,98,P-GPS,
0.353885560154856,36.8971869675576,30000,2018-04-15 06:50:08,1880.0913687629147,110.50000353600001,0.0,0.44252601416083204,1880.0913687629147,110.50000353600001,0.503999582744,1.14517003664544,1024,-21.9,98,P-GPS,
0.353885552648543,36.8971871066928,30100,2018-04-15 06:50:08,1880.0913687629147,110.50000353600001,0.0,0.428497013711904,1880.0913687629147,110.50000353600001,0.503999582744,1.14517003664544,1024,-21.9,98,P-GPS,
0.353885572724204,36.8971872074273,30200,2018-04-15 06:50:08,1880.0913687629147,110.50000353600001,0.0,0.419801013433632,1880.0913687629147,110.50000353600001,0.503999582744,1.14517003664544,1024,-21.9,98,P-GPS,
0.353885596582537,36.8971873039641,30300,2018-04-15 06:50:09,1880.0913687629147,110.50000353600001,0.0,0.411854013179328,1880.0913687629147,110.50000353600001,0.503999582744,1.14517003664544,1024,-21.9,98,P-GPS,
0.353885635090556,36.8971873546488,30400,2018-04-15 06:50:09,1880.0913687629147,110.50000353600001,0.0,0.409247013095904,1880.0913687629147,110.50000353600001,0.503999582744,1.14517003664544,1024,-21.9,98,P-GPS,
0.353885664188815,36.8971874197956,30500,2018-04-15 06:50:09,1880.0913687629147,110.50000353600001,0.0,0.404829012954528,1880.0913687629147,110.50000353600001,0.503999582744,1.14517003664544,1024,-21.9,98,P-GPS,
0.353885699772555,36.8971874342717,30600,2018-04-15 06:50:09,1880.0913687629147,110.50000353600001,0.0,0.405623012979936,1880.0913687629147,110.50000353600001,0.503999582744,1.14517003664544,1024,-21.9,98,P-GPS,
0.35388574120933,36.8971874836589,30700,2018-04-15 06:50:09,1880.0913687629147,110.50000353600001,0.0,0.40360301291529604,1880.0913687629147,110.50000353600001,0.503999582744,1.14517003664544,1024,-21.9,98,P-GPS,
0.353885803031782,36.8971874971334,30800,2018-04-15 06:50:09,1880.0913687629147,110.50000353600001,0.0,0.40627101300067203,1880.0913687629147,110.50000353600001,0.503999582744,1.14517003664544,1024,-21.9,98,P-GPS,
0.353885872268132,36.897187533509,30900,2018-04-15 06:50:09,1880.0913687629147,110.50000353600001,0.0,0.407472013039104,1880.0913687629147,110.50000353600001,0.503999582744,1.14517003664544,1024,-21.9,98,P-GPS,
0.35388595712818,36.8971875162007,31000,2018-04-15 06:50:09,1880.0913687629147,110.50000353600001,0.35999970196000003,0.41465601326899204,1880.0913687629147,110.50000353600001,0.503999582744,1.14517003664544,1024,-21.9,97,P-GPS,
0.353886037342685,36.8971875182814,31100,2018-04-15 06:50:09,1880.0913687629147,110.50000353600001,0.35999970196000003,0.419921013437472,1880.0913687629147,110.50000353600001,0.503999582744,1.14517003664544,1024,-21.9,97,P-GPS,
0.353886116222681,36.897187487854,31200,2018-04-15 06:50:09,1880.0913687629147,110.50000353600001,0.0,0.428027013696864,1880.0913687629147,110.50000353600001,0.503999582744,1.14517003664544,1024,-21.9,97,P-GPS,
0.353886187307721,36.8971875629049,31300,2018-04-15 06:50:10,1880.0913687629147,110.50000353600001,0.0,0.42662501365200006,1880.0913687629147,110.50000353600001,0.503999582744,1.14517003664544,1024,-21.9,97,P-GPS,
0.353886254097334,36.8971875802106,31400,2018-04-15 06:50:10,1880.0913687629147,110.50000353600001,0.35999970196000003,0.430018013760576,1880.0913687629147,110.50000353600001,0.503999582744,1.14517003664544,1024,-21.9,97,P-GPS,
