latitude,longitude,time_millisecond,datetime_utc,altitude_m,ascent_m,speed_kph,distance_m,max_altitude_m,max_ascent_m,max_speed_kph,max_distance_m,rc_throttle,gimbal_pitch_degrees,battery_percent,flycState,message
0.0805171792151542,36.878448521875,0,2018-04-11 08:31:50,1808.9251066856043,0.0,0.0,0.0,1808.9251066856043,0.0,0.0,0.0,364,0.0,98,Motors_Started,
0.0805171752059251,36.8784485442029,100,2018-04-11 08:31:50,1808.9251066856043,0.0,0.0,0.0025227000807264,1808.9251066856043,0.0,0.0,0.0025227000807264,364,0.0,98,Motors_Started,
0.0805171700860971,36.878448562985,200,2018-04-11 08:31:50,1808.9251066856043,0.0,0.0,0.0046830301498569605,1808.9251066856043,0.0,0.0,0.0046830301498569605,364,0.0,98,Motors_Started,
0.0805171678062755,36.8784486033626,300,2018-04-11 08:31:50,1808.9251066856043,0.0,0.0,0.00915029029280928,1808.9251066856043,0.0,0.0,0.00915029029280928,364,0.0,98,Motors_Started,
0.0805171632824581,36.8784486411366,400,2018-04-11 08:31:50,1808.9251066856043,0.0,0.0,0.0133804004281728,1808.9251066856043,0.0,0.0,0.0133804004281728,364,0.0,98,Motors_Started,
0.0805171604587362,36.87844866364,500,2018-04-11 08:31:51,1808.9251066856043,0.0,0.0,0.01590250050888,1808.9251066856043,0.0,0.0,0.01590250050888,364,0.0,98,Motors_Started,
0.0805171545149156,36.878448682906,600,2018-04-11 08:31:51,1808.9251066856043,0.0,0.0,0.018117000579744,1808.9251066856043,0.0,0.0,0.018117000579744,364,0.0,98,Motors_Started,
0.0805171879696691,36.8784486863447,700,2018-04-11 08:31:51,1808.9251066856043,0.0,0.0,0.0183159005861088,1808.9251066856043,0.0,0.0,0.0183159005861088,403,0.0,98,Motors_Started,Setting new Return-To-Home altitude to 45m (148 ft). Setting new Maximum Flight Altitude to 150m (492 ft)
0.0805172121260073,36.8784486940999,800,2018-04-11 08:31:51,1808.9251066856043,0.0,0.0,0.019499000623968,1808.9251066856043,0.0,0.0,0.019499000623968,681,0.0,98,Motors_Started,
0.08051723659175,36.8784487233522,900,2018-04-11 08:31:51,1808.9251066856043,0.0,0.0,0.0232963007454816,1808.9251066856043,0.0,0.0,0.0232963007454816,1024,0.0,98,Motors_Started,
0.0805172525309598,36.878448753902,1000,2018-04-11 08:31:51,1808.9251066856043,0.0,0.0,0.0270603008659296,1808.9251066856043,0.0,0.0,0.0270603008659296,1024,0.0,98,Motors_Started,
0.0805172670566802,36.8784487704659,1100,2018-04-11 08:31:51,1808.9251066856043,0.0,0.0,0.0293199009382368,1808.9251066856043,0.0,0.0,0.0293199009382368,1024,0.0,98,Motors_Started,
0.0805172816051989,36.8784487882845,1200,2018-04-11 08:31:51,1808.9251066856043,0.0,0.0,0.0317391010156512,1808.9251066856043,0.0,0.0,0.0317391010156512,1024,0.0,98,Motors_Started,
0.0805172943949981,36.8784488277115,1300,2018-04-11 08:31:51,1808.9251066856043,0.0,0.0,0.036342801162969604,1808.9251066856043,0.0,0.0,0.036342801162969604,1024,0.0,98,Motors_Started,
0.0805172960950936,36.8784488634043,1400,2018-04-11 08:31:51,1808.9251066856043,0.0,0.0,0.040142601284563206,1808.9251066856043,0.0,0.0,0.040142601284563206,1024,0.0,98,Motors_Started,
0.0805173175351873,36.8784488775615,1500,2018-04-11 08:31:52,1808.9251066856043,0.0,0.0,0.042440101358083196,1808.9251066856043,0.0,0.0,0.042440101358083196,1024,0.0,98,Motors_Started,
0.0805173486514952,36.8784488950675,1600,2018-04-11 08:31:52,1808.9251066856043,0.0,0.0,0.0455784014585088,1808.9251066856043,0.0,0.0,0.0455784014585088,1024,0.0,98,Assisted_Takeoff,
0.0805173459189661,36.8784489002876,1700,2018-04-11 08:31:52,1808.9251066856043,0.0,0.0,0.0459842014714944,1808.9251066856043,0.0,0.0,0.0459842014714944,1024,0.0,98,Assisted_Takeoff,
0.0805173333506354,36.8784489073148,1800,2018-04-11 08:31:52,1808.9251066856043,0.0,0.0,0.046163401477228805,1808.9251066856043,0.0,0.0,0.046163401477228805,1024,0.0,98,Assisted_Takeoff,
0.0805173455476809,36.8784489346444,1900,2018-04-11 08:31:52,1808.9251066856043,0.0,0.0,0.0494892015836544,1808.9251066856043,0.0,0.0,0.0494892015836544,1024,0.0,98,Assisted_Takeoff,
0.0805173512700331,36.8784489576317,2000,2018-04-11 08:31:52,1808.9251066856043,0.0,0.0,0.0520994016671808,1808.9251066856043,0.0,0.0,0.0520994016671808,1024,0.0,98,Assisted_Takeoff,
0.0805173646135032,36.8784489716947,2100,2018-04-11 08:31:52,1808.9251066856043,0.0,0.0,0.0541049017313568,1808.9251066856043,0.0,0.0,0.0541049017313568,1024,0.0,98,Assisted_Takeoff,
0.0805173736187985,36.8784489882457,2200,2018-04-11 08:31:52,1808.9251066856043,0.0,0.0,0.0561887017980384,1808.9251066856043,0.0,0.0,0.0561887017980384,1024,0.0,98,Assisted_Takeoff,
0.0805173817023945,36.8784490268034,2300,2018-04-11 08:31:52,1808.9251066856043,0.0,0.0,0.0604979019359328,1808.9251066856043,0.0,0.0,0.0604979019359328,1024,0.0,98,Assisted_Takeoff,
0.0805173809630809,36.8784490630315,2400,2018-04-11 08:31:52,1808.9251066856043,0.0,0.0,0.0642259020552288,1808.9251066856043,0.0,0.0,0.0642259020552288,1024,0.0,98,Assisted_Takeoff,
0.080517373924946,36.8784490798994,2500,2018-04-11 08:31:53,1808.9251066856043,0.0,0.0,0.0657248021031936,1808.9251066856043,0.0,0.0,0.0657248021031936,1024,0.0,98,Assisted_Takeoff,
0.0805173642682731,36.8784490964761,2600,2018-04-11 08:31:53,1808.9251066856043,0.0,0.0,0.0671311021481952,1808.9251066856043,0.0,0.0,0.0671311021481952,1024,0.0,98,Assisted_Takeoff,
0.0805173605261088,36.8784491334622,2700,2018-04-11 08:31:53,1808.9251066856043,0.0,0.0,0.07093800227001601,1808.9251066856043,0.0,0.0,0.07093800227001601,1024,0.0,98,Assisted_Takeoff,
0.0805173568067427,36.8784491722512,2800,2018-04-11 08:31:53,1808.9251066856043,0.0,0.0,0.07497360239915521,1808.9251066856043,0.0,0.0,0.07497360239915521,1024,0.0,98,Assisted_Takeoff,
0.0805173582430303,36.8784491946218,2900,2018-04-11 08:31:53,1808.9251066856043,0.0,0.0,0.0774172024773504,1808.9251066856043,0.0,0.0,0.0774172024773504,1024,0.0,98,Assisted_Takeoff,
0.0805173551359592,36.8784492169582,3000,2018-04-11 08:31:53,1808.9251066856043,0.0,0.0,0.0797347025515104,1808.9251066856043,0.0,0.0,0.0797347025515104,1024,0.0,98,Assisted_Takeoff,
0.0805173894309897,36.8784492555244,3100,2018-04-11 08:31:53,1808.9251066856043,0.0,0.0,0.08486930271581761,1808.9251066856043,0.0,0.0,0.08486930271581761,1024,0.0,98,Assisted_Takeoff,
0.0805174123562243,36.8784492950071,3200,2018-04-11 08:31:53,1808.9251066856043,0.0,0.0,0.089801002873632,1808.9251066856043,0.0,0.0,0.089801002873632,1024,0.0,98,Assisted_Takeoff,
0.0805174352456331,36.8784493133267,3300,2018-04-11 08:31:53,1808.9251066856043,0.0,0.0,0.0925049029601568,1808.9251066856043,0.0,0.0,0.0925049029601568,1024,0.0,98,Assisted_Takeoff,
0.0805174466219429,36.8784493338303,3400,2018-04-11 08:31:53,1808.9251066856043,0.0,0.0,0.09506500304208,1808.9251066856043,0.0,0.0,0.09506500304208,1027,0.0,98,Assisted_Takeoff,
0.0805174585226116,36.878449369613,3500,2018-04-11 08:31:54,1808.9251066856043,0.0,0.0,0.0992586031762752,1808.9251066856043,0.0,0.0,0.0992586031762752,1088,0.0,98,Assisted_Takeoff,
0.0805174653067093,36.8784494081151,3600,2018-04-11 08:31:54,1808.9251066856043,0.0,0.0,0.10356300331401601,1808.9251066856043,0.0,0.0,0.10356300331401601,1133,0.0,98,Assisted_Takeoff,
0.0805174723318167,36.8784494245933,3700,2018-04-11 08:31:54,1808.9251066856043,0.0,0.0,0.105547003377504,1808.9251066856043,0.0,0.0,0.105547003377504,1135,0.0,98,Assisted_Takeoff,
0.0805174736703977,36.8784494442918,3800,2018-04-11 08:31:54,1808.9251066856043,0.0,0.0,0.107678003445696,1808.9251066856043,0.0,0.0,0.107678003445696,1135,0.0,98,Assisted_Takeoff,
0.0805174713514934,36.8784494414441,3900,2018-04-11 08:31:54,1808.9251066856043,0.0,0.0,0.107298003433536,1808.9251066856043,0.0,0.0,0.107678003445696,1177,0.0,98,Assisted_Takeoff,
0.0805174661665278,36.8784494463387,4000,2018-04-11 08:31:54,1808.9251066856043,0.0,0.0,0.10764500344464001,1808.9251066856043,0.0,0.0,0.107678003445696,1235,0.0,98,Assisted_Takeoff,
0.0805174571286636,36.878449495752,4200,2018-04-11 08:31:54,1808.9251066856043,0.0,0.0,0.112624003603968,1808.9251066856043,0.0,0.0,0.112624003603968,1235,0.0,98,Assisted_Takeoff,
0.0805174558226515,36.8784495071257,4300,2018-04-11 08:31:54,1808.9251066856043,0.0,0.0,0.113802003641664,1808.9251066856043,0.0,0.0,0.113802003641664,1239,0.0,98,Assisted_Takeoff,
0.0805174404468833,36.8784495225933,4400,2018-04-11 08:31:54,1808.9251066856043,0.0,0.0,0.11501500368048001,1808.9251066856043,0.0,0.0,0.11501500368048001,1247,0.0,98,Assisted_Takeoff,
0.0805173910398924,36.8784495496274,4500,2018-04-11 08:31:55,1808.9251066856043,0.0,0.0,0.116694003734208,1808.9251066856043,0.0,0.0,0.116694003734208,1252,0.0,98,Assisted_Takeoff,
0.0805172844908017,36.878449533496,4600,2018-04-11 08:31:55,1808.9251066856043,0.0,0.503999582744,0.113106003619392,1808.9251066856043,0.0,0.503999582744,0.116694003734208,1252,0.0,98,P-GPS,
0.0805171223075503,36.8784494201697,4700,2018-04-11 08:31:55,1808.9251066856043,0.0,0.7919993443119999,0.100096003203072,1808.9251066856043,0.0,0.7919993443119999,0.116694003734208,1264,0.0,98,P-GPS,
0.0805169462369284,36.8784492751544,4800,2018-04-11 08:31:55,1808.9251066856043,0.0,0.7919993443119999,0.0876843028058976,1808.9251066856043,0.0,0.7919993443119999,0.116694003734208,1278,0.0,98,P-GPS,Home Point Recorded. RTH Altitude:  45m.
0.0805167327576911,36.8784490615156,4900,2018-04-11 08:31:55,1809.025106688804,0.1000000032,0.503999582744,0.0778868024923776,1809.025106688804,0.1000000032,0.7919993443119999,0.116694003734208,1292,0.0,98,P-GPS,
0.0805165121230708,36.8784488804092,5000,2018-04-11 08:31:55,1809.025106688804,0.1000000032,0.7919993443119999,0.08422040269505279,1809.025106688804,0.1000000032,0.7919993443119999,0.116694003734208,1296,0.0,98,P-GPS,
0.0805162915861572,36.878448755161,5100,2018-04-11 08:31:55,1809.125106692004,0.2000000064,0.7199994039200001,0.10206200326598401,1809.125106692004,0.2000000064,0.7919993443119999,0.116694003734208,1306,0.0,98,P-GPS,
0.080516065483222,36.8784486891624,5200,2018-04-11 08:31:55,1809.225106695204,0.3000000096,0.7199994039200001,0.125243004007776,1809.225106695204,0.3000000096,0.7919993443119999,0.125243004007776,1336,0.0,98,P-GPS,
0.0805158619635482,36.8784486273049,5300,2018-04-11 08:31:55,1809.3251066984042,0.4000000128,0.7199994039200001,0.14695500470256,1809.3251066984042,0.4000000128,0.7919993443119999,0.14695500470256,1336,0.0,98,P-GPS,
0.080515663133793,36.8784485929524,5400,2018-04-11 08:31:55,1809.4251067016041,0.500000016,0.35999970196000003,0.168783005401056,1809.4251067016041,0.500000016,0.7919993443119999,0.168783005401056,1340,0.0,98,P-GPS,
0.0805154639588078,36.8784485403188,5500,2018-04-11 08:31:56,1809.625106708004,0.7000000224,0.35999970196000003,0.19075800610425603,1809.625106708004,0.7000000224,0.7919993443119999,0.19075800610425603,1346,0.0,98,P-GPS,
0.0805152781956873,36.8784485058764,5600,2018-04-11 08:31:56,1809.7251067112043,0.8000000256,0.35999970196000003,0.211412006765184,1809.7251067112043,0.8000000256,0.7919993443119999,0.211412006765184,1350,0.0,98,P-GPS,
0.0805151174422097,36.8784484988449,5700,2018-04-11 08:31:56,1809.925106717604,1.000000032,0.35999970196000003,0.22929600733747202,1809.925106717604,1.000000032,0.7919993443119999,0.22929600733747202,1367,0.0,98,P-GPS,
0.0805149693808246,36.8784485046046,5800,2018-04-11 08:31:56,1810.025106720804,1.1000000352000001,0.35999970196000003,0.24575500786416002,1810.025106720804,1.1000000352000001,0.7919993443119999,0.24575500786416002,1370,0.0,98,P-GPS,
0.0805148280839959,36.8784484815017,5900,2018-04-11 08:31:56,1810.225106727204,1.3000000416000002,0.35999970196000003,0.261499008367968,1810.225106727204,1.3000000416000002,0.7919993443119999,0.261499008367968,1370,0.0,98,P-GPS,
0.0805147061786783,36.8784484600132,6000,2018-04-11 08:31:56,1810.425106733604,1.5000000480000002,0.35999970196000003,0.275103008803296,1810.425106733604,1.5000000480000002,0.7919993443119999,0.275103008803296,1395,0.0,98,P-GPS,
0.0805146150607229,36.8784484309322,6100,2018-04-11 08:31:56,1810.6251067400042,1.7000000544000002,0.35999970196000003,0.285329009130528,1810.6251067400042,1.7000000544000002,0.7919993443119999,0.285329009130528,1405,0.0,98,P-GPS,
0.0805145527043453,36.878448406506,6200,2018-04-11 08:31:56,1810.8251067464041,1.9000000608000003,0.0,0.292366009355712,1810.8251067464041,1.9000000608000003,0.7919993443119999,0.292366009355712,1415,0.0,98,P-GPS,
0.0805144876740628,36.8784483534914,6300,2018-04-11 08:31:56,1811.025106752804,2.1000000672000003,0.0,0.299901009596832,1811.025106752804,2.1000000672000003,0.7919993443119999,0.299901009596832,1409,0.0,98,P-GPS,
0.0805144420580895,36.8784483136104,6400,2018-04-11 08:31:56,1811.2251067592042,2.3000000736,0.0,0.305268009768576,1811.2251067592042,2.3000000736,0.7919993443119999,0.305268009768576,1415,0.0,98,P-GPS,
0.0805144124985741,36.8784482797247,6500,2018-04-11 08:31:57,1811.525106768804,2.6000000832000003,0.0,0.308852009883264,1811.525106768804,2.6000000832000003,0.7919993443119999,0.308852009883264,1405,0.0,98,P-GPS,
0.0805143870557651,36.8784482495582,6600,2018-04-11 08:31:57,1811.725106775204,2.8000000896,0.0,0.311978009983296,1811.725106775204,2.8000000896,0.7919993443119999,0.311978009983296,1411,0.0,98,P-GPS,
0.0805143876289774,36.878448249843,6700,2018-04-11 08:31:57,1811.925106781604,3.0000000960000004,0.0,0.311912009981184,1811.925106781604,3.0000000960000004,0.7919993443119999,0.311978009983296,1417,0.0,98,P-GPS,
0.0805143959796382,36.8784482719074,6800,2018-04-11 08:31:57,1812.225106791204,3.3000001056,0.0,0.310759009944288,1812.225106791204,3.3000001056,0.7919993443119999,0.311978009983296,1428,0.0,98,P-GPS,
0.0805144043986936,36.8784482756823,6900,2018-04-11 08:31:57,1812.4251067976043,3.500000112,0.0,0.30978900991324804,1812.4251067976043,3.500000112,0.7919993443119999,0.311978009983296,1424,0.0,98,P-GPS,
0.0805144176281727,36.8784482761512,7000,2018-04-11 08:31:57,1812.625106804004,3.7000001184,0.0,0.308319009866208,1812.625106804004,3.7000001184,0.7919993443119999,0.311978009983296,1424,0.0,98,P-GPS,
0.0805144305091647,36.8784482673832,7100,2018-04-11 08:31:57,1812.925106813604,4.000000128,0.0,0.30698000982336004,1812.925106813604,4.000000128,0.7919993443119999,0.311978009983296,1418,0.0,98,P-GPS,
0.0805144402668011,36.8784482766972,7200,2018-04-11 08:31:57,1813.1251068200042,4.200000134400001,0.0,0.30580600978579203,1813.1251068200042,4.200000134400001,0.7919993443119999,0.311978009983296,1422,0.0,98,P-GPS,
0.0805144420711171,36.8784482929977,7300,2018-04-11 08:31:57,1813.425106829604,4.500000144,0.0,0.305449009774368,1813.425106829604,4.500000144,0.7919993443119999,0.311978009983296,1433,0.0,98,P-GPS,
0.0805144488942974,36.878448313225,7400,2018-04-11 08:31:57,1813.625106836004,4.7000001504,0.0,0.30451400974444803,1813.625106836004,4.7000001504,0.7919993443119999,0.311978009983296,1444,0.0,98,P-GPS,
0.0805144932075155,36.8784483838099,7500,2018-04-11 08:31:57,1813.825106842404,4.9000001568,0.0,0.29909500957104,1813.825106842404,4.9000001568,0.7919993443119999,0.311978009983296,1442,0.0,98,P-GPS,
0.0805145461873125,36.8784484488921,7600,2018-04-11 08:31:58,1814.1251068520041,5.200000166400001,0.0,0.29292100937347204,1814.1251068520041,5.200000166400001,0.7919993443119999,0.311978009983296,1437,0.0,98,P-GPS,
0.0805146289936897,36.8784484890599,7700,2018-04-11 08:31:58,1814.3251068584043,5.4000001728,0.0,0.283624009075968,1814.3251068584043,5.4000001728,0.7919993443119999,0.311978009983296,1443,0.0,98,P-GPS,
0.0805147086604269,36.8784485080176,7800,2018-04-11 08:31:58,1814.625106868004,5.7000001824,0.0,0.27474500879184,1814.625106868004,5.7000001824,0.7919993443119999,0.311978009983296,1444,0.0,98,P-GPS,
0.0805147997783823,36.8784485046303,7900,2018-04-11 08:31:58,1814.8251068744041,5.9000001888,0.0,0.26461500846768005,1814.8251068744041,5.9000001888,0.7919993443119999,0.311978009983296,1453,0.0,98,P-GPS,
0.0805148724297828,36.8784485239776,8000,2018-04-11 08:31:58,1815.1251068840043,6.200000198400001,0.0,0.25652900820892804,1815.1251068840043,6.200000198400001,0.7919993443119999,0.311978009983296,1456,0.0,98,P-GPS,
0.0805149274158228,36.8784485757419,8100,2018-04-11 08:31:58,1815.325106890404,6.4000002048,0.0,0.25048500801552,1815.325106890404,6.4000002048,0.7919993443119999,0.311978009983296,1457,0.0,98,P-GPS,
0.0805149740544589,36.8784486423656,8200,2018-04-11 08:31:58,1815.625106900004,6.7000002144,0.0,0.245593007858976,1815.625106900004,6.7000002144,0.7919993443119999,0.311978009983296,1460,0.0,98,P-GPS,
0.0805150195596979,36.8784487278229,8300,2018-04-11 08:31:58,1815.9251069096042,7.000000224,0.0,0.241256007720192,1815.9251069096042,7.000000224,0.7919993443119999,0.311978009983296,1462,0.0,98,P-GPS,
0.0805150756661074,36.87844881889,8400,2018-04-11 08:31:58,1816.125106916004,7.200000230400001,0.35999970196000003,0.236248007559936,1816.125106916004,7.200000230400001,0.7919993443119999,0.311978009983296,1467,0.0,98,P-GPS,
0.0805152206497333,36.8784489178835,8500,2018-04-11 08:31:59,1816.425106925604,7.50000024,0.35999970196000003,0.222212007110784,1816.425106925604,7.50000024,0.7919993443119999,0.311978009983296,1472,0.0,98,P-GPS,
0.0805153593508223,36.8784490247265,8600,2018-04-11 08:31:59,1816.7251069352042,7.8000002496,0.0,0.209964006718848,1816.7251069352042,7.8000002496,0.7919993443119999,0.311978009983296,1478,0.0,98,P-GPS,
0.0805154755109895,36.8784491562483,8700,2018-04-11 08:31:59,1816.9251069416039,8.000000256,0.0,0.20217000646944,1816.9251069416039,8.000000256,0.7919993443119999,0.311978009983296,1487,0.0,98,P-GPS,
0.08051556258389,36.8784493013706,8800,2018-04-11 08:31:59,1817.225106951204,8.300000265600001,0.35999970196000003,0.199587006386784,1817.225106951204,8.300000265600001,0.7919993443119999,0.311978009983296,1498,0.0,98,P-GPS,
0.0805156429476013,36.8784494928229,8900,2018-04-11 08:31:59,1817.5251069608041,8.6000002752,0.35999970196000003,0.202103006467296,1817.5251069608041,8.6000002752,0.7919993443119999,0.311978009983296,1499,0.0,98,P-GPS,
0.080515706199623,36.8784496782843,9000,2018-04-11 08:31:59,1817.8251069704042,8.9000002848,0.35999970196000003,0.208257006664224,1817.8251069704042,8.9000002848,0.7919993443119999,0.311978009983296,1499,0.0,98,P-GPS,
0.080515772991882,36.8784498271108,9100,2018-04-11 08:31:59,1818.1251069800041,9.2000002944,0.35999970196000003,0.21336200682758402,1818.1251069800041,9.2000002944,0.7919993443119999,0.311978009983296,1507,0.0,98,P-GPS,
0.0805158139342209,36.8784499741602,9200,2018-04-11 08:31:59,1818.425106989604,9.500000304,0.35999970196000003,0.22166400709324802,1818.425106989604,9.500000304,0.7919993443119999,0.311978009983296,1508,0.0,98,P-GPS,
0.0805157965522097,36.8784500898974,9300,2018-04-11 08:31:59,1818.725106999204,9.8000003136,0.35999970196000003,0.23248300743945602,1818.725106999204,9.8000003136,0.7919993443119999,0.311978009983296,1509,0.0,98,P-GPS,
0.0805157629443825,36.8784502157966,9400,2018-04-11 08:31:59,1819.025107008804,10.100000323200002,0.35999970196000003,0.245541007857312,1819.025107008804,10.100000323200002,0.7919993443119999,0.311978009983296,1520,0.0,98,P-GPS,
0.0805157426376859,36.8784503209481,9500,2018-04-11 08:32:00,1819.3251070184042,10.400000332800001,0.0,0.256026008192832,1819.3251070184042,10.400000332800001,0.7919993443119999,0.311978009983296,1519,0.0,98,P-GPS,
0.0805157255194826,36.8784504157407,9600,2018-04-11 08:32:00,1819.6251070280039,10.700000342400001,0.0,0.26550000849600003,1819.6251070280039,10.700000342400001,0.7919993443119999,0.311978009983296,1539,0.0,98,P-GPS,
0.0805157235620929,36.878450496633,9700,2018-04-11 08:32:00,1819.925107037604,11.000000351999999,0.0,0.27282000873024004,1819.925107037604,11.000000351999999,0.7919993443119999,0.311978009983296,1544,0.0,98,P-GPS,
0.0805157286330675,36.878450568327,9800,2018-04-11 08:32:00,1820.325107050404,11.4000003648,0.0,0.278951008926432,1820.325107050404,11.4000003648,0.7919993443119999,0.311978009983296,1541,0.0,98,P-GPS,
0.0805157035648006,36.8784505986542,9900,2018-04-11 08:32:00,1820.625107060004,11.7000003744,0.0,0.28331500906608004,1820.625107060004,11.7000003744,0.7919993443119999,0.311978009983296,1541,0.0,98,P-GPS,
0.0805156620362218,36.8784506486841,10000,2018-04-11 08:32:00,1821.025107072804,12.1000003872,0.0,0.29052600929683203,1821.025107072804,12.1000003872,0.7919993443119999,0.311978009983296,1542,0.0,98,P-GPS,
0.0805156597368589,36.8784507203138,10100,2018-04-11 08:32:00,1821.3251070824042,12.400000396800001,0.0,0.297192009510144,1821.3251070824042,12.400000396800001,0.7919993443119999,0.311978009983296,1545,0.0,98,P-GPS,
0.0805156695954588,36.8784507970524,10200,2018-04-11 08:32:00,1821.725107095204,12.8000004096,0.0,0.30364300971657604,1821.725107095204,12.8000004096,0.7919993443119999,0.311978009983296,1549,0.0,98,P-GPS,
0.0805157155892311,36.8784508457205,10300,2018-04-11 08:32:00,1822.1251071080042,13.2000004224,0.0,0.305411009773152,1822.1251071080042,13.2000004224,0.7919993443119999,0.311978009983296,1551,0.0,98,P-GPS,
0.080515752926195,36.8784508894212,10400,2018-04-11 08:32:00,1822.425107117604,13.500000432,0.0,0.307371009835872,1822.425107117604,13.500000432,0.7919993443119999,0.311978009983296,1558,0.0,98,P-GPS,
0.0805157858240207,36.8784509075096,10500,2018-04-11 08:32:01,1822.8251071304041,13.9000004448,0.0,0.307234009831488,1822.8251071304041,13.9000004448,0.7919993443119999,0.311978009983296,1558,0.0,98,P-GPS,
0.0805158081076483,36.8784509265058,10600,2018-04-11 08:32:01,1823.225107143204,14.300000457600001,0.0,0.307826009850432,1823.225107143204,14.300000457600001,0.7919993443119999,0.311978009983296,1559,0.0,98,P-GPS,
0.0805158193080861,36.8784509344751,10700,2018-04-11 08:32:01,1823.625107156004,14.7000004704,0.0,0.307982009855424,1823.625107156004,14.7000004704,0.7919993443119999,0.311978009983296,1568,0.0,98,P-GPS,
0.0805158344851842,36.8784509486281,10800,2018-04-11 08:32:01,1824.0251071688042,15.1000004832,0.0,0.30853300987305604,1824.0251071688042,15.1000004832,0.7919993443119999,0.311978009983296,1567,0.0,98,P-GPS,
0.0805158450147031,36.8784509721806,10900,2018-04-11 08:32:01,1824.425107181604,15.500000496,0.0,0.31026500992848,1824.425107181604,15.500000496,0.7919993443119999,0.311978009983296,1558,0.0,98,P-GPS,
0.0805158419076319,36.8784509881321,11000,2018-04-11 08:32:01,1824.8251071944042,15.900000508800002,0.0,0.311988009983616,1824.8251071944042,15.900000508800002,0.7919993443119999,0.311988009983616,1560,0.0,98,P-GPS,
0.0805158543717423,36.8784509783557,11100,2018-04-11 08:32:01,1825.225107207204,16.3000005216,0.0,0.310373009931936,1825.225107207204,16.3000005216,0.7919993443119999,0.311988009983616,1564,0.0,98,P-GPS,
0.0805158655949783,36.8784509691316,11200,2018-04-11 08:32:01,1825.625107220004,16.7000005344,0.0,0.308878009884096,1825.625107220004,16.7000005344,0.7919993443119999,0.311988009983616,1567,0.0,98,P-GPS,
0.0805158769940863,36.8784509576979,11300,2018-04-11 08:32:01,1826.025107232804,17.1000005472,0.0,0.307158009829056,1826.025107232804,17.1000005472,0.7919993443119999,0.311988009983616,1568,0.0,98,P-GPS,
0.0805158827718056,36.8784509610852,11400,2018-04-11 08:32:01,1826.425107245604,17.50000056,0.0,0.307189009830048,1826.425107245604,17.50000056,0.7919993443119999,0.311988009983616,1574,0.0,98,P-GPS,
0.0805159346410038,36.8784509998827,11500,2018-04-11 08:32:02,1826.825107258404,17.9000005728,0.0,0.30837300986793603,1826.825107258404,17.9000005728,0.7919993443119999,0.311988009983616,1574,0.0,98,P-GPS,
0.0805159861291461,36.8784510340939,11600,2018-04-11 08:32:02,1827.225107271204,18.3000005856,0.0,0.30927900989692797,1827.225107271204,18.3000005856,0.7919993443119999,0.311988009983616,1573,0.0,98,P-GPS,
0.08051599604637,36.8784510212642,11700,2018-04-11 08:32:02,1827.625107284004,18.700000598400003,0.0,0.30751700984054403,1827.625107284004,18.700000598400003,0.7919993443119999,0.311988009983616,1574,0.0,98,P-GPS,
0.0805160062306588,36.8784510080961,11800,2018-04-11 08:32:02,1828.025107296804,19.1000006112,0.0,0.305709009782688,1828.025107296804,19.1000006112,0.7919993443119999,0.311988009983616,1574,0.0,98,P-GPS,
0.0805160038629012,36.8784509762017,11900,2018-04-11 08:32:02,1828.425107309604,19.500000624000002,0.0,0.302619009683808,1828.425107309604,19.500000624000002,0.7919993443119999,0.311988009983616,1574,0.0,98,P-GPS,
0.0805160196881199,36.8784509413953,12000,2018-04-11 08:32:02,1828.9251073256041,20.00000064,0.0,0.29836800954777604,1828.9251073256041,20.00000064,0.7919993443119999,0.311988009983616,1575,0.0,98,P-GPS,
0.0805160768725594,36.8784508995788,12100,2018-04-11 08:32:02,1829.3251073384042,20.4000006528,0.0,0.29145000932640003,1829.3251073384042,20.4000006528,0.7919993443119999,0.311988009983616,1576,0.0,98,P-GPS,
0.0805161450555095,36.8784508571328,12200,2018-04-11 08:32:02,1829.725107351204,20.800000665600002,0.0,0.28402000908864,1829.725107351204,20.800000665600002,0.7919993443119999,0.311988009983616,1577,0.0,98,P-GPS,
0.0805162293535414,36.8784508296106,12300,2018-04-11 08:32:02,1830.1251073640042,21.200000678400002,0.0,0.277523008880736,1830.1251073640042,21.200000678400002,0.7919993443119999,0.311988009983616,1579,0.0,98,P-GPS,
0.0805163146937775,36.878450816875,12400,2018-04-11 08:32:02,1830.525107376804,21.6000006912,0.0,0.2727250087272,1830.525107376804,21.6000006912,0.7919993443119999,0.311988009983616,1586,0.0,98,P-GPS,
0.0805164215392451,36.8784508017243,12500,2018-04-11 08:32:03,1830.9251073896041,22.000000703999998,0.0,0.267167008549344,1830.9251073896041,22.000000703999998,0.7919993443119999,0.311988009983616,1592,0.0,98,P-GPS,
0.080516501098505,36.8784507993648,12600,2018-04-11 08:32:03,1831.325107402404,22.4000007168,0.0,0.264259008456288,1831.325107402404,22.4000007168,0.7919993443119999,0.311988009983616,1593,0.0,98,P-GPS,
0.0805165388784057,36.8784508068202,12700,2018-04-11 08:32:03,1831.825107418404,22.900000732800002,0.0,0.263889008444448,1831.825107418404,22.900000732800002,0.7919993443119999,0.311988009983616,1592,0.0,98,P-GPS,
0.0805165652005745,36.8784508074968,12800,2018-04-11 08:32:03,1832.225107431204,23.300000745600002,0.0,0.263187008421984,1832.225107431204,23.300000745600002,0.7919993443119999,0.311988009983616,1591,0.0,98,P-GPS,
0.0805165475156727,36.8784507697871,12900,2018-04-11 08:32:03,1832.625107444004,23.7000007584,0.0,0.259664008309248,1832.625107444004,23.7000007584,0.7919993443119999,0.311988009983616,1593,0.0,98,P-GPS,
0.0805165392268927,36.878450736351,13000,2018-04-11 08:32:03,1833.0251074568039,24.100000771200005,0.0,0.256341008202912,1833.0251074568039,24.100000771200005,0.7919993443119999,0.311988009983616,1593,0.0,98,P-GPS,
0.0805165523847202,36.8784507408559,13100,2018-04-11 08:32:03,1833.5251074728042,24.600000787200003,0.0,0.25642100820547203,1833.5251074728042,24.600000787200003,0.7919993443119999,0.311988009983616,1594,0.0,98,P-GPS,
0.0805165777591346,36.8784507415968,13200,2018-04-11 08:32:03,1833.925107485604,25.000000800000002,0.0,0.255748008183936,1833.925107485604,25.000000800000002,0.7919993443119999,0.311988009983616,1595,0.0,98,P-GPS,
0.0805166083054871,36.8784507060324,13300,2018-04-11 08:32:03,1834.3251074984041,25.400000812800002,0.0,0.251052008033664,1834.3251074984041,25.400000812800002,0.7919993443119999,0.311988009983616,1596,0.0,98,P-GPS,
0.0805166189001437,36.8784506617236,13400,2018-04-11 08:32:03,1834.825107514404,25.9000008288,0.0,0.245987007871584,1834.825107514404,25.9000008288,0.7919993443119999,0.311988009983616,1595,0.0,98,P-GPS,
0.0805166272703459,36.8784505882568,13500,2018-04-11 08:32:04,1835.225107527204,26.3000008416,0.0,0.2378500076112,1835.225107527204,26.3000008416,0.7919993443119999,0.311988009983616,1596,0.0,98,P-GPS,
0.0805166160047703,36.8784505317435,13600,2018-04-11 08:32:04,1835.625107540004,26.700000854400002,0.0,0.232119007427808,1835.625107540004,26.700000854400002,0.7919993443119999,0.311988009983616,1596,0.0,98,P-GPS,
0.0805165684216367,36.8784504770758,13700,2018-04-11 08:32:04,1836.025107552804,27.100000867200002,0.0,0.22779300728937601,1836.025107552804,27.100000867200002,0.7919993443119999,0.311988009983616,1597,0.0,98,P-GPS,
0.080516520959008,36.8784504312426,13800,2018-04-11 08:32:04,1836.425107565604,27.50000088,0.0,0.22459700718710401,1836.425107565604,27.50000088,0.7919993443119999,0.311988009983616,1597,0.0,98,P-GPS,
0.0805164959721633,36.8784503431731,13900,2018-04-11 08:32:04,1836.9251075816042,28.000000896,0.0,0.21632200692230402,1836.9251075816042,28.000000896,0.7919993443119999,0.311988009983616,1597,0.0,98,P-GPS,
0.0805164561111111,36.8784502459353,14000,2018-04-11 08:32:04,1837.3251075944042,28.4000009088,0.0,0.20790700665302403,1837.3251075944042,28.4000009088,0.7919993443119999,0.311988009983616,1598,0.0,98,P-GPS,
0.0805164337493182,36.8784501622252,14100,2018-04-11 08:32:04,1837.725107607204,28.800000921600002,0.0,0.200371006411872,1837.725107607204,28.800000921600002,0.7919993443119999,0.311988009983616,1601,0.0,98,P-GPS,
0.0805164191714875,36.8784501001878,14200,2018-04-11 08:32:04,1838.1251076200042,29.200000934400002,0.0,0.194809006233888,1838.1251076200042,29.200000934400002,0.7919993443119999,0.311988009983616,1604,0.0,98,P-GPS,
0.0805164413867205,36.8784500213167,14300,2018-04-11 08:32:04,1838.625107636004,29.700000950400003,0.0,0.185841005946912,1838.625107636004,29.700000950400003,0.7919993443119999,0.311988009983616,1606,0.0,98,P-GPS,
0.0805164599933216,36.8784499553866,14400,2018-04-11 08:32:04,1839.0251076488041,30.1000009632,0.0,0.178354005707328,1839.0251076488041,30.1000009632,0.7919993443119999,0.311988009983616,1606,0.0,98,P-GPS,
0.0805164368173066,36.8784498766997,14500,2018-04-11 08:32:05,1839.425107661604,30.500000976,0.0,0.171802005497664,1839.425107661604,30.500000976,0.7919993443119999,0.311988009983616,1607,0.0,98,P-GPS,
0.080516414970102,36.8784498164308,14600,2018-04-11 08:32:05,1839.825107674404,30.900000988800002,0.0,0.16717700534966398,1839.825107674404,30.900000988800002,0.7919993443119999,0.311988009983616,1608,0.0,98,P-GPS,
0.0805163611109452,36.8784497232269,14700,2018-04-11 08:32:05,1840.3251076904041,31.400001004800004,0.0,0.16163300517225598,1840.3251076904041,31.400001004800004,0.7919993443119999,0.311988009983616,1609,0.0,97,P-GPS,
0.0805163106519795,36.8784496454092,14800,2018-04-11 08:32:05,1840.7251077032042,31.800001017600003,0.0,0.15792600505363202,1840.7251077032042,31.800001017600003,0.7919993443119999,0.311988009983616,1610,0.0,97,P-GPS,
0.0805162634010485,36.8784495676301,14900,2018-04-11 08:32:05,1841.125107716004,32.2000010304,0.0,0.15458500494672,1841.125107716004,32.2000010304,0.7919993443119999,0.311988009983616,1612,0.0,97,P-GPS,
0.0805162216510013,36.8784495103075,15000,2018-04-11 08:32:05,1841.5251077288042,32.6000010432,0.0,0.15304200489734401,1841.5251077288042,32.6000010432,0.7919993443119999,0.311988009983616,1612,0.0,97,P-GPS,
0.0805161910948782,36.878449453443,15100,2018-04-11 08:32:05,1842.025107744804,33.100001059200004,0.0,0.15101900483260802,1842.025107744804,33.100001059200004,0.7919993443119999,0.311988009983616,1614,0.0,97,P-GPS,
0.0805161670948706,36.8784494102262,15200,2018-04-11 08:32:05,1842.425107757604,33.500001072,0.0,0.14975900479228801,1842.425107757604,33.500001072,0.7919993443119999,0.311988009983616,1613,0.0,97,P-GPS,
0.0805161330473635,36.8784493583464,15300,2018-04-11 08:32:05,1842.925107773604,34.000001088,0.0,0.14895600476659202,1842.925107773604,34.000001088,0.7919993443119999,0.311988009983616,1615,0.0,97,P-GPS,
0.0805160988077,36.8784493080895,15400,2018-04-11 08:32:05,1843.325107786404,34.4000011008,0.0,0.148593004754976,1843.325107786404,34.4000011008,0.7919993443119999,0.311988009983616,1615,0.0,97,P-GPS,
0.0805160595849979,36.878449219686,15500,2018-04-11 08:32:06,1843.825107802404,34.900001116800006,0.0,0.14671200469478402,1843.825107802404,34.900001116800006,0.7919993443119999,0.311988009983616,1618,0.0,97,P-GPS,
0.080516033060902,36.8784491498077,15600,2018-04-11 08:32:06,1844.2251078152042,35.300001129600005,0.0,0.14533400465068802,1844.2251078152042,35.300001129600005,0.7919993443119999,0.311988009983616,1619,0.0,97,P-GPS,
0.0805159974435749,36.8784490826401,15700,2018-04-11 08:32:06,1844.625107828004,35.700001142400005,0.0,0.14546500465488,1844.625107828004,35.700001142400005,0.7919993443119999,0.311988009983616,1619,0.0,97,P-GPS,
0.0805159676039671,36.8784490328842,15800,2018-04-11 08:32:06,1845.125107844004,36.2000011584,0.0,0.14623200467942402,1845.125107844004,36.2000011584,0.7919993443119999,0.311988009983616,1618,0.0,97,P-GPS,
0.080515920734092,36.8784489799466,15900,2018-04-11 08:32:06,1845.525107856804,36.6000011712,0.0,0.148933004765856,1845.525107856804,36.6000011712,0.7919993443119999,0.311988009983616,1618,0.0,97,P-GPS,
0.0805158868950258,36.8784489296341,16000,2018-04-11 08:32:06,1845.925107869604,37.000001184000006,0.0,0.150698004822336,1845.925107869604,37.000001184000006,0.7919993443119999,0.311988009983616,1614,0.0,97,P-GPS,
0.0805158735873814,36.8784488640209,16100,2018-04-11 08:32:06,1846.425107885604,37.5000012,0.0,0.150096004803072,1846.425107885604,37.5000012,0.7919993443119999,0.311988009983616,1615,0.0,97,P-GPS,
0.0805158718221481,36.8784488130575,16200,2018-04-11 08:32:06,1846.8251078984042,37.9000012128,0.0,0.148952004766464,1846.8251078984042,37.9000012128,0.7919993443119999,0.311988009983616,1615,0.0,97,P-GPS,
0.0805158848269019,36.8784487621283,16300,2018-04-11 08:32:06,1847.325107914404,38.4000012288,0.0,0.146402004684864,1847.325107914404,38.4000012288,0.7919993443119999,0.311988009983616,1615,0.0,97,P-GPS,
0.0805159014012049,36.8784487280841,16400,2018-04-11 08:32:06,1847.7251079272041,38.8000012416,0.0,0.143939004606048,1847.7251079272041,38.8000012416,0.7919993443119999,0.311988009983616,1618,0.0,97,P-GPS,
0.0805158836707067,36.8784486575035,16500,2018-04-11 08:32:07,1848.225107943204,39.3000012576,0.0,0.14486000463552,1848.225107943204,39.3000012576,0.7919993443119999,0.311988009983616,1618,0.0,97,P-GPS,
0.0805158699559513,36.878448605174,16600,2018-04-11 08:32:07,1848.625107956004,39.7000012704,0.0,0.14589200466854402,1848.625107956004,39.7000012704,0.7919993443119999,0.311988009983616,1617,0.0,97,P-GPS,
0.0805158890510856,36.8784485774419,16700,2018-04-11 08:32:07,1849.1251079720041,40.2000012864,0.0,0.143607004595424,1849.1251079720041,40.2000012864,0.7919993443119999,0.311988009983616,1614,0.0,97,P-GPS,
0.0805159136894433,36.8784485600216,16800,2018-04-11 08:32:07,1849.5251079848042,40.6000012992,0.0,0.140798004505536,1849.5251079848042,40.6000012992,0.7919993443119999,0.311988009983616,1615,0.0,97,P-GPS,
0.0805159335922858,36.8784485564887,16900,2018-04-11 08:32:07,1849.9251079976043,41.000001312,0.0,0.13857400443436801,1849.9251079976043,41.000001312,0.7919993443119999,0.311988009983616,1620,0.0,97,P-GPS,
0.0805159529707694,36.8784485533926,17000,2018-04-11 08:32:07,1850.4251080136041,41.500001328,0.0,0.13641100436515202,1850.4251080136041,41.500001328,0.7919993443119999,0.311988009983616,1621,0.0,97,P-GPS,
0.0805159603117949,36.8784485256691,17100,2018-04-11 08:32:07,1850.825108026404,41.9000013408,0.0,0.1355500043376,1850.825108026404,41.9000013408,0.7919993443119999,0.311988009983616,1618,0.0,97,P-GPS,
0.0805159639269406,36.8784484970378,17200,2018-04-11 08:32:07,1851.325108042404,42.400001356800004,0.0,0.135176004325632,1851.325108042404,42.400001356800004,0.7919993443119999,0.311988009983616,1619,0.0,97,P-GPS,
0.0805159475480509,36.8784484763629,17300,2018-04-11 08:32:07,1851.725108055204,42.800001369600004,0.0,0.137062004385984,1851.725108055204,42.800001369600004,0.7919993443119999,0.311988009983616,1621,0.0,97,P-GPS,
0.0805159347093984,36.8784484558465,17400,2018-04-11 08:32:07,1852.125108068004,43.2000013824,0.0,0.138591004434912,1852.125108068004,43.2000013824,0.7919993443119999,0.311988009983616,1622,0.0,97,P-GPS,
0.0805159207992298,36.8784484168392,17500,2018-04-11 08:32:08,1852.6251080840043,43.7000013984,0.0,0.14043000449376,1852.6251080840043,43.7000013984,0.7919993443119999,0.311988009983616,1619,0.0,97,P-GPS,
0.0805159024890055,36.8784483879916,17600,2018-04-11 08:32:08,1853.0251080968042,44.100001411200004,0.0,0.142758004568256,1853.0251080968042,44.100001411200004,0.7919993443119999,0.311988009983616,1610,0.0,97,P-GPS,
0.080515879707074,36.8784483779154,17700,2018-04-11 08:32:08,1853.525108112804,44.600001427200006,0.0,0.145397004652704,1853.525108112804,44.600001427200006,0.7919993443119999,0.311988009983616,1607,0.0,97,P-GPS,
0.0805158681158096,36.8784483766264,17800,2018-04-11 08:32:08,1853.925108125604,45.00000144,0.0,0.14669400469420799,1853.925108125604,45.00000144,0.7919993443119999,0.311988009983616,1607,0.0,97,P-GPS,
0.0805158779060149,36.8784483782879,17900,2018-04-11 08:32:08,1854.425108141604,45.50000145600001,0.0,0.145592004658944,1854.425108141604,45.50000145600001,0.7919993443119999,0.311988009983616,1606,0.0,97,P-GPS,
0.080515888836131,36.8784483808123,18000,2018-04-11 08:32:08,1854.825108154404,45.9000014688,0.0,0.144353004619296,1854.825108154404,45.9000014688,0.7919993443119999,0.311988009983616,1604,0.0,97,P-GPS,
0.0805158975580771,36.8784483893169,18100,2018-04-11 08:32:08,1855.2251081672039,46.300001481600006,0.0,0.143288004585216,1855.2251081672039,46.300001481600006,0.7919993443119999,0.311988009983616,1600,0.0,97,P-GPS,
0.0805159013197827,36.8784483965968,18200,2018-04-11 08:32:08,1855.6251081800042,46.7000014944,0.0,0.142791004569312,1855.6251081800042,46.7000014944,0.7919993443119999,0.311988009983616,1577,0.0,97,P-GPS,
0.0805158988119789,36.878448398571,18300,2018-04-11 08:32:08,1856.0251081928043,47.100001507200005,0.0,0.14304700457750402,1856.0251081928043,47.100001507200005,0.7919993443119999,0.311988009983616,1555,0.0,97,P-GPS,
0.0805158919399453,36.878448391927,18400,2018-04-11 08:32:08,1856.525108208804,47.6000015232,0.0,0.14388000460416,1856.525108208804,47.6000015232,0.7919993443119999,0.311988009983616,1486,0.0,97,P-GPS,
0.0805158842927723,36.8784483835937,18500,2018-04-11 08:32:09,1856.9251082216042,48.000001536000006,0.0,0.144822004634304,1856.9251082216042,48.000001536000006,0.7919993443119999,0.311988009983616,1532,0.0,97,P-GPS,
0.0805158767726179,36.8784483804312,18600,2018-04-11 08:32:09,1857.225108231204,48.300001545600004,0.0,0.14569100466211202,1857.225108231204,48.300001545600004,0.7919993443119999,0.311988009983616,1554,0.0,97,P-GPS,
0.0805158688388387,36.8784483516671,18700,2018-04-11 08:32:09,1857.6251082440042,48.7000015584,0.0,0.146946004702272,1857.6251082440042,48.7000015584,0.7919993443119999,0.311988009983616,1564,0.0,97,P-GPS,
0.0805158568958305,36.878448329365,18800,2018-04-11 08:32:09,1858.025108256804,49.1000015712,0.0,0.1486000047552,1858.025108256804,49.1000015712,0.7919993443119999,0.311988009983616,1573,0.0,97,P-GPS,
0.0805158795930829,36.8784483528169,18900,2018-04-11 08:32:09,1858.3251082664042,49.4000015808,0.0,0.14574400466380802,1858.3251082664042,49.4000015808,0.7919993443119999,0.311988009983616,1569,0.0,97,P-GPS,
0.080515895669082,36.8784483716632,19000,2018-04-11 08:32:09,1858.7251082792043,49.8000015936,0.0,0.143712004598784,1858.7251082792043,49.8000015936,0.7919993443119999,0.311988009983616,1575,0.0,97,P-GPS,
0.0805158816742343,36.8784483888737,19100,2018-04-11 08:32:09,1859.1251082920041,50.20000160640001,0.0,0.145051004641632,1859.1251082920041,50.20000160640001,0.7919993443119999,0.311988009983616,1576,0.0,97,P-GPS,
0.0805158585861553,36.878448411587,19200,2018-04-11 08:32:09,1859.425108301604,50.500001616000006,0.0,0.147373004715936,1859.425108301604,50.500001616000006,0.7919993443119999,0.311988009983616,1578,0.0,97,P-GPS,
0.0805158455358051,36.8784484381864,19300,2018-04-11 08:32:09,1859.825108314404,50.9000016288,0.0,0.14860500475536,1859.825108314404,50.9000016288,0.7919993443119999,0.311988009983616,1591,0.0,97,P-GPS,
0.0805158375987691,36.8784484564931,19400,2018-04-11 08:32:09,1860.2251083272042,51.300001641600005,0.0,0.149373004779936,1860.2251083272042,51.300001641600005,0.7919993443119999,0.311988009983616,1605,0.0,97,P-GPS,
0.0805158008675863,36.8784484591781,19500,2018-04-11 08:32:10,1860.6251083400043,51.700001654400005,0.0,0.15343900491004803,1860.6251083400043,51.700001654400005,0.7919993443119999,0.311988009983616,1605,0.0,97,P-GPS,
0.0805157619086921,36.8784484602915,19600,2018-04-11 08:32:10,1861.1251083560041,52.200001670400006,0.0,0.157762005048384,1861.1251083560041,52.200001670400006,0.7919993443119999,0.311988009983616,1629,0.0,97,P-GPS,
0.0805157344238144,36.8784484551185,19700,2018-04-11 08:32:10,1861.525108368804,52.6000016832,0.0,0.160841005146912,1861.525108368804,52.6000016832,0.7919993443119999,0.311988009983616,1643,0.0,97,P-GPS,
0.0805157072027445,36.8784484571312,19800,2018-04-11 08:32:10,1861.925108381604,53.000001696000005,0.0,0.16385500524336,1861.925108381604,53.000001696000005,0.7919993443119999,0.311988009983616,1649,0.0,97,P-GPS,
0.0805157201423605,36.8784484899592,19900,2018-04-11 08:32:10,1862.3251083944042,53.400001708800005,0.0,0.162297005193504,1862.3251083944042,53.400001708800005,0.7919993443119999,0.311988009983616,1648,0.0,97,P-GPS,
0.0805157161070763,36.8784485117346,20000,2018-04-11 08:32:10,1862.825108410404,53.900001724800006,0.0,0.16271000520672002,1862.825108410404,53.900001724800006,0.7919993443119999,0.311988009983616,1650,0.0,97,P-GPS,
0.0805156958850587,36.8784485127923,20100,2018-04-11 08:32:10,1863.225108423204,54.3000017376,0.0,0.164958005278656,1863.225108423204,54.3000017376,0.7919993443119999,0.311988009983616,1651,0.0,97,P-GPS,
0.0805156700481663,36.8784485021423,20200,2018-04-11 08:32:10,1863.7251084392042,54.8000017536,0.0,0.16784300537097602,1863.7251084392042,54.8000017536,0.7919993443119999,0.311988009983616,1655,0.0,97,P-GPS,
0.0805156348314364,36.8784484796945,20300,2018-04-11 08:32:10,1864.225108455204,55.3000017696,0.0,0.171809005497888,1864.225108455204,55.3000017696,0.7919993443119999,0.311988009983616,1657,0.0,97,P-GPS,
0.0805155981002536,36.8784484517869,20400,2018-04-11 08:32:10,1864.625108468004,55.7000017824,0.0,0.17600200563206403,1864.625108468004,55.7000017824,0.7919993443119999,0.311988009983616,1652,0.0,97,P-GPS,
0.0805155865545857,36.8784483896809,20500,2018-04-11 08:32:11,1865.125108484004,56.2000017984,0.0,0.17772300568713603,1865.125108484004,56.2000017984,0.7919993443119999,0.311988009983616,1656,0.0,97,P-GPS,
0.0805155788553024,36.8784483297825,20600,2018-04-11 08:32:11,1865.6251085000042,56.700001814400004,0.0,0.179247005735904,1865.6251085000042,56.700001814400004,0.7919993443119999,0.311988009983616,1663,0.0,97,P-GPS,
0.0805155661501824,36.8784482952223,20700,2018-04-11 08:32:11,1866.125108516004,57.200001830400005,0.0,0.18114500579664,1866.125108516004,57.200001830400005,0.7919993443119999,0.311988009983616,1665,0.0,97,P-GPS,
0.0805155644891695,36.8784482683681,20800,2018-04-11 08:32:11,1866.5251085288041,57.600001843200005,0.0,0.181767005816544,1866.5251085288041,57.600001843200005,0.7919993443119999,0.311988009983616,1665,0.0,97,P-GPS,
0.0805156208919558,36.8784482730958,20900,2018-04-11 08:32:11,1867.025108544804,58.100001859200006,0.0,0.17549000561568,1867.025108544804,58.100001859200006,0.7919993443119999,0.311988009983616,1664,0.0,97,P-GPS,
0.0805156806493367,36.8784482779519,21000,2018-04-11 08:32:11,1867.5251085608043,58.60000187520001,0.0,0.16884300540297603,1867.5251085608043,58.60000187520001,0.7919993443119999,0.311988009983616,1666,0.0,97,P-GPS,
0.0805157510306862,36.8784482754639,21100,2018-04-11 08:32:11,1868.025108576804,59.10000189120001,0.0,0.16116900515740798,1868.025108576804,59.10000189120001,0.7919993443119999,0.311988009983616,1659,0.0,97,P-GPS,
0.0805158231414433,36.878448277408,21200,2018-04-11 08:32:11,1868.5251085928041,59.6000019072,0.0,0.15323500490352002,1868.5251085928041,59.6000019072,0.7919993443119999,0.311988009983616,1656,0.0,97,P-GPS,
0.0805159055341958,36.8784482901735,21300,2018-04-11 08:32:11,1868.925108605604,60.00000192,0.0,0.143966004606912,1868.925108605604,60.00000192,0.7919993443119999,0.311988009983616,1657,0.0,97,P-GPS,
0.0805159800159673,36.878448295764,21400,2018-04-11 08:32:11,1869.4251086216043,60.500001936000004,0.0,0.135708004342656,1869.4251086216043,60.500001936000004,0.7919993443119999,0.311988009983616,1662,0.0,97,P-GPS,
0.0805160498762148,36.8784482992027,21500,2018-04-11 08:32:12,1869.9251086376041,61.000001952,0.0,0.128007004096224,1869.9251086376041,61.000001952,0.7919993443119999,0.311988009983616,1664,0.0,97,P-GPS,
0.0805161109396078,36.8784483002026,21600,2018-04-11 08:32:12,1870.425108653604,61.500001968,0.0,0.12132900388252801,1870.425108653604,61.500001968,0.7919993443119999,0.311988009983616,1674,0.0,97,P-GPS,
0.0805161547773202,36.8784482662462,21700,2018-04-11 08:32:12,1870.925108669604,62.000001984,0.0,0.117417003757344,1870.925108669604,62.000001984,0.7919993443119999,0.311988009983616,1675,0.0,97,P-GPS,
0.080516200347697,36.8784482432611,21800,2018-04-11 08:32:12,1871.425108685604,62.50000200000001,0.0,0.11318000362176,1871.425108685604,62.50000200000001,0.7919993443119999,0.311988009983616,1675,0.0,97,P-GPS,
0.0805162500022113,36.8784482226012,21900,2018-04-11 08:32:12,1871.9251087016041,63.000002015999996,0.0,0.10856100347395199,1871.9251087016041,63.000002015999996,0.7919993443119999,0.311988009983616,1675,0.0,97,P-GPS,
0.0805163107594568,36.8784482035793,22000,2018-04-11 08:32:12,1872.325108714404,63.4000020288,0.0,0.10286000329152001,1872.325108714404,63.4000020288,0.7919993443119999,0.311988009983616,1671,0.0,97,P-GPS,
0.0805164037240677,36.8784481865679,22100,2018-04-11 08:32:12,1872.825108730404,63.900002044800004,0.0,0.09395550300657601,1872.825108730404,63.900002044800004,0.7919993443119999,0.311988009983616,1660,0.0,97,P-GPS,
0.0805164842701647,36.8784481738988,22200,2018-04-11 08:32:12,1873.325108746404,64.4000020608,0.0,0.08642910276573121,1873.325108746404,64.4000020608,0.7919993443119999,0.311988009983616,1656,0.0,97,P-GPS,
0.0805165492841629,36.8784481743484,22300,2018-04-11 08:32:12,1873.8251087624042,64.9000020768,0.0,0.08000560256017922,1873.8251087624042,64.9000020768,0.7919993443119999,0.311988009983616,1658,0.0,97,P-GPS,
0.0805166086409465,36.8784481799068,22400,2018-04-11 08:32:12,1874.325108778404,65.40000209280001,0.0,0.0739748023671936,1874.325108778404,65.40000209280001,0.7919993443119999,0.311988009983616,1650,0.0,97,P-GPS,
0.0805166818883575,36.8784481555043,22500,2018-04-11 08:32:13,1874.8251087944043,65.90000210880001,0.0,0.06869270219816641,1874.8251087944043,65.90000210880001,0.7919993443119999,0.311988009983616,1648,0.0,97,P-GPS,
0.080516746485474,36.8784481287999,22600,2018-04-11 08:32:13,1875.2251088072042,66.3000021216,0.0,0.0650116020803712,1875.2251088072042,66.3000021216,0.7919993443119999,0.311988009983616,1639,0.0,97,P-GPS,
0.0805168047251451,36.878448098218,22700,2018-04-11 08:32:13,1875.725108823204,66.8000021376,0.0,0.06288090201218881,1875.725108823204,66.8000021376,0.7919993443119999,0.311988009983616,1631,0.0,97,P-GPS,
0.0805168573401706,36.8784480733358,22800,2018-04-11 08:32:13,1876.225108839204,67.3000021536,0.0,0.061394501964624,1876.225108839204,67.3000021536,0.7919993443119999,0.311988009983616,1631,0.0,97,P-GPS,
0.0805169053988099,36.8784480265304,22900,2018-04-11 08:32:13,1876.625108852004,67.7000021664,0.0,0.0629412020141184,1876.625108852004,67.7000021664,0.7919993443119999,0.311988009983616,1620,-0.1,97,P-GPS,
0.0805170158757075,36.8784479725694,23100,2018-04-11 08:32:13,1877.5251088808043,68.6000021952,0.0,0.063729502039344,1877.5251088808043,68.6000021952,0.7919993443119999,0.311988009983616,1615,-0.2,97,P-GPS,
0.0805170851562289,36.8784479525411,23200,2018-04-11 08:32:13,1878.025108896804,69.1000022112,0.0,0.0641716020534912,1878.025108896804,69.1000022112,0.7919993443119999,0.311988009983616,1611,-0.5,97,P-GPS,
0.0805171546386774,36.8784479391697,23300,2018-04-11 08:32:13,1878.425108909604,69.500002224,0.0,0.0648579020754528,1878.425108909604,69.500002224,0.7919993443119999,0.311988009983616,1606,-0.8,97,P-GPS,
0.080517201114469,36.8784479237492,23400,2018-04-11 08:32:13,1878.925108925604,70.00000224,0.0,0.0665597021299104,1878.925108925604,70.00000224,0.7919993443119999,0.311988009983616,1601,-1.2,97,P-GPS,
0.0805172699650812,36.8784479245735,23500,2018-04-11 08:32:14,1879.325108938404,70.40000225280001,0.0,0.0671858021499456,1879.325108938404,70.40000225280001,0.7919993443119999,0.311988009983616,1599,-1.4,97,P-GPS,
0.0805173149785302,36.8784479294425,23600,2018-04-11 08:32:14,1879.725108951204,70.8000022656,0.0,0.06758980216287361,1879.725108951204,70.8000022656,0.7919993443119999,0.311988009983616,1600,-1.4,97,P-GPS,
0.080517356389861,36.8784479184734,23700,2018-04-11 08:32:14,1880.1251089640043,71.2000022784,0.0,0.0699347022379104,1880.1251089640043,71.2000022784,0.7919993443119999,0.311988009983616,1603,-1.4,97,P-GPS,
0.0805173768594021,36.8784479092258,23800,2018-04-11 08:32:14,1880.5251089768042,71.6000022912,0.0,0.0715878022908096,1880.5251089768042,71.6000022912,0.7919993443119999,0.311988009983616,1597,-1.4,97,P-GPS,
0.0805173780872488,36.8784479005028,23900,2018-04-11 08:32:14,1880.9251089896043,72.000002304,0.0,0.07255320232170241,1880.9251089896043,72.000002304,0.7919993443119999,0.311988009983616,1589,-1.5,97,P-GPS,
0.0805173721271438,36.8784478898271,24000,2018-04-11 08:32:14,1881.3251090024041,72.4000023168,0.0,0.07348850235163201,1881.3251090024041,72.4000023168,0.7919993443119999,0.311988009983616,1590,-1.9,97,P-GPS,
0.080517394570359,36.8784478736872,24100,2018-04-11 08:32:14,1881.8251090184042,72.9000023328,0.0,0.0759567024306144,1881.8251090184042,72.9000023328,0.7919993443119999,0.311988009983616,1584,-2.2,97,P-GPS,
0.0805174012534931,36.8784478467495,24200,2018-04-11 08:32:14,1882.225109031204,73.3000023456,0.0,0.0790342025290944,1882.225109031204,73.3000023456,0.7919993443119999,0.311988009983616,1577,-2.3,97,P-GPS,
0.0805174151506342,36.8784478261667,24300,2018-04-11 08:32:14,1882.6251090440041,73.7000023584,0.0,0.08169480261423359,1882.6251090440041,73.7000023584,0.7919993443119999,0.311988009983616,1578,-2.3,97,P-GPS,
0.0805174198926631,36.8784478102623,24400,2018-04-11 08:32:14,1883.025109056804,74.1000023712,0.0,0.0835392026732544,1883.025109056804,74.1000023712,0.7919993443119999,0.311988009983616,1582,-2.3,97,P-GPS,
0.0805174196158277,36.8784477791986,24500,2018-04-11 08:32:15,1883.425109069604,74.50000238400001,0.0,0.0868091027778912,1883.425109069604,74.50000238400001,0.7919993443119999,0.311988009983616,1584,-2.4,97,P-GPS,
0.080517402364092,36.8784477511646,24600,2018-04-11 08:32:15,1883.825109082404,74.9000023968,0.0,0.0892278028552896,1883.825109082404,74.9000023968,0.7919993443119999,0.311988009983616,1586,-2.7,97,P-GPS,
0.080517380526658,36.8784477407908,24700,2018-04-11 08:32:15,1884.225109095204,75.3000024096,0.0,0.08969980287039361,1884.225109095204,75.3000024096,0.7919993443119999,0.311988009983616,1587,-3.5,97,P-GPS,
0.080517349993333,36.8784477284321,24800,2018-04-11 08:32:15,1884.625109108004,75.7000024224,0.0,0.0902563028882016,1884.625109108004,75.7000024224,0.7919993443119999,0.311988009983616,1588,-4.5,97,P-GPS,
0.0805173370765152,36.8784477228416,24900,2018-04-11 08:32:15,1885.025109120804,76.1000024352,0.0,0.0905749028983968,1885.025109120804,76.1000024352,0.7919993443119999,0.311988009983616,1589,-5.6,97,P-GPS,
0.0805173107934291,36.8784477142385,25000,2018-04-11 08:32:15,1885.425109133604,76.500002448,0.0,0.09099820291194241,1885.425109133604,76.500002448,0.7919993443119999,0.311988009983616,1587,-5.6,97,P-GPS,
0.0805172695905391,36.8784476864315,25100,2018-04-11 08:32:15,1885.825109146404,76.9000024608,0.0,0.09344830299034561,1885.825109146404,76.9000024608,0.7919993443119999,0.311988009983616,1580,-6.7,97,P-GPS,
0.0805172151418856,36.8784476605236,25200,2018-04-11 08:32:15,1886.225109159204,77.3000024736,0.0,0.0958707030678624,1886.225109159204,77.3000024736,0.7919993443119999,0.311988009983616,1575,-7.9,97,P-GPS,
0.0805171834295672,36.8784476530296,25300,2018-04-11 08:32:15,1886.625109172004,77.70000248640001,0.0,0.0966219030919008,1886.625109172004,77.70000248640001,0.7919993443119999,0.311988009983616,1576,-9.2,97,P-GPS,
0.0805171399696538,36.8784476491049,25400,2018-04-11 08:32:15,1887.0251091848043,78.1000024992,0.0,0.09715530310896961,1887.0251091848043,78.1000024992,0.7919993443119999,0.311988009983616,1575,-10.1,97,P-GPS,
0.0805170948487276,36.8784476216748,25500,2018-04-11 08:32:16,1887.4251091976041,78.500002512,0.0,0.10054600321747201,1887.4251091976041,78.500002512,0.7919993443119999,0.311988009983616,1577,-10.1,97,P-GPS,
0.0805170433475577,36.8784476003212,25600,2018-04-11 08:32:16,1887.8251092104042,78.9000025248,0.0,0.10359000331488001,1887.8251092104042,78.9000025248,0.7919993443119999,0.311988009983616,1575,-10.1,97,P-GPS,
0.0805169936604745,36.8784475598557,25700,2018-04-11 08:32:16,1888.2251092232043,79.30000253760001,0.0,0.108954003486528,1888.2251092232043,79.30000253760001,0.7919993443119999,0.311988009983616,1576,-10.1,97,P-GPS,
0.0805169304117097,36.8784475358685,25800,2018-04-11 08:32:16,1888.6251092360042,79.70000255040001,0.0,0.113087003618784,1888.6251092360042,79.70000255040001,0.7919993443119999,0.311988009983616,1575,-10.1,97,P-GPS,
0.0805168371181531,36.8784475269849,25900,2018-04-11 08:32:16,1888.925109245604,80.00000256,0.0,0.116996003743872,1888.925109245604,80.00000256,0.7919993443119999,0.311988009983616,1571,-10.1,97,P-GPS,
0.080516751777917,36.8784475356073,26000,2018-04-11 08:32:16,1889.4251092616041,80.500002576,0.0,0.119536003825152,1889.4251092616041,80.500002576,0.7919993443119999,0.311988009983616,1575,-10.1,97,P-GPS,
0.0805166983161006,36.8784475158274,26100,2018-04-11 08:32:16,1889.8251092744042,80.9000025888,0.0,0.124003003968096,1889.8251092744042,80.9000025888,0.7919993443119999,0.311988009983616,1575,-10.1,97,P-GPS,
0.0805166524428332,36.8784475005397,26200,2018-04-11 08:32:16,1890.125109284004,81.2000025984,0.0,0.127796004089472,1890.125109284004,81.2000025984,0.7919993443119999,0.311988009983616,1573,-10.2,97,P-GPS,
0.080516590278612,36.8784475168295,26300,2018-04-11 08:32:16,1890.5251092968042,81.6000026112,0.0,0.129542004145344,1890.5251092968042,81.6000026112,0.7919993443119999,0.311988009983616,1573,-10.1,97,P-GPS,
0.0805165335273387,36.8784475415318,26400,2018-04-11 08:32:16,1890.925109309604,82.000002624,0.0,0.130542004177344,1890.925109309604,82.000002624,0.7919993443119999,0.311988009983616,1573,-10.1,97,P-GPS,
0.0805164795900167,36.8784475534837,26500,2018-04-11 08:32:17,1891.3251093224042,82.4000026368,0.0,0.13285500425136001,1891.3251093224042,82.4000026368,0.7919993443119999,0.311988009983616,1573,-10.1,97,P-GPS,
0.0805164275872861,36.8784475540618,26600,2018-04-11 08:32:17,1891.7251093352043,82.8000026496,0.0,0.13627200436070402,1891.7251093352043,82.8000026496,0.7919993443119999,0.311988009983616,1572,-10.1,97,P-GPS,
0.0805163794472246,36.8784475402429,26700,2018-04-11 08:32:17,1892.1251093480041,83.20000266240001,0.0,0.140808004505856,1892.1251093480041,83.20000266240001,0.7919993443119999,0.311988009983616,1546,-10.1,96,P-GPS,
0.0805163407716797,36.8784475343376,26800,2018-04-11 08:32:17,1892.5251093608042,83.60000267520002,0.0,0.144063004610016,1892.5251093608042,83.60000267520002,0.7919993443119999,0.311988009983616,1519,-10.1,96,P-GPS,
0.0805163098866109,36.8784475307212,26900,2018-04-11 08:32:17,1892.925109373604,84.000002688,0.0,0.146611004691552,1892.925109373604,84.000002688,0.7919993443119999,0.311988009983616,1458,-10.2,96,P-GPS,
0.0805162815060889,36.8784475393907,27000,2018-04-11 08:32:17,1893.2251093832042,84.30000269760001,0.0,0.147998004735936,1893.2251093832042,84.30000269760001,0.7919993443119999,0.311988009983616,1424,-10.1,96,P-GPS,
0.0805162403162264,36.8784475203217,27100,2018-04-11 08:32:17,1893.625109396004,84.70000271040001,0.0,0.152666004885312,1893.625109396004,84.70000271040001,0.7919993443119999,0.311988009983616,1398,-10.1,96,P-GPS,
0.0805162053958734,36.8784475148532,27200,2018-04-11 08:32:17,1893.9251094056042,85.00000272,0.0,0.155784004985088,1893.9251094056042,85.00000272,0.7919993443119999,0.311988009983616,1429,-10.1,96,P-GPS,
0.0805161961137426,36.8784475336717,27300,2018-04-11 08:32:17,1894.1251094120041,85.2000027264,0.0,0.15501300496041603,1894.1251094120041,85.2000027264,0.7919993443119999,0.311988009983616,1458,-10.1,96,P-GPS,
0.0805161849719288,36.8784475446922,27400,2018-04-11 08:32:17,1894.4251094216042,85.500002736,0.0,0.155028004960896,1894.4251094216042,85.500002736,0.7919993443119999,0.311988009983616,1459,-10.1,96,P-GPS,
0.0805161575554456,36.8784475691868,27500,2018-04-11 08:32:18,1894.625109428004,85.7000027424,0.0,0.15534700497110399,1894.625109428004,85.7000027424,0.7919993443119999,0.311988009983616,1459,-10.2,96,P-GPS,
0.080516127507397,36.8784475892921,27600,2018-04-11 08:32:18,1894.925109437604,86.000002752,0.0,0.15631500500208,1894.925109437604,86.000002752,0.7919993443119999,0.311988009983616,1465,-10.2,96,P-GPS,
0.0805160726027792,36.8784476377719,27700,2018-04-11 08:32:18,1895.1251094440042,86.2000027584,0.0,0.15751400504044802,1895.1251094440042,86.2000027584,0.7919993443119999,0.311988009983616,1477,-10.1,96,P-GPS,
0.08051601532389,36.8784476726382,27800,2018-04-11 08:32:18,1895.425109453604,86.500002768,0.0,0.160223005127136,1895.425109453604,86.500002768,0.7919993443119999,0.311988009983616,1486,-10.2,96,P-GPS,
0.0805159694962191,36.8784476611746,27900,2018-04-11 08:32:18,1895.725109463204,86.8000027776,0.0,0.165104005283328,1895.725109463204,86.8000027776,0.7919993443119999,0.311988009983616,1488,-10.1,96,P-GPS,
0.0805159159008702,36.8784476459296,28000,2018-04-11 08:32:18,1896.0251094728042,87.10000278720001,0.0,0.17095500547056,1896.0251094728042,87.10000278720001,0.7919993443119999,0.311988009983616,1490,-10.1,96,P-GPS,
0.0805158508705877,36.8784476628339,28100,2018-04-11 08:32:18,1896.325109482404,87.4000027968,0.0,0.175918005629376,1896.325109482404,87.4000027968,0.7919993443119999,0.311988009983616,1499,-10.1,96,P-GPS,
0.0805157771932675,36.8784476786591,28200,2018-04-11 08:32:18,1896.6251094920042,87.70000280640001,0.0,0.181939005822048,1896.6251094920042,87.70000280640001,0.7919993443119999,0.311988009983616,1500,-10.1,96,P-GPS,
0.080515667817198,36.8784476544813,28300,2018-04-11 08:32:18,1896.925109501604,88.00000281599999,0.0,0.19378900620124803,1896.925109501604,88.00000281599999,0.7919993443119999,0.311988009983616,1502,-10.2,96,P-GPS,
0.0805155599295263,36.8784476311108,28400,2018-04-11 08:32:18,1897.225109511204,88.3000028256,0.0,0.20552200657670402,1897.225109511204,88.3000028256,0.7919993443119999,0.311988009983616,1509,-10.1,96,P-GPS,
0.0805154768235154,36.8784476421462,28500,2018-04-11 08:32:19,1897.625109524004,88.70000283840001,0.0,0.2131000068192,1897.625109524004,88.70000283840001,0.7919993443119999,0.311988009983616,1529,-10.1,96,P-GPS,
0.080515400068436,36.8784476508906,28600,2018-04-11 08:32:19,1897.9251095336042,89.000002848,0.0,0.220288007049216,1897.9251095336042,89.000002848,0.7919993443119999,0.311988009983616,1543,-10.1,96,P-GPS,
0.080515345430883,36.8784476279612,28700,2018-04-11 08:32:19,1898.225109543204,89.3000028576,0.0,0.226867007259744,1898.225109543204,89.3000028576,0.7919993443119999,0.311988009983616,1547,-10.1,96,P-GPS,
0.0805152852240516,36.8784476035693,28800,2018-04-11 08:32:19,1898.5251095528042,89.6000028672,0.0,0.2340750074904,1898.5251095528042,89.6000028672,0.7919993443119999,0.311988009983616,1548,-10.1,96,P-GPS,
0.0805152178944061,36.8784475539033,28900,2018-04-11 08:32:19,1898.9251095656043,90.00000288,0.0,0.243227007783264,1898.9251095656043,90.00000288,0.7919993443119999,0.311988009983616,1545,-10.1,96,P-GPS,
0.0805151512487071,36.8784475156369,29000,2018-04-11 08:32:19,1899.225109575204,90.30000288960001,0.0,0.25175700805622403,1899.225109575204,90.30000288960001,0.7919993443119999,0.311988009983616,1537,-10.1,96,P-GPS,
0.080515071549401,36.8784474584727,29100,2018-04-11 08:32:19,1899.625109588004,90.7000029024,0.0,0.262528008400896,1899.625109588004,90.7000029024,0.7919993443119999,0.311988009983616,1517,-10.1,96,P-GPS,
