latitude,longitude,time_millisecond,datetime_utc,altitude_m,ascent_m,speed_kph,distance_m,max_altitude_m,max_ascent_m,max_speed_kph,max_distance_m,rc_throttle,gimbal_pitch_degrees,battery_percent,flycState,message
0.37590994003777206,36.925447345194,0,2018-04-17 07:14:34,1630.50261567607,0.0,0.0,0.0,1630.50261567607,0.0,0.0,0.0,364,0.0,99,Motors_Started,
0.375909934104435,36.925447342432896,100,2018-04-17 07:14:34,1630.50261567607,0.0,0.0,0.000727764023288448,1630.50261567607,0.0,0.0,0.000727764023288448,364,0.0,99,Motors_Started,
0.375909931579125,36.925447340798996,200,2018-04-17 07:14:34,1630.50261567607,0.0,0.0,0.00106004003392128,1630.50261567607,0.0,0.0,0.00106004003392128,531,0.0,99,Motors_Started,Setting new Return-To-Home altitude to 30m (98 ft). Setting new Maximum Flight Altitude to 150m (492 ft)
0.37590992620409003,36.925447330549396,300,2018-04-17 07:14:34,1630.50261567607,0.0,0.0,0.00224026007168832,1630.50261567607,0.0,0.0,0.00224026007168832,1024,0.0,99,Motors_Started,
0.375909923995207,36.9254473235994,400,2018-04-17 07:14:34,1630.50261567607,0.0,0.0,0.0029915700957302395,1630.50261567607,0.0,0.0,0.0029915700957302395,1024,0.0,99,Motors_Started,
0.37590991987921296,36.9254473375946,500,2018-04-17 07:14:34,1630.50261567607,0.0,0.0,0.002395750076664,1630.50261567607,0.0,0.0,0.0029915700957302395,1024,0.0,99,Motors_Started,
0.37590991800105794,36.9254473586514,600,2018-04-17 07:14:34,1630.50261567607,0.0,0.0,0.00287142009188544,1630.50261567607,0.0,0.0,0.0029915700957302395,1024,0.0,99,Motors_Started,
0.375909914849611,36.925447376117,700,2018-04-17 07:14:35,1630.50261567607,0.0,0.0,0.00443521014192672,1630.50261567607,0.0,0.0,0.00443521014192672,1024,0.0,99,Motors_Started,
0.375909913477698,36.9254473877879,800,2018-04-17 07:14:35,1630.50261567607,0.0,0.0,0.005582060178625921,1630.50261567607,0.0,0.0,0.005582060178625921,1024,0.0,99,Motors_Started,
0.37590991095864795,36.9254473950949,900,2018-04-17 07:14:35,1630.50261567607,0.0,0.0,0.0064226602055251205,1630.50261567607,0.0,0.0,0.0064226602055251205,1024,0.0,99,Motors_Started,
0.3759099101575039,36.92544740230429,1000,2018-04-17 07:14:35,1630.50261567607,0.0,0.0,0.00716764022936448,1630.50261567607,0.0,0.0,0.00716764022936448,1024,0.0,99,Motors_Started,
0.375909908809509,36.9254474331291,1100,2018-04-17 07:14:35,1630.50261567607,0.0,0.0,0.010377100332067202,1630.50261567607,0.0,0.0,0.010377100332067202,1024,0.0,99,Motors_Started,
0.37590990711877703,36.925447457648204,1200,2018-04-17 07:14:35,1630.50261567607,0.0,0.0,0.013030100416963201,1630.50261567607,0.0,0.0,0.013030100416963201,1024,0.0,99,Motors_Started,
0.375909904945517,36.9254475146103,1300,2018-04-17 07:14:35,1630.50261567607,0.0,0.0,0.0192397006156704,1630.50261567607,0.0,0.0,0.0192397006156704,1024,0.0,99,Motors_Started,
0.37590990225614207,36.925447558202,1400,2018-04-17 07:14:35,1630.50261567607,0.0,0.0,0.024057000769824,1630.50261567607,0.0,0.0,0.024057000769824,1024,0.0,99,Motors_Started,
0.375909900338801,36.9254476035016,1500,2018-04-17 07:14:35,1630.50261567607,0.0,0.0,0.029062000929983997,1630.50261567607,0.0,0.0,0.029062000929983997,1024,0.0,99,Assisted_Takeoff,
0.375909898728474,36.9254476247325,1600,2018-04-17 07:14:35,1630.50261567607,0.0,0.0,0.031423301005545606,1630.50261567607,0.0,0.0,0.031423301005545606,1024,0.0,99,Assisted_Takeoff,
0.37590989762876503,36.9254476414189,1700,2018-04-17 07:14:36,1630.50261567607,0.0,0.0,0.0332772010648704,1630.50261567607,0.0,0.0,0.0332772010648704,1024,0.0,99,Assisted_Takeoff,
0.37590989530380503,36.9254476451476,1800,2018-04-17 07:14:36,1630.50261567607,0.0,0.0,0.0337249010791968,1630.50261567607,0.0,0.0,0.0337249010791968,1024,0.0,99,Assisted_Takeoff,
0.37590989319934703,36.9254476737267,1900,2018-04-17 07:14:36,1630.50261567607,0.0,0.0,0.036903501180912006,1630.50261567607,0.0,0.0,0.036903501180912006,1024,0.0,99,Assisted_Takeoff,
0.37590989067266295,36.925447704347796,2000,2018-04-17 07:14:36,1630.50261567607,0.0,0.0,0.0403147012900704,1630.50261567607,0.0,0.0,0.0403147012900704,1024,0.0,99,Assisted_Takeoff,
0.37590988906829,36.9254477241536,2100,2018-04-17 07:14:36,1630.50261567607,0.0,0.0,0.0425212013606784,1630.50261567607,0.0,0.0,0.0425212013606784,1024,0.0,99,Assisted_Takeoff,
0.375909886684298,36.925447740165794,2200,2018-04-17 07:14:36,1630.50261567607,0.0,0.0,0.0443213014182816,1630.50261567607,0.0,0.0,0.0443213014182816,1024,0.0,99,Assisted_Takeoff,
0.37590988499478795,36.9254477453118,2300,2018-04-17 07:14:36,1630.50261567607,0.0,0.0,0.044913701437238406,1630.50261567607,0.0,0.0,0.044913701437238406,1024,0.0,99,Assisted_Takeoff,
0.375909882916486,36.9254477498956,2400,2018-04-17 07:14:36,1630.50261567607,0.0,0.0,0.0454504014544128,1630.50261567607,0.0,0.0,0.0454504014544128,1024,0.0,99,Assisted_Takeoff,
0.375909882622501,36.925447745359,2500,2018-04-17 07:14:36,1630.50261567607,0.0,0.0,0.0449556014385792,1630.50261567607,0.0,0.0,0.0454504014544128,1024,0.0,99,Assisted_Takeoff,
0.37590988136391706,36.9254477433529,2600,2018-04-17 07:14:36,1630.50261567607,0.0,0.0,0.04475490143215681,1630.50261567607,0.0,0.0,0.0454504014544128,1024,0.0,99,Assisted_Takeoff,
0.375909882178241,36.925447732630204,2700,2018-04-17 07:14:37,1630.50261567607,0.0,0.0,0.0435622013939904,1630.50261567607,0.0,0.0,0.0454504014544128,1024,0.0,99,Assisted_Takeoff,
0.37590988175713597,36.925447725779705,2800,2018-04-17 07:14:37,1630.50261567607,0.0,0.0,0.04281590137010881,1630.50261567607,0.0,0.0,0.0454504014544128,1024,0.0,99,Assisted_Takeoff,
0.37590988311322293,36.925447688179105,2900,2018-04-17 07:14:37,1630.50261567607,0.0,0.0,0.038663001237216006,1630.50261567607,0.0,0.0,0.0454504014544128,1024,0.0,99,Assisted_Takeoff,
0.375909883073936,36.9254476501729,3000,2018-04-17 07:14:37,1630.50261567607,0.0,0.0,0.0345013011040416,1630.50261567607,0.0,0.0,0.0454504014544128,1024,0.0,99,Assisted_Takeoff,
0.3759098849836429,36.9254476341617,3100,2018-04-17 07:14:37,1630.50261567607,0.0,0.0,0.0327123010467936,1630.50261567607,0.0,0.0,0.0454504014544128,1024,0.0,99,Assisted_Takeoff,
0.375909885271674,36.9254476364732,3200,2018-04-17 07:14:37,1630.50261567607,0.0,0.0,0.032958901054684804,1630.50261567607,0.0,0.0,0.0454504014544128,1024,0.0,99,Assisted_Takeoff,
0.375909886137396,36.9254476409988,3300,2018-04-17 07:14:37,1630.50261567607,0.0,0.0,0.033436201069958406,1630.50261567607,0.0,0.0,0.0454504014544128,1032,0.0,99,Assisted_Takeoff,
0.375909885623571,36.9254476415395,3400,2018-04-17 07:14:37,1630.50261567607,0.0,0.0,0.0335057010721824,1630.50261567607,0.0,0.0,0.0454504014544128,1032,0.0,99,Assisted_Takeoff,
0.37590988623993704,36.925447643751895,3500,2018-04-17 07:14:37,1630.50261567607,0.0,0.0,0.033735501079536,1630.50261567607,0.0,0.0,0.0454504014544128,1050,0.0,99,Assisted_Takeoff,
0.375909885414265,36.9254476437488,3600,2018-04-17 07:14:37,1630.50261567607,0.0,0.0,0.033751501080048,1630.50261567607,0.0,0.0,0.0454504014544128,1111,0.0,99,Assisted_Takeoff,
0.37590988610955894,36.925447620928395,3700,2018-04-17 07:14:38,1630.50261567607,0.0,0.0,0.031243700999798403,1630.50261567607,0.0,0.0,0.0454504014544128,1146,0.0,99,Assisted_Takeoff,
0.375909885623673,36.925447590607206,3800,2018-04-17 07:14:38,1630.50261567607,0.0,0.0,0.0279537008945184,1630.50261567607,0.0,0.0,0.0454504014544128,1159,0.0,99,Assisted_Takeoff,
0.375909886245585,36.925447562226296,3900,2018-04-17 07:14:38,1630.50261567607,0.0,0.0,0.0248651007956832,1630.50261567607,0.0,0.0,0.0454504014544128,1165,0.0,99,Assisted_Takeoff,
0.37590988574443196,36.9254475432791,4000,2018-04-17 07:14:38,1630.50261567607,0.0,0.0,0.0228403007308896,1630.50261567607,0.0,0.0,0.0454504014544128,1219,0.0,99,Assisted_Takeoff,
0.37590988601928293,36.9254475296524,4100,2018-04-17 07:14:38,1630.50261567607,0.0,0.0,0.021374000683968,1630.50261567607,0.0,0.0,0.0454504014544128,1248,0.0,99,Assisted_Takeoff,
0.375909885627845,36.9254475224004,4200,2018-04-17 07:14:38,1630.50261567607,0.0,0.0,0.020614000659648003,1630.50261567607,0.0,0.0,0.0454504014544128,1256,0.0,99,Assisted_Takeoff,
0.37590988258591207,36.9254475116678,4300,2018-04-17 07:14:38,1630.50261567607,0.0,0.0,0.019584000626688,1630.50261567607,0.0,0.0,0.0454504014544128,1261,0.0,99,Assisted_Takeoff,
0.37590986624926,36.9254475688398,4400,2018-04-17 07:14:38,1630.50261567607,0.0,0.35999970196000003,0.026189000838048003,1630.50261567607,0.0,0.35999970196000003,0.0454504014544128,1276,0.0,99,Assisted_Takeoff,
0.37590984624234997,36.9254477028229,4500,2018-04-17 07:14:38,1630.50261567607,0.0,0.35999970196000003,0.0411148013156736,1630.50261567607,0.0,0.35999970196000003,0.0454504014544128,1303,0.0,99,P-GPS,Obstacle Avoided. Revise Flight Route
0.37590984267509103,36.925447909433295,4600,2018-04-17 07:14:38,1630.50261567607,0.0,0.7199994039200001,0.0636728020375296,1630.50261567607,0.0,0.7199994039200001,0.0636728020375296,1331,0.0,99,P-GPS,
0.375909833321257,36.9254481604324,4700,2018-04-17 07:14:39,1630.50261567607,0.0,0.7199994039200001,0.091431002925792,1630.50261567607,0.0,0.7199994039200001,0.091431002925792,1348,0.0,99,P-GPS,
0.37590982541791,36.925448391555,4800,2018-04-17 07:14:39,1630.60261567927,0.10000000320000002,0.7199994039200001,0.11705500374575999,1630.60261567927,0.10000000320000002,0.7199994039200001,0.11705500374575999,1380,0.0,99,P-GPS,
0.375909822698764,36.925448623254105,4900,2018-04-17 07:14:39,1630.70261568247,0.20000000640000004,0.7199994039200001,0.14272300456713602,1630.70261568247,0.20000000640000004,0.7199994039200001,0.14272300456713602,1419,0.0,99,P-GPS,
0.375909813725529,36.9254488402795,5000,2018-04-17 07:14:39,1630.8026156856702,0.3000000096,0.7199994039200001,0.166851005339232,1630.8026156856702,0.3000000096,0.7199994039200001,0.166851005339232,1435,0.0,99,P-GPS,
0.375909757471288,36.9254490223962,5100,2018-04-17 07:14:39,1631.0026156920699,0.500000016,0.35999970196000003,0.187613006003616,1631.0026156920699,0.500000016,0.7199994039200001,0.187613006003616,1446,0.0,99,P-GPS,
0.3759097085826,36.925449150285296,5200,2018-04-17 07:14:39,1631.1026156952698,0.6000000192,0.35999970196000003,0.20237600647603202,1631.1026156952698,0.6000000192,0.7199994039200001,0.20237600647603202,1449,0.0,99,P-GPS,Home Point Recorded. RTH Altitude:  30m.
0.375909667648479,36.9254492967591,5300,2018-04-17 07:14:39,1631.30261570167,0.8000000256000002,0.35999970196000003,0.219125007012,1631.30261570167,0.8000000256000002,0.7199994039200001,0.219125007012,1461,0.0,99,P-GPS,
0.37590959628713705,36.9254494239672,5400,2018-04-17 07:14:39,1631.50261570807,1.000000032,0.35999970196000003,0.23430700749782402,1631.50261570807,1.000000032,0.7199994039200001,0.23430700749782402,1460,0.0,99,P-GPS,
0.37590949395308293,36.925449573136795,5500,2018-04-17 07:14:39,1631.8026157176698,1.3000000416000002,0.35999970196000003,0.25267300808553605,1631.8026157176698,1.3000000416000002,0.7199994039200001,0.25267300808553605,1479,0.0,99,P-GPS,
0.3759094204333279,36.925449722406505,5600,2018-04-17 07:14:39,1632.10261572727,1.6000000512000003,0.35999970196000003,0.27059600865907196,1632.10261572727,1.6000000512000003,0.7199994039200001,0.27059600865907196,1551,0.0,99,P-GPS,
0.37590935689837607,36.9254498782595,5700,2018-04-17 07:14:40,1632.40261573687,1.9000000607999998,0.35999970196000003,0.289054009249728,1632.40261573687,1.9000000607999998,0.7199994039200001,0.289054009249728,1520,0.0,99,P-GPS,
0.37590919883680607,36.9254501533997,5900,2018-04-17 07:14:40,1633.0026157560699,2.50000008,0.35999970196000003,0.32297801033529605,1633.0026157560699,2.50000008,0.7199994039200001,0.32297801033529605,1581,0.0,99,P-GPS,
0.37590911040794606,36.9254502684161,6000,2018-04-17 07:14:40,1633.30261576567,2.8000000896000006,0.35999970196000003,0.337912010813184,1633.30261576567,2.8000000896000006,0.7199994039200001,0.337912010813184,1596,0.0,99,P-GPS,
0.37590903100656897,36.9254503553687,6100,2018-04-17 07:14:40,1633.60261577527,3.1000000992,0.35999970196000003,0.34967401118956803,1633.60261577527,3.1000000992,0.7199994039200001,0.34967401118956803,1598,0.0,99,P-GPS,
0.375908971921608,36.925450401891204,6200,2018-04-17 07:14:40,1634.00261578807,3.500000112,0.0,0.35655801140985605,1634.00261578807,3.500000112,0.7199994039200001,0.35655801140985605,1602,0.0,99,P-GPS,
0.375908931016774,36.9254504212765,6300,2018-04-17 07:14:40,1634.40261580087,3.9000001248,0.0,0.360006011520192,1634.40261580087,3.9000001248,0.7199994039200001,0.360006011520192,1650,0.0,99,P-GPS,
0.375908884144991,36.92545042502471,6400,2018-04-17 07:14:40,1634.80261581367,4.3000001376,0.0,0.36205801158585604,1634.80261581367,4.3000001376,0.7199994039200001,0.36205801158585604,1662,0.0,99,P-GPS,
0.375908895961235,36.925450396752,6500,2018-04-17 07:14:40,1635.20261582647,4.700000150400001,0.0,0.35865801147705606,1635.20261582647,4.700000150400001,0.7199994039200001,0.36205801158585604,1681,0.0,99,P-GPS,
0.37590892645173707,36.925450364250494,6600,2018-04-17 07:14:40,1635.60261583927,5.1000001632,0.0,0.354147011332704,1635.60261583927,5.1000001632,0.7199994039200001,0.36205801158585604,1684,0.0,99,P-GPS,
0.3759089645165639,36.9254503538165,6700,2018-04-17 07:14:40,1636.00261585207,5.500000176000001,0.0,0.35171801125497604,1636.00261585207,5.500000176000001,0.7199994039200001,0.36205801158585604,1684,0.0,99,P-GPS,
0.37590897967050796,36.9254503271299,6800,2018-04-17 07:14:41,1636.5026158680698,6.000000192000001,0.0,0.34837601114803196,1636.5026158680698,6.000000192000001,0.7199994039200001,0.36205801158585604,1684,0.0,99,P-GPS,
0.3759089605752461,36.9254503147848,6900,2018-04-17 07:14:41,1637.00261588407,6.500000208,0.0,0.34772901112732807,1637.00261588407,6.500000208,0.7199994039200001,0.36205801158585604,1684,0.0,99,P-GPS,
0.37590892515982105,36.9254502885219,7000,2018-04-17 07:14:41,1637.50261590007,7.000000224,0.0,0.346221011079072,1637.50261590007,7.000000224,0.7199994039200001,0.36205801158585604,1684,0.0,99,P-GPS,
0.37590889974467,36.9254502049354,7100,2018-04-17 07:14:41,1637.90261591287,7.4000002368,0.0,0.33840301082889607,1637.90261591287,7.4000002368,0.7199994039200001,0.36205801158585604,1684,0.0,99,P-GPS,
0.375908875506375,36.9254500661276,7200,2018-04-17 07:14:41,1638.50261593207,8.000000256,0.0,0.324912010397184,1638.50261593207,8.000000256,0.7199994039200001,0.36205801158585604,1684,0.0,99,P-GPS,
0.37590886725245404,36.9254498576784,7300,2018-04-17 07:14:41,1639.00261594807,8.500000272000001,0.0,0.30380200972166393,1639.00261594807,8.500000272000001,0.7199994039200001,0.36205801158585604,1684,0.0,99,P-GPS,
0.375908861062382,36.9254496399538,7400,2018-04-17 07:14:41,1639.50261596407,9.000000287999999,0.0,0.28198800902361604,1639.50261596407,9.000000287999999,0.7199994039200001,0.36205801158585604,1684,0.0,99,P-GPS,
0.37590884492002397,36.925449434784795,7500,2018-04-17 07:14:41,1640.00261598007,9.500000304,0.0,0.262349008395168,1640.00261598007,9.500000304,0.7199994039200001,0.36205801158585604,1684,0.0,99,P-GPS,
0.375908810846767,36.925449244925,7600,2018-04-17 07:14:42,1640.50261599607,10.00000032,0.0,0.24576000786432003,1640.50261599607,10.00000032,0.7199994039200001,0.36205801158585604,1684,0.0,99,P-GPS,
0.37590879729882504,36.925449032117704,7700,2018-04-17 07:14:42,1641.00261601207,10.500000336,0.0,0.22658300725065603,1641.00261601207,10.500000336,0.7199994039200001,0.36205801158585604,1684,0.0,99,P-GPS,
0.37590879629468604,36.9254488096614,7800,2018-04-17 07:14:42,1641.5026160280702,11.000000352000002,0.0,0.206638006612416,1641.5026160280702,11.000000352000002,0.7199994039200001,0.36205801158585604,1684,0.0,99,P-GPS,
0.37590879193422205,36.9254485643905,7900,2018-04-17 07:14:42,1642.00261604407,11.500000367999998,0.0,0.186233005959456,1642.00261604407,11.500000367999998,0.7199994039200001,0.36205801158585604,1684,-0.1,99,P-GPS,
0.375908783920853,36.9254483384677,8000,2018-04-17 07:14:42,1642.5026160600698,12.000000384000002,0.0,0.169499005423968,1642.5026160600698,12.000000384000002,0.7199994039200001,0.36205801158585604,1684,-0.7,99,P-GPS,
0.37590880094252005,36.925448125552,8100,2018-04-17 07:14:42,1643.00261607607,12.500000400000001,0.0,0.15354800491353598,1643.00261607607,12.500000400000001,0.7199994039200001,0.36205801158585604,1684,-1.4,99,P-GPS,
0.37590882530455105,36.925447921941704,8200,2018-04-17 07:14:42,1643.50261609207,13.000000416,0.0,0.13957400446636803,1643.50261609207,13.000000416,0.7199994039200001,0.36205801158585604,1684,-2.1,99,P-GPS,
0.375908865461115,36.9254477416806,8300,2018-04-17 07:14:42,1644.00261610807,13.500000432000002,0.0,0.127374004075968,1644.00261610807,13.500000432000002,0.7199994039200001,0.36205801158585604,1684,-3.6,99,P-GPS,
0.37590887816995,36.9254473922095,8500,2018-04-17 07:14:42,1645.0026161400701,14.500000464,0.0,0.11820200378246401,1645.0026161400701,14.500000464,0.7199994039200001,0.36205801158585604,1684,-4.3,99,P-GPS,
0.37590888996866295,36.925447227087105,8600,2018-04-17 07:14:42,1645.50261615607,15.00000048,0.0,0.11751000376032002,1645.50261615607,15.00000048,0.7199994039200001,0.36205801158585604,1684,-4.3,99,P-GPS,
0.37590893688131,36.9254470730491,8700,2018-04-17 07:14:43,1646.0026161720698,15.500000496,0.0,0.115589003698848,1646.0026161720698,15.500000496,0.7199994039200001,0.36205801158585604,1684,-5.1,99,P-GPS,
0.375908977862197,36.9254469239608,8800,2018-04-17 07:14:43,1646.50261618807,16.000000512,0.0,0.116804003737728,1646.50261618807,16.000000512,0.7199994039200001,0.36205801158585604,1684,-5.9,99,P-GPS,
0.37590898510811105,36.9254468183856,8900,2018-04-17 07:14:43,1647.00261620407,16.500000528,0.0,0.121281003880992,1647.00261620407,16.500000528,0.7199994039200001,0.36205801158585604,1684,-6.6,99,P-GPS,
0.37590894931361496,36.9254467471413,9000,2018-04-17 07:14:43,1647.50261622007,17.000000544000002,0.0,0.128691004118112,1647.50261622007,17.000000544000002,0.7199994039200001,0.36205801158585604,1684,-6.6,99,P-GPS,
0.375908918962879,36.9254467123742,9100,2018-04-17 07:14:43,1648.0026162360698,17.50000056,0.0,0.133588004274816,1648.0026162360698,17.50000056,0.7199994039200001,0.36205801158585604,1684,-8.2,99,P-GPS,
0.37590890122546,36.9254466661582,9200,2018-04-17 07:14:43,1648.50261625207,18.000000575999998,0.0,0.138012004416384,1648.50261625207,18.000000575999998,0.7199994039200001,0.36205801158585604,1684,-9.0,99,P-GPS,
0.375908885402633,36.9254466440539,9300,2018-04-17 07:14:43,1649.00261626807,18.500000592000003,0.0,0.140834004506688,1649.00261626807,18.500000592000003,0.7199994039200001,0.36205801158585604,1684,-10.0,99,P-GPS,
0.375908871506611,36.9254466236582,9400,2018-04-17 07:14:43,1649.50261628407,19.000000608,0.0,0.14338000458816003,1649.50261628407,19.000000608,0.7199994039200001,0.36205801158585604,1676,-11.0,99,P-GPS,
0.37590887363340997,36.9254466286576,9500,2018-04-17 07:14:43,1650.00261630007,19.500000624000002,0.0,0.142874004571968,1650.00261630007,19.500000624000002,0.7199994039200001,0.36205801158585604,1676,-11.2,99,P-GPS,
0.37590888604902295,36.9254466213499,9600,2018-04-17 07:14:44,1650.6026163192698,20.1000006432,0.0,0.142188004550016,1650.6026163192698,20.1000006432,0.7199994039200001,0.36205801158585604,1654,-11.3,99,P-GPS,
0.375908913371566,36.9254466096115,9700,2018-04-17 07:14:44,1651.10261633527,20.600000659200003,0.0,0.1404500044944,1651.10261633527,20.600000659200003,0.7199994039200001,0.36205801158585604,1654,-11.5,99,P-GPS,
0.3759089445295,36.9254465977945,9800,2018-04-17 07:14:44,1651.60261635127,21.1000006752,0.0,0.138433004429856,1651.60261635127,21.1000006752,0.7199994039200001,0.36205801158585604,1649,-11.5,99,P-GPS,
0.37590906868082397,36.9254466956036,10000,2018-04-17 07:14:44,1652.6026163832698,22.1000007072,0.0,0.120863003867616,1652.6026163832698,22.1000007072,0.7199994039200001,0.36205801158585604,1666,-11.5,99,P-GPS,
0.375909131081322,36.925446768947,10100,2018-04-17 07:14:44,1653.1026163992701,22.6000007232,0.0,0.11045000353439999,1653.1026163992701,22.6000007232,0.7199994039200001,0.36205801158585604,1676,-11.7,99,P-GPS,
0.37590917166939797,36.9254468439932,10200,2018-04-17 07:14:44,1653.60261641527,23.100000739200006,0.0,0.102018003264576,1653.60261641527,23.100000739200006,0.7199994039200001,0.36205801158585604,1676,-13.0,99,P-GPS,
0.37590920401501,36.9254469772356,10300,2018-04-17 07:14:44,1654.1026164312698,23.6000007552,0.0,0.0915083029282656,1654.1026164312698,23.6000007552,0.7199994039200001,0.36205801158585604,1681,-14.5,99,P-GPS,
0.375909222495419,36.9254471096548,10400,2018-04-17 07:14:44,1654.60261644727,24.100000771199998,0.0,0.08398400268748801,1654.60261644727,24.100000771199998,0.7199994039200001,0.36205801158585604,1684,-16.2,99,P-GPS,
0.375909215906989,36.925447245222394,10500,2018-04-17 07:14:44,1655.10261646327,24.600000787200003,0.0,0.08129150260132799,1655.10261646327,24.600000787200003,0.7199994039200001,0.36205801158585604,1684,-18.3,99,P-GPS,
0.3759091922338089,36.9254473463656,10600,2018-04-17 07:14:44,1655.60261647927,25.100000803199997,0.0,0.083160502661136,1655.60261647927,25.100000803199997,0.7199994039200001,0.36205801158585604,1684,-21.1,99,P-GPS,
0.37590915635533295,36.9254474757294,10700,2018-04-17 07:14:44,1656.10261649527,25.600000819200005,0.0,0.08835090282722881,1656.10261649527,25.600000819200005,0.7199994039200001,0.36205801158585604,1684,-21.1,99,P-GPS,
0.37590911328118304,36.92544757864471,10800,2018-04-17 07:14:45,1656.60261651127,26.100000835200003,0.0,0.0955352030571264,1656.60261651127,26.100000835200003,0.7199994039200001,0.36205801158585604,1684,-26.5,99,P-GPS,
0.37590907568376897,36.9254476861615,10900,2018-04-17 07:14:45,1657.10261652727,26.6000008512,0.0,0.10333000330656,1657.10261652727,26.6000008512,0.7199994039200001,0.36205801158585604,1684,-26.7,99,P-GPS,
0.37590904050413704,36.925447756968396,11000,2018-04-17 07:14:45,1657.6026165432702,27.100000867200002,0.0,0.11001600352051201,1657.6026165432702,27.100000867200002,0.7199994039200001,0.36205801158585604,1684,-26.7,99,P-GPS,
0.375909000507288,36.9254478207309,11100,2018-04-17 07:14:45,1658.10261655927,27.6000008832,0.0,0.11710200374726401,1658.10261655927,27.6000008832,0.7199994039200001,0.36205801158585604,1684,-26.7,99,P-GPS,
0.37590896828287496,36.9254478764825,11200,2018-04-17 07:14:45,1658.7026165784698,28.200000902400003,0.0,0.12316100394115202,1658.7026165784698,28.200000902400003,0.7199994039200001,0.36205801158585604,1684,-26.7,99,P-GPS,
0.375908975031325,36.92544800195579,11300,2018-04-17 07:14:45,1659.20261659447,28.7000009184,0.0,0.129809004153888,1659.20261659447,28.7000009184,0.7199994039200001,0.36205801158585604,1684,-26.7,99,P-GPS,
0.37590900825415297,36.9254481434137,11400,2018-04-17 07:14:45,1659.70261661047,29.200000934400002,0.0,0.136442004366144,1659.70261661047,29.200000934400002,0.7199994039200001,0.36205801158585604,1684,-26.7,99,P-GPS,
0.375909060337568,36.9254483140474,11500,2018-04-17 07:14:45,1660.3026166296702,29.8000009536,0.0,0.14552700465686402,1660.3026166296702,29.8000009536,0.7199994039200001,0.36205801158585604,1684,-26.7,99,P-GPS,
0.375909095363044,36.925448450426295,11600,2018-04-17 07:14:46,1660.80261664567,30.300000969600003,0.0,0.154691004950112,1660.80261664567,30.300000969600003,0.7199994039200001,0.36205801158585604,1684,-26.7,99,P-GPS,
0.37590911482219896,36.925448596876,11700,2018-04-17 07:14:46,1661.3026166616698,30.8000009856,0.0,0.166721005335072,1661.3026166616698,30.8000009856,0.7199994039200001,0.36205801158585604,1684,-26.7,99,P-GPS,
0.37590911206778793,36.9254487026274,11800,2018-04-17 07:14:46,1661.8026166776701,31.300001001600002,0.0,0.176817005658144,1661.8026166776701,31.300001001600002,0.7199994039200001,0.36205801158585604,1684,-26.7,99,P-GPS,
0.37590911873419297,36.9254488325384,11900,2018-04-17 07:14:46,1662.40261669687,31.9000010208,0.0,0.18894000604608002,1662.40261669687,31.9000010208,0.7199994039200001,0.36205801158585604,1684,-26.7,99,P-GPS,
0.37590912458475895,36.9254489344542,12000,2018-04-17 07:14:46,1662.9026167128698,32.4000010368,0.0,0.19863900635644804,1662.9026167128698,32.4000010368,0.7199994039200001,0.36205801158585604,1684,-26.7,99,P-GPS,
0.37590912085325606,36.925449041699295,12100,2018-04-17 07:14:46,1663.40261672887,32.9000010528,0.0,0.209501006704032,1663.40261672887,32.9000010528,0.7199994039200001,0.36205801158585604,1684,-26.7,99,P-GPS,
0.375909104256664,36.9254491215845,12200,2018-04-17 07:14:46,1663.9026167448699,33.4000010688,0.0,0.21831400698604803,1663.9026167448699,33.4000010688,0.7199994039200001,0.36205801158585604,1684,-26.7,99,P-GPS,
0.375909109720781,36.9254492238708,12300,2018-04-17 07:14:46,1664.5026167640701,34.000001088000005,0.0,0.228412007309184,1664.5026167640701,34.000001088000005,0.7199994039200001,0.36205801158585604,1684,-26.7,99,P-GPS,
0.37590912569970897,36.925449299612204,12400,2018-04-17 07:14:46,1665.00261678007,34.500001104,0.0,0.23545100753443204,1665.00261678007,34.500001104,0.7199994039200001,0.36205801158585604,1684,-26.7,99,P-GPS,
0.375909116053354,36.925449376016104,12500,2018-04-17 07:14:46,1665.50261679607,35.00000112,0.0,0.243717007798944,1665.50261679607,35.00000112,0.7199994039200001,0.36205801158585604,1684,-26.7,99,P-GPS,
0.375909084480191,36.9254494056735,12600,2018-04-17 07:14:46,1666.0026168120698,35.500001136,0.0,0.24810100793923198,1666.0026168120698,35.500001136,0.7199994039200001,0.36205801158585604,1684,-26.7,99,P-GPS,
0.375909070747396,36.925449428980606,12700,2018-04-17 07:14:47,1666.5026168280701,36.000001151999996,0.0,0.251081008034592,1666.5026168280701,36.000001151999996,0.7199994039200001,0.36205801158585604,1684,-26.7,99,P-GPS,
0.37590911503749797,36.9254494642092,12800,2018-04-17 07:14:47,1667.00261684407,36.500001168000004,0.0,0.252872008091904,1667.00261684407,36.500001168000004,0.7199994039200001,0.36205801158585604,1684,-26.7,99,P-GPS,
0.37590919003242,36.9254495180361,12900,2018-04-17 07:14:47,1667.60261686327,37.1000011872,0.0,0.25561800817977604,1667.60261686327,37.1000011872,0.7199994039200001,0.36205801158585604,1684,-26.7,99,P-GPS,
0.37590925829651506,36.925449535381,13000,2018-04-17 07:14:47,1668.10261687927,37.60000120320001,0.0,0.25508400816268806,1668.10261687927,37.60000120320001,0.7199994039200001,0.36205801158585604,1684,-26.7,99,P-GPS,
0.3759093502611379,36.9254495307872,13100,2018-04-17 07:14:47,1668.6026168952699,38.1000012192,0.0,0.25174000805568,1668.6026168952699,38.1000012192,0.7199994039200001,0.36205801158585604,1684,-26.7,99,P-GPS,
0.37590945210021504,36.9254495192724,13200,2018-04-17 07:14:47,1669.1026169112702,38.600001235200004,0.0,0.24778000792896,1669.1026169112702,38.600001235200004,0.7199994039200001,0.36205801158585604,1684,-26.7,99,P-GPS,
0.37590954552337297,36.9254495585814,13300,2018-04-17 07:14:47,1669.60261692727,39.100001251200005,0.0,0.250016008000512,1669.60261692727,39.100001251200005,0.7199994039200001,0.36205801158585604,1684,-26.7,99,P-GPS,
0.3759095979868,36.9254496183447,13400,2018-04-17 07:14:47,1670.2026169464698,39.7000012704,0.0,0.25562900818012807,1670.2026169464698,39.7000012704,0.7199994039200001,0.36205801158585604,1684,-26.7,99,P-GPS,
0.375909612417944,36.9254497079076,13500,2018-04-17 07:14:47,1670.70261696247,40.2000012864,0.0,0.26525600848819203,1670.70261696247,40.2000012864,0.7199994039200001,0.36205801158585604,1684,-26.7,99,P-GPS,
0.37590960567147796,36.925449767074795,13600,2018-04-17 07:14:47,1671.20261697847,40.7000013024,0.0,0.27187700870006404,1671.20261697847,40.7000013024,0.7199994039200001,0.36205801158585604,1684,-26.7,99,P-GPS,
0.37590961901036896,36.9254497920516,13700,2018-04-17 07:14:48,1671.70261699447,41.200001318400005,0.0,0.274432008781824,1671.70261699447,41.200001318400005,0.7199994039200001,0.36205801158585604,1684,-26.7,99,P-GPS,
0.375909658229178,36.9254497735488,13800,2018-04-17 07:14:48,1672.20261701047,41.7000013344,0.0,0.271854008699328,1672.20261701047,41.7000013344,0.7199994039200001,0.36205801158585604,1684,-26.7,99,P-GPS,
0.375909715969883,36.9254497433963,13900,2018-04-17 07:14:48,1672.70261702647,42.2000013504,0.0,0.267851008571232,1672.70261702647,42.2000013504,0.7199994039200001,0.36205801158585604,1684,-26.7,99,P-GPS,
0.375909757691433,36.9254497098781,14000,2018-04-17 07:14:48,1673.30261704567,42.800001369600004,0.0,0.263742008439744,1673.30261704567,42.800001369600004,0.7199994039200001,0.36205801158585604,1684,-26.7,99,P-GPS,
0.37590978836663597,36.9254496967659,14100,2018-04-17 07:14:48,1673.80261706167,43.300001385600005,0.0,0.26204700838550404,1673.80261706167,43.300001385600005,0.7199994039200001,0.36205801158585604,1684,-26.7,99,P-GPS,
0.375909800637877,36.9254496794689,14200,2018-04-17 07:14:48,1674.30261707767,43.80000140159999,0.0,0.260042008321344,1674.30261707767,43.80000140159999,0.7199994039200001,0.36205801158585604,1684,-26.7,99,P-GPS,
0.37590980793345896,36.925449668960205,14300,2018-04-17 07:14:48,1674.8026170936698,44.30000141760001,0.0,0.25882900828252803,1674.8026170936698,44.30000141760001,0.7199994039200001,0.36205801158585604,1684,-26.7,99,P-GPS,
0.37590980828301507,36.9254496584309,14400,2018-04-17 07:14:48,1675.30261710967,44.80000143360001,0.0,0.257657008245024,1675.30261710967,44.80000143360001,0.7199994039200001,0.36205801158585604,1684,-26.7,99,P-GPS,
0.375909867006945,36.9254496368943,14600,2018-04-17 07:14:49,1676.4026171448697,45.9000014688,0.0,0.25497500815920005,1676.4026171448697,45.9000014688,0.7199994039200001,0.36205801158585604,1684,-26.7,99,P-GPS,
0.37590991897578296,36.9254495639525,14800,2018-04-17 07:14:49,1677.4026171768699,46.9000015008,0.0,0.24674500789584,1677.4026171768699,46.9000015008,0.7199994039200001,0.36205801158585604,1684,-26.7,99,P-GPS,
0.375909976569522,36.9254495571195,14900,2018-04-17 07:14:49,1677.90261719287,47.400001516799996,0.0,0.246008007872256,1677.90261719287,47.400001516799996,0.7199994039200001,0.36205801158585604,1684,-26.7,99,P-GPS,
0.37591004375525294,36.925449572899396,15000,2018-04-17 07:14:49,1678.5026172120697,48.000001536000006,0.0,0.247997007935904,1678.5026172120697,48.000001536000006,0.7199994039200001,0.36205801158585604,1684,-26.7,99,P-GPS,
0.375910167296852,36.9254495790501,15200,2018-04-17 07:14:49,1679.6026172472698,49.1000015712,0.0,0.24969500799024,1679.6026172472698,49.1000015712,0.7199994039200001,0.36205801158585604,1684,-26.7,99,P-GPS,
0.37591026043652104,36.925449443339296,15400,2018-04-17 07:14:49,1680.50261727607,50.000001600000004,0.35999970196000003,0.236026007552832,1680.50261727607,50.000001600000004,0.7199994039200001,0.36205801158585604,1684,-26.7,99,P-GPS,
0.37591029133431203,36.9254493641144,15500,2018-04-17 07:14:49,1681.1026172952697,50.6000016192,0.35999970196000003,0.22788500729232,1681.1026172952697,50.6000016192,0.7199994039200001,0.36205801158585604,1684,-26.7,99,P-GPS,
0.37591034700613,36.9254492807207,15600,2018-04-17 07:14:49,1681.6026173112698,51.1000016352,0.35999970196000003,0.21994400703820804,1681.6026173112698,51.1000016352,0.7199994039200001,0.36205801158585604,1684,-26.7,99,P-GPS,
0.37591042072843606,36.925449179291206,15700,2018-04-17 07:14:50,1682.1026173272699,51.600001651199996,0.35999970196000003,0.21084700674710402,1682.1026173272699,51.600001651199996,0.7199994039200001,0.36205801158585604,1684,-26.7,99,P-GPS,
0.37591047998619,36.925449058949,15800,2018-04-17 07:14:50,1682.6026173432697,52.1000016672,0.35999970196000003,0.19981200639398403,1682.6026173432697,52.1000016672,0.7199994039200001,0.36205801158585604,1684,-26.7,99,P-GPS,
0.375910538484478,36.9254489679722,15900,2018-04-17 07:14:50,1683.0026173560698,52.500001680000004,0.35999970196000003,0.192339006154848,1683.0026173560698,52.500001680000004,0.7199994039200001,0.36205801158585604,1684,-26.7,99,P-GPS,
0.37591057977398107,36.9254488941472,16000,2018-04-17 07:14:50,1683.5026173720698,53.000001696000005,0.0,0.18636300596361602,1683.5026173720698,53.000001696000005,0.7199994039200001,0.36205801158585604,1684,-26.7,99,P-GPS,
0.3759106069954579,36.9254488344709,16100,2018-04-17 07:14:50,1684.00261738807,53.500001712,0.0,0.181463005806816,1684.00261738807,53.500001712,0.7199994039200001,0.36205801158585604,1684,-26.7,99,P-GPS,
0.37591062347398796,36.9254487596939,16200,2018-04-17 07:14:50,1684.5026174040697,54.00000172800001,0.0,0.174697005590304,1684.5026174040697,54.00000172800001,0.7199994039200001,0.36205801158585604,1684,-26.7,99,P-GPS,
0.375910630627132,36.925448695762206,16300,2018-04-17 07:14:50,1685.0026174200696,54.500001744,0.35999970196000003,0.16868400539788803,1685.0026174200696,54.500001744,0.7199994039200001,0.36205801158585604,1684,-26.7,99,P-GPS,
0.37591062447527795,36.925448616644296,16400,2018-04-17 07:14:50,1685.5026174360698,55.00000176,0.35999970196000003,0.1605750051384,1685.5026174360698,55.00000176,0.7199994039200001,0.36205801158585604,1684,-26.7,99,P-GPS,
0.375910640529802,36.9254485475374,16500,2018-04-17 07:14:50,1685.90261744887,55.40000177280001,0.0,0.154743004951776,1685.90261744887,55.40000177280001,0.7199994039200001,0.36205801158585604,1684,-26.7,99,P-GPS,
0.37591066628547604,36.9254484821793,16600,2018-04-17 07:14:50,1686.4026174648698,55.900001788800004,0.0,0.15003000480096002,1686.4026174648698,55.900001788800004,0.7199994039200001,0.36205801158585604,1684,-26.7,99,P-GPS,
0.375910691235986,36.9254484679779,16700,2018-04-17 07:14:51,1686.9026174808696,56.400001804800006,0.0,0.150227004807264,1686.9026174808696,56.400001804800006,0.7199994039200001,0.36205801158585604,1684,-26.7,99,P-GPS,
0.37591070170321705,36.925448471181,16800,2018-04-17 07:14:51,1687.4026174968699,56.90000182080001,0.0,0.151172004837504,1687.4026174968699,56.90000182080001,0.7199994039200001,0.36205801158585604,1684,-26.7,99,P-GPS,
0.375910681777576,36.9254484619364,17000,2018-04-17 07:14:51,1688.4026175288698,57.90000185280001,0.0,0.14908400477068803,1688.4026175288698,57.90000185280001,0.7199994039200001,0.36205801158585604,1684,-26.7,99,P-GPS,
0.37591066985899396,36.925448481122,17100,2018-04-17 07:14:51,1688.9026175448698,58.400001868800004,0.0,0.15014500480464002,1688.9026175448698,58.400001868800004,0.7199994039200001,0.36205801158585604,1684,-26.7,99,P-GPS,
0.375910661607465,36.9254485240499,17200,2018-04-17 07:14:51,1689.4026175608699,58.900001884800005,0.0,0.15370200491846403,1689.4026175608699,58.900001884800005,0.7199994039200001,0.36205801158585604,1684,-26.7,99,P-GPS,
0.375910651686984,36.9254485930799,17300,2018-04-17 07:14:51,1689.9026175768697,59.4000019008,0.0,0.15975000511200002,1689.9026175768697,59.4000019008,0.7199994039200001,0.36205801158585604,1684,-26.7,99,P-GPS,
0.375910617416991,36.925448667408105,17400,2018-04-17 07:14:51,1690.40261759287,59.9000019168,0.0,0.165208005286656,1690.40261759287,59.9000019168,0.7199994039200001,0.36205801158585604,1684,-26.7,99,P-GPS,
0.375910575215865,36.925448752110704,17500,2018-04-17 07:14:51,1690.9026176088698,60.40000193280001,0.0,0.171661005493152,1690.9026176088698,60.40000193280001,0.7199994039200001,0.36205801158585604,1684,-26.7,99,P-GPS,
0.37591052758255494,36.92544880771471,17600,2018-04-17 07:14:52,1691.4026176248697,60.9000019488,0.0,0.175272005608704,1691.4026176248697,60.9000019488,0.7199994039200001,0.36205801158585604,1684,-26.7,99,P-GPS,
0.375910486544952,36.925448842993205,17700,2018-04-17 07:14:52,1691.9026176408697,61.400001964800005,0.0,0.177302005673664,1691.9026176408697,61.400001964800005,0.7199994039200001,0.36205801158585604,1684,-26.7,99,P-GPS,
0.375910453463723,36.9254488612892,17800,2018-04-17 07:14:52,1692.4026176568698,61.9000019808,0.0,0.178001005696032,1692.4026176568698,61.9000019808,0.7199994039200001,0.36205801158585604,1684,-26.7,99,P-GPS,
0.37591046468471995,36.925448877906206,17900,2018-04-17 07:14:52,1692.9026176728698,62.4000019968,0.0,0.180153005764896,1692.9026176728698,62.4000019968,0.7199994039200001,0.36205801158585604,1684,-26.7,99,P-GPS,
0.375910507682155,36.9254488890875,18000,2018-04-17 07:14:52,1693.4026176888697,62.9000020128,0.0,0.18292400585356802,1693.4026176888697,62.9000020128,0.7199994039200001,0.36205801158585604,1684,-26.7,99,P-GPS,
0.375910562227599,36.9254488967399,18100,2018-04-17 07:14:52,1693.90261770487,63.4000020288,0.0,0.185894005948608,1693.90261770487,63.4000020288,0.7199994039200001,0.36205801158585604,1684,-26.7,99,P-GPS,
0.37591059062796794,36.9254489008879,18200,2018-04-17 07:14:52,1694.4026177208698,63.900002044800004,0.0,0.187518006000576,1694.4026177208698,63.900002044800004,0.7199994039200001,0.36205801158585604,1684,-26.7,98,P-GPS,
0.375910591938356,36.9254489156589,18300,2018-04-17 07:14:52,1694.9026177368696,64.4000020608,0.0,0.189091006050912,1694.9026177368696,64.4000020608,0.7199994039200001,0.36205801158585604,1684,-26.7,98,P-GPS,
0.375910583733034,36.9254489397506,18400,2018-04-17 07:14:52,1695.40261775287,64.9000020768,0.0,0.19122400611916804,1695.40261775287,64.9000020768,0.7199994039200001,0.36205801158585604,1684,-26.7,98,P-GPS,
0.37591060316739394,36.9254490188407,18500,2018-04-17 07:14:52,1696.0026177720697,65.500002096,0.0,0.200193006406176,1696.0026177720697,65.500002096,0.7199994039200001,0.36205801158585604,1684,-26.7,98,P-GPS,
0.375910631431889,36.92544910905,18600,2018-04-17 07:14:52,1696.5026177880698,66.000002112,0.0,0.210678006741696,1696.5026177880698,66.000002112,0.7199994039200001,0.36205801158585604,1684,-26.7,98,P-GPS,
0.37591065751488,36.9254492436602,18700,2018-04-17 07:14:52,1697.0026178040698,66.500002128,0.0,0.22569100722211202,1697.0026178040698,66.500002128,0.7199994039200001,0.36205801158585604,1684,-26.7,98,P-GPS,
0.37591069024233,36.9254493619508,18800,2018-04-17 07:14:53,1697.5026178200699,67.00000214399999,0.0,0.23928500765712,1697.5026178200699,67.00000214399999,0.7199994039200001,0.36205801158585604,1684,-26.7,98,P-GPS,
0.37591073903366706,36.9254494877471,18900,2018-04-17 07:14:53,1698.0026178360697,67.50000216000001,0.0,0.25428900813724803,1698.0026178360697,67.50000216000001,0.7199994039200001,0.36205801158585604,1684,-26.7,98,P-GPS,
0.37591078626536206,36.9254495799842,19000,2018-04-17 07:14:53,1698.5026178520698,68.00000217600001,0.0,0.26573800850361606,1698.5026178520698,68.00000217600001,0.7199994039200001,0.36205801158585604,1684,-26.7,98,P-GPS,
0.3759108244130871,36.9254496491716,19100,2018-04-17 07:14:53,1699.0026178680698,68.500002192,0.0,0.274438008782016,1699.0026178680698,68.500002192,0.7199994039200001,0.36205801158585604,1684,-26.7,98,P-GPS,
0.375910841655358,36.925449659998606,19200,2018-04-17 07:14:53,1699.5026178840697,69.000002208,0.0,0.276253008840096,1699.5026178840697,69.000002208,0.7199994039200001,0.36205801158585604,1684,-26.7,98,P-GPS,
0.375910814565276,36.9254496532143,19400,2018-04-17 07:14:53,1700.5026179160698,70.00000224,0.0,0.27446800878297606,1700.5026179160698,70.00000224,0.7199994039200001,0.36205801158585604,1684,-26.7,98,P-GPS,
0.375910854466428,36.9254498204817,19600,2018-04-17 07:14:54,1701.5026179480699,71.000002272,0.0,0.29344400939020804,1701.5026179480699,71.000002272,0.7199994039200001,0.36205801158585604,1684,-26.7,98,P-GPS,
0.37591093595396996,36.925449995644996,19800,2018-04-17 07:14:54,1702.6026179832697,72.1000023072,0.0,0.314861010075552,1702.6026179832697,72.1000023072,0.7199994039200001,0.36205801158585604,1684,-26.7,98,P-GPS,
0.375911041595406,36.9254501363835,20000,2018-04-17 07:14:54,1703.6026180152699,73.1000023392,0.0,0.333689010678048,1703.6026180152699,73.1000023392,0.7199994039200001,0.36205801158585604,1684,-26.7,98,P-GPS,
0.37591110357296703,36.9254502043233,20100,2018-04-17 07:14:54,1704.1026180312697,73.6000023552,0.0,0.34326601098451204,1704.1026180312697,73.6000023552,0.7199994039200001,0.36205801158585604,1684,-26.7,98,P-GPS,
0.375911149948406,36.92545023651721,20200,2018-04-17 07:14:54,1704.60261804727,74.1000023712,0.0,0.34854301115337605,1704.60261804727,74.1000023712,0.7199994039200001,0.36205801158585604,1684,-26.7,98,P-GPS,
0.37591121897427904,36.9254502931208,20300,2018-04-17 07:14:54,1705.1026180632698,74.6000023872,0.0,0.35734301143497604,1705.1026180632698,74.6000023872,0.7199994039200001,0.36205801158585604,1684,-26.7,98,P-GPS,
0.375911285974979,36.925450345914506,20400,2018-04-17 07:14:54,1705.6026180792696,75.1000024032,0.0,0.365722011703104,1705.6026180792696,75.1000024032,0.7199994039200001,0.365722011703104,1684,-26.7,98,P-GPS,
0.375911340386789,36.9254504213064,20500,2018-04-17 07:14:54,1706.10261809527,75.60000241920001,0.0,0.37585401202732804,1706.10261809527,75.60000241920001,0.7199994039200001,0.37585401202732804,1684,-26.7,98,P-GPS,
0.375911355079629,36.925450482288,20600,2018-04-17 07:14:54,1706.6026181112697,76.10000243520001,0.0,0.38270501224656,1706.6026181112697,76.10000243520001,0.7199994039200001,0.38270501224656,1684,-26.7,98,P-GPS,
0.37591138019552794,36.925450576003705,20700,2018-04-17 07:14:55,1707.2026181304698,76.70000245439999,0.0,0.39335701258742395,1707.2026181304698,76.70000245439999,0.7199994039200001,0.39335701258742395,1634,-26.7,98,P-GPS,
0.375911402323435,36.925450657183106,20800,2018-04-17 07:14:55,1707.7026181464698,77.20000247040001,0.0,0.402607012883424,1707.7026181464698,77.20000247040001,0.7199994039200001,0.402607012883424,1571,-26.7,98,P-GPS,
0.375911400755244,36.9254507245786,20900,2018-04-17 07:14:55,1708.20261816247,77.70000248640001,0.0,0.40940501310096006,1708.20261816247,77.70000248640001,0.7199994039200001,0.40940501310096006,1419,-26.7,98,P-GPS,
0.37591134269388704,36.925450752835204,21000,2018-04-17 07:14:55,1708.6026181752698,78.1000024992,0.35999970196000003,0.409791013113312,1708.6026181752698,78.1000024992,0.7199994039200001,0.409791013113312,1354,-26.7,98,P-GPS,
0.37591127129903495,36.9254507841108,21100,2018-04-17 07:14:55,1709.1026181912696,78.6000025152,0.35999970196000003,0.410076013122432,1709.1026181912696,78.6000025152,0.7199994039200001,0.410076013122432,1061,-26.7,98,P-GPS,
0.37591114223304206,36.925450840668894,21300,2018-04-17 07:14:55,1709.7026182104698,79.20000253439999,0.35999970196000003,0.41105801315385604,1709.7026182104698,79.20000253439999,0.7199994039200001,0.41105801315385604,1104,-26.7,98,P-GPS,
0.37591109120045707,36.925450883944,21400,2018-04-17 07:14:55,1709.9026182168698,79.4000025408,0.0,0.413821013242272,1709.9026182168698,79.4000025408,0.7199994039200001,0.413821013242272,1110,-26.7,98,P-GPS,
0.375911056940234,36.9254509537419,21500,2018-04-17 07:14:55,1710.00261822007,79.500002544,0.0,0.420067013442144,1710.00261822007,79.500002544,0.7199994039200001,0.420067013442144,1110,-26.7,98,P-GPS,
0.375911016172546,36.925450999003,21600,2018-04-17 07:14:56,1710.1026182232697,79.60000254720002,0.0,0.42357401355436797,1710.1026182232697,79.60000254720002,0.7199994039200001,0.42357401355436797,1080,-26.7,98,P-GPS,
0.375911019920206,36.9254510759449,21700,2018-04-17 07:14:56,1710.2026182264697,79.70000255040001,0.0,0.43190401382092797,1710.2026182264697,79.70000255040001,0.7199994039200001,0.43190401382092797,1024,-26.7,98,P-GPS,
0.37591104745984005,36.9254511731128,21800,2018-04-17 07:14:56,1710.2026182264697,79.70000255040001,0.0,0.44313501418032003,1710.2026182264697,79.70000255040001,0.7199994039200001,0.44313501418032003,1024,-26.7,98,P-GPS,
0.375911093997716,36.9254513253045,21900,2018-04-17 07:14:56,1710.2026182264697,79.70000255040001,0.0,0.460831014746592,1710.2026182264697,79.70000255040001,0.7199994039200001,0.460831014746592,1024,-26.7,98,P-GPS,
0.375911120173732,36.925451475201605,22000,2018-04-17 07:14:56,1710.2026182264697,79.70000255040001,0.0,0.47765501528496,1710.2026182264697,79.70000255040001,0.7199994039200001,0.47765501528496,1024,-26.7,98,P-GPS,
0.375911142422959,36.9254516666418,22100,2018-04-17 07:14:56,1710.2026182264697,79.70000255040001,0.35999970196000003,0.498817015962144,1710.2026182264697,79.70000255040001,0.7199994039200001,0.498817015962144,1072,-26.7,98,P-GPS,
0.3759111476272629,36.9254518395694,22200,2018-04-17 07:14:56,1710.3026182296699,79.80000255360001,0.35999970196000003,0.5175190165606081,1710.3026182296699,79.80000255360001,0.7199994039200001,0.5175190165606081,1111,-26.7,98,P-GPS,
0.375911108369549,36.9254521362283,22400,2018-04-17 07:14:56,1710.3026182296699,79.80000255360001,0.0,0.548394017548608,1710.3026182296699,79.80000255360001,0.7199994039200001,0.548394017548608,1177,-26.7,98,P-GPS,
0.37591107446697297,36.9254522958196,22600,2018-04-17 07:14:57,1710.4026182328698,79.9000025568,0.0,0.564797018073504,1710.4026182328698,79.9000025568,0.7199994039200001,0.564797018073504,1200,-26.7,98,P-GPS,
0.37591107714841,36.925452271638996,22800,2018-04-17 07:14:57,1710.5026182360698,80.00000256,0.0,0.562244017991808,1710.5026182360698,80.00000256,0.7199994039200001,0.564797018073504,1226,-26.7,98,P-GPS,
0.37591111747723294,36.925452185636395,22900,2018-04-17 07:14:57,1710.6026182392698,80.1000025632,0.0,0.553972017727104,1710.6026182392698,80.1000025632,0.7199994039200001,0.564797018073504,1226,-26.7,98,P-GPS,
0.37591116561933,36.9254520388781,23000,2018-04-17 07:14:57,1710.6026182392698,80.1000025632,0.35999970196000003,0.5394560172625921,1710.6026182392698,80.1000025632,0.7199994039200001,0.564797018073504,1244,-26.7,98,P-GPS,
0.37591123757396006,36.9254519066396,23100,2018-04-17 07:14:57,1710.70261824247,80.20000256640002,0.35999970196000003,0.527374016875968,1710.70261824247,80.20000256640002,0.7199994039200001,0.564797018073504,1255,-26.7,98,P-GPS,
0.37591129857893196,36.9254517548419,23200,2018-04-17 07:14:57,1710.80261824567,80.30000256960001,0.35999970196000003,0.51311501641968,1710.80261824567,80.30000256960001,0.7199994039200001,0.564797018073504,1245,-26.7,98,P-GPS,
0.375911373292961,36.9254516209891,23300,2018-04-17 07:14:57,1710.9026182488697,80.4000025728,0.35999970196000003,0.501487016047584,1710.9026182488697,80.4000025728,0.7199994039200001,0.564797018073504,1098,-26.7,98,P-GPS,
0.37591154726533205,36.925451316616396,23500,2018-04-17 07:14:57,1711.1026182552698,80.6000025792,0.35999970196000003,0.476433015245856,1711.1026182552698,80.6000025792,0.7199994039200001,0.564797018073504,1024,-26.7,98,P-GPS,
0.37591165352456,36.9254511484106,23600,2018-04-17 07:14:58,1711.2026182584698,80.7000025824,0.35999970196000003,0.46387601484403196,1711.2026182584698,80.7000025824,0.7199994039200001,0.564797018073504,1024,-26.7,98,P-GPS,
0.375911786243356,36.9254510002187,23700,2018-04-17 07:14:58,1711.2026182584698,80.7000025824,0.7199994039200001,0.4553630145716161,1711.2026182584698,80.7000025824,0.7199994039200001,0.564797018073504,1024,-26.7,98,P-GPS,
0.37591188596906294,36.9254508171112,23800,2018-04-17 07:14:58,1711.2026182584698,80.7000025824,0.35999970196000003,0.44259901416316805,1711.2026182584698,80.7000025824,0.7199994039200001,0.564797018073504,1024,-26.7,98,P-GPS,
0.37591200581643497,36.9254507350316,23900,2018-04-17 07:14:58,1711.1026182552698,80.6000025792,0.35999970196000003,0.441447014126304,1711.2026182584698,80.7000025824,0.7199994039200001,0.564797018073504,1024,-26.7,98,P-GPS,
0.37591210282202897,36.9254506831249,24000,2018-04-17 07:14:58,1711.1026182552698,80.6000025792,0.35999970196000003,0.44230001415360004,1711.2026182584698,80.7000025824,0.7199994039200001,0.564797018073504,1024,-26.7,98,P-GPS,
0.37591220575495704,36.9254506954895,24100,2018-04-17 07:14:58,1711.1026182552698,80.6000025792,0.0,0.44976601439251196,1711.2026182584698,80.7000025824,0.7199994039200001,0.564797018073504,1024,-26.7,98,P-GPS,
0.37591228020436296,36.9254506790905,24200,2018-04-17 07:14:58,1711.1026182552698,80.6000025792,0.0,0.452962014494784,1711.2026182584698,80.7000025824,0.7199994039200001,0.564797018073504,1024,-26.7,98,P-GPS,
0.3759123989224079,36.925450728714104,24400,2018-04-17 07:14:58,1711.1026182552698,80.6000025792,0.0,0.465126014884032,1711.2026182584698,80.7000025824,0.7199994039200001,0.564797018073504,1024,-26.7,98,P-GPS,
0.37591244490864895,36.92545078339221,24500,2018-04-17 07:14:58,1711.1026182552698,80.6000025792,0.0,0.473052015137664,1711.2026182584698,80.7000025824,0.7199994039200001,0.564797018073504,1024,-26.7,98,P-GPS,
0.375912457369503,36.9254508090874,24600,2018-04-17 07:14:58,1711.1026182552698,80.6000025792,0.0,0.4761780152376961,1711.2026182584698,80.7000025824,0.7199994039200001,0.564797018073504,1024,-26.7,98,P-GPS,
0.37591245113337607,36.925450851044005,24700,2018-04-17 07:14:59,1711.1026182552698,80.6000025792,0.0,0.479556015345792,1711.2026182584698,80.7000025824,0.7199994039200001,0.564797018073504,1024,-26.7,98,P-GPS,
0.3759124309856571,36.925450861337794,24800,2018-04-17 07:14:59,1711.1026182552698,80.6000025792,0.0,0.479188015334016,1711.2026182584698,80.7000025824,0.7199994039200001,0.564797018073504,1024,-26.7,98,P-GPS,
0.3759124346207511,36.9254508843985,24900,2018-04-17 07:14:59,1711.1026182552698,80.6000025792,0.0,0.481516015408512,1711.2026182584698,80.7000025824,0.7199994039200001,0.564797018073504,1024,-26.7,98,P-GPS,
0.37591244897385606,36.9254508729557,25000,2018-04-17 07:14:59,1711.1026182552698,80.6000025792,0.0,0.481399015404768,1711.2026182584698,80.7000025824,0.7199994039200001,0.564797018073504,1024,-26.7,98,P-GPS,
0.37591247436190905,36.9254508761713,25100,2018-04-17 07:14:59,1711.1026182552698,80.6000025792,0.0,0.48333201546662397,1711.2026182584698,80.7000025824,0.7199994039200001,0.564797018073504,1024,-26.7,98,P-GPS,
0.37591249584434205,36.9254508569801,25200,2018-04-17 07:14:59,1711.1026182552698,80.6000025792,0.0,0.48300101545603197,1711.2026182584698,80.7000025824,0.7199994039200001,0.564797018073504,1024,-26.7,98,P-GPS,
0.37591252083403603,36.9254508700414,25300,2018-04-17 07:14:59,1711.1026182552698,80.6000025792,0.0,0.48581301554601597,1711.2026182584698,80.7000025824,0.7199994039200001,0.564797018073504,1024,-26.7,98,P-GPS,
0.37591253958638304,36.925450862557796,25400,2018-04-17 07:14:59,1711.1026182552698,80.6000025792,0.0,0.48637801556409604,1711.2026182584698,80.7000025824,0.7199994039200001,0.564797018073504,1024,-26.7,98,P-GPS,
0.375912548153627,36.925450894102894,25500,2018-04-17 07:14:59,1711.1026182552698,80.6000025792,0.0,0.489768015672576,1711.2026182584698,80.7000025824,0.7199994039200001,0.564797018073504,1024,-26.7,98,P-GPS,
0.37591251916121704,36.925450889059704,25600,2018-04-17 07:14:59,1711.1026182552698,80.6000025792,0.35999970196000003,0.487412015597184,1711.2026182584698,80.7000025824,0.7199994039200001,0.564797018073504,1024,-26.7,98,P-GPS,
0.375912477908253,36.9254509010469,25700,2018-04-17 07:15:00,1711.1026182552698,80.6000025792,0.35999970196000003,0.48581101554595196,1711.2026182584698,80.7000025824,0.7199994039200001,0.564797018073504,1024,-26.7,98,P-GPS,
0.37591242327802793,36.9254508644935,25800,2018-04-17 07:15:00,1711.1026182552698,80.6000025792,0.35999970196000003,0.47898001532736,1711.2026182584698,80.7000025824,0.7199994039200001,0.564797018073504,1024,-26.7,98,P-GPS,
0.375912372620392,36.925450871161296,25900,2018-04-17 07:15:00,1711.1026182552698,80.6000025792,0.35999970196000003,0.476364015243648,1711.2026182584698,80.7000025824,0.7199994039200001,0.564797018073504,1024,-26.7,98,P-GPS,
0.375912319126617,36.9254508746652,26000,2018-04-17 07:15:00,1711.0026182520696,80.500002576,0.0,0.473334015146688,1711.2026182584698,80.7000025824,0.7199994039200001,0.564797018073504,1024,-26.7,98,P-GPS,
0.37591227596104493,36.9254509420419,26100,2018-04-17 07:15:00,1711.0026182520696,80.500002576,0.0,0.47693401526188806,1711.2026182584698,80.7000025824,0.7199994039200001,0.564797018073504,1024,-26.7,98,P-GPS,
0.375912225373839,36.925450986444105,26200,2018-04-17 07:15:00,1711.0026182520696,80.500002576,0.35999970196000003,0.47806801529817605,1711.2026182584698,80.7000025824,0.7199994039200001,0.564797018073504,1024,-26.7,98,P-GPS,
0.37591214670004597,36.9254510796346,26300,2018-04-17 07:15:00,1711.0026182520696,80.500002576,0.35999970196000003,0.482368015435776,1711.2026182584698,80.7000025824,0.7199994039200001,0.564797018073504,1024,-26.7,98,P-GPS,
0.37591182033015,36.9254512701051,26600,2018-04-17 07:15:01,1710.9026182488697,80.4000025728,0.0,0.483967015486944,1711.2026182584698,80.7000025824,0.7199994039200001,0.564797018073504,1024,-26.7,98,P-GPS,
0.375911735914666,36.925451303045705,26700,2018-04-17 07:15:01,1710.9026182488697,80.4000025728,0.0,0.48331901546620804,1711.2026182584698,80.7000025824,0.7199994039200001,0.564797018073504,1024,-26.7,98,P-GPS,
0.375911667700165,36.925451294583794,26800,2018-04-17 07:15:01,1710.9026182488697,80.4000025728,0.0,0.479372015339904,1711.2026182584698,80.7000025824,0.7199994039200001,0.564797018073504,1024,-26.7,98,P-GPS,
0.375911612550466,36.9254513130181,26900,2018-04-17 07:15:01,1710.9026182488697,80.4000025728,0.0,0.47883601532275205,1711.2026182584698,80.7000025824,0.7199994039200001,0.564797018073504,1024,-26.7,98,P-GPS,
0.375911561979342,36.925451297391795,27000,2018-04-17 07:15:01,1710.9026182488697,80.4000025728,0.0,0.475071015202272,1711.2026182584698,80.7000025824,0.7199994039200001,0.564797018073504,1024,-26.7,98,P-GPS,
0.37591149925880296,36.925451313836,27100,2018-04-17 07:15:01,1710.9026182488697,80.4000025728,0.0,0.47416901517340804,1711.2026182584698,80.7000025824,0.7199994039200001,0.564797018073504,1024,-26.7,98,P-GPS,
0.37591141499456204,36.9254513150025,27200,2018-04-17 07:15:01,1710.80261824567,80.30000256960001,0.0,0.47094401507020806,1711.2026182584698,80.7000025824,0.7199994039200001,0.564797018073504,1024,-26.7,98,P-GPS,
0.37591126631151794,36.9254513512741,27400,2018-04-17 07:15:01,1710.80261824567,80.30000256960001,0.0,0.469271015016672,1711.2026182584698,80.7000025824,0.7199994039200001,0.564797018073504,1024,-26.7,98,P-GPS,
0.375911134560832,36.925451411786796,27600,2018-04-17 07:15:01,1710.80261824567,80.30000256960001,0.0,0.47132701508246405,1711.2026182584698,80.7000025824,0.7199994039200001,0.564797018073504,1024,-26.7,98,P-GPS,
0.375911026972183,36.92545143608589,27800,2018-04-17 07:15:02,1710.9026182488697,80.4000025728,0.0,0.4707070150626239,1711.2026182584698,80.7000025824,0.7199994039200001,0.564797018073504,1024,-26.7,98,P-GPS,
0.37591100621410206,36.9254514595553,27900,2018-04-17 07:15:02,1711.0026182520696,80.500002576,0.0,0.47264501512464,1711.2026182584698,80.7000025824,0.7199994039200001,0.564797018073504,1024,-26.7,98,P-GPS,
0.375911020533519,36.925451461524204,28000,2018-04-17 07:15:02,1711.0026182520696,80.500002576,0.0,0.47325901514428803,1711.2026182584698,80.7000025824,0.7199994039200001,0.564797018073504,1024,-26.7,98,P-GPS,
0.375911060132188,36.925451519231295,28100,2018-04-17 07:15:02,1711.0026182520696,80.500002576,0.0,0.480591015378912,1711.2026182584698,80.7000025824,0.7199994039200001,0.564797018073504,1024,-26.7,98,P-GPS,
0.375911113171016,36.9254515534601,28200,2018-04-17 07:15:02,1711.0026182520696,80.500002576,0.0,0.48581901554620804,1711.2026182584698,80.7000025824,0.7199994039200001,0.564797018073504,1024,-26.7,98,P-GPS,
0.375911177310336,36.9254515992817,28300,2018-04-17 07:15:02,1711.0026182520696,80.500002576,0.0,0.49267301576553607,1711.2026182584698,80.7000025824,0.7199994039200001,0.564797018073504,1024,-26.7,98,P-GPS,
0.375911245247391,36.9254515927681,28400,2018-04-17 07:15:02,1711.0026182520696,80.500002576,0.35999970196000003,0.4941440158126081,1711.2026182584698,80.7000025824,0.7199994039200001,0.564797018073504,1024,-26.7,98,P-GPS,
0.3759113231572411,36.9254515817281,28500,2018-04-17 07:15:02,1711.1026182552698,80.6000025792,0.35999970196000003,0.495591015858912,1711.2026182584698,80.7000025824,0.7199994039200001,0.564797018073504,1024,-26.7,98,P-GPS,
0.375911414939602,36.9254515037862,28600,2018-04-17 07:15:03,1711.1026182552698,80.6000025792,0.503999582744,0.49067601570163205,1711.2026182584698,80.7000025824,0.7199994039200001,0.564797018073504,1024,-26.7,98,P-GPS,
0.375911526303187,36.925451394724,28700,2018-04-17 07:15:03,1711.1026182552698,80.6000025792,0.7919993443119999,0.483641015476512,1711.2026182584698,80.7000025824,0.7919993443119999,0.564797018073504,1024,-26.7,98,P-GPS,
0.3759116669714361,36.9254512202997,28800,2018-04-17 07:15:03,1711.1026182552698,80.6000025792,0.7919993443119999,0.47178301509705606,1711.2026182584698,80.7000025824,0.7919993443119999,0.564797018073504,1024,-26.7,98,P-GPS,
0.37591185463373,36.9254510491866,28900,2018-04-17 07:15:03,1711.1026182552698,80.6000025792,1.2959989270560002,0.46367301483753603,1711.2026182584698,80.7000025824,1.2959989270560002,0.564797018073504,1024,-26.7,98,P-GPS,
0.3759120810130929,36.925450833700204,29000,2018-04-17 07:15:03,1711.2026182584698,80.7000025824,1.2959989270560002,0.45517001456544004,1711.2026182584698,80.7000025824,1.2959989270560002,0.564797018073504,1024,-26.7,98,P-GPS,
0.37591234388018696,36.9254506231397,29100,2018-04-17 07:15:03,1711.2026182584698,80.7000025824,1.2959989270560002,0.45203501446512007,1711.2026182584698,80.7000025824,1.2959989270560002,0.564797018073504,1024,-26.7,98,P-GPS,
0.37591262708837897,36.9254503682461,29200,2018-04-17 07:15:03,1711.2026182584698,80.7000025824,1.511998748232,0.4497830143930561,1711.2026182584698,80.7000025824,1.511998748232,0.564797018073504,1024,-26.7,98,P-GPS,
0.375912943645475,36.925450123482705,29300,2018-04-17 07:15:03,1711.2026182584698,80.7000025824,1.7999985098000002,0.45499801455993605,1711.2026182584698,80.7000025824,1.7999985098000002,0.564797018073504,1024,-26.7,98,P-GPS,
0.3759132803165,36.925449830948104,29400,2018-04-17 07:15:03,1711.3026182616697,80.80000258560001,1.7999985098000002,0.463026014816832,1711.3026182616697,80.80000258560001,1.7999985098000002,0.564797018073504,1024,-26.7,98,P-GPS,
0.37591365228282797,36.925449531792296,29500,2018-04-17 07:15:03,1711.3026182616697,80.80000258560001,1.7999985098000002,0.47911301533161604,1711.3026182616697,80.80000258560001,1.7999985098000002,0.564797018073504,1024,-26.7,98,P-GPS,
0.37591403770824605,36.9254491734422,29600,2018-04-17 07:15:03,1711.3026182616697,80.80000258560001,2.051998301172,0.49898301596745603,1711.3026182616697,80.80000258560001,2.051998301172,0.564797018073504,1024,-26.7,98,P-GPS,
0.375914449223779,36.9254488223806,29700,2018-04-17 07:15:04,1711.3026182616697,80.80000258560001,2.051998301172,0.52767001688544,1711.3026182616697,80.80000258560001,2.051998301172,0.564797018073504,1024,-26.7,98,P-GPS,
0.375914864513231,36.9254484353831,29800,2018-04-17 07:15:04,1711.3026182616697,80.80000258560001,2.303998092544,0.56089001794848,1711.3026182616697,80.80000258560001,2.303998092544,0.564797018073504,1024,-26.7,98,P-GPS,
0.3759153123935471,36.9254480544399,29900,2018-04-17 07:15:04,1711.3026182616697,80.80000258560001,2.303998092544,0.602622019283904,1711.3026182616697,80.80000258560001,2.303998092544,0.602622019283904,1024,-26.7,98,P-GPS,
0.375915768171817,36.925447627950504,30000,2018-04-17 07:15:04,1711.3026182616697,80.80000258560001,2.303998092544,0.6488860207643521,1711.3026182616697,80.80000258560001,2.303998092544,0.6488860207643521,1024,-26.7,98,P-GPS,
0.37591625522679606,36.9254471944688,30100,2018-04-17 07:15:04,1711.3026182616697,80.80000258560001,2.5919978541120003,0.7024880224796162,1711.3026182616697,80.80000258560001,2.5919978541120003,0.7024880224796162,1024,-26.7,98,P-GPS,
0.375916744159778,36.9254467027366,30200,2018-04-17 07:15:04,1711.3026182616697,80.80000258560001,2.8079976752879996,0.7600250243208,1711.3026182616697,80.80000258560001,2.8079976752879996,0.7600250243208,1024,-26.7,98,P-GPS,
0.375917278203101,36.925446171463705,30300,2018-04-17 07:15:04,1711.3026182616697,80.80000258560001,2.8079976752879996,0.8264210264454721,1711.3026182616697,80.80000258560001,2.8079976752879996,0.8264210264454721,1024,-26.7,98,P-GPS,
0.375917811412661,36.925445567046204,30400,2018-04-17 07:15:04,1711.3026182616697,80.80000258560001,3.0959974368559995,0.897401028716832,1711.3026182616697,80.80000258560001,3.0959974368559995,0.897401028716832,1024,-26.7,98,P-GPS,
0.37591838138760203,36.9254449031856,30500,2018-04-17 07:15:04,1711.3026182616697,80.80000258560001,3.0959974368559995,0.9772200312710402,1711.3026182616697,80.80000258560001,3.0959974368559995,0.9772200312710402,1024,-26.7,98,P-GPS,
0.37591893821855604,36.9254441691224,30600,2018-04-17 07:15:05,1711.3026182616697,80.80000258560001,3.383997198424,1.0611500339568,1711.3026182616697,80.80000258560001,3.383997198424,1.0611500339568,1024,-26.7,98,P-GPS,
