latitude,longitude,time_millisecond,datetime_utc,altitude_m,ascent_m,speed_kph,distance_m,max_altitude_m,max_ascent_m,max_speed_kph,max_distance_m,rc_throttle,gimbal_pitch_degrees,battery_percent,flycState,message
0.307992690791099,36.8793975366782,100,2017-11-14 13:55:31,1768.3284256864945,0.0,0.0,0.0,1768.3284256864945,0.0,0.0,0.0,1024,0.0,100,Motors_Started,
0.307992714877821,36.879397531569,200,2017-11-14 13:55:31,1768.3284256864945,0.0,0.0,0.00273819008762208,1768.3284256864945,0.0,0.0,0.00273819008762208,1024,0.0,100,Motors_Started,
0.307992731847836,36.8793975139016,300,2017-11-14 13:55:31,1768.3284256864945,0.0,0.0,0.00522126016708032,1768.3284256864945,0.0,0.0,0.00522126016708032,1024,0.0,100,Motors_Started,
0.307992740177938,36.8793974969125,400,2017-11-14 13:55:31,1768.3284256864945,0.0,0.0,0.00705114022563648,1768.3284256864945,0.0,0.0,0.00705114022563648,1024,0.0,100,Motors_Started,
0.307992747289353,36.8793974872777,500,2017-11-14 13:55:31,1768.3284256864945,0.0,0.0,0.00834594026707008,1768.3284256864945,0.0,0.0,0.00834594026707008,1024,0.0,100,Motors_Started,
0.307992769606771,36.8793975037711,600,2017-11-14 13:55:31,1768.3284256864945,0.0,0.0,0.00949804030393728,1768.3284256864945,0.0,0.0,0.00949804030393728,1024,0.0,100,Motors_Started,Setting new Return-To-Home altitude to 30m (98 ft). Setting new Maximum Flight Altitude to 150m (492 ft)
0.307992800279328,36.8793975289962,700,2017-11-14 13:55:31,1768.3284256864945,0.0,0.0,0.012205700390582401,1768.3284256864945,0.0,0.0,0.012205700390582401,1024,0.0,100,Motors_Started,
0.307992823838434,36.8793975579648,800,2017-11-14 13:55:31,1768.3284256864945,0.0,0.0,0.014983800479481602,1768.3284256864945,0.0,0.0,0.014983800479481602,465,0.0,100,Motors_Started,
0.307992840428207,36.8793975770748,900,2017-11-14 13:55:31,1768.3284256864945,0.0,0.0,0.0172363005515616,1768.3284256864945,0.0,0.0,0.0172363005515616,1024,0.0,100,Motors_Started,
0.307992847499929,36.8793975978719,1000,2017-11-14 13:55:32,1768.3284256864945,0.0,0.0,0.018708500598672,1768.3284256864945,0.0,0.0,0.018708500598672,1024,0.0,100,Motors_Started,
0.307992851722281,36.879397606994,1100,2017-11-14 13:55:32,1768.3284256864945,0.0,0.0,0.019530200624966403,1768.3284256864945,0.0,0.0,0.019530200624966403,1024,0.0,100,Motors_Started,
0.307992869490844,36.8793976160452,1200,2017-11-14 13:55:32,1768.3284256864945,0.0,0.0,0.021744300695817603,1768.3284256864945,0.0,0.0,0.021744300695817603,1024,0.0,100,Motors_Started,
0.307992897815999,36.8793976222739,1300,2017-11-14 13:55:32,1768.3284256864945,0.0,0.0,0.0249126007972032,1768.3284256864945,0.0,0.0,0.0249126007972032,1024,0.0,100,Motors_Started,
0.307992919996627,36.8793976247877,1400,2017-11-14 13:55:32,1768.3284256864945,0.0,0.0,0.0273074008738368,1768.3284256864945,0.0,0.0,0.0273074008738368,1024,0.0,100,Motors_Started,
0.307992933755758,36.8793976278572,1500,2017-11-14 13:55:32,1768.3284256864945,0.0,0.0,0.028859000923488,1768.3284256864945,0.0,0.0,0.028859000923488,1024,0.0,100,Assisted_Takeoff,
0.30799294477727,36.8793976319464,1600,2017-11-14 13:55:32,1768.3284256864945,0.0,0.0,0.0301663009653216,1768.3284256864945,0.0,0.0,0.0301663009653216,1024,0.0,100,Assisted_Takeoff,
0.307992950713152,36.8793976351228,1700,2017-11-14 13:55:32,1768.3284256864945,0.0,0.0,0.0309086009890752,1768.3284256864945,0.0,0.0,0.0309086009890752,1024,0.0,100,Assisted_Takeoff,
0.307992946006542,36.8793976323202,1800,2017-11-14 13:55:32,1768.3284256864945,0.0,0.0,0.030308900969884804,1768.3284256864945,0.0,0.0,0.0309086009890752,1034,0.0,100,Assisted_Takeoff,
0.307992946424034,36.8793976346523,1900,2017-11-14 13:55:32,1768.3284256864945,0.0,0.0,0.0304442009742144,1768.3284256864945,0.0,0.0,0.0309086009890752,1046,0.0,100,Assisted_Takeoff,
0.307992955698226,36.8793976286894,2000,2017-11-14 13:55:33,1768.3284256864945,0.0,0.0,0.0311856009979392,1768.3284256864945,0.0,0.0,0.0311856009979392,1075,0.0,100,Assisted_Takeoff,
0.307992982296416,36.8793976287567,2100,2017-11-14 13:55:33,1768.3284256864945,0.0,0.0,0.033995901087868804,1768.3284256864945,0.0,0.0,0.033995901087868804,1147,0.0,100,Assisted_Takeoff,
0.307993005001608,36.8793976257913,2200,2017-11-14 13:55:33,1768.3284256864945,0.0,0.0,0.0363202011622464,1768.3284256864945,0.0,0.0,0.0363202011622464,1200,0.0,100,Assisted_Takeoff,
0.307993016340056,36.8793976226565,2300,2017-11-14 13:55:33,1768.3284256864945,0.0,0.0,0.0374443011982176,1768.3284256864945,0.0,0.0,0.0374443011982176,1260,0.0,100,Assisted_Takeoff,
0.307993022310949,36.8793976179881,2400,2017-11-14 13:55:33,1768.3284256864945,0.0,0.0,0.0379597012147104,1768.3284256864945,0.0,0.0,0.0379597012147104,1357,0.0,100,Assisted_Takeoff,
0.307993023459206,36.8793976135193,2500,2017-11-14 13:55:33,1768.3284256864945,0.0,0.0,0.0379688012150016,1768.3284256864945,0.0,0.0,0.0379688012150016,1390,0.0,100,Assisted_Takeoff,
0.307993041180137,36.8793976076408,2600,2017-11-14 13:55:33,1768.3284256864945,0.0,0.0,0.039756501272208,1768.3284256864945,0.0,0.0,0.039756501272208,1421,0.0,100,Assisted_Takeoff,
0.307993054474754,36.8793975948382,2700,2017-11-14 13:55:33,1768.3284256864945,0.0,0.0,0.040957701310646404,1768.3284256864945,0.0,0.0,0.040957701310646404,1474,0.0,100,Assisted_Takeoff,
0.307993035302676,36.8793975504437,2800,2017-11-14 13:55:33,1768.3284256864945,0.0,0.35999970196000003,0.038342401226956806,1768.3284256864945,0.0,0.35999970196000003,0.040957701310646404,1495,0.0,100,Assisted_Takeoff,
0.307992883966897,36.879397447272,2900,2017-11-14 13:55:33,1768.3284256864945,0.0,1.1375990581936,0.023671500757488,1768.3284256864945,0.0,1.1375990581936,0.040957701310646404,1516,0.0,100,GPS_Atti,
0.307992587994351,36.8793972734621,3000,2017-11-14 13:55:34,1768.3284256864945,0.0,1.2995989240756,0.0314239010055648,1768.3284256864945,0.0,1.2995989240756,0.040957701310646404,1559,0.0,100,GPS_Atti,
0.3079922284101,36.8793970435559,3100,2017-11-14 13:55:34,1768.4284256896944,0.1000000032,1.2995989240756,0.0751739024055648,1768.4284256896944,0.1000000032,1.2995989240756,0.0751739024055648,1591,0.0,100,GPS_Atti,
0.307991852148955,36.879396730077,3200,2017-11-14 13:55:34,1768.5284256928944,0.2000000064,1.5263987363104,0.12939700414070401,1768.5284256928944,0.2000000064,1.5263987363104,0.12939700414070401,1597,0.0,100,GPS_Atti,
0.307991484202135,36.8793963644619,3300,2017-11-14 13:55:34,1768.7284256992946,0.4000000128,1.5263987363104,0.1870750059864,1768.7284256992946,0.4000000128,1.5263987363104,0.1870750059864,1594,0.0,100,GPS_Atti,
0.307991101800942,36.8793959705174,3400,2017-11-14 13:55:34,1768.9284257056945,0.6000000192,1.5263987363104,0.248109007939488,1768.9284257056945,0.6000000192,1.5263987363104,0.248109007939488,1604,0.0,100,GPS_Atti,
0.307990706964772,36.8793956181752,3500,2017-11-14 13:55:34,1769.1284257120944,0.8000000256,1.6091986677612,0.306899009820768,1769.1284257120944,0.8000000256,1.6091986677612,0.306899009820768,1660,0.0,100,GPS_Atti,
0.307990337709224,36.8793952415662,3600,2017-11-14 13:55:34,1769.4284257216946,1.1000000352000001,1.5263987363104,0.36553501169712005,1769.4284257216946,1.1000000352000001,1.6091986677612,0.36553501169712005,1684,0.0,100,GPS_Atti,
0.307990002007421,36.8793948424294,3700,2017-11-14 13:55:34,1769.8284257344947,1.5000000480000002,1.5263987363104,0.42329001354528,1769.8284257344947,1.5000000480000002,1.6091986677612,0.42329001354528,1684,0.0,100,GPS_Atti,
0.307989699555653,36.8793944734493,3800,2017-11-14 13:55:34,1770.1284257440943,1.8000000576000001,1.2995989240756,0.47612001523584,1770.1284257440943,1.8000000576000001,1.6091986677612,0.47612001523584,1684,0.0,100,GPS_Atti,
0.307989414202495,36.8793941835475,3900,2017-11-14 13:55:34,1770.6284257600946,2.3000000736,1.2995989240756,0.521356016683392,1770.6284257600946,2.3000000736,1.6091986677612,0.521356016683392,1684,0.0,100,GPS_Atti,
0.307989122723131,36.8793939298774,4000,2017-11-14 13:55:35,1771.0284257728945,2.7000000864,1.2995989240756,0.564197018054304,1771.0284257728945,2.7000000864,1.6091986677612,0.564197018054304,1684,0.0,100,GPS_Atti,
0.307988844281701,36.8793936926849,4100,2017-11-14 13:55:35,1771.5284257888945,3.2000001024,1.0187991565468,0.60473501935152,1771.5284257888945,3.2000001024,1.6091986677612,0.60473501935152,1684,0.0,100,GPS_Atti,
0.307988554431799,36.8793934736083,4200,2017-11-14 13:55:35,1772.0284258048944,3.7000001184,1.0187991565468,0.6447800206329599,1772.0284258048944,3.7000001184,1.6091986677612,0.6447800206329599,1684,0.0,100,GPS_Atti,
0.307988290588453,36.8793932772427,4300,2017-11-14 13:55:35,1772.5284258208947,4.200000134400001,0.8063993323904,0.6810320217930241,1772.5284258208947,4.200000134400001,1.6091986677612,0.6810320217930241,1684,0.0,100,GPS_Atti,
0.307988042318323,36.8793930749894,4400,2017-11-14 13:55:35,1773.0284258368945,4.7000001504,0.8063993323904,0.7165190229286081,1773.0284258368945,4.7000001504,1.6091986677612,0.7165190229286081,1684,0.0,100,GPS_Atti,
0.307987839645237,36.8793928555354,4500,2017-11-14 13:55:35,1773.5284258528943,5.200000166400001,0.8063993323904,0.749682023989824,1773.5284258528943,5.200000166400001,1.6091986677612,0.749682023989824,1684,-0.1,100,GPS_Atti,
0.307987658933346,36.8793925980412,4600,2017-11-14 13:55:35,1774.1284258720946,5.8000001856,1.0187991565468,0.784054025089728,1774.1284258720946,5.8000001856,1.6091986677612,0.784054025089728,1684,-0.6,100,GPS_Atti,
0.307987497366664,36.8793923126774,4700,2017-11-14 13:55:35,1774.6284258880944,6.3000002016,1.0187991565468,0.819167026213344,1774.6284258880944,6.3000002016,1.6091986677612,0.819167026213344,1684,-1.6,100,GPS_Atti,Home Point Recorded. RTH Altitude:  30m.
0.307987326941654,36.8793919477773,4800,2017-11-14 13:55:35,1775.1284259040945,6.800000217600001,1.0187991565468,0.8614400275660801,1775.1284259040945,6.800000217600001,1.6091986677612,0.8614400275660801,1684,-2.8,100,GPS_Atti,
0.307987162471864,36.8793915604825,4900,2017-11-14 13:55:35,1775.6284259200945,7.3000002336000005,1.0187991565468,0.905331028970592,1775.6284259200945,7.3000002336000005,1.6091986677612,0.905331028970592,1684,-4.0,100,GPS_Atti,
0.307987033815221,36.879391167459,5000,2017-11-14 13:55:36,1776.1284259360946,7.8000002496,1.2995989240756,0.9473240303143681,1776.1284259360946,7.8000002496,1.6091986677612,0.9473240303143681,1684,-5.2,100,GPS_Atti,
0.307986932751544,36.8793907985361,5100,2017-11-14 13:55:36,1776.6284259520944,8.300000265600001,1.0187991565468,0.9856420315405441,1776.6284259520944,8.300000265600001,1.6091986677612,0.9856420315405441,1684,-5.9,100,GPS_Atti,
0.307986827664389,36.879390450303,5200,2017-11-14 13:55:36,1777.1284259680947,8.800000281600001,1.0187991565468,1.0228000327296,1777.1284259680947,8.800000281600001,1.6091986677612,1.0228000327296,1684,-5.9,100,GPS_Atti,
0.307986723211513,36.8793901353084,5300,2017-11-14 13:55:36,1777.6284259840945,9.3000002976,1.0187991565468,1.05728003383296,1777.6284259840945,9.3000002976,1.6091986677612,1.05728003383296,1684,-5.9,100,GPS_Atti,
0.307986650315846,36.8793898450284,5400,2017-11-14 13:55:36,1778.1284260000944,9.8000003136,0.8063993323904,1.08759003480288,1778.1284260000944,9.8000003136,1.6091986677612,1.08759003480288,1684,-5.9,100,GPS_Atti,
0.307986591767177,36.8793895584972,5500,2017-11-14 13:55:36,1778.6284260160946,10.3000003296,0.8063993323904,1.11676003573632,1778.6284260160946,10.3000003296,1.6091986677612,1.11676003573632,1684,-5.9,100,GPS_Atti,
0.307986538494667,36.8793892599078,5600,2017-11-14 13:55:36,1779.0284260288945,10.700000342400001,0.8063993323904,1.1468500366992,1779.0284260288945,10.700000342400001,1.6091986677612,1.1468500366992,1684,-5.9,100,GPS_Atti,
0.307986479632931,36.8793889542081,5700,2017-11-14 13:55:36,1779.6284260480945,11.3000003616,0.8063993323904,1.1781300377001602,1779.6284260480945,11.3000003616,1.6091986677612,1.1781300377001602,1684,-5.9,100,GPS_Atti,
0.307986446713528,36.8793886677545,5800,2017-11-14 13:55:36,1780.0284260608944,11.7000003744,0.8063993323904,1.2061800385977601,1780.0284260608944,11.7000003744,1.6091986677612,1.2061800385977601,1684,-5.9,100,GPS_Atti,
0.307986417732517,36.8793884299709,5900,2017-11-14 13:55:36,1780.5284260768947,12.200000390400001,0.5075995797636,1.22973003935136,1780.5284260768947,12.200000390400001,1.6091986677612,1.22973003935136,1684,-5.9,100,GPS_Atti,
0.307986383001878,36.8793882334533,6000,2017-11-14 13:55:37,1781.0284260928945,12.700000406400001,0.5075995797636,1.2499500399984,1781.0284260928945,12.700000406400001,1.6091986677612,1.2499500399984,1684,-6.1,100,GPS_Atti,
0.30798633533203,36.8793880191017,6100,2017-11-14 13:55:37,1781.5284261088943,13.2000004224,0.8063993323904,1.2726800407257601,1781.5284261088943,13.2000004224,1.6091986677612,1.2726800407257601,1684,-6.3,100,GPS_Atti,
0.30798626354574,36.8793877843148,6200,2017-11-14 13:55:37,1782.0284261248944,13.7000004384,0.8063993323904,1.2988500415631998,1782.0284261248944,13.7000004384,1.6091986677612,1.2988500415631998,1684,-6.4,100,GPS_Atti,
0.307986165056633,36.8793875405862,6300,2017-11-14 13:55:37,1782.5284261408945,14.2000004544,0.8063993323904,1.3275200424806402,1782.5284261408945,14.2000004544,1.6091986677612,1.3275200424806402,1684,-6.4,100,GPS_Atti,
0.307986050420689,36.8793873013285,6400,2017-11-14 13:55:37,1783.0284261568945,14.7000004704,0.8063993323904,1.3567800434169601,1783.0284261568945,14.7000004704,1.6091986677612,1.3567800434169601,1684,-6.4,100,GPS_Atti,
0.307985932597067,36.879387078181,6500,2017-11-14 13:55:37,1783.5284261728943,15.200000486400002,0.5075995797636,1.38473004431136,1783.5284261728943,15.200000486400002,1.6091986677612,1.38473004431136,1684,-6.6,100,GPS_Atti,
0.307985804596483,36.8793868753769,6600,2017-11-14 13:55:37,1784.0284261888946,15.700000502400002,0.5075995797636,1.4114000451648,1784.0284261888946,15.700000502400002,1.6091986677612,1.4114000451648,1684,-6.6,100,GPS_Atti,
0.307985686782631,36.8793867005141,6700,2017-11-14 13:55:37,1784.5284262048945,16.2000005184,0.5075995797636,1.43484004591488,1784.5284262048945,16.2000005184,1.6091986677612,1.43484004591488,1684,-6.6,100,GPS_Atti,
0.30798557307083,36.8793865514675,6800,2017-11-14 13:55:37,1785.1284262240947,16.800000537600003,0.5075995797636,1.45562004657984,1785.1284262240947,16.800000537600003,1.6091986677612,1.45562004657984,1684,-6.6,100,GPS_Atti,
0.307985484380477,36.8793864039487,6900,2017-11-14 13:55:37,1785.6284262400945,17.3000005536,0.35999970196000003,1.4747600471923201,1785.6284262400945,17.3000005536,1.6091986677612,1.4747600471923201,1684,-6.6,100,GPS_Atti,
0.307985395635165,36.8793862256782,7000,2017-11-14 13:55:38,1786.1284262560944,17.8000005696,0.35999970196000003,1.49676004789632,1786.1284262560944,17.8000005696,1.6091986677612,1.49676004789632,1684,-6.6,100,GPS_Atti,
0.307985336469723,36.8793860545239,7100,2017-11-14 13:55:38,1786.6284262720944,18.3000005856,0.35999970196000003,1.51633004852256,1786.6284262720944,18.3000005856,1.6091986677612,1.51633004852256,1684,-6.6,100,GPS_Atti,
0.307985292306729,36.8793859293729,7200,2017-11-14 13:55:38,1787.1284262880945,18.8000006016,0.35999970196000003,1.5307000489824,1787.1284262880945,18.8000006016,1.6091986677612,1.5307000489824,1684,-6.6,100,GPS_Atti,
0.307985267858899,36.8793858476783,7300,2017-11-14 13:55:38,1787.6284263040945,19.300000617600002,0.0,1.53983004927456,1787.6284263040945,19.300000617600002,1.6091986677612,1.53983004927456,1684,-6.6,100,GPS_Atti,
0.307985231774209,36.8793857879543,7400,2017-11-14 13:55:38,1788.2284263232946,19.900000636799998,0.0,1.5475900495228803,1788.2284263232946,19.900000636799998,1.6091986677612,1.5475900495228803,1684,-6.6,100,GPS_Atti,
0.307985190950339,36.8793857360478,7500,2017-11-14 13:55:38,1788.7284263392944,20.4000006528,0.0,1.5548900497564802,1788.7284263392944,20.4000006528,1.6091986677612,1.5548900497564802,1684,-6.6,100,GPS_Atti,
0.307985113847994,36.8793856993105,7600,2017-11-14 13:55:38,1789.2284263552945,20.900000668800004,0.0,1.5629500500144,1789.2284263552945,20.900000668800004,1.6091986677612,1.5629500500144,1684,-6.7,100,GPS_Atti,
0.307984951148526,36.8793856336148,7800,2017-11-14 13:55:38,1790.3284263904945,22.000000703999998,0.0,1.5789000505248,1790.3284263904945,22.000000703999998,1.6091986677612,1.5789000505248,1684,-6.7,100,GPS_Atti,
0.30798489717375,36.8793855686963,7900,2017-11-14 13:55:38,1790.9284264096946,22.6000007232,0.0,1.5882200508230402,1790.9284264096946,22.6000007232,1.6091986677612,1.5882200508230402,1684,-7.2,100,GPS_Atti,
0.307984833757662,36.8793854811177,8000,2017-11-14 13:55:39,1791.4284264256944,23.1000007392,0.0,1.60023005120736,1791.4284264256944,23.1000007392,1.6091986677612,1.60023005120736,1684,-7.3,100,GPS_Atti,
0.307984768628044,36.8793853997378,8100,2017-11-14 13:55:39,1792.0284264448946,23.7000007584,0.0,1.6117700515766402,1792.0284264448946,23.7000007584,1.6091986677612,1.6117700515766402,1684,-7.3,100,GPS_Atti,
0.307984684095517,36.8793853466975,8200,2017-11-14 13:55:39,1792.5284264608945,24.2000007744,0.0,1.6218500518992003,1792.5284264608945,24.2000007744,1.6091986677612,1.6218500518992003,1684,-7.3,100,GPS_Atti,
0.307984592501648,36.8793852981773,8300,2017-11-14 13:55:39,1793.1284264800943,24.800000793600002,0.0,1.63196005222272,1793.1284264800943,24.800000793600002,1.6091986677612,1.63196005222272,1684,-7.3,100,GPS_Atti,
0.307984514494703,36.8793852733792,8400,2017-11-14 13:55:39,1793.6284264960946,25.3000008096,0.0,1.6390600524499201,1793.6284264960946,25.3000008096,1.6091986677612,1.6390600524499201,1684,-7.3,100,GPS_Atti,
0.307984445545163,36.8793852736811,8500,2017-11-14 13:55:39,1794.1284265120944,25.8000008256,0.0,1.6433000525856,1794.1284265120944,25.8000008256,1.6091986677612,1.6433000525856,1684,-7.3,100,GPS_Atti,
0.307984373383517,36.8793853081252,8600,2017-11-14 13:55:39,1794.7284265312946,26.4000008448,0.0,1.64462005262784,1794.7284265312946,26.4000008448,1.6091986677612,1.64462005262784,1684,-7.3,100,GPS_Atti,
0.307984307089969,36.8793853436346,8700,2017-11-14 13:55:39,1795.2284265472945,26.900000860800002,0.0,1.64552005265664,1795.2284265472945,26.900000860800002,1.6091986677612,1.64552005265664,1684,-7.4,100,GPS_Atti,
0.307984262771458,36.8793854108762,8800,2017-11-14 13:55:39,1795.7284265632943,27.4000008768,0.0,1.6421700525494403,1795.7284265632943,27.4000008768,1.6091986677612,1.64552005265664,1684,-7.4,100,GPS_Atti,
0.307984227894259,36.8793854846067,8900,2017-11-14 13:55:39,1796.3284265824946,28.000000896,0.0,1.6376700524054402,1796.3284265824946,28.000000896,1.6091986677612,1.64552005265664,1684,-7.4,100,GPS_Atti,
0.307984206146796,36.879385574106,9000,2017-11-14 13:55:40,1796.8284265984944,28.500000912,0.0,1.6309400521900799,1796.8284265984944,28.500000912,1.6091986677612,1.64552005265664,1684,-7.5,100,GPS_Atti,
0.307984199109068,36.8793856502485,9100,2017-11-14 13:55:40,1797.3284266144944,29.000000928000002,0.0,1.6244900519836802,1797.3284266144944,29.000000928000002,1.6091986677612,1.64552005265664,1684,-7.5,100,GPS_Atti,
0.307984169077304,36.8793857388966,9200,2017-11-14 13:55:40,1797.8284266304945,29.500000944,0.0,1.61843005178976,1797.8284266304945,29.500000944,1.6091986677612,1.64552005265664,1684,-7.5,100,GPS_Atti,
0.307984138505304,36.8793858185486,9300,2017-11-14 13:55:40,1798.4284266496943,30.1000009632,0.0,1.6132600516243198,1798.4284266496943,30.1000009632,1.6091986677612,1.64552005265664,1684,-7.9,100,GPS_Atti,
0.30798411485704,36.8793859215673,9400,2017-11-14 13:55:40,1798.9284266656946,30.6000009792,0.0,1.60558005137856,1798.9284266656946,30.6000009792,1.6091986677612,1.64552005265664,1684,-7.9,100,GPS_Atti,
0.307984067516545,36.8793861745789,9600,2017-11-14 13:55:40,1800.0284267008944,31.7000010144,0.0,1.58622005075904,1800.0284267008944,31.7000010144,1.6091986677612,1.64552005265664,1684,-8.0,99,GPS_Atti,
0.307984021418145,36.8793863072861,9700,2017-11-14 13:55:40,1800.5284267168945,32.2000010304,0.0,1.57761005048352,1800.5284267168945,32.2000010304,1.6091986677612,1.64552005265664,1684,-8.1,99,GPS_Atti,
0.307983977441201,36.8793864553028,9800,2017-11-14 13:55:40,1801.1284267360943,32.800001049600006,0.0,1.56763005016416,1801.1284267360943,32.800001049600006,1.6091986677612,1.64552005265664,1684,-8.3,99,GPS_Atti,
0.307983952576896,36.8793865688143,9900,2017-11-14 13:55:40,1801.6284267520946,33.3000010656,0.0,1.5594500499024,1801.6284267520946,33.3000010656,1.6091986677612,1.64552005265664,1684,-8.3,99,GPS_Atti,
0.307983932776239,36.8793866786815,10000,2017-11-14 13:55:41,1802.2284267712944,33.9000010848,0.0,1.5513000496416,1802.2284267712944,33.9000010848,1.6091986677612,1.64552005265664,1684,-8.3,99,GPS_Atti,
0.307983923445662,36.8793867478042,10100,2017-11-14 13:55:41,1802.7284267872947,34.4000011008,0.0,1.54598004947136,1802.7284267872947,34.4000011008,1.6091986677612,1.64552005265664,1684,-8.3,99,GPS_Atti,
0.30798391338432,36.8793868234425,10200,2017-11-14 13:55:41,1803.3284268064945,35.00000112,0.0,1.54017004928544,1803.3284268064945,35.00000112,1.6091986677612,1.64552005265664,1684,-8.3,99,GPS_Atti,
0.307983908252279,36.8793868946924,10300,2017-11-14 13:55:41,1803.8284268224943,35.500001136,0.0,1.53441004910112,1803.8284268224943,35.500001136,1.6091986677612,1.64552005265664,1684,-8.4,99,GPS_Atti,
0.307983865880573,36.8793870045008,10400,2017-11-14 13:55:41,1804.4284268416945,36.1000011552,0.0,1.52803004889696,1804.4284268416945,36.1000011552,1.6091986677612,1.64552005265664,1684,-9.5,99,GPS_Atti,
0.307983823157938,36.8793871068022,10500,2017-11-14 13:55:41,1804.9284268576944,36.6000011712,0.0,1.5224000487168001,1804.9284268576944,36.6000011712,1.6091986677612,1.64552005265664,1684,-10.1,99,GPS_Atti,
0.307983773532329,36.87938723274,10600,2017-11-14 13:55:41,1805.5284268768946,37.2000011904,0.0,1.51537004849184,1805.5284268768946,37.2000011904,1.6091986677612,1.64552005265664,1684,-10.1,99,GPS_Atti,
0.307983749260778,36.8793873258846,10700,2017-11-14 13:55:41,1806.0284268928945,37.7000012064,0.0,1.5093300482985599,1806.0284268928945,37.7000012064,1.6091986677612,1.64552005265664,1684,-10.1,99,GPS_Atti,
0.307983689171602,36.879387511297,10900,2017-11-14 13:55:41,1807.1284269280945,38.8000012416,0.0,1.49833004794656,1807.1284269280945,38.8000012416,1.6091986677612,1.64552005265664,1684,-10.1,99,GPS_Atti,
0.307983665074294,36.8793875715756,11000,2017-11-14 13:55:42,1807.7284269472946,39.4000012608,0.0,1.4951500478448,1807.7284269472946,39.4000012608,1.6091986677612,1.64552005265664,1684,-10.1,99,GPS_Atti,
0.307983658718477,36.8793875959529,11100,2017-11-14 13:55:42,1808.2284269632946,39.900001276800005,0.0,1.4936200477958401,1808.2284269632946,39.900001276800005,1.6091986677612,1.64552005265664,1684,-10.1,99,GPS_Atti,
0.30798365213875,36.8793876487362,11200,2017-11-14 13:55:42,1808.7284269792945,40.400001292800006,0.0,1.48977004767264,1808.7284269792945,40.400001292800006,1.6091986677612,1.64552005265664,1684,-10.1,99,GPS_Atti,
0.307983651509763,36.8793877028707,11300,2017-11-14 13:55:42,1809.2284269952945,40.9000013088,0.0,1.48538004753216,1809.2284269952945,40.9000013088,1.6091986677612,1.64552005265664,1684,-10.1,99,GPS_Atti,
0.307983629937765,36.8793877935294,11400,2017-11-14 13:55:42,1809.7284270112946,41.4000013248,0.0,1.47961004734752,1809.7284270112946,41.4000013248,1.6091986677612,1.64552005265664,1684,-10.1,99,GPS_Atti,
0.307983613464019,36.8793878711986,11500,2017-11-14 13:55:42,1810.3284270304944,42.000001344,0.0,1.4745500471856,1810.3284270304944,42.000001344,1.6091986677612,1.64552005265664,1684,-10.1,99,GPS_Atti,
0.307983600282579,36.8793879557121,11600,2017-11-14 13:55:42,1810.8284270464947,42.50000136,0.0,1.46872004699904,1810.8284270464947,42.50000136,1.6091986677612,1.64552005265664,1684,-10.1,99,GPS_Atti,
0.30798360574438,36.8793880239954,11700,2017-11-14 13:55:42,1811.3284270624945,43.000001376,0.0,1.4628000468096,1811.3284270624945,43.000001376,1.6091986677612,1.64552005265664,1684,-10.1,99,GPS_Atti,
0.307983610294253,36.8793881001037,11800,2017-11-14 13:55:42,1811.8284270784943,43.500001392,0.0,1.4563400466028802,1811.8284270784943,43.500001392,1.6091986677612,1.64552005265664,1684,-10.1,99,GPS_Atti,
0.307983623230612,36.8793881610589,11900,2017-11-14 13:55:42,1812.4284270976946,44.100001411200004,0.0,1.45046004641472,1812.4284270976946,44.100001411200004,1.6091986677612,1.64552005265664,1684,-10.1,99,GPS_Atti,
0.307983624793104,36.8793882172874,12000,2017-11-14 13:55:43,1812.9284271136944,44.600001427200006,0.0,1.4458500462672002,1812.9284271136944,44.600001427200006,1.6091986677612,1.64552005265664,1684,-10.1,99,GPS_Atti,
0.307983626299822,36.879388262325,12100,2017-11-14 13:55:43,1813.4284271296945,45.1000014432,0.0,1.4421500461488,1813.4284271296945,45.1000014432,1.6091986677612,1.64552005265664,1684,-10.1,99,GPS_Atti,
0.307983606165333,36.8793883078144,12200,2017-11-14 13:55:43,1814.0284271488945,45.7000014624,0.0,1.4401100460835201,1814.0284271488945,45.7000014624,1.6091986677612,1.64552005265664,1684,-10.1,99,GPS_Atti,
0.307983586514492,36.8793883397158,12300,2017-11-14 13:55:43,1814.5284271648943,46.2000014784,0.0,1.43912004605184,1814.5284271648943,46.2000014784,1.6091986677612,1.64552005265664,1684,-10.1,99,GPS_Atti,
0.307983558235748,36.8793883412564,12400,2017-11-14 13:55:43,1815.1284271840946,46.8000014976,0.0,1.44121004611872,1815.1284271840946,46.8000014976,1.6091986677612,1.64552005265664,1684,-10.1,99,GPS_Atti,
0.307983538886576,36.8793883289553,12500,2017-11-14 13:55:43,1815.6284272000944,47.3000015136,0.0,1.4437000461984,1815.6284272000944,47.3000015136,1.6091986677612,1.64552005265664,1684,-10.1,99,GPS_Atti,
0.307983523514065,36.879388303319,12600,2017-11-14 13:55:43,1816.2284272192946,47.9000015328,0.0,1.44693004630176,1816.2284272192946,47.9000015328,1.6091986677612,1.64552005265664,1684,-10.1,99,GPS_Atti,
0.307983511042627,36.8793882692313,12700,2017-11-14 13:55:43,1816.7284272352945,48.4000015488,0.0,1.4505900464188801,1816.7284272352945,48.4000015488,1.6091986677612,1.64552005265664,1684,-10.1,99,GPS_Atti,
0.307983498212116,36.8793881993699,12800,2017-11-14 13:55:43,1817.3284272544945,49.000001568,0.35999970196000003,1.4571200466278402,1817.3284272544945,49.000001568,1.6091986677612,1.64552005265664,1684,-10.1,99,GPS_Atti,
0.307983499346327,36.8793881078334,12900,2017-11-14 13:55:43,1817.9284272736945,49.600001587200005,0.35999970196000003,1.46431004685792,1817.9284272736945,49.600001587200005,1.6091986677612,1.64552005265664,1684,-10.1,99,GPS_Atti,
0.307983483987658,36.8793879797757,13000,2017-11-14 13:55:44,1818.4284272896946,50.1000016032,0.35999970196000003,1.47572004722304,1818.4284272896946,50.1000016032,1.6091986677612,1.64552005265664,1684,-10.1,99,GPS_Atti,
0.307983455898627,36.8793878351186,13100,2017-11-14 13:55:44,1818.9284273056946,50.6000016192,0.35999970196000003,1.489500047664,1818.9284273056946,50.6000016192,1.6091986677612,1.64552005265664,1684,-10.1,99,GPS_Atti,
0.30798342228103,36.8793876707005,13200,2017-11-14 13:55:44,1819.5284273248944,51.2000016384,0.35999970196000003,1.5053500481712,1819.5284273248944,51.2000016384,1.6091986677612,1.64552005265664,1684,-10.1,99,GPS_Atti,
0.307983398149932,36.8793875055276,13300,2017-11-14 13:55:44,1820.0284273408945,51.700001654400005,0.35999970196000003,1.5206200486598402,1820.0284273408945,51.700001654400005,1.6091986677612,1.64552005265664,1684,-10.1,99,GPS_Atti,
0.307983357904567,36.8793873476294,13400,2017-11-14 13:55:44,1820.5284273568946,52.200001670400006,0.35999970196000003,1.53656004916992,1820.5284273568946,52.200001670400006,1.6091986677612,1.64552005265664,1684,-10.1,99,GPS_Atti,
0.307983322766817,36.8793872219645,13500,2017-11-14 13:55:44,1821.1284273760946,52.8000016896,0.35999970196000003,1.54952004958464,1821.1284273760946,52.8000016896,1.6091986677612,1.64552005265664,1684,-10.1,99,GPS_Atti,
0.307983298060065,36.8793871218386,13600,2017-11-14 13:55:44,1821.6284273920944,53.3000017056,0.35999970196000003,1.55962004990784,1821.6284273920944,53.3000017056,1.6091986677612,1.64552005265664,1684,-10.1,99,GPS_Atti,
0.3079832840929,36.8793870425528,13700,2017-11-14 13:55:44,1822.1284274080945,53.800001721600005,0.0,1.5672100501507202,1822.1284274080945,53.800001721600005,1.6091986677612,1.64552005265664,1684,-10.1,99,GPS_Atti,
0.30798324899179,36.8793869729451,13800,2017-11-14 13:55:44,1822.7284274272945,54.40000174080001,0.0,1.57559005041888,1822.7284274272945,54.40000174080001,1.6091986677612,1.64552005265664,1684,-10.1,99,GPS_Atti,
0.307983210822691,36.8793869090202,13900,2017-11-14 13:55:44,1823.2284274432945,54.9000017568,0.0,1.58372005067904,1823.2284274432945,54.9000017568,1.6091986677612,1.64552005265664,1684,-10.1,99,GPS_Atti,
0.307983161041158,36.8793868319451,14000,2017-11-14 13:55:45,1823.7284274592944,55.4000017728,0.0,1.5938000510016002,1823.7284274592944,55.4000017728,1.6091986677612,1.64552005265664,1684,-10.1,99,GPS_Atti,
0.307983119652626,36.8793867587446,14100,2017-11-14 13:55:45,1824.3284274784944,56.000001792,0.0,1.6029400512940801,1824.3284274784944,56.000001792,1.6091986677612,1.64552005265664,1684,-10.1,99,GPS_Atti,
0.307983067424356,36.8793866556606,14200,2017-11-14 13:55:45,1824.8284274944945,56.500001808,0.0,1.6153700516918401,1824.8284274944945,56.500001808,1.6091986677612,1.64552005265664,1684,-10.1,99,GPS_Atti,
0.307982973942714,36.8793864640377,14400,2017-11-14 13:55:45,1825.8284275264946,57.50000184,0.0,1.63823005242336,1825.8284275264946,57.50000184,1.6091986677612,1.64552005265664,1684,-10.1,99,GPS_Atti,
0.30798293576303,36.8793863808913,14500,2017-11-14 13:55:45,1826.3284275424944,58.000001856000004,0.0,1.6479800527353603,1826.3284275424944,58.000001856000004,1.6091986677612,1.6479800527353603,1684,-10.1,99,GPS_Atti,
0.307982892663003,36.8793862884662,14600,2017-11-14 13:55:45,1826.8284275584945,58.500001872,0.0,1.65888005308416,1826.8284275584945,58.500001872,1.6091986677612,1.65888005308416,1684,-10.1,99,GPS_Atti,
0.307982871650376,36.8793862205468,14700,2017-11-14 13:55:45,1827.3284275744945,59.000001888,0.0,1.66611005331552,1827.3284275744945,59.000001888,1.6091986677612,1.66611005331552,1684,-10.1,99,GPS_Atti,
0.307982830675468,36.879386145189,14800,2017-11-14 13:55:45,1827.9284275936943,59.6000019072,0.0,1.67543005361376,1827.9284275936943,59.6000019072,1.6091986677612,1.67543005361376,1684,-10.1,99,GPS_Atti,
0.307982802492802,36.8793860917216,14900,2017-11-14 13:55:45,1828.4284276096946,60.100001923200004,0.0,1.68198005382336,1828.4284276096946,60.100001923200004,1.6091986677612,1.68198005382336,1684,-10.1,99,GPS_Atti,
0.307982757042115,36.8793860393483,15000,2017-11-14 13:55:46,1828.9284276256944,60.600001939200006,0.0,1.68969005407008,1828.9284276256944,60.600001939200006,1.6091986677612,1.68969005407008,1684,-10.1,99,GPS_Atti,
0.307982727242405,36.8793860136295,15100,2017-11-14 13:55:46,1829.4284276416945,61.10000195520001,0.0,1.69402005420864,1829.4284276416945,61.10000195520001,1.6091986677612,1.69402005420864,1684,-10.1,99,GPS_Atti,
0.307982687261662,36.8793859821284,15200,2017-11-14 13:55:46,1829.9284276576946,61.6000019712,0.0,1.69958005438656,1829.9284276576946,61.6000019712,1.6091986677612,1.69958005438656,1684,-10.1,99,GPS_Atti,
0.30798268709556,36.8793859730209,15300,2017-11-14 13:55:46,1830.4284276736946,62.1000019872,0.0,1.70036005441152,1830.4284276736946,62.1000019872,1.6091986677612,1.70036005441152,1684,-10.1,99,GPS_Atti,
0.30798265655735,36.8793859778054,15500,2017-11-14 13:55:46,1831.4284277056947,63.100002019200005,0.0,1.7021800544697603,1831.4284277056947,63.100002019200005,1.6091986677612,1.7021800544697603,1684,-10.1,99,GPS_Atti,
0.307982636239254,36.8793860067178,15600,2017-11-14 13:55:46,1831.9284277216946,63.600002035200006,0.0,1.7012400544396802,1831.9284277216946,63.600002035200006,1.6091986677612,1.7021800544697603,1684,-10.1,99,GPS_Atti,
0.307982628585568,36.8793860573085,15700,2017-11-14 13:55:46,1832.5284277408944,64.2000020544,0.0,1.6975600543219203,1832.5284277408944,64.2000020544,1.6091986677612,1.7021800544697603,1684,-10.1,99,GPS_Atti,
0.307982603842175,36.8793861080502,15800,2017-11-14 13:55:46,1833.0284277568946,64.7000020704,0.0,1.69514005424448,1833.0284277568946,64.7000020704,1.6091986677612,1.7021800544697603,1684,-10.1,99,GPS_Atti,
0.307982595355539,36.8793861645742,15900,2017-11-14 13:55:46,1833.5284277728945,65.2000020864,0.0,1.6910600541139202,1833.5284277728945,65.2000020864,1.6091986677612,1.7021800544697603,1684,-10.1,99,GPS_Atti,
0.307982556035945,36.8793862313962,16000,2017-11-14 13:55:47,1834.0284277888943,65.7000021024,0.0,1.68843005402976,1834.0284277888943,65.7000021024,1.6091986677612,1.7021800544697603,1684,-10.1,99,GPS_Atti,
0.307982537759104,36.8793863128039,16100,2017-11-14 13:55:47,1834.6284278080946,66.3000021216,0.0,1.6830600538579201,1834.6284278080946,66.3000021216,1.6091986677612,1.7021800544697603,1684,-10.1,99,GPS_Atti,
0.30798249025495,36.8793864119792,16200,2017-11-14 13:55:47,1835.1284278240944,66.8000021376,0.0,1.6784600537107202,1835.1284278240944,66.8000021376,1.6091986677612,1.7021800544697603,1684,-10.1,99,GPS_Atti,
0.307982467494188,36.8793865237991,16300,2017-11-14 13:55:47,1835.6284278400944,67.3000021536,0.0,1.67104005347328,1835.6284278400944,67.3000021536,1.6091986677612,1.7021800544697603,1684,-10.1,99,GPS_Atti,
0.307982441394302,36.8793866205313,16400,2017-11-14 13:55:47,1836.1284278560945,67.8000021696,0.0,1.66516005328512,1836.1284278560945,67.8000021696,1.6091986677612,1.7021800544697603,1684,-10.1,99,GPS_Atti,
0.307982455499884,36.8793866969768,16500,2017-11-14 13:55:47,1836.7284278752943,68.4000021888,0.0,1.65789005305248,1836.7284278752943,68.4000021888,1.6091986677612,1.7021800544697603,1684,-10.1,99,GPS_Atti,
0.307982456678877,36.8793867550799,16600,2017-11-14 13:55:47,1837.2284278912946,68.9000022048,0.0,1.6531100528995202,1837.2284278912946,68.9000022048,1.6091986677612,1.7021800544697603,1684,-10.1,99,GPS_Atti,
0.307982470107841,36.8793868163573,16700,2017-11-14 13:55:47,1837.7284279072944,69.4000022208,0.0,1.6471400527084799,1837.7284279072944,69.4000022208,1.6091986677612,1.7021800544697603,1684,-10.2,99,GPS_Atti,
0.307982453874697,36.8793868656045,16800,2017-11-14 13:55:47,1838.2284279232945,69.9000022368,0.0,1.6444300526217601,1838.2284279232945,69.9000022368,1.6091986677612,1.7021800544697603,1684,-10.4,99,GPS_Atti,
0.307982452155874,36.8793869144074,16900,2017-11-14 13:55:47,1838.7284279392945,70.40000225280001,0.0,1.6406500525008,1838.7284279392945,70.40000225280001,1.6091986677612,1.7021800544697603,1684,-10.5,99,GPS_Atti,
0.307982427608709,36.8793869544871,17000,2017-11-14 13:55:48,1839.3284279584946,71.000002272,0.0,1.6393500524592002,1839.3284279584946,71.000002272,1.6091986677612,1.7021800544697603,1684,-10.7,99,GPS_Atti,
0.307982421983249,36.8793870045565,17100,2017-11-14 13:55:48,1839.8284279744944,71.500002288,0.0,1.63579005234528,1839.8284279744944,71.500002288,1.6091986677612,1.7021800544697603,1684,-10.8,99,GPS_Atti,
0.307982374919589,36.8793870699899,17200,2017-11-14 13:55:48,1840.3284279904947,72.000002304,0.0,1.63426005229632,1840.3284279904947,72.000002304,1.6091986677612,1.7021800544697603,1684,-11.0,99,GPS_Atti,
0.307982326446511,36.8793871424229,17300,2017-11-14 13:55:48,1840.8284280064945,72.50000232,0.0,1.6323300522345603,1840.8284280064945,72.50000232,1.6091986677612,1.7021800544697603,1684,-11.1,99,GPS_Atti,
0.307982263415144,36.8793872011255,17400,2017-11-14 13:55:48,1841.4284280256945,73.1000023392,0.0,1.63269005224608,1841.4284280256945,73.1000023392,1.6091986677612,1.7021800544697603,1684,-11.3,99,GPS_Atti,
0.307982232832965,36.8793872500183,17500,2017-11-14 13:55:48,1841.9284280416946,73.6000023552,0.0,1.6312900522012799,1841.9284280416946,73.6000023552,1.6091986677612,1.7021800544697603,1684,-11.5,99,GPS_Atti,
0.307982189058762,36.8793872936716,17600,2017-11-14 13:55:48,1842.4284280576944,74.1000023712,0.0,1.6313700522038401,1842.4284280576944,74.1000023712,1.6091986677612,1.7021800544697603,1684,-11.6,99,GPS_Atti,
0.307982172047222,36.8793873418257,17700,2017-11-14 13:55:48,1842.9284280736947,74.6000023872,0.0,1.62899005212768,1842.9284280736947,74.6000023872,1.6091986677612,1.7021800544697603,1684,-11.6,99,GPS_Atti,
0.307982148003246,36.8793873899959,17800,2017-11-14 13:55:48,1843.4284280896945,75.10000240320001,0.0,1.6271900520700802,1843.4284280896945,75.10000240320001,1.6091986677612,1.7021800544697603,1684,-11.6,99,GPS_Atti,
0.307982140718402,36.8793874388662,17900,2017-11-14 13:55:48,1843.9284281056944,75.60000241920001,0.0,1.62402005196864,1843.9284281056944,75.60000241920001,1.6091986677612,1.7021800544697603,1684,-11.6,99,GPS_Atti,
0.307982097632217,36.8793874834499,18000,2017-11-14 13:55:49,1844.4284281216944,76.1000024352,0.0,1.62406005196992,1844.4284281216944,76.1000024352,1.6091986677612,1.7021800544697603,1684,-11.6,99,GPS_Atti,
0.307982077519305,36.8793875344014,18100,2017-11-14 13:55:49,1844.9284281376945,76.6000024512,0.0,1.6218000518976,1844.9284281376945,76.6000024512,1.6091986677612,1.7021800544697603,1684,-11.6,99,GPS_Atti,
0.30798203662989,36.8793875860628,18200,2017-11-14 13:55:49,1845.4284281536945,77.1000024672,0.0,1.6211800518777602,1845.4284281536945,77.1000024672,1.6091986677612,1.7021800544697603,1684,-11.6,99,GPS_Atti,
0.307982013440034,36.8793876312792,18300,2017-11-14 13:55:49,1845.9284281696944,77.6000024832,0.0,1.6196400518284801,1845.9284281696944,77.6000024832,1.6091986677612,1.7021800544697603,1684,-11.6,99,GPS_Atti,
0.307981969064121,36.8793876873043,18400,2017-11-14 13:55:49,1846.5284281888944,78.20000250240001,0.0,1.61904005180928,1846.5284281888944,78.20000250240001,1.6091986677612,1.7021800544697603,1684,-11.6,99,GPS_Atti,
0.307981940842372,36.8793877429418,18500,2017-11-14 13:55:49,1847.0284282048945,78.70000251840001,0.0,1.6171800517497599,1847.0284282048945,78.70000251840001,1.6091986677612,1.7021800544697603,1684,-11.6,99,GPS_Atti,
0.307981888601888,36.879387766589,18600,2017-11-14 13:55:49,1847.5284282208945,79.20000253440001,0.0,1.6197200518310402,1847.5284282208945,79.20000253440001,1.6091986677612,1.7021800544697603,1684,-11.6,99,GPS_Atti,
0.307981855371046,36.8793877666393,18700,2017-11-14 13:55:49,1848.0284282368946,79.70000255040001,0.0,1.6224600519187202,1848.0284282368946,79.70000255040001,1.6091986677612,1.7021800544697603,1684,-11.6,99,GPS_Atti,
0.307981811728747,36.8793877848469,18800,2017-11-14 13:55:49,1848.6284282560944,80.30000256960001,0.0,1.62471005199072,1848.6284282560944,80.30000256960001,1.6091986677612,1.7021800544697603,1684,-11.6,99,GPS_Atti,
0.307981791646775,36.8793878257424,18900,2017-11-14 13:55:49,1849.1284282720947,80.80000258560001,0.0,1.6233500519472002,1849.1284282720947,80.80000258560001,1.6091986677612,1.7021800544697603,1684,-11.6,99,GPS_Atti,
0.307981749246165,36.879387858283,19000,2017-11-14 13:55:50,1849.6284282880945,81.3000026016,0.0,1.62447005198304,1849.6284282880945,81.3000026016,1.6091986677612,1.7021800544697603,1684,-11.6,99,GPS_Atti,
0.307981728284834,36.8793878824237,19100,2017-11-14 13:55:50,1850.1284283040943,81.8000026176,0.0,1.62444005198208,1850.1284283040943,81.8000026176,1.6091986677612,1.7021800544697603,1684,-11.6,99,GPS_Atti,
0.307981704890607,36.8793878898611,19300,2017-11-14 13:55:50,1851.1284283360944,82.8000026496,0.0,1.6258500520272001,1851.1284283360944,82.8000026496,1.6091986677612,1.7021800544697603,1684,-11.6,99,GPS_Atti,
0.307981679282511,36.8793878999514,19400,2017-11-14 13:55:50,1851.6284283520945,83.3000026656,0.0,1.6272500520720001,1851.6284283520945,83.3000026656,1.6091986677612,1.7021800544697603,1684,-11.6,99,GPS_Atti,
0.307981668184665,36.8793879284827,19500,2017-11-14 13:55:50,1852.1284283680945,83.8000026816,0.0,1.6260900520348802,1852.1284283680945,83.8000026816,1.6091986677612,1.7021800544697603,1684,-11.6,99,GPS_Atti,
0.307981640585797,36.8793879522658,19600,2017-11-14 13:55:50,1852.6284283840946,84.30000269760001,0.0,1.6266700520534403,1852.6284283840946,84.30000269760001,1.6091986677612,1.7021800544697603,1684,-11.6,99,GPS_Atti,
0.307981644429739,36.8793879794235,19700,2017-11-14 13:55:50,1853.1284284000944,84.80000271360001,0.0,1.62437005197984,1853.1284284000944,84.80000271360001,1.6091986677612,1.7021800544697603,1684,-11.6,99,GPS_Atti,
0.307981620025063,36.8793879978826,19800,2017-11-14 13:55:50,1853.6284284160943,85.30000272960001,0.0,1.6250900520028801,1853.6284284160943,85.30000272960001,1.6091986677612,1.7021800544697603,1684,-11.6,99,GPS_Atti,
0.307981600707646,36.8793880277457,19900,2017-11-14 13:55:50,1854.2284284352945,85.9000027488,0.0,1.6245500519856002,1854.2284284352945,85.9000027488,1.6091986677612,1.7021800544697603,1684,-11.6,99,GPS_Atti,
0.307981564566774,36.8793880815365,20000,2017-11-14 13:55:51,1854.7284284512943,86.4000027648,0.0,1.62372005195904,1854.7284284512943,86.4000027648,1.6091986677612,1.7021800544697603,1684,-11.6,99,GPS_Atti,
0.30798156098094,36.8793881577079,20100,2017-11-14 13:55:51,1855.2284284672946,86.90000278080001,0.0,1.61856005179392,1855.2284284672946,86.90000278080001,1.6091986677612,1.7021800544697603,1684,-11.6,99,GPS_Atti,
0.307981491540017,36.8793883262863,20300,2017-11-14 13:55:51,1856.2284284992945,87.9000028128,0.0,1.6125000516,1856.2284284992945,87.9000028128,1.6091986677612,1.7021800544697603,1684,-11.6,99,GPS_Atti,
0.307981455363319,36.8793883950921,20400,2017-11-14 13:55:51,1856.7284285152946,88.4000028288,0.0,1.61077005154464,1856.7284285152946,88.4000028288,1.6091986677612,1.7021800544697603,1684,-11.6,99,GPS_Atti,
0.307981443084037,36.8793884543729,20500,2017-11-14 13:55:51,1857.2284285312944,88.9000028448,0.0,1.60768005144576,1857.2284285312944,88.9000028448,1.6091986677612,1.7021800544697603,1684,-11.6,99,GPS_Atti,
0.307981417690082,36.8793884711373,20600,2017-11-14 13:55:51,1857.7284285472945,89.4000028608,0.0,1.6087000514784002,1857.7284285472945,89.4000028608,1.6091986677612,1.7021800544697603,1684,-11.6,99,GPS_Atti,
0.307981419965018,36.8793884828891,20700,2017-11-14 13:55:51,1858.2284285632945,89.9000028768,0.0,1.60769005144608,1858.2284285632945,89.9000028768,1.6091986677612,1.7021800544697603,1684,-11.6,99,GPS_Atti,
0.307981396604989,36.8793884830925,20800,2017-11-14 13:55:51,1858.7284285792946,90.4000028928,0.0,1.6097000515104,1858.7284285792946,90.4000028928,1.6091986677612,1.7021800544697603,1684,-11.6,99,GPS_Atti,
0.307981384962429,36.87938850961,20900,2017-11-14 13:55:51,1859.2284285952944,90.9000029088,0.0,1.60887005148384,1859.2284285952944,90.9000029088,1.6091986677612,1.7021800544697603,1684,-11.6,99,GPS_Atti,
0.307981308460572,36.8793885378308,21000,2017-11-14 13:55:52,1859.7284286112945,91.4000029248,0.0,1.61358005163456,1859.7284286112945,91.4000029248,1.6091986677612,1.7021800544697603,1684,-11.6,99,GPS_Atti,
0.307981235512795,36.8793885881453,21100,2017-11-14 13:55:52,1860.2284286272945,91.9000029408,0.0,1.6165000517280002,1860.2284286272945,91.9000029408,1.6091986677612,1.7021800544697603,1684,-11.6,99,GPS_Atti,
0.30798115175215,36.8793886113622,21200,2017-11-14 13:55:52,1860.7284286432946,92.4000029568,0.0,1.62227005191264,1860.7284286432946,92.4000029568,1.6091986677612,1.7021800544697603,1684,-11.6,99,GPS_Atti,
0.307981128668956,36.8793886346582,21300,2017-11-14 13:55:52,1861.2284286592944,92.9000029728,0.0,1.6227200519270402,1861.2284286592944,92.9000029728,1.6091986677612,1.7021800544697603,1684,-11.6,99,GPS_Atti,
0.307981096617107,36.8793886484196,21400,2017-11-14 13:55:52,1861.7284286752945,93.4000029888,0.0,1.6246100519875202,1861.7284286752945,93.4000029888,1.6091986677612,1.7021800544697603,1684,-11.6,99,GPS_Atti,
0.307981083655507,36.8793886826453,21500,2017-11-14 13:55:52,1862.2284286912945,93.9000030048,0.0,1.6234500519504,1862.2284286912945,93.9000030048,1.6091986677612,1.7021800544697603,1684,-11.6,99,GPS_Atti,
0.307981025424792,36.8793886982727,21600,2017-11-14 13:55:52,1862.7284287072944,94.4000030208,0.0,1.6275500520816,1862.7284287072944,94.4000030208,1.6091986677612,1.7021800544697603,1684,-11.6,98,GPS_Atti,
0.307980987404696,36.8793887256584,21700,2017-11-14 13:55:52,1863.2284287232947,94.9000030368,0.0,1.62909005213088,1863.2284287232947,94.9000030368,1.6091986677612,1.7021800544697603,1684,-11.6,98,GPS_Atti,
0.307980928345103,36.8793887389894,21800,2017-11-14 13:55:52,1863.8284287424945,95.50000305600001,0.0,1.6334500522704,1863.8284287424945,95.50000305600001,1.6091986677612,1.7021800544697603,1684,-11.6,98,GPS_Atti,
0.307980881964576,36.8793887488785,21900,2017-11-14 13:55:52,1864.3284287584943,96.00000307200001,0.0,1.63693005238176,1864.3284287584943,96.00000307200001,1.6091986677612,1.7021800544697603,1684,-11.6,98,GPS_Atti,
0.307980795887469,36.8793887184983,22000,2017-11-14 13:55:53,1864.8284287744946,96.50000308800001,0.0,1.64663005269216,1864.8284287744946,96.50000308800001,1.6091986677612,1.7021800544697603,1684,-11.6,98,GPS_Atti,
0.307980736713071,36.8793886892894,22100,2017-11-14 13:55:53,1865.3284287904944,97.00000310400002,0.0,1.6538500529232,1865.3284287904944,97.00000310400002,1.6091986677612,1.7021800544697603,1684,-11.6,98,GPS_Atti,
0.307980640971963,36.8793886056645,22200,2017-11-14 13:55:53,1865.8284288064945,97.50000312,0.0,1.66794005337408,1865.8284288064945,97.50000312,1.6091986677612,1.7021800544697603,1684,-11.6,98,GPS_Atti,
0.307980594558866,36.8793885519561,22300,2017-11-14 13:55:53,1866.4284288256945,98.10000313920001,0.0,1.67564005362048,1866.4284288256945,98.10000313920001,1.6091986677612,1.7021800544697603,1684,-11.6,98,GPS_Atti,
0.307980516357729,36.8793884722914,22400,2017-11-14 13:55:53,1866.9284288416945,98.6000031552,0.0,1.68791005401312,1866.9284288416945,98.6000031552,1.6091986677612,1.7021800544697603,1684,-11.6,98,GPS_Atti,
0.307980474158231,36.8793884184749,22500,2017-11-14 13:55:53,1867.4284288576946,99.1000031712,0.0,1.695250054248,1867.4284288576946,99.1000031712,1.6091986677612,1.7021800544697603,1684,-11.6,98,GPS_Atti,
0.307980416110716,36.8793883318277,22600,2017-11-14 13:55:53,1867.9284288736944,99.6000031872,0.0,1.70619005459808,1867.9284288736944,99.6000031872,1.6091986677612,1.70619005459808,1684,-11.6,98,GPS_Atti,
0.307980396008389,36.8793882692966,22700,2017-11-14 13:55:53,1868.5284288928945,100.2000032064,0.0,1.7121500547888,1868.5284288928945,100.2000032064,1.6091986677612,1.7121500547888,1684,-11.6,98,GPS_Atti,
0.307980340071338,36.8793881714714,22800,2017-11-14 13:55:53,1869.0284289088945,100.7000032224,0.0,1.72368005515776,1869.0284289088945,100.7000032224,1.6091986677612,1.72368005515776,1684,-11.6,98,GPS_Atti,
0.307980320427418,36.8793881036634,22900,2017-11-14 13:55:53,1869.5284289248946,101.2000032384,0.0,1.72998005535936,1869.5284289248946,101.2000032384,1.6091986677612,1.72998005535936,1684,-11.6,98,GPS_Atti,
0.307980298430396,36.8793880115113,23000,2017-11-14 13:55:54,1870.0284289408944,101.7000032544,0.35999970196000003,1.7381500556208003,1870.0284289408944,101.7000032544,1.6091986677612,1.7381500556208003,1684,-11.6,98,GPS_Atti,
0.307980316703167,36.8793879615682,23100,2017-11-14 13:55:54,1870.5284289568947,102.2000032704,0.35999970196000003,1.73993005567776,1870.5284289568947,102.2000032704,1.6091986677612,1.73993005567776,1684,-11.6,98,GPS_Atti,
0.307980323275567,36.879387873177,23200,2017-11-14 13:55:54,1870.9284289696946,102.60000328320001,0.35999970196000003,1.74539005585248,1870.9284289696946,102.60000328320001,1.6091986677612,1.74539005585248,1684,-11.6,98,GPS_Atti,
0.307980352657582,36.879387813998,23300,2017-11-14 13:55:54,1871.4284289856946,103.1000032992,0.35999970196000003,1.74688005590016,1871.4284289856946,103.1000032992,1.6091986677612,1.74688005590016,1684,-11.6,98,GPS_Atti,
0.307980354581588,36.8793877010474,23400,2017-11-14 13:55:54,1871.9284290016944,103.6000033152,0.35999970196000003,1.7545200561446401,1871.9284290016944,103.6000033152,1.6091986677612,1.7545200561446401,1684,-11.6,98,GPS_Atti,
0.307980385145854,36.87938762574,23500,2017-11-14 13:55:54,1872.4284290176945,104.1000033312,0.35999970196000003,1.7571000562272001,1872.4284290176945,104.1000033312,1.6091986677612,1.7571000562272001,1684,-11.6,98,GPS_Atti,
0.307980400181277,36.8793874688717,23600,2017-11-14 13:55:54,1872.9284290336946,104.6000033472,0.35999970196000003,1.7668000565376,1872.9284290336946,104.6000033472,1.6091986677612,1.7668000565376,1684,-11.6,98,GPS_Atti,
0.307980419854509,36.8793873430387,23700,2017-11-14 13:55:54,1873.4284290496944,105.1000033632,0.0,1.7740200567686402,1873.4284290496944,105.1000033632,1.6091986677612,1.7740200567686402,1684,-11.6,98,GPS_Atti,
0.307980398607386,36.8793872077203,23800,2017-11-14 13:55:54,1873.9284290656947,105.6000033792,0.0,1.78548005713536,1873.9284290656947,105.6000033792,1.6091986677612,1.78548005713536,1684,-11.6,98,GPS_Atti,
0.307980375613757,36.8793871230216,23900,2017-11-14 13:55:54,1874.4284290816945,106.1000033952,0.0,1.7935100573923202,1874.4284290816945,106.1000033952,1.6091986677612,1.7935100573923202,1684,-11.6,98,GPS_Atti,
0.307980321607226,36.8793869968375,24000,2017-11-14 13:55:55,1874.9284290976946,106.6000034112,0.0,1.8071600578291203,1874.9284290976946,106.6000034112,1.6091986677612,1.8071600578291203,1684,-11.6,98,GPS_Atti,
0.307980298868448,36.8793869377238,24100,2017-11-14 13:55:55,1875.4284291136944,107.10000342720001,0.0,1.8133600580275202,1875.4284291136944,107.10000342720001,1.6091986677612,1.8133600580275202,1684,-11.6,98,GPS_Atti,
0.307980250141332,36.8793868284314,24200,2017-11-14 13:55:55,1876.0284291328944,107.7000034464,0.0,1.8253800584121602,1876.0284291328944,107.7000034464,1.6091986677612,1.8253800584121602,1684,-11.6,98,GPS_Atti,
0.307980227353701,36.8793867618461,24300,2017-11-14 13:55:55,1876.4284291456945,108.1000034592,0.0,1.8321400586284802,1876.4284291456945,108.1000034592,1.6091986677612,1.8321400586284802,1684,-11.6,98,GPS_Atti,
0.307980207749678,36.8793866525195,24400,2017-11-14 13:55:55,1877.0284291648945,108.70000347840002,0.0,1.84176005893632,1877.0284291648945,108.70000347840002,1.6091986677612,1.84176005893632,1684,-11.6,98,GPS_Atti,
0.307980212349218,36.8793865829482,24500,2017-11-14 13:55:55,1877.5284291808946,109.2000034944,0.0,1.8464600590867202,1877.5284291808946,109.2000034944,1.6091986677612,1.8464600590867202,1684,-11.6,98,GPS_Atti,
0.307980208010229,36.879386458704,24600,2017-11-14 13:55:55,1878.0284291968944,109.7000035104,0.0,1.85597005939104,1878.0284291968944,109.7000035104,1.6091986677612,1.85597005939104,1684,-11.6,98,GPS_Atti,
0.307980216208631,36.8793863741381,24700,2017-11-14 13:55:55,1878.5284292128947,110.2000035264,0.0,1.86154005956928,1878.5284292128947,110.2000035264,1.6091986677612,1.86154005956928,1684,-11.6,98,GPS_Atti,
0.307980216920261,36.8793861868832,24900,2017-11-14 13:55:55,1879.5284292448944,111.2000035584,0.0,1.8754400600140801,1879.5284292448944,111.2000035584,1.6091986677612,1.8754400600140801,1684,-11.6,98,GPS_Atti,
0.307980218399702,36.8793860793167,25000,2017-11-14 13:55:56,1880.0284292608944,111.70000357440001,0.0,1.88339006026848,1880.0284292608944,111.70000357440001,1.6091986677612,1.88339006026848,1684,-11.6,98,GPS_Atti,
0.307980217358312,36.8793859914426,25100,2017-11-14 13:55:56,1880.6284292800945,112.30000359360001,0.0,1.8901000604832001,1880.6284292800945,112.30000359360001,1.6091986677612,1.8901000604832001,1684,-11.6,98,GPS_Atti,
0.307980212039814,36.8793858852335,25200,2017-11-14 13:55:56,1881.1284292960945,112.80000360960001,0.0,1.8985700607542402,1881.1284292960945,112.80000360960001,1.6091986677612,1.8985700607542402,1684,-11.6,98,GPS_Atti,
0.307980229823237,36.8793858141838,25300,2017-11-14 13:55:56,1881.6284293120946,113.30000362560001,0.0,1.9025300608809599,1881.6284293120946,113.30000362560001,1.6091986677612,1.9025300608809599,1684,-11.6,98,GPS_Atti,
0.307980293399319,36.879385667697,25500,2017-11-14 13:55:56,1882.6284293440945,114.30000365760002,0.35999970196000003,1.9086200610758401,1882.6284293440945,114.30000365760002,1.6091986677612,1.9086200610758401,1684,-11.6,98,GPS_Atti,
0.307980343874569,36.8793855873749,25600,2017-11-14 13:55:56,1883.1284293600945,114.8000036736,0.35999970196000003,1.91077006114464,1883.1284293600945,114.8000036736,1.6091986677612,1.91077006114464,1684,-11.6,98,GPS_Atti,
0.307980419677823,36.8793855417442,25700,2017-11-14 13:55:56,1883.6284293760946,115.3000036896,0.35999970196000003,1.9082600610643201,1883.6284293760946,115.3000036896,1.6091986677612,1.91077006114464,1684,-11.6,98,GPS_Atti,
0.307980509907462,36.8793854806873,25800,2017-11-14 13:55:56,1884.1284293920944,115.8000037056,0.35999970196000003,1.90587006098784,1884.1284293920944,115.8000037056,1.6091986677612,1.91077006114464,1684,-11.6,98,GPS_Atti,
0.307980608377842,36.8793854551013,25900,2017-11-14 13:55:56,1884.6284294080945,116.3000037216,0.35999970196000003,1.9001100608035202,1884.6284294080945,116.3000037216,1.6091986677612,1.91077006114464,1684,-11.6,98,GPS_Atti,
0.307980689491452,36.879385393765,26000,2017-11-14 13:55:57,1885.1284294240945,116.80000373760001,0.35999970196000003,1.89859006075488,1885.1284294240945,116.80000373760001,1.6091986677612,1.91077006114464,1684,-11.6,98,GPS_Atti,
0.307980765440451,36.8793853683727,26100,2017-11-14 13:55:57,1885.6284294400946,117.30000375360001,0.35999970196000003,1.8946800606297602,1885.6284294400946,117.30000375360001,1.6091986677612,1.91077006114464,1684,-11.6,98,GPS_Atti,
0.307980827615257,36.8793853156408,26200,2017-11-14 13:55:57,1886.1284294560944,117.80000376960001,0.35999970196000003,1.8940500606096002,1886.1284294560944,117.80000376960001,1.6091986677612,1.91077006114464,1684,-11.6,98,GPS_Atti,
0.307980891740939,36.8793853098125,26300,2017-11-14 13:55:57,1886.6284294720947,118.30000378560001,0.5075995797636,1.8895500604656001,1886.6284294720947,118.30000378560001,1.6091986677612,1.91077006114464,1684,-11.6,98,GPS_Atti,
0.307980953333577,36.8793852661142,26400,2017-11-14 13:55:57,1887.1284294880945,118.80000380160001,0.35999970196000003,1.88831006042592,1887.1284294880945,118.80000380160001,1.6091986677612,1.91077006114464,1684,-11.6,98,GPS_Atti,
0.307981036033291,36.8793852430033,26500,2017-11-14 13:55:57,1887.7284295072945,119.40000382080001,0.35999970196000003,1.8838300602825602,1887.7284295072945,119.40000382080001,1.6091986677612,1.91077006114464,1684,-11.6,98,GPS_Atti,
0.307981093755931,36.879385191297,26600,2017-11-14 13:55:57,1888.2284295232946,119.90000383680001,0.35999970196000003,1.8836100602755201,1888.2284295232946,119.90000383680001,1.6091986677612,1.91077006114464,1684,-11.6,98,GPS_Atti,
0.307981127170787,36.8793851824475,26700,2017-11-14 13:55:57,1888.7284295392944,120.4000038528,0.0,1.88178006021696,1888.7284295392944,120.4000038528,1.6091986677612,1.91077006114464,1684,-11.6,98,GPS_Atti,
0.307981118100354,36.879385148179,26800,2017-11-14 13:55:57,1889.3284295584945,121.00000387200001,0.0,1.88526006032832,1889.3284295584945,121.00000387200001,1.6091986677612,1.91077006114464,1684,-11.6,98,GPS_Atti,
0.3079810970747,36.8793850716392,27000,2017-11-14 13:55:58,1890.3284295904944,122.000003904,0.0,1.89308006057856,1890.3284295904944,122.000003904,1.6091986677612,1.91077006114464,1684,-11.6,98,GPS_Atti,
0.307981110578572,36.8793849565154,27200,2017-11-14 13:55:58,1891.4284296256944,123.10000393920001,0.0,1.9014500608464002,1891.4284296256944,123.10000393920001,1.6091986677612,1.91077006114464,1684,-11.6,98,GPS_Atti,
0.307981114035758,36.8793849452977,27300,2017-11-14 13:55:58,1891.9284296416947,123.60000395520001,0.0,1.90211006086752,1891.9284296416947,123.60000395520001,1.6091986677612,1.91077006114464,1684,-11.6,98,GPS_Atti,
0.307981101449514,36.8793849303641,27400,2017-11-14 13:55:58,1892.4284296576946,124.10000397120001,0.0,1.9042800609369601,1892.4284296576946,124.10000397120001,1.6091986677612,1.91077006114464,1684,-11.6,98,GPS_Atti,
0.307981101460914,36.8793849452389,27500,2017-11-14 13:55:58,1892.9284296736944,124.60000398720001,0.0,1.90306006089792,1892.9284296736944,124.60000398720001,1.6091986677612,1.91077006114464,1684,-11.6,98,GPS_Atti,
0.307981077466606,36.8793849582658,27600,2017-11-14 13:55:58,1893.4284296896944,125.10000400320001,0.0,1.90381006092192,1893.4284296896944,125.10000400320001,1.6091986677612,1.91077006114464,1684,-11.6,98,GPS_Atti,
0.307981054605694,36.8793849919166,27700,2017-11-14 13:55:58,1893.9284297056945,125.60000401920001,0.0,1.90279006088928,1893.9284297056945,125.60000401920001,1.6091986677612,1.91077006114464,1684,-11.6,98,GPS_Atti,
0.307981024236842,36.8793850170841,27800,2017-11-14 13:55:58,1894.4284297216946,126.10000403520002,0.35999970196000003,1.9030400608972802,1894.4284297216946,126.10000403520002,1.6091986677612,1.91077006114464,1684,-11.6,98,GPS_Atti,
0.307981004711799,36.8793850574678,27900,2017-11-14 13:55:58,1894.8284297344944,126.500004048,0.35999970196000003,1.9012400608396802,1894.8284297344944,126.500004048,1.6091986677612,1.91077006114464,1684,-11.6,98,GPS_Atti,
0.307980955969213,36.8793850991984,28000,2017-11-14 13:55:59,1895.3284297504945,127.000004064,0.35999970196000003,1.9015700608502402,1895.3284297504945,127.000004064,1.6091986677612,1.91077006114464,1684,-11.6,98,GPS_Atti,
0.307980914328272,36.8793851748409,28100,2017-11-14 13:55:59,1895.8284297664945,127.50000408000001,0.35999970196000003,1.8986500607568,1895.8284297664945,127.50000408000001,1.6091986677612,1.91077006114464,1684,-11.6,98,GPS_Atti,
0.307980812763034,36.8793853330518,28300,2017-11-14 13:55:59,1896.8284297984944,128.500004112,0.35999970196000003,1.8938100606019201,1896.8284297984944,128.500004112,1.6091986677612,1.91077006114464,1684,-11.6,98,GPS_Atti,
0.307980757794093,36.8793853944191,28400,2017-11-14 13:55:59,1897.3284298144947,129.000004128,0.35999970196000003,1.89321006058272,1897.3284298144947,129.000004128,1.6091986677612,1.91077006114464,1684,-11.6,98,GPS_Atti,
0.307980722026134,36.8793854635407,28500,2017-11-14 13:55:59,1897.9284298336945,129.6000041472,0.35999970196000003,1.8905300604969602,1897.9284298336945,129.6000041472,1.6091986677612,1.91077006114464,1684,-11.6,98,GPS_Atti,
0.307980646299417,36.8793855075816,28600,2017-11-14 13:55:59,1898.4284298496943,130.1000041632,0.35999970196000003,1.8930000605760002,1898.4284298496943,130.1000041632,1.6091986677612,1.91077006114464,1684,-11.6,98,GPS_Atti,
0.307980582866638,36.8793855665283,28700,2017-11-14 13:55:59,1898.9284298656946,130.6000041792,0.35999970196000003,1.89339006058848,1898.9284298656946,130.6000041792,1.6091986677612,1.91077006114464,1684,-11.6,98,GPS_Atti,
0.307980501062568,36.8793856244109,28800,2017-11-14 13:55:59,1899.4284298816945,131.1000041952,0.35999970196000003,1.89536006065152,1899.4284298816945,131.1000041952,1.6091986677612,1.91077006114464,1684,-11.6,98,GPS_Atti,
0.307980452683126,36.8793857025512,28900,2017-11-14 13:55:59,1899.9284298976943,131.6000042112,0.35999970196000003,1.89316006058112,1899.9284298976943,131.6000042112,1.6091986677612,1.91077006114464,1417,-11.6,98,GPS_Atti,
0.307980324129685,36.8793858195475,29100,2017-11-14 13:56:00,1900.9284299296944,132.6000042432,0.35999970196000003,1.89449006062368,1900.9284299296944,132.6000042432,1.6091986677612,1.91077006114464,1089,-11.6,98,GPS_Atti,
0.307980223300504,36.8793858666609,29200,2017-11-14 13:56:00,1901.4284299456945,133.1000042592,0.0,1.8990700607702402,1901.4284299456945,133.1000042592,1.6091986677612,1.91077006114464,719,-11.6,98,GPS_Atti,
0.307980122308479,36.8793858956911,29300,2017-11-14 13:56:00,1901.8284299584943,133.500004272,0.0,1.90509006096288,1901.8284299584943,133.500004272,1.6091986677612,1.91077006114464,476,-11.6,98,GPS_Atti,
0.307979995968908,36.8793858911925,29400,2017-11-14 13:56:00,1902.2284299712944,133.90000428480002,0.0,1.9157600613043202,1902.2284299712944,133.90000428480002,1.6091986677612,1.9157600613043202,364,-11.6,98,GPS_Atti,
0.307979905017054,36.8793858751625,29500,2017-11-14 13:56:00,1902.5284299808945,134.2000042944,0.0,1.92442006158144,1902.5284299808945,134.2000042944,1.6091986677612,1.92442006158144,364,-11.6,98,GPS_Atti,
0.307979760693762,36.879385835496,29600,2017-11-14 13:56:00,1902.7284299872945,134.40000430080002,0.0,1.93927006205664,1902.7284299872945,134.40000430080002,1.6091986677612,1.93927006205664,364,-11.6,98,GPS_Atti,
