latitude,longitude,time_millisecond,datetime_utc,altitude_m,ascent_m,speed_kph,distance_m,max_altitude_m,max_ascent_m,max_speed_kph,max_distance_m,rc_throttle,gimbal_pitch_degrees,battery_percent,flycState,message
0.373279819973254,36.914809951787,0,2018-03-30 06:21:52,1643.1383582804294,0.0,0.0,0.0,1643.1383582804294,0.0,0.0,0.0,1024,0.0,99,Motors_Started,Setting new Return-To-Home altitude to 45m (148 ft). Setting new Maximum Flight Altitude to 150m (492 ft)
0.373279841844478,36.9148099705421,100,2018-03-30 06:21:52,1643.1383582804294,0.0,0.0,0.00320399010252768,1643.1383582804294,0.0,0.0,0.00320399010252768,364,0.0,99,Motors_Started,
0.373279856680825,36.9148099825545,200,2018-03-30 06:21:52,1643.1383582804294,0.0,0.0,0.0053263501704432,1643.1383582804294,0.0,0.0,0.0053263501704432,364,0.0,99,Motors_Started,
0.373279866631432,36.9148100276404,300,2018-03-30 06:21:53,1643.1383582804294,0.0,0.0,0.009903270316904642,1643.1383582804294,0.0,0.0,0.009903270316904642,364,0.0,99,Motors_Started,
0.373279874582717,36.9148100648744,400,2018-03-30 06:21:53,1643.1383582804294,0.0,0.0,0.0139653004468896,1643.1383582804294,0.0,0.0,0.0139653004468896,364,0.0,99,Motors_Started,
0.373279912165168,36.9148100960466,500,2018-03-30 06:21:53,1643.1383582804294,0.0,0.0,0.0190384006092288,1643.1383582804294,0.0,0.0,0.0190384006092288,364,0.0,99,Motors_Started,
0.373279945432651,36.9148101181249,600,2018-03-30 06:21:53,1643.1383582804294,0.0,0.0,0.023169100741411198,1643.1383582804294,0.0,0.0,0.023169100741411198,364,0.0,99,Motors_Started,
0.373279970011163,36.9148101642772,700,2018-03-30 06:21:53,1643.1383582804294,0.0,0.0,0.0289267009256544,1643.1383582804294,0.0,0.0,0.0289267009256544,364,0.0,99,Motors_Started,
0.37327998894386,36.9148102046525,800,2018-03-30 06:21:53,1643.1383582804294,0.0,0.0,0.033820101082243204,1643.1383582804294,0.0,0.0,0.033820101082243204,364,0.0,99,Motors_Started,
0.373279999082553,36.9148102342872,900,2018-03-30 06:21:53,1643.1383582804294,0.0,0.0,0.0371973011903136,1643.1383582804294,0.0,0.0,0.0371973011903136,364,0.0,99,Motors_Started,
0.373280009160992,36.9148102559523,1000,2018-03-30 06:21:53,1643.1383582804294,0.0,0.0,0.0398336012746752,1643.1383582804294,0.0,0.0,0.0398336012746752,364,0.0,99,Motors_Started,
0.373280009604336,36.9148102649241,1100,2018-03-30 06:21:53,1643.1383582804294,0.0,0.0,0.040709701302710406,1643.1383582804294,0.0,0.0,0.040709701302710406,364,0.0,99,Motors_Started,
0.373280010561861,36.9148102720844,1200,2018-03-30 06:21:53,1643.1383582804294,0.0,0.0,0.041447201326310405,1643.1383582804294,0.0,0.0,0.041447201326310405,364,0.0,99,Motors_Started,
0.373280003250555,36.9148103004258,1300,2018-03-30 06:21:54,1643.1383582804294,0.0,0.0,0.0438009014016288,1643.1383582804294,0.0,0.0,0.0438009014016288,364,0.0,99,Motors_Started,
0.373280001116886,36.9148103305167,1400,2018-03-30 06:21:54,1643.1383582804294,0.0,0.0,0.046685801493945606,1643.1383582804294,0.0,0.0,0.046685801493945606,364,0.0,99,Motors_Started,
0.373280025706798,36.9148103474539,1500,2018-03-30 06:21:54,1643.1383582804294,0.0,0.0,0.049592401586956804,1643.1383582804294,0.0,0.0,0.049592401586956804,678,0.0,99,Assisted_Takeoff,
0.373280048868564,36.9148103602949,1600,2018-03-30 06:21:54,1643.1383582804294,0.0,0.0,0.05207300166633601,1643.1383582804294,0.0,0.0,0.05207300166633601,1024,0.0,99,Assisted_Takeoff,
0.373280066500134,36.9148103627552,1700,2018-03-30 06:21:54,1643.1383582804294,0.0,0.0,0.053293501705392,1643.1383582804294,0.0,0.0,0.053293501705392,1024,0.0,99,Assisted_Takeoff,
0.373280079931947,36.9148103642841,1800,2018-03-30 06:21:54,1643.1383582804294,0.0,0.0,0.054220801735065605,1643.1383582804294,0.0,0.0,0.054220801735065605,1024,0.0,99,Assisted_Takeoff,
0.373280086837771,36.914810389313,1900,2018-03-30 06:21:54,1643.1383582804294,0.0,0.0,0.0569911018237152,1643.1383582804294,0.0,0.0,0.0569911018237152,1024,0.0,99,Assisted_Takeoff,
0.373280093454139,36.9148104166181,2000,2018-03-30 06:21:54,1643.1383582804294,0.0,0.0,0.059974101919171206,1643.1383582804294,0.0,0.0,0.059974101919171206,1024,0.0,99,Assisted_Takeoff,
0.373280092512491,36.9148104345189,2100,2018-03-30 06:21:54,1643.1383582804294,0.0,0.0,0.061646501972688006,1643.1383582804294,0.0,0.0,0.061646501972688006,1024,0.0,99,Assisted_Takeoff,
0.373280093787156,36.9148104477282,2200,2018-03-30 06:21:54,1643.1383582804294,0.0,0.0,0.0629982020159424,1643.1383582804294,0.0,0.0,0.0629982020159424,1024,0.0,99,Assisted_Takeoff,
0.373280123570175,36.9148104863562,2300,2018-03-30 06:21:55,1643.1383582804294,0.0,0.35999970196000003,0.068364502187664,1643.1383582804294,0.0,0.35999970196000003,0.068364502187664,1024,0.0,99,Assisted_Takeoff,
0.373280151767497,36.9148105206331,2400,2018-03-30 06:21:55,1643.1383582804294,0.0,0.35999970196000003,0.07323240234343681,1643.1383582804294,0.0,0.35999970196000003,0.07323240234343681,1024,0.0,99,Assisted_Takeoff,
0.37328017257494,36.9148105415573,2500,2018-03-30 06:21:55,1643.1383582804294,0.0,0.35999970196000003,0.07641260244520322,1643.1383582804294,0.0,0.35999970196000003,0.07641260244520322,1024,0.0,99,Assisted_Takeoff,
0.3732801886945,36.9148105573939,2600,2018-03-30 06:21:55,1643.1383582804294,0.0,0.35999970196000003,0.07884660252309121,1643.1383582804294,0.0,0.35999970196000003,0.07884660252309121,1024,0.0,99,Assisted_Takeoff,
0.373280195524195,36.9148105603167,2700,2018-03-30 06:21:55,1643.1383582804294,0.0,0.35999970196000003,0.0795206025446592,1643.1383582804294,0.0,0.35999970196000003,0.0795206025446592,1024,0.0,99,Assisted_Takeoff,
0.373280202511441,36.9148105633851,2800,2018-03-30 06:21:55,1643.1383582804294,0.0,0.0,0.080220502567056,1643.1383582804294,0.0,0.35999970196000003,0.080220502567056,1024,0.0,99,Assisted_Takeoff,
0.373280201111793,36.9148105556446,2900,2018-03-30 06:21:55,1643.1383582804294,0.0,0.0,0.0794089025410848,1643.1383582804294,0.0,0.35999970196000003,0.080220502567056,1024,0.0,99,Assisted_Takeoff,
0.373280201954513,36.9148105504221,3000,2018-03-30 06:21:55,1643.1383582804294,0.0,0.0,0.0789687025269984,1643.1383582804294,0.0,0.35999970196000003,0.080220502567056,1025,0.0,99,Assisted_Takeoff,
0.373280195589739,36.914810538005,3100,2018-03-30 06:21:55,1643.1383582804294,0.0,0.0,0.07742410247757121,1643.1383582804294,0.0,0.35999970196000003,0.080220502567056,1025,0.0,99,Assisted_Takeoff,
0.373280192804693,36.9148105285814,3200,2018-03-30 06:21:55,1643.1383582804294,0.0,0.0,0.0763753024440096,1643.1383582804294,0.0,0.35999970196000003,0.080220502567056,1041,0.0,99,Assisted_Takeoff,
0.373280184899005,36.9148105156162,3300,2018-03-30 06:21:56,1643.1383582804294,0.0,0.35999970196000003,0.07468720238999041,1643.1383582804294,0.0,0.35999970196000003,0.080220502567056,1051,0.0,99,Assisted_Takeoff,
0.373280179839429,36.9148105050342,3400,2018-03-30 06:21:56,1643.1383582804294,0.0,0.503999582744,0.0733938023486016,1643.1383582804294,0.0,0.503999582744,0.080220502567056,1088,0.0,99,Assisted_Takeoff,
0.373280170795865,36.914810495223,3500,2018-03-30 06:21:56,1643.1383582804294,0.0,0.35999970196000003,0.0719312023017984,1643.1383582804294,0.0,0.503999582744,0.080220502567056,1143,0.0,99,Assisted_Takeoff,
0.373280162626369,36.914810486945,3600,2018-03-30 06:21:56,1643.1383582804294,0.0,0.35999970196000003,0.0706656022612992,1643.1383582804294,0.0,0.503999582744,0.080220502567056,1220,0.0,99,Assisted_Takeoff,
0.373280185437205,36.9148104826004,3700,2018-03-30 06:21:56,1643.1383582804294,0.0,0.0,0.07166670229333441,1643.1383582804294,0.0,0.503999582744,0.080220502567056,1293,0.0,99,Assisted_Takeoff,
0.373280203257268,36.9148104784593,3800,2018-03-30 06:21:56,1643.1383582804294,0.0,0.0,0.0724359023179488,1643.1383582804294,0.0,0.503999582744,0.080220502567056,1370,0.0,99,Assisted_Takeoff,
0.373280218588254,36.9148105141537,3900,2018-03-30 06:21:56,1643.1383582804294,0.0,0.0,0.07665460245294721,1643.1383582804294,0.0,0.503999582744,0.080220502567056,1479,0.0,99,Assisted_Takeoff,
0.373280227460831,36.9148105468055,4000,2018-03-30 06:21:56,1643.1383582804294,0.0,0.0,0.0801979025663328,1643.1383582804294,0.0,0.503999582744,0.080220502567056,1615,0.0,99,Assisted_Takeoff,
0.373280258043824,36.9148105814529,4100,2018-03-30 06:21:56,1643.1383582804294,0.0,0.0,0.08530080272962559,1643.1383582804294,0.0,0.503999582744,0.08530080272962559,1684,0.0,99,Assisted_Takeoff,
0.373280328867296,36.9148106192394,4200,2018-03-30 06:21:56,1643.1383582804294,0.0,0.0,0.0933368029867776,1643.1383582804294,0.0,0.503999582744,0.0933368029867776,1684,0.0,99,P-GPS,Obstacle Avoided. Revise Flight Route
0.37328042627878,36.9148106829434,4300,2018-03-30 06:21:57,1643.1383582804294,0.0,0.35999970196000003,0.105627003380064,1643.1383582804294,0.0,0.503999582744,0.105627003380064,1684,0.0,99,P-GPS,
0.373280498896797,36.914810766212,4400,2018-03-30 06:21:57,1643.1383582804294,0.0,0.35999970196000003,0.11791000377312001,1643.1383582804294,0.0,0.503999582744,0.11791000377312001,1684,0.0,99,P-GPS,
0.373280560798432,36.9148108657989,4500,2018-03-30 06:21:57,1643.2383582836296,0.1000000032,0.35999970196000003,0.130836004186752,1643.2383582836296,0.1000000032,0.503999582744,0.130836004186752,1684,0.0,99,P-GPS,
0.373280616346285,36.9148109558081,4600,2018-03-30 06:21:57,1643.4383582900296,0.3000000096,0.35999970196000003,0.14251000456032,1643.4383582900296,0.3000000096,0.503999582744,0.14251000456032,1684,0.0,99,P-GPS,
0.37328070211643,36.9148110108637,4700,2018-03-30 06:21:57,1643.5383582932293,0.4000000128,0.0,0.15327800490489601,1643.5383582932293,0.4000000128,0.503999582744,0.15327800490489601,1684,0.0,99,P-GPS,
0.373280769739603,36.9148110528127,4800,2018-03-30 06:21:57,1643.7383582996295,0.6000000192,0.0,0.161699005174368,1643.7383582996295,0.6000000192,0.503999582744,0.161699005174368,1684,0.0,99,P-GPS,
0.373280829869898,36.9148111417855,4900,2018-03-30 06:21:57,1644.0383583092296,0.9000000288000001,0.0,0.17356400555404802,1644.0383583092296,0.9000000288000001,0.503999582744,0.17356400555404802,1684,0.0,99,P-GPS,
0.373280880333749,36.9148112133308,5000,2018-03-30 06:21:57,1644.3383583188297,1.2000000384,0.0,0.18326400586444802,1644.3383583188297,1.2000000384,0.503999582744,0.18326400586444802,1684,0.0,99,P-GPS,
0.373280999856246,36.9148112571662,5100,2018-03-30 06:21:57,1644.7383583316296,1.6000000512,0.0,0.195674006261568,1644.7383583316296,1.6000000512,0.503999582744,0.195674006261568,1684,0.0,99,P-GPS,Home Point Recorded. RTH Altitude:  45m.
0.373281110439806,36.9148112744824,5200,2018-03-30 06:21:57,1645.1383583444297,2.000000064,0.0,0.205498006575936,1645.1383583444297,2.000000064,0.503999582744,0.205498006575936,1684,0.0,99,P-GPS,
0.373281233287993,36.9148112466356,5300,2018-03-30 06:21:58,1645.5383583572295,2.4000000768,0.0,0.213157006821024,1645.5383583572295,2.4000000768,0.503999582744,0.213157006821024,1684,0.0,99,P-GPS,
0.373281333582637,36.91481121623,5400,2018-03-30 06:21:58,1646.0383583732296,2.9000000928,0.0,0.21932600701843202,1646.0383583732296,2.9000000928,0.503999582744,0.21932600701843202,1684,0.0,99,P-GPS,
0.373281447196732,36.9148111828973,5500,2018-03-30 06:21:58,1646.5383583892294,3.4000001088000005,0.0,0.22691000726112,1646.5383583892294,3.4000001088000005,0.503999582744,0.22691000726112,1684,0.0,99,P-GPS,
0.373281547807295,36.9148111518044,5600,2018-03-30 06:21:58,1647.0383584052297,3.9000001248,0.0,0.23394000748608001,1647.0383584052297,3.9000001248,0.503999582744,0.23394000748608001,1684,0.0,99,P-GPS,
0.37328165955275,36.9148111656475,5700,2018-03-30 06:21:58,1647.6383584244295,4.500000144,0.0,0.24509400784300803,1647.6383584244295,4.500000144,0.503999582744,0.24509400784300803,1684,0.0,99,P-GPS,
0.373281751597698,36.914811178617,5800,2018-03-30 06:21:58,1648.1383584404293,5.00000016,0.0,0.254471008143072,1648.1383584404293,5.00000016,0.503999582744,0.254471008143072,1684,0.0,99,P-GPS,
0.373281828950823,36.9148111637354,5900,2018-03-30 06:21:58,1648.6383584564296,5.5000001759999995,0.0,0.260914008349248,1648.6383584564296,5.5000001759999995,0.503999582744,0.260914008349248,1684,0.0,99,P-GPS,
0.37328186239947,36.9148111315418,6000,2018-03-30 06:21:58,1649.0383584692295,5.9000001888,0.0,0.262297008393504,1649.0383584692295,5.9000001888,0.503999582744,0.262297008393504,1684,0.0,99,P-GPS,
0.373281872565439,36.9148110760195,6100,2018-03-30 06:21:58,1649.5383584852295,6.4000002048,0.0,0.26025500832816,1649.5383584852295,6.4000002048,0.503999582744,0.262297008393504,1684,0.0,99,P-GPS,
0.373281883995487,36.9148110329398,6200,2018-03-30 06:21:58,1650.0383585012294,6.900000220800001,0.0,0.259113008291616,1650.0383585012294,6.900000220800001,0.503999582744,0.262297008393504,1684,0.0,99,P-GPS,
0.373281928594497,36.914811025332,6300,2018-03-30 06:21:58,1650.5383585172297,7.4000002368,0.0,0.263132008420224,1650.5383585172297,7.4000002368,0.503999582744,0.263132008420224,1684,0.0,99,P-GPS,
0.373281972180208,36.9148110196813,6400,2018-03-30 06:21:59,1650.9383585300295,7.8000002496,0.0,0.26718000854976004,1650.9383585300295,7.8000002496,0.503999582744,0.26718000854976004,1684,0.0,99,P-GPS,
0.373282012314838,36.9148109895198,6500,2018-03-30 06:21:59,1651.4383585460296,8.300000265600001,0.0,0.269734008631488,1651.4383585460296,8.300000265600001,0.503999582744,0.269734008631488,1684,0.0,99,P-GPS,
0.373282052485295,36.9148109624631,6600,2018-03-30 06:21:59,1651.9383585620294,8.800000281600001,0.0,0.272524008720768,1651.9383585620294,8.800000281600001,0.503999582744,0.272524008720768,1684,0.0,99,P-GPS,
0.373282077933396,36.9148109152658,6700,2018-03-30 06:21:59,1652.3383585748295,9.2000002944,0.0,0.273002008736064,1652.3383585748295,9.2000002944,0.503999582744,0.273002008736064,1684,0.0,99,P-GPS,
0.373282110610161,36.9148108765223,6800,2018-03-30 06:21:59,1652.8383585908296,9.7000003104,0.0,0.274706008790592,1652.8383585908296,9.7000003104,0.503999582744,0.274706008790592,1684,0.0,99,P-GPS,
0.37328216016819,36.9148108138888,6900,2018-03-30 06:21:59,1653.3383586068296,10.2000003264,0.0,0.27734100887491203,1653.3383586068296,10.2000003264,0.503999582744,0.27734100887491203,1684,0.0,99,P-GPS,
0.373282286673862,36.9148107363973,7100,2018-03-30 06:21:59,1654.2383586356293,11.1000003552,0.0,0.28785400921132803,1654.2383586356293,11.1000003552,0.503999582744,0.28785400921132803,1684,0.0,99,P-GPS,
0.373282356150611,36.9148107191732,7200,2018-03-30 06:21:59,1654.7383586516296,11.6000003712,0.0,0.29466600942931204,1654.7383586516296,11.6000003712,0.503999582744,0.29466600942931204,1684,0.0,99,P-GPS,
0.373282452693727,36.9148106793911,7300,2018-03-30 06:22:00,1655.2383586676294,12.1000003872,0.0,0.30374900971996804,1655.2383586676294,12.1000003872,0.503999582744,0.30374900971996804,1684,0.0,99,P-GPS,
0.373282536132755,36.9148106372108,7400,2018-03-30 06:22:00,1655.6383586804295,12.500000400000001,0.0,0.311522009968704,1655.6383586804295,12.500000400000001,0.503999582744,0.311522009968704,1684,0.0,99,P-GPS,
0.373282637702064,36.9148106109528,7500,2018-03-30 06:22:00,1656.1383586964293,13.000000416,0.0,0.321808010297856,1656.1383586964293,13.000000416,0.503999582744,0.321808010297856,1684,0.0,99,P-GPS,
0.373282731695037,36.9148105973773,7600,2018-03-30 06:22:00,1656.6383587124296,13.500000432,0.0,0.331664010613248,1656.6383587124296,13.500000432,0.503999582744,0.331664010613248,1684,0.0,99,P-GPS,
0.373282844075586,36.9148106117108,7700,2018-03-30 06:22:00,1657.1383587284295,14.000000448,0.0,0.344213011014816,1657.1383587284295,14.000000448,0.503999582744,0.344213011014816,1684,0.0,99,P-GPS,
0.373282936786974,36.9148106245689,7800,2018-03-30 06:22:00,1657.6383587444295,14.500000464000001,0.0,0.354591011346912,1657.6383587444295,14.500000464000001,0.503999582744,0.354591011346912,1684,0.0,99,P-GPS,
0.373282999826483,36.9148106478485,7900,2018-03-30 06:22:00,1658.1383587604296,15.00000048,0.0,0.361992011583744,1658.1383587604296,15.00000048,0.503999582744,0.361992011583744,1684,0.0,99,P-GPS,
0.373283050230896,36.9148106634175,8000,2018-03-30 06:22:00,1658.6383587764296,15.500000496,0.0,0.367838011770816,1658.6383587764296,15.500000496,0.503999582744,0.367838011770816,1684,0.0,99,P-GPS,
0.373283204511309,36.9148106796438,8200,2018-03-30 06:22:00,1659.7383588116295,16.600000531200003,0.0,0.384986012319552,1659.7383588116295,16.600000531200003,0.503999582744,0.384986012319552,1684,0.0,99,P-GPS,
0.373283304676085,36.9148106738089,8300,2018-03-30 06:22:01,1660.2383588276296,17.1000005472,0.0,0.395751012664032,1660.2383588276296,17.1000005472,0.503999582744,0.395751012664032,1684,0.0,99,P-GPS,
0.373283384274428,36.9148106499598,8400,2018-03-30 06:22:01,1660.8383588468296,17.7000005664,0.0,0.40390401292492806,1660.8383588468296,17.7000005664,0.503999582744,0.40390401292492806,1684,0.0,99,P-GPS,
0.373283441930301,36.9148106166485,8500,2018-03-30 06:22:01,1661.3383588628296,18.2000005824,0.0,0.409513013104416,1661.3383588628296,18.2000005824,0.503999582744,0.409513013104416,1684,0.0,99,P-GPS,
0.373283473161415,36.9148105781019,8600,2018-03-30 06:22:01,1661.9383588820294,18.8000006016,0.0,0.412184013189888,1661.9383588820294,18.8000006016,0.503999582744,0.412184013189888,1684,0.0,99,P-GPS,
0.37328349162797,36.914810560124,8700,2018-03-30 06:22:01,1662.5383589012295,19.4000006208,0.0,0.413877013244064,1662.5383589012295,19.4000006208,0.503999582744,0.413877013244064,1684,0.0,99,P-GPS,
0.373283502524703,36.9148105487176,8800,2018-03-30 06:22:01,1663.0383589172295,19.900000636799998,0.0,0.41486701327574405,1663.0383589172295,19.900000636799998,0.503999582744,0.41486701327574405,1684,0.0,99,P-GPS,
0.373283527995195,36.9148105421933,8900,2018-03-30 06:22:01,1663.6383589364295,20.500000656,0.0,0.417549013361568,1663.6383589364295,20.500000656,0.503999582744,0.417549013361568,1684,0.0,99,P-GPS,
0.373283550932643,36.9148105439791,9000,2018-03-30 06:22:01,1664.1383589524294,21.000000672,0.0,0.420099013443168,1664.1383589524294,21.000000672,0.503999582744,0.420099013443168,1684,0.0,99,P-GPS,
0.373283561266749,36.9148105639611,9100,2018-03-30 06:22:01,1664.7383589716296,21.6000006912,0.0,0.42158701349078403,1664.7383589716296,21.6000006912,0.503999582744,0.42158701349078403,1684,0.0,99,P-GPS,
0.37328355186167,36.9148105810268,9200,2018-03-30 06:22:01,1665.2383589876295,22.1000007072,0.0,0.420866013467712,1665.2383589876295,22.1000007072,0.503999582744,0.42158701349078403,1684,0.0,99,P-GPS,
0.373283522000893,36.914810595735,9300,2018-03-30 06:22:02,1665.8383590068297,22.7000007264,0.0,0.41787001337184004,1665.8383590068297,22.7000007264,0.503999582744,0.42158701349078403,1684,0.0,99,P-GPS,
0.373283491129666,36.9148106093105,9400,2018-03-30 06:22:02,1666.4383590260295,23.300000745600002,0.0,0.414751013272032,1666.4383590260295,23.300000745600002,0.503999582744,0.42158701349078403,1684,0.0,99,P-GPS,
0.373283405765817,36.9148106215541,9500,2018-03-30 06:22:02,1666.9383590420296,23.8000007616,0.0,0.40565801298105597,1666.9383590420296,23.8000007616,0.503999582744,0.42158701349078403,1684,0.0,99,P-GPS,
0.373283328597927,36.9148106418402,9600,2018-03-30 06:22:02,1667.4383590580296,24.3000007776,0.0,0.39765501272496,1667.4383590580296,24.3000007776,0.503999582744,0.42158701349078403,1684,0.0,99,P-GPS,
0.373283277129326,36.9148106656401,9700,2018-03-30 06:22:02,1668.0383590772294,24.9000007968,0.0,0.39256701256214405,1668.0383590772294,24.9000007968,0.503999582744,0.42158701349078403,1684,0.0,99,P-GPS,
0.373283247247379,36.9148106946367,9800,2018-03-30 06:22:02,1668.5383590932297,25.400000812800002,0.0,0.389983012479456,1668.5383590932297,25.400000812800002,0.503999582744,0.42158701349078403,1684,0.0,99,P-GPS,
0.373283211796153,36.9148107133897,9900,2018-03-30 06:22:02,1669.0383591092295,25.9000008288,0.0,0.38658301237065607,1669.0383591092295,25.9000008288,0.503999582744,0.42158701349078403,1684,0.0,99,P-GPS,
0.373283180452677,36.914810736119,10000,2018-03-30 06:22:02,1669.6383591284296,26.500000848000003,0.0,0.38374901227996805,1669.6383591284296,26.500000848000003,0.503999582744,0.42158701349078403,1684,0.0,99,P-GPS,
0.373283171399343,36.9148107700726,10100,2018-03-30 06:22:02,1670.1383591444296,27.000000864,0.0,0.38364701227670406,1670.1383591444296,27.000000864,0.503999582744,0.42158701349078403,1684,0.0,99,P-GPS,
0.373283168930622,36.9148108097413,10200,2018-03-30 06:22:02,1670.6383591604294,27.50000088,0.0,0.384451012302432,1670.6383591604294,27.50000088,0.503999582744,0.42158701349078403,1684,0.0,99,P-GPS,
0.3732831836314,36.9148108176467,10300,2018-03-30 06:22:03,1671.1383591764297,28.000000896,0.0,0.386253012360096,1671.1383591764297,28.000000896,0.503999582744,0.42158701349078403,1684,0.0,99,P-GPS,
0.37328319552067,36.9148108075443,10400,2018-03-30 06:22:03,1671.7383591956295,28.600000915200003,0.0,0.38725601239219204,1671.7383591956295,28.600000915200003,0.503999582744,0.42158701349078403,1684,0.0,99,P-GPS,
0.373283176592451,36.9148107611758,10500,2018-03-30 06:22:03,1672.2383592116294,29.1000009312,0.0,0.3839750122872,1672.2383592116294,29.1000009312,0.503999582744,0.42158701349078403,1684,0.0,99,P-GPS,
0.373283154829111,36.9148107125868,10600,2018-03-30 06:22:03,1672.7383592276296,29.6000009472,0.0,0.380384012172288,1672.7383592276296,29.6000009472,0.503999582744,0.42158701349078403,1684,0.0,99,P-GPS,
0.373283140190214,36.9148106335857,10700,2018-03-30 06:22:03,1673.2383592436295,30.1000009632,0.0,0.37693201206182403,1673.2383592436295,30.1000009632,0.503999582744,0.42158701349078403,1684,0.0,99,P-GPS,
0.373283116250459,36.9148105688239,10800,2018-03-30 06:22:03,1673.7383592596295,30.6000009792,0.0,0.372933011933856,1673.7383592596295,30.6000009792,0.503999582744,0.42158701349078403,1684,0.0,99,P-GPS,
0.373283048488461,36.914810486566,10900,2018-03-30 06:22:03,1674.3383592788296,31.2000009984,0.0,0.363922011645504,1674.3383592788296,31.2000009984,0.503999582744,0.42158701349078403,1684,0.0,99,P-GPS,
0.373282910591824,36.914810399349,11100,2018-03-30 06:22:03,1675.3383593108294,32.2000010304,0.0,0.34728101111299203,1675.3383593108294,32.2000010304,0.503999582744,0.42158701349078403,1684,0.0,99,P-GPS,
0.373282840850452,36.9148103856772,11200,2018-03-30 06:22:03,1675.8383593268295,32.700001046400004,0.0,0.33938701086038403,1675.8383593268295,32.700001046400004,0.503999582744,0.42158701349078403,1684,0.0,99,P-GPS,
0.373282773254556,36.9148103599952,11300,2018-03-30 06:22:04,1676.3383593428296,33.200001062400005,0.0,0.33154501060944,1676.3383593428296,33.200001062400005,0.503999582744,0.42158701349078403,1684,0.0,99,P-GPS,
0.373282716219934,36.9148103327543,11400,2018-03-30 06:22:04,1676.9383593620296,33.8000010816,0.0,0.32485501039536,1676.9383593620296,33.8000010816,0.503999582744,0.42158701349078403,1684,0.0,99,P-GPS,
0.373282629078639,36.9148103173502,11500,2018-03-30 06:22:04,1677.4383593780296,34.3000010976,0.0,0.315024010080768,1677.4383593780296,34.3000010976,0.503999582744,0.42158701349078403,1684,0.0,99,P-GPS,
0.373282565814404,36.9148102906061,11600,2018-03-30 06:22:04,1677.9383593940295,34.800001113600004,0.0,0.30767000984544,1677.9383593940295,34.800001113600004,0.503999582744,0.42158701349078403,1684,0.0,99,P-GPS,
0.37328251063295,36.9148102335785,11700,2018-03-30 06:22:04,1678.4383594100295,35.300001129600005,0.0,0.300854009627328,1678.4383594100295,35.300001129600005,0.503999582744,0.42158701349078403,1684,0.0,99,P-GPS,
0.37328245132502,36.9148101715703,11800,2018-03-30 06:22:04,1678.9383594260296,35.8000011456,0.0,0.293641009396512,1678.9383594260296,35.8000011456,0.503999582744,0.42158701349078403,1684,0.0,99,P-GPS,
0.373282408352826,36.9148100958047,11900,2018-03-30 06:22:04,1679.5383594452294,36.4000011648,0.0,0.288289009225248,1679.5383594452294,36.4000011648,0.503999582744,0.42158701349078403,1684,0.0,99,P-GPS,
0.373282374549585,36.9148100342997,12000,2018-03-30 06:22:04,1680.0383594612297,36.900001180800004,0.0,0.284233009095456,1680.0383594612297,36.900001180800004,0.503999582744,0.42158701349078403,1684,0.0,99,P-GPS,
0.373282340740645,36.9148100218955,12100,2018-03-30 06:22:04,1680.5383594772295,37.400001196800005,0.0,0.280433008973856,1680.5383594772295,37.400001196800005,0.503999582744,0.42158701349078403,1684,0.0,99,P-GPS,
0.373282314475472,36.9148100138615,12200,2018-03-30 06:22:04,1681.0383594932293,37.9000012128,0.0,0.27749000887968,1681.0383594932293,37.9000012128,0.503999582744,0.42158701349078403,1684,0.0,99,P-GPS,
0.373282268745507,36.9148100070438,12300,2018-03-30 06:22:05,1681.5383595092296,38.4000012288,0.0,0.272388008716416,1681.5383595092296,38.4000012288,0.503999582744,0.42158701349078403,1684,0.0,99,P-GPS,
0.373282248096838,36.9148099871217,12400,2018-03-30 06:22:05,1682.0383595252295,38.9000012448,0.0,0.270051008641632,1682.0383595252295,38.9000012448,0.503999582744,0.42158701349078403,1684,0.0,99,P-GPS,
0.373282261477762,36.9148099444104,12500,2018-03-30 06:22:05,1682.5383595412295,39.4000012608,0.0,0.27151100868835204,1682.5383595412295,39.4000012608,0.503999582744,0.42158701349078403,1684,0.0,99,P-GPS,
0.373282294684178,36.9148099036776,12600,2018-03-30 06:22:05,1683.0383595572296,39.900001276800005,0.0,0.27525500880816,1683.0383595572296,39.900001276800005,0.503999582744,0.42158701349078403,1684,0.0,99,P-GPS,
0.373282337671028,36.9148098483694,12700,2018-03-30 06:22:05,1683.6383595764294,40.500001296,0.0,0.280219008967008,1683.6383595764294,40.500001296,0.503999582744,0.42158701349078403,1684,0.0,99,P-GPS,
0.373282387203409,36.9148098016796,12800,2018-03-30 06:22:05,1684.1383595924294,41.000001312,0.0,0.285979009151328,1684.1383595924294,41.000001312,0.503999582744,0.42158701349078403,1684,0.0,99,P-GPS,
0.373282410196224,36.9148097531463,12900,2018-03-30 06:22:05,1684.6383596084295,41.500001328,0.0,0.288894009244608,1684.6383596084295,41.500001328,0.503999582744,0.42158701349078403,1684,0.0,99,P-GPS,
0.373282429178182,36.9148097155354,13000,2018-03-30 06:22:05,1685.1383596244295,42.000001344,0.0,0.29134600932307203,1685.1383596244295,42.000001344,0.503999582744,0.42158701349078403,1684,0.0,99,P-GPS,
0.373282435003126,36.9148096955683,13100,2018-03-30 06:22:05,1685.7383596436296,42.6000013632,0.0,0.2922000093504,1685.7383596436296,42.6000013632,0.503999582744,0.42158701349078403,1684,0.0,99,P-GPS,
0.373282475206965,36.9148096663661,13200,2018-03-30 06:22:05,1686.2383596596296,43.1000013792,0.0,0.296979009503328,1686.2383596596296,43.1000013792,0.503999582744,0.42158701349078403,1684,0.0,99,P-GPS,
0.373282545628212,36.9148096213679,13300,2018-03-30 06:22:06,1686.7383596756295,43.6000013952,0.35999970196000003,0.305328009770496,1686.7383596756295,43.6000013952,0.503999582744,0.42158701349078403,1684,0.0,99,P-GPS,
0.373282637376375,36.914809588911,13400,2018-03-30 06:22:06,1687.2383596916297,44.100001411200004,0.35999970196000003,0.31590001010880003,1687.2383596916297,44.100001411200004,0.503999582744,0.42158701349078403,1684,0.0,99,P-GPS,
0.373282745639403,36.9148096008206,13500,2018-03-30 06:22:06,1687.7383597076296,44.600001427200006,0.35999970196000003,0.32768401048588797,1687.7383597076296,44.600001427200006,0.503999582744,0.42158701349078403,1684,0.0,99,P-GPS,
0.373282859072741,36.914809636635,13600,2018-03-30 06:22:06,1688.3383597268294,45.2000014464,0.35999970196000003,0.339779010872928,1688.3383597268294,45.2000014464,0.503999582744,0.42158701349078403,1684,0.0,99,P-GPS,
0.373282985445694,36.9148097019492,13700,2018-03-30 06:22:06,1688.8383597428297,45.7000014624,0.35999970196000003,0.35311501129968,1688.8383597428297,45.7000014624,0.503999582744,0.42158701349078403,1684,0.0,99,P-GPS,
0.373283114135924,36.9148097733167,13800,2018-03-30 06:22:06,1689.3383597588295,46.2000014784,0.35999970196000003,0.366868011739776,1689.3383597588295,46.2000014784,0.503999582744,0.42158701349078403,1684,0.0,99,P-GPS,
0.373283269855881,36.9148098639426,13900,2018-03-30 06:22:06,1689.8383597748293,46.7000014944,0.35999970196000003,0.383772012280704,1689.8383597748293,46.7000014944,0.503999582744,0.42158701349078403,1684,0.0,99,P-GPS,
0.373283412893517,36.9148099441792,14000,2018-03-30 06:22:06,1690.3383597908296,47.2000015104,0.35999970196000003,0.399556012785792,1690.3383597908296,47.2000015104,0.503999582744,0.42158701349078403,1684,0.0,99,P-GPS,
0.373283532628118,36.9148100126175,14100,2018-03-30 06:22:06,1690.8383598068294,47.70000152640001,0.35999970196000003,0.4129250132136,1690.8383598068294,47.70000152640001,0.503999582744,0.42158701349078403,1684,0.0,99,P-GPS,
0.373283637441288,36.9148100688464,14200,2018-03-30 06:22:06,1691.4383598260297,48.300001545600004,0.35999970196000003,0.4247250135912001,1691.4383598260297,48.300001545600004,0.503999582744,0.4247250135912001,1684,0.0,99,P-GPS,
0.373283752581235,36.9148101144185,14300,2018-03-30 06:22:07,1691.9383598420295,48.800001561600006,0.0,0.43770401400652803,1691.9383598420295,48.800001561600006,0.503999582744,0.43770401400652803,1684,0.0,99,P-GPS,
0.373283853283397,36.914810150038,14400,2018-03-30 06:22:07,1692.4383598580296,49.3000015776,0.0,0.44907001437024,1692.4383598580296,49.3000015776,0.503999582744,0.44907001437024,1684,0.0,99,P-GPS,
0.373283935452239,36.9148101567058,14500,2018-03-30 06:22:07,1692.9383598740294,49.8000015936,0.0,0.45823301466345606,1692.9383598740294,49.8000015936,0.503999582744,0.45823301466345606,1684,0.0,99,P-GPS,
0.37328398819184,36.9148101364625,14600,2018-03-30 06:22:07,1693.5383598932294,50.4000016128,0.0,0.46398601484755203,1693.5383598932294,50.4000016128,0.503999582744,0.46398601484755203,1684,0.0,99,P-GPS,
0.373284029611313,36.9148100835482,14700,2018-03-30 06:22:07,1694.0383599092295,50.9000016288,0.0,0.468367014987744,1694.0383599092295,50.9000016288,0.503999582744,0.468367014987744,1684,0.0,99,P-GPS,
0.3732840553391,36.9148100381196,14800,2018-03-30 06:22:07,1694.5383599252295,51.4000016448,0.0,0.47109601507507204,1694.5383599252295,51.4000016448,0.503999582744,0.47109601507507204,1684,0.0,99,P-GPS,
0.373284089174095,36.9148100262143,14900,2018-03-30 06:22:07,1695.0383599412296,51.90000166080001,0.0,0.474833015194656,1695.0383599412296,51.90000166080001,0.503999582744,0.474833015194656,1684,0.0,99,P-GPS,
0.373284093378738,36.9148100332911,15000,2018-03-30 06:22:07,1695.5383599572294,52.40000167680001,0.0,0.47531501521008,1695.5383599572294,52.40000167680001,0.503999582744,0.47531501521008,1684,0.0,99,P-GPS,
0.373284073663166,36.9148100335995,15100,2018-03-30 06:22:07,1696.0383599732297,52.9000016928,0.0,0.473124015139968,1696.0383599732297,52.9000016928,0.503999582744,0.47531501521008,1684,0.0,99,P-GPS,
0.373284050273011,36.9148100420103,15200,2018-03-30 06:22:07,1696.6383599924295,53.500001712,0.0,0.470542015057344,1696.6383599924295,53.500001712,0.503999582744,0.47531501521008,1684,0.0,99,P-GPS,
0.373284048945015,36.9148100876615,15300,2018-03-30 06:22:08,1697.1383600084293,54.000001728,0.0,0.47053001505696,1697.1383600084293,54.000001728,0.503999582744,0.47531501521008,1684,0.0,99,P-GPS,
0.373284044246954,36.9148101170094,15400,2018-03-30 06:22:08,1697.6383600244296,54.500001744,0.0,0.47012401504396806,1697.6383600244296,54.500001744,0.503999582744,0.47531501521008,1684,0.0,99,P-GPS,
0.373284048336791,36.9148101139495,15500,2018-03-30 06:22:08,1698.1383600404295,55.00000176,0.0,0.47056501505808007,1698.1383600404295,55.00000176,0.503999582744,0.47531501521008,1684,0.0,99,P-GPS,
0.373284031377361,36.9148100950552,15600,2018-03-30 06:22:08,1698.7383600596297,55.6000017792,0.0,0.46860501499536006,1698.7383600596297,55.6000017792,0.503999582744,0.47531501521008,1684,0.0,99,P-GPS,
0.373284013507631,36.9148100600995,15700,2018-03-30 06:22:08,1699.2383600756295,56.10000179520001,0.0,0.46650201492806403,1699.2383600756295,56.10000179520001,0.503999582744,0.47531501521008,1684,0.0,99,P-GPS,
0.373283978575878,36.9148100424642,15800,2018-03-30 06:22:08,1699.7383600916294,56.60000181120001,0.0,0.46257201480230403,1699.7383600916294,56.60000181120001,0.503999582744,0.47531501521008,1684,0.0,99,P-GPS,
0.373283930393477,36.9148100536458,15900,2018-03-30 06:22:08,1700.2383601076297,57.100001827199996,0.35999970196000003,0.45724401463180797,1700.2383601076297,57.100001827199996,0.503999582744,0.47531501521008,1684,0.0,99,P-GPS,
0.37328385422301,36.9148100659922,16000,2018-03-30 06:22:08,1700.7383601236295,57.600001843200005,0.0,0.448813014362016,1700.7383601236295,57.600001843200005,0.503999582744,0.47531501521008,1684,0.0,99,P-GPS,
0.373283790341594,36.9148100733752,16100,2018-03-30 06:22:08,1701.3383601428295,58.2000018624,0.0,0.441736014135552,1701.3383601428295,58.2000018624,0.503999582744,0.47531501521008,1684,0.0,99,P-GPS,
0.373283746992415,36.9148100712875,16200,2018-03-30 06:22:08,1701.8383601588296,58.7000018784,0.0,0.436911013981152,1701.8383601588296,58.7000018784,0.503999582744,0.47531501521008,1684,0.0,99,P-GPS,
0.373283716899584,36.9148100696387,16300,2018-03-30 06:22:09,1702.3383601748296,59.2000018944,0.0,0.43356001387392,1702.3383601748296,59.2000018944,0.503999582744,0.47531501521008,1684,0.0,99,P-GPS,
0.373283696240329,36.9148100765934,16400,2018-03-30 06:22:09,1702.8383601908295,59.700001910400005,0.0,0.431288013801216,1702.8383601908295,59.700001910400005,0.503999582744,0.47531501521008,1684,0.0,99,P-GPS,
0.373283658976645,36.9148100987424,16500,2018-03-30 06:22:09,1703.3383602068295,60.2000019264,0.0,0.42723301367145605,1703.3383602068295,60.2000019264,0.503999582744,0.47531501521008,1684,0.0,99,P-GPS,
0.373283592891945,36.9148101208936,16600,2018-03-30 06:22:09,1703.8383602228296,60.7000019424,0.0,0.419993013439776,1703.8383602228296,60.7000019424,0.503999582744,0.47531501521008,1684,0.0,99,P-GPS,
0.373283498103477,36.9148101353534,16700,2018-03-30 06:22:09,1704.3383602388294,61.2000019584,0.0,0.40954001310528004,1704.3383602388294,61.2000019584,0.503999582744,0.47531501521008,1684,0.0,99,P-GPS,
0.373283402700271,36.9148101480445,16800,2018-03-30 06:22:09,1704.8383602548297,61.7000019744,0.0,0.399018012768576,1704.8383602548297,61.7000019744,0.503999582744,0.47531501521008,1684,0.0,99,P-GPS,
0.373283289305202,36.9148101419527,16900,2018-03-30 06:22:09,1705.3383602708295,62.200001990400004,0.0,0.38639001236448,1705.3383602708295,62.200001990400004,0.503999582744,0.47531501521008,1684,0.0,99,P-GPS,
0.373283178382111,36.9148101210306,17000,2018-03-30 06:22:09,1705.8383602868296,62.7000020064,0.0,0.37394901196636804,1705.8383602868296,62.7000020064,0.503999582744,0.47531501521008,1684,0.0,99,P-GPS,
0.37328305537108,36.9148100852826,17100,2018-03-30 06:22:09,1706.4383603060296,63.30000202560001,0.0,0.36010201152326404,1706.4383603060296,63.30000202560001,0.503999582744,0.47531501521008,1684,0.0,99,P-GPS,
0.373282952367112,36.9148100542196,17200,2018-03-30 06:22:09,1706.9383603220294,63.8000020416,0.0,0.348527011152864,1706.9383603220294,63.8000020416,0.503999582744,0.47531501521008,1684,0.0,99,P-GPS,
0.37328287807424,36.9148100291329,17300,2018-03-30 06:22:10,1707.4383603380295,64.3000020576,0.0,0.340188010886016,1707.4383603380295,64.3000020576,0.503999582744,0.47531501521008,1684,0.0,99,P-GPS,
0.37328282976482,36.9148100088939,17400,2018-03-30 06:22:10,1707.9383603540296,64.8000020736,0.0,0.334767010712544,1707.9383603540296,64.8000020736,0.503999582744,0.47531501521008,1684,0.0,99,P-GPS,
0.37328278204734,36.914810002256,17500,2018-03-30 06:22:10,1708.4383603700296,65.3000020896,0.0,0.329448010542336,1708.4383603700296,65.3000020896,0.503999582744,0.47531501521008,1684,0.0,99,P-GPS,
0.373282753321588,36.9148099943634,17600,2018-03-30 06:22:10,1709.0383603892296,65.90000210880001,0.0,0.326241010439712,1709.0383603892296,65.90000210880001,0.503999582744,0.47531501521008,1684,0.0,99,P-GPS,
0.373282721901575,36.9148099613391,17700,2018-03-30 06:22:10,1709.5383604052295,66.40000212480001,0.0,0.322714010326848,1709.5383604052295,66.40000212480001,0.503999582744,0.47531501521008,1684,0.0,99,P-GPS,
0.373282687027633,36.9148099164008,17800,2018-03-30 06:22:10,1710.0383604212295,66.9000021408,0.0,0.318858010203456,1710.0383604212295,66.9000021408,0.503999582744,0.47531501521008,1684,0.0,99,P-GPS,
0.3732825817471,36.9148098555982,18000,2018-03-30 06:22:10,1711.0383604532296,67.9000021728,0.0,0.307312009833984,1711.0383604532296,67.9000021728,0.503999582744,0.47531501521008,1684,0.0,99,P-GPS,
0.373282560070067,36.9148098163664,18100,2018-03-30 06:22:10,1711.5383604692295,68.4000021888,0.0,0.305087009762784,1711.5383604692295,68.4000021888,0.503999582744,0.47531501521008,1684,0.0,99,P-GPS,
0.373282539779655,36.914809793984,18200,2018-03-30 06:22:10,1712.0383604852295,68.9000022048,0.0,0.302968009694976,1712.0383604852295,68.9000022048,0.503999582744,0.47531501521008,1684,0.0,99,P-GPS,
0.373282492363437,36.9148098198887,18300,2018-03-30 06:22:11,1712.5383605012296,69.4000022208,0.0,0.297548009521536,1712.5383605012296,69.4000022208,0.503999582744,0.47531501521008,1684,0.0,99,P-GPS,
0.373282416653819,36.9148098569729,18400,2018-03-30 06:22:11,1713.0383605172296,69.9000022368,0.0,0.288959009246688,1713.0383605172296,69.9000022368,0.503999582744,0.47531501521008,1684,0.0,99,P-GPS,
0.373282318335698,36.9148098702036,18500,2018-03-30 06:22:11,1713.5383605332295,70.40000225280001,0.0,0.277981008895392,1713.5383605332295,70.40000225280001,0.503999582744,0.47531501521008,1684,0.0,99,P-GPS,
0.373282228501771,36.9148098800533,18600,2018-03-30 06:22:11,1714.0383605492295,70.90000226880001,0.0,0.267962008574784,1714.0383605492295,70.90000226880001,0.503999582744,0.47531501521008,1684,0.0,99,P-GPS,
0.373282129380013,36.9148098801411,18700,2018-03-30 06:22:11,1714.5383605652296,71.40000228480001,0.0,0.256944008222208,1714.5383605652296,71.40000228480001,0.503999582744,0.47531501521008,1684,0.0,99,P-GPS,
0.373282052944923,36.9148098794794,18800,2018-03-30 06:22:11,1715.1383605844294,72.000002304,0.0,0.2484500079504,1715.1383605844294,72.000002304,0.503999582744,0.47531501521008,1684,0.0,99,P-GPS,
0.373281974269094,36.9148098920635,18900,2018-03-30 06:22:11,1715.6383606004297,72.50000232,0.0,0.239663007669216,1715.6383606004297,72.50000232,0.503999582744,0.47531501521008,1684,0.0,99,P-GPS,
0.373281904934834,36.9148098964552,19000,2018-03-30 06:22:11,1716.1383606164295,73.00000233600001,0.0,0.23194200742214402,1716.1383606164295,73.00000233600001,0.503999582744,0.47531501521008,1684,0.0,99,P-GPS,
0.373281840148818,36.914809885188,19100,2018-03-30 06:22:11,1716.6383606324293,73.50000235200001,0.0,0.224778007192896,1716.6383606324293,73.50000235200001,0.503999582744,0.47531501521008,1684,0.0,99,P-GPS,
0.373281778471095,36.9148098653558,19200,2018-03-30 06:22:11,1717.1383606484296,74.00000236800001,0.0,0.218009006976288,1717.1383606484296,74.00000236800001,0.503999582744,0.47531501521008,1684,0.0,99,P-GPS,
0.373281722005206,36.9148098349738,19300,2018-03-30 06:22:12,1717.6383606644295,74.50000238400001,0.0,0.211916006781312,1717.6383606644295,74.50000238400001,0.503999582744,0.47531501521008,1684,0.0,99,P-GPS,
0.37328166191318,36.9148097869051,19400,2018-03-30 06:22:12,1718.2383606836297,75.10000240320001,0.0,0.205654006580928,1718.2383606836297,75.10000240320001,0.503999582744,0.47531501521008,1684,0.0,99,P-GPS,
0.373281565554892,36.9148097396607,19500,2018-03-30 06:22:12,1718.7383606996295,75.60000241920001,0.0,0.195547006257504,1718.7383606996295,75.60000241920001,0.503999582744,0.47531501521008,1684,0.0,99,P-GPS,
0.373281479387813,36.9148096922879,19600,2018-03-30 06:22:12,1719.2383607156296,76.1000024352,0.0,0.18678000597696,1719.2383607156296,76.1000024352,0.503999582744,0.47531501521008,1684,0.0,99,P-GPS,
0.373281427992899,36.9148096530047,19700,2018-03-30 06:22:12,1719.7383607316294,76.6000024512,0.0,0.18188200582022399,1719.7383607316294,76.6000024512,0.503999582744,0.47531501521008,1684,0.0,99,P-GPS,
0.373281412580491,36.9148096379668,19800,2018-03-30 06:22:12,1720.2383607476295,77.1000024672,0.0,0.18051300577641602,1720.2383607476295,77.1000024672,0.503999582744,0.47531501521008,1684,0.0,99,P-GPS,
0.373281420949879,36.9148096505487,19900,2018-03-30 06:22:12,1720.7383607636295,77.6000024832,0.0,0.18116200579718403,1720.7383607636295,77.6000024832,0.503999582744,0.47531501521008,1684,0.0,99,P-GPS,
0.373281435816351,36.9148096705629,20000,2018-03-30 06:22:12,1721.3383607828296,78.20000250240001,0.0,0.18239300583657603,1721.3383607828296,78.20000250240001,0.503999582744,0.47531501521008,1684,0.0,98,P-GPS,
0.373281459929129,36.9148097362733,20100,2018-03-30 06:22:12,1721.8383607988296,78.70000251840001,0.0,0.183941005886112,1721.8383607988296,78.70000251840001,0.503999582744,0.47531501521008,1684,0.0,98,P-GPS,
0.373281480431239,36.9148097886073,20200,2018-03-30 06:22:12,1722.3383608148295,79.20000253440001,0.0,0.18554300593737602,1722.3383608148295,79.20000253440001,0.503999582744,0.47531501521008,1684,0.0,98,P-GPS,
0.373281462184117,36.9148098082575,20300,2018-03-30 06:22:13,1722.8383608308297,79.70000255040001,0.0,0.18332000586624003,1722.8383608308297,79.70000255040001,0.503999582744,0.47531501521008,1684,0.0,98,P-GPS,
0.373281449941068,36.9148098020543,20400,2018-03-30 06:22:13,1723.3383608468296,80.20000256640002,0.0,0.182026005824832,1723.3383608468296,80.20000256640002,0.503999582744,0.47531501521008,1684,0.0,98,P-GPS,
0.37328146068717,36.9148097774708,20500,2018-03-30 06:22:13,1723.8383608628294,80.7000025824,0.0,0.183484005871488,1723.8383608628294,80.7000025824,0.503999582744,0.47531501521008,1684,0.0,98,P-GPS,
0.373281465447111,36.9148097522983,20600,2018-03-30 06:22:13,1724.3383608788295,81.2000025984,0.0,0.184327005898464,1724.3383608788295,81.2000025984,0.503999582744,0.47531501521008,1684,0.0,98,P-GPS,
0.373281463918817,36.9148097724645,20700,2018-03-30 06:22:13,1724.8383608948295,81.7000026144,0.0,0.18390100588483202,1724.8383608948295,81.7000026144,0.503999582744,0.47531501521008,1684,0.0,98,P-GPS,
0.373281464549839,36.9148097913738,20800,2018-03-30 06:22:13,1725.4383609140295,82.3000026336,0.0,0.18375500588016003,1725.4383609140295,82.3000026336,0.503999582744,0.47531501521008,1684,0.0,98,P-GPS,
0.373281496113154,36.9148098213426,20900,2018-03-30 06:22:13,1725.9383609300296,82.8000026496,0.0,0.18696100598275203,1725.9383609300296,82.8000026496,0.503999582744,0.47531501521008,1160,0.0,98,P-GPS,
0.373281516226066,36.9148098463073,21000,2018-03-30 06:22:13,1726.4383609460294,83.3000026656,0.0,0.188998006047936,1726.4383609460294,83.3000026656,0.503999582744,0.47531501521008,1025,0.0,98,P-GPS,
0.373281524962261,36.914809874424,21100,2018-03-30 06:22:13,1726.9383609620295,83.8000026816,0.0,0.1898000060736,1726.9383609620295,83.8000026816,0.503999582744,0.47531501521008,1024,0.0,98,P-GPS,
0.373281526505619,36.91480989765,21200,2018-03-30 06:22:13,1727.4383609780296,84.30000269760001,0.0,0.18987200607590402,1727.4383609780296,84.30000269760001,0.503999582744,0.47531501521008,1024,0.0,98,P-GPS,
0.373281538106654,36.9148099510118,21300,2018-03-30 06:22:14,1727.8383609908296,84.70000271040001,0.0,0.191067006114144,1727.8383609908296,84.70000271040001,0.503999582744,0.47531501521008,1024,0.0,98,P-GPS,
0.373281552879491,36.9148099879911,21400,2018-03-30 06:22:14,1728.0383609972296,84.9000027168,0.0,0.192752006168064,1728.0383609972296,84.9000027168,0.503999582744,0.47531501521008,1024,0.0,98,P-GPS,
0.373281565848419,36.9148100069817,21500,2018-03-30 06:22:14,1728.3383610068295,85.2000027264,0.0,0.19424900621596802,1728.3383610068295,85.2000027264,0.503999582744,0.47531501521008,1024,0.0,98,P-GPS,
0.373281576423127,36.9148100189663,21600,2018-03-30 06:22:14,1728.4383610100294,85.30000272960001,0.0,0.195471006255072,1728.4383610100294,85.30000272960001,0.503999582744,0.47531501521008,1024,0.0,98,P-GPS,
0.373281584510387,36.914810053982,21700,2018-03-30 06:22:14,1728.5383610132294,85.4000027328,0.0,0.196556006289792,1728.5383610132294,85.4000027328,0.503999582744,0.47531501521008,1024,0.0,98,P-GPS,
0.37328159228295,36.9148100790537,21800,2018-03-30 06:22:14,1728.5383610132294,85.4000027328,0.0,0.197599006323168,1728.5383610132294,85.4000027328,0.503999582744,0.47531501521008,1024,0.0,98,P-GPS,
0.373281595236133,36.914810095203,21900,2018-03-30 06:22:14,1728.6383610164296,85.500002736,0.0,0.19806300633801602,1728.6383610164296,85.500002736,0.503999582744,0.47531501521008,1024,0.0,98,P-GPS,
0.37328159955436,36.9148101010978,22000,2018-03-30 06:22:14,1728.6383610164296,85.500002736,0.0,0.198596006355072,1728.6383610164296,85.500002736,0.503999582744,0.47531501521008,1024,0.0,98,P-GPS,
0.373281601453533,36.9148100904858,22100,2018-03-30 06:22:14,1728.6383610164296,85.500002736,0.0,0.19871100635875202,1728.6383610164296,85.500002736,0.503999582744,0.47531501521008,1024,0.0,98,P-GPS,
0.373281621130836,36.9148100635983,22200,2018-03-30 06:22:14,1728.6383610164296,85.500002736,0.0,0.20068500642192,1728.6383610164296,85.500002736,0.503999582744,0.47531501521008,1024,0.0,98,P-GPS,
0.37328165010004,36.9148100197007,22300,2018-03-30 06:22:15,1728.6383610164296,85.500002736,0.0,0.20366100651715202,1728.6383610164296,85.500002736,0.503999582744,0.47531501521008,1024,0.0,98,P-GPS,
0.373281703133169,36.9148099559131,22400,2018-03-30 06:22:15,1728.7383610196296,85.60000273920001,0.0,0.20941900670140803,1728.7383610196296,85.60000273920001,0.503999582744,0.47531501521008,1024,0.0,98,P-GPS,
0.373281789720793,36.9148098618313,22500,2018-03-30 06:22:15,1728.7383610196296,85.60000273920001,0.0,0.21927600701683203,1728.7383610196296,85.60000273920001,0.503999582744,0.47531501521008,1024,0.0,98,P-GPS,
0.373281902565041,36.9148097517887,22600,2018-03-30 06:22:15,1728.8383610228295,85.7000027424,0.0,0.232662007445184,1728.8383610228295,85.7000027424,0.503999582744,0.47531501521008,1024,0.0,98,P-GPS,
0.373282063169516,36.9148096049425,22700,2018-03-30 06:22:15,1728.8383610228295,85.7000027424,0.0,0.25242100807747203,1728.8383610228295,85.7000027424,0.503999582744,0.47531501521008,1024,0.0,98,P-GPS,
0.373282238839133,36.9148094465806,22800,2018-03-30 06:22:15,1728.8383610228295,85.7000027424,0.0,0.274797008793504,1728.8383610228295,85.7000027424,0.503999582744,0.47531501521008,1024,0.0,98,P-GPS,
0.373282416359885,36.9148092417432,22900,2018-03-30 06:22:15,1728.8383610228295,85.7000027424,0.0,0.299336009578752,1728.8383610228295,85.7000027424,0.503999582744,0.47531501521008,1024,0.0,98,P-GPS,
0.373282595720778,36.9148090321179,23000,2018-03-30 06:22:15,1728.8383610228295,85.7000027424,0.0,0.32518101040579206,1728.8383610228295,85.7000027424,0.503999582744,0.47531501521008,1024,-0.2,98,P-GPS,
0.373282814444419,36.9148087737344,23100,2018-03-30 06:22:15,1728.8383610228295,85.7000027424,0.0,0.35784501145104,1728.8383610228295,85.7000027424,0.503999582744,0.47531501521008,1024,-1.2,98,P-GPS,
0.373283029818351,36.9148085262113,23200,2018-03-30 06:22:15,1728.8383610228295,85.7000027424,0.0,0.390574012498368,1728.8383610228295,85.7000027424,0.503999582744,0.47531501521008,1024,-2.6,98,P-GPS,
0.373283277748949,36.9148083092395,23300,2018-03-30 06:22:16,1728.8383610228295,85.7000027424,0.0,0.425704013622528,1728.8383610228295,85.7000027424,0.503999582744,0.47531501521008,1024,-4.4,98,P-GPS,
0.373283506752143,36.9148081071621,23400,2018-03-30 06:22:16,1728.8383610228295,85.7000027424,0.0,0.45844501467024007,1728.8383610228295,85.7000027424,0.503999582744,0.47531501521008,1024,-6.3,98,P-GPS,
0.373283730937586,36.9148079158187,23500,2018-03-30 06:22:16,1728.8383610228295,85.7000027424,0.0,0.49032501569040005,1728.8383610228295,85.7000027424,0.503999582744,0.49032501569040005,1024,-8.2,98,P-GPS,
0.373283933752957,36.9148077323658,23600,2018-03-30 06:22:16,1728.8383610228295,85.7000027424,0.0,0.519807016633824,1728.8383610228295,85.7000027424,0.503999582744,0.519807016633824,1024,-10.0,98,P-GPS,
0.373284165687351,36.9148075222266,23700,2018-03-30 06:22:16,1728.8383610228295,85.7000027424,0.0,0.55366501771728,1728.8383610228295,85.7000027424,0.503999582744,0.55366501771728,1024,-11.9,98,P-GPS,
0.373284374943218,36.9148073231405,23800,2018-03-30 06:22:16,1728.8383610228295,85.7000027424,0.0,0.58483501871472,1728.8383610228295,85.7000027424,0.503999582744,0.58483501871472,1024,-13.7,98,P-GPS,
0.373284571046958,36.9148071254805,23900,2018-03-30 06:22:16,1728.8383610228295,85.7000027424,0.0,0.6147630196724161,1728.8383610228295,85.7000027424,0.503999582744,0.6147630196724161,1024,-15.6,98,P-GPS,
0.373284732684681,36.9148069470039,24000,2018-03-30 06:22:16,1728.7383610196296,85.60000273920001,0.0,0.640407020493024,1728.8383610228295,85.7000027424,0.503999582744,0.640407020493024,1024,-17.4,98,P-GPS,
0.373284897761677,36.9148067654224,24100,2018-03-30 06:22:16,1728.7383610196296,85.60000273920001,0.0,0.666647021332704,1728.8383610228295,85.7000027424,0.503999582744,0.666647021332704,1024,-20.9,98,P-GPS,
0.373285230358336,36.9148064289051,24300,2018-03-30 06:22:17,1728.7383610196296,85.60000273920001,0.0,0.7179680229749761,1728.8383610228295,85.7000027424,0.503999582744,0.7179680229749761,1024,-20.9,98,P-GPS,
0.373285387312654,36.9148062500666,24400,2018-03-30 06:22:17,1728.7383610196296,85.60000273920001,0.0,0.743481023791392,1728.8383610228295,85.7000027424,0.503999582744,0.743481023791392,1024,-21.8,98,P-GPS,
0.373285537198711,36.9148060401351,24500,2018-03-30 06:22:17,1728.8383610228295,85.7000027424,0.0,0.7703540246513281,1728.8383610228295,85.7000027424,0.503999582744,0.7703540246513281,1024,-21.9,98,P-GPS,
0.373285775190101,36.9148056943398,24700,2018-03-30 06:22:17,1728.8383610228295,85.7000027424,0.0,0.814084026050688,1728.8383610228295,85.7000027424,0.503999582744,0.814084026050688,1024,-21.8,98,P-GPS,
0.373285874397352,36.9148055590926,24800,2018-03-30 06:22:17,1728.8383610228295,85.7000027424,0.0,0.8318260266184321,1728.8383610228295,85.7000027424,0.503999582744,0.8318260266184321,1024,-21.9,98,P-GPS,
0.373285989579639,36.9148053992855,24900,2018-03-30 06:22:17,1728.8383610228295,85.7000027424,0.0,0.852657027285024,1728.8383610228295,85.7000027424,0.503999582744,0.852657027285024,1024,-21.9,98,P-GPS,
0.373286081658376,36.9148052632867,25000,2018-03-30 06:22:17,1728.7383610196296,85.60000273920001,0.0,0.869898027836736,1728.8383610228295,85.7000027424,0.503999582744,0.869898027836736,1024,-21.8,98,P-GPS,
0.373286176520124,36.9148051293971,25100,2018-03-30 06:22:17,1728.7383610196296,85.60000273920001,0.0,0.887284028393088,1728.8383610228295,85.7000027424,0.503999582744,0.887284028393088,1024,-21.9,98,P-GPS,
0.373286240810279,36.9148050274719,25200,2018-03-30 06:22:17,1728.7383610196296,85.60000273920001,0.0,0.8998420287949441,1728.8383610228295,85.7000027424,0.503999582744,0.8998420287949441,1024,-21.9,98,P-GPS,
0.373286316424633,36.9148049172409,25300,2018-03-30 06:22:18,1728.7383610196296,85.60000273920001,0.0,0.913986029247552,1728.8383610228295,85.7000027424,0.503999582744,0.913986029247552,1024,-21.9,98,P-GPS,
0.373286355315947,36.9148048408179,25400,2018-03-30 06:22:18,1728.7383610196296,85.60000273920001,0.0,0.922619029523808,1728.8383610228295,85.7000027424,0.503999582744,0.922619029523808,1024,-21.9,98,P-GPS,
0.373286400141311,36.9148047790945,25500,2018-03-30 06:22:18,1728.7383610196296,85.60000273920001,0.0,0.930777029784864,1728.8383610228295,85.7000027424,0.503999582744,0.930777029784864,1024,-21.9,98,P-GPS,
0.373286404827973,36.9148047681185,25600,2018-03-30 06:22:18,1728.7383610196296,85.60000273920001,0.0,0.931942029822144,1728.8383610228295,85.7000027424,0.503999582744,0.931942029822144,1024,-21.9,98,P-GPS,
0.373286386320707,36.9148047806191,25700,2018-03-30 06:22:18,1728.7383610196296,85.60000273920001,0.0,0.92946502974288,1728.8383610228295,85.7000027424,0.503999582744,0.931942029822144,1024,-21.9,98,P-GPS,
0.373286340198287,36.9148048114957,25800,2018-03-30 06:22:18,1728.7383610196296,85.60000273920001,0.0,0.923311029545952,1728.8383610228295,85.7000027424,0.503999582744,0.931942029822144,1024,-21.9,98,P-GPS,
0.373286271292308,36.9148048434966,25900,2018-03-30 06:22:18,1728.7383610196296,85.60000273920001,0.35999970196000003,0.9150920292829441,1728.8383610228295,85.7000027424,0.503999582744,0.931942029822144,1024,-21.9,98,P-GPS,
0.37328618918209,36.9148048923169,26000,2018-03-30 06:22:18,1728.7383610196296,85.60000273920001,0.35999970196000003,0.904564028946048,1728.8383610228295,85.7000027424,0.503999582744,0.931942029822144,1024,-21.9,98,P-GPS,
0.37328611070086,36.9148049209902,26100,2018-03-30 06:22:18,1728.7383610196296,85.60000273920001,0.503999582744,0.895752028664064,1728.8383610228295,85.7000027424,0.503999582744,0.931942029822144,1024,-21.9,98,P-GPS,
0.373286028491308,36.9148049698854,26200,2018-03-30 06:22:18,1728.7383610196296,85.60000273920001,0.503999582744,0.885217028326944,1728.8383610228295,85.7000027424,0.503999582744,0.931942029822144,1024,-21.9,98,P-GPS,
0.373285933369009,36.9148049863965,26300,2018-03-30 06:22:19,1728.7383610196296,85.60000273920001,0.503999582744,0.875833028026656,1728.8383610228295,85.7000027424,0.503999582744,0.931942029822144,1024,-21.9,98,P-GPS,
0.373285835790202,36.9148050161512,26400,2018-03-30 06:22:19,1728.7383610196296,85.60000273920001,0.503999582744,0.8653340276906881,1728.8383610228295,85.7000027424,0.503999582744,0.931942029822144,1024,-21.9,98,P-GPS,
0.37328573192153,36.9148050710548,26500,2018-03-30 06:22:19,1728.7383610196296,85.60000273920001,0.503999582744,0.8525360272811521,1728.8383610228295,85.7000027424,0.503999582744,0.931942029822144,1024,-21.8,98,P-GPS,
0.373285636905894,36.9148051407264,26600,2018-03-30 06:22:19,1728.7383610196296,85.60000273920001,0.503999582744,0.83945502686256,1728.8383610228295,85.7000027424,0.503999582744,0.931942029822144,1024,-21.9,98,P-GPS,
0.373285542819285,36.9148052020473,26700,2018-03-30 06:22:19,1728.7383610196296,85.60000273920001,0.35999970196000003,0.827048026465536,1728.8383610228295,85.7000027424,0.503999582744,0.931942029822144,1024,-21.9,98,P-GPS,
0.373285489305358,36.9148052888146,26800,2018-03-30 06:22:19,1728.7383610196296,85.60000273920001,0.35999970196000003,0.8163140261220481,1728.8383610228295,85.7000027424,0.503999582744,0.931942029822144,1024,-21.9,98,P-GPS,
0.37328560083016,36.9148055709487,27000,2018-03-30 06:22:19,1728.7383610196296,85.60000273920001,0.7919993443119999,0.8066030258112961,1728.8383610228295,85.7000027424,0.7919993443119999,0.931942029822144,1024,-21.9,98,P-GPS,
0.373285826211694,36.9148058136818,27100,2018-03-30 06:22:19,1728.7383610196296,85.60000273920001,1.5119987482319999,0.8111040259553279,1728.8383610228295,85.7000027424,1.5119987482319999,0.931942029822144,1024,-21.9,98,P-GPS,
0.373286222535066,36.9148061520749,27200,2018-03-30 06:22:19,1728.7383610196296,85.60000273920001,2.303998092544,0.827944026494208,1728.8383610228295,85.7000027424,2.303998092544,0.931942029822144,1024,-21.9,98,P-GPS,
0.373286856835173,36.9148066676791,27300,2018-03-30 06:22:20,1728.7383610196296,85.60000273920001,3.5999970196000004,0.863566027634112,1728.8383610228295,85.7000027424,3.5999970196000004,0.931942029822144,1024,-21.9,98,P-GPS,
0.373287717414901,36.9148072935465,27400,2018-03-30 06:22:20,1728.7383610196296,85.60000273920001,4.391996363912,0.926658029653056,1728.8383610228295,85.7000027424,4.391996363912,0.931942029822144,1024,-21.9,98,P-GPS,
0.373290154781939,36.9148090311586,27600,2018-03-30 06:22:20,1728.7383610196296,85.60000273920001,6.803994367043999,1.15384003692288,1728.8383610228295,85.7000027424,6.803994367043999,1.15384003692288,1024,-21.9,98,P-GPS,
0.373291762111531,36.9148101665769,27700,2018-03-30 06:22:20,1728.7383610196296,85.60000273920001,7.595993711356,1.328250042504,1728.8383610228295,85.7000027424,7.595993711356,1.328250042504,1024,-21.9,98,P-GPS,
0.373293585319059,36.9148113642796,27800,2018-03-30 06:22:20,1728.7383610196296,85.60000273920001,8.891992638411999,1.53883004924256,1728.8383610228295,85.7000027424,8.891992638411999,1.53883004924256,1024,-21.9,98,P-GPS,
0.373295615965925,36.914812787365,27900,2018-03-30 06:22:20,1728.8383610228295,85.7000027424,9.683991982724,1.7846900571100803,1728.8383610228295,85.7000027424,9.683991982724,1.7846900571100803,1024,-21.9,98,P-GPS,
0.373297826774064,36.9148142384685,28000,2018-03-30 06:22:20,1728.8383610228295,85.7000027424,10.511991297232,2.05842006586944,1728.8383610228295,85.7000027424,10.511991297232,2.05842006586944,1024,-21.9,98,P-GPS,
0.373300163110808,36.9148158849516,28100,2018-03-30 06:22:20,1728.8383610228295,85.7000027424,11.303990641543999,2.35653007540896,1728.8383610228295,85.7000027424,11.303990641543999,2.35653007540896,1024,-21.9,98,P-GPS,
0.373305312706691,36.9148193120387,28300,2018-03-30 06:22:21,1728.8383610228295,85.7000027424,12.41998971762,3.02000009664,1728.8383610228295,85.7000027424,12.41998971762,3.02000009664,1024,-21.9,98,P-GPS,
0.373308135940048,36.9148210945548,28400,2018-03-30 06:22:21,1728.8383610228295,85.7000027424,13.211989061932002,3.38394010828608,1728.8383610228295,85.7000027424,13.211989061932002,3.38394010828608,1024,-21.9,98,P-GPS,
0.373311002411851,36.9148230204334,28500,2018-03-30 06:22:21,1728.8383610228295,85.7000027424,14.003988406244,3.7599001203168,1728.8383610228295,85.7000027424,14.003988406244,3.7599001203168,1024,-21.9,98,P-GPS,
0.373317203083654,36.9148271311863,28700,2018-03-30 06:22:21,1728.7383610196296,85.60000273920001,14.003988406244,4.57518014640576,1728.8383610228295,85.7000027424,14.003988406244,4.57518014640576,1024,-21.9,98,P-GPS,
0.373320530535383,36.9148292728762,28800,2018-03-30 06:22:21,1728.7383610196296,85.60000273920001,15.299987333299999,5.01124016035968,1728.8383610228295,85.7000027424,15.299987333299999,5.01124016035968,1024,-21.9,98,P-GPS,
0.373323996583981,36.9148316090035,28900,2018-03-30 06:22:21,1728.7383610196296,85.60000273920001,15.803986916044,5.4712801750809605,1728.8383610228295,85.7000027424,15.803986916044,5.4712801750809605,1024,-21.9,98,P-GPS,
0.373327542810647,36.9148339058048,29000,2018-03-30 06:22:21,1728.7383610196296,85.60000273920001,16.307986498788,5.93807019001824,1728.8383610228295,85.7000027424,16.307986498788,5.93807019001824,1024,-21.9,98,P-GPS,
0.373335108916458,36.914838959333,29200,2018-03-30 06:22:21,1728.6383610164296,85.500002736,17.27998569408,6.943280222184961,1728.8383610228295,85.7000027424,17.27998569408,6.943280222184961,1024,-21.9,98,P-GPS,
0.373339026881063,36.9148416212714,29300,2018-03-30 06:22:22,1728.6383610164296,85.500002736,17.783985276823998,7.4668702389398405,1728.8383610228295,85.7000027424,17.783985276823998,7.4668702389398405,1024,-21.9,98,P-GPS,
0.373342982736303,36.9148442317002,29400,2018-03-30 06:22:22,1728.6383610164296,85.500002736,18.071985038392,7.99184025573888,1728.8383610228295,85.7000027424,18.071985038392,7.99184025573888,1024,-21.8,98,P-GPS,
0.373347098048779,36.9148469938444,29500,2018-03-30 06:22:22,1728.6383610164296,85.500002736,18.575984621135998,8.540740273303681,1728.8383610228295,85.7000027424,18.575984621135998,8.540740273303681,1024,-21.9,98,P-GPS,
0.37335123629626,36.9148496894988,29600,2018-03-30 06:22:22,1728.6383610164296,85.500002736,18.8999843529,9.0885502908336,1728.8383610228295,85.7000027424,18.8999843529,9.0885502908336,1024,-21.8,98,P-GPS,
0.373355531903542,36.9148525677197,29700,2018-03-30 06:22:22,1728.6383610164296,85.500002736,19.403983935644,9.66172030917504,1728.8383610228295,85.7000027424,19.403983935644,9.66172030917504,1024,-21.8,98,P-GPS,
0.373359822768795,36.9148553751382,29800,2018-03-30 06:22:22,1728.6383610164296,85.500002736,19.403983935644,10.2307003273824,1728.8383610228295,85.7000027424,19.403983935644,10.2307003273824,1024,-21.8,98,P-GPS,
0.373364247713612,36.9148583198446,29900,2018-03-30 06:22:22,1728.6383610164296,85.500002736,19.691983697212,10.820400346252802,1728.8383610228295,85.7000027424,19.691983697212,10.820400346252802,1024,-21.8,98,P-GPS,
0.37336865592454,36.9148611757623,30000,2018-03-30 06:22:22,1728.6383610164296,85.500002736,19.871983548192002,11.4037003649184,1728.8383610228295,85.7000027424,19.871983548192002,11.4037003649184,1024,-21.9,98,P-GPS,
0.373373173378004,36.9148641382023,30100,2018-03-30 06:22:22,1728.6383610164296,85.500002736,20.195983279956,12.003500384112002,1728.8383610228295,85.7000027424,20.195983279956,12.003500384112002,1024,-21.9,98,P-GPS,
