latitude,longitude,time_millisecond,datetime_utc,altitude_m,ascent_m,speed_kph,distance_m,max_altitude_m,max_ascent_m,max_speed_kph,max_distance_m,rc_throttle,gimbal_pitch_degrees,battery_percent,flycState,message
0.376744344856793,36.9245242643659,0,2018-04-02 06:26:51,1626.965628262896,0.0,0.0,0.0,1626.965628262896,0.0,0.0,0.0,364,0.0,98,Motors_Started,
0.376744343044385,36.92452425321,100,2018-04-02 06:26:51,1626.965628262896,0.0,0.0,0.00125684004021888,1626.965628262896,0.0,0.0,0.00125684004021888,364,0.0,98,Motors_Started,
0.376744344580721,36.9245242455203,200,2018-04-02 06:26:51,1626.965628262896,0.0,0.0,0.00209593006706976,1626.965628262896,0.0,0.0,0.00209593006706976,364,0.0,98,Motors_Started,
0.376744343768178,36.9245242411682,300,2018-04-02 06:26:52,1626.965628262896,0.0,0.0,0.0025825100826403205,1626.965628262896,0.0,0.0,0.0025825100826403205,364,0.0,98,Motors_Started,Setting new Return-To-Home altitude to 45m (148 ft). Setting new Maximum Flight Altitude to 150m (492 ft)
0.37674434688044,36.9245242392496,500,2018-04-02 06:26:52,1626.965628262896,0.0,0.0,0.00280208008966656,1626.965628262896,0.0,0.0,0.00280208008966656,364,0.0,98,Motors_Started,
0.376744350377065,36.924524242303,600,2018-04-02 06:26:52,1626.965628262896,0.0,0.0,0.00252911008093152,1626.965628262896,0.0,0.0,0.00280208008966656,364,0.0,98,Motors_Started,
0.376744350894249,36.9245242424652,700,2018-04-02 06:26:52,1626.965628262896,0.0,0.0,0.00252629008084128,1626.965628262896,0.0,0.0,0.00280208008966656,364,0.0,98,Motors_Started,
0.376744354724807,36.9245242334918,800,2018-04-02 06:26:52,1626.965628262896,0.0,0.0,0.00360443011534176,1626.965628262896,0.0,0.0,0.00360443011534176,364,0.0,98,Motors_Started,
0.376744355886753,36.9245242045459,900,2018-04-02 06:26:52,1626.965628262896,0.0,0.0,0.0067643502164592,1626.965628262896,0.0,0.0,0.0067643502164592,364,0.0,98,Motors_Started,
0.376744360343041,36.9245241745727,1000,2018-04-02 06:26:52,1626.965628262896,0.0,0.0,0.010132800324249602,1626.965628262896,0.0,0.0,0.010132800324249602,364,0.0,98,Motors_Started,
0.376744361618214,36.9245241560584,1100,2018-04-02 06:26:52,1626.965628262896,0.0,0.0,0.012187600390003201,1626.965628262896,0.0,0.0,0.012187600390003201,364,0.0,98,Motors_Started,
0.376744360352201,36.9245241427077,1200,2018-04-02 06:26:53,1626.965628262896,0.0,0.0,0.013638100436419201,1626.965628262896,0.0,0.0,0.013638100436419201,364,0.0,98,Motors_Started,
0.376744361860191,36.9245241324212,1300,2018-04-02 06:26:53,1626.965628262896,0.0,0.0,0.0147941004734112,1626.965628262896,0.0,0.0,0.0147941004734112,364,0.0,98,Motors_Started,
0.3767443638044,36.924524128781,1400,2018-04-02 06:26:53,1626.965628262896,0.0,0.0,0.015224100487171202,1626.965628262896,0.0,0.0,0.015224100487171202,364,0.0,98,Motors_Started,
0.376744366942666,36.9245241234012,1500,2018-04-02 06:26:53,1626.965628262896,0.0,0.0,0.015867000507744,1626.965628262896,0.0,0.0,0.015867000507744,364,0.0,98,Assisted_Takeoff,
0.376744366686695,36.9245241106281,1600,2018-04-02 06:26:53,1626.965628262896,0.0,0.0,0.017267700552566403,1626.965628262896,0.0,0.0,0.017267700552566403,686,0.0,98,Assisted_Takeoff,
0.376744367335477,36.9245240795961,1700,2018-04-02 06:26:53,1626.965628262896,0.0,0.0,0.020698600662355203,1626.965628262896,0.0,0.0,0.020698600662355203,989,0.0,98,Assisted_Takeoff,
0.376744367394966,36.9245240642674,1800,2018-04-02 06:26:53,1626.965628262896,0.0,0.0,0.0223924007165568,1626.965628262896,0.0,0.0,0.0223924007165568,1024,0.0,98,Assisted_Takeoff,
0.37674436922376,36.9245240747424,1900,2018-04-02 06:26:53,1626.965628262896,0.0,0.0,0.021260200680326403,1626.965628262896,0.0,0.0,0.0223924007165568,1024,0.0,98,Assisted_Takeoff,
0.376744382961008,36.9245240826345,2000,2018-04-02 06:26:53,1626.965628262896,0.0,0.0,0.0206487006607584,1626.965628262896,0.0,0.0,0.0223924007165568,1024,0.0,98,Assisted_Takeoff,
0.376744412976793,36.924524061661,2100,2018-04-02 06:26:53,1626.965628262896,0.0,0.0,0.023780400760972802,1626.965628262896,0.0,0.0,0.023780400760972802,1024,0.0,98,Assisted_Takeoff,
0.376744447942946,36.9245240428431,2200,2018-04-02 06:26:53,1626.965628262896,0.0,0.0,0.027170900869468804,1626.965628262896,0.0,0.0,0.027170900869468804,1024,0.0,98,Assisted_Takeoff,
0.376744465717718,36.9245240305037,2300,2018-04-02 06:26:54,1626.965628262896,0.0,0.0,0.0292742009367744,1626.965628262896,0.0,0.0,0.0292742009367744,1024,0.0,98,Assisted_Takeoff,
0.376744485988843,36.924524022974,2400,2018-04-02 06:26:54,1626.965628262896,0.0,0.0,0.0310951009950432,1626.965628262896,0.0,0.0,0.0310951009950432,1024,0.0,98,Assisted_Takeoff,
0.376744496149774,36.9245240162553,2500,2018-04-02 06:26:54,1626.965628262896,0.0,0.0,0.032316001034112,1626.965628262896,0.0,0.0,0.032316001034112,1024,0.0,98,Assisted_Takeoff,
0.376744505370584,36.9245240152071,2600,2018-04-02 06:26:54,1626.965628262896,0.0,0.0,0.032959501054704,1626.965628262896,0.0,0.0,0.032959501054704,1024,0.0,98,Assisted_Takeoff,
0.376744510237087,36.9245240113165,2700,2018-04-02 06:26:54,1626.965628262896,0.0,0.0,0.033617001075744,1626.965628262896,0.0,0.0,0.033617001075744,1024,0.0,98,Assisted_Takeoff,
0.376744511703399,36.9245240015519,2800,2018-04-02 06:26:54,1626.965628262896,0.0,0.0,0.0346182011077824,1626.965628262896,0.0,0.0,0.0346182011077824,1024,0.0,98,Assisted_Takeoff,
0.376744512000793,36.9245239707821,2900,2018-04-02 06:26:54,1626.965628262896,0.0,0.0,0.037568101202179204,1626.965628262896,0.0,0.0,0.037568101202179204,1024,0.0,98,Assisted_Takeoff,
0.376744510619822,36.9245239412442,3000,2018-04-02 06:26:54,1626.965628262896,0.0,0.0,0.0403849012923168,1626.965628262896,0.0,0.0,0.0403849012923168,1024,0.0,98,Assisted_Takeoff,
0.376744508539179,36.9245239219836,3100,2018-04-02 06:26:54,1626.965628262896,0.0,0.0,0.04220160135045121,1626.965628262896,0.0,0.0,0.04220160135045121,1024,0.0,98,Assisted_Takeoff,
0.376744505547779,36.92452390094,3200,2018-04-02 06:26:55,1626.965628262896,0.0,0.0,0.0441888014140416,1626.965628262896,0.0,0.0,0.0441888014140416,1024,0.0,98,Assisted_Takeoff,
0.376744500706567,36.9245238971329,3300,2018-04-02 06:26:55,1626.965628262896,0.0,0.0,0.0443632014196224,1626.965628262896,0.0,0.0,0.0443632014196224,1024,0.0,98,Assisted_Takeoff,
0.376744495651623,36.9245238947518,3400,2018-04-02 06:26:55,1626.965628262896,0.0,0.0,0.044391701420534405,1626.965628262896,0.0,0.0,0.044391701420534405,1024,0.0,98,Assisted_Takeoff,
0.376744491320929,36.9245238903221,3500,2018-04-02 06:26:55,1626.965628262896,0.0,0.0,0.0446703014294496,1626.965628262896,0.0,0.0,0.0446703014294496,1024,0.0,98,Assisted_Takeoff,
0.376744487114149,36.9245238804397,3600,2018-04-02 06:26:55,1626.965628262896,0.0,0.0,0.0455307014569824,1626.965628262896,0.0,0.0,0.0455307014569824,1024,0.0,98,Assisted_Takeoff,
0.376744483657013,36.9245238499012,3700,2018-04-02 06:26:55,1626.965628262896,0.0,0.0,0.048606001555392006,1626.965628262896,0.0,0.0,0.048606001555392006,1024,0.0,98,Assisted_Takeoff,
0.376744480207104,36.9245238226148,3800,2018-04-02 06:26:55,1626.965628262896,0.0,0.0,0.0513786016441152,1626.965628262896,0.0,0.0,0.0513786016441152,1024,0.0,98,Assisted_Takeoff,
0.376744476648648,36.9245238047241,3900,2018-04-02 06:26:55,1626.965628262896,0.0,0.0,0.053173601701555204,1626.965628262896,0.0,0.0,0.053173601701555204,1024,0.0,98,Assisted_Takeoff,
0.376744474388419,36.9245237943021,4000,2018-04-02 06:26:55,1626.965628262896,0.0,0.0,0.054221301735081606,1626.965628262896,0.0,0.0,0.054221301735081606,1024,0.0,98,Assisted_Takeoff,
0.376744471161606,36.9245237849454,4100,2018-04-02 06:26:55,1626.965628262896,0.0,0.0,0.055132501764240005,1626.965628262896,0.0,0.0,0.055132501764240005,1024,0.0,98,Assisted_Takeoff,
0.376744466895134,36.9245237728329,4200,2018-04-02 06:26:55,1626.965628262896,0.0,0.0,0.0563199018022368,1626.965628262896,0.0,0.0,0.0563199018022368,1024,0.0,98,Assisted_Takeoff,
0.376744467245046,36.9245237808299,4300,2018-04-02 06:26:56,1626.965628262896,0.0,0.0,0.0554667017749344,1626.965628262896,0.0,0.0,0.0563199018022368,1024,0.0,98,Assisted_Takeoff,
0.37674446739985,36.9245237753403,4400,2018-04-02 06:26:56,1626.965628262896,0.0,0.0,0.0560629017940128,1626.965628262896,0.0,0.0,0.0563199018022368,1024,0.0,98,Assisted_Takeoff,
0.376744465513806,36.9245237461347,4500,2018-04-02 06:26:56,1626.965628262896,0.0,0.0,0.059170601893459206,1626.965628262896,0.0,0.0,0.059170601893459206,1024,0.0,98,Assisted_Takeoff,
0.376744465712018,36.9245237204553,4600,2018-04-02 06:26:56,1626.965628262896,0.0,0.0,0.0619601019827232,1626.965628262896,0.0,0.0,0.0619601019827232,1024,0.0,98,Assisted_Takeoff,
0.376744463648525,36.9245237034677,4700,2018-04-02 06:26:56,1626.965628262896,0.0,0.0,0.06375750204024,1626.965628262896,0.0,0.0,0.06375750204024,1024,0.0,98,Assisted_Takeoff,
0.376744462552888,36.9245236931367,4800,2018-04-02 06:26:56,1626.965628262896,0.0,0.0,0.0648572020754304,1626.965628262896,0.0,0.0,0.0648572020754304,1024,0.0,98,Assisted_Takeoff,
0.376744459618279,36.9245236842168,4900,2018-04-02 06:26:56,1626.965628262896,0.0,0.0,0.0657649021044768,1626.965628262896,0.0,0.0,0.0657649021044768,1024,0.0,98,Assisted_Takeoff,
0.376744458656785,36.9245236834706,5000,2018-04-02 06:26:56,1626.965628262896,0.0,0.0,0.0658257021064224,1626.965628262896,0.0,0.0,0.0658257021064224,1024,0.0,98,Assisted_Takeoff,
0.376744455035634,36.9245236802063,5100,2018-04-02 06:26:56,1626.965628262896,0.0,0.0,0.06610610211539521,1626.965628262896,0.0,0.0,0.06610610211539521,1024,0.0,98,Assisted_Takeoff,
0.376744453331111,36.9245236855315,5200,2018-04-02 06:26:57,1626.965628262896,0.0,0.0,0.0654891020956512,1626.965628262896,0.0,0.0,0.06610610211539521,1024,0.0,98,Assisted_Takeoff,
0.376744449309414,36.9245236856033,5300,2018-04-02 06:26:57,1626.965628262896,0.0,0.0,0.0654003020928096,1626.965628262896,0.0,0.0,0.06610610211539521,1024,0.0,98,Assisted_Takeoff,
0.376744447748093,36.9245236801806,5400,2018-04-02 06:26:57,1626.965628262896,0.0,0.0,0.065963502110832,1626.965628262896,0.0,0.0,0.06610610211539521,1246,0.0,98,Assisted_Takeoff,
0.376744443907102,36.9245236519819,5500,2018-04-02 06:26:57,1626.965628262896,0.0,0.0,0.06898440220750081,1626.965628262896,0.0,0.0,0.06898440220750081,1554,0.0,98,Assisted_Takeoff,
0.376744442944946,36.9245236268913,5600,2018-04-02 06:26:57,1626.965628262896,0.0,0.0,0.0717238022951616,1626.965628262896,0.0,0.0,0.0717238022951616,1684,0.0,98,Assisted_Takeoff,
0.376744440265749,36.924523609824,5700,2018-04-02 06:26:57,1626.965628262896,0.0,0.0,0.07355670235381441,1626.965628262896,0.0,0.0,0.07355670235381441,1684,0.0,98,Assisted_Takeoff,
0.376744441256199,36.9245235988228,5800,2018-04-02 06:26:57,1626.965628262896,0.0,0.0,0.07478320239306241,1626.965628262896,0.0,0.0,0.07478320239306241,1684,0.0,98,Assisted_Takeoff,
0.37674443809198,36.9245235885876,5900,2018-04-02 06:26:57,1626.965628262896,0.0,0.0,0.0758609024275488,1626.965628262896,0.0,0.0,0.0758609024275488,1684,0.0,98,Assisted_Takeoff,
0.376744456087965,36.9245235881267,6000,2018-04-02 06:26:57,1626.965628262896,0.0,0.0,0.0762108024387456,1626.965628262896,0.0,0.0,0.0762108024387456,1684,0.0,98,Assisted_Takeoff,
0.376744511226061,36.9245235976344,6100,2018-04-02 06:26:57,1626.965628262896,0.0,0.35999970196000003,0.076416502445328,1626.965628262896,0.0,0.35999970196000003,0.076416502445328,1684,0.0,98,P-GPS,
0.376744664383127,36.9245236289287,6200,2018-04-02 06:26:57,1626.965628262896,0.0,0.35999970196000003,0.07909400253100801,1626.965628262896,0.0,0.35999970196000003,0.07909400253100801,1684,0.0,98,P-GPS,
0.376744898490698,36.9245236704459,6300,2018-04-02 06:26:58,1626.965628262896,0.0,0.7199994039200001,0.090292002889344,1626.965628262896,0.0,0.7199994039200001,0.090292002889344,1684,0.0,98,P-GPS,Home Point Recorded. RTH Altitude:  45m.
0.376745184371287,36.9245237162927,6400,2018-04-02 06:26:58,1627.0656282660962,0.1000000032,0.7199994039200001,0.111492003567744,1627.0656282660962,0.1000000032,0.7199994039200001,0.111492003567744,1684,0.0,98,P-GPS,
0.37674548711886,36.924523740605,6500,2018-04-02 06:26:58,1627.265628272496,0.3000000096,0.7199994039200001,0.139743004471776,1627.265628272496,0.3000000096,0.7199994039200001,0.139743004471776,1684,0.0,98,P-GPS,
0.37674582901027,36.9245237799777,6600,2018-04-02 06:26:58,1627.365628275696,0.4000000128,0.7199994039200001,0.17361500555568002,1627.365628275696,0.4000000128,0.7199994039200001,0.17361500555568002,1684,0.0,98,P-GPS,
0.376746148825272,36.9245238246334,6700,2018-04-02 06:26:58,1627.5656282820962,0.6000000192,0.7199994039200001,0.206486006607552,1627.5656282820962,0.6000000192,0.7199994039200001,0.206486006607552,1684,0.0,98,P-GPS,
0.376746487534906,36.9245238581969,6800,2018-04-02 06:26:58,1627.865628291696,0.9000000288000001,0.7199994039200001,0.242522007760704,1627.865628291696,0.9000000288000001,0.7199994039200001,0.242522007760704,1684,0.0,98,P-GPS,
0.37674677912134,36.9245238546114,6900,2018-04-02 06:26:58,1628.165628301296,1.2000000384,0.7199994039200001,0.27451300878441603,1628.165628301296,1.2000000384,0.7199994039200001,0.27451300878441603,1684,0.0,98,P-GPS,
0.376747019525271,36.9245238200437,7000,2018-04-02 06:26:58,1628.5656283140959,1.6000000512,0.35999970196000003,0.30151500964848,1628.5656283140959,1.6000000512,0.7199994039200001,0.30151500964848,1684,0.0,98,P-GPS,
0.376747217402793,36.9245237835568,7100,2018-04-02 06:26:58,1628.9656283268962,2.000000064,0.7199994039200001,0.323888010364416,1628.9656283268962,2.000000064,0.7199994039200001,0.323888010364416,1684,0.0,98,P-GPS,
0.376747426926336,36.9245237754725,7200,2018-04-02 06:26:59,1629.465628342896,2.50000008,0.35999970196000003,0.34703001110496007,1629.465628342896,2.50000008,0.7199994039200001,0.34703001110496007,1684,0.0,98,P-GPS,
0.376747625197942,36.9245237619243,7300,2018-04-02 06:26:59,1629.965628358896,3.0000000960000004,0.35999970196000003,0.36904801180953606,1629.965628358896,3.0000000960000004,0.7199994039200001,0.36904801180953606,1684,0.0,98,P-GPS,
0.376747819155189,36.924523718791,7400,2018-04-02 06:26:59,1630.465628374896,3.500000112,0.35999970196000003,0.39109801251513604,1630.465628374896,3.500000112,0.7199994039200001,0.39109801251513604,1684,0.0,98,P-GPS,
0.376747993816189,36.9245236821762,7500,2018-04-02 06:26:59,1630.9656283908962,4.000000128,0.35999970196000003,0.410919013149408,1630.9656283908962,4.000000128,0.7199994039200001,0.410919013149408,1684,0.0,98,P-GPS,
0.376748147900578,36.9245236451878,7600,2018-04-02 06:26:59,1631.465628406896,4.500000144,0.35999970196000003,0.42849001371168005,1631.465628406896,4.500000144,0.7199994039200001,0.42849001371168005,1684,0.0,98,P-GPS,
0.376748263025259,36.9245236130364,7700,2018-04-02 06:26:59,1631.965628422896,5.00000016,0.0,0.44170301413449603,1631.965628422896,5.00000016,0.7199994039200001,0.44170301413449603,1684,0.0,98,P-GPS,
0.376748369973114,36.9245235867274,7800,2018-04-02 06:26:59,1632.4656284388961,5.5000001759999995,0.35999970196000003,0.453916014525312,1632.4656284388961,5.5000001759999995,0.7199994039200001,0.453916014525312,1684,0.0,98,P-GPS,
0.376748545469303,36.9245235426349,8000,2018-04-02 06:26:59,1633.465628470896,6.500000208,0.35999970196000003,0.473978015167296,1633.465628470896,6.500000208,0.7199994039200001,0.473978015167296,1684,0.0,98,P-GPS,
0.376748594933289,36.9245235273308,8100,2018-04-02 06:26:59,1633.965628486896,7.000000224,0.0,0.479688015350016,1633.965628486896,7.000000224,0.7199994039200001,0.479688015350016,1684,0.0,98,P-GPS,
0.376748615236322,36.9245235113143,8200,2018-04-02 06:27:00,1634.4656285028962,7.50000024,0.0,0.482219015431008,1634.4656285028962,7.50000024,0.7199994039200001,0.482219015431008,1684,0.0,98,P-GPS,
0.376748658166991,36.9245235480115,8400,2018-04-02 06:27:00,1635.365628531696,8.400000268800001,0.0,0.48623601555955204,1635.365628531696,8.400000268800001,0.7199994039200001,0.48623601555955204,1684,0.0,98,P-GPS,
0.376748702016917,36.9245235894848,8500,2018-04-02 06:27:00,1635.8656285476961,8.9000002848,0.35999970196000003,0.49032001569024003,1635.8656285476961,8.9000002848,0.7199994039200001,0.49032001569024003,1684,0.0,98,P-GPS,
0.376748759270972,36.9245236144475,8600,2018-04-02 06:27:00,1636.3656285636962,9.4000003008,0.35999970196000003,0.496201015878432,1636.3656285636962,9.4000003008,0.7199994039200001,0.496201015878432,1684,0.0,98,P-GPS,
0.376748818120088,36.9245235893017,8700,2018-04-02 06:27:00,1636.865628579696,9.900000316800002,0.35999970196000003,0.503087016098784,1636.865628579696,9.900000316800002,0.7199994039200001,0.503087016098784,1684,0.0,98,P-GPS,
0.376748881933516,36.9245235647047,8800,2018-04-02 06:27:00,1637.2656285924961,10.3000003296,0.0,0.510514016336448,1637.2656285924961,10.3000003296,0.7199994039200001,0.510514016336448,1684,0.0,98,P-GPS,
0.376748906449333,36.9245235814862,8900,2018-04-02 06:27:00,1637.7656286084962,10.8000003456,0.0,0.512929016413728,1637.7656286084962,10.8000003456,0.7199994039200001,0.512929016413728,1684,0.0,98,P-GPS,
0.376748895301006,36.9245236745229,9000,2018-04-02 06:27:00,1638.2656286244962,11.3000003616,0.0,0.510271016328672,1638.2656286244962,11.3000003616,0.7199994039200001,0.512929016413728,1684,0.0,98,P-GPS,
0.376748832420269,36.9245238080527,9100,2018-04-02 06:27:00,1638.765628640496,11.8000003776,0.0,0.501618016051776,1638.765628640496,11.8000003776,0.7199994039200001,0.512929016413728,1684,0.0,98,P-GPS,
0.376748738967532,36.924523951474,9200,2018-04-02 06:27:01,1639.165628653296,12.200000390400001,0.0,0.48988901567644805,1639.165628653296,12.200000390400001,0.7199994039200001,0.512929016413728,1684,0.0,98,P-GPS,
0.376748646094114,36.9245240270049,9300,2018-04-02 06:27:01,1639.665628669296,12.700000406400001,0.0,0.47905201532966407,1639.665628669296,12.700000406400001,0.7199994039200001,0.512929016413728,1684,0.0,98,P-GPS,
0.37674858959525,36.9245240807898,9400,2018-04-02 06:27:01,1640.165628685296,13.2000004224,0.0,0.47248201511942406,1640.165628685296,13.2000004224,0.7199994039200001,0.512929016413728,1684,0.0,98,P-GPS,
0.376748578188814,36.9245241614715,9500,2018-04-02 06:27:01,1640.665628701296,13.7000004384,0.0,0.47091101506915206,1640.665628701296,13.7000004384,0.7199994039200001,0.512929016413728,1684,0.0,98,P-GPS,
0.376748516469565,36.9245243504569,9700,2018-04-02 06:27:01,1641.6656287332962,14.7000004704,0.0,0.46400801484825605,1641.6656287332962,14.7000004704,0.7199994039200001,0.512929016413728,1684,0.0,98,P-GPS,
0.376748333545433,36.924524636193,9900,2018-04-02 06:27:01,1642.7656287684963,15.8000005056,0.503999582744,0.4454900142556801,1642.7656287684963,15.8000005056,0.7199994039200001,0.512929016413728,1684,0.0,98,P-GPS,
0.376748221992134,36.9245248095318,10000,2018-04-02 06:27:01,1643.2656287844961,16.3000005216,0.35999970196000003,0.43540201393286404,1643.2656287844961,16.3000005216,0.7199994039200001,0.512929016413728,1684,0.0,98,P-GPS,
0.376748125383472,36.9245250129758,10100,2018-04-02 06:27:02,1643.865628803696,16.9000005408,0.0,0.42858001371456,1643.865628803696,16.9000005408,0.7199994039200001,0.512929016413728,1684,0.0,98,P-GPS,
0.376748073841795,36.9245252664677,10300,2018-04-02 06:27:02,1644.965628838896,18.000000576,0.0,0.42939801374073605,1644.965628838896,18.000000576,0.7199994039200001,0.512929016413728,1684,0.0,98,P-GPS,
0.376748101302246,36.9245253655287,10400,2018-04-02 06:27:02,1645.4656288548963,18.500000592000003,0.0,0.435317013930144,1645.4656288548963,18.500000592000003,0.7199994039200001,0.512929016413728,1684,0.0,98,P-GPS,
0.376748162215822,36.9245254679912,10500,2018-04-02 06:27:02,1646.065628874096,19.1000006112,0.0,0.44511501424368,1646.065628874096,19.1000006112,0.7199994039200001,0.512929016413728,1684,0.0,98,P-GPS,
0.376748317314121,36.9245256107776,10700,2018-04-02 06:27:02,1647.1656289092962,20.200000646400003,0.0,0.46644501492624,1647.1656289092962,20.200000646400003,0.7199994039200001,0.512929016413728,1684,0.0,98,P-GPS,
0.376748387115948,36.9245256553921,10800,2018-04-02 06:27:02,1647.665628925296,20.7000006624,0.0,0.47539401521260805,1647.665628925296,20.7000006624,0.7199994039200001,0.512929016413728,1684,0.0,98,P-GPS,
0.376748491854413,36.9245257170049,10900,2018-04-02 06:27:02,1648.165628941296,21.200000678400002,0.0,0.48864501563664003,1648.165628941296,21.200000678400002,0.7199994039200001,0.512929016413728,1684,0.0,98,P-GPS,
0.376748552354771,36.9245257562293,11000,2018-04-02 06:27:02,1648.765628960496,21.8000006976,0.0,0.49644001588608005,1648.765628960496,21.8000006976,0.7199994039200001,0.512929016413728,1684,0.0,98,P-GPS,
0.376748552938161,36.9245258017895,11100,2018-04-02 06:27:02,1649.2656289764961,22.300000713600003,0.0,0.49821701594294404,1649.2656289764961,22.300000713600003,0.7199994039200001,0.512929016413728,1684,0.0,98,P-GPS,
0.37674854636739,36.9245258359592,11200,2018-04-02 06:27:03,1649.7656289924962,22.8000007296,0.0,0.498849015963168,1649.7656289924962,22.8000007296,0.7199994039200001,0.512929016413728,1684,0.0,98,P-GPS,
0.376748578682639,36.9245259184941,11400,2018-04-02 06:27:03,1650.865629027696,23.9000007648,0.0,0.505484016175488,1650.865629027696,23.9000007648,0.7199994039200001,0.512929016413728,1684,0.0,98,P-GPS,
0.37674858102312,36.9245260154097,11600,2018-04-02 06:27:03,1651.865629059696,24.9000007968,0.0,0.50974501631184,1651.865629059696,24.9000007968,0.7199994039200001,0.512929016413728,1684,0.0,98,P-GPS,
0.376748566187996,36.9245260764095,11700,2018-04-02 06:27:03,1652.3656290756962,25.400000812800002,0.0,0.510859016347488,1652.3656290756962,25.400000812800002,0.7199994039200001,0.512929016413728,1684,0.0,98,P-GPS,
0.376748574265078,36.9245261139491,11800,2018-04-02 06:27:03,1652.965629094896,26.000000832,0.0,0.513342016426944,1652.965629094896,26.000000832,0.7199994039200001,0.513342016426944,1684,0.0,98,P-GPS,
0.376748612114187,36.9245261177354,11900,2018-04-02 06:27:03,1653.4656291108963,26.500000848000003,0.0,0.517369016555808,1653.4656291108963,26.500000848000003,0.7199994039200001,0.517369016555808,1684,0.0,98,P-GPS,
0.376748642106869,36.9245261123857,12000,2018-04-02 06:27:03,1653.9656291268961,27.000000864,0.0,0.52019501664624,1653.9656291268961,27.000000864,0.7199994039200001,0.52019501664624,1684,0.0,98,P-GPS,
0.376748675316949,36.924526089848,12100,2018-04-02 06:27:03,1654.565629146096,27.600000883200003,0.0,0.522611016723552,1654.565629146096,27.600000883200003,0.7199994039200001,0.522611016723552,1684,0.0,98,P-GPS,
0.376748689955846,36.9245260659884,12200,2018-04-02 06:27:03,1655.0656291620962,28.1000008992,0.0,0.52309001673888,1655.0656291620962,28.1000008992,0.7199994039200001,0.52309001673888,1684,0.0,98,P-GPS,
0.376748711172843,36.9245260891789,12300,2018-04-02 06:27:04,1655.565629178096,28.600000915200003,0.0,0.526259016840288,1655.565629178096,28.600000915200003,0.7199994039200001,0.526259016840288,1684,0.0,98,P-GPS,
0.376748729273812,36.9245260883259,12400,2018-04-02 06:27:04,1656.065629194096,29.1000009312,0.0,0.52808001689856,1656.065629194096,29.1000009312,0.7199994039200001,0.52808001689856,1684,0.0,98,P-GPS,
0.376748716795453,36.9245259959468,12600,2018-04-02 06:27:04,1657.065629226096,30.1000009632,0.0,0.52293001673376,1657.065629226096,30.1000009632,0.7199994039200001,0.52808001689856,1684,0.0,98,P-GPS,
0.376748739666135,36.9245259391374,12700,2018-04-02 06:27:04,1657.665629245296,30.700000982400002,0.0,0.523013016736416,1657.665629245296,30.700000982400002,0.7199994039200001,0.52808001689856,1684,0.0,98,P-GPS,
0.376748736422274,36.9245259036673,12800,2018-04-02 06:27:04,1658.165629261296,31.2000009984,0.0,0.521283016681056,1658.165629261296,31.2000009984,0.7199994039200001,0.52808001689856,1684,0.0,98,P-GPS,
0.376748703813905,36.9245258044548,13000,2018-04-02 06:27:04,1659.165629293296,32.2000010304,0.0,0.514108016451456,1659.165629293296,32.2000010304,0.7199994039200001,0.52808001689856,1684,0.0,98,P-GPS,
0.376748726626776,36.9245257336916,13100,2018-04-02 06:27:04,1659.6656293092963,32.700001046400004,0.35999970196000003,0.51394501644624,1659.6656293092963,32.700001046400004,0.7199994039200001,0.52808001689856,1684,0.0,98,P-GPS,
0.376748743840244,36.9245256163357,13200,2018-04-02 06:27:05,1660.165629325296,33.200001062400005,0.35999970196000003,0.5117750163768,1660.165629325296,33.200001062400005,0.7199994039200001,0.52808001689856,1684,0.0,98,P-GPS,
0.376748831938657,36.9245253255709,13500,2018-04-02 06:27:05,1661.765629376496,34.800001113600004,0.0,0.512756016408192,1661.765629376496,34.800001113600004,0.7199994039200001,0.52808001689856,1684,0.0,98,P-GPS,
0.376748817855873,36.9245252443231,13600,2018-04-02 06:27:05,1662.2656293924963,35.300001129600005,0.0,0.509222016295104,1662.2656293924963,35.300001129600005,0.7199994039200001,0.52808001689856,1684,0.0,98,P-GPS,
0.376748839058621,36.924525167238,13700,2018-04-02 06:27:05,1662.7656294084961,35.8000011456,0.0,0.5097680163125761,1662.7656294084961,35.8000011456,0.7199994039200001,0.52808001689856,1684,0.0,98,P-GPS,
0.376748832257832,36.9245250824007,13800,2018-04-02 06:27:05,1663.265629424496,36.3000011616,0.0,0.5072500162320001,1663.265629424496,36.3000011616,0.7199994039200001,0.52808001689856,1684,0.0,98,P-GPS,
0.376748778223617,36.9245250147115,13900,2018-04-02 06:27:05,1663.765629440496,36.8000011776,0.0,0.500029016000928,1663.765629440496,36.8000011776,0.7199994039200001,0.52808001689856,1684,0.0,98,P-GPS,
0.376748706717013,36.9245249347496,14000,2018-04-02 06:27:05,1664.265629456496,37.3000011936,0.0,0.49076101570435204,1664.265629456496,37.3000011936,0.7199994039200001,0.52808001689856,1684,0.0,98,P-GPS,
0.376748655028979,36.924524841726,14100,2018-04-02 06:27:05,1664.7656294724961,37.800001209600005,0.35999970196000003,0.48359801547513603,1664.7656294724961,37.800001209600005,0.7199994039200001,0.52808001689856,1684,0.0,98,P-GPS,
0.376748596798265,36.9245247230035,14200,2018-04-02 06:27:06,1665.3656294916962,38.4000012288,0.35999970196000003,0.47558401521868804,1665.3656294916962,38.4000012288,0.7199994039200001,0.52808001689856,1684,0.0,98,P-GPS,
0.376748534264387,36.9245245804258,14300,2018-04-02 06:27:06,1665.8656295076962,38.9000012448,0.503999582744,0.467212014950784,1665.8656295076962,38.9000012448,0.7199994039200001,0.52808001689856,1684,0.0,98,P-GPS,
0.376748449939892,36.9245244403476,14400,2018-04-02 06:27:06,1666.365629523696,39.4000012608,0.503999582744,0.45693001462176003,1666.365629523696,39.4000012608,0.7199994039200001,0.52808001689856,1684,0.0,98,P-GPS,
0.376748346554868,36.9245243429625,14500,2018-04-02 06:27:06,1666.8656295396963,39.900001276800005,0.35999970196000003,0.44509901424316806,1666.8656295396963,39.900001276800005,0.7199994039200001,0.52808001689856,1684,0.0,98,P-GPS,
0.3767482268909,36.9245243240682,14600,2018-04-02 06:27:06,1667.3656295556962,40.400001292800006,0.35999970196000003,0.43175701381622406,1667.3656295556962,40.400001292800006,0.7199994039200001,0.52808001689856,1684,0.0,98,P-GPS,
0.376748007046686,36.9245243411548,14800,2018-04-02 06:27:06,1668.4656295908962,41.500001328,0.35999970196000003,0.407347013035104,1668.4656295908962,41.500001328,0.7199994039200001,0.52808001689856,1684,0.0,98,P-GPS,
0.376747944036285,36.9245243552849,14900,2018-04-02 06:27:06,1668.965629606896,42.000001344,0.0,0.400378012812096,1668.965629606896,42.000001344,0.7199994039200001,0.52808001689856,1684,0.0,98,P-GPS,
0.376747882000507,36.9245243544568,15000,2018-04-02 06:27:06,1669.465629622896,42.50000136,0.0,0.393479012591328,1669.465629622896,42.50000136,0.7199994039200001,0.52808001689856,1684,0.0,98,P-GPS,
0.376747885032466,36.924524326446,15100,2018-04-02 06:27:06,1670.0656296420962,43.1000013792,0.0,0.3937500126,1670.0656296420962,43.1000013792,0.7199994039200001,0.52808001689856,1684,0.0,98,P-GPS,
0.376747875118703,36.9245243054024,15200,2018-04-02 06:27:07,1670.565629658096,43.6000013952,0.0,0.392613012563616,1670.565629658096,43.6000013952,0.7199994039200001,0.52808001689856,1684,0.0,98,P-GPS,
0.376747886961562,36.9245242853073,15300,2018-04-02 06:27:07,1671.065629674096,44.100001411200004,0.0,0.39391101260515204,1671.065629674096,44.100001411200004,0.7199994039200001,0.52808001689856,1684,0.0,98,P-GPS,
0.376747887318802,36.9245242746375,15400,2018-04-02 06:27:07,1671.565629690096,44.600001427200006,0.0,0.39394501260624004,1671.565629690096,44.600001427200006,0.7199994039200001,0.52808001689856,1684,0.0,98,P-GPS,
0.376747879469905,36.9245242763071,15500,2018-04-02 06:27:07,1672.0656297060962,45.1000014432,0.0,0.393073012578336,1672.0656297060962,45.1000014432,0.7199994039200001,0.52808001689856,1684,0.0,98,P-GPS,
0.376747856769803,36.9245242773761,15600,2018-04-02 06:27:07,1672.565629722096,45.6000014592,0.0,0.390549012497568,1672.565629722096,45.6000014592,0.7199994039200001,0.52808001689856,1684,0.0,98,P-GPS,
0.37674781648047,36.9245242849401,15700,2018-04-02 06:27:07,1673.165629741296,46.2000014784,0.0,0.386072012354304,1673.165629741296,46.2000014784,0.7199994039200001,0.52808001689856,1684,0.0,98,P-GPS,
0.376747780016963,36.9245242941523,15800,2018-04-02 06:27:07,1673.665629757296,46.7000014944,0.0,0.3820250122248,1673.665629757296,46.7000014944,0.7199994039200001,0.52808001689856,1684,0.0,98,P-GPS,
0.376747725753748,36.9245243051053,15900,2018-04-02 06:27:07,1674.1656297732961,47.2000015104,0.0,0.376004012032128,1674.1656297732961,47.2000015104,0.7199994039200001,0.52808001689856,1684,0.0,98,P-GPS,
0.376747672729169,36.9245243079012,16000,2018-04-02 06:27:07,1674.6656297892962,47.70000152640001,0.0,0.370111011843552,1674.6656297892962,47.70000152640001,0.7199994039200001,0.52808001689856,1684,0.0,98,P-GPS,
0.37674761514515,36.9245243490126,16100,2018-04-02 06:27:07,1675.165629805296,48.20000154240001,0.0,0.363798011641536,1675.165629805296,48.20000154240001,0.7199994039200001,0.52808001689856,1684,0.0,98,P-GPS,
0.376747564183403,36.9245243811405,16200,2018-04-02 06:27:08,1675.765629824496,48.800001561600006,0.0,0.358244011463808,1675.765629824496,48.800001561600006,0.7199994039200001,0.52808001689856,1684,0.0,98,P-GPS,
0.376747513859801,36.9245244028811,16300,2018-04-02 06:27:08,1676.265629840496,49.3000015776,0.0,0.35274901128796804,1676.265629840496,49.3000015776,0.7199994039200001,0.52808001689856,1684,0.0,98,P-GPS,
0.376747466251834,36.9245244142977,16400,2018-04-02 06:27:08,1676.765629856496,49.8000015936,0.0,0.347518011120576,1676.765629856496,49.8000015936,0.7199994039200001,0.52808001689856,1684,0.0,98,P-GPS,
0.376747432517802,36.9245244652968,16600,2018-04-02 06:27:08,1677.765629888496,50.800001625600004,0.0,0.344093011010976,1677.765629888496,50.800001625600004,0.7199994039200001,0.52808001689856,1684,0.0,98,P-GPS,
0.376747393021725,36.924524477389,16700,2018-04-02 06:27:08,1678.265629904496,51.300001641600005,0.0,0.339801010873632,1678.265629904496,51.300001641600005,0.7199994039200001,0.52808001689856,1684,0.0,98,P-GPS,
0.376747346140247,36.924524490161,16800,2018-04-02 06:27:08,1678.8656299236961,51.90000166080001,0.0,0.334704010710528,1678.8656299236961,51.90000166080001,0.7199994039200001,0.52808001689856,1684,0.0,98,P-GPS,
0.376747295834152,36.9245245351229,16900,2018-04-02 06:27:08,1679.365629939696,52.40000167680001,0.0,0.32954501054544005,1679.365629939696,52.40000167680001,0.7199994039200001,0.52808001689856,1684,0.0,98,P-GPS,
0.376747242099978,36.9245246583432,17100,2018-04-02 06:27:08,1680.365629971696,53.400001708800005,0.0,0.32515601040499204,1680.365629971696,53.400001708800005,0.7199994039200001,0.52808001689856,1684,0.0,98,P-GPS,
0.376747215336705,36.9245247381539,17200,2018-04-02 06:27:09,1680.8656299876961,53.900001724800006,0.0,0.323534010353088,1680.8656299876961,53.900001724800006,0.7199994039200001,0.52808001689856,1684,0.0,98,P-GPS,
0.376747190190883,36.9245248274075,17300,2018-04-02 06:27:09,1681.365630003696,54.40000174080001,0.0,0.322554010321728,1681.365630003696,54.40000174080001,0.7199994039200001,0.52808001689856,1684,0.0,98,P-GPS,
0.376747179429515,36.9245248828696,17400,2018-04-02 06:27:09,1681.965630022896,55.00000176,0.0,0.322638010324416,1681.965630022896,55.00000176,0.7199994039200001,0.52808001689856,1684,0.0,98,P-GPS,
0.376747211070385,36.9245249224414,17500,2018-04-02 06:27:09,1682.465630038896,55.500001776000005,0.0,0.32703301046505606,1682.465630038896,55.500001776000005,0.7199994039200001,0.52808001689856,1684,0.0,98,P-GPS,
0.376747232862019,36.9245249407938,17600,2018-04-02 06:27:09,1682.965630054896,56.000001792,0.0,0.32985501055536004,1682.965630054896,56.000001792,0.7199994039200001,0.52808001689856,1684,0.0,98,P-GPS,
0.376747261984908,36.924524968235,17700,2018-04-02 06:27:09,1683.4656300708962,56.500001808,0.0,0.33371201067878403,1683.4656300708962,56.500001808,0.7199994039200001,0.52808001689856,1684,0.0,98,P-GPS,
0.376747276218526,36.924524983323,17800,2018-04-02 06:27:09,1683.965630086896,57.000001824,0.0,0.335646010740672,1683.965630086896,57.000001824,0.7199994039200001,0.52808001689856,1684,0.0,98,P-GPS,
0.376747280500927,36.9245249803314,17900,2018-04-02 06:27:09,1684.5656301060963,57.600001843200005,0.0,0.33603001075296,1684.5656301060963,57.600001843200005,0.7199994039200001,0.52808001689856,1684,0.0,98,P-GPS,
0.376747277519653,36.9245249710338,18000,2018-04-02 06:27:09,1685.065630122096,58.100001859200006,0.0,0.33546401073484805,1685.065630122096,58.100001859200006,0.7199994039200001,0.52808001689856,1684,0.0,98,P-GPS,
0.37674727445716,36.9245249970053,18100,2018-04-02 06:27:09,1685.565630138096,58.60000187520001,0.0,0.335822010746304,1685.565630138096,58.60000187520001,0.7199994039200001,0.52808001689856,1684,0.0,98,P-GPS,
0.376747268494409,36.924524999256,18200,2018-04-02 06:27:10,1686.0656301540962,59.10000189120001,0.0,0.33524001072768,1686.0656301540962,59.10000189120001,0.7199994039200001,0.52808001689856,1684,0.0,98,P-GPS,
0.376747308580187,36.9245249942056,18300,2018-04-02 06:27:10,1686.565630170096,59.6000019072,0.0,0.33943001086176006,1686.565630170096,59.6000019072,0.7199994039200001,0.52808001689856,1684,0.0,97,P-GPS,
0.37674732126434,36.9245249889713,18400,2018-04-02 06:27:10,1687.1656301892963,60.2000019264,0.0,0.34066201090118403,1687.1656301892963,60.2000019264,0.7199994039200001,0.52808001689856,1684,0.0,97,P-GPS,
0.376747326482689,36.9245250448892,18500,2018-04-02 06:27:10,1687.665630205296,60.7000019424,0.0,0.34274701096790405,1687.665630205296,60.7000019424,0.7199994039200001,0.52808001689856,1684,0.0,97,P-GPS,
0.376747323533984,36.9245250724768,18600,2018-04-02 06:27:10,1688.165630221296,61.2000019584,0.0,0.343221010983072,1688.165630221296,61.2000019584,0.7199994039200001,0.52808001689856,1684,0.0,97,P-GPS,
0.376747321162766,36.9245250963504,18700,2018-04-02 06:27:10,1688.665630237296,61.7000019744,0.0,0.343671010997472,1688.665630237296,61.7000019744,0.7199994039200001,0.52808001689856,1684,0.0,97,P-GPS,
0.376747307322824,36.924525097115,18800,2018-04-02 06:27:10,1689.265630256496,62.300001993600006,0.0,0.342212010950784,1689.265630256496,62.300001993600006,0.7199994039200001,0.52808001689856,1684,0.0,97,P-GPS,
0.376747341896726,36.9245250918484,18900,2018-04-02 06:27:10,1689.765630272496,62.80000200960001,0.0,0.345759011064288,1689.765630272496,62.80000200960001,0.7199994039200001,0.52808001689856,1684,0.0,97,P-GPS,
0.376747353018388,36.924525069028,19000,2018-04-02 06:27:10,1690.2656302884961,63.30000202560001,0.0,0.346287011081184,1690.2656302884961,63.30000202560001,0.7199994039200001,0.52808001689856,1684,0.0,97,P-GPS,
0.376747367366404,36.9245250952206,19100,2018-04-02 06:27:10,1690.7656303044962,63.8000020416,0.0,0.348589011154848,1690.7656303044962,63.8000020416,0.7199994039200001,0.52808001689856,1684,0.0,97,P-GPS,
0.376747350313746,36.9245251120596,19200,2018-04-02 06:27:11,1691.265630320496,64.3000020576,0.0,0.34726501111248,1691.265630320496,64.3000020576,0.7199994039200001,0.52808001689856,1684,0.0,97,P-GPS,
0.376747337178513,36.924525156809,19300,2018-04-02 06:27:11,1691.7656303364963,64.8000020736,0.0,0.347248011111936,1691.7656303364963,64.8000020736,0.7199994039200001,0.52808001689856,1684,0.0,97,P-GPS,
0.376747319223493,36.9245251828589,19400,2018-04-02 06:27:11,1692.365630355696,65.40000209280001,0.0,0.346179011077728,1692.365630355696,65.40000209280001,0.7199994039200001,0.52808001689856,1684,0.0,97,P-GPS,
0.376747330205312,36.9245252139169,19500,2018-04-02 06:27:11,1692.865630371696,65.90000210880001,0.0,0.348377011148064,1692.865630371696,65.90000210880001,0.7199994039200001,0.52808001689856,1684,0.0,97,P-GPS,
0.376747321048775,36.9245252381154,19600,2018-04-02 06:27:11,1693.3656303876962,66.40000212480001,0.0,0.348234011143488,1693.3656303876962,66.40000212480001,0.7199994039200001,0.52808001689856,1684,0.0,97,P-GPS,
0.376747286395283,36.9245252983321,19700,2018-04-02 06:27:11,1693.865630403696,66.9000021408,0.0,0.346736011095552,1693.865630403696,66.9000021408,0.7199994039200001,0.52808001689856,1684,0.0,97,P-GPS,
0.37674723688224,36.9245253210748,19800,2018-04-02 06:27:11,1694.365630419696,67.4000021568,0.0,0.342406010956992,1694.365630419696,67.4000021568,0.7199994039200001,0.52808001689856,1684,0.0,97,P-GPS,
0.37674720795049,36.9245253058824,19900,2018-04-02 06:27:11,1694.8656304356962,67.9000021728,0.0,0.33880501084176,1694.8656304356962,67.9000021728,0.7199994039200001,0.52808001689856,1684,0.0,97,P-GPS,
0.376747160576001,36.924525281443,20000,2018-04-02 06:27:11,1695.465630454896,68.500002192,0.0,0.332926010653632,1695.465630454896,68.500002192,0.7199994039200001,0.52808001689856,1684,0.0,97,P-GPS,
0.376747138441986,36.9245252739749,20100,2018-04-02 06:27:11,1695.9656304708963,69.000002208,0.0,0.330329010570528,1695.9656304708963,69.000002208,0.7199994039200001,0.52808001689856,1684,0.0,97,P-GPS,
0.376747093228442,36.9245252507908,20200,2018-04-02 06:27:12,1696.465630486896,69.500002224,0.0,0.324724010391168,1696.465630486896,69.500002224,0.7199994039200001,0.52808001689856,1684,0.0,97,P-GPS,
0.376747041601475,36.9245252348275,20300,2018-04-02 06:27:12,1696.9656305028961,70.00000224,0.35999970196000003,0.31872101019907206,1696.9656305028961,70.00000224,0.7199994039200001,0.52808001689856,1684,0.0,97,P-GPS,
0.376746963583741,36.9245251956288,20400,2018-04-02 06:27:12,1697.465630518896,70.500002256,0.35999970196000003,0.309084009890688,1697.465630518896,70.500002256,0.7199994039200001,0.52808001689856,1684,0.0,97,P-GPS,
0.376746800746873,36.9245251066388,20600,2018-04-02 06:27:12,1698.465630550896,71.500002288,0.35999970196000003,0.2887250092392,1698.465630550896,71.500002288,0.7199994039200001,0.52808001689856,1684,0.0,97,P-GPS,
0.376746746772911,36.9245251268773,20700,2018-04-02 06:27:12,1698.965630566896,72.000002304,0.35999970196000003,0.28380600908179204,1698.965630566896,72.000002304,0.7199994039200001,0.52808001689856,1684,0.0,97,P-GPS,
0.376746679148619,36.92452512209,20800,2018-04-02 06:27:12,1699.4656305828962,72.50000232,0.35999970196000003,0.276556008849792,1699.4656305828962,72.50000232,0.7199994039200001,0.52808001689856,1684,0.0,97,P-GPS,
0.376746607493419,36.9245251314291,20900,2018-04-02 06:27:12,1700.065630602096,73.1000023392,0.35999970196000003,0.269461008622752,1700.065630602096,73.1000023392,0.7199994039200001,0.52808001689856,1684,0.0,97,P-GPS,
0.376746533507305,36.9245251197095,21000,2018-04-02 06:27:12,1700.5656306180963,73.6000023552,0.0,0.261317008362144,1700.5656306180963,73.6000023552,0.7199994039200001,0.52808001689856,1684,0.0,97,P-GPS,
0.376746484390482,36.9245251131072,21200,2018-04-02 06:27:13,1701.565630650096,74.6000023872,0.0,0.25596600819091203,1701.565630650096,74.6000023872,0.7199994039200001,0.52808001689856,1684,0.0,97,P-GPS,
0.376746491263839,36.924525077884,21300,2018-04-02 06:27:13,1702.065630666096,75.10000240320001,0.0,0.255262008168384,1702.065630666096,75.10000240320001,0.7199994039200001,0.52808001689856,1684,0.0,97,P-GPS,
0.376746489553973,36.9245250317521,21400,2018-04-02 06:27:13,1702.565630682096,75.60000241920001,0.0,0.25331000810592,1702.565630682096,75.60000241920001,0.7199994039200001,0.52808001689856,1684,0.0,97,P-GPS,
0.376746529435991,36.9245249820987,21600,2018-04-02 06:27:13,1703.6656307172962,76.7000024544,0.0,0.255714008182848,1703.6656307172962,76.7000024544,0.7199994039200001,0.52808001689856,1684,0.0,97,P-GPS,
0.376746548873811,36.9245249997506,21700,2018-04-02 06:27:13,1704.1656307332962,77.20000247040001,0.0,0.25838300826825605,1704.1656307332962,77.20000247040001,0.7199994039200001,0.52808001689856,1684,0.0,97,P-GPS,
0.376746554418358,36.9245249916656,21800,2018-04-02 06:27:13,1704.665630749296,77.70000248640001,0.0,0.25868500827792,1704.665630749296,77.70000248640001,0.7199994039200001,0.52808001689856,1684,0.0,97,P-GPS,
0.376746535493803,36.924525012543,21900,2018-04-02 06:27:13,1705.165630765296,78.20000250240001,0.0,0.257428008237696,1705.165630765296,78.20000250240001,0.7199994039200001,0.52808001689856,1684,0.0,97,P-GPS,
0.376746514028469,36.9245250263594,22000,2018-04-02 06:27:13,1705.6656307812962,78.70000251840001,0.0,0.2556750081816,1705.6656307812962,78.70000251840001,0.7199994039200001,0.52808001689856,1684,0.0,97,P-GPS,
0.376746514193959,36.924525062099,22100,2018-04-02 06:27:13,1706.265630800496,79.30000253760001,0.0,0.257037008225184,1706.265630800496,79.30000253760001,0.7199994039200001,0.52808001689856,1684,0.0,97,P-GPS,
0.376746516746647,36.9245250905128,22200,2018-04-02 06:27:14,1706.7656308164962,79.80000255360001,0.0,0.25841000826912003,1706.7656308164962,79.80000255360001,0.7199994039200001,0.52808001689856,1684,0.0,97,P-GPS,
0.376746512830036,36.9245251000063,22300,2018-04-02 06:27:14,1707.265630832496,80.30000256960001,0.0,0.25838100826819205,1707.265630832496,80.30000256960001,0.7199994039200001,0.52808001689856,1684,0.0,97,P-GPS,
0.376746562694314,36.9245251094741,22500,2018-04-02 06:27:14,1708.2656308644962,81.3000026016,0.0,0.26393500844592,1708.2656308644962,81.3000026016,0.7199994039200001,0.52808001689856,1684,0.0,97,P-GPS,
0.376746579578225,36.9245251118118,22600,2018-04-02 06:27:14,1708.765630880496,81.8000026176,0.0,0.265783008505056,1708.765630880496,81.8000026176,0.7199994039200001,0.52808001689856,1684,0.0,97,P-GPS,
0.376746570276451,36.9245251692266,22700,2018-04-02 06:27:14,1709.3656308996963,82.4000026368,0.0,0.26715500854896,1709.3656308996963,82.4000026368,0.7199994039200001,0.52808001689856,1684,0.0,97,P-GPS,
0.376746521409289,36.9245252130516,22800,2018-04-02 06:27:14,1709.865630915696,82.9000026528,0.0,0.264038008449216,1709.865630915696,82.9000026528,0.7199994039200001,0.52808001689856,1684,0.0,97,P-GPS,
0.376746440830623,36.9245252564423,22900,2018-04-02 06:27:14,1710.3656309316962,83.4000026688,0.0,0.257875008252,1710.3656309316962,83.4000026688,0.7199994039200001,0.52808001689856,1684,0.0,97,P-GPS,
0.376746361598274,36.9245252772791,23000,2018-04-02 06:27:14,1710.865630947696,83.9000026848,0.0,0.25097100803107203,1710.865630947696,83.9000026848,0.7199994039200001,0.52808001689856,1684,0.0,97,P-GPS,
0.376746302378483,36.92452532065,23100,2018-04-02 06:27:14,1711.365630963696,84.4000027008,0.0,0.24735700791542403,1711.365630963696,84.4000027008,0.7199994039200001,0.52808001689856,1684,0.0,97,P-GPS,
0.376746243737197,36.9245253447886,23200,2018-04-02 06:27:15,1711.865630979696,84.9000027168,0.0,0.242954007774528,1711.865630979696,84.9000027168,0.7199994039200001,0.52808001689856,1510,0.0,97,P-GPS,
0.376746207854535,36.9245253598865,23300,2018-04-02 06:27:15,1712.365630995696,85.4000027328,0.0,0.24034100769091202,1712.365630995696,85.4000027328,0.7199994039200001,0.52808001689856,1034,0.0,97,P-GPS,
0.376746163943441,36.9245253603009,23400,2018-04-02 06:27:15,1712.8656310116962,85.9000027488,0.0,0.236168007557376,1712.8656310116962,85.9000027488,0.7199994039200001,0.52808001689856,1024,0.0,97,P-GPS,
0.376746170154937,36.9245253887246,23500,2018-04-02 06:27:15,1713.365631027696,86.4000027648,0.0,0.238403007628896,1713.365631027696,86.4000027648,0.7199994039200001,0.52808001689856,1024,0.0,97,P-GPS,
0.376746163858253,36.9245253971274,23600,2018-04-02 06:27:15,1713.865631043696,86.90000278080001,0.0,0.238299007625568,1713.865631043696,86.90000278080001,0.7199994039200001,0.52808001689856,1024,0.0,97,P-GPS,
0.376746141111435,36.9245253967077,23700,2018-04-02 06:27:15,1714.265631056496,87.3000027936,0.0,0.236131007556192,1714.265631056496,87.3000027936,0.7199994039200001,0.52808001689856,1024,0.0,97,P-GPS,
0.376746126703675,36.9245253725194,23900,2018-04-02 06:27:15,1714.7656310724963,87.8000028096,0.0,0.233346007467072,1714.7656310724963,87.8000028096,0.7199994039200001,0.52808001689856,1024,0.0,97,P-GPS,
0.376746130728781,36.9245253553661,24000,2018-04-02 06:27:15,1714.8656310756962,87.9000028128,0.0,0.23272600744723201,1714.8656310756962,87.9000028128,0.7199994039200001,0.52808001689856,1024,0.0,97,P-GPS,
0.37674615648934,36.9245253558714,24100,2018-04-02 06:27:15,1714.965631078896,88.00000281599999,0.0,0.235204007526528,1714.965631078896,88.00000281599999,0.7199994039200001,0.52808001689856,1024,0.0,97,P-GPS,
0.376746175382038,36.9245253419932,24200,2018-04-02 06:27:15,1714.965631078896,88.00000281599999,0.0,0.236219007559008,1714.965631078896,88.00000281599999,0.7199994039200001,0.52808001689856,1024,0.0,97,P-GPS,
0.376746227011347,36.9245253450592,24300,2018-04-02 06:27:16,1714.965631078896,88.00000281599999,0.0,0.241354007723328,1714.965631078896,88.00000281599999,0.7199994039200001,0.52808001689856,1024,0.0,97,P-GPS,
0.376746289639674,36.9245253149508,24400,2018-04-02 06:27:16,1715.065631082096,88.10000281920001,0.0,0.24581000786592003,1715.065631082096,88.10000281920001,0.7199994039200001,0.52808001689856,1024,0.0,97,P-GPS,
0.376746472032933,36.9245251943365,24600,2018-04-02 06:27:16,1715.065631082096,88.10000281920001,0.0,0.258173008261536,1715.065631082096,88.10000281920001,0.7199994039200001,0.52808001689856,1024,0.0,97,P-GPS,
0.376746618790444,36.9245250656055,24700,2018-04-02 06:27:16,1715.1656310852961,88.20000282240001,0.0,0.268114008579648,1715.1656310852961,88.20000282240001,0.7199994039200001,0.52808001689856,1024,0.0,97,P-GPS,
0.376746749057821,36.9245248870809,24800,2018-04-02 06:27:16,1715.1656310852961,88.20000282240001,0.0,0.276184008837888,1715.1656310852961,88.20000282240001,0.7199994039200001,0.52808001689856,1024,0.0,97,P-GPS,
0.376746894761627,36.924524662222,24900,2018-04-02 06:27:16,1715.1656310852961,88.20000282240001,0.0,0.286996009183872,1715.1656310852961,88.20000282240001,0.7199994039200001,0.52808001689856,1024,0.0,97,P-GPS,
0.376747021070053,36.9245243959622,25000,2018-04-02 06:27:16,1715.265631088496,88.3000028256,0.35999970196000003,0.297971009535072,1715.265631088496,88.3000028256,0.7199994039200001,0.52808001689856,1024,0.0,97,P-GPS,
0.37674713578233,36.9245241322525,25100,2018-04-02 06:27:16,1715.265631088496,88.3000028256,0.35999970196000003,0.31071500994288,1715.265631088496,88.3000028256,0.7199994039200001,0.52808001689856,930,0.0,97,P-GPS,
0.376747249226049,36.9245238326529,25200,2018-04-02 06:27:17,1715.265631088496,88.3000028256,0.35999970196000003,0.326532010449024,1715.265631088496,88.3000028256,0.7199994039200001,0.52808001689856,885,0.0,97,P-GPS,
0.376747397255069,36.9245235355944,25300,2018-04-02 06:27:17,1715.265631088496,88.3000028256,0.35999970196000003,0.34898601116755207,1715.265631088496,88.3000028256,0.7199994039200001,0.52808001689856,845,0.0,97,P-GPS,
0.376747526864352,36.9245232420545,25400,2018-04-02 06:27:17,1715.265631088496,88.3000028256,0.35999970196000003,0.3716720118935041,1715.265631088496,88.3000028256,0.7199994039200001,0.52808001689856,780,0.0,97,P-GPS,
0.37674788234248,36.9245226500226,25600,2018-04-02 06:27:17,1715.265631088496,88.3000028256,0.35999970196000003,0.43241601383731204,1715.265631088496,88.3000028256,0.7199994039200001,0.52808001689856,781,0.0,97,P-GPS,
0.376748070150316,36.9245223894842,25700,2018-04-02 06:27:17,1715.265631088496,88.3000028256,0.35999970196000003,0.463782014841024,1715.265631088496,88.3000028256,0.7199994039200001,0.52808001689856,781,0.0,97,P-GPS,
0.376748235761035,36.9245221033316,25800,2018-04-02 06:27:17,1715.1656310852961,88.20000282240001,0.35999970196000003,0.49494801583833603,1715.265631088496,88.3000028256,0.7199994039200001,0.52808001689856,779,0.0,97,P-GPS,
0.376748428998917,36.924521810881,25900,2018-04-02 06:27:17,1715.065631082096,88.10000281920001,0.35999970196000003,0.529831016954592,1715.265631088496,88.3000028256,0.7199994039200001,0.529831016954592,781,0.0,97,P-GPS,
0.376748625688897,36.9245215049118,26000,2018-04-02 06:27:17,1715.065631082096,88.10000281920001,0.503999582744,0.56638501812432,1715.265631088496,88.3000028256,0.7199994039200001,0.56638501812432,783,0.0,97,P-GPS,
0.376748881011002,36.9245211804357,26100,2018-04-02 06:27:17,1714.965631078896,88.00000281599999,0.503999582744,0.609982019519424,1715.265631088496,88.3000028256,0.7199994039200001,0.609982019519424,782,0.0,97,P-GPS,
0.376749108798563,36.9245208787564,26200,2018-04-02 06:27:17,1714.8656310756962,87.9000028128,0.503999582744,0.6499330207978561,1715.265631088496,88.3000028256,0.7199994039200001,0.6499330207978561,782,0.0,97,P-GPS,
0.376749376632004,36.9245206104998,26300,2018-04-02 06:27:18,1714.8656310756962,87.9000028128,0.35999970196000003,0.691528022128896,1715.265631088496,88.3000028256,0.7199994039200001,0.691528022128896,780,0.0,97,P-GPS,
0.376749583166742,36.924520347857,26400,2018-04-02 06:27:18,1714.7656310724963,87.8000028096,0.35999970196000003,0.7273450232750401,1715.265631088496,88.3000028256,0.7199994039200001,0.7273450232750401,781,0.0,97,P-GPS,
0.376749765076964,36.9245200792691,26500,2018-04-02 06:27:18,1714.7656310724963,87.8000028096,0.35999970196000003,0.761523024368736,1715.265631088496,88.3000028256,0.7199994039200001,0.761523024368736,781,0.0,97,P-GPS,
0.376749898928547,36.9245198045385,26600,2018-04-02 06:27:18,1714.665631069296,87.70000280640001,0.35999970196000003,0.792119025347808,1715.265631088496,88.3000028256,0.7199994039200001,0.792119025347808,785,0.0,97,P-GPS,
0.376750030293903,36.9245195258251,26700,2018-04-02 06:27:18,1714.665631069296,87.70000280640001,0.35999970196000003,0.823053026337696,1715.265631088496,88.3000028256,0.7199994039200001,0.823053026337696,787,0.0,97,P-GPS,
0.376750106948833,36.9245192767145,26800,2018-04-02 06:27:18,1714.565631066096,87.60000280320001,0.35999970196000003,0.84748502711952,1715.265631088496,88.3000028256,0.7199994039200001,0.84748502711952,788,0.0,97,P-GPS,
0.376750188015625,36.9245190353991,26900,2018-04-02 06:27:18,1714.4656310628961,87.50000280000002,0.35999970196000003,0.871982027903424,1715.265631088496,88.3000028256,0.7199994039200001,0.871982027903424,787,0.0,97,P-GPS,
0.376750244881703,36.9245188119439,27000,2018-04-02 06:27:18,1714.4656310628961,87.50000280000002,0.35999970196000003,0.89338002858816,1715.265631088496,88.3000028256,0.7199994039200001,0.89338002858816,787,0.0,97,P-GPS,
0.376750324760545,36.9245185882959,27100,2018-04-02 06:27:18,1714.3656310596962,87.4000027968,0.35999970196000003,0.9168650293396801,1715.265631088496,88.3000028256,0.7199994039200001,0.9168650293396801,787,0.0,97,P-GPS,
0.376750367935481,36.9245183879201,27200,2018-04-02 06:27:19,1714.265631056496,87.3000027936,0.0,0.9357750299448001,1715.265631088496,88.3000028256,0.7199994039200001,0.9357750299448001,791,0.0,97,P-GPS,
0.376750446526631,36.9245181861428,27300,2018-04-02 06:27:19,1714.265631056496,87.3000027936,0.0,0.957752030648064,1715.265631088496,88.3000028256,0.7199994039200001,0.957752030648064,792,0.0,97,P-GPS,
0.376750539481064,36.9245179015925,27500,2018-04-02 06:27:19,1714.165631053296,87.2000027904,0.0,0.9875230316007361,1715.265631088496,88.3000028256,0.7199994039200001,0.9875230316007361,791,0.0,97,P-GPS,
0.376750545365854,36.9245178152306,27600,2018-04-02 06:27:19,1714.065631050096,87.10000278720001,0.0,0.99488003183616,1715.265631088496,88.3000028256,0.7199994039200001,0.99488003183616,791,0.0,97,P-GPS,
0.376750575168007,36.924517717989,27700,2018-04-02 06:27:19,1714.065631050096,87.10000278720001,0.0,1.00499003215968,1715.265631088496,88.3000028256,0.7199994039200001,1.00499003215968,791,0.0,97,P-GPS,
0.376750572400874,36.9245176463889,27800,2018-04-02 06:27:19,1713.9656310468963,87.000002784,0.0,1.01056003233792,1715.265631088496,88.3000028256,0.7199994039200001,1.01056003233792,790,0.0,97,P-GPS,
0.376750578909357,36.9245175790563,27900,2018-04-02 06:27:19,1713.9656310468963,87.000002784,0.0,1.01652003252864,1715.265631088496,88.3000028256,0.7199994039200001,1.01652003252864,788,0.0,97,P-GPS,
0.376750563778263,36.924517529935,28000,2018-04-02 06:27:19,1713.865631043696,86.90000278080001,0.0,1.01938003262016,1715.265631088496,88.3000028256,0.7199994039200001,1.01938003262016,788,0.0,97,P-GPS,
0.376750566516084,36.9245175007777,28100,2018-04-02 06:27:19,1713.865631043696,86.90000278080001,0.0,1.02197003270304,1715.265631088496,88.3000028256,0.7199994039200001,1.02197003270304,788,0.0,97,P-GPS,
0.37675055268978,36.9245174738879,28200,2018-04-02 06:27:19,1713.7656310404961,86.8000027776,0.0,1.02313003274016,1715.265631088496,88.3000028256,0.7199994039200001,1.02313003274016,788,0.0,97,P-GPS,
0.376750531991036,36.9245174434211,28300,2018-04-02 06:27:20,1713.7656310404961,86.8000027776,0.0,1.02409003277088,1715.265631088496,88.3000028256,0.7199994039200001,1.02409003277088,787,0.0,97,P-GPS,
0.376750499320378,36.9245174234786,28400,2018-04-02 06:27:20,1713.6656310372962,86.7000027744,0.0,1.0233000327456,1715.265631088496,88.3000028256,0.7199994039200001,1.02409003277088,786,0.0,97,P-GPS,
0.376750453531383,36.9245174260856,28500,2018-04-02 06:27:20,1713.565631034096,86.60000277120001,0.0,1.01968003262976,1715.265631088496,88.3000028256,0.7199994039200001,1.02409003277088,788,0.0,97,P-GPS,
0.376750402248424,36.9245174299206,28600,2018-04-02 06:27:20,1713.565631034096,86.60000277120001,0.0,1.01557003249824,1715.265631088496,88.3000028256,0.7199994039200001,1.02409003277088,789,0.0,97,P-GPS,
0.376750344139843,36.9245174504251,28700,2018-04-02 06:27:20,1713.465631030896,86.500002768,0.0,1.00958003230656,1715.265631088496,88.3000028256,0.7199994039200001,1.02409003277088,789,0.0,97,P-GPS,
0.376750278345006,36.924517473844,28800,2018-04-02 06:27:20,1713.465631030896,86.500002768,0.0,1.0028000320896,1715.265631088496,88.3000028256,0.7199994039200001,1.02409003277088,788,0.0,97,P-GPS,
0.376750208711112,36.9245175038289,28900,2018-04-02 06:27:20,1713.365631027696,86.4000027648,0.0,0.995202031846464,1715.265631088496,88.3000028256,0.7199994039200001,1.02409003277088,788,0.0,97,P-GPS,
0.376750132482835,36.924517533088,29000,2018-04-02 06:27:20,1713.265631024496,86.3000027616,0.0,0.987199031590368,1715.265631088496,88.3000028256,0.7199994039200001,1.02409003277088,789,0.0,97,P-GPS,
0.376750064361765,36.9245176322942,29100,2018-04-02 06:27:20,1713.265631024496,86.3000027616,0.0,0.973896031164672,1715.265631088496,88.3000028256,0.7199994039200001,1.02409003277088,789,0.0,97,P-GPS,
0.376749988268648,36.924517709923,29200,2018-04-02 06:27:21,1713.165631021296,86.2000027584,0.0,0.9618330307786561,1715.265631088496,88.3000028256,0.7199994039200001,1.02409003277088,791,0.0,97,P-GPS,
0.376749891561466,36.9245178452616,29300,2018-04-02 06:27:21,1713.165631021296,86.2000027584,0.0,0.9434120301891841,1715.265631088496,88.3000028256,0.7199994039200001,1.02409003277088,792,0.0,97,P-GPS,
0.376749796278765,36.9245179558463,29400,2018-04-02 06:27:21,1713.065631018096,86.10000275520001,0.0,0.9271790296697281,1715.265631088496,88.3000028256,0.7199994039200001,1.02409003277088,796,0.0,97,P-GPS,
0.376749730957805,36.9245180969395,29500,2018-04-02 06:27:21,1713.065631018096,86.10000275520001,0.0,0.910571029138272,1715.265631088496,88.3000028256,0.7199994039200001,1.02409003277088,796,0.0,97,P-GPS,
0.376749661468029,36.9245182034912,29600,2018-04-02 06:27:21,1712.9656310148962,86.000002752,0.0,0.89656502869008,1715.265631088496,88.3000028256,0.7199994039200001,1.02409003277088,892,0.0,97,P-GPS,
0.376749581519978,36.9245183581011,29700,2018-04-02 06:27:21,1712.9656310148962,86.000002752,0.0,0.877789028089248,1715.265631088496,88.3000028256,0.7199994039200001,1.02409003277088,1008,0.0,97,P-GPS,
0.376749495803978,36.9245184887482,29800,2018-04-02 06:27:21,1712.8656310116962,85.9000027488,0.35999970196000003,0.8605990275391681,1715.265631088496,88.3000028256,0.7199994039200001,1.02409003277088,1024,0.0,97,P-GPS,
0.376749444963957,36.9245186802828,29900,2018-04-02 06:27:21,1712.8656310116962,85.9000027488,0.35999970196000003,0.840998026911936,1715.265631088496,88.3000028256,0.7199994039200001,1.02409003277088,1024,0.0,97,P-GPS,
0.37674941080938,36.9245188227272,30000,2018-04-02 06:27:21,1712.8656310116962,85.9000027488,0.0,0.826778026456896,1715.265631088496,88.3000028256,0.7199994039200001,1.02409003277088,1024,0.0,97,P-GPS,
0.376749348233569,36.9245190146312,30100,2018-04-02 06:27:21,1712.8656310116962,85.9000027488,0.0,0.8064730258071361,1715.265631088496,88.3000028256,0.7199994039200001,1.02409003277088,1024,0.0,97,P-GPS,
0.37674927912892,36.9245191569342,30200,2018-04-02 06:27:21,1712.8656310116962,85.9000027488,0.0,0.7897340252714881,1715.265631088496,88.3000028256,0.7199994039200001,1.02409003277088,1024,0.0,97,P-GPS,
0.376749214539131,36.9245193597681,30300,2018-04-02 06:27:22,1712.8656310116962,85.9000027488,0.0,0.768593024594976,1715.265631088496,88.3000028256,0.7199994039200001,1.02409003277088,1024,0.0,97,P-GPS,
0.376749137768175,36.924519498476,30400,2018-04-02 06:27:22,1712.8656310116962,85.9000027488,0.0,0.751647024052704,1715.265631088496,88.3000028256,0.7199994039200001,1.02409003277088,1024,0.0,97,P-GPS,
0.376749064311101,36.9245196437715,30500,2018-04-02 06:27:22,1712.8656310116962,85.9000027488,0.0,0.7344840235034881,1715.265631088496,88.3000028256,0.7199994039200001,1.02409003277088,1024,0.0,97,P-GPS,
0.376748985944677,36.9245197263679,30600,2018-04-02 06:27:22,1712.8656310116962,85.9000027488,0.0,0.721832023098624,1715.265631088496,88.3000028256,0.7199994039200001,1.02409003277088,1024,0.0,97,P-GPS,
0.376748896227997,36.9245198499886,30700,2018-04-02 06:27:22,1712.8656310116962,85.9000027488,0.0,0.705093022562976,1715.265631088496,88.3000028256,0.7199994039200001,1.02409003277088,1024,0.0,97,P-GPS,
0.376748822879623,36.9245199301697,30800,2018-04-02 06:27:22,1712.9656310148962,86.000002752,0.0,0.6930300221769601,1715.265631088496,88.3000028256,0.7199994039200001,1.02409003277088,1024,0.0,97,P-GPS,
0.376748789998489,36.9245200858085,30900,2018-04-02 06:27:22,1712.9656310148962,86.000002752,0.0,0.678438021710016,1715.265631088496,88.3000028256,0.7199994039200001,1.02409003277088,1024,0.0,97,P-GPS,
0.376748763569657,36.9245201917992,31000,2018-04-02 06:27:22,1712.9656310148962,86.000002752,0.0,0.668256021384192,1715.265631088496,88.3000028256,0.7199994039200001,1.02409003277088,1024,0.0,97,P-GPS,
0.376748747768865,36.9245203745755,31100,2018-04-02 06:27:22,1712.9656310148962,86.000002752,0.0,0.653334020906688,1715.265631088496,88.3000028256,0.7199994039200001,1.02409003277088,1024,0.0,97,P-GPS,
0.376748713587011,36.9245204923356,31200,2018-04-02 06:27:23,1712.9656310148962,86.000002752,0.0,0.641857020539424,1715.265631088496,88.3000028256,0.7199994039200001,1.02409003277088,1024,0.0,97,P-GPS,
0.376748704002397,36.9245206330193,31300,2018-04-02 06:27:23,1712.9656310148962,86.000002752,0.0,0.630924020189568,1715.265631088496,88.3000028256,0.7199994039200001,1.02409003277088,1024,0.0,97,P-GPS,
0.376748676524847,36.9245207319738,31400,2018-04-02 06:27:23,1712.9656310148962,86.000002752,0.0,0.621567019890144,1715.265631088496,88.3000028256,0.7199994039200001,1.02409003277088,1024,0.0,97,P-GPS,
0.376748631307436,36.9245209159766,31500,2018-04-02 06:27:23,1712.9656310148962,86.000002752,0.0,0.6048720193559041,1715.265631088496,88.3000028256,0.7199994039200001,1.02409003277088,1024,0.0,97,P-GPS,
0.376748572250693,36.9245210433391,31600,2018-04-02 06:27:23,1712.9656310148962,86.000002752,0.0,0.591021018912672,1715.265631088496,88.3000028256,0.7199994039200001,1.02409003277088,1024,-0.9,97,P-GPS,
