latitude,longitude,time_millisecond,datetime_utc,altitude_m,ascent_m,speed_kph,distance_m,max_altitude_m,max_ascent_m,max_speed_kph,max_distance_m,rc_throttle,gimbal_pitch_degrees,battery_percent,flycState,message
0.0461417934691011,36.866934713841,0,2018-04-12 12:34:58,1824.9675876989575,0.0,0.0,0.0,1824.9675876989575,0.0,0.0,0.0,364,0.0,100,P-GPS,
0.0461419789032759,36.8669344650883,100,2018-04-12 12:34:58,1824.9675876989575,0.0,0.0,0.0345032011041024,1824.9675876989575,0.0,0.0,0.0345032011041024,364,0.0,100,Motors_Started,Setting new Return-To-Home altitude to 30m (98 ft). Setting new Maximum Flight Altitude to 150m (492 ft)
0.0461421719325135,36.8669341949715,200,2018-04-12 12:34:58,1824.9675876989575,0.0,0.0,0.0714199022854368,1824.9675876989575,0.0,0.0,0.0714199022854368,364,0.0,100,Motors_Started,
0.0461423456712035,36.8669339544152,300,2018-04-12 12:34:58,1824.9675876989575,0.0,0.0,0.10441900334140801,1824.9675876989575,0.0,0.0,0.10441900334140801,364,0.0,100,Motors_Started,
0.0461425276384211,36.86693371358471,400,2018-04-12 12:34:59,1824.9675876989575,0.0,0.0,0.137981004415392,1824.9675876989575,0.0,0.0,0.137981004415392,364,0.0,100,Motors_Started,
0.0461426952085652,36.8669334979769,500,2018-04-12 12:34:59,1824.9675876989575,0.0,0.0,0.168339005386848,1824.9675876989575,0.0,0.0,0.168339005386848,364,0.0,100,Motors_Started,
0.0461428801167526,36.8669332624265,600,2018-04-12 12:34:59,1824.9675876989575,0.0,0.0,0.20163000645216,1824.9675876989575,0.0,0.0,0.20163000645216,364,0.0,100,Motors_Started,
0.0461430360190956,36.8669330460906,700,2018-04-12 12:34:59,1824.9675876989575,0.0,0.0,0.23128000740096,1824.9675876989575,0.0,0.0,0.23128000740096,364,0.0,100,Motors_Started,
0.0461431913856804,36.8669328151822,800,2018-04-12 12:34:59,1824.9675876989575,0.0,0.0,0.2621980083903361,1824.9675876989575,0.0,0.0,0.2621980083903361,364,0.0,100,Motors_Started,
0.0461433191045431,36.866932598446,900,2018-04-12 12:34:59,1824.9675876989575,0.0,0.0,0.290042009281344,1824.9675876989575,0.0,0.0,0.290042009281344,376,0.0,100,Motors_Started,
0.0461435752929811,36.866932146024496,1100,2018-04-12 12:34:59,1824.9675876989575,0.0,0.0,0.347572011122304,1824.9675876989575,0.0,0.0,0.347572011122304,381,0.0,100,Motors_Started,
0.0461437064397184,36.8669319121806,1200,2018-04-12 12:34:59,1824.9675876989575,0.0,0.0,0.377262012072384,1824.9675876989575,0.0,0.0,0.377262012072384,395,0.0,100,Motors_Started,
0.0461438404769438,36.866931703784,1300,2018-04-12 12:35:00,1824.9675876989575,0.0,0.0,0.404807012953824,1824.9675876989575,0.0,0.0,0.404807012953824,446,0.0,100,Motors_Started,
0.04614399951241299,36.8669314978691,1400,2018-04-12 12:35:00,1824.9675876989575,0.0,0.0,0.43369101387811204,1824.9675876989575,0.0,0.0,0.43369101387811204,491,0.0,100,Motors_Started,
0.0461441312551608,36.86693129411879,1500,2018-04-12 12:35:00,1824.9675876989575,0.0,0.0,0.460664014741248,1824.9675876989575,0.0,0.0,0.460664014741248,571,0.0,100,Motors_Started,
0.0461442536131858,36.8669310738411,1600,2018-04-12 12:35:00,1824.9675876989575,0.0,0.0,0.48857201563430397,1824.9675876989575,0.0,0.0,0.48857201563430397,691,0.0,100,Assisted_Takeoff,
0.0461443619926476,36.866930873899896,1700,2018-04-12 12:35:00,1824.9675876989575,0.0,0.0,0.5137490164399681,1824.9675876989575,0.0,0.0,0.5137490164399681,919,0.0,100,Assisted_Takeoff,
0.0461444871874221,36.866930674425504,1800,2018-04-12 12:35:00,1824.9675876989575,0.0,0.0,0.539928017277696,1824.9675876989575,0.0,0.0,0.539928017277696,1024,0.0,100,Assisted_Takeoff,
0.0461446075212912,36.866930490626295,1900,2018-04-12 12:35:00,1824.9675876989575,0.0,0.0,0.564358018059456,1824.9675876989575,0.0,0.0,0.564358018059456,1024,0.0,100,Assisted_Takeoff,
0.0461447432195295,36.8669302968409,2000,2018-04-12 12:35:00,1824.9675876989575,0.0,0.0,0.590659018901088,1824.9675876989575,0.0,0.0,0.590659018901088,1024,0.0,100,Assisted_Takeoff,
0.0461448579417806,36.866930114731105,2100,2018-04-12 12:35:00,1824.9675876989575,0.0,0.0,0.6145860196667521,1824.9675876989575,0.0,0.0,0.6145860196667521,1024,0.0,100,Assisted_Takeoff,
0.0461449689381519,36.866929926591794,2200,2018-04-12 12:35:00,1824.9675876989575,0.0,0.0,0.638843020442976,1824.9675876989575,0.0,0.0,0.638843020442976,1024,0.0,100,Assisted_Takeoff,
0.0461450776058483,36.8669297667348,2300,2018-04-12 12:35:00,1824.9675876989575,0.0,0.0,0.6603380211308162,1824.9675876989575,0.0,0.0,0.6603380211308162,1024,0.0,100,Assisted_Takeoff,
0.0461452035171381,36.8669296103742,2400,2018-04-12 12:35:01,1824.9675876989575,0.0,0.0,0.6825720218423039,1824.9675876989575,0.0,0.0,0.6825720218423039,1024,0.0,100,Assisted_Takeoff,
0.0461453128769232,36.8669294616147,2500,2018-04-12 12:35:01,1824.9675876989575,0.0,0.0,0.7030840224986881,1824.9675876989575,0.0,0.0,0.7030840224986881,1024,0.0,100,Assisted_Takeoff,
0.0461454206668882,36.8669292934672,2600,2018-04-12 12:35:01,1824.9675876989575,0.0,0.0,0.725291023209312,1824.9675876989575,0.0,0.0,0.725291023209312,1024,0.0,100,Assisted_Takeoff,
0.0461455312252081,36.8669291257586,2700,2018-04-12 12:35:01,1824.9675876989575,0.0,0.0,0.7476280239240961,1824.9675876989575,0.0,0.0,0.7476280239240961,1037,0.0,100,Assisted_Takeoff,
0.0461456579116372,36.8669289464601,2800,2018-04-12 12:35:01,1824.9675876989575,0.0,0.0,0.7720340247050881,1824.9675876989575,0.0,0.0,0.7720340247050881,1081,0.0,100,Assisted_Takeoff,
0.0461457722870298,36.8669287824064,2900,2018-04-12 12:35:01,1824.9675876989575,0.0,0.0,0.794271025416672,1824.9675876989575,0.0,0.0,0.794271025416672,1150,0.0,100,Assisted_Takeoff,
0.0461458827541568,36.866928624136,3000,2018-04-12 12:35:01,1824.9675876989575,0.0,0.0,0.8157310261033921,1824.9675876989575,0.0,0.0,0.8157310261033921,1199,0.0,100,Assisted_Takeoff,
0.0461460093412509,36.8669284389065,3100,2018-04-12 12:35:01,1824.9675876989575,0.0,0.0,0.84068002690176,1824.9675876989575,0.0,0.0,0.84068002690176,1245,0.0,100,Assisted_Takeoff,
0.0461460785061528,36.8669283387614,3200,2018-04-12 12:35:01,1824.9675876989575,0.0,0.0,0.8542130273348161,1824.9675876989575,0.0,0.0,0.8542130273348161,1245,0.0,100,Assisted_Takeoff,
0.0461461454254304,36.8669282281869,3300,2018-04-12 12:35:01,1824.9675876989575,0.0,0.0,0.86857002779424,1824.9675876989575,0.0,0.0,0.86857002779424,1250,0.0,100,Assisted_Takeoff,
0.0461462107325484,36.86692811839811,3400,2018-04-12 12:35:02,1824.9675876989575,0.0,0.0,0.8827550282481602,1824.9675876989575,0.0,0.0,0.8827550282481602,1262,0.0,100,Assisted_Takeoff,
0.0461463328691051,36.866927899786205,3600,2018-04-12 12:35:02,1824.9675876989575,0.0,0.0,0.9105160291365121,1824.9675876989575,0.0,0.0,0.9105160291365121,1292,0.0,100,Assisted_Takeoff,
0.0461463839273382,36.8669278136805,3700,2018-04-12 12:35:02,1824.9675876989575,0.0,0.0,0.921633029492256,1824.9675876989575,0.0,0.0,0.921633029492256,1308,0.0,100,Assisted_Takeoff,
0.0461464553736901,36.8669277581909,3800,2018-04-12 12:35:02,1824.9675876989575,0.0,0.0,0.9311770297976639,1824.9675876989575,0.0,0.0,0.9311770297976639,1327,0.0,100,P-GPS,Obstacle Avoided. Revise Flight Route
0.0461465574347891,36.8669277307116,3900,2018-04-12 12:35:02,1824.9675876989575,0.0,0.0,0.9400660300821121,1824.9675876989575,0.0,0.0,0.9400660300821121,1352,0.0,100,P-GPS,
0.0461466909867382,36.8669276983462,4000,2018-04-12 12:35:02,1825.0675877021574,0.10000000320000002,0.0,0.951464030446848,1825.0675877021574,0.10000000320000002,0.0,0.951464030446848,1365,0.0,100,P-GPS,
0.0461468034649935,36.8669276908095,4100,2018-04-12 12:35:02,1825.1675877053574,0.20000000640000004,0.0,0.9593610306995521,1825.1675877053574,0.20000000640000004,0.0,0.9593610306995521,1371,0.0,100,P-GPS,
0.0461468971526336,36.8669276947534,4200,2018-04-12 12:35:02,1825.2675877085571,0.3000000096,0.0,0.9650940308830079,1825.2675877085571,0.3000000096,0.0,0.9650940308830079,1368,0.0,100,P-GPS,Home Point Recorded. RTH Altitude:  30m.
0.0461469826882829,36.8669276969288,4300,2018-04-12 12:35:02,1825.3675877117576,0.4000000128000001,0.35999970196000003,0.9705240310567679,1825.3675877117576,0.4000000128000001,0.35999970196000003,0.9705240310567679,1369,0.0,100,P-GPS,
0.0461470664668412,36.8669276877862,4400,2018-04-12 12:35:03,1825.5675877181573,0.6000000192,0.35999970196000003,0.9769060312609922,1825.5675877181573,0.6000000192,0.35999970196000003,0.9769060312609922,1376,0.0,100,P-GPS,
0.0461471147632333,36.8669276706828,4500,2018-04-12 12:35:03,1825.6675877213572,0.7000000224000001,0.35999970196000003,0.9816560314129921,1825.6675877213572,0.7000000224000001,0.35999970196000003,0.9816560314129921,1381,0.0,100,P-GPS,
0.0461471584250737,36.8669276534274,4600,2018-04-12 12:35:03,1825.8675877277574,0.9000000288000001,0.35999970196000003,0.986118031555776,1825.8675877277574,0.9000000288000001,0.35999970196000003,0.986118031555776,1382,0.0,100,P-GPS,
0.0461471947328611,36.8669276374203,4700,2018-04-12 12:35:03,1826.0675877341573,1.1000000352,0.35999970196000003,0.98998003167936,1826.0675877341573,1.1000000352,0.35999970196000003,0.98998003167936,1384,0.0,100,P-GPS,
0.0461472324932205,36.866927623398,4800,2018-04-12 12:35:03,1826.2675877405572,1.3000000416000002,0.0,0.99377003180064,1826.2675877405572,1.3000000416000002,0.35999970196000003,0.99377003180064,1387,0.0,100,P-GPS,
0.0461472616407396,36.866927606256105,4900,2018-04-12 12:35:03,1826.5675877501574,1.6000000512000003,0.0,0.9972570319122241,1826.5675877501574,1.6000000512000003,0.35999970196000003,0.9972570319122241,1387,0.0,100,P-GPS,
0.0461472957305862,36.8669275880308,5000,2018-04-12 12:35:03,1826.7675877565573,1.8000000576000001,0.0,1.0011800320377602,1826.7675877565573,1.8000000576000001,0.35999970196000003,1.0011800320377602,1389,0.0,100,P-GPS,
0.0461472983458673,36.86692755187129,5100,2018-04-12 12:35:03,1826.9675877629575,2.000000064,0.0,1.0045400321452802,1826.9675877629575,2.000000064,0.35999970196000003,1.0045400321452802,1390,0.0,100,P-GPS,
0.0461472859924911,36.8669274942491,5200,2018-04-12 12:35:03,1827.1675877693572,2.2000000704,0.0,1.0087900322812802,1827.1675877693572,2.2000000704,0.35999970196000003,1.0087900322812802,1391,0.0,100,P-GPS,
0.0461472624891589,36.86692743297839,5300,2018-04-12 12:35:04,1827.3675877757573,2.4000000768,0.0,1.0126500324048,1827.3675877757573,2.4000000768,0.35999970196000003,1.0126500324048,1392,0.0,100,P-GPS,
0.0461472499305988,36.86692736586029,5400,2018-04-12 12:35:04,1827.5675877821573,2.6000000832000003,0.0,1.0178000325696002,1827.5675877821573,2.6000000832000003,0.35999970196000003,1.0178000325696002,1394,0.0,100,P-GPS,
0.0461472320421415,36.866927306673006,5500,2018-04-12 12:35:04,1827.8675877917574,2.9000000928,0.0,1.0219100327011201,1827.8675877917574,2.9000000928,0.35999970196000003,1.0219100327011201,1397,0.0,100,P-GPS,
0.0461472282348395,36.866927262923205,5600,2018-04-12 12:35:04,1828.0675877981573,3.1000000992,0.0,1.02559003281888,1828.0675877981573,3.1000000992,0.35999970196000003,1.02559003281888,1402,0.0,100,P-GPS,
0.0461472170930256,36.866927234371204,5700,2018-04-12 12:35:04,1828.2675878045573,3.3000001056,0.0,1.02743003287776,1828.2675878045573,3.3000001056,0.35999970196000003,1.02743003287776,1406,0.0,100,P-GPS,
0.0461472038342346,36.866927198220296,5800,2018-04-12 12:35:04,1828.4675878109574,3.500000112,0.0,1.0298200329542402,1828.4675878109574,3.500000112,0.35999970196000003,1.0298200329542402,1408,0.0,100,P-GPS,
0.0461471928748065,36.8669271584744,5900,2018-04-12 12:35:04,1828.6675878173573,3.7000001184,0.0,1.0327000330464002,1828.6675878173573,3.7000001184,0.35999970196000003,1.0327000330464002,1415,0.0,100,P-GPS,
0.0461471959932768,36.866927101982704,6000,2018-04-12 12:35:04,1828.8675878237575,3.9000001248,0.0,1.03802003321664,1828.8675878237575,3.9000001248,0.35999970196000003,1.03802003321664,1416,0.0,100,P-GPS,
0.0461472046093739,36.8669270308778,6100,2018-04-12 12:35:04,1829.1675878333574,4.2000001344,0.0,1.04503003344096,1829.1675878333574,4.2000001344,0.35999970196000003,1.04503003344096,1418,0.0,100,P-GPS,
0.0461472021471666,36.8669269480609,6200,2018-04-12 12:35:04,1829.3675878397573,4.4000001408,0.0,1.0524200336774399,1829.3675878397573,4.4000001408,0.35999970196000003,1.0524200336774399,1420,0.0,100,P-GPS,
0.0461471767190136,36.866926874027,6300,2018-04-12 12:35:04,1829.5675878461575,4.6000001472,0.0,1.05758003384256,1829.5675878461575,4.6000001472,0.35999970196000003,1.05758003384256,1420,0.0,100,P-GPS,
0.0461471266818149,36.8669268097116,6400,2018-04-12 12:35:05,1829.8675878557572,4.9000001568,0.0,1.06036003393152,1829.8675878557572,4.9000001568,0.35999970196000003,1.06036003393152,1420,0.0,100,P-GPS,
0.0461470719579544,36.8669267671137,6500,2018-04-12 12:35:05,1830.0675878621573,5.1000001632,0.0,1.06091003394912,1830.0675878621573,5.1000001632,0.35999970196000003,1.06091003394912,1423,0.0,100,P-GPS,
0.0461470290012302,36.8669267382363,6600,2018-04-12 12:35:05,1830.2675878685573,5.3000001696,0.0,1.06096003395072,1830.2675878685573,5.3000001696,0.35999970196000003,1.06096003395072,1424,0.0,100,P-GPS,
0.046146977975565995,36.866926700800704,6700,2018-04-12 12:35:05,1830.5675878781574,5.600000179200001,0.0,1.0613500339632,1830.5675878781574,5.600000179200001,0.35999970196000003,1.0613500339632,1426,0.0,100,P-GPS,
0.0461469259581794,36.866926635237,6800,2018-04-12 12:35:05,1830.7675878845573,5.8000001856,0.0,1.0643700340598399,1830.7675878845573,5.8000001856,0.35999970196000003,1.0643700340598399,1427,0.0,100,P-GPS,
0.0461468919041585,36.8669265505124,6900,2018-04-12 12:35:05,1831.0675878941572,6.1000001952,0.0,1.0703200342502401,1831.0675878941572,6.1000001952,0.35999970196000003,1.0703200342502401,1429,0.0,100,P-GPS,
0.0461468771797679,36.8669264447875,7000,2018-04-12 12:35:05,1831.2675879005574,6.300000201600001,0.0,1.0794500345424,1831.2675879005574,6.300000201600001,0.35999970196000003,1.0794500345424,1430,0.0,100,P-GPS,
0.0461468698859673,36.866926337923495,7100,2018-04-12 12:35:05,1831.4675879069575,6.500000208,0.0,1.0891700348534399,1831.4675879069575,6.500000208,0.35999970196000003,1.0891700348534399,1431,0.0,100,P-GPS,
0.0461468584396344,36.8669262523167,7200,2018-04-12 12:35:05,1831.7675879165572,6.800000217600001,0.0,1.09667003509344,1831.7675879165572,6.800000217600001,0.35999970196000003,1.09667003509344,1431,0.0,100,P-GPS,
0.0461468695619069,36.866926176008896,7300,2018-04-12 12:35:06,1831.9675879229574,7.000000224,0.0,1.10459003534688,1831.9675879229574,7.000000224,0.35999970196000003,1.10459003534688,1434,0.0,100,P-GPS,
0.0461469047460679,36.8669261073556,7400,2018-04-12 12:35:06,1832.2675879325575,7.3000002336000005,0.0,1.1131500356208002,1832.2675879325575,7.3000002336000005,0.35999970196000003,1.1131500356208002,1435,0.0,100,P-GPS,
0.0461469538762233,36.866926057814005,7500,2018-04-12 12:35:06,1832.5675879421572,7.600000243199999,0.0,1.1206800358617601,1832.5675879421572,7.600000243199999,0.35999970196000003,1.1206800358617601,1437,0.0,100,P-GPS,
0.0461470035258523,36.866926025151,7600,2018-04-12 12:35:06,1832.7675879485573,7.8000002496,0.0,1.1266300360521602,1832.7675879485573,7.8000002496,0.35999970196000003,1.1266300360521602,1437,0.0,100,P-GPS,
0.04614707183907799,36.8669260044355,7700,2018-04-12 12:35:06,1833.0675879581574,8.1000002592,0.0,1.13253003624096,1833.0675879581574,8.1000002592,0.35999970196000003,1.13253003624096,1439,0.0,100,P-GPS,
0.0461471447624286,36.8669259822406,7800,2018-04-12 12:35:06,1833.2675879645572,8.3000002656,0.0,1.1388600364435202,1833.2675879645572,8.3000002656,0.35999970196000003,1.1388600364435202,1440,0.0,100,P-GPS,
0.0461472068989662,36.8669259787762,7900,2018-04-12 12:35:06,1833.5675879741573,8.6000002752,0.0,1.14281003656992,1833.5675879741573,8.6000002752,0.35999970196000003,1.14281003656992,1441,0.0,100,P-GPS,
0.0461472548810686,36.8669259890751,8000,2018-04-12 12:35:06,1833.7675879805574,8.8000002816,0.0,1.14466003662912,1833.7675879805574,8.8000002816,0.35999970196000003,1.14466003662912,1442,0.0,100,P-GPS,
0.0461473244791366,36.866925994382896,8100,2018-04-12 12:35:06,1834.0675879901573,9.1000002912,0.0,1.1482900367452802,1834.0675879901573,9.1000002912,0.35999970196000003,1.1482900367452802,1444,0.0,100,P-GPS,
0.0461474083993695,36.8669259709718,8200,2018-04-12 12:35:06,1834.2675879965573,9.3000002976,0.0,1.1555000369760002,1834.2675879965573,9.3000002976,0.35999970196000003,1.1555000369760002,1444,0.0,100,P-GPS,
0.0461474555916765,36.8669259454366,8300,2018-04-12 12:35:06,1834.5675880061574,9.6000003072,0.0,1.16073003714336,1834.5675880061574,9.6000003072,0.35999970196000003,1.16073003714336,1445,0.0,100,P-GPS,
0.0461474746802971,36.8669259255712,8400,2018-04-12 12:35:07,1834.8675880157573,9.900000316799998,0.0,1.16374003723968,1834.8675880157573,9.900000316799998,0.35999970196000003,1.16374003723968,1444,0.0,100,P-GPS,
0.0461475065033496,36.8669259173107,8500,2018-04-12 12:35:07,1835.0675880221575,10.100000323200002,0.0,1.1664300373257601,1835.0675880221575,10.100000323200002,0.35999970196000003,1.1664300373257601,1446,0.0,100,P-GPS,
0.046147567978739,36.8669259046009,8600,2018-04-12 12:35:07,1835.3675880317574,10.400000332800001,0.0,1.1713500374832,1835.3675880317574,10.400000332800001,0.35999970196000003,1.1713500374832,1447,0.0,100,P-GPS,
0.0461476135914553,36.866925893103,8700,2018-04-12 12:35:07,1835.5675880381573,10.6000003392,0.0,1.17521003760672,1835.5675880381573,10.6000003392,0.35999970196000003,1.17521003760672,1447,0.0,100,P-GPS,
0.0461476409281447,36.8669258764686,8800,2018-04-12 12:35:07,1835.8675880477574,10.9000003488,0.0,1.17843003770976,1835.8675880477574,10.9000003488,0.35999970196000003,1.17843003770976,1447,0.0,100,P-GPS,
0.046147677716323,36.8669258501326,8900,2018-04-12 12:35:07,1836.1675880573573,11.200000358400002,0.0,1.1831300378601601,1836.1675880573573,11.200000358400002,0.35999970196000003,1.1831300378601601,1449,0.0,100,P-GPS,
0.0461477402974258,36.866925816656,9000,2018-04-12 12:35:07,1836.3675880637572,11.4000003648,0.0,1.19009003808288,1836.3675880637572,11.4000003648,0.35999970196000003,1.19009003808288,1449,0.0,100,P-GPS,
0.0461478125482291,36.8669257669988,9100,2018-04-12 12:35:07,1836.6675880733574,11.700000374400002,0.0,1.1991500383728002,1836.6675880733574,11.700000374400002,0.35999970196000003,1.1991500383728002,1450,0.0,100,P-GPS,
0.0461478849569914,36.86692569882089,9200,2018-04-12 12:35:07,1836.9675880829573,12.000000384000002,0.0,1.20993003871776,1836.9675880829573,12.000000384000002,0.35999970196000003,1.20993003871776,1450,0.0,100,P-GPS,
0.0461479588297249,36.8669256330045,9300,2018-04-12 12:35:07,1837.1675880893572,12.2000003904,0.0,1.2206000390592,1837.1675880893572,12.2000003904,0.35999970196000003,1.2206000390592,1449,0.0,100,P-GPS,
0.0461480287274266,36.866925590864895,9400,2018-04-12 12:35:08,1837.4675880989573,12.500000400000001,0.0,1.2288500393231998,1837.4675880989573,12.500000400000001,0.35999970196000003,1.2288500393231998,1455,0.0,100,P-GPS,
0.0461481073845285,36.866925544344504,9500,2018-04-12 12:35:08,1837.7675881085572,12.800000409600003,0.0,1.2380600396179202,1837.7675881085572,12.800000409600003,0.35999970196000003,1.2380600396179202,1459,0.0,100,P-GPS,
0.0461481880153046,36.86692549055061,9600,2018-04-12 12:35:08,1837.9675881149574,13.000000416,0.0,1.2480800399385603,1837.9675881149574,13.000000416,0.35999970196000003,1.2480800399385603,1461,0.0,100,P-GPS,
0.046148277009769006,36.8669254300122,9700,2018-04-12 12:35:08,1838.2675881245573,13.3000004256,0.0,1.25926004029632,1838.2675881245573,13.3000004256,0.35999970196000003,1.25926004029632,1467,0.0,100,P-GPS,
0.0461483604251843,36.866925364656296,9800,2018-04-12 12:35:08,1838.5675881341574,13.600000435200002,0.0,1.2705400406572802,1838.5675881341574,13.600000435200002,0.35999970196000003,1.2705400406572802,1474,0.0,100,P-GPS,
0.0461484372470299,36.866925292408,9900,2018-04-12 12:35:08,1838.8675881437573,13.9000004448,0.0,1.28202004102464,1838.8675881437573,13.9000004448,0.35999970196000003,1.28202004102464,1478,0.0,100,P-GPS,
0.0461485032804339,36.8669252345739,10000,2018-04-12 12:35:08,1839.1675881533574,14.200000454400003,0.0,1.29151004132832,1839.1675881533574,14.200000454400003,0.35999970196000003,1.29151004132832,1478,0.0,100,P-GPS,
0.0461485900390447,36.866925206998204,10100,2018-04-12 12:35:08,1839.3675881597574,14.400000460800001,0.0,1.29961004158752,1839.3675881597574,14.400000460800001,0.35999970196000003,1.29961004158752,1480,0.0,100,P-GPS,
0.0461486859413686,36.8669251797951,10200,2018-04-12 12:35:08,1839.6675881693573,14.7000004704,0.0,1.30829004186528,1839.6675881693573,14.7000004704,0.35999970196000003,1.30829004186528,1481,0.0,100,P-GPS,
0.0461487918341964,36.8669251315425,10300,2018-04-12 12:35:08,1839.9675881789574,15.00000048,0.0,1.3195500422256,1839.9675881789574,15.00000048,0.35999970196000003,1.3195500422256,1481,0.0,100,P-GPS,
0.0461488944652509,36.8669250759073,10400,2018-04-12 12:35:09,1840.2675881885575,15.3000004896,0.0,1.3312900426012801,1840.2675881885575,15.3000004896,0.35999970196000003,1.3312900426012801,1481,0.0,100,P-GPS,
0.0461490191649784,36.8669250393324,10500,2018-04-12 12:35:09,1840.5675881981572,15.6000004992,0.0,1.3428200429702402,1840.5675881981572,15.6000004992,0.35999970196000003,1.3428200429702402,1483,0.0,100,P-GPS,
0.0461491428062173,36.8669250157928,10600,2018-04-12 12:35:09,1840.8675882077573,15.900000508800002,0.0,1.35318004330176,1840.8675882077573,15.900000508800002,0.35999970196000003,1.35318004330176,1483,0.0,100,P-GPS,
0.0461492431590786,36.866924971124504,10700,2018-04-12 12:35:09,1841.1675882173574,16.2000005184,0.0,1.36389004364448,1841.1675882173574,16.2000005184,0.35999970196000003,1.36389004364448,1488,0.0,100,P-GPS,
0.0461493050220376,36.8669249025804,10800,2018-04-12 12:35:09,1841.4675882269573,16.500000528,0.0,1.3741200439718402,1841.4675882269573,16.500000528,0.35999970196000003,1.3741200439718402,1491,0.0,100,P-GPS,
0.0461493814497997,36.8669248246774,10900,2018-04-12 12:35:09,1841.8675882397574,16.900000540799997,0.0,1.3861700443574398,1841.8675882397574,16.900000540799997,0.35999970196000003,1.3861700443574398,1492,0.0,100,P-GPS,
0.0461494787314156,36.8669247299108,11000,2018-04-12 12:35:09,1842.167588249357,17.2000005504,0.0,1.40112004483584,1842.167588249357,17.2000005504,0.35999970196000003,1.40112004483584,1495,0.0,100,P-GPS,
0.0461495625148593,36.866924611782295,11100,2018-04-12 12:35:09,1842.4675882589572,17.50000056,0.0,1.41721004535072,1842.4675882589572,17.50000056,0.35999970196000003,1.41721004535072,1498,0.0,100,P-GPS,
0.0461496279375968,36.866924505819796,11200,2018-04-12 12:35:09,1842.7675882685573,17.8000005696,0.0,1.4309900457916802,1842.7675882685573,17.8000005696,0.35999970196000003,1.4309900457916802,1500,0.0,100,P-GPS,
0.0461496991201408,36.8669244378088,11300,2018-04-12 12:35:09,1843.0675882781575,18.100000579200003,0.0,1.44181004613792,1843.0675882781575,18.100000579200003,0.35999970196000003,1.44181004613792,1502,0.0,100,P-GPS,
0.0461497680277486,36.866924400608795,11400,2018-04-12 12:35:10,1843.4675882909573,18.500000592000003,0.0,1.44976004639232,1843.4675882909573,18.500000592000003,0.35999970196000003,1.44976004639232,1501,0.0,100,P-GPS,
0.0461498232922525,36.866924373833896,11500,2018-04-12 12:35:10,1843.7675883005575,18.800000601600004,0.0,1.4558800465881603,1843.7675883005575,18.800000601600004,0.35999970196000003,1.4558800465881603,1509,0.0,100,P-GPS,
0.0461498660682194,36.866924353615204,11600,2018-04-12 12:35:10,1844.0675883101571,19.1000006112,0.0,1.4605800467385601,1844.0675883101571,19.1000006112,0.35999970196000003,1.4605800467385601,1514,0.0,100,P-GPS,
0.04614993092263,36.8669243267182,11700,2018-04-12 12:35:10,1844.4675883229572,19.500000624000002,0.0,1.4673700469558402,1844.4675883229572,19.500000624000002,0.35999970196000003,1.4673700469558402,1517,0.0,100,P-GPS,
0.0461500140481823,36.866924287053706,11800,2018-04-12 12:35:10,1844.7675883325574,19.800000633599996,0.0,1.4765500472496,1844.7675883325574,19.800000633599996,0.35999970196000003,1.4765500472496,1522,0.0,100,P-GPS,
0.0461501051156559,36.8669242451196,11900,2018-04-12 12:35:10,1845.0675883421573,20.1000006432,0.0,1.4865000475680001,1845.0675883421573,20.1000006432,0.35999970196000003,1.4865000475680001,1525,0.0,100,P-GPS,
0.0461501764740719,36.8669241854398,12000,2018-04-12 12:35:10,1845.3675883517574,20.4000006528,0.0,1.4966300478921601,1845.3675883517574,20.4000006528,0.35999970196000003,1.4966300478921601,1527,0.0,100,P-GPS,
0.0461502260308796,36.8669241096694,12100,2018-04-12 12:35:10,1845.7675883645575,20.800000665600002,0.0,1.5066500482128002,1845.7675883645575,20.800000665600002,0.35999970196000003,1.5066500482128002,1542,0.0,100,P-GPS,
0.0461502510926327,36.8669240289337,12200,2018-04-12 12:35:10,1846.0675883741574,21.1000006752,0.0,1.51542004849344,1846.0675883741574,21.1000006752,0.35999970196000003,1.51542004849344,1547,0.0,100,P-GPS,
0.046150271772243,36.866923936511604,12300,2018-04-12 12:35:11,1846.4675883869575,21.500000688,0.0,1.52491004879712,1846.4675883869575,21.500000688,0.35999970196000003,1.52491004879712,1549,0.0,100,P-GPS,
0.0461503667202987,36.866923782281496,12500,2018-04-12 12:35:11,1847.1675884093574,22.2000007104,0.0,1.54492004943744,1847.1675884093574,22.2000007104,0.35999970196000003,1.54492004943744,1552,0.0,100,P-GPS,
0.0461504512007164,36.8669237159021,12600,2018-04-12 12:35:11,1847.4675884189573,22.50000072,0.0,1.5565300498089598,1847.4675884189573,22.50000072,0.35999970196000003,1.5565300498089598,1554,0.0,100,P-GPS,
0.0461505366728564,36.8669236480795,12700,2018-04-12 12:35:11,1847.8675884317572,22.900000732800002,0.0,1.56834005018688,1847.8675884317572,22.900000732800002,0.35999970196000003,1.56834005018688,1557,0.0,100,P-GPS,
0.0461506128905493,36.8669235881192,12800,2018-04-12 12:35:11,1848.2675884445573,23.300000745600002,0.0,1.5788300505225603,1848.2675884445573,23.300000745600002,0.35999970196000003,1.5788300505225603,1559,0.0,100,P-GPS,
0.0461507040150184,36.866923535500895,12900,2018-04-12 12:35:11,1848.5675884541572,23.6000007552,0.0,1.5897100508707203,1848.5675884541572,23.6000007552,0.35999970196000003,1.5897100508707203,1562,0.0,100,P-GPS,
0.0461507975023599,36.866923487441,13000,2018-04-12 12:35:11,1848.9675884669573,24.000000768000003,0.0,1.60038005121216,1848.9675884669573,24.000000768000003,0.35999970196000003,1.60038005121216,1571,0.0,100,P-GPS,
0.0461508854106522,36.86692343033479,13100,2018-04-12 12:35:11,1849.2675884765574,24.3000007776,0.0,1.61146005156672,1849.2675884765574,24.3000007776,0.35999970196000003,1.61146005156672,1574,0.0,100,P-GPS,
0.046150965321656,36.8669233875336,13200,2018-04-12 12:35:11,1849.6675884893573,24.7000007904,0.0,1.62074005186368,1849.6675884893573,24.7000007904,0.35999970196000003,1.62074005186368,1586,0.0,100,P-GPS,
0.0461510551971086,36.8669233703574,13300,2018-04-12 12:35:11,1850.0675885021574,25.100000803199997,0.0,1.62853005211296,1850.0675885021574,25.100000803199997,0.35999970196000003,1.62853005211296,1599,0.0,100,P-GPS,
0.0461511320319817,36.8669233413793,13400,2018-04-12 12:35:12,1850.4675885149572,25.500000816,0.0,1.63644005236608,1850.4675885149572,25.500000816,0.35999970196000003,1.63644005236608,1615,0.0,100,P-GPS,
0.0461512142537476,36.8669232974368,13500,2018-04-12 12:35:12,1850.8675885277573,25.900000828800003,0.0,1.6460200526726398,1850.8675885277573,25.900000828800003,0.35999970196000003,1.6460200526726398,1635,0.0,100,P-GPS,
0.0461513109572659,36.866923227464596,13600,2018-04-12 12:35:12,1851.2675885405572,26.300000841600003,0.0,1.6588700530838403,1851.2675885405572,26.300000841600003,0.35999970196000003,1.6588700530838403,1654,0.0,100,P-GPS,
0.0461514466571326,36.86692312208871,13700,2018-04-12 12:35:12,1851.6675885533573,26.700000854400002,0.0,1.6775300536809599,1851.6675885533573,26.700000854400002,0.35999970196000003,1.6775300536809599,1666,0.0,100,P-GPS,
0.0461516024226862,36.8669229892999,13800,2018-04-12 12:35:12,1852.0675885661572,27.100000867200002,0.0,1.69996005439872,1852.0675885661572,27.100000867200002,0.35999970196000003,1.69996005439872,1670,0.0,100,P-GPS,
0.0461517654283019,36.866922856821496,13900,2018-04-12 12:35:12,1852.5675885821574,27.6000008832,0.0,1.7229000551328002,1852.5675885821574,27.6000008832,0.35999970196000003,1.7229000551328002,1674,0.0,100,P-GPS,
0.0461519044485659,36.8669227528138,14000,2018-04-12 12:35:12,1852.9675885949573,28.000000896,0.0,1.74171005573472,1852.9675885949573,28.000000896,0.35999970196000003,1.74171005573472,1684,0.0,100,P-GPS,
0.0461520423500889,36.8669226319425,14100,2018-04-12 12:35:12,1853.4675886109574,28.500000912,0.0,1.76188005638016,1853.4675886109574,28.500000912,0.35999970196000003,1.76188005638016,1684,0.0,100,P-GPS,
0.0461521553136205,36.866922494653004,14200,2018-04-12 12:35:12,1853.9675886269572,29.000000928,0.0,1.7816500570128,1853.9675886269572,29.000000928,0.35999970196000003,1.7816500570128,1684,0.0,100,P-GPS,
0.0461522665477446,36.866922337900704,14300,2018-04-12 12:35:12,1854.4675886429575,29.500000944,0.0,1.8029400576940802,1854.4675886429575,29.500000944,0.35999970196000003,1.8029400576940802,1684,0.0,100,P-GPS,
0.0461523667426468,36.866922195314004,14400,2018-04-12 12:35:13,1854.9675886589573,30.00000096,0.0,1.8222500583120003,1854.9675886589573,30.00000096,0.35999970196000003,1.8222500583120003,1684,0.0,100,P-GPS,
0.0461524779197754,36.8669220786222,14500,2018-04-12 12:35:13,1855.4675886749574,30.500000976,0.0,1.84014005888448,1855.4675886749574,30.500000976,0.35999970196000003,1.84014005888448,1684,0.0,100,P-GPS,
0.0461525826808346,36.8669220083331,14600,2018-04-12 12:35:13,1855.9675886909574,31.000000992,0.0,1.8536300593161599,1855.9675886909574,31.000000992,0.35999970196000003,1.8536300593161599,1684,0.0,100,P-GPS,
0.0461527190076522,36.866921931406395,14700,2018-04-12 12:35:13,1856.3675887037575,31.400001004800004,0.0,1.86998005983936,1856.3675887037575,31.400001004800004,0.35999970196000003,1.86998005983936,1684,0.0,100,P-GPS,
0.0461528608027848,36.8669218380188,14800,2018-04-12 12:35:13,1856.9675887229573,32.000001024,0.0,1.88812006041984,1856.9675887229573,32.000001024,0.35999970196000003,1.88812006041984,1684,0.0,100,P-GPS,
0.0461530074050841,36.866921738109205,14900,2018-04-12 12:35:13,1857.4675887389571,32.50000104,0.0,1.90718006102976,1857.4675887389571,32.50000104,0.35999970196000003,1.90718006102976,1684,0.0,100,P-GPS,
0.0461531268025979,36.8669216567461,15000,2018-04-12 12:35:13,1857.9675887549574,33.000001056,0.0,1.92271006152672,1857.9675887549574,33.000001056,0.35999970196000003,1.92271006152672,1684,0.0,100,P-GPS,
0.0461532640706562,36.8669215912531,15100,2018-04-12 12:35:13,1858.4675887709573,33.500001071999996,0.0,1.9382300620233601,1858.4675887709573,33.500001071999996,0.35999970196000003,1.9382300620233601,1684,0.0,100,P-GPS,
0.0461533959225098,36.8669215392707,15200,2018-04-12 12:35:13,1858.9675887869573,34.000001088000005,0.0,1.952250062472,1858.9675887869573,34.000001088000005,0.35999970196000003,1.952250062472,1684,0.0,100,P-GPS,
0.0461535515170768,36.866921470758705,15300,2018-04-12 12:35:14,1859.4675888029574,34.500001104,0.0,1.96942006302144,1859.4675888029574,34.500001104,0.35999970196000003,1.96942006302144,1684,0.0,100,P-GPS,
0.0461536934066591,36.866921388269404,15400,2018-04-12 12:35:14,1859.9675888189574,35.00000112,0.0,1.98676006357632,1859.9675888189574,35.00000112,0.35999970196000003,1.98676006357632,1684,0.0,100,P-GPS,
0.0461538207379521,36.866921303994395,15500,2018-04-12 12:35:14,1860.4675888349573,35.500001136,0.0,2.00319006410208,1860.4675888349573,35.500001136,0.35999970196000003,2.00319006410208,1684,0.0,100,P-GPS,
0.0461539195845027,36.8669212321379,15600,2018-04-12 12:35:14,1861.0675888541573,36.1000011552,0.0,2.0164800645273604,1861.0675888541573,36.1000011552,0.35999970196000003,2.0164800645273604,1684,0.0,100,P-GPS,
0.0461540453394619,36.866921145417706,15700,2018-04-12 12:35:14,1861.5675888701574,36.6000011712,0.0,2.0330100650563203,1861.5675888701574,36.6000011712,0.35999970196000003,2.0330100650563203,1684,0.0,100,P-GPS,
0.0461541775984265,36.8669210520943,15800,2018-04-12 12:35:14,1862.0675888861572,37.1000011872,0.0,2.05057006561824,1862.0675888861572,37.1000011872,0.35999970196000003,2.05057006561824,1684,0.0,100,P-GPS,
0.0461543195010364,36.8669209455215,15900,2018-04-12 12:35:14,1862.5675889021575,37.60000120320001,0.0,2.0699500662384,1862.5675889021575,37.60000120320001,0.35999970196000003,2.0699500662384,1684,0.0,100,P-GPS,
0.0461544443798927,36.8669208340198,16000,2018-04-12 12:35:14,1863.0675889181573,38.1000012192,0.0,2.0884700668310403,1863.0675889181573,38.1000012192,0.35999970196000003,2.0884700668310403,1684,0.0,100,P-GPS,
0.046154584149241,36.8669207087935,16100,2018-04-12 12:35:14,1863.5675889341571,38.600001235200004,0.0,2.10923006749536,1863.5675889341571,38.600001235200004,0.35999970196000003,2.10923006749536,1684,0.0,100,P-GPS,
0.0461547194859647,36.866920597291795,16200,2018-04-12 12:35:14,1864.0675889501574,39.100001251200005,0.0,2.1285400681132804,1864.0675889501574,39.100001251200005,0.35999970196000003,2.1285400681132804,1684,0.0,100,P-GPS,
0.046154861610043,36.8669204863982,16300,2018-04-12 12:35:14,1864.5675889661572,39.60000126719999,0.0,2.14831006874592,1864.5675889661572,39.60000126719999,0.35999970196000003,2.14831006874592,1684,0.0,100,P-GPS,
0.0461549872770662,36.8669203999564,16400,2018-04-12 12:35:15,1865.0675889821573,40.10000128320001,0.0,2.1648500692751997,1865.0675889821573,40.10000128320001,0.35999970196000003,2.1648500692751997,1684,0.0,100,P-GPS,
0.0461551277075627,36.866920321535204,16500,2018-04-12 12:35:15,1865.5675889981574,40.6000012992,0.0,2.1818500698192,1865.5675889981574,40.6000012992,0.35999970196000003,2.1818500698192,1684,0.0,100,P-GPS,
0.0461552569343645,36.866920240973,16600,2018-04-12 12:35:15,1866.1675890173574,41.200001318400005,0.0,2.1982000703424,1866.1675890173574,41.200001318400005,0.35999970196000003,2.1982000703424,1684,0.0,100,P-GPS,
0.0461553906035616,36.8669201341775,16700,2018-04-12 12:35:15,1866.6675890333572,41.7000013344,0.0,2.2170200709446397,1866.6675890333572,41.7000013344,0.35999970196000003,2.2170200709446397,1684,0.0,100,P-GPS,
0.0461554995692632,36.8669200130664,16800,2018-04-12 12:35:15,1867.1675890493575,42.2000013504,0.0,2.2351300715241598,1867.1675890493575,42.2000013504,0.35999970196000003,2.2351300715241598,1684,0.0,100,P-GPS,
0.0461556324470364,36.866919874145395,16900,2018-04-12 12:35:15,1867.6675890653573,42.7000013664,0.0,2.2565100722083202,1867.6675890653573,42.7000013664,0.35999970196000003,2.2565100722083202,1684,0.0,100,P-GPS,
0.0461557669304555,36.8669197437589,17000,2018-04-12 12:35:15,1868.1675890813572,43.200001382399996,0.0,2.27731007287392,1868.1675890813572,43.200001382399996,0.35999970196000003,2.27731007287392,1684,0.0,100,P-GPS,
0.0461559034754846,36.8669196322787,17100,2018-04-12 12:35:15,1868.6675890973574,43.700001398400005,0.0,2.29674007349568,1868.6675890973574,43.700001398400005,0.35999970196000003,2.29674007349568,1684,0.0,100,P-GPS,
0.0461560207788195,36.8669195435372,17200,2018-04-12 12:35:15,1869.1675891133573,44.2000014144,0.0,2.31286007401152,1869.1675891133573,44.2000014144,0.35999970196000003,2.31286007401152,1684,0.0,100,P-GPS,
0.0461561484813977,36.8669194666363,17300,2018-04-12 12:35:16,1869.7675891325575,44.80000143360001,0.0,2.32881007452192,1869.7675891325575,44.80000143360001,0.35999970196000003,2.32881007452192,1684,0.0,100,P-GPS,
0.0461562522197941,36.866919402856205,17400,2018-04-12 12:35:16,1870.2675891485574,45.3000014496,0.0,2.34189007494048,1870.2675891485574,45.3000014496,0.35999970196000003,2.34189007494048,1684,0.0,100,P-GPS,
0.0461563587004902,36.8669193448144,17500,2018-04-12 12:35:16,1870.7675891645572,45.800001465600005,0.0,2.3547200753510404,1870.7675891645572,45.800001465600005,0.35999970196000003,2.3547200753510404,1684,0.0,100,P-GPS,
0.0461564382434657,36.866919303580396,17600,2018-04-12 12:35:16,1871.2675891805573,46.3000014816,0.0,2.36413007565216,1871.2675891805573,46.3000014816,0.35999970196000003,2.36413007565216,1684,0.0,100,P-GPS,
0.0461564932229919,36.866919274927795,17700,2018-04-12 12:35:16,1871.7675891965573,46.80000149760001,0.0,2.3706500758608002,1871.7675891965573,46.80000149760001,0.35999970196000003,2.3706500758608002,1684,0.0,100,P-GPS,
0.046156511103307,36.86691926011971,17800,2018-04-12 12:35:16,1872.2675892125574,47.30000151360001,0.0,2.37322007594304,1872.2675892125574,47.30000151360001,0.35999970196000003,2.37322007594304,1684,0.0,100,P-GPS,
0.0461565194963073,36.8669192590106,17900,2018-04-12 12:35:16,1872.7675892285572,47.8000015296,0.0,2.3739500759664,1872.7675892285572,47.8000015296,0.35999970196000003,2.3739500759664,1684,0.0,100,P-GPS,
0.0461565013196154,36.8669192789145,18000,2018-04-12 12:35:16,1873.2675892445575,48.300001545600004,0.35999970196000003,2.3709500758704,1873.2675892445575,48.300001545600004,0.35999970196000003,2.3739500759664,1684,0.0,100,P-GPS,
0.0461564298537222,36.866919298621504,18100,2018-04-12 12:35:16,1873.7675892605573,48.8000015616,0.35999970196000003,2.36389007564448,1873.7675892605573,48.8000015616,0.35999970196000003,2.3739500759664,1684,0.0,100,P-GPS,
0.046156351988044006,36.8669193013194,18200,2018-04-12 12:35:16,1874.2675892765571,49.30000157760001,0.35999970196000003,2.35772007544704,1874.2675892765571,49.30000157760001,0.35999970196000003,2.3739500759664,1684,0.0,100,P-GPS,
0.0461563480537233,36.8669192908835,18300,2018-04-12 12:35:16,1874.7675892925574,49.8000015936,0.0,2.35826007546432,1874.7675892925574,49.8000015936,0.35999970196000003,2.3739500759664,1684,0.0,100,P-GPS,
0.0461564031732957,36.8669192773044,18400,2018-04-12 12:35:17,1875.3675893117572,50.40000161280001,0.0,2.3635700756342404,1875.3675893117572,50.40000161280001,0.35999970196000003,2.3739500759664,1684,0.0,100,P-GPS,
0.0461564664774277,36.866919256681,18500,2018-04-12 12:35:17,1875.8675893277573,50.9000016288,0.0,2.3700800758425604,1875.8675893277573,50.9000016288,0.35999970196000003,2.3739500759664,1684,0.0,100,P-GPS,
0.0461565084684846,36.8669192454615,18600,2018-04-12 12:35:17,1876.3675893437573,51.4000016448,0.0,2.3742000759743997,1876.3675893437573,51.4000016448,0.35999970196000003,2.3742000759743997,1684,0.0,100,P-GPS,
0.0461565271141683,36.8669192534479,18700,2018-04-12 12:35:17,1876.8675893597574,51.90000166080001,0.0,2.37498007599936,1876.8675893597574,51.90000166080001,0.35999970196000003,2.37498007599936,1684,0.0,100,P-GPS,
0.0461564877774752,36.8669192824046,18800,2018-04-12 12:35:17,1877.3675893757572,52.400001676799995,0.0,2.3696300758281597,1877.3675893757572,52.400001676799995,0.35999970196000003,2.37498007599936,1684,0.0,100,P-GPS,
0.0461564405330579,36.8669193153866,18900,2018-04-12 12:35:17,1877.8675893917575,52.90000169280001,0.0,2.36336007562752,1877.8675893917575,52.90000169280001,0.35999970196000003,2.37498007599936,1684,0.0,100,P-GPS,
0.0461563853157789,36.8669193621704,19000,2018-04-12 12:35:17,1878.3675894077574,53.400001708800005,0.35999970196000003,2.3553500753712,1878.3675894077574,53.400001708800005,0.35999970196000003,2.37498007599936,1684,0.0,100,P-GPS,
0.0461563305902899,36.8669193978031,19100,2018-04-12 12:35:17,1878.8675894237572,53.900001724800006,0.0,2.34829007514528,1878.8675894237572,53.900001724800006,0.35999970196000003,2.37498007599936,1684,0.0,100,P-GPS,
0.0461562738357597,36.866919415202,19200,2018-04-12 12:35:17,1879.3675894397575,54.40000174080001,0.0,2.34254007496128,1879.3675894397575,54.40000174080001,0.35999970196000003,2.37498007599936,1684,0.0,100,P-GPS,
0.0461562343427359,36.8669194393797,19300,2018-04-12 12:35:18,1879.8675894557573,54.9000017568,0.0,2.33757007480224,1879.8675894557573,54.9000017568,0.35999970196000003,2.37498007599936,1684,0.0,100,P-GPS,
0.0461561895084158,36.8669194810076,19400,2018-04-12 12:35:18,1880.3675894717574,55.40000177280001,0.0,2.3307800745849603,1880.3675894717574,55.40000177280001,0.35999970196000003,2.37498007599936,1684,0.0,100,P-GPS,
0.0461561243608853,36.866919508940796,19500,2018-04-12 12:35:18,1880.8675894877574,55.900001788800004,0.35999970196000003,2.3235500743536,1880.8675894877574,55.900001788800004,0.35999970196000003,2.37498007599936,1684,0.0,100,P-GPS,
0.046156033588160006,36.86691952750021,19600,2018-04-12 12:35:18,1881.3675895037575,56.400001804800006,0.35999970196000003,2.31513007408416,1881.3675895037575,56.400001804800006,0.35999970196000003,2.37498007599936,1684,0.0,100,P-GPS,
0.0461559413433213,36.8669195189999,19700,2018-04-12 12:35:18,1881.8675895197573,56.90000182080001,0.35999970196000003,2.30882007388224,1881.8675895197573,56.90000182080001,0.35999970196000003,2.37498007599936,1684,0.0,100,P-GPS,
0.0461558473071943,36.866919486116295,19800,2018-04-12 12:35:18,1882.3675895357571,57.4000018368,0.35999970196000003,2.30439007374048,1882.3675895357571,57.4000018368,0.35999970196000003,2.37498007599936,1684,0.0,100,P-GPS,
0.0461557625857669,36.8669194289609,19900,2018-04-12 12:35:18,1882.8675895517574,57.90000185280001,0.35999970196000003,2.3027000736864,1882.8675895517574,57.90000185280001,0.35999970196000003,2.37498007599936,1684,0.0,100,P-GPS,
0.0461556801376473,36.8669193838729,20000,2018-04-12 12:35:18,1883.2675895645573,58.30000186560001,0.35999970196000003,2.30024007360768,1883.2675895645573,58.30000186560001,0.35999970196000003,2.37498007599936,1684,0.0,100,P-GPS,
0.046155604284726,36.8669193420737,20100,2018-04-12 12:35:18,1883.7675895805573,58.8000018816,0.35999970196000003,2.29804007353728,1883.7675895805573,58.8000018816,0.35999970196000003,2.37498007599936,1684,0.0,100,P-GPS,
0.0461554405381683,36.8669193554644,20300,2018-04-12 12:35:18,1884.8675896157574,59.9000019168,0.0,2.2848000731136002,1884.8675896157574,59.9000019168,0.35999970196000003,2.37498007599936,1684,0.0,100,P-GPS,
0.046155348833973,36.866919408016294,20400,2018-04-12 12:35:19,1885.3675896317573,60.40000193280001,0.0,2.2736600727571203,1885.3675896317573,60.40000193280001,0.35999970196000003,2.37498007599936,1684,0.0,100,P-GPS,
0.046155269365906,36.8669194583415,20500,2018-04-12 12:35:19,1885.8675896477575,60.9000019488,0.0,2.26361007243552,1885.8675896477575,60.9000019488,0.35999970196000003,2.37498007599936,1684,0.0,100,P-GPS,
0.0461551956006498,36.8669194844163,20600,2018-04-12 12:35:19,1886.3675896637574,61.400001964800005,0.35999970196000003,2.2560100721923204,1886.3675896637574,61.400001964800005,0.35999970196000003,2.37498007599936,1684,0.0,100,P-GPS,
0.0461551274763237,36.866919500192104,20700,2018-04-12 12:35:19,1886.8675896797572,61.9000019808,0.35999970196000003,2.2496900719900803,1886.8675896797572,61.9000019808,0.35999970196000003,2.37498007599936,1684,0.0,100,P-GPS,
0.0461550691780286,36.8669195214193,20800,2018-04-12 12:35:19,1887.3675896957575,62.4000019968,0.0,2.2436500717968,1887.3675896957575,62.4000019968,0.35999970196000003,2.37498007599936,1684,0.0,100,P-GPS,
0.0461550140845113,36.8669195449761,20900,2018-04-12 12:35:19,1887.8675897117573,62.9000020128,0.35999970196000003,2.2376500716048002,1887.8675897117573,62.9000020128,0.35999970196000003,2.37498007599936,1684,0.0,100,P-GPS,
0.0461549433221058,36.8669195668028,21000,2018-04-12 12:35:19,1888.3675897277574,63.4000020288,0.35999970196000003,2.2306500713808,1888.3675897277574,63.4000020288,0.35999970196000003,2.37498007599936,1684,0.0,100,P-GPS,
0.0461548856295919,36.866919561587,21100,2018-04-12 12:35:19,1888.8675897437572,63.900002044800004,0.0,2.22689007126048,1888.8675897437572,63.900002044800004,0.35999970196000003,2.37498007599936,1684,0.0,99,P-GPS,
0.0461548424562847,36.866919551296704,21200,2018-04-12 12:35:19,1889.3675897597575,64.4000020608,0.0,2.2246200711878403,1889.3675897597575,64.4000020608,0.35999970196000003,2.37498007599936,1684,0.0,99,P-GPS,
0.0461548153296646,36.8669195593773,21300,2018-04-12 12:35:20,1889.8675897757573,64.9000020768,0.0,2.22197007110304,1889.8675897757573,64.9000020768,0.35999970196000003,2.37498007599936,1684,0.0,99,P-GPS,
0.0461547802855497,36.866919600864,21400,2018-04-12 12:35:20,1890.4675897949573,65.500002096,0.0,2.21593007090976,1890.4675897949573,65.500002096,0.35999970196000003,2.37498007599936,1684,0.0,99,P-GPS,
0.0461547395093121,36.866919649215,21500,2018-04-12 12:35:20,1890.9675898109574,66.000002112,0.35999970196000003,2.2089000706848,1890.9675898109574,66.000002112,0.35999970196000003,2.37498007599936,1684,0.0,99,P-GPS,
0.0461546865685977,36.866919719632605,21600,2018-04-12 12:35:20,1891.4675898269572,66.500002128,0.35999970196000003,2.19912007037184,1891.4675898269572,66.500002128,0.35999970196000003,2.37498007599936,1684,0.0,99,P-GPS,
0.0461546554685743,36.866919811628605,21700,2018-04-12 12:35:20,1891.9675898429575,67.00000214399999,0.35999970196000003,2.18911007005152,1891.9675898429575,67.00000214399999,0.35999970196000003,2.37498007599936,1684,0.0,99,P-GPS,
0.0461546360510081,36.866919916754,21800,2018-04-12 12:35:20,1892.4675898589574,67.50000216000001,0.35999970196000003,2.17886006972352,1892.4675898589574,67.50000216000001,0.35999970196000003,2.37498007599936,1684,0.0,99,P-GPS,
0.0461546170112408,36.8669199926785,21900,2018-04-12 12:35:20,1892.9675898749572,68.00000217600001,0.0,2.1711000694752,1892.9675898749572,68.00000217600001,0.35999970196000003,2.37498007599936,1684,0.0,99,P-GPS,
0.0461545667053489,36.8669200068186,22000,2018-04-12 12:35:20,1893.4675898909572,68.500002192,0.0,2.16624006931968,1893.4675898909572,68.500002192,0.35999970196000003,2.37498007599936,1684,0.0,99,P-GPS,
0.0461545004504764,36.866919959461,22100,2018-04-12 12:35:20,1893.9675899069573,69.000002208,0.35999970196000003,2.16541006929312,1893.9675899069573,69.000002208,0.35999970196000003,2.37498007599936,1684,0.0,99,P-GPS,
0.0461544298834843,36.8669198947517,22200,2018-04-12 12:35:20,1894.4675899229574,69.500002224,0.35999970196000003,2.16576006930432,1894.4675899229574,69.500002224,0.35999970196000003,2.37498007599936,1684,0.0,99,P-GPS,
0.0461543629120965,36.866919834769895,22300,2018-04-12 12:35:20,1894.9675899389572,70.00000224,0.35999970196000003,2.16603006931296,1894.9675899389572,70.00000224,0.35999970196000003,2.37498007599936,1684,0.0,99,P-GPS,
0.0461543095903262,36.866919803894795,22400,2018-04-12 12:35:21,1895.4675899549575,70.50000225600002,0.0,2.16484006927488,1895.4675899549575,70.50000225600002,0.35999970196000003,2.37498007599936,1684,0.0,99,P-GPS,
0.0461542961980028,36.8669197786894,22500,2018-04-12 12:35:21,1895.9675899709573,71.000002272,0.0,2.16603006931296,1895.9675899709573,71.000002272,0.35999970196000003,2.37498007599936,1684,0.0,99,P-GPS,
0.0461542880720672,36.866919755089796,22600,2018-04-12 12:35:21,1896.4675899869571,71.500002288,0.0,2.1674600693587203,1896.4675899869571,71.500002288,0.35999970196000003,2.37498007599936,1684,0.0,99,P-GPS,
0.0461542990575504,36.8669197367274,22700,2018-04-12 12:35:21,1896.9675900029574,72.00000230399999,0.0,2.16981006943392,1896.9675900029574,72.00000230399999,0.35999970196000003,2.37498007599936,1684,0.0,99,P-GPS,
0.046154316576351,36.8669197358753,22800,2018-04-12 12:35:21,1897.4675900189573,72.50000232,0.0,2.17113006947616,1897.4675900189573,72.50000232,0.35999970196000003,2.37498007599936,1684,0.0,99,P-GPS,
0.0461543382639681,36.866919745292,22900,2018-04-12 12:35:21,1897.8675900317573,72.9000023328,0.0,2.17188006950016,1897.8675900317573,72.9000023328,0.35999970196000003,2.37498007599936,1684,0.0,99,P-GPS,
0.0461543253634348,36.866919763701404,23000,2018-04-12 12:35:21,1898.3675900477572,73.4000023488,0.0,2.16939006942048,1898.3675900477572,73.4000023488,0.35999970196000003,2.37498007599936,1684,0.0,99,P-GPS,
0.0461543075091748,36.8669197595476,23100,2018-04-12 12:35:21,1898.8675900637575,73.9000023648,0.0,2.16847006939104,1898.8675900637575,73.9000023648,0.35999970196000003,2.37498007599936,1684,0.0,99,P-GPS,
0.0461542818220992,36.866919731939895,23200,2018-04-12 12:35:21,1899.3675900797573,74.4000023808,0.0,2.16899006940768,1899.3675900797573,74.4000023808,0.35999970196000003,2.37498007599936,1684,0.0,99,P-GPS,
0.0461542543763041,36.866919705257104,23300,2018-04-12 12:35:22,1899.8675900957574,74.9000023968,0.0,2.16932006941824,1899.8675900957574,74.9000023968,0.35999970196000003,2.37498007599936,1684,0.0,99,P-GPS,
0.0461542155411716,36.8669197016728,23400,2018-04-12 12:35:22,1900.3675901117572,75.40000241279999,0.0,2.1668700693398404,1900.3675901117572,75.40000241279999,0.35999970196000003,2.37498007599936,1684,0.0,99,P-GPS,
0.0461541837572017,36.8669197059465,23500,2018-04-12 12:35:22,1900.8675901277575,75.90000242880001,0.0,2.164250069256,1900.8675901277575,75.90000242880001,0.35999970196000003,2.37498007599936,1684,0.0,99,P-GPS,
0.0461541470878998,36.866919711016706,23600,2018-04-12 12:35:22,1901.3675901437573,76.4000024448,0.0,2.1612300691593602,1901.3675901437573,76.4000024448,0.35999970196000003,2.37498007599936,1684,0.0,99,P-GPS,
0.046154126553220994,36.8669196989536,23700,2018-04-12 12:35:22,1901.8675901597571,76.9000024608,0.35999970196000003,2.1608100691459198,1901.8675901597571,76.9000024608,0.35999970196000003,2.37498007599936,1684,0.0,99,P-GPS,
0.0461540919129603,36.8669196659715,23800,2018-04-12 12:35:22,1902.3675901757574,77.40000247680001,0.35999970196000003,2.16121006915872,1902.3675901757574,77.40000247680001,0.35999970196000003,2.37498007599936,1684,0.0,99,P-GPS,
0.0461540544913172,36.86691962567539,23900,2018-04-12 12:35:22,1902.8675901917572,77.9000024928,0.35999970196000003,2.1620500691856,1902.8675901917572,77.9000024928,0.35999970196000003,2.37498007599936,1684,0.0,99,P-GPS,
0.0461539829830844,36.8669195938068,24000,2018-04-12 12:35:22,1903.3675902077573,78.4000025088,0.35999970196000003,2.1598000691136003,1903.3675902077573,78.4000025088,0.35999970196000003,2.37498007599936,1684,0.0,99,P-GPS,
0.0461538876832848,36.86691951509871,24100,2018-04-12 12:35:22,1903.8675902237574,78.9000025248,0.35999970196000003,2.1600100691203203,1903.8675902237574,78.9000025248,0.35999970196000003,2.37498007599936,1684,0.0,99,P-GPS,
0.046153662208929,36.8669193133354,24300,2018-04-12 12:35:22,1904.8675902557572,79.9000025568,0.35999970196000003,2.16221006919072,1904.8675902557572,79.9000025568,0.35999970196000003,2.37498007599936,1684,0.0,99,P-GPS,
0.0461535434106826,36.8669191920102,24400,2018-04-12 12:35:23,1905.3675902717575,80.4000025728,0.35999970196000003,2.16492006927744,1905.3675902717575,80.4000025728,0.35999970196000003,2.37498007599936,1684,0.0,99,P-GPS,
0.0461534332236479,36.8669190567591,24500,2018-04-12 12:35:23,1905.8675902877574,80.9000025888,0.35999970196000003,2.1696000694272,1905.8675902877574,80.9000025888,0.35999970196000003,2.37498007599936,1684,0.0,99,P-GPS,
0.04615331912183401,36.8669189548668,24600,2018-04-12 12:35:23,1906.3675903037572,81.4000026048,0.35999970196000003,2.1711900694780804,1906.3675903037572,81.4000026048,0.35999970196000003,2.37498007599936,1684,0.0,99,P-GPS,
0.0461532326970542,36.866918862948,24700,2018-04-12 12:35:23,1906.8675903197573,81.9000026208,0.35999970196000003,2.1738100695619202,1906.8675903197573,81.9000026208,0.35999970196000003,2.37498007599936,1684,0.0,99,P-GPS,
0.0461531253988792,36.8669187252088,24900,2018-04-12 12:35:23,1907.9675903549573,83.000002656,0.0,2.17932006973824,1907.9675903549573,83.000002656,0.35999970196000003,2.37498007599936,1684,0.0,99,P-GPS,
0.0461531099514595,36.8669186480895,25000,2018-04-12 12:35:23,1908.4675903709574,83.500002672,0.0,2.18534006993088,1908.4675903709574,83.500002672,0.35999970196000003,2.37498007599936,1684,0.0,99,P-GPS,
0.0461531231288283,36.866918516679604,25100,2018-04-12 12:35:23,1909.0675903901572,84.10000269119999,0.35999970196000003,2.19814007034048,1909.0675903901572,84.10000269119999,0.35999970196000003,2.37498007599936,1684,0.0,99,P-GPS,
0.0461531483599396,36.866918352403204,25200,2018-04-12 12:35:23,1909.5675904061575,84.60000270720002,0.35999970196000003,2.21473007087136,1909.5675904061575,84.60000270720002,0.35999970196000003,2.37498007599936,1684,0.0,99,P-GPS,
0.046153203072401,36.8669181422724,25300,2018-04-12 12:35:24,1910.0675904221573,85.1000027232,0.35999970196000003,2.23742007159744,1910.0675904221573,85.1000027232,0.35999970196000003,2.37498007599936,1684,0.0,99,P-GPS,
0.04615323008503,36.8669179356701,25400,2018-04-12 12:35:24,1910.5675904381574,85.60000273920001,0.35999970196000003,2.2580700722582403,1910.5675904381574,85.60000273920001,0.35999970196000003,2.37498007599936,1684,0.0,99,P-GPS,
0.0461532182950955,36.866917765951,25500,2018-04-12 12:35:24,1911.0675904541572,86.10000275520001,0.0,2.2729500727344,1911.0675904541572,86.10000275520001,0.35999970196000003,2.37498007599936,1684,0.0,99,P-GPS,
0.0461531497017774,36.866917678875396,25600,2018-04-12 12:35:24,1911.5675904701575,86.60000277120001,0.0,2.276750072856,1911.5675904701575,86.60000277120001,0.35999970196000003,2.37498007599936,1684,0.0,99,P-GPS,
0.0461530764576233,36.8669176250687,25700,2018-04-12 12:35:24,1912.0675904861573,87.10000278720001,0.0,2.2772300728713604,1912.0675904861573,87.10000278720001,0.35999970196000003,2.37498007599936,1684,0.0,99,P-GPS,
0.0461530045064538,36.866917591954,25800,2018-04-12 12:35:24,1912.5675905021571,87.60000280319998,0.0,2.27591007282912,1912.5675905021571,87.60000280319998,0.35999970196000003,2.37498007599936,1684,0.0,99,P-GPS,
0.0461529391016291,36.8669175224999,25900,2018-04-12 12:35:24,1913.0675905181574,88.10000281920001,0.0,2.2784100729091206,1913.0675905181574,88.10000281920001,0.35999970196000003,2.37498007599936,1684,0.0,99,P-GPS,
0.0461528727132242,36.8669174446911,26000,2018-04-12 12:35:24,1913.5675905341573,88.60000283520002,0.0,2.2816900730140803,1913.5675905341573,88.60000283520002,0.35999970196000003,2.37498007599936,1684,0.0,99,P-GPS,
0.04615281287767801,36.8669173656019,26100,2018-04-12 12:35:24,1914.0675905501573,89.1000028512,0.0,2.28552007313664,1914.0675905501573,89.1000028512,0.35999970196000003,2.37498007599936,1684,0.0,99,P-GPS,
0.046152785311378,36.866917271777396,26200,2018-04-12 12:35:24,1914.5675905661574,89.60000286720002,0.0,2.2927000733664,1914.5675905661574,89.60000286720002,0.35999970196000003,2.37498007599936,1684,0.0,99,P-GPS,
0.0461527485443695,36.866917204306,26300,2018-04-12 12:35:24,1915.0675905821574,90.1000028832,0.0,2.29688007350016,1915.0675905821574,90.1000028832,0.35999970196000003,2.37498007599936,1684,0.0,99,P-GPS,
0.0461527052863831,36.8669171870442,26400,2018-04-12 12:35:25,1915.5675905981573,90.6000028992,0.0,2.29596007347072,1915.5675905981573,90.6000028992,0.35999970196000003,2.37498007599936,1684,0.0,99,P-GPS,
0.0461526723983282,36.8669171838625,26500,2018-04-12 12:35:25,1916.067590614157,91.10000291520001,0.0,2.29433007341856,1916.067590614157,91.10000291520001,0.35999970196000003,2.37498007599936,1684,0.0,99,P-GPS,
0.0461526060066664,36.866917188585795,26600,2018-04-12 12:35:25,1916.5675906301574,91.60000293120001,0.0,2.29000007328,1916.5675906301574,91.60000293120001,0.35999970196000003,2.37498007599936,1684,0.0,99,P-GPS,
0.0461524440611678,36.86691732356721,26800,2018-04-12 12:35:25,1917.4675906589573,92.50000296000002,0.35999970196000003,2.26778007256896,1917.4675906589573,92.50000296000002,0.35999970196000003,2.37498007599936,1684,0.0,99,P-GPS,
0.0461523719927503,36.8669174180254,26900,2018-04-12 12:35:25,1917.9675906749571,93.00000297600002,0.35999970196000003,2.25463007214816,1917.9675906749571,93.00000297600002,0.35999970196000003,2.37498007599936,1684,0.0,99,P-GPS,
0.0461522907333948,36.8669174996625,27000,2018-04-12 12:35:25,1918.3675906877572,93.4000029888,0.35999970196000003,2.24218007174976,1918.3675906877572,93.4000029888,0.35999970196000003,2.37498007599936,1684,0.0,99,P-GPS,
0.0461522283249071,36.8669175790515,27100,2018-04-12 12:35:25,1918.8675907037573,93.9000030048,0.35999970196000003,2.23103007139296,1918.8675907037573,93.9000030048,0.35999970196000003,2.37498007599936,1684,0.0,99,P-GPS,
0.0461521818344594,36.866917681286296,27200,2018-04-12 12:35:25,1919.3675907197573,94.4000030208,0.35999970196000003,2.21863007099616,1919.3675907197573,94.4000030208,0.35999970196000003,2.37498007599936,1684,0.0,99,P-GPS,
0.0461521693784913,36.86691778293879,27300,2018-04-12 12:35:25,1919.8675907357572,94.9000030368,0.35999970196000003,2.2082600706643203,1919.8675907357572,94.9000030368,0.35999970196000003,2.37498007599936,1684,0.0,99,P-GPS,
0.0461521750275635,36.8669178839446,27400,2018-04-12 12:35:26,1920.3675907517575,95.40000305279999,0.35999970196000003,2.19902007036864,1920.3675907517575,95.40000305279999,0.35999970196000003,2.37498007599936,1684,0.0,99,P-GPS,
0.0461521960996288,36.866917966159896,27500,2018-04-12 12:35:26,1920.8675907677573,95.90000306880002,0.35999970196000003,2.1924800701593603,1920.8675907677573,95.90000306880002,0.35999970196000003,2.37498007599936,1684,0.0,99,P-GPS,
0.0461521866285985,36.8669180513385,27600,2018-04-12 12:35:26,1921.3675907837574,96.40000308479999,0.35999970196000003,2.18388006988416,1921.3675907837574,96.40000308479999,0.35999970196000003,2.37498007599936,1684,0.0,99,P-GPS,
0.0461521892341089,36.8669181271902,27700,2018-04-12 12:35:26,1921.8675907997574,96.90000310079999,0.35999970196000003,2.17688006966016,1921.8675907997574,96.90000310079999,0.35999970196000003,2.37498007599936,1684,0.0,99,P-GPS,
0.0461521647667379,36.8669182077397,27800,2018-04-12 12:35:26,1922.3675908157572,97.40000311680002,0.0,2.1678500693712,1922.3675908157572,97.40000311680002,0.35999970196000003,2.37498007599936,1684,0.0,99,P-GPS,
0.046152164209810005,36.8669182695114,27900,2018-04-12 12:35:26,1922.8675908317573,97.9000031328,0.35999970196000003,2.1620000691840002,1922.8675908317573,97.9000031328,0.35999970196000003,2.37498007599936,1684,0.0,99,P-GPS,
0.0461521534751072,36.8669183321353,28000,2018-04-12 12:35:26,1923.3675908477574,98.40000314880001,0.35999970196000003,2.1554800689753604,1923.3675908477574,98.40000314880001,0.35999970196000003,2.37498007599936,1684,0.0,99,P-GPS,
0.0461521645631824,36.8669183956841,28100,2018-04-12 12:35:26,1923.8675908637574,98.90000316480001,0.0,2.15017006880544,1923.8675908637574,98.90000316480001,0.35999970196000003,2.37498007599936,1684,0.0,99,P-GPS,
0.0461521517684979,36.8669184708208,28200,2018-04-12 12:35:26,1924.3675908797572,99.40000318080001,0.0,2.14236006855552,1924.3675908797572,99.40000318080001,0.35999970196000003,2.37498007599936,1684,0.0,99,P-GPS,
0.0461521336585722,36.86691852693129,28300,2018-04-12 12:35:27,1924.8675908957573,99.90000319680001,0.0,2.13601006835232,1924.8675908957573,99.90000319680001,0.35999970196000003,2.37498007599936,1684,0.0,99,P-GPS,
0.0461521577725709,36.866918536176705,28400,2018-04-12 12:35:27,1925.3675909117574,100.40000321279999,0.0,2.1365900683708796,1925.3675909117574,100.40000321279999,0.35999970196000003,2.37498007599936,1684,0.0,99,P-GPS,
0.046152180204387,36.8669185644954,28500,2018-04-12 12:35:27,1925.8675909277574,100.90000322880002,0.0,2.13529006832928,1925.8675909277574,100.90000322880002,0.35999970196000003,2.37498007599936,1684,0.0,99,P-GPS,
0.0461521929779017,36.8669186292689,28600,2018-04-12 12:35:27,1926.3675909437572,101.4000032448,0.0,2.13000006816,1926.3675909437572,101.4000032448,0.35999970196000003,2.37498007599936,1684,0.0,99,P-GPS,
0.0461522177009384,36.866918696945895,28700,2018-04-12 12:35:27,1926.7675909565571,101.8000032576,0.0,2.1251900680060802,1926.7675909565571,101.8000032576,0.35999970196000003,2.37498007599936,1684,0.0,99,P-GPS,
0.0461522094479843,36.866918764254606,28800,2018-04-12 12:35:27,1927.2675909725574,102.3000032736,0.0,2.1184200677894403,1927.2675909725574,102.3000032736,0.35999970196000003,2.37498007599936,1684,0.0,99,P-GPS,
0.0461522154878831,36.8669188546918,28900,2018-04-12 12:35:27,1927.7675909885572,102.8000032896,0.35999970196000003,2.11037006753184,1927.7675909885572,102.8000032896,0.35999970196000003,2.37498007599936,1684,0.0,99,P-GPS,
0.0461522029863185,36.8669189749849,29000,2018-04-12 12:35:27,1928.2675910045573,103.30000330560001,0.35999970196000003,2.0984400671500802,1928.2675910045573,103.30000330560001,0.35999970196000003,2.37498007599936,1684,0.0,99,P-GPS,
