latitude,longitude,time_millisecond,datetime_utc,altitude_m,ascent_m,speed_kph,distance_m,max_altitude_m,max_ascent_m,max_speed_kph,max_distance_m,rc_throttle,gimbal_pitch_degrees,battery_percent,flycState,message
0.328597770489691,36.9070623549475,100,2017-11-15 05:48:17,1633.8342807826832,0.0,0.0,0.0,1633.8342807826832,0.0,0.0,0.0,1024,0.0,100,Motors_Started,
0.328597748064694,36.9070623262576,200,2017-11-15 05:48:17,1633.8342807826832,0.0,0.0,0.00404943012958176,1633.8342807826832,0.0,0.0,0.00404943012958176,1024,0.0,100,Motors_Started,
0.328597733551594,36.9070623185374,300,2017-11-15 05:48:18,1633.8342807826832,0.0,0.0,0.00576781018456992,1633.8342807826832,0.0,0.0,0.00576781018456992,1024,0.0,100,Motors_Started,
0.328597726421248,36.9070623155429,400,2017-11-15 05:48:18,1633.8342807826832,0.0,0.0,0.00657406021036992,1633.8342807826832,0.0,0.0,0.00657406021036992,1024,0.0,100,Motors_Started,
0.32859772805987,36.9070623125072,500,2017-11-15 05:48:18,1633.8342807826832,0.0,0.0,0.00667368021355776,1633.8342807826832,0.0,0.0,0.00667368021355776,1024,0.0,100,Motors_Started,
0.328597730800338,36.9070622940171,600,2017-11-15 05:48:18,1633.8342807826832,0.0,0.0,0.00808648025876736,1633.8342807826832,0.0,0.0,0.00808648025876736,1024,0.0,100,Motors_Started,
0.328597740306176,36.9070622883578,700,2017-11-15 05:48:18,1633.8342807826832,0.0,0.0,0.00813029026016928,1633.8342807826832,0.0,0.0,0.00813029026016928,1024,0.0,100,Motors_Started,
0.328597748399441,36.907062286663,800,2017-11-15 05:48:18,1633.8342807826832,0.0,0.0,0.007981000255392001,1633.8342807826832,0.0,0.0,0.00813029026016928,663,0.0,100,Motors_Started,
0.328597760671395,36.907062296563,900,2017-11-15 05:48:18,1633.8342807826832,0.0,0.0,0.0065837702106806405,1633.8342807826832,0.0,0.0,0.00813029026016928,1024,0.0,100,Motors_Started,Setting new Return-To-Home altitude to 30m (98 ft). Setting new Maximum Flight Altitude to 150m (492 ft)
0.328597770065379,36.9070623042115,1000,2017-11-15 05:48:18,1633.8342807826832,0.0,0.0,0.00564226018055232,1633.8342807826832,0.0,0.0,0.00813029026016928,1024,0.0,100,Motors_Started,
0.328597800016536,36.9070623204313,1100,2017-11-15 05:48:18,1633.8342807826832,0.0,0.0,0.00505121016163872,1633.8342807826832,0.0,0.0,0.00813029026016928,1024,0.0,100,Motors_Started,
0.328597836199951,36.9070623341256,1200,2017-11-15 05:48:18,1633.8342807826832,0.0,0.0,0.007665460245294721,1633.8342807826832,0.0,0.0,0.00813029026016928,1024,0.0,100,Motors_Started,
0.328597877076999,36.9070623361052,1300,2017-11-15 05:48:19,1633.8342807826832,0.0,0.0,0.0120369003851808,1633.8342807826832,0.0,0.0,0.0120369003851808,1024,0.0,100,Motors_Started,
0.328597904940745,36.9070623192553,1400,2017-11-15 05:48:19,1633.8342807826832,0.0,0.0,0.015469600495027202,1633.8342807826832,0.0,0.0,0.015469600495027202,1024,0.0,100,Motors_Started,
0.328597928872205,36.9070623014857,1500,2017-11-15 05:48:19,1633.8342807826832,0.0,0.0,0.018589400594860802,1633.8342807826832,0.0,0.0,0.018589400594860802,1024,0.0,100,Assisted_Takeoff,
0.328597943055392,36.907062294334,1600,2017-11-15 05:48:19,1633.8342807826832,0.0,0.0,0.0203397006508704,1633.8342807826832,0.0,0.0,0.0203397006508704,1024,0.0,100,Assisted_Takeoff,
0.328597956315354,36.9070622877636,1700,2017-11-15 05:48:19,1633.8342807826832,0.0,0.0,0.021974000703168,1633.8342807826832,0.0,0.0,0.021974000703168,1024,0.0,100,Assisted_Takeoff,
0.328597964363582,36.907062286322,1800,2017-11-15 05:48:19,1633.8342807826832,0.0,0.0,0.0228707007318624,1633.8342807826832,0.0,0.0,0.0228707007318624,1072,0.0,100,Assisted_Takeoff,
0.328597966882785,36.9070622861555,1900,2017-11-15 05:48:19,1633.8342807826832,0.0,0.0,0.0231411007405152,1633.8342807826832,0.0,0.0,0.0231411007405152,1140,0.0,100,Assisted_Takeoff,
0.32859797132401,36.9070622884579,2000,2017-11-15 05:48:19,1633.8342807826832,0.0,0.0,0.0235261007528352,1633.8342807826832,0.0,0.0,0.0235261007528352,1220,0.0,100,Assisted_Takeoff,
0.328597969547275,36.9070622951482,2200,2017-11-15 05:48:19,1633.8342807826832,0.0,0.0,0.0231137007396384,1633.8342807826832,0.0,0.0,0.0235261007528352,1220,0.0,100,Assisted_Takeoff,
0.328597963816985,36.9070622990147,2300,2017-11-15 05:48:20,1633.8342807826832,0.0,0.0,0.022380800716185603,1633.8342807826832,0.0,0.0,0.0235261007528352,1242,0.0,100,Assisted_Takeoff,
0.328597963061845,36.9070623037522,2400,2017-11-15 05:48:20,1633.8342807826832,0.0,0.0,0.022159000709088002,1633.8342807826832,0.0,0.0,0.0235261007528352,1282,0.0,100,Assisted_Takeoff,
0.328597956923628,36.9070622903598,2500,2017-11-15 05:48:20,1633.8342807826832,0.0,0.0,0.021941500702128,1633.8342807826832,0.0,0.0,0.0235261007528352,1282,0.0,100,Assisted_Takeoff,
0.328597969804315,36.9070622714212,2600,2017-11-15 05:48:20,1633.8342807826832,0.0,0.0,0.02403250076904,1633.8342807826832,0.0,0.0,0.02403250076904,1327,0.0,100,Assisted_Takeoff,
0.328598024070227,36.9070622673678,2700,2017-11-15 05:48:20,1633.8342807826832,0.0,0.35999970196000003,0.0298341009546912,1633.8342807826832,0.0,0.35999970196000003,0.0298341009546912,1366,0.0,100,Assisted_Takeoff,
0.328598141286898,36.9070622754189,2800,2017-11-15 05:48:20,1633.8342807826832,0.0,0.35999970196000003,0.0421727013495264,1633.8342807826832,0.0,0.35999970196000003,0.0421727013495264,1390,0.0,100,GPS_Atti,
0.328598314360038,36.9070622725946,2900,2017-11-15 05:48:20,1633.8342807826832,0.0,0.7199994039200001,0.0611711019574752,1633.8342807826832,0.0,0.7199994039200001,0.0611711019574752,1417,0.0,100,GPS_Atti,Home Point Recorded. RTH Altitude:  30m.
0.328598504028879,36.9070622666371,3000,2017-11-15 05:48:20,1633.9342807858832,0.1000000032,0.35999970196000003,0.08216300262921601,1633.9342807858832,0.1000000032,0.7199994039200001,0.08216300262921601,1431,0.0,100,GPS_Atti,
0.328598642638254,36.9070622740019,3100,2017-11-15 05:48:20,1634.0342807890831,0.2000000064,0.35999970196000003,0.09740510311696321,1634.0342807890831,0.2000000064,0.7199994039200001,0.09740510311696321,1441,0.0,100,GPS_Atti,
0.328598711455356,36.9070622812826,3200,2017-11-15 05:48:20,1634.2342807954833,0.4000000128,0.0,0.104961003358752,1634.2342807954833,0.4000000128,0.7199994039200001,0.104961003358752,1442,0.0,100,GPS_Atti,
0.328598718733804,36.9070622903261,3300,2017-11-15 05:48:21,1634.334280798683,0.500000016,0.0,0.10569500338224001,1634.334280798683,0.500000016,0.7199994039200001,0.10569500338224001,1444,0.0,100,GPS_Atti,
0.328598696193938,36.90706227555,3400,2017-11-15 05:48:21,1634.5342808050832,0.7000000224,0.0,0.103322003306304,1634.5342808050832,0.7000000224,0.7199994039200001,0.10569500338224001,1459,0.0,100,GPS_Atti,
0.328598647108177,36.9070622558175,3500,2017-11-15 05:48:21,1634.8342808146833,1.000000032,0.0,0.0981066031394112,1634.8342808146833,1.000000032,0.7199994039200001,0.10569500338224001,1465,-0.7,100,GPS_Atti,
0.328598629098521,36.907062206242,3600,2017-11-15 05:48:21,1635.0342808210833,1.2000000384,0.0,0.096904003100928,1635.0342808210833,1.2000000384,0.7199994039200001,0.10569500338224001,1460,-2.0,100,GPS_Atti,
0.328598639268214,36.9070621097639,3700,2017-11-15 05:48:21,1635.3342808306832,1.5000000480000002,0.35999970196000003,0.10038700321238402,1635.3342808306832,1.5000000480000002,0.7199994039200001,0.10569500338224001,1457,-2.0,100,GPS_Atti,
0.3285986712486,36.9070620115995,3800,2017-11-15 05:48:21,1635.6342808402833,1.8000000576000001,0.0,0.10720000343040001,1635.6342808402833,1.8000000576000001,0.7199994039200001,0.10720000343040001,1455,-3.2,100,GPS_Atti,
0.328598669341959,36.9070619678477,3900,2017-11-15 05:48:21,1635.9342808498832,2.1000000672000003,0.0,0.108833003482656,1635.9342808498832,2.1000000672000003,0.7199994039200001,0.108833003482656,1447,-4.5,100,GPS_Atti,
0.328598660036715,36.9070619949814,4000,2017-11-15 05:48:21,1636.234280859483,2.4000000768,0.0,0.10671500341488,1636.234280859483,2.4000000768,0.7199994039200001,0.108833003482656,1449,-5.8,100,GPS_Atti,
0.328598668760506,36.9070620346263,4100,2017-11-15 05:48:21,1636.4342808658832,2.6000000832000003,0.0,0.106054003393728,1636.4342808658832,2.6000000832000003,0.7199994039200001,0.108833003482656,1443,-7.0,100,GPS_Atti,
0.328598701745846,36.9070620672272,4200,2017-11-15 05:48:21,1636.7342808754834,2.9000000928,0.0,0.108391003468512,1636.7342808754834,2.9000000928,0.7199994039200001,0.108833003482656,1442,-7.7,100,GPS_Atti,
0.328598726582032,36.9070621060183,4300,2017-11-15 05:48:22,1637.034280885083,3.2000001024,0.0,0.10986800351577601,1637.034280885083,3.2000001024,0.7199994039200001,0.10986800351577601,1436,-7.6,100,GPS_Atti,
0.328598709283714,36.9070621501053,4400,2017-11-15 05:48:22,1637.3342808946832,3.500000112,0.0,0.106856003419392,1637.3342808946832,3.500000112,0.7199994039200001,0.10986800351577601,1424,-7.6,100,GPS_Atti,
0.328598698338459,36.9070621948458,4500,2017-11-15 05:48:22,1637.5342809010833,3.7000001184,0.0,0.10470700335062401,1637.5342809010833,3.7000001184,0.7199994039200001,0.10986800351577601,1422,-7.6,100,GPS_Atti,
0.32859870085052,36.9070622342092,4600,2017-11-15 05:48:22,1637.834280910683,4.000000128,0.0,0.104329003338528,1637.834280910683,4.000000128,0.7199994039200001,0.10986800351577601,1429,-7.6,100,GPS_Atti,
0.328598701467708,36.9070622551055,4700,2017-11-15 05:48:22,1638.0342809170832,4.200000134400001,0.0,0.104124003331968,1638.0342809170832,4.200000134400001,0.7199994039200001,0.10986800351577601,1440,-7.7,100,GPS_Atti,
0.328598687933525,36.9070622628161,4800,2017-11-15 05:48:22,1638.3342809266833,4.500000144,0.0,0.10253800328121601,1638.3342809266833,4.500000144,0.7199994039200001,0.10986800351577601,1444,-7.6,100,GPS_Atti,
0.32859866788191,36.9070622345256,4900,2017-11-15 05:48:22,1638.5342809330832,4.7000001504,0.0,0.10069000322208001,1638.5342809330832,4.7000001504,0.7199994039200001,0.10986800351577601,1440,-7.6,100,GPS_Atti,
0.328598637027253,36.9070622086541,5000,2017-11-15 05:48:22,1638.834280942683,5.00000016,0.0,0.0977279031272928,1638.834280942683,5.00000016,0.7199994039200001,0.10986800351577601,1436,-7.6,100,GPS_Atti,
0.328598563933494,36.9070622044171,5100,2017-11-15 05:48:22,1639.0342809490833,5.200000166400001,0.0,0.08980960287390721,1639.0342809490833,5.200000166400001,0.7199994039200001,0.10986800351577601,1434,-7.6,100,GPS_Atti,
0.328598465729479,36.9070622499103,5200,2017-11-15 05:48:22,1639.3342809586832,5.5000001759999995,0.0,0.0781923025021536,1639.3342809586832,5.5000001759999995,0.7199994039200001,0.10986800351577601,1434,-7.6,100,GPS_Atti,
0.328598362439669,36.907062288467,5300,2017-11-15 05:48:23,1639.5342809650833,5.7000001824,0.0,0.06624230211975361,1639.5342809650833,5.7000001824,0.7199994039200001,0.10986800351577601,1438,-7.7,100,GPS_Atti,
0.32859827784297,36.9070623235399,5400,2017-11-15 05:48:23,1639.8342809746832,6.000000192000001,0.0,0.0565288018089216,1639.8342809746832,6.000000192000001,0.7199994039200001,0.10986800351577601,1442,-7.7,100,GPS_Atti,
0.328598168260393,36.9070623331712,5500,2017-11-15 05:48:23,1640.1342809842831,6.3000002016,0.0,0.0443008014176256,1640.1342809842831,6.3000002016,0.7199994039200001,0.10986800351577601,1441,-7.5,100,GPS_Atti,
0.328598051588182,36.9070623412249,5600,2017-11-15 05:48:23,1640.3342809906833,6.500000208,0.0,0.031297101001507205,1640.3342809906833,6.500000208,0.7199994039200001,0.10986800351577601,1437,-7.1,100,GPS_Atti,
0.328597938724393,36.9070623308806,5700,2017-11-15 05:48:23,1640.6342810002832,6.800000217600001,0.0,0.018899200604774402,1640.6342810002832,6.800000217600001,0.7199994039200001,0.10986800351577601,1436,-6.6,100,GPS_Atti,
0.328597847669438,36.9070623365955,5800,2017-11-15 05:48:23,1640.834281006683,7.000000224,0.0,0.0088221502823088,1640.834281006683,7.000000224,0.7199994039200001,0.10986800351577601,1435,-6.2,100,GPS_Atti,
0.328597748408296,36.9070623372133,5900,2017-11-15 05:48:23,1641.1342810162832,7.3000002336000005,0.0,0.00314947010078304,1641.1342810162832,7.3000002336000005,0.7199994039200001,0.10986800351577601,1436,-5.7,100,GPS_Atti,
0.32859764186582,36.9070623575716,6000,2017-11-15 05:48:23,1641.3342810226834,7.50000024,0.0,0.014306700457814401,1641.3342810226834,7.50000024,0.7199994039200001,0.10986800351577601,1435,-5.2,100,GPS_Atti,
0.328597533874539,36.90706237333,6100,2017-11-15 05:48:23,1641.634281032283,7.8000002496,0.0,0.0263923008445536,1641.634281032283,7.8000002496,0.7199994039200001,0.10986800351577601,1434,-4.7,100,GPS_Atti,
0.328597421481981,36.9070623986865,6200,2017-11-15 05:48:23,1641.9342810418832,8.1000002592,0.0,0.0391154012516928,1641.9342810418832,8.1000002592,0.7199994039200001,0.10986800351577601,1432,-4.3,100,GPS_Atti,
0.32859730515673,36.9070624206556,6300,2017-11-15 05:48:24,1642.1342810482834,8.300000265600001,0.0,0.0522612016723584,1642.1342810482834,8.300000265600001,0.7199994039200001,0.10986800351577601,1438,-4.3,100,GPS_Atti,
0.328597200704464,36.9070624396665,6400,2017-11-15 05:48:24,1642.434281057883,8.6000002752,0.0,0.06406010204992321,1642.434281057883,8.6000002752,0.7199994039200001,0.10986800351577601,1444,-4.3,100,GPS_Atti,
0.328597090757014,36.9070624562734,6500,2017-11-15 05:48:24,1642.6342810642832,8.800000281600001,0.0,0.07642560244561922,1642.6342810642832,8.800000281600001,0.7199994039200001,0.10986800351577601,1444,-4.3,100,GPS_Atti,
0.328596978053627,36.9070624712936,6600,2017-11-15 05:48:24,1642.9342810738833,9.1000002912,0.0,0.08906840285018881,1642.9342810738833,9.1000002912,0.7199994039200001,0.10986800351577601,1445,-4.3,100,GPS_Atti,
0.32859689201143,36.9070624802418,6700,2017-11-15 05:48:24,1643.1342810802832,9.3000002976,0.0,0.0986807031577824,1643.1342810802832,9.3000002976,0.7199994039200001,0.10986800351577601,1453,-4.3,100,GPS_Atti,
0.328596839723518,36.9070624803302,6800,2017-11-15 05:48:24,1643.4342810898831,9.6000003072,0.0,0.10444200334214401,1643.4342810898831,9.6000003072,0.7199994039200001,0.10986800351577601,1465,-4.3,100,GPS_Atti,
0.32859679964059,36.9070624678757,6900,2017-11-15 05:48:24,1643.6342810962833,9.8000003136,0.0,0.108692003478144,1643.6342810962833,9.8000003136,0.7199994039200001,0.10986800351577601,1466,-4.3,100,GPS_Atti,
0.328596753893527,36.9070624356415,7000,2017-11-15 05:48:24,1643.9342811058832,10.100000323200002,0.0,0.113407003629024,1643.9342811058832,10.100000323200002,0.7199994039200001,0.113407003629024,1466,-4.3,100,GPS_Atti,
0.328596701171635,36.9070623928516,7100,2017-11-15 05:48:24,1644.234281115483,10.400000332800001,0.0,0.118989003807648,1644.234281115483,10.400000332800001,0.7199994039200001,0.118989003807648,1466,-4.3,100,GPS_Atti,
0.328596635092634,36.9070623453944,7200,2017-11-15 05:48:24,1644.4342811218833,10.600000339200001,0.0,0.126268004040576,1644.4342811218833,10.600000339200001,0.7199994039200001,0.126268004040576,1467,-4.3,100,GPS_Atti,
0.328596561454804,36.9070621952237,7400,2017-11-15 05:48:25,1645.034281141083,11.2000003584,0.0,0.13562000433984,1645.034281141083,11.2000003584,0.7199994039200001,0.13562000433984,1474,-4.3,100,GPS_Atti,
0.328596520788283,36.9070621066318,7500,2017-11-15 05:48:25,1645.3342811506832,11.500000368000002,0.0,0.14169100453411201,1645.3342811506832,11.500000368000002,0.7199994039200001,0.14169100453411201,1490,-4.3,100,GPS_Atti,
0.328596460592647,36.9070620287711,7600,2017-11-15 05:48:25,1645.6342811602833,11.8000003776,0.0,0.15011700480374401,1645.6342811602833,11.8000003776,0.7199994039200001,0.15011700480374401,1516,-4.3,100,GPS_Atti,
0.32859638678729,36.9070619483523,7700,2017-11-15 05:48:25,1645.834281166683,12.000000384000002,0.0,0.160382005132224,1645.834281166683,12.000000384000002,0.7199994039200001,0.160382005132224,1518,-4.3,100,GPS_Atti,
0.328596308552973,36.9070618935195,7800,2017-11-15 05:48:25,1646.234281179483,12.400000396800001,0.0,0.17048200545542402,1646.234281179483,12.400000396800001,0.7199994039200001,0.17048200545542402,1518,-4.3,100,GPS_Atti,
0.328596233888816,36.9070618364792,7900,2017-11-15 05:48:25,1646.5342811890832,12.700000406400001,0.0,0.18034400577100804,1646.5342811890832,12.700000406400001,0.7199994039200001,0.18034400577100804,1535,-4.3,100,GPS_Atti,
0.328596176267953,36.9070617836544,8000,2017-11-15 05:48:25,1646.8342811986831,13.000000416,0.0,0.18832600602643199,1646.8342811986831,13.000000416,0.7199994039200001,0.18832600602643199,1566,-4.3,100,GPS_Atti,
0.328596122142953,36.9070617415995,8100,2017-11-15 05:48:25,1647.1342812082833,13.3000004256,0.0,0.19558500625872002,1647.1342812082833,13.3000004256,0.7199994039200001,0.19558500625872002,1566,-4.3,100,GPS_Atti,
0.328596072006623,36.9070617277473,8200,2017-11-15 05:48:25,1647.5342812210833,13.7000004384,0.0,0.201348006443136,1647.5342812210833,13.7000004384,0.7199994039200001,0.201348006443136,1616,-4.3,100,GPS_Atti,
0.328596002304335,36.907061707632,8300,2017-11-15 05:48:26,1647.8342812306832,14.000000448,0.0,0.20939500670064,1647.8342812306832,14.000000448,0.7199994039200001,0.20939500670064,1636,-4.3,100,GPS_Atti,
0.328595925345089,36.907061683663,8400,2017-11-15 05:48:26,1648.2342812434833,14.400000460800001,0.0,0.21834800698713602,1648.2342812434833,14.400000460800001,0.7199994039200001,0.21834800698713602,1636,-4.3,100,GPS_Atti,
0.328595846640966,36.9070616514824,8500,2017-11-15 05:48:26,1648.6342812562832,14.8000004736,0.0,0.22779700728950403,1648.6342812562832,14.8000004736,0.7199994039200001,0.22779700728950403,1645,-4.3,100,GPS_Atti,
0.328595782388469,36.9070616330667,8600,2017-11-15 05:48:26,1649.1342812722833,15.3000004896,0.0,0.235212007526784,1649.1342812722833,15.3000004896,0.7199994039200001,0.235212007526784,1645,-4.3,100,GPS_Atti,
0.328595739142289,36.9070616063409,8700,2017-11-15 05:48:26,1649.5342812850831,15.700000502400002,0.0,0.240749007703968,1649.5342812850831,15.700000502400002,0.7199994039200001,0.240749007703968,1645,-4.3,100,GPS_Atti,
0.328595656341,36.9070615256673,8900,2017-11-15 05:48:26,1650.5342813170832,16.7000005344,0.0,0.25254600808147204,1650.5342813170832,16.7000005344,0.7199994039200001,0.25254600808147204,1638,-4.3,100,GPS_Atti,
0.328595576125274,36.9070614755163,9000,2017-11-15 05:48:26,1650.9342813298833,17.1000005472,0.0,0.262894008412608,1650.9342813298833,17.1000005472,0.7199994039200001,0.262894008412608,1636,-4.3,100,GPS_Atti,
0.32859547946206,36.9070614086226,9100,2017-11-15 05:48:26,1651.4342813458832,17.600000563200002,0.0,0.27565500882096,1651.4342813458832,17.600000563200002,0.7199994039200001,0.27565500882096,1637,-4.3,100,GPS_Atti,
0.328595392287381,36.9070613578025,9200,2017-11-15 05:48:26,1651.9342813618832,18.1000005792,0.0,0.286776009176832,1651.9342813618832,18.1000005792,0.7199994039200001,0.286776009176832,1637,-4.3,100,GPS_Atti,
0.328595291084879,36.9070612996182,9300,2017-11-15 05:48:26,1652.4342813778833,18.6000005952,0.0,0.299661009589152,1652.4342813778833,18.6000005952,0.7199994039200001,0.299661009589152,1637,-4.3,100,GPS_Atti,
0.328595201026837,36.9070612649746,9400,2017-11-15 05:48:27,1652.9342813938833,19.1000006112,0.0,0.31038500993232004,1652.9342813938833,19.1000006112,0.7199994039200001,0.31038500993232004,1639,-4.3,100,GPS_Atti,
0.328595127290486,36.9070612398291,9500,2017-11-15 05:48:27,1653.3342814066832,19.500000624000002,0.0,0.31902701020886404,1653.3342814066832,19.500000624000002,0.7199994039200001,0.31902701020886404,1639,-4.3,100,GPS_Atti,
0.328595085551024,36.9070612459123,9600,2017-11-15 05:48:27,1653.8342814226833,20.00000064,0.0,0.32305001033760006,1653.8342814226833,20.00000064,0.7199994039200001,0.32305001033760006,1639,-4.3,100,GPS_Atti,
0.328595053024891,36.9070612329766,9700,2017-11-15 05:48:27,1654.3342814386833,20.500000656,0.0,0.32694201046214405,1654.3342814386833,20.500000656,0.7199994039200001,0.32694201046214405,1639,-4.3,100,GPS_Atti,
0.328595023177141,36.9070612133891,9800,2017-11-15 05:48:27,1654.8342814546832,21.000000672,0.0,0.330842010586944,1654.8342814546832,21.000000672,0.7199994039200001,0.330842010586944,1640,-4.3,100,GPS_Atti,
0.328594991752242,36.9070611880246,9900,2017-11-15 05:48:27,1655.3342814706832,21.500000688,0.0,0.335154010724928,1655.3342814706832,21.500000688,0.7199994039200001,0.335154010724928,1640,-4.3,99,GPS_Atti,
0.328594970757935,36.9070611786583,10000,2017-11-15 05:48:27,1655.734281483483,21.900000700800003,0.0,0.33771001080672003,1655.734281483483,21.900000700800003,0.7199994039200001,0.33771001080672003,1638,-4.3,99,GPS_Atti,
0.328594969595226,36.9070611449226,10100,2017-11-15 05:48:27,1656.2342814994831,22.4000007168,0.0,0.33929901085756803,1656.2342814994831,22.4000007168,0.7199994039200001,0.33929901085756803,1636,-4.3,99,GPS_Atti,
0.328594970314591,36.9070611046412,10200,2017-11-15 05:48:27,1656.7342815154832,22.900000732800002,0.0,0.341027010912864,1656.7342815154832,22.900000732800002,0.7199994039200001,0.341027010912864,1635,-4.3,99,GPS_Atti,
0.32859496233603,36.9070610790084,10300,2017-11-15 05:48:28,1657.2342815314832,23.4000007488,0.0,0.343007010976224,1657.2342815314832,23.4000007488,0.7199994039200001,0.343007010976224,1636,-4.3,99,GPS_Atti,
0.328594939959174,36.9070611112592,10400,2017-11-15 05:48:28,1657.734281547483,23.9000007648,0.0,0.343816011002112,1657.734281547483,23.9000007648,0.7199994039200001,0.343816011002112,1637,-4.3,99,GPS_Atti,
0.328594909066777,36.9070611617613,10500,2017-11-15 05:48:28,1658.1342815602832,24.3000007776,0.0,0.344764011032448,1658.1342815602832,24.3000007776,0.7199994039200001,0.344764011032448,1637,-4.3,99,GPS_Atti,
0.328594860091324,36.9070612541978,10700,2017-11-15 05:48:28,1659.1342815922833,25.3000008096,0.0,0.346028011072896,1659.1342815922833,25.3000008096,0.7199994039200001,0.346028011072896,1637,-4.3,99,GPS_Atti,
0.328594858998231,36.9070612752376,10800,2017-11-15 05:48:28,1659.6342816082831,25.8000008256,0.0,0.345322011050304,1659.6342816082831,25.8000008256,0.7199994039200001,0.346028011072896,1637,-4.3,99,GPS_Atti,
0.328594844744868,36.9070612609893,10900,2017-11-15 05:48:28,1660.1342816242834,26.3000008416,0.0,0.34736001111552,1660.1342816242834,26.3000008416,0.7199994039200001,0.34736001111552,1625,-4.3,99,GPS_Atti,
0.328594816742552,36.9070612348047,11000,2017-11-15 05:48:28,1660.5342816370833,26.700000854400002,0.0,0.3513000112416,1660.5342816370833,26.700000854400002,0.7199994039200001,0.3513000112416,1614,-4.3,99,GPS_Atti,
0.328594794694641,36.9070611968186,11100,2017-11-15 05:48:28,1661.034281653083,27.200000870400004,0.0,0.355104011363328,1661.034281653083,27.200000870400004,0.7199994039200001,0.355104011363328,1617,-4.3,99,GPS_Atti,
0.328594783601681,36.9070611698632,11200,2017-11-15 05:48:28,1661.5342816690832,27.7000008864,0.0,0.357349011435168,1661.5342816690832,27.7000008864,0.7199994039200001,0.357349011435168,1630,-4.3,99,GPS_Atti,
0.328594783664783,36.9070611251435,11300,2017-11-15 05:48:29,1662.0342816850832,28.200000902400003,0.0,0.359206011494592,1662.0342816850832,28.200000902400003,0.7199994039200001,0.359206011494592,1600,-4.3,99,GPS_Atti,
0.328594801678631,36.9070610819109,11400,2017-11-15 05:48:29,1662.4342816978833,28.600000915200003,0.0,0.359222011495104,1662.4342816978833,28.600000915200003,0.7199994039200001,0.359222011495104,1586,-4.3,99,GPS_Atti,
0.328594834216977,36.9070610440094,11500,2017-11-15 05:48:29,1662.9342817138831,29.1000009312,0.0,0.357596011443072,1662.9342817138831,29.1000009312,0.7199994039200001,0.359222011495104,1588,-4.3,99,GPS_Atti,
0.328594864524763,36.9070610384385,11600,2017-11-15 05:48:29,1663.3342817266832,29.500000944,0.0,0.354777011352864,1663.3342817266832,29.500000944,0.7199994039200001,0.359222011495104,1588,-4.3,99,GPS_Atti,
0.328594873273578,36.9070610378443,11700,2017-11-15 05:48:29,1663.834281742683,30.00000096,0.0,0.353918011325376,1663.834281742683,30.00000096,0.7199994039200001,0.359222011495104,1581,-4.3,99,GPS_Atti,
0.328594865739582,36.9070610515964,11800,2017-11-15 05:48:29,1664.2342817554832,30.400000972800004,0.0,0.354052011329664,1664.2342817554832,30.400000972800004,0.7199994039200001,0.359222011495104,1552,-4.3,99,GPS_Atti,
0.328594871009634,36.9070610659367,11900,2017-11-15 05:48:29,1664.634281768283,30.8000009856,0.0,0.352867011291744,1664.634281768283,30.8000009856,0.7199994039200001,0.359222011495104,1549,-4.3,99,GPS_Atti,
0.328594906822781,36.9070610813911,12000,2017-11-15 05:48:29,1665.034281781083,31.2000009984,0.0,0.348529011152928,1665.034281781083,31.2000009984,0.7199994039200001,0.359222011495104,1554,-4.3,99,GPS_Atti,
0.32859494417318,36.9070610882013,12100,2017-11-15 05:48:29,1665.434281793883,31.6000010112,0.0,0.344428011021696,1665.434281793883,31.6000010112,0.7199994039200001,0.359222011495104,1487,-4.3,99,GPS_Atti,
0.328595020798391,36.9070610856211,12300,2017-11-15 05:48:30,1666.2342818194834,32.4000010368,0.0,0.33679001077728,1666.2342818194834,32.4000010368,0.7199994039200001,0.359222011495104,1496,-4.3,99,GPS_Atti,
0.328595064938587,36.9070610732346,12400,2017-11-15 05:48:30,1666.534281829083,32.700001046400004,0.0,0.33292701065366404,1666.534281829083,32.700001046400004,0.7199994039200001,0.359222011495104,1552,-4.3,99,GPS_Atti,
0.328595091345435,36.9070610333455,12500,2017-11-15 05:48:30,1666.9342818418831,33.100001059200004,0.0,0.332214010630848,1666.9342818418831,33.100001059200004,0.7199994039200001,0.359222011495104,1545,-4.3,99,GPS_Atti,
0.328595089857851,36.9070609795026,12600,2017-11-15 05:48:30,1667.234281851483,33.4000010688,0.0,0.335053010721696,1667.234281851483,33.4000010688,0.7199994039200001,0.359222011495104,1520,-4.3,99,GPS_Atti,
0.328595105422519,36.9070609063077,12700,2017-11-15 05:48:30,1667.6342818642831,33.8000010816,0.0,0.337324010794368,1667.6342818642831,33.8000010816,0.7199994039200001,0.359222011495104,1506,-4.3,99,GPS_Atti,
0.328595146506125,36.907060840688,12800,2017-11-15 05:48:30,1667.9342818738833,34.1000010912,0.0,0.33690501078096,1667.9342818738833,34.1000010912,0.7199994039200001,0.359222011495104,1511,-4.3,99,GPS_Atti,
0.328595217720831,36.9070607591102,12900,2017-11-15 05:48:30,1668.3342818866831,34.500001104,0.0,0.334788010713216,1668.3342818866831,34.500001104,0.7199994039200001,0.359222011495104,1520,-4.3,99,GPS_Atti,
0.328595293259259,36.9070606769526,13000,2017-11-15 05:48:30,1668.6342818962833,34.800001113600004,0.0,0.332732010647424,1668.6342818962833,34.800001113600004,0.7199994039200001,0.359222011495104,1570,-4.3,99,GPS_Atti,
0.328595367202423,36.9070605913338,13100,2017-11-15 05:48:30,1669.0342819090831,35.200001126400004,0.0,0.33149901060796805,1669.0342819090831,35.200001126400004,0.7199994039200001,0.359222011495104,1575,-4.3,99,GPS_Atti,
0.328595413153041,36.9070605176432,13200,2017-11-15 05:48:30,1669.3342819186832,35.500001136,0.0,0.33236701063574403,1669.3342819186832,35.500001136,0.7199994039200001,0.359222011495104,1584,-4.3,99,GPS_Atti,
0.328595471655706,36.9070604377735,13300,2017-11-15 05:48:31,1669.7342819314833,35.9000011488,0.0,0.33287701065206404,1669.7342819314833,35.9000011488,0.7199994039200001,0.359222011495104,1585,-4.3,99,GPS_Atti,
0.328595517099879,36.9070603554254,13400,2017-11-15 05:48:31,1670.1342819442832,36.3000011616,0.0,0.335019010720608,1670.1342819442832,36.3000011616,0.7199994039200001,0.359222011495104,1585,-4.3,99,GPS_Atti,
0.328595564233969,36.9070602804099,13500,2017-11-15 05:48:31,1670.5342819570833,36.7000011744,0.0,0.3367750107768,1670.5342819570833,36.7000011744,0.7199994039200001,0.359222011495104,1569,-4.3,99,GPS_Atti,
0.328595590199915,36.9070602214393,13600,2017-11-15 05:48:31,1670.9342819698832,37.10000118720001,0.0,0.33923101085539203,1670.9342819698832,37.10000118720001,0.7199994039200001,0.359222011495104,1580,-4.3,99,GPS_Atti,
0.32859560150152,36.9070601519787,13700,2017-11-15 05:48:31,1671.3342819826833,37.5000012,0.0,0.34379501100144,1671.3342819826833,37.5000012,0.7199994039200001,0.359222011495104,1584,-4.3,99,GPS_Atti,
0.328595586956258,36.9070600855715,13800,2017-11-15 05:48:31,1671.7342819954831,37.9000012128,0.0,0.35021501120688003,1671.7342819954831,37.9000012128,0.7199994039200001,0.359222011495104,1586,-4.3,99,GPS_Atti,
0.328595591973698,36.9070600177886,13900,2017-11-15 05:48:31,1672.1342820082832,38.3000012256,0.0,0.355304011369728,1672.1342820082832,38.3000012256,0.7199994039200001,0.359222011495104,1591,-4.3,99,GPS_Atti,
0.328595616660705,36.9070599544375,14000,2017-11-15 05:48:31,1672.5342820210833,38.7000012384,0.0,0.35865001147680003,1672.5342820210833,38.7000012384,0.7199994039200001,0.359222011495104,1592,-4.3,99,GPS_Atti,
0.328595658395079,36.9070598669065,14100,2017-11-15 05:48:31,1672.9342820338832,39.100001251200005,0.0,0.36293201161382405,1672.9342820338832,39.100001251200005,0.7199994039200001,0.36293201161382405,1591,-4.3,99,GPS_Atti,
0.328595693010099,36.9070597831709,14200,2017-11-15 05:48:31,1673.3342820466833,39.500001264,0.0,0.367649011764768,1673.3342820466833,39.500001264,0.7199994039200001,0.367649011764768,1586,-4.3,99,GPS_Atti,
0.32859572762919,36.9070597061159,14300,2017-11-15 05:48:32,1673.834282062683,40.00000128,0.0,0.37199001190368003,1673.834282062683,40.00000128,0.7199994039200001,0.37199001190368003,1586,-4.3,99,GPS_Atti,
0.328595744052658,36.9070596714033,14400,2017-11-15 05:48:32,1674.2342820754832,40.400001292800006,0.0,0.37395101196643205,1674.2342820754832,40.400001292800006,0.7199994039200001,0.37395101196643205,1589,-4.3,99,GPS_Atti,
0.328595750132047,36.9070596315886,14500,2017-11-15 05:48:32,1674.6342820882833,40.8000013056,0.0,0.37709001206688003,1674.6342820882833,40.8000013056,0.7199994039200001,0.37709001206688003,1592,-4.3,99,GPS_Atti,
0.328595738573555,36.9070596062573,14600,2017-11-15 05:48:32,1675.0342821010834,41.2000013184,0.0,0.380119012163808,1675.0342821010834,41.2000013184,0.7199994039200001,0.380119012163808,1594,-4.3,99,GPS_Atti,
0.32859570957402,36.9070595842722,14700,2017-11-15 05:48:32,1675.4342821138832,41.600001331200005,0.0,0.384004012288128,1675.4342821138832,41.600001331200005,0.7199994039200001,0.384004012288128,1599,-4.3,99,GPS_Atti,
0.328595673854915,36.9070595832647,14800,2017-11-15 05:48:32,1675.8342821266833,42.000001344,0.0,0.38647701236726406,1675.8342821266833,42.000001344,0.7199994039200001,0.38647701236726406,1606,-4.3,99,GPS_Atti,
0.328595647781899,36.907059556358,14900,2017-11-15 05:48:32,1676.2342821394832,42.400001356800004,0.0,0.390613012499616,1676.2342821394832,42.400001356800004,0.7199994039200001,0.390613012499616,1613,-4.3,99,GPS_Atti,
0.328595638840723,36.9070595252148,15000,2017-11-15 05:48:32,1676.6342821522833,42.800001369600004,0.0,0.39397501260719997,1676.6342821522833,42.800001369600004,0.7199994039200001,0.39397501260719997,1613,-4.3,99,GPS_Atti,
0.328595598535106,36.9070594776885,15200,2017-11-15 05:48:32,1677.5342821810832,43.7000013984,0.0,0.40089301282857603,1677.5342821810832,43.7000013984,0.7199994039200001,0.40089301282857603,1614,-4.3,99,GPS_Atti,
0.328595587869612,36.9070594472546,15300,2017-11-15 05:48:33,1677.934282193883,44.100001411200004,0.0,0.404311012937952,1677.934282193883,44.100001411200004,0.7199994039200001,0.404311012937952,1614,-4.3,99,GPS_Atti,
0.328595596800202,36.9070594144509,15400,2017-11-15 05:48:33,1678.3342822066832,44.500001424,0.0,0.40664301301257605,1678.3342822066832,44.500001424,0.7199994039200001,0.40664301301257605,1614,-4.3,99,GPS_Atti,
0.328595610523914,36.9070593825636,15500,2017-11-15 05:48:33,1678.834282222683,45.00000144,0.0,0.40860101307523206,1678.834282222683,45.00000144,0.7199994039200001,0.40860101307523206,1615,-4.3,99,GPS_Atti,
0.328595621308081,36.9070593722247,15600,2017-11-15 05:48:33,1679.2342822354833,45.4000014528,0.0,0.408829013082528,1679.2342822354833,45.4000014528,0.7199994039200001,0.408829013082528,1615,-4.3,99,GPS_Atti,
0.328595610403816,36.9070593440771,15700,2017-11-15 05:48:33,1679.7342822514831,45.9000014688,0.0,0.412078013186496,1679.7342822514831,45.9000014688,0.7199994039200001,0.412078013186496,1614,-4.3,99,GPS_Atti,
0.328595581950422,36.907059325262,15800,2017-11-15 05:48:33,1680.1342822642832,46.300001481600006,0.0,0.4156250133,1680.1342822642832,46.300001481600006,0.7199994039200001,0.4156250133,1616,-4.3,99,GPS_Atti,
0.328595556509241,36.907059307682,15900,2017-11-15 05:48:33,1680.5342822770833,46.7000014944,0.0,0.418868013403776,1680.5342822770833,46.7000014944,0.7199994039200001,0.418868013403776,1623,-4.3,99,GPS_Atti,
0.328595547561552,36.9070593117669,16000,2017-11-15 05:48:33,1681.0342822930832,47.2000015104,0.0,0.419087013410784,1681.0342822930832,47.2000015104,0.7199994039200001,0.419087013410784,1618,-4.3,99,GPS_Atti,
0.328595543136052,36.9070593145842,16100,2017-11-15 05:48:33,1681.434282305883,47.6000015232,0.0,0.41912501341200004,1681.434282305883,47.6000015232,0.7199994039200001,0.41912501341200004,1619,-4.3,99,GPS_Atti,
0.328595549287906,36.907059330424,16200,2017-11-15 05:48:33,1681.9342823218833,48.1000015392,0.0,0.41730001335360006,1681.9342823218833,48.1000015392,0.7199994039200001,0.41912501341200004,1619,-4.3,99,GPS_Atti,
0.328595549427545,36.90705933523,16300,2017-11-15 05:48:34,1682.3342823346834,48.50000155200001,0.0,0.41686001333952,1682.3342823346834,48.50000155200001,0.7199994039200001,0.41912501341200004,1625,-4.3,99,GPS_Atti,
0.328595545302697,36.9070593442285,16400,2017-11-15 05:48:34,1682.8342823506832,49.000001568,0.0,0.416327013322464,1682.8342823506832,49.000001568,0.7199994039200001,0.41912501341200004,1637,-4.3,99,GPS_Atti,
0.328595540120784,36.9070593460331,16500,2017-11-15 05:48:34,1683.2342823634833,49.4000015808,0.0,0.41650801332825604,1683.2342823634833,49.4000015808,0.7199994039200001,0.41912501341200004,1640,-4.3,99,GPS_Atti,
0.32859553695,36.907059359896,16600,2017-11-15 05:48:34,1683.7342823794831,49.9000015968,0.0,0.41548101329539205,1683.7342823794831,49.9000015968,0.7199994039200001,0.41912501341200004,1642,-4.3,99,GPS_Atti,
0.328595536345033,36.9070593845362,16700,2017-11-15 05:48:34,1684.134282392283,50.3000016096,0.0,0.413329013226528,1684.134282392283,50.3000016096,0.7199994039200001,0.41912501341200004,1642,-4.3,99,GPS_Atti,
0.3285955364519,36.9070594320245,16800,2017-11-15 05:48:34,1684.6342824082833,50.800001625600004,0.0,0.409113013091616,1684.6342824082833,50.800001625600004,0.7199994039200001,0.41912501341200004,1646,-4.3,99,GPS_Atti,
0.328595517622406,36.907059463226,16900,2017-11-15 05:48:34,1685.0342824210834,51.2000016384,0.0,0.407646013044672,1685.0342824210834,51.2000016384,0.7199994039200001,0.41912501341200004,1681,-4.3,99,GPS_Atti,
0.32859545390302,36.907059494381,17100,2017-11-15 05:48:34,1686.034282453083,52.200001670400006,0.0,0.40934001309888,1686.034282453083,52.200001670400006,0.7199994039200001,0.41912501341200004,1678,-4.3,99,GPS_Atti,
0.328595434457771,36.9070595194934,17200,2017-11-15 05:48:34,1686.5342824690833,52.70000168640001,0.0,0.408546013073472,1686.5342824690833,52.70000168640001,0.7199994039200001,0.41912501341200004,1684,-4.3,99,GPS_Atti,
0.328595429623735,36.9070595359242,17300,2017-11-15 05:48:35,1686.9342824818832,53.1000016992,0.0,0.40748001303936005,1686.9342824818832,53.1000016992,0.7199994039200001,0.41912501341200004,1684,-4.3,99,GPS_Atti,
0.328595434647484,36.9070595542553,17400,2017-11-15 05:48:35,1687.4342824978833,53.6000017152,0.0,0.405556012977792,1687.4342824978833,53.6000017152,0.7199994039200001,0.41912501341200004,1684,-4.3,99,GPS_Atti,
0.328595428392427,36.9070595832048,17500,2017-11-15 05:48:35,1687.934282513883,54.1000017312,0.0,0.40353801291321606,1687.934282513883,54.1000017312,0.7199994039200001,0.41912501341200004,1684,-4.3,99,GPS_Atti,
0.328595408233919,36.9070596298457,17600,2017-11-15 05:48:35,1688.4342825298834,54.6000017472,0.0,0.40105501283376005,1688.4342825298834,54.6000017472,0.7199994039200001,0.41912501341200004,1684,-4.3,99,GPS_Atti,
0.328595379894922,36.9070596770518,17700,2017-11-15 05:48:35,1689.0342825490832,55.20000176640001,0.0,0.39919501277424,1689.0342825490832,55.20000176640001,0.7199994039200001,0.41912501341200004,1684,-4.3,99,GPS_Atti,
0.328595348705335,36.9070597258474,17800,2017-11-15 05:48:35,1689.534282565083,55.7000017824,0.0,0.39750501272016003,1689.534282565083,55.7000017824,0.7199994039200001,0.41912501341200004,1684,-4.3,99,GPS_Atti,
0.328595311688767,36.9070597567197,17900,2017-11-15 05:48:35,1690.0342825810833,56.2000017984,0.0,0.39780501272976004,1690.0342825810833,56.2000017984,0.7199994039200001,0.41912501341200004,1684,-4.3,99,GPS_Atti,
0.328595273988456,36.9070597691544,18000,2017-11-15 05:48:35,1690.5342825970831,56.700001814400004,0.0,0.39970201279046397,1690.5342825970831,56.700001814400004,0.7199994039200001,0.41912501341200004,1684,-4.3,99,GPS_Atti,
0.328595246226743,36.9070597806994,18100,2017-11-15 05:48:35,1691.0342826130832,57.200001830400005,0.0,0.40093501282992,1691.0342826130832,57.200001830400005,0.7199994039200001,0.41912501341200004,1684,-4.3,99,GPS_Atti,
0.328595223545775,36.9070598126712,18200,2017-11-15 05:48:35,1691.5342826290832,57.700001846400006,0.0,0.400186012805952,1691.5342826290832,57.700001846400006,0.7199994039200001,0.41912501341200004,1684,-4.3,99,GPS_Atti,
0.328595188802923,36.9070598423412,18300,2017-11-15 05:48:36,1691.9342826418833,58.100001859200006,0.0,0.400621012819872,1691.9342826418833,58.100001859200006,0.7199994039200001,0.41912501341200004,1684,-4.3,99,GPS_Atti,
0.328595147823129,36.9070598748853,18400,2017-11-15 05:48:36,1692.4342826578832,58.60000187520001,0.0,0.40140501284496005,1692.4342826578832,58.60000187520001,0.7199994039200001,0.41912501341200004,1684,-4.3,99,GPS_Atti,
0.328595126243397,36.9070599670537,18600,2017-11-15 05:48:36,1693.4342826898833,59.6000019072,0.0,0.39621001267871997,1693.4342826898833,59.6000019072,0.7199994039200001,0.41912501341200004,1684,-4.3,99,GPS_Atti,
0.328595142658926,36.9070600332847,18700,2017-11-15 05:48:36,1694.034282709083,60.2000019264,0.0,0.38994201247814403,1694.034282709083,60.2000019264,0.7199994039200001,0.41912501341200004,1684,-4.3,99,GPS_Atti,
0.328595161790294,36.9070601089827,18800,2017-11-15 05:48:36,1694.5342827250831,60.7000019424,0.0,0.38280601224979205,1694.5342827250831,60.7000019424,0.7199994039200001,0.41912501341200004,1684,-4.3,99,GPS_Atti,
0.32859520271187,36.9070601830432,18900,2017-11-15 05:48:36,1695.0342827410832,61.2000019584,0.0,0.37399801196793603,1695.0342827410832,61.2000019584,0.7199994039200001,0.41912501341200004,1684,-4.9,99,GPS_Atti,
0.328595241500592,36.9070602468279,19000,2017-11-15 05:48:36,1695.5342827570832,61.7000019744,0.0,0.366133011716256,1695.5342827570832,61.7000019744,0.7199994039200001,0.41912501341200004,1684,-5.8,99,GPS_Atti,
0.328595279539822,36.9070603066625,19100,2017-11-15 05:48:36,1696.034282773083,62.200001990400004,0.0,0.358632011476224,1696.034282773083,62.200001990400004,0.7199994039200001,0.41912501341200004,1684,-6.6,99,GPS_Atti,
0.328595298963495,36.9070603559056,19200,2017-11-15 05:48:36,1696.5342827890834,62.7000020064,0.0,0.35349701131190403,1696.5342827890834,62.7000020064,0.7199994039200001,0.41912501341200004,1684,-7.7,99,GPS_Atti,
0.328595317603072,36.9070604416609,19400,2017-11-15 05:48:37,1697.534282821083,63.7000020384,0.0,0.34594201107014405,1697.534282821083,63.7000020384,0.7199994039200001,0.41912501341200004,1684,-8.0,99,GPS_Atti,
0.328595325439959,36.9070604840472,19500,2017-11-15 05:48:37,1698.0342828370833,64.2000020544,0.0,0.342371010955872,1698.0342828370833,64.2000020544,0.7199994039200001,0.41912501341200004,1684,-8.0,99,GPS_Atti,
0.32859533746785,36.9070605261653,19600,2017-11-15 05:48:37,1698.5342828530831,64.7000020704,0.0,0.3384750108312,1698.5342828530831,64.7000020704,0.7199994039200001,0.41912501341200004,1684,-8.0,99,GPS_Atti,
0.328595339475721,36.9070605683861,19700,2017-11-15 05:48:37,1699.1342828722834,65.3000020896,0.0,0.33549501073584004,1699.1342828722834,65.3000020896,0.7199994039200001,0.41912501341200004,1684,-8.0,99,GPS_Atti,
0.328595322971645,36.907060610849,19800,2017-11-15 05:48:37,1699.6342828882832,65.8000021056,0.0,0.334213010694816,1699.6342828882832,65.8000021056,0.7199994039200001,0.41912501341200004,1684,-8.0,99,GPS_Atti,
0.328595328706007,36.9070606536704,19900,2017-11-15 05:48:37,1700.1342829042833,66.3000021216,0.0,0.330949010590368,1700.1342829042833,66.3000021216,0.7199994039200001,0.41912501341200004,1684,-8.0,99,GPS_Atti,
0.328595347769183,36.9070606897818,20000,2017-11-15 05:48:37,1700.634282920283,66.8000021376,0.0,0.32692101046147204,1700.634282920283,66.8000021376,0.7199994039200001,0.41912501341200004,1684,-8.0,99,GPS_Atti,
0.328595365356989,36.9070607098709,20100,2017-11-15 05:48:37,1701.1342829362832,67.3000021536,0.0,0.324044010369408,1701.1342829362832,67.3000021536,0.7199994039200001,0.41912501341200004,1684,-8.0,99,GPS_Atti,
0.328595371511082,36.907060720425,20200,2017-11-15 05:48:37,1701.6342829522832,67.8000021696,0.0,0.32281701033014404,1701.6342829522832,67.8000021696,0.7199994039200001,0.41912501341200004,1684,-8.0,99,GPS_Atti,
0.328595384588098,36.907060742089,20300,2017-11-15 05:48:38,1702.134282968283,68.3000021856,0.0,0.32026101024835196,1702.134282968283,68.3000021856,0.7199994039200001,0.41912501341200004,1684,-8.0,99,GPS_Atti,
0.328595395746196,36.9070607788759,20400,2017-11-15 05:48:38,1702.6342829842833,68.8000022016,0.0,0.316954010142528,1702.6342829842833,68.8000022016,0.7199994039200001,0.41912501341200004,1684,-8.0,99,GPS_Atti,
0.32859541195471,36.9070608046981,20500,2017-11-15 05:48:38,1703.1342830002832,69.30000221760001,0.0,0.313867010043744,1703.1342830002832,69.30000221760001,0.7199994039200001,0.41912501341200004,1684,-8.0,99,GPS_Atti,
0.328595425018291,36.9070608178303,20600,2017-11-15 05:48:38,1703.6342830162832,69.80000223360001,0.0,0.311851009979232,1703.6342830162832,69.80000223360001,0.7199994039200001,0.41912501341200004,1684,-8.0,99,GPS_Atti,
0.328595436675915,36.9070608156746,20700,2017-11-15 05:48:38,1704.1342830322833,70.30000224960001,0.0,0.310899009948768,1704.1342830322833,70.30000224960001,0.7199994039200001,0.41912501341200004,1684,-8.0,99,GPS_Atti,
0.328595450396166,36.9070608095866,20800,2017-11-15 05:48:38,1704.6342830482834,70.8000022656,0.0,0.31000200992006405,1704.6342830482834,70.8000022656,0.7199994039200001,0.41912501341200004,1684,-8.0,99,GPS_Atti,
0.328595462922565,36.907060790164,20900,2017-11-15 05:48:38,1705.1342830642832,71.3000022816,0.0,0.31005000992160003,1705.1342830642832,71.3000022816,0.7199994039200001,0.41912501341200004,1684,-8.0,99,GPS_Atti,
0.328595468004124,36.9070607688747,21000,2017-11-15 05:48:38,1705.634283080283,71.8000022976,0.0,0.31092000994944,1705.634283080283,71.8000022976,0.7199994039200001,0.41912501341200004,1684,-8.0,99,GPS_Atti,
0.328595473620424,36.9070607481337,21100,2017-11-15 05:48:38,1706.1342830962833,72.3000023136,0.0,0.311722009975104,1706.1342830962833,72.3000023136,0.7199994039200001,0.41912501341200004,1684,-8.0,99,GPS_Atti,
0.328595478405606,36.9070607397829,21200,2017-11-15 05:48:38,1706.6342831122831,72.8000023296,0.0,0.31182000997824005,1706.6342831122831,72.8000023296,0.7199994039200001,0.41912501341200004,1684,-8.1,99,GPS_Atti,
0.328595475671856,36.9070607255924,21300,2017-11-15 05:48:39,1707.1342831282832,73.3000023456,0.0,0.312979010015328,1707.1342831282832,73.3000023456,0.7199994039200001,0.41912501341200004,1684,-8.1,99,GPS_Atti,
0.328595470803012,36.9070606792416,21400,2017-11-15 05:48:39,1707.6342831442832,73.80000236160001,0.0,0.316429010125728,1707.6342831442832,73.80000236160001,0.7199994039200001,0.41912501341200004,1684,-8.1,99,GPS_Atti,
0.328595453177752,36.9070606309471,21500,2017-11-15 05:48:39,1708.234283163483,74.4000023808,0.0,0.32119201027814404,1708.234283163483,74.4000023808,0.7199994039200001,0.41912501341200004,1684,-8.2,99,GPS_Atti,
0.328595424727207,36.9070605892171,21600,2017-11-15 05:48:39,1708.7342831794833,74.9000023968,0.0,0.32650501044816005,1708.7342831794833,74.9000023968,0.7199994039200001,0.41912501341200004,1684,-8.3,99,GPS_Atti,
0.328595400849129,36.907060552715,21700,2017-11-15 05:48:39,1709.2342831954832,75.4000024128,0.0,0.33107201059430397,1709.2342831954832,75.4000024128,0.7199994039200001,0.41912501341200004,1684,-8.3,99,GPS_Atti,
0.328595391499621,36.9070605355567,21800,2017-11-15 05:48:39,1709.7342832114832,75.90000242880001,0.0,0.33305601065779206,1709.7342832114832,75.90000242880001,0.7199994039200001,0.41912501341200004,1684,-8.3,99,GPS_Atti,
0.328595385445474,36.9070605143869,21900,2017-11-15 05:48:39,1710.2342832274833,76.4000024448,0.0,0.335024010720768,1710.2342832274833,76.4000024448,0.7199994039200001,0.41912501341200004,1684,-8.4,99,GPS_Atti,
0.328595379939501,36.9070604910035,22000,2017-11-15 05:48:39,1710.7342832434833,76.9000024608,0.0,0.337101010787232,1710.7342832434833,76.9000024608,0.7199994039200001,0.41912501341200004,1684,-8.4,99,GPS_Atti,
0.328595360670327,36.9070604610123,22100,2017-11-15 05:48:39,1711.2342832594832,77.4000024768,0.0,0.340844010907008,1711.2342832594832,77.4000024768,0.7199994039200001,0.41912501341200004,1684,-8.4,99,GPS_Atti,
0.328595325928899,36.9070604373356,22200,2017-11-15 05:48:39,1711.734283275483,77.9000024928,0.0,0.34550901105628806,1711.734283275483,77.9000024928,0.7199994039200001,0.41912501341200004,1684,-8.4,99,GPS_Atti,
0.328595289139906,36.9070604033302,22300,2017-11-15 05:48:40,1712.2342832914833,78.4000025088,0.0,0.351062011233984,1712.2342832914833,78.4000025088,0.7199994039200001,0.41912501341200004,1684,-8.4,99,GPS_Atti,
0.328595264242219,36.9070603738443,22400,2017-11-15 05:48:40,1712.734283307483,78.9000025248,0.0,0.35526701136854405,1712.734283307483,78.9000025248,0.7199994039200001,0.41912501341200004,1684,-8.4,99,GPS_Atti,
0.328595248488652,36.907060341949,22500,2017-11-15 05:48:40,1713.2342833234832,79.4000025408,0.0,0.35884501148304004,1713.2342833234832,79.4000025408,0.7199994039200001,0.41912501341200004,1684,-8.4,99,GPS_Atti,
0.328595243466938,36.9070603242062,22600,2017-11-15 05:48:40,1713.7342833394832,79.9000025568,0.0,0.360514011536448,1713.7342833394832,79.9000025568,0.7199994039200001,0.41912501341200004,1684,-8.4,99,GPS_Atti,
0.328595262156589,36.9070602870611,22700,2017-11-15 05:48:40,1714.2342833554833,80.4000025728,0.0,0.36151001156831997,1714.2342833554833,80.4000025728,0.7199994039200001,0.41912501341200004,1684,-8.4,99,GPS_Atti,
0.328595287835116,36.9070602442482,22800,2017-11-15 05:48:40,1714.7342833714831,80.9000025888,0.0,0.36237601159603205,1714.7342833714831,80.9000025888,0.7199994039200001,0.41912501341200004,1684,-8.4,99,GPS_Atti,
0.328595320667396,36.9070601862165,22900,2017-11-15 05:48:40,1715.2342833874834,81.40000260480001,0.0,0.36384701164310407,1715.2342833874834,81.40000260480001,0.7199994039200001,0.41912501341200004,1684,-8.5,98,GPS_Atti,
0.32859533216645,36.9070601394139,23000,2017-11-15 05:48:40,1715.8342834066832,82.000002624,0.0,0.36637001172384004,1715.8342834066832,82.000002624,0.7199994039200001,0.41912501341200004,1684,-8.8,98,GPS_Atti,
0.328595345163062,36.9070600982348,23100,2017-11-15 05:48:40,1716.334283422683,82.50000264,0.0,0.368406011788992,1716.334283422683,82.50000264,0.7199994039200001,0.41912501341200004,1684,-9.1,98,GPS_Atti,
0.328595340338593,36.9070600874082,23200,2017-11-15 05:48:40,1716.8342834386833,83.000002656,0.0,0.36961901182780804,1716.8342834386833,83.000002656,0.7199994039200001,0.41912501341200004,1684,-9.4,98,GPS_Atti,
0.32859533544003,36.9070600720898,23300,2017-11-15 05:48:40,1717.3342834546831,83.500002672,0.0,0.37118101187779207,1717.3342834546831,83.500002672,0.7199994039200001,0.41912501341200004,1684,-9.7,98,GPS_Atti,
0.328595324944505,36.9070600486026,23400,2017-11-15 05:48:41,1717.8342834706832,84.000002688,0.0,0.37382001196224,1717.8342834706832,84.000002688,0.7199994039200001,0.41912501341200004,1684,-10.0,98,GPS_Atti,
0.328595342913163,36.9070600173036,23500,2017-11-15 05:48:41,1718.3342834866833,84.500002704,0.0,0.37477501199280006,1718.3342834866833,84.500002704,0.7199994039200001,0.41912501341200004,1684,-10.3,98,GPS_Atti,
0.328595369036254,36.9070600027106,23600,2017-11-15 05:48:41,1718.8342835026833,85.00000272,0.0,0.373821011962272,1718.8342835026833,85.00000272,0.7199994039200001,0.41912501341200004,1684,-10.6,98,GPS_Atti,
0.328595398481372,36.9070599858178,23700,2017-11-15 05:48:41,1719.3342835186832,85.500002736,0.0,0.372814011930048,1719.3342835186832,85.500002736,0.7199994039200001,0.41912501341200004,1684,-10.7,98,GPS_Atti,
0.328595404190086,36.9070599698565,23800,2017-11-15 05:48:41,1719.8342835346834,86.000002752,0.0,0.373623011955936,1719.8342835346834,86.000002752,0.7199994039200001,0.41912501341200004,1681,-10.7,98,GPS_Atti,
0.328595420222524,36.9070599383146,23900,2017-11-15 05:48:41,1720.3342835506833,86.500002768,0.0,0.374876011996032,1720.3342835506833,86.500002768,0.7199994039200001,0.41912501341200004,1430,-10.7,98,GPS_Atti,
0.328595426291735,36.9070599015265,24000,2017-11-15 05:48:41,1720.834283566683,87.000002784,0.0,0.377353012075296,1720.834283566683,87.000002784,0.7199994039200001,0.41912501341200004,1200,-10.7,98,GPS_Atti,
0.328595442396232,36.9070598770281,24100,2017-11-15 05:48:41,1721.3342835826832,87.50000280000002,0.0,0.378099012099168,1721.3342835826832,87.50000280000002,0.7199994039200001,0.41912501341200004,1103,-10.7,98,GPS_Atti,
0.328595446570951,36.9070598700236,24200,2017-11-15 05:48:41,1721.7342835954832,87.9000028128,0.0,0.3783500121072,1721.7342835954832,87.9000028128,0.7199994039200001,0.41912501341200004,1079,-10.7,98,GPS_Atti,
0.328595424120001,36.9070598480663,24300,2017-11-15 05:48:42,1722.1342836082833,88.3000028256,0.0,0.38183901221884803,1722.1342836082833,88.3000028256,0.7199994039200001,0.41912501341200004,1196,-10.7,98,GPS_Atti,
0.328595373261659,36.9070598141749,24400,2017-11-15 05:48:42,1722.434283617883,88.60000283520002,0.0,0.388458012430656,1722.434283617883,88.60000283520002,0.7199994039200001,0.41912501341200004,1385,-10.7,98,GPS_Atti,
0.328595327844967,36.9070597647686,24500,2017-11-15 05:48:42,1722.6342836242832,88.8000028416,0.0,0.39592101266947205,1722.6342836242832,88.8000028416,0.7199994039200001,0.41912501341200004,1478,-10.7,98,GPS_Atti,
0.32859528744836,36.9070597203348,24600,2017-11-15 05:48:42,1722.834283630683,89.000002848,0.0,0.402598012883136,1722.834283630683,89.000002848,0.7199994039200001,0.41912501341200004,1551,-10.7,98,GPS_Atti,
0.328595301639436,36.907059692299,24700,2017-11-15 05:48:42,1723.0342836370833,89.20000285440001,0.0,0.403797012921504,1723.0342836370833,89.20000285440001,0.7199994039200001,0.41912501341200004,1664,-10.7,98,GPS_Atti,
0.328595542426661,36.9070597373056,24900,2017-11-15 05:48:42,1723.534283653083,89.70000287040001,0.35999970196000003,0.382266012232512,1723.534283653083,89.70000287040001,0.7199994039200001,0.41912501341200004,1671,-10.7,98,GPS_Atti,
0.328595684242556,36.9070597934579,25000,2017-11-15 05:48:42,1723.8342836626832,90.00000288,0.35999970196000003,0.367375011756,1723.8342836626832,90.00000288,0.7199994039200001,0.41912501341200004,1671,-10.7,98,GPS_Atti,
0.328595805623311,36.9070598409901,25100,2017-11-15 05:48:42,1724.234283675483,90.4000028928,0.0,0.35482401135436803,1724.234283675483,90.4000028928,0.7199994039200001,0.41912501341200004,1670,-10.7,98,GPS_Atti,
0.328595841557778,36.9070598563267,25200,2017-11-15 05:48:42,1724.7342836914831,90.9000029088,0.0,0.3510250112328,1724.7342836914831,90.9000029088,0.7199994039200001,0.41912501341200004,1666,-10.7,98,GPS_Atti,
0.32859586011064,36.9070598583812,25300,2017-11-15 05:48:42,1725.134283704283,91.3000029216,0.0,0.349587011186784,1725.134283704283,91.3000029216,0.7199994039200001,0.41912501341200004,1656,-10.7,98,GPS_Atti,
0.32859583349128,36.9070598432116,25400,2017-11-15 05:48:43,1725.7342837234833,91.9000029408,0.0,0.352728011287296,1725.7342837234833,91.9000029408,0.7199994039200001,0.41912501341200004,1636,-10.7,98,GPS_Atti,
0.328595809418604,36.9070598020282,25500,2017-11-15 05:48:43,1726.234283739483,92.4000029568,0.0,0.35799001145568,1726.234283739483,92.4000029568,0.7199994039200001,0.41912501341200004,1611,-10.7,98,GPS_Atti,
0.328595751127229,36.9070597361895,25600,2017-11-15 05:48:43,1726.7342837554834,92.9000029728,0.35999970196000003,0.367746011767872,1726.7342837554834,92.9000029728,0.7199994039200001,0.41912501341200004,1611,-10.7,98,GPS_Atti,
0.328595702441639,36.907059668685,25700,2017-11-15 05:48:43,1727.1342837682832,93.3000029856,0.35999970196000003,0.376997012063904,1727.1342837682832,93.3000029856,0.7199994039200001,0.41912501341200004,1612,-10.7,98,GPS_Atti,
0.328595637014627,36.9070596175871,25800,2017-11-15 05:48:43,1727.6342837842833,93.8000030016,0.35999970196000003,0.38594501235024004,1727.6342837842833,93.8000030016,0.7199994039200001,0.41912501341200004,1590,-10.7,98,GPS_Atti,
0.32859559327686,36.9070595925646,25900,2017-11-15 05:48:43,1728.0342837970832,94.20000301440001,0.35999970196000003,0.39113501251632005,1728.0342837970832,94.20000301440001,0.7199994039200001,0.41912501341200004,1426,-10.7,98,GPS_Atti,
0.328595551547576,36.9070596003154,26000,2017-11-15 05:48:43,1728.4342838098833,94.6000030272,0.0,0.39335301258729605,1728.4342838098833,94.6000030272,0.7199994039200001,0.41912501341200004,1380,-10.7,98,GPS_Atti,
0.328595556442271,36.9070596079772,26100,2017-11-15 05:48:43,1728.934283825883,95.1000030432,0.0,0.392348012555136,1728.934283825883,95.1000030432,0.7199994039200001,0.41912501341200004,1410,-10.7,98,GPS_Atti,
0.328595565846739,36.9070596034416,26200,2017-11-15 05:48:43,1729.2342838354832,95.40000305280002,0.0,0.392086012546752,1729.2342838354832,95.40000305280002,0.7199994039200001,0.41912501341200004,1401,-10.7,98,GPS_Atti,
0.328595576984482,36.9070596042997,26300,2017-11-15 05:48:44,1729.5342838450833,95.7000030624,0.0,0.391238012519616,1729.5342838450833,95.7000030624,0.7199994039200001,0.41912501341200004,1302,-10.7,98,GPS_Atti,
0.328595549195696,36.9070596187294,26400,2017-11-15 05:48:44,1729.8342838546832,96.00000307200001,0.0,0.3919250125416,1729.8342838546832,96.00000307200001,0.7199994039200001,0.41912501341200004,1132,-10.7,98,GPS_Atti,
0.328595567613194,36.9070596452925,26500,2017-11-15 05:48:44,1730.0342838610832,96.2000030784,0.0,0.388341012426912,1730.0342838610832,96.2000030784,0.7199994039200001,0.41912501341200004,1034,-10.7,98,GPS_Atti,
0.328595601692048,36.9070596795785,26600,2017-11-15 05:48:44,1730.2342838674833,96.40000308480002,0.0,0.38299201225574403,1730.2342838674833,96.40000308480002,0.7199994039200001,0.41912501341200004,1024,-10.7,98,GPS_Atti,
0.328595655918012,36.9070597096468,26700,2017-11-15 05:48:44,1730.434283873883,96.60000309120001,0.0,0.376606012051392,1730.434283873883,96.60000309120001,0.7199994039200001,0.41912501341200004,1024,-10.7,98,GPS_Atti,
0.328595683024073,36.9070597344808,26800,2017-11-15 05:48:44,1730.5342838770832,96.7000030944,0.0,0.37256801192217603,1730.5342838770832,96.7000030944,0.7199994039200001,0.41912501341200004,1024,-10.7,98,GPS_Atti,
0.328595734576132,36.9070597447138,26900,2017-11-15 05:48:44,1730.6342838802832,96.8000030976,0.0,0.36812501178,1730.6342838802832,96.8000030976,0.7199994039200001,0.41912501341200004,1024,-10.7,98,GPS_Atti,
0.328595784735464,36.9070597522081,27000,2017-11-15 05:48:44,1730.6342838802832,96.8000030976,0.0,0.364058011649856,1730.6342838802832,96.8000030976,0.7199994039200001,0.41912501341200004,948,-10.7,98,GPS_Atti,
0.328595873654816,36.9070597813781,27100,2017-11-15 05:48:44,1730.6342838802832,96.8000030976,0.0,0.35553001137696,1730.6342838802832,96.8000030976,0.7199994039200001,0.41912501341200004,854,-10.7,98,GPS_Atti,
0.328595966539837,36.9070598462597,27200,2017-11-15 05:48:44,1730.6342838802832,96.8000030976,0.0,0.34361701099574404,1730.6342838802832,96.8000030976,0.7199994039200001,0.41912501341200004,854,-10.7,98,GPS_Atti,
0.328596075440604,36.9070599040034,27300,2017-11-15 05:48:45,1730.6342838802832,96.8000030976,0.0,0.33138901060444803,1730.6342838802832,96.8000030976,0.7199994039200001,0.41912501341200004,813,-10.7,98,GPS_Atti,
0.328596145258105,36.9070599296345,27400,2017-11-15 05:48:45,1730.6342838802832,96.8000030976,0.0,0.324663010389216,1730.6342838802832,96.8000030976,0.7199994039200001,0.41912501341200004,791,-10.7,98,GPS_Atti,
0.328596214011825,36.9070599301918,27500,2017-11-15 05:48:45,1730.6342838802832,96.8000030976,0.0,0.320418010253376,1730.6342838802832,96.8000030976,0.7199994039200001,0.41912501341200004,772,-10.7,98,GPS_Atti,
0.328596239043248,36.9070599124699,27600,2017-11-15 05:48:45,1730.6342838802832,96.8000030976,0.0,0.320591010258912,1730.6342838802832,96.8000030976,0.7199994039200001,0.41912501341200004,770,-10.7,98,GPS_Atti,
0.328596263115721,36.9070598750914,27700,2017-11-15 05:48:45,1730.5342838770832,96.7000030944,0.0,0.322721010327072,1730.6342838802832,96.8000030976,0.7199994039200001,0.41912501341200004,770,-10.7,98,GPS_Atti,
0.328596263879055,36.9070598319214,27800,2017-11-15 05:48:45,1730.434283873883,96.60000309120001,0.0,0.326789010457248,1730.6342838802832,96.8000030976,0.7199994039200001,0.41912501341200004,789,-10.7,98,GPS_Atti,
0.328596274638998,36.9070597752938,27900,2017-11-15 05:48:45,1730.434283873883,96.60000309120001,0.0,0.33161001061152,1730.6342838802832,96.8000030976,0.7199994039200001,0.41912501341200004,789,-10.7,98,GPS_Atti,
0.328596272434289,36.9070597239711,28000,2017-11-15 05:48:45,1730.3342838706833,96.50000308800001,0.0,0.33668101077379203,1730.6342838802832,96.8000030976,0.7199994039200001,0.41912501341200004,791,-10.7,98,GPS_Atti,
0.328596279461635,36.9070596562599,28100,2017-11-15 05:48:45,1730.2342838674833,96.40000308480002,0.0,0.34286601097171204,1730.6342838802832,96.8000030976,0.7199994039200001,0.41912501341200004,801,-10.7,98,GPS_Atti,
0.328596256644692,36.9070595794522,28200,2017-11-15 05:48:45,1730.2342838674833,96.40000308480002,0.0,0.351574011250368,1730.6342838802832,96.8000030976,0.7199994039200001,0.41912501341200004,814,-10.7,98,GPS_Atti,
0.328596249649711,36.9070594933746,28300,2017-11-15 05:48:46,1730.1342838642831,96.3000030816,0.0,0.360371011531872,1730.6342838802832,96.8000030976,0.7199994039200001,0.41912501341200004,811,-10.7,98,GPS_Atti,
0.328596224788257,36.9070594111095,28400,2017-11-15 05:48:46,1730.0342838610832,96.2000030784,0.0,0.3697510118320321,1730.6342838802832,96.8000030976,0.7199994039200001,0.41912501341200004,807,-10.7,98,GPS_Atti,
0.32859621648767,36.9070593367085,28500,2017-11-15 05:48:46,1730.0342838610832,96.2000030784,0.0,0.37751801208057606,1730.6342838802832,96.8000030976,0.7199994039200001,0.41912501341200004,806,-10.7,98,GPS_Atti,
0.328596188184703,36.9070592737905,28600,2017-11-15 05:48:46,1729.9342838578832,96.10000307520001,0.0,0.38518001232576,1730.6342838802832,96.8000030976,0.7199994039200001,0.41912501341200004,795,-10.7,98,GPS_Atti,
0.328596172362741,36.9070592055387,28700,2017-11-15 05:48:46,1729.8342838546832,96.00000307200001,0.0,0.39274001256768004,1730.6342838802832,96.8000030976,0.7199994039200001,0.41912501341200004,768,-10.7,98,GPS_Atti,
0.328596133980723,36.9070591265544,28800,2017-11-15 05:48:46,1729.8342838546832,96.00000307200001,0.0,0.40250401288012805,1730.6342838802832,96.8000030976,0.7199994039200001,0.41912501341200004,754,-10.7,98,GPS_Atti,
0.328596116809799,36.907059037721,28900,2017-11-15 05:48:46,1729.734283851483,95.90000306880002,0.0,0.412188013190016,1730.6342838802832,96.8000030976,0.7199994039200001,0.41912501341200004,746,-10.7,98,GPS_Atti,
0.328596083357488,36.9070589477303,29000,2017-11-15 05:48:46,1729.634283848283,95.8000030656,0.0,0.42280501352976,1730.6342838802832,96.8000030976,0.7199994039200001,0.42280501352976,737,-10.7,98,GPS_Atti,
0.328596067579698,36.9070588663955,29100,2017-11-15 05:48:46,1729.5342838450833,95.7000030624,0.0,0.43169601381427203,1730.6342838802832,96.8000030976,0.7199994039200001,0.43169601381427203,730,-10.7,98,GPS_Atti,
0.328596024864187,36.9070588082647,29200,2017-11-15 05:48:46,1729.5342838450833,95.7000030624,0.0,0.43959101406691203,1730.6342838802832,96.8000030976,0.7199994039200001,0.43959101406691203,719,-10.7,98,GPS_Atti,
0.328596000705813,36.9070587651879,29300,2017-11-15 05:48:47,1729.4342838418834,95.6000030592,0.0,0.445076014242432,1730.6342838802832,96.8000030976,0.7199994039200001,0.445076014242432,754,-10.7,98,GPS_Atti,
