latitude,longitude,time_millisecond,datetime_utc,altitude_m,ascent_m,speed_kph,distance_m,max_altitude_m,max_ascent_m,max_speed_kph,max_distance_m,rc_throttle,gimbal_pitch_degrees,battery_percent,flycState,message
0.28929285897274604,36.889012115548205,0,2018-04-14 13:18:14,1714.1068663514304,0.0,0.0,0.0,1714.1068663514304,0.0,0.0,0.0,364,0.0,99,Motors_Started,
0.289292868674201,36.8890121421553,100,2018-04-14 13:18:14,1714.1068663514304,0.0,0.0,0.0031493801007801605,1714.1068663514304,0.0,0.0,0.0031493801007801605,364,0.0,99,Motors_Started,
0.28929289231187894,36.8890121574985,200,2018-04-14 13:18:14,1714.1068663514304,0.0,0.0,0.0059589001906848,1714.1068663514304,0.0,0.0,0.0059589001906848,364,0.0,99,Motors_Started,
0.289292921758218,36.889012169018706,300,2018-04-14 13:18:14,1714.1068663514304,0.0,0.0,0.00917099029347168,1714.1068663514304,0.0,0.0,0.00917099029347168,364,0.0,99,Motors_Started,
0.28929293598349104,36.889012170194796,400,2018-04-14 13:18:15,1714.1068663514304,0.0,0.0,0.010501100336035199,1714.1068663514304,0.0,0.0,0.010501100336035199,498,0.0,99,Motors_Started,Setting new Return-To-Home altitude to 45m (148 ft). Setting new Maximum Flight Altitude to 150m (492 ft)
0.289292948561592,36.8890121717295,500,2018-04-14 13:18:15,1714.1068663514304,0.0,0.0,0.011759700376310401,1714.1068663514304,0.0,0.0,0.011759700376310401,1024,0.0,99,Motors_Started,
0.289292975401606,36.8890121647288,600,2018-04-14 13:18:15,1714.1068663514304,0.0,0.0,0.0140553004497696,1714.1068663514304,0.0,0.0,0.0140553004497696,1024,0.0,99,Motors_Started,
0.28929300839225297,36.8890121603399,700,2018-04-14 13:18:15,1714.1068663514304,0.0,0.0,0.0173469005551008,1714.1068663514304,0.0,0.0,0.0173469005551008,1024,0.0,99,Motors_Started,
0.28929302826008396,36.8890121786701,800,2018-04-14 13:18:15,1714.1068663514304,0.0,0.0,0.0200919006429408,1714.1068663514304,0.0,0.0,0.0200919006429408,1024,0.0,99,Motors_Started,
0.289293045828552,36.88901220150971,900,2018-04-14 13:18:15,1714.1068663514304,0.0,0.0,0.022872900731932804,1714.1068663514304,0.0,0.0,0.022872900731932804,1024,0.0,99,Motors_Started,
0.28929307728520504,36.8890122188823,1000,2018-04-14 13:18:15,1714.1068663514304,0.0,0.0,0.026859900859516804,1714.1068663514304,0.0,0.0,0.026859900859516804,1024,0.0,99,Motors_Started,
0.28929311454481704,36.8890122289015,1100,2018-04-14 13:18:15,1714.1068663514304,0.0,0.0,0.031091100994915202,1714.1068663514304,0.0,0.0,0.031091100994915202,1024,0.0,99,Motors_Started,
0.289293136716897,36.8890122061294,1200,2018-04-14 13:18:15,1714.1068663514304,0.0,0.0,0.0324879010396128,1714.1068663514304,0.0,0.0,0.0324879010396128,1024,0.0,99,Motors_Started,
0.289293155437489,36.8890121779994,1300,2018-04-14 13:18:15,1714.1068663514304,0.0,0.0,0.0336922010781504,1714.1068663514304,0.0,0.0,0.0336922010781504,1024,0.0,99,Motors_Started,
0.289293186395024,36.889012173021705,1400,2018-04-14 13:18:16,1714.1068663514304,0.0,0.0,0.036968001182976,1714.1068663514304,0.0,0.0,0.036968001182976,1024,0.0,99,Motors_Started,
0.28929322391600204,36.889012180609,1500,2018-04-14 13:18:16,1714.1068663514304,0.0,0.0,0.041223801319161604,1714.1068663514304,0.0,0.0,0.041223801319161604,1024,0.0,99,Motors_Started,
0.28929324571923803,36.889012189313,1600,2018-04-14 13:18:16,1714.1068663514304,0.0,0.0,0.043783901401084804,1714.1068663514304,0.0,0.0,0.043783901401084804,1024,0.0,99,Assisted_Takeoff,
0.28929326564487895,36.8890121930675,1700,2018-04-14 13:18:16,1714.1068663514304,0.0,0.0,0.0460387014732384,1714.1068663514304,0.0,0.0,0.0460387014732384,1024,0.0,99,Assisted_Takeoff,
0.28929326785467796,36.889012196472,1800,2018-04-14 13:18:16,1714.1068663514304,0.0,0.0,0.046352101483267204,1714.1068663514304,0.0,0.0,0.046352101483267204,1024,0.0,99,Assisted_Takeoff,
0.28929327506705604,36.889012196679204,1900,2018-04-14 13:18:16,1714.1068663514304,0.0,0.0,0.0471436015085952,1714.1068663514304,0.0,0.0,0.0471436015085952,1024,0.0,99,Assisted_Takeoff,
0.289293294697134,36.88901219670171,2000,2018-04-14 13:18:16,1714.1068663514304,0.0,0.0,0.04928850157723201,1714.1068663514304,0.0,0.0,0.04928850157723201,1024,0.0,99,Assisted_Takeoff,
0.289293324101133,36.8890121943512,2100,2018-04-14 13:18:16,1714.1068663514304,0.0,0.0,0.052462201678790406,1714.1068663514304,0.0,0.0,0.052462201678790406,1024,0.0,99,Assisted_Takeoff,
0.289293339296144,36.8890121923454,2200,2018-04-14 13:18:16,1714.1068663514304,0.0,0.0,0.054093301730985595,1714.1068663514304,0.0,0.0,0.054093301730985595,1024,0.0,99,Assisted_Takeoff,
0.28929335462631606,36.889012188777706,2300,2018-04-14 13:18:16,1714.1068663514304,0.0,0.0,0.05571800178297601,1714.1068663514304,0.0,0.0,0.05571800178297601,1024,0.0,99,Assisted_Takeoff,
0.289293355341203,36.8890122151326,2400,2018-04-14 13:18:17,1714.1068663514304,0.0,0.0,0.05629910180157121,1714.1068663514304,0.0,0.0,0.05629910180157121,1024,0.0,99,Assisted_Takeoff,
0.28929336186475,36.8890122412862,2500,2018-04-14 13:18:17,1714.1068663514304,0.0,0.0,0.057646201844678405,1714.1068663514304,0.0,0.0,0.057646201844678405,1024,0.0,99,Assisted_Takeoff,
0.28929338394075105,36.8890122691811,2600,2018-04-14 13:18:17,1714.1068663514304,0.0,0.0,0.0608282019465024,1714.1068663514304,0.0,0.0,0.0608282019465024,1024,0.0,99,Assisted_Takeoff,
0.289293415604216,36.8890122845399,2700,2018-04-14 13:18:17,1714.1068663514304,0.0,0.0,0.0646906020700992,1714.1068663514304,0.0,0.0,0.0646906020700992,1024,0.0,99,Assisted_Takeoff,
0.28929343389896994,36.8890122971703,2800,2018-04-14 13:18:17,1714.1068663514304,0.0,0.0,0.06704960214558721,1714.1068663514304,0.0,0.0,0.06704960214558721,1024,0.0,99,Assisted_Takeoff,
0.28929345159038505,36.8890123037138,2900,2018-04-14 13:18:17,1714.1068663514304,0.0,0.0,0.0691449022126368,1714.1068663514304,0.0,0.0,0.0691449022126368,1024,0.0,99,Assisted_Takeoff,
0.289293482458356,36.8890123078394,3000,2018-04-14 13:18:17,1714.1068663514304,0.0,0.0,0.072558002321856,1714.1068663514304,0.0,0.0,0.072558002321856,1024,0.0,99,Assisted_Takeoff,
0.289293544022495,36.889012335216705,3200,2018-04-14 13:18:17,1714.1068663514304,0.0,0.0,0.0800024025600768,1714.1068663514304,0.0,0.0,0.0800024025600768,1024,0.0,99,Assisted_Takeoff,
0.289293565461774,36.889012362181795,3300,2018-04-14 13:18:17,1714.1068663514304,0.0,0.0,0.0832156026628992,1714.1068663514304,0.0,0.0,0.0832156026628992,1024,0.0,99,Assisted_Takeoff,
0.289293569823562,36.889012387017004,3400,2018-04-14 13:18:18,1714.1068663514304,0.0,0.0,0.08461920270781441,1714.1068663514304,0.0,0.0,0.08461920270781441,1024,0.0,99,Assisted_Takeoff,
0.289293579336932,36.889012400787,3500,2018-04-14 13:18:18,1714.1068663514304,0.0,0.0,0.08616020275712641,1714.1068663514304,0.0,0.0,0.08616020275712641,1024,0.0,99,Assisted_Takeoff,
0.28929360104816104,36.8890124109604,3600,2018-04-14 13:18:18,1714.1068663514304,0.0,0.0,0.0888217028422944,1714.1068663514304,0.0,0.0,0.0888217028422944,1024,0.0,99,Assisted_Takeoff,
0.289293633322293,36.8890124159221,3700,2018-04-14 13:18:18,1714.1068663514304,0.0,0.0,0.092364002955648,1714.1068663514304,0.0,0.0,0.092364002955648,1024,0.0,99,Assisted_Takeoff,
0.28929365050319106,36.8890124173262,3800,2018-04-14 13:18:18,1714.1068663514304,0.0,0.0,0.09420330301450561,1714.1068663514304,0.0,0.0,0.09420330301450561,1024,0.0,99,Assisted_Takeoff,
0.28929366826707203,36.8890124163637,3900,2018-04-14 13:18:18,1714.1068663514304,0.0,0.0,0.0960144030724608,1714.1068663514304,0.0,0.0,0.0960144030724608,1024,0.0,99,Assisted_Takeoff,
0.28929367054608,36.889012439478996,4000,2018-04-14 13:18:18,1714.1068663514304,0.0,0.0,0.0971753031096096,1714.1068663514304,0.0,0.0,0.0971753031096096,1024,0.0,99,Assisted_Takeoff,
0.289293677771486,36.889012464646,4100,2018-04-14 13:18:18,1714.1068663514304,0.0,0.0,0.0989858031675456,1714.1068663514304,0.0,0.0,0.0989858031675456,1024,0.0,99,Assisted_Takeoff,
0.28929369766292895,36.8890124886124,4200,2018-04-14 13:18:18,1714.1068663514304,0.0,0.0,0.102078003266496,1714.1068663514304,0.0,0.0,0.102078003266496,1024,0.0,99,Assisted_Takeoff,
0.28929373012188897,36.889012500968704,4300,2018-04-14 13:18:18,1714.1068663514304,0.0,0.0,0.10593500338992,1714.1068663514304,0.0,0.0,0.10593500338992,1024,0.0,99,Assisted_Takeoff,
0.28929374749005893,36.8890125101015,4400,2018-04-14 13:18:19,1714.1068663514304,0.0,0.0,0.108112003459584,1714.1068663514304,0.0,0.0,0.108112003459584,1026,0.0,99,Assisted_Takeoff,
0.28929376556415903,36.889012514249,4500,2018-04-14 13:18:19,1714.1068663514304,0.0,0.0,0.110137003524384,1714.1068663514304,0.0,0.0,0.110137003524384,1078,0.0,99,Assisted_Takeoff,
0.28929376752561897,36.889012542734896,4600,2018-04-14 13:18:19,1714.1068663514304,0.0,0.0,0.11164700357270402,1714.1068663514304,0.0,0.0,0.11164700357270402,1025,0.0,99,Assisted_Takeoff,
0.289293775571761,36.8890125703328,4700,2018-04-14 13:18:19,1714.1068663514304,0.0,0.0,0.11378800364121601,1714.1068663514304,0.0,0.0,0.11378800364121601,1025,0.0,99,Assisted_Takeoff,
0.289293796847382,36.889012594209206,4800,2018-04-14 13:18:19,1714.1068663514304,0.0,0.0,0.11709500374703999,1714.1068663514304,0.0,0.0,0.11709500374703999,1051,0.0,99,Assisted_Takeoff,
0.28929382906858897,36.8890126073385,4900,2018-04-14 13:18:19,1714.1068663514304,0.0,0.0,0.12095100387043202,1714.1068663514304,0.0,0.0,0.12095100387043202,1075,0.0,99,Assisted_Takeoff,
0.289293846531208,36.8890126161875,5000,2018-04-14 13:18:19,1714.1068663514304,0.0,0.0,0.12312800394009599,1714.1068663514304,0.0,0.0,0.12312800394009599,1079,0.0,99,Assisted_Takeoff,
0.289293865573418,36.889012619996706,5100,2018-04-14 13:18:19,1714.1068663514304,0.0,0.0,0.12521000400672,1714.1068663514304,0.0,0.0,0.12521000400672,1085,0.0,99,Assisted_Takeoff,
0.289293868085293,36.8890126492412,5200,2018-04-14 13:18:19,1714.1068663514304,0.0,0.0,0.126947004062304,1714.1068663514304,0.0,0.0,0.126947004062304,1086,0.0,99,Assisted_Takeoff,
0.289293877006724,36.889012676880796,5300,2018-04-14 13:18:19,1714.1068663514304,0.0,0.0,0.129281004136992,1714.1068663514304,0.0,0.0,0.129281004136992,1097,0.0,99,Assisted_Takeoff,
0.289293869603003,36.889012700116,5400,2018-04-14 13:18:20,1714.1068663514304,0.0,0.0,0.12983400415468802,1714.1068663514304,0.0,0.0,0.12983400415468802,1108,0.0,99,Assisted_Takeoff,
0.28929387196099,36.8890127124958,5500,2018-04-14 13:18:20,1714.1068663514304,0.0,0.0,0.13075500418416003,1714.1068663514304,0.0,0.0,0.13075500418416003,1109,0.0,99,Assisted_Takeoff,
0.28929389044952897,36.8890127492976,5600,2018-04-14 13:18:20,1714.1068663514304,0.0,0.0,0.134627004308064,1714.1068663514304,0.0,0.0,0.134627004308064,1107,0.0,99,Assisted_Takeoff,
0.289293920429997,36.8890127812929,5700,2018-04-14 13:18:20,1714.1068663514304,0.0,0.0,0.139336004458752,1714.1068663514304,0.0,0.0,0.139336004458752,1106,0.0,99,Assisted_Takeoff,
0.289293937743614,36.8890128061142,5800,2018-04-14 13:18:20,1714.1068663514304,0.0,0.0,0.14244000455808,1714.1068663514304,0.0,0.0,0.14244000455808,1108,0.0,99,Assisted_Takeoff,
0.289293958507089,36.88901281925529,5900,2018-04-14 13:18:20,1714.1068663514304,0.0,0.0,0.145173004645536,1714.1068663514304,0.0,0.0,0.145173004645536,1116,0.0,99,Assisted_Takeoff,
0.289293964228627,36.889012853867705,6000,2018-04-14 13:18:20,1714.1068663514304,0.0,0.0,0.14781200472998401,1714.1068663514304,0.0,0.0,0.14781200472998401,1143,0.0,99,Assisted_Takeoff,
0.289293978098898,36.889012883121204,6100,2018-04-14 13:18:20,1714.1068663514304,0.0,0.0,0.15091300482921602,1714.1068663514304,0.0,0.0,0.15091300482921602,1198,0.0,99,Assisted_Takeoff,
0.289294077995795,36.889012883693496,6300,2018-04-14 13:18:20,1714.1068663514304,0.0,0.0,0.160231005127392,1714.1068663514304,0.0,0.0,0.160231005127392,1222,0.0,99,Assisted_Takeoff,
0.28929414000694303,36.8890128654591,6400,2018-04-14 13:18:21,1714.1068663514304,0.0,0.0,0.16507300528233598,1714.1068663514304,0.0,0.0,0.16507300528233598,1250,0.0,99,P-GPS,Obstacle Avoided. Revise Flight Route
0.289294180990807,36.889012840829395,6500,2018-04-14 13:18:21,1714.1068663514304,0.0,0.0,0.16768700536598402,1714.1068663514304,0.0,0.0,0.16768700536598402,1307,0.0,99,P-GPS,Home Point Recorded. RTH Altitude:  45m.
0.289294212149455,36.8890127992554,6600,2018-04-14 13:18:21,1714.1068663514304,0.0,0.0,0.16859900539516803,1714.1068663514304,0.0,0.0,0.16859900539516803,1378,0.0,99,P-GPS,
0.289294171378102,36.8890127752264,6800,2018-04-14 13:18:21,1714.2068663546304,0.10000000320000002,0.0,0.16334700522710402,1714.2068663546304,0.10000000320000002,0.0,0.16859900539516803,1377,0.0,99,P-GPS,
0.289294090706615,36.8890128027461,6900,2018-04-14 13:18:21,1714.3068663578304,0.20000000640000004,0.35999970196000003,0.15685200501926402,1714.3068663578304,0.20000000640000004,0.35999970196000003,0.16859900539516803,1407,0.0,99,P-GPS,
0.28929397096305703,36.889012834243104,7000,2018-04-14 13:18:21,1714.5068663642305,0.4000000128000001,0.35999970196000003,0.14723900471164802,1714.5068663642305,0.4000000128000001,0.35999970196000003,0.16859900539516803,1453,0.0,99,P-GPS,
0.289293855738431,36.8890128716423,7100,2018-04-14 13:18:21,1714.6068663674305,0.500000016,0.0,0.139128004452096,1714.6068663674305,0.500000016,0.35999970196000003,0.16859900539516803,1470,0.0,99,P-GPS,
0.289293706654383,36.8890129175302,7200,2018-04-14 13:18:21,1714.8068663738302,0.7000000224000001,0.0,0.12977000415264,1714.8068663738302,0.7000000224000001,0.35999970196000003,0.16859900539516803,1487,0.0,99,P-GPS,
0.28929357708560804,36.8890129867321,7300,2018-04-14 13:18:21,1714.9068663770304,0.8000000256000002,0.0,0.125551004017632,1714.9068663770304,0.8000000256000002,0.35999970196000003,0.16859900539516803,1508,0.0,99,P-GPS,
0.289293436147037,36.8890131344349,7400,2018-04-14 13:18:22,1715.2068663866305,1.1000000352,0.35999970196000003,0.130222004167104,1715.2068663866305,1.1000000352,0.35999970196000003,0.16859900539516803,1513,0.0,99,P-GPS,
0.289293308525066,36.889013306772796,7500,2018-04-14 13:18:22,1715.4068663930304,1.3000000416000002,0.503999582744,0.14158900453084802,1715.4068663930304,1.3000000416000002,0.503999582744,0.16859900539516803,1513,0.0,99,P-GPS,
0.289293181782456,36.88901348197611,7600,2018-04-14 13:18:22,1715.7068664026303,1.6000000512000003,0.0,0.15613600499635197,1715.7068664026303,1.6000000512000003,0.503999582744,0.16859900539516803,1513,0.0,99,P-GPS,
0.289293103669254,36.889013583311296,7700,2018-04-14 13:18:22,1716.0068664122305,1.9000000607999998,0.0,0.1654750052952,1716.0068664122305,1.9000000607999998,0.503999582744,0.16859900539516803,1532,0.0,99,P-GPS,
0.28929303251927896,36.8890136442824,7800,2018-04-14 13:18:22,1716.4068664250306,2.3000000736,0.0,0.17109400547500803,1716.4068664250306,2.3000000736,0.503999582744,0.17109400547500803,1534,0.0,99,P-GPS,
0.289292994211763,36.889013666424,7900,2018-04-14 13:18:22,1716.7068664346302,2.6000000832000003,0.0,0.17311900553980802,1716.7068664346302,2.6000000832000003,0.503999582744,0.17311900553980802,1540,0.0,99,P-GPS,
0.289292995556857,36.8890136372786,8000,2018-04-14 13:18:22,1717.0068664442304,2.9000000928,0.0,0.16990400543692802,1717.0068664442304,2.9000000928,0.503999582744,0.17311900553980802,1554,0.0,99,P-GPS,
0.289293011456984,36.889013591998705,8100,2018-04-14 13:18:22,1717.4068664570302,3.3000001056,0.0,0.16506200528198403,1717.4068664570302,3.3000001056,0.503999582744,0.17311900553980802,1620,0.0,99,P-GPS,
0.28929300364371,36.8890135525996,8200,2018-04-14 13:18:22,1717.7068664666303,3.6000001152000003,0.0,0.16061500513968,1717.7068664666303,3.6000001152000003,0.503999582744,0.17311900553980802,1620,0.0,99,P-GPS,
0.289292998900053,36.889013510652,8300,2018-04-14 13:18:22,1718.1068664794304,4.000000128,0.0,0.15592000498944,1718.1068664794304,4.000000128,0.503999582744,0.17311900553980802,1613,0.0,99,P-GPS,
0.289292948252188,36.889013460503605,8400,2018-04-14 13:18:23,1718.4068664890303,4.3000001376,0.0,0.14989500479664,1718.4068664890303,4.3000001376,0.503999582744,0.17311900553980802,1573,0.0,99,P-GPS,
0.28929283962113106,36.8890133956896,8500,2018-04-14 13:18:23,1718.8068665018304,4.700000150400001,0.35999970196000003,0.14237400455596802,1718.8068665018304,4.700000150400001,0.503999582744,0.17311900553980802,1573,0.0,99,P-GPS,
0.28929267233230105,36.8890133495442,8600,2018-04-14 13:18:23,1719.2068665146303,5.1000001632,0.0,0.13878700444118403,1719.2068665146303,5.1000001632,0.503999582744,0.17311900553980802,1563,0.0,99,P-GPS,
0.289292517228303,36.889013291419296,8700,2018-04-14 13:18:23,1719.6068665274304,5.500000176000001,0.0,0.136173004357536,1719.6068665274304,5.500000176000001,0.503999582744,0.17311900553980802,1574,0.0,99,P-GPS,
0.28929234412674104,36.8890132382074,8800,2018-04-14 13:18:23,1720.0068665402305,5.9000001888,0.0,0.137347004395104,1720.0068665402305,5.9000001888,0.503999582744,0.17311900553980802,1593,0.0,99,P-GPS,
0.28929220673329303,36.8890131836107,8900,2018-04-14 13:18:23,1720.4068665530303,6.300000201600001,0.0,0.13917000445344002,1720.4068665530303,6.300000201600001,0.503999582744,0.17311900553980802,1607,0.0,99,P-GPS,
0.289292070200477,36.8890131542961,9000,2018-04-14 13:18:23,1720.7068665626305,6.6000002112,0.0,0.14504300464137598,1720.7068665626305,6.6000002112,0.503999582744,0.17311900553980802,1619,0.0,99,P-GPS,
0.28929197539491,36.88901311533439,9100,2018-04-14 13:18:23,1721.1068665754303,7.000000224,0.0,0.14837800474809598,1721.1068665754303,7.000000224,0.503999582744,0.17311900553980802,1644,0.0,99,P-GPS,
0.289291896818009,36.889013118495896,9200,2018-04-14 13:18:23,1721.5068665882304,7.4000002368,0.0,0.154557004945824,1721.5068665882304,7.4000002368,0.503999582744,0.17311900553980802,1656,0.0,99,P-GPS,
0.289291848941756,36.889013126113205,9300,2018-04-14 13:18:23,1721.9068666010303,7.8000002496,0.0,0.158888005084416,1721.9068666010303,7.8000002496,0.503999582744,0.17311900553980802,1663,0.0,99,P-GPS,
0.28929178397416805,36.889013178354,9400,2018-04-14 13:18:24,1722.3068666138304,8.200000262400001,0.0,0.16810700537942402,1722.3068666138304,8.200000262400001,0.503999582744,0.17311900553980802,1666,0.0,99,P-GPS,
0.289291736155317,36.889013216213606,9500,2018-04-14 13:18:24,1722.8068666298302,8.700000278400001,0.0,0.17485000559520003,1722.8068666298302,8.700000278400001,0.503999582744,0.17485000559520003,1680,0.0,99,P-GPS,
0.28929169638464397,36.8890132742694,9600,2018-04-14 13:18:24,1723.2068666426303,9.1000002912,0.0,0.18253400584108803,1723.2068666426303,9.1000002912,0.503999582744,0.18253400584108803,1683,0.0,99,P-GPS,
0.289291701508136,36.8890132961364,9700,2018-04-14 13:18:24,1723.7068666586304,9.6000003072,0.0,0.18386000588352003,1723.7068666586304,9.6000003072,0.503999582744,0.18386000588352003,1665,0.0,99,P-GPS,
0.289291697999653,36.8890133310721,9800,2018-04-14 13:18:24,1724.2068666746304,10.100000323200002,0.0,0.186923005981536,1724.2068666746304,10.100000323200002,0.503999582744,0.186923005981536,1657,0.0,99,P-GPS,
0.289291693774655,36.8890133402825,9900,2018-04-14 13:18:24,1724.6068666874303,10.500000336,0.0,0.18798800601561602,1724.6068666874303,10.500000336,0.503999582744,0.18798800601561602,1684,0.0,99,P-GPS,
0.289291612550718,36.8890133718394,10100,2018-04-14 13:18:24,1725.6068667194304,11.500000367999998,0.35999970196000003,0.1968000062976,1725.6068667194304,11.500000367999998,0.503999582744,0.1968000062976,1684,0.0,99,P-GPS,
0.289291587198695,36.8890134257044,10200,2018-04-14 13:18:24,1726.0068667322305,11.900000380800002,0.35999970196000003,0.20305000649760002,1726.0068667322305,11.900000380800002,0.503999582744,0.20305000649760002,1684,0.0,99,P-GPS,
0.28929157993095,36.8890134771932,10300,2018-04-14 13:18:24,1726.5068667482303,12.4000003968,0.35999970196000003,0.20774900664796803,1726.5068667482303,12.4000003968,0.503999582744,0.20774900664796803,1684,0.0,99,P-GPS,
0.289291522427335,36.889013566033,10400,2018-04-14 13:18:25,1727.0068667642304,12.900000412799999,0.0,0.21933900701884804,1727.0068667642304,12.900000412799999,0.503999582744,0.21933900701884804,1684,0.0,99,P-GPS,
0.28929146646626397,36.889013653694604,10500,2018-04-14 13:18:25,1727.4068667770302,13.3000004256,0.0,0.230733007383456,1727.4068667770302,13.3000004256,0.503999582744,0.230733007383456,1684,0.0,99,P-GPS,
0.289291380052476,36.8890137597704,10600,2018-04-14 13:18:25,1727.9068667930305,13.8000004416,0.0,0.24592900786972802,1727.9068667930305,13.8000004416,0.503999582744,0.24592900786972802,1684,0.0,99,P-GPS,
0.28929128658345504,36.8890138195291,10700,2018-04-14 13:18:25,1728.4068668090304,14.300000457600001,0.0,0.257842008250944,1728.4068668090304,14.300000457600001,0.503999582744,0.257842008250944,1684,-0.2,99,P-GPS,
0.289291111890904,36.88901383719121,10800,2018-04-14 13:18:25,1728.9068668250302,14.8000004736,0.0,0.272767008728544,1728.9068668250302,14.8000004736,0.503999582744,0.272767008728544,1684,-0.2,99,P-GPS,
0.289290946546843,36.8890138000346,10900,2018-04-14 13:18:25,1729.4068668410305,15.3000004896,0.35999970196000003,0.283407009069024,1729.4068668410305,15.3000004896,0.503999582744,0.283407009069024,1684,-0.8,99,P-GPS,
0.28929075131513504,36.889013755472,11000,2018-04-14 13:18:25,1729.9068668570303,15.8000005056,0.35999970196000003,0.296974009503168,1729.9068668570303,15.8000005056,0.503999582744,0.296974009503168,1684,-2.0,99,P-GPS,
0.289290603432471,36.8890137014004,11100,2018-04-14 13:18:25,1730.4068668730304,16.3000005216,0.35999970196000003,0.30662100981187196,1730.4068668730304,16.3000005216,0.503999582744,0.30662100981187196,1684,-3.8,99,P-GPS,
0.28929043586069897,36.889013672748,11200,2018-04-14 13:18:25,1731.0068668922304,16.900000540799997,0.35999970196000003,0.32031001024992,1731.0068668922304,16.900000540799997,0.503999582744,0.32031001024992,1684,-5.6,99,P-GPS,
0.289290290190276,36.8890136463155,11300,2018-04-14 13:18:25,1731.5068669082304,17.400000556800002,0.0,0.332538010641216,1731.5068669082304,17.400000556800002,0.503999582744,0.332538010641216,1684,-7.4,99,P-GPS,
0.28929010204026395,36.8890136674662,11400,2018-04-14 13:18:26,1732.0068669242303,17.9000005728,0.0,0.35182401125836804,1732.0068669242303,17.9000005728,0.503999582744,0.35182401125836804,1684,-9.2,99,P-GPS,
0.28928991825733097,36.8890136988229,11500,2018-04-14 13:18:26,1732.6068669434303,18.500000592000003,0.0,0.37141001188512,1732.6068669434303,18.500000592000003,0.503999582744,0.37141001188512,1684,-11.0,99,P-GPS,
0.289289680873758,36.889013797959706,11600,2018-04-14 13:18:26,1733.1068669594304,19.000000608,0.0,0.39989001279648007,1733.1068669594304,19.000000608,0.503999582744,0.39989001279648007,1684,-12.5,99,P-GPS,
0.289289469190694,36.8890138802571,11700,2018-04-14 13:18:26,1733.6068669754304,19.500000624000002,0.0,0.42498701359958396,1733.6068669754304,19.500000624000002,0.503999582744,0.42498701359958396,1684,-12.5,99,P-GPS,
0.28928922338887897,36.8890140025145,11800,2018-04-14 13:18:26,1734.2068669946304,20.1000006432,0.0,0.455511014576352,1734.2068669946304,20.1000006432,0.503999582744,0.455511014576352,1684,-12.6,99,P-GPS,
0.289289023175761,36.8890141126041,11900,2018-04-14 13:18:26,1734.7068670106303,20.600000659200003,0.0,0.48091301538921605,1734.7068670106303,20.600000659200003,0.503999582744,0.48091301538921605,1684,-12.6,99,P-GPS,
0.289288788726846,36.8890142481353,12000,2018-04-14 13:18:26,1735.3068670298303,21.2000006784,0.0,0.511000016352,1735.3068670298303,21.2000006784,0.503999582744,0.511000016352,1684,-12.6,99,P-GPS,
0.28928858746521396,36.8890143517419,12100,2018-04-14 13:18:26,1735.8068670458304,21.700000694400003,0.0,0.5361730171575361,1735.8068670458304,21.700000694400003,0.503999582744,0.5361730171575361,1684,-12.6,99,P-GPS,
0.289288350824617,36.889014473853706,12200,2018-04-14 13:18:26,1736.4068670650304,22.3000007136,0.35999970196000003,0.56578501810512,1736.4068670650304,22.3000007136,0.503999582744,0.56578501810512,1684,-12.6,99,P-GPS,
0.289288134207776,36.8890145552202,12300,2018-04-14 13:18:26,1736.9068670810304,22.8000007296,0.35999970196000003,0.591333018922656,1736.9068670810304,22.8000007296,0.503999582744,0.591333018922656,1684,-12.6,99,P-GPS,
0.28928786830526193,36.889014637799704,12400,2018-04-14 13:18:27,1737.5068671002305,23.400000748800004,0.35999970196000003,0.6218440198990081,1737.5068671002305,23.400000748800004,0.503999582744,0.6218440198990081,1684,-12.6,99,P-GPS,
0.28928764670802803,36.889014688535795,12500,2018-04-14 13:18:27,1738.0068671162303,23.9000007648,0.35999970196000003,0.646411020685152,1738.0068671162303,23.9000007648,0.503999582744,0.646411020685152,1684,-12.6,99,P-GPS,
0.28928740167259903,36.889014737676796,12600,2018-04-14 13:18:27,1738.6068671354305,24.500000784000004,0.0,0.673302021545664,1738.6068671354305,24.500000784000004,0.503999582744,0.673302021545664,1684,-12.6,99,P-GPS,
0.289287209838639,36.8890147576563,12700,2018-04-14 13:18:27,1739.1068671514304,25.000000800000002,0.0,0.693531022192992,1739.1068671514304,25.000000800000002,0.503999582744,0.693531022192992,1684,-12.6,99,P-GPS,
0.289286981763048,36.8890147882159,12800,2018-04-14 13:18:27,1739.7068671706302,25.600000819200005,0.0,0.717986022975552,1739.7068671706302,25.600000819200005,0.503999582744,0.717986022975552,1684,-12.6,99,P-GPS,
0.289286795727367,36.8890148018998,12900,2018-04-14 13:18:27,1740.2068671866305,26.100000835200003,0.0,0.7374840235994881,1740.2068671866305,26.100000835200003,0.503999582744,0.7374840235994881,1684,-12.6,99,P-GPS,
0.289286567305883,36.8890148419053,13000,2018-04-14 13:18:27,1740.8068672058303,26.700000854400002,0.0,0.7625360244011521,1740.8068672058303,26.700000854400002,0.503999582744,0.7625360244011521,1684,-12.6,99,P-GPS,
0.289286386926908,36.8890148556331,13100,2018-04-14 13:18:27,1741.3068672218305,27.200000870400004,0.0,0.781576025010432,1741.3068672218305,27.200000870400004,0.503999582744,0.781576025010432,1684,-12.6,99,P-GPS,
0.28928616675842894,36.88901490904411,13200,2018-04-14 13:18:27,1741.9068672410303,27.8000008896,0.35999970196000003,0.806449025806368,1741.9068672410303,27.8000008896,0.503999582744,0.806449025806368,1684,-12.6,99,P-GPS,
0.28928597529494104,36.889014933523896,13300,2018-04-14 13:18:28,1742.5068672602304,28.400000908800006,0.35999970196000003,0.8271660264693121,1742.5068672602304,28.400000908800006,0.503999582744,0.8271660264693121,1684,-12.6,99,P-GPS,
0.28928571528873,36.8890149502225,13400,2018-04-14 13:18:28,1743.0068672762304,28.9000009248,0.35999970196000003,0.8546780273496961,1743.0068672762304,28.9000009248,0.503999582744,0.8546780273496961,1684,-12.6,99,P-GPS,
0.289285500556443,36.8890149254227,13500,2018-04-14 13:18:28,1743.6068672954304,29.500000944,0.35999970196000003,0.8759310280297921,1743.6068672954304,29.500000944,0.503999582744,0.8759310280297921,1684,-12.6,99,P-GPS,
0.289285238103076,36.8890149449627,13600,2018-04-14 13:18:28,1744.2068673146302,30.1000009632,0.0,0.9040110289283521,1744.2068673146302,30.1000009632,0.503999582744,0.9040110289283521,1684,-12.6,99,P-GPS,
0.289285046200213,36.8890149453813,13700,2018-04-14 13:18:28,1744.7068673306305,30.6000009792,0.0,0.9240630295700161,1744.7068673306305,30.6000009792,0.503999582744,0.9240630295700161,1684,-12.6,99,P-GPS,
0.28928486662711306,36.8890149833431,13800,2018-04-14 13:18:28,1745.3068673498303,31.2000009984,0.0,0.9442810302169922,1745.3068673498303,31.2000009984,0.503999582744,0.9442810302169922,1684,-12.6,99,P-GPS,
0.28928477660113106,36.88901501651021,13900,2018-04-14 13:18:28,1745.8068673658302,31.7000010144,0.0,0.9549500305584001,1745.8068673658302,31.7000010144,0.503999582744,0.9549500305584001,1684,-12.6,99,P-GPS,
0.289284706262121,36.88901509584571,14000,2018-04-14 13:18:28,1746.3068673818304,32.2000010304,0.0,0.9653090308898878,1746.3068673818304,32.2000010304,0.503999582744,0.9653090308898878,1684,-12.6,99,P-GPS,
0.28928468331327395,36.889015149057705,14100,2018-04-14 13:18:28,1746.9068674010302,32.800001049600006,0.0,0.969749031031968,1746.9068674010302,32.800001049600006,0.503999582744,0.969749031031968,1684,-12.6,99,P-GPS,
0.289284623847894,36.8890152052539,14200,2018-04-14 13:18:28,1747.4068674170305,33.3000010656,0.0,0.978129031300128,1747.4068674170305,33.3000010656,0.503999582744,0.978129031300128,1684,-12.6,99,P-GPS,
0.289284602666824,36.8890152113686,14300,2018-04-14 13:18:28,1748.0068674362303,33.9000010848,0.0,0.9805730313783361,1748.0068674362303,33.9000010848,0.503999582744,0.9805730313783361,1684,-12.6,99,P-GPS,
0.289284550987035,36.889015245374,14400,2018-04-14 13:18:29,1748.5068674522302,34.4000011008,0.0,0.9872830315930561,1748.5068674522302,34.4000011008,0.503999582744,0.9872830315930561,1684,-12.6,99,P-GPS,
0.28928453827550205,36.8890152687692,14500,2018-04-14 13:18:29,1749.0068674682304,34.9000011168,0.0,0.9895250316648001,1749.0068674682304,34.9000011168,0.503999582744,0.9895250316648001,1684,-12.6,99,P-GPS,
0.289284458847129,36.8890153018469,14600,2018-04-14 13:18:29,1749.6068674874302,35.500001136,0.0,0.9990890319708481,1749.6068674874302,35.500001136,0.503999582744,0.9990890319708481,1684,-12.6,99,P-GPS,
0.289284409042594,36.8890152983707,14700,2018-04-14 13:18:29,1750.1068675034305,36.000001151999996,0.0,1.00413003213216,1750.1068675034305,36.000001151999996,0.503999582744,1.00413003213216,1684,-12.6,99,P-GPS,
0.289284319260675,36.889015335273704,14900,2018-04-14 13:18:29,1751.2068675386306,37.1000011872,0.0,1.0149200324774401,1751.2068675386306,37.1000011872,0.503999582744,1.0149200324774401,1684,-12.6,99,P-GPS,
0.289284268201526,36.8890153651947,15000,2018-04-14 13:18:29,1751.8068675578304,37.700001206399996,0.0,1.02141003268512,1751.8068675578304,37.700001206399996,0.503999582744,1.02141003268512,1684,-12.6,99,P-GPS,
0.289284252912574,36.8890153675945,15100,2018-04-14 13:18:29,1752.3068675738302,38.2000012224,0.0,1.02309003273888,1752.3068675738302,38.2000012224,0.503999582744,1.02309003273888,1684,-12.6,99,P-GPS,
0.289284218063873,36.8890153911642,15200,2018-04-14 13:18:29,1752.9068675930305,38.8000012416,0.0,1.0276500328848002,1752.9068675930305,38.8000012416,0.503999582744,1.0276500328848002,1684,-12.6,99,P-GPS,
0.28928423237484197,36.8890153834281,15300,2018-04-14 13:18:30,1753.4068676090303,39.3000012576,0.35999970196000003,1.0258500328272,1753.4068676090303,39.3000012576,0.503999582744,1.0276500328848002,1684,-12.6,99,P-GPS,
0.28928425126296003,36.8890154281437,15400,2018-04-14 13:18:30,1753.9068676250306,39.80000127360001,0.35999970196000003,1.0256700328214399,1753.9068676250306,39.80000127360001,0.503999582744,1.0276500328848002,1684,-12.6,99,P-GPS,
0.28928433090079303,36.8890154546555,15500,2018-04-14 13:18:30,1754.4068676410304,40.3000012896,0.35999970196000003,1.01848003259136,1754.4068676410304,40.3000012896,0.503999582744,1.0276500328848002,1684,-12.6,99,P-GPS,
0.289284460942529,36.889015510830795,15600,2018-04-14 13:18:30,1755.0068676602302,40.90000130880001,0.7199994039200001,1.0073500322352,1755.0068676602302,40.90000130880001,0.7199994039200001,1.0276500328848002,1684,-12.6,99,P-GPS,
0.289284639071097,36.889015529384295,15700,2018-04-14 13:18:30,1755.5068676762305,41.4000013248,0.7199994039200001,0.989802031673664,1755.5068676762305,41.4000013248,0.7199994039200001,1.0276500328848002,1684,-12.6,99,P-GPS,
0.28928480031310805,36.889015591951,15800,2018-04-14 13:18:30,1756.0068676922303,41.9000013408,0.7199994039200001,0.9760010312320321,1756.0068676922303,41.9000013408,0.7199994039200001,1.0276500328848002,1684,-12.6,99,P-GPS,
0.28928496029755296,36.8890156406932,15900,2018-04-14 13:18:30,1756.5068677082302,42.4000013568,0.7199994039200001,0.9618870307803842,1756.5068677082302,42.4000013568,0.7199994039200001,1.0276500328848002,1684,-12.6,99,P-GPS,
0.289285099856883,36.8890157389537,16000,2018-04-14 13:18:30,1757.0068677242305,42.900001372800006,0.7199994039200001,0.952307030473824,1757.0068677242305,42.900001372800006,0.7199994039200001,1.0276500328848002,1684,-12.6,99,P-GPS,
0.28928525162903396,36.8890158086807,16100,2018-04-14 13:18:30,1757.5068677402303,43.40000138880001,0.7199994039200001,0.9404020300928642,1757.5068677402303,43.40000138880001,0.7199994039200001,1.0276500328848002,1684,-12.6,99,P-GPS,
0.289285378989944,36.889015933526295,16200,2018-04-14 13:18:30,1758.0068677562303,43.9000014048,0.35999970196000003,0.9339110298851521,1758.0068677562303,43.9000014048,0.7199994039200001,1.0276500328848002,1684,-12.6,99,P-GPS,
0.289285511888912,36.8890160239115,16300,2018-04-14 13:18:30,1758.6068677754304,44.500001424,0.35999970196000003,0.9254500296144,1758.6068677754304,44.500001424,0.7199994039200001,1.0276500328848002,1684,-12.6,99,P-GPS,
0.28928562121299894,36.8890161284018,16400,2018-04-14 13:18:31,1759.1068677914304,45.00000144,0.35999970196000003,0.9203120294499841,1759.1068677914304,45.00000144,0.7199994039200001,1.0276500328848002,1684,-12.6,99,P-GPS,
0.289285728935091,36.8890161951846,16500,2018-04-14 13:18:31,1759.6068678074303,45.50000145600001,0.35999970196000003,0.9135190292326079,1759.6068678074303,45.50000145600001,0.7199994039200001,1.0276500328848002,1684,-12.6,99,P-GPS,
0.28928582529086,36.8890163148175,16600,2018-04-14 13:18:31,1760.1068678234305,46.000001471999994,0.35999970196000003,0.910982029151424,1760.1068678234305,46.000001471999994,0.7199994039200001,1.0276500328848002,1684,-12.6,99,P-GPS,
0.28928592196048303,36.8890164130598,16700,2018-04-14 13:18:31,1760.7068678426303,46.600001491200004,0.35999970196000003,0.907474029039168,1760.7068678426303,46.600001491200004,0.7199994039200001,1.0276500328848002,1684,-12.6,99,P-GPS,
0.28928600145042305,36.8890165430817,16800,2018-04-14 13:18:31,1761.2068678586304,47.1000015072,0.35999970196000003,0.907732029047424,1761.2068678586304,47.1000015072,0.7199994039200001,1.0276500328848002,1684,-12.6,99,P-GPS,
0.289286085371496,36.8890166132573,16900,2018-04-14 13:18:31,1761.7068678746305,47.60000152320001,0.35999970196000003,0.9041990289343679,1761.7068678746305,47.60000152320001,0.7199994039200001,1.0276500328848002,1684,-12.6,99,P-GPS,
0.289286160440601,36.889016680081795,17000,2018-04-14 13:18:31,1762.3068678938305,48.200001542399995,0.35999970196000003,0.90142002884544,1762.3068678938305,48.200001542399995,0.7199994039200001,1.0276500328848002,1684,-12.6,99,P-GPS,
0.289286248426295,36.8890166926207,17100,2018-04-14 13:18:31,1762.8068679098303,48.70000155840001,0.35999970196000003,0.8941440286126079,1762.8068679098303,48.70000155840001,0.7199994039200001,1.0276500328848002,1684,-12.6,99,P-GPS,
0.289286350330936,36.8890167547785,17200,2018-04-14 13:18:31,1763.3068679258304,49.200001574400005,0.35999970196000003,0.8888440284430079,1763.3068679258304,49.200001574400005,0.7199994039200001,1.0276500328848002,1684,-12.6,99,P-GPS,
0.289286445187596,36.8890167938928,17300,2018-04-14 13:18:32,1763.8068679418302,49.70000159040001,0.0,0.8828320282506241,1763.8068679418302,49.70000159040001,0.7199994039200001,1.0276500328848002,1684,-12.6,99,P-GPS,
0.28928650893593705,36.8890168727969,17400,2018-04-14 13:18:32,1764.4068679610305,50.3000016096,0.0,0.882347028235104,1764.4068679610305,50.3000016096,0.7199994039200001,1.0276500328848002,1684,-12.6,99,P-GPS,
0.289286566302049,36.889016906747706,17500,2018-04-14 13:18:32,1764.9068679770303,50.800001625600004,0.0,0.879532028145024,1764.9068679770303,50.800001625600004,0.7199994039200001,1.0276500328848002,1684,-12.6,99,P-GPS,
0.289286600691733,36.8890169646531,17600,2018-04-14 13:18:32,1765.4068679930306,51.3000016416,0.0,0.8804220281735041,1765.4068679930306,51.3000016416,0.7199994039200001,1.0276500328848002,1684,-12.6,99,P-GPS,
0.289286642232016,36.889016963575,17700,2018-04-14 13:18:32,1765.9068680090304,51.800001657600006,0.35999970196000003,0.8767010280544321,1765.9068680090304,51.800001657600006,0.7199994039200001,1.0276500328848002,1684,-12.6,99,P-GPS,
0.289286674445489,36.889016986996495,17800,2018-04-14 13:18:32,1766.5068680282302,52.400001676799995,0.35999970196000003,0.875488028015616,1766.5068680282302,52.400001676799995,0.7199994039200001,1.0276500328848002,1684,-12.6,99,P-GPS,
0.289286731345459,36.889016977026,17900,2018-04-14 13:18:32,1767.0068680442305,52.90000169280001,0.35999970196000003,0.8698360278347522,1767.0068680442305,52.90000169280001,0.7199994039200001,1.0276500328848002,1684,-12.6,99,P-GPS,
0.289286795031919,36.889017010526096,18000,2018-04-14 13:18:32,1767.5068680602303,53.400001708800005,0.0,0.866634027732288,1767.5068680602303,53.400001708800005,0.7199994039200001,1.0276500328848002,1684,-12.6,99,P-GPS,
0.28928687002644704,36.889017025010205,18100,2018-04-14 13:18:32,1768.0068680762304,53.900001724800006,0.0,0.861181027557792,1768.0068680762304,53.900001724800006,0.7199994039200001,1.0276500328848002,1684,-12.6,99,P-GPS,
0.289286927928318,36.8890171154146,18200,2018-04-14 13:18:32,1768.5068680922304,54.40000174080001,0.0,0.862656027604992,1768.5068680922304,54.40000174080001,0.7199994039200001,1.0276500328848002,1684,-12.6,99,P-GPS,
0.289286990645192,36.8890171623133,18300,2018-04-14 13:18:32,1769.0068681082303,54.9000017568,0.0,0.8607270275432641,1769.0068681082303,54.9000017568,0.7199994039200001,1.0276500328848002,1684,-12.6,99,P-GPS,
0.289287011396149,36.8890172423319,18400,2018-04-14 13:18:33,1769.6068681274305,55.500001776,0.0,0.864819027674208,1769.6068681274305,55.500001776,0.7199994039200001,1.0276500328848002,1684,-12.6,99,P-GPS,
0.28928705299281704,36.8890172832148,18500,2018-04-14 13:18:33,1770.1068681434303,56.000001792,0.35999970196000003,0.864362027659584,1770.1068681434303,56.000001792,0.7199994039200001,1.0276500328848002,1684,-12.6,99,P-GPS,
0.289287087142102,36.889017361705605,18600,2018-04-14 13:18:33,1770.6068681594304,56.50000180800001,0.0,0.8673750277560001,1770.6068681594304,56.50000180800001,0.7199994039200001,1.0276500328848002,1684,-12.6,99,P-GPS,
0.289287137639539,36.8890174012567,18700,2018-04-14 13:18:33,1771.1068681754305,57.000001824,0.0,0.8662070277186241,1771.1068681754305,57.000001824,0.7199994039200001,1.0276500328848002,1684,-12.6,99,P-GPS,
0.28928715224220397,36.8890174731602,18800,2018-04-14 13:18:33,1771.6068681914305,57.50000184,0.0,0.8704680278549761,1771.6068681914305,57.50000184,0.7199994039200001,1.0276500328848002,1684,-12.6,99,P-GPS,
0.289287179628459,36.8890174941803,18900,2018-04-14 13:18:33,1772.1068682074304,58.000001856,0.0,0.8698560278353923,1772.1068682074304,58.000001856,0.7199994039200001,1.0276500328848002,1684,-12.6,99,P-GPS,
0.28928717385878006,36.889017546560396,19000,2018-04-14 13:18:33,1772.7068682266304,58.60000187520001,0.0,0.87433502797872,1772.7068682266304,58.60000187520001,0.7199994039200001,1.0276500328848002,1684,-12.6,99,P-GPS,
0.289287184676228,36.889017583986295,19100,2018-04-14 13:18:33,1773.2068682426304,59.1000018912,0.0,0.876348028043136,1773.2068682426304,59.1000018912,0.7199994039200001,1.0276500328848002,1684,-12.9,99,P-GPS,
0.28928714144511103,36.8890176833474,19200,2018-04-14 13:18:33,1773.7068682586303,59.6000019072,0.0,0.8874900283996802,1773.7068682586303,59.6000019072,0.7199994039200001,1.0276500328848002,1681,-13.6,99,P-GPS,
0.289287126933029,36.8890177426831,19300,2018-04-14 13:18:33,1774.2068682746306,60.100001923200004,0.0,0.8932560285841921,1774.2068682746306,60.100001923200004,0.7199994039200001,1.0276500328848002,1679,-14.5,99,P-GPS,
0.289287089190786,36.8890178455922,19400,2018-04-14 13:18:34,1774.7068682906304,60.600001939200006,0.0,0.904284028937088,1774.7068682906304,60.600001939200006,0.7199994039200001,1.0276500328848002,1673,-15.5,99,P-GPS,
0.2892870872737,36.889017894629795,19500,2018-04-14 13:18:34,1775.2068683066302,61.10000195520001,0.0,0.90828502906512,1775.2068683066302,61.10000195520001,0.7199994039200001,1.0276500328848002,1667,-16.4,99,P-GPS,
0.289287058076819,36.8890179606515,19600,2018-04-14 13:18:34,1775.7068683226305,61.6000019712,0.0,0.915779029304928,1775.7068683226305,61.6000019712,0.7199994039200001,1.0276500328848002,1665,-17.5,99,P-GPS,
0.289287062265686,36.8890179771183,19700,2018-04-14 13:18:34,1776.2068683386303,62.1000019872,0.0,0.9167520293360639,1776.2068683386303,62.1000019872,0.7199994039200001,1.0276500328848002,1666,-18.6,99,P-GPS,
0.289287023048683,36.8890180261731,19800,2018-04-14 13:18:34,1776.7068683546304,62.600002003200004,0.0,0.9236980295583361,1776.7068683546304,62.600002003200004,0.7199994039200001,1.0276500328848002,1657,-19.7,99,P-GPS,
0.289287024583593,36.8890180344724,19900,2018-04-14 13:18:34,1777.2068683706302,63.100002019200005,0.0,0.9242350295755201,1777.2068683706302,63.100002019200005,0.7199994039200001,1.0276500328848002,1656,-20.4,99,P-GPS,
0.28928700345626296,36.889018092417395,20000,2018-04-14 13:18:34,1777.7068683866305,63.600002035200006,0.0,0.930478029775296,1777.7068683866305,63.600002035200006,0.7199994039200001,1.0276500328848002,1650,-20.4,99,P-GPS,
0.289286997234385,36.88901810416721,20100,2018-04-14 13:18:34,1778.2068684026303,64.1000020512,0.35999970196000003,0.9318950298206401,1778.2068684026303,64.1000020512,0.7199994039200001,1.0276500328848002,1650,-20.4,99,P-GPS,
0.28928693922045695,36.8890181545699,20200,2018-04-14 13:18:34,1778.7068684186304,64.60000206720001,0.35999970196000003,0.9404140300932479,1778.7068684186304,64.60000206720001,0.7199994039200001,1.0276500328848002,1650,-20.4,99,P-GPS,
0.289286900245177,36.8890181586317,20300,2018-04-14 13:18:34,1779.2068684346305,65.1000020832,0.35999970196000003,0.9437750302008001,1779.2068684346305,65.1000020832,0.7199994039200001,1.0276500328848002,1649,-20.4,99,P-GPS,
0.289286831400671,36.889018176363,20400,2018-04-14 13:18:35,1779.7068684506303,65.60000209920001,0.35999970196000003,0.950563030418016,1779.7068684506303,65.60000209920001,0.7199994039200001,1.0276500328848002,1644,-20.4,98,P-GPS,
0.289286783475666,36.889018163813404,20500,2018-04-14 13:18:35,1780.2068684666303,66.10000211520001,0.35999970196000003,0.9533430305069762,1780.2068684666303,66.10000211520001,0.7199994039200001,1.0276500328848002,1644,-20.4,98,P-GPS,
0.28928667668978997,36.889018184451295,20600,2018-04-14 13:18:35,1780.6068684794302,66.500002128,0.35999970196000003,0.9634020308288641,1780.6068684794302,66.500002128,0.7199994039200001,1.0276500328848002,1643,-20.4,98,P-GPS,
0.289286616195945,36.8890181515861,20700,2018-04-14 13:18:35,1781.1068684954305,67.00000214399999,0.35999970196000003,0.9656700309014399,1781.1068684954305,67.00000214399999,0.7199994039200001,1.0276500328848002,1645,-20.4,98,P-GPS,
0.28928652859293497,36.8890181832394,20800,2018-04-14 13:18:35,1781.6068685114303,67.50000216000001,0.35999970196000003,0.9751300312041601,1781.6068685114303,67.50000216000001,0.7199994039200001,1.0276500328848002,1646,-20.4,98,P-GPS,
0.28928648545581,36.8890181915901,20900,2018-04-14 13:18:35,1782.0068685242304,67.9000021728,0.0,0.9792390313356479,1782.0068685242304,67.9000021728,0.7199994039200001,1.0276500328848002,1643,-20.4,98,P-GPS,
0.28928640013816803,36.8890182461402,21000,2018-04-14 13:18:35,1782.5068685402302,68.4000021888,0.0,0.99029503168944,1782.5068685402302,68.4000021888,0.7199994039200001,1.0276500328848002,1648,-20.4,98,P-GPS,
0.28928635105142103,36.8890182610665,21100,2018-04-14 13:18:35,1783.0068685562305,68.9000022048,0.0,0.9954000318528,1783.0068685562305,68.9000022048,0.7199994039200001,1.0276500328848002,1654,-20.4,98,P-GPS,
0.28928629016301,36.8890183265421,21200,2018-04-14 13:18:35,1783.5068685722304,69.4000022208,0.0,1.00532003217024,1783.5068685722304,69.4000022208,0.7199994039200001,1.0276500328848002,1644,-20.4,98,P-GPS,
0.289286293092555,36.8890183491735,21300,2018-04-14 13:18:35,1783.9068685850305,69.8000022336,0.0,1.0068200322182401,1783.9068685850305,69.8000022336,0.7199994039200001,1.0276500328848002,1629,-20.4,98,P-GPS,
0.28928626055565904,36.889018422352,21400,2018-04-14 13:18:36,1784.4068686010303,70.30000224960001,0.0,1.0150500324816,1784.4068686010303,70.30000224960001,0.7199994039200001,1.0276500328848002,1631,-20.4,98,P-GPS,
0.289286259616021,36.8890184517742,21500,2018-04-14 13:18:36,1784.9068686170306,70.80000226560001,0.0,1.01739003255648,1784.9068686170306,70.80000226560001,0.7199994039200001,1.0276500328848002,1636,-20.4,98,P-GPS,
0.289286199838437,36.889018506640205,21600,2018-04-14 13:18:36,1785.3068686298304,71.2000022784,0.35999970196000003,1.02641003284512,1785.3068686298304,71.2000022784,0.7199994039200001,1.0276500328848002,1632,-20.4,98,P-GPS,
0.28928618107079807,36.8890185065438,21700,2018-04-14 13:18:36,1785.8068686458305,71.7000022944,0.35999970196000003,1.02791003289312,1785.8068686458305,71.7000022944,0.7199994039200001,1.02791003289312,1631,-20.4,98,P-GPS,
0.289286143648544,36.8890185541512,21800,2018-04-14 13:18:36,1786.2068686586304,72.1000023072,0.35999970196000003,1.03458003310656,1786.2068686586304,72.1000023072,0.7199994039200001,1.03458003310656,1629,-20.4,98,P-GPS,
0.28928615339633396,36.8890185679265,21900,2018-04-14 13:18:36,1786.7068686746304,72.6000023232,0.35999970196000003,1.0348600331155202,1786.7068686746304,72.6000023232,0.7199994039200001,1.0348600331155202,1629,-20.4,98,P-GPS,
0.289286115950442,36.88901863444811,22000,2018-04-14 13:18:36,1787.1068686874303,73.00000233600001,0.35999970196000003,1.04299003337568,1787.1068686874303,73.00000233600001,0.7199994039200001,1.04299003337568,1609,-20.4,98,P-GPS,
0.289286113833491,36.889018662923895,22100,2018-04-14 13:18:36,1787.6068687034306,73.50000235200001,0.35999970196000003,1.04536003345152,1787.6068687034306,73.50000235200001,0.7199994039200001,1.04536003345152,1562,-20.4,98,P-GPS,
0.2892860789947,36.88901874610929,22200,2018-04-14 13:18:36,1788.0068687162304,73.9000023648,0.0,1.05459003374688,1788.0068687162304,73.9000023648,0.7199994039200001,1.05459003374688,1523,-20.4,98,P-GPS,
0.2892860676054,36.889018786010496,22300,2018-04-14 13:18:36,1788.5068687322305,74.4000023808,0.0,1.0586000338752,1788.5068687322305,74.4000023808,0.7199994039200001,1.0586000338752,1486,-20.4,98,P-GPS,
0.289285988891405,36.889018881164105,22400,2018-04-14 13:18:37,1788.9068687450304,74.8000023936,0.0,1.0722600343123199,1788.9068687450304,74.8000023936,0.7199994039200001,1.0722600343123199,1467,-20.4,98,P-GPS,
0.28928593608212394,36.8890189309737,22500,2018-04-14 13:18:37,1789.2068687546305,75.1000024032,0.0,1.0803300345705602,1789.2068687546305,75.1000024032,0.7199994039200001,1.0803300345705602,1464,-20.4,98,P-GPS,
0.289285865537834,36.8890189947406,22600,2018-04-14 13:18:37,1789.6068687674303,75.50000241600002,0.0,1.0909000349088,1789.6068687674303,75.50000241600002,0.7199994039200001,1.0909000349088,1466,-20.4,98,P-GPS,
0.28928584281840103,36.889019016991895,22700,2018-04-14 13:18:37,1789.9068687770305,75.80000242560001,0.0,1.0944300350217602,1789.9068687770305,75.80000242560001,0.7199994039200001,1.0944300350217602,1464,-20.4,98,P-GPS,
0.289285787372217,36.8890190909381,22800,2018-04-14 13:18:37,1790.2068687866304,76.10000243520001,0.0,1.1046000353472,1790.2068687866304,76.10000243520001,0.7199994039200001,1.1046000353472,1469,-20.4,98,P-GPS,
0.289285747918842,36.889019126243205,22900,2018-04-14 13:18:37,1790.5068687962303,76.4000024448,0.0,1.1104800355353601,1790.5068687962303,76.4000024448,0.7199994039200001,1.1104800355353601,1477,-20.4,98,P-GPS,
0.289285670481928,36.88901915900671,23000,2018-04-14 13:18:37,1790.8068688058304,76.70000245439999,0.35999970196000003,1.11917003581344,1790.8068688058304,76.70000245439999,0.7199994039200001,1.11917003581344,1480,-20.4,98,P-GPS,
0.289285641980927,36.889019130972,23100,2018-04-14 13:18:37,1791.1068688154305,77.000002464,0.35999970196000003,1.11927003581664,1791.1068688154305,77.000002464,0.7199994039200001,1.11927003581664,1484,-20.4,98,P-GPS,
0.289285586673625,36.8890191435815,23200,2018-04-14 13:18:37,1791.4068688250304,77.3000024736,0.35999970196000003,1.1246600359891201,1791.4068688250304,77.3000024736,0.7199994039200001,1.1246600359891201,1485,-20.4,98,P-GPS,
0.289285578278971,36.8890191262678,23300,2018-04-14 13:18:37,1791.7068688346303,77.6000024832,0.35999970196000003,1.1239900359676802,1791.7068688346303,77.6000024832,0.7199994039200001,1.1246600359891201,1484,-20.4,98,P-GPS,
0.289285566472167,36.8890191538978,23400,2018-04-14 13:18:38,1792.0068688442304,77.9000024928,0.0,1.12707003606624,1792.0068688442304,77.9000024928,0.7199994039200001,1.12707003606624,1477,-20.4,98,P-GPS,
0.289285609536216,36.8890191395004,23500,2018-04-14 13:18:38,1792.3068688538303,78.20000250240001,0.0,1.1225200359206402,1792.3068688538303,78.20000250240001,0.7199994039200001,1.12707003606624,1452,-20.4,98,P-GPS,
0.289285625893961,36.88901918762161,23600,2018-04-14 13:18:38,1792.6068688634305,78.500002512,0.35999970196000003,1.12494003599808,1792.6068688634305,78.500002512,0.7199994039200001,1.12707003606624,1427,-20.4,98,P-GPS,
0.289285676555643,36.889019202914,23700,2018-04-14 13:18:38,1792.9068688730304,78.8000025216,0.35999970196000003,1.12212003590784,1792.9068688730304,78.8000025216,0.7199994039200001,1.12707003606624,1421,-20.4,98,P-GPS,
0.28928569225608197,36.8890192763035,23800,2018-04-14 13:18:38,1793.2068688826303,79.10000253119999,0.35999970196000003,1.1266300360521602,1793.2068688826303,79.10000253119999,0.7199994039200001,1.12707003606624,1434,-20.4,98,P-GPS,
0.289285754067351,36.889019306974,23900,2018-04-14 13:18:38,1793.5068688922304,79.4000025408,0.35999970196000003,1.1242000359744,1793.5068688922304,79.4000025408,0.7199994039200001,1.12707003606624,1448,-20.4,98,P-GPS,
0.289285807757652,36.8890194016319,24000,2018-04-14 13:18:38,1793.7068688986305,79.60000254720002,0.35999970196000003,1.1275500360816,1793.7068688986305,79.60000254720002,0.7199994039200001,1.1275500360816,1449,-20.4,98,P-GPS,
0.289285906224058,36.8890194430759,24100,2018-04-14 13:18:38,1794.0068689082302,79.9000025568,0.35999970196000003,1.1233000359456,1794.0068689082302,79.9000025568,0.7199994039200001,1.1275500360816,1447,-20.4,98,P-GPS,
0.28928595602632595,36.8890195285138,24200,2018-04-14 13:18:38,1794.2068689146304,80.1000025632,0.35999970196000003,1.12643003604576,1794.2068689146304,80.1000025632,0.7199994039200001,1.1275500360816,1449,-20.4,98,P-GPS,
0.28928604121115997,36.889019544813706,24300,2018-04-14 13:18:38,1794.5068689242305,80.4000025728,0.503999582744,1.1213300358825602,1794.5068689242305,80.4000025728,0.7199994039200001,1.1275500360816,1450,-20.4,98,P-GPS,
0.28928608293007596,36.8890196143725,24400,2018-04-14 13:18:39,1794.8068689338302,80.7000025824,0.503999582744,1.1239300359657602,1794.8068689338302,80.7000025824,0.7199994039200001,1.1275500360816,1453,-20.4,98,P-GPS,
0.28928615587795503,36.8890196460012,24500,2018-04-14 13:18:39,1795.0068689402303,80.9000025888,0.503999582744,1.1211300358761602,1795.0068689402303,80.9000025888,0.7199994039200001,1.1275500360816,1452,-20.4,98,P-GPS,
0.289286188840817,36.889019743845296,24600,2018-04-14 13:18:39,1795.3068689498305,81.2000025984,0.503999582744,1.12686003605952,1795.3068689498305,81.2000025984,0.7199994039200001,1.1275500360816,1430,-20.4,98,P-GPS,
0.289286279460469,36.8890197769107,24700,2018-04-14 13:18:39,1795.6068689594304,81.500002608,0.35999970196000003,1.12304003593728,1795.6068689594304,81.500002608,0.7199994039200001,1.1275500360816,1403,-20.4,98,P-GPS,
0.289286324587883,36.8890198725632,24800,2018-04-14 13:18:39,1795.8068689658303,81.7000026144,0.35999970196000003,1.12789003609248,1795.8068689658303,81.7000026144,0.7199994039200001,1.12789003609248,1425,-20.4,98,P-GPS,
0.289286405930595,36.889019916286394,24900,2018-04-14 13:18:39,1796.1068689754304,82.00000262399999,0.35999970196000003,1.12583003602656,1796.1068689754304,82.00000262399999,0.7199994039200001,1.12789003609248,1441,-20.4,98,P-GPS,
0.28928643735081105,36.8890200509719,25000,2018-04-14 13:18:39,1796.4068689850305,82.3000026336,0.35999970196000003,1.13521003632672,1796.4068689850305,82.3000026336,0.7199994039200001,1.13521003632672,1443,-20.4,98,P-GPS,
0.289286525095444,36.8890201392748,25100,2018-04-14 13:18:39,1796.6068689914302,82.50000264,0.35999970196000003,1.13679003637728,1796.6068689914302,82.50000264,0.7199994039200001,1.13679003637728,1444,-20.4,98,P-GPS,
0.289286582199581,36.8890202619567,25200,2018-04-14 13:18:39,1796.8068689978304,82.70000264640001,0.35999970196000003,1.14364003659648,1796.8068689978304,82.70000264640001,0.7199994039200001,1.14364003659648,1438,-20.4,98,P-GPS,
0.28928667239482,36.8890203101796,25300,2018-04-14 13:18:40,1797.1068690074303,83.000002656,0.35999970196000003,1.14182003653824,1797.1068690074303,83.000002656,0.7199994039200001,1.14364003659648,1437,-20.4,98,P-GPS,
0.28928669416187397,36.88902041266579,25400,2018-04-14 13:18:40,1797.3068690138305,83.20000266240001,0.35999970196000003,1.1494900367836802,1797.3068690138305,83.20000266240001,0.7199994039200001,1.1494900367836802,1430,-20.4,98,P-GPS,
0.28928674766374,36.889020574159005,25600,2018-04-14 13:18:40,1797.9068690330305,83.8000026816,0.35999970196000003,1.16046003713472,1797.9068690330305,83.8000026816,0.7199994039200001,1.16046003713472,1425,-20.4,98,P-GPS,
0.28928678915048806,36.889020635170205,25700,2018-04-14 13:18:40,1798.1068690394304,84.000002688,0.35999970196000003,1.1632900372252801,1798.1068690394304,84.000002688,0.7199994039200001,1.1632900372252801,1422,-20.4,98,P-GPS,
0.28928679243617894,36.889020766491896,25800,2018-04-14 13:18:40,1798.4068690490305,84.30000269760001,0.35999970196000003,1.1750000376000003,1798.4068690490305,84.30000269760001,0.7199994039200001,1.1750000376000003,1418,-20.4,98,P-GPS,
0.289286840438536,36.889020832426795,25900,2018-04-14 13:18:40,1798.6068690554303,84.500002704,0.503999582744,1.1779700376950402,1798.6068690554303,84.500002704,0.7199994039200001,1.1779700376950402,1404,-20.4,98,P-GPS,
0.289286855107356,36.889020938874104,26000,2018-04-14 13:18:40,1798.9068690650304,84.8000027136,0.503999582744,1.18681003797792,1798.9068690650304,84.8000027136,0.7199994039200001,1.18681003797792,1399,-20.4,98,P-GPS,
0.289286910989549,36.8890209772722,26100,2018-04-14 13:18:40,1799.1068690714305,85.00000272,0.503999582744,1.18687003797984,1799.1068690714305,85.00000272,0.7199994039200001,1.18687003797984,1399,-20.4,98,P-GPS,
0.289286933040919,36.8890210806491,26200,2018-04-14 13:18:40,1799.3068690778302,85.20000272640002,0.503999582744,1.1950800382425601,1799.3068690778302,85.20000272640002,0.7199994039200001,1.1950800382425601,1396,-20.4,98,P-GPS,
0.28928698686425003,36.889021130494,26300,2018-04-14 13:18:40,1799.6068690874304,85.500002736,0.503999582744,1.19643003828576,1799.6068690874304,85.500002736,0.7199994039200001,1.19643003828576,1396,-20.4,98,P-GPS,
0.28928699135885805,36.8890212396874,26400,2018-04-14 13:18:41,1799.8068690938303,85.7000027424,0.503999582744,1.2063500386032,1799.8068690938303,85.7000027424,0.7199994039200001,1.2063500386032,1398,-20.4,98,P-GPS,
0.289287020044306,36.889021290658604,26500,2018-04-14 13:18:41,1800.0068691002305,85.9000027488,0.503999582744,1.2094100387011202,1800.0068691002305,85.9000027488,0.7199994039200001,1.2094100387011202,1385,-20.4,98,P-GPS,
0.28928702403490997,36.8890213802922,26600,2018-04-14 13:18:41,1800.3068691098304,86.2000027584,0.503999582744,1.21759003896288,1800.3068691098304,86.2000027584,0.7199994039200001,1.21759003896288,1366,-20.4,98,P-GPS,
0.28928707149825106,36.8890214845171,26800,2018-04-14 13:18:41,1800.7068691226305,86.60000277120001,0.503999582744,1.2246300391881602,1800.7068691226305,86.60000277120001,0.7199994039200001,1.2246300391881602,1360,-20.4,98,P-GPS,
0.289287108669419,36.8890215178266,26900,2018-04-14 13:18:41,1801.0068691322306,86.9000027808,0.503999582744,1.22562003921984,1801.0068691322306,86.9000027808,0.7199994039200001,1.22562003921984,1342,-20.4,98,P-GPS,
0.28928713079142304,36.8890215772447,27000,2018-04-14 13:18:41,1801.2068691386303,87.10000278720001,0.503999582744,1.2299900393596803,1801.2068691386303,87.10000278720001,0.7199994039200001,1.2299900393596803,1342,-20.4,98,P-GPS,
0.289287192584257,36.8890215645806,27100,2018-04-14 13:18:41,1801.4068691450304,87.3000027936,0.503999582744,1.22524003920768,1801.4068691450304,87.3000027936,0.7199994039200001,1.2299900393596803,1329,-20.4,98,P-GPS,
0.289287196560918,36.8890216092749,27200,2018-04-14 13:18:41,1801.6068691514304,87.50000280000002,0.503999582744,1.22927003933664,1801.6068691514304,87.50000280000002,0.7199994039200001,1.2299900393596803,1334,-20.4,98,P-GPS,
0.28928723371793896,36.8890216076358,27300,2018-04-14 13:18:41,1801.7068691546303,87.60000280319998,0.503999582744,1.22701003926432,1801.7068691546303,87.60000280319998,0.7199994039200001,1.2299900393596803,1327,-20.4,98,P-GPS,
0.289287245783284,36.8890216686673,27400,2018-04-14 13:18:42,1801.9068691610305,87.8000028096,0.503999582744,1.23217003942944,1801.9068691610305,87.8000028096,0.7199994039200001,1.23217003942944,1327,-20.4,98,P-GPS,
0.289287290824925,36.889021671260295,27500,2018-04-14 13:18:42,1802.1068691674302,88.00000281600002,0.503999582744,1.22989003935648,1802.1068691674302,88.00000281600002,0.7199994039200001,1.23217003942944,1317,-20.4,98,P-GPS,
0.28928727519552694,36.889021735982205,27600,2018-04-14 13:18:42,1802.2068691706304,88.10000281920001,0.35999970196000003,1.2369800395833601,1802.2068691706304,88.10000281920001,0.7199994039200001,1.2369800395833601,1317,-20.4,98,P-GPS,
0.289287285835373,36.8890217351054,27700,2018-04-14 13:18:42,1802.4068691770303,88.3000028256,0.35999970196000003,1.2363100395619202,1802.4068691770303,88.3000028256,0.7199994039200001,1.2369800395833601,1322,-20.4,98,P-GPS,
0.28928725423409396,36.8890217753246,27800,2018-04-14 13:18:42,1802.6068691834305,88.50000283199999,0.503999582744,1.2419400397420801,1802.6068691834305,88.50000283199999,0.7199994039200001,1.2419400397420801,1323,-20.4,98,P-GPS,
0.289287269363967,36.8890217518913,27900,2018-04-14 13:18:42,1802.7068691866305,88.60000283520002,0.503999582744,1.2388400396428803,1802.7068691866305,88.60000283520002,0.7199994039200001,1.2419400397420801,1325,-20.4,98,P-GPS,
0.289287243957391,36.8890217987128,28000,2018-04-14 13:18:42,1802.9068691930306,88.8000028416,0.35999970196000003,1.24476003983232,1802.9068691930306,88.8000028416,0.7199994039200001,1.24476003983232,1326,-20.4,98,P-GPS,
0.28928726551330797,36.8890217892552,28100,2018-04-14 13:18:42,1803.1068691994303,89.000002848,0.503999582744,1.2426500397648002,1803.1068691994303,89.000002848,0.7199994039200001,1.24476003983232,1319,-20.4,98,P-GPS,
0.289287256614675,36.8890218513638,28200,2018-04-14 13:18:42,1803.2068692026303,89.1000028512,0.503999582744,1.24913003997216,1803.2068692026303,89.1000028512,0.7199994039200001,1.24913003997216,1316,-20.4,98,P-GPS,
0.289287296992148,36.889021845580395,28300,2018-04-14 13:18:42,1803.4068692090304,89.3000028576,0.503999582744,1.24634003988288,1803.4068692090304,89.3000028576,0.7199994039200001,1.24913003997216,1323,-20.4,98,P-GPS,
0.28928727070661897,36.88902186133421,28400,2018-04-14 13:18:43,1803.6068692154304,89.500002864,0.503999582744,1.24931003997792,1803.6068692154304,89.500002864,0.7199994039200001,1.24931003997792,1313,-20.4,98,P-GPS,
0.28928728684226,36.889021807101,28500,2018-04-14 13:18:43,1803.7068692186306,89.60000286720002,0.503999582744,1.24318003978176,1803.7068692186306,89.60000286720002,0.7199994039200001,1.24931003997792,1299,-20.4,98,P-GPS,
0.28928724515307597,36.889021844386704,28600,2018-04-14 13:18:43,1803.9068692250303,89.8000028736,0.503999582744,1.2490900399708802,1803.9068692250303,89.8000028736,0.7199994039200001,1.24931003997792,1293,-20.4,98,P-GPS,
0.289287256509844,36.889021825464894,28700,2018-04-14 13:18:43,1804.0068692282302,89.9000028768,0.503999582744,1.2466400398924802,1804.0068692282302,89.9000028768,0.7199994039200001,1.24931003997792,1282,-20.4,98,P-GPS,
0.289287224615649,36.889021867074796,28800,2018-04-14 13:18:43,1804.2068692346304,90.1000028832,0.503999582744,1.25242004007744,1804.2068692346304,90.1000028832,0.7199994039200001,1.25242004007744,1277,-20.4,98,P-GPS,
0.289287233202333,36.889021847776206,28900,2018-04-14 13:18:43,1804.3068692378304,90.20000288640001,0.503999582744,1.2500800400025602,1804.3068692378304,90.20000288640001,0.7199994039200001,1.25242004007744,1275,-20.4,98,P-GPS,
0.289287194438241,36.8890218838617,29000,2018-04-14 13:18:43,1804.5068692442305,90.4000028928,0.503999582744,1.25572004018304,1804.5068692442305,90.4000028928,0.7199994039200001,1.25572004018304,1272,-20.4,98,P-GPS,
