latitude,longitude,time_millisecond,datetime_utc,altitude_m,ascent_m,speed_kph,distance_m,max_altitude_m,max_ascent_m,max_speed_kph,max_distance_m,rc_throttle,gimbal_pitch_degrees,battery_percent,flycState,message
0.343845130038142,36.9119785944661,0,2018-04-08 05:09:41,1641.383841624268,0.0,0.0,0.0,1641.383841624268,0.0,0.0,0.0,364,0.0,99,Motors_Started,
0.343845074822491,36.9119785905327,100,2018-04-08 05:09:41,1641.383841624268,0.0,0.0,0.00615588019698816,1641.383841624268,0.0,0.0,0.00615588019698816,364,0.0,99,Motors_Started,Setting new Return-To-Home altitude to 45m (148 ft). Setting new Maximum Flight Altitude to 150m (492 ft)
0.343845016359724,36.9119785866913,200,2018-04-08 05:09:41,1641.383841624268,0.0,0.0,0.012671300405481601,1641.383841624268,0.0,0.0,0.012671300405481601,364,0.0,99,Motors_Started,
0.343844966743478,36.9119785841925,300,2018-04-08 05:09:42,1641.383841624268,0.0,0.0,0.0181953005822496,1641.383841624268,0.0,0.0,0.0181953005822496,364,0.0,99,Motors_Started,
0.343844913644804,36.9119785815588,400,2018-04-08 05:09:42,1641.383841624268,0.0,0.0,0.024107000771424,1641.383841624268,0.0,0.0,0.024107000771424,364,0.0,99,Motors_Started,
0.343844867647775,36.9119785790578,500,2018-04-08 05:09:42,1641.383841624268,0.0,0.0,0.029229700935350402,1641.383841624268,0.0,0.0,0.029229700935350402,364,0.0,99,Motors_Started,
0.343844792062733,36.9119785777217,600,2018-04-08 05:09:42,1641.383841624268,0.0,0.0,0.037631001204192,1641.383841624268,0.0,0.0,0.037631001204192,364,0.0,99,Motors_Started,
0.343844717232474,36.9119785762228,700,2018-04-08 05:09:42,1641.383841624268,0.0,0.0,0.04595130147044161,1641.383841624268,0.0,0.0,0.04595130147044161,383,0.0,99,Motors_Started,
0.343844636021972,36.9119785754734,800,2018-04-08 05:09:42,1641.383841624268,0.0,0.0,0.0549782017593024,1641.383841624268,0.0,0.0,0.0549782017593024,503,0.0,99,Motors_Started,
0.34384457253464,36.9119785745569,900,2018-04-08 05:09:42,1641.383841624268,0.0,0.0,0.06203730198519361,1641.383841624268,0.0,0.0,0.06203730198519361,798,0.0,99,Motors_Started,
0.343844508534348,36.9119785746126,1000,2018-04-08 05:09:42,1641.383841624268,0.0,0.0,0.06915030221280961,1641.383841624268,0.0,0.0,0.06915030221280961,1024,0.0,99,Motors_Started,
0.343844453892724,36.9119785734713,1100,2018-04-08 05:09:42,1641.383841624268,0.0,0.0,0.0752277024072864,1641.383841624268,0.0,0.0,0.0752277024072864,1024,0.0,99,Motors_Started,
0.343844398510158,36.9119785741501,1200,2018-04-08 05:09:43,1641.383841624268,0.0,0.0,0.0813817026042144,1641.383841624268,0.0,0.0,0.0813817026042144,1024,0.0,99,Motors_Started,
0.343844350267505,36.9119785738824,1300,2018-04-08 05:09:43,1641.383841624268,0.0,0.0,0.08674550277585599,1641.383841624268,0.0,0.0,0.08674550277585599,1024,0.0,99,Motors_Started,
0.343844325250534,36.911978574876,1400,2018-04-08 05:09:43,1641.383841624268,0.0,0.0,0.0895238028647616,1641.383841624268,0.0,0.0,0.0895238028647616,1024,0.0,99,Motors_Started,
0.343844309859295,36.9119785751201,1500,2018-04-08 05:09:43,1641.383841624268,0.0,0.0,0.0912343029194976,1641.383841624268,0.0,0.0,0.0912343029194976,1024,0.0,99,Motors_Started,
0.343844291597924,36.9119785762335,1600,2018-04-08 05:09:43,1641.383841624268,0.0,0.0,0.0932617029843744,1641.383841624268,0.0,0.0,0.0932617029843744,1024,0.0,99,Assisted_Takeoff,
0.343844266915599,36.9119785762763,1700,2018-04-08 05:09:43,1641.383841624268,0.0,0.0,0.0960058030721856,1641.383841624268,0.0,0.0,0.0960058030721856,1024,0.0,99,Assisted_Takeoff,
0.343844233836202,36.9119786019519,1800,2018-04-08 05:09:43,1641.383841624268,0.0,0.0,0.0996666031893312,1641.383841624268,0.0,0.0,0.0996666031893312,1024,0.0,99,Assisted_Takeoff,
0.343844200133518,36.911978631715,1900,2018-04-08 05:09:43,1641.383841624268,0.0,0.0,0.103494003311808,1641.383841624268,0.0,0.0,0.103494003311808,1024,0.0,99,Assisted_Takeoff,
0.343844156841741,36.9119786369911,2000,2018-04-08 05:09:43,1641.383841624268,0.0,0.0,0.108329003466528,1641.383841624268,0.0,0.0,0.108329003466528,1024,0.0,99,Assisted_Takeoff,
0.343844117033613,36.9119786259551,2100,2018-04-08 05:09:43,1641.383841624268,0.0,0.0,0.11270700360662401,1641.383841624268,0.0,0.0,0.11270700360662401,1024,0.0,99,Assisted_Takeoff,
0.343844066519688,36.9119786372823,2200,2018-04-08 05:09:43,1641.383841624268,0.0,0.0,0.11836600378771202,1641.383841624268,0.0,0.0,0.11836600378771202,1024,0.0,99,Assisted_Takeoff,
0.343844021754169,36.9119786580608,2300,2018-04-08 05:09:44,1641.383841624268,0.0,0.0,0.123451003950432,1641.383841624268,0.0,0.0,0.123451003950432,1024,0.0,99,Assisted_Takeoff,
0.343843991697164,36.9119786775931,2400,2018-04-08 05:09:44,1641.383841624268,0.0,0.0,0.12692800406169602,1641.383841624268,0.0,0.0,0.12692800406169602,1024,0.0,99,Assisted_Takeoff,
0.343843973269285,36.9119786891215,2500,2018-04-08 05:09:44,1641.383841624268,0.0,0.0,0.12907000413024,1641.383841624268,0.0,0.0,0.12907000413024,1024,0.0,99,Assisted_Takeoff,
0.343843913973568,36.9119787027548,2700,2018-04-08 05:09:44,1641.383841624268,0.0,0.0,0.135769004344608,1641.383841624268,0.0,0.0,0.135769004344608,1024,0.0,99,Assisted_Takeoff,
0.343843870899189,36.911978679501,2800,2018-04-08 05:09:44,1641.383841624268,0.0,0.0,0.140343004490976,1641.383841624268,0.0,0.0,0.140343004490976,1024,0.0,99,Assisted_Takeoff,
0.343843830541868,36.911978650211,2900,2018-04-08 05:09:44,1641.383841624268,0.0,0.0,0.14464500462864,1641.383841624268,0.0,0.0,0.14464500462864,1024,0.0,99,Assisted_Takeoff,
0.343843777825472,36.9119786183216,3000,2018-04-08 05:09:44,1641.383841624268,0.0,0.0,0.15039800481273602,1641.383841624268,0.0,0.0,0.15039800481273602,1024,0.0,99,Assisted_Takeoff,
0.343843731489319,36.9119785979306,3100,2018-04-08 05:09:44,1641.383841624268,0.0,0.0,0.155528004976896,1641.383841624268,0.0,0.0,0.155528004976896,1024,0.0,99,Assisted_Takeoff,
0.343843675240014,36.911978579516,3200,2018-04-08 05:09:45,1641.383841624268,0.0,0.0,0.161791005177312,1641.383841624268,0.0,0.0,0.161791005177312,1024,0.0,99,Assisted_Takeoff,
0.343843625000074,36.9119785667478,3300,2018-04-08 05:09:45,1641.383841624268,0.0,0.0,0.16739800535673602,1641.383841624268,0.0,0.0,0.16739800535673602,1024,0.0,99,Assisted_Takeoff,
0.343843562611942,36.911978557517,3400,2018-04-08 05:09:45,1641.383841624268,0.0,0.0,0.17435600557939201,1641.383841624268,0.0,0.0,0.17435600557939201,1073,0.0,99,Assisted_Takeoff,
0.34384345116327,36.9119785482476,3600,2018-04-08 05:09:45,1641.383841624268,0.0,0.0,0.18677200597670401,1641.383841624268,0.0,0.0,0.18677200597670401,1126,0.0,99,Assisted_Takeoff,
0.343843399129192,36.9119785457487,3700,2018-04-08 05:09:45,1641.383841624268,0.0,0.0,0.192564006162048,1641.383841624268,0.0,0.0,0.192564006162048,1126,0.0,99,Assisted_Takeoff,
0.343843365677288,36.9119785478536,3800,2018-04-08 05:09:45,1641.383841624268,0.0,0.0,0.19627600628083203,1641.383841624268,0.0,0.0,0.19627600628083203,1183,0.0,99,Assisted_Takeoff,
0.343843345089685,36.9119785478472,3900,2018-04-08 05:09:45,1641.383841624268,0.0,0.0,0.19856500635408003,1641.383841624268,0.0,0.0,0.19856500635408003,1198,0.0,99,Assisted_Takeoff,
0.343843319072442,36.911978551271,4000,2018-04-08 05:09:45,1641.383841624268,0.0,0.0,0.201448006446336,1641.383841624268,0.0,0.0,0.201448006446336,1224,0.0,99,Assisted_Takeoff,
0.34384328914612,36.9119785526135,4100,2018-04-08 05:09:45,1641.383841624268,0.0,0.0,0.20477100655267202,1641.383841624268,0.0,0.0,0.20477100655267202,1224,0.0,99,Assisted_Takeoff,
0.343843276662875,36.9119785321862,4200,2018-04-08 05:09:45,1641.383841624268,0.0,0.0,0.206223006599136,1641.383841624268,0.0,0.0,0.206223006599136,1227,0.0,99,Assisted_Takeoff,
0.343843264647401,36.9119785135874,4300,2018-04-08 05:09:46,1641.383841624268,0.0,0.0,0.207638006644416,1641.383841624268,0.0,0.0,0.207638006644416,1229,0.0,99,Assisted_Takeoff,
0.34384321686519,36.9119785385114,4400,2018-04-08 05:09:46,1641.383841624268,0.0,0.0,0.212847006811104,1641.383841624268,0.0,0.0,0.212847006811104,1239,0.0,99,Assisted_Takeoff,
0.34384316211731,36.9119786150584,4500,2018-04-08 05:09:46,1641.383841624268,0.0,0.35999970196000003,0.218857007003424,1641.383841624268,0.0,0.35999970196000003,0.218857007003424,1243,0.0,99,P-GPS,
0.34384312548302,36.9119787403228,4600,2018-04-08 05:09:46,1641.383841624268,0.0,0.35999970196000003,0.22350800715225602,1641.383841624268,0.0,0.35999970196000003,0.22350800715225602,1254,0.0,99,P-GPS,
0.343843108657122,36.9119788670967,4700,2018-04-08 05:09:46,1641.4838416274679,0.1000000032,0.35999970196000003,0.2268250072584,1641.4838416274679,0.1000000032,0.35999970196000003,0.2268250072584,1257,0.0,99,P-GPS,
0.343843093237793,36.9119789912498,4800,2018-04-08 05:09:46,1641.4838416274679,0.1000000032,0.35999970196000003,0.23076200738438402,1641.4838416274679,0.1000000032,0.35999970196000003,0.23076200738438402,1257,0.0,99,P-GPS,
0.34384309101456,36.9119791015512,4900,2018-04-08 05:09:46,1641.583841630668,0.2000000064,0.35999970196000003,0.233658007477056,1641.583841630668,0.2000000064,0.35999970196000003,0.233658007477056,1260,0.0,99,P-GPS,
0.343843099291941,36.9119792246615,5000,2018-04-08 05:09:46,1641.583841630668,0.2000000064,0.0,0.23645500756656002,1641.583841630668,0.2000000064,0.35999970196000003,0.23645500756656002,1260,0.0,99,P-GPS,
0.343843129778855,36.9119793225502,5100,2018-04-08 05:09:46,1641.683841633868,0.3000000096,0.0,0.23671800757497602,1641.683841633868,0.3000000096,0.35999970196000003,0.23671800757497602,1265,0.0,99,P-GPS,
0.343843141196283,36.9119794108483,5200,2018-04-08 05:09:47,1641.7838416370678,0.4000000128,0.0,0.239079007650528,1641.7838416370678,0.4000000128,0.35999970196000003,0.239079007650528,1296,0.0,99,P-GPS,Home Point Recorded. RTH Altitude:  45m.
0.343843155102381,36.9119794857187,5300,2018-04-08 05:09:47,1641.8838416402677,0.500000016,0.0,0.24095200771046402,1641.8838416402677,0.500000016,0.35999970196000003,0.24095200771046402,1322,0.0,99,P-GPS,
0.343843200197252,36.9119795978102,5400,2018-04-08 05:09:47,1641.983841643468,0.6000000192,0.0,0.241882007740224,1641.983841643468,0.6000000192,0.35999970196000003,0.241882007740224,1331,0.0,99,P-GPS,
0.343843261623381,36.9119796994932,5500,2018-04-08 05:09:47,1642.083841646668,0.7000000224,0.0,0.24139700772470402,1642.083841646668,0.7000000224,0.35999970196000003,0.241882007740224,1333,0.0,99,P-GPS,
0.343843301698166,36.9119798036493,5600,2018-04-08 05:09:47,1642.2838416530678,0.9000000288000001,0.0,0.24376500780048,1642.2838416530678,0.9000000288000001,0.35999970196000003,0.24376500780048,1332,0.0,99,P-GPS,
0.343843328304091,36.9119798825945,5700,2018-04-08 05:09:47,1642.383841656268,1.000000032,0.0,0.246302007881664,1642.383841656268,1.000000032,0.35999970196000003,0.246302007881664,1327,0.0,99,P-GPS,
0.343843361088333,36.9119799887719,5800,2018-04-08 05:09:47,1642.483841659468,1.1000000352000001,0.0,0.250478008015296,1642.483841659468,1.1000000352000001,0.35999970196000003,0.250478008015296,1305,0.0,99,P-GPS,
0.343843398970419,36.9119800857505,5900,2018-04-08 05:09:47,1642.6838416658682,1.3000000416000002,0.0,0.254087008130784,1642.6838416658682,1.3000000416000002,0.35999970196000003,0.254087008130784,1318,0.0,99,P-GPS,
0.343843432497231,36.9119801809627,6000,2018-04-08 05:09:47,1642.8838416722679,1.5000000480000002,0.0,0.25838400826828806,1642.8838416722679,1.5000000480000002,0.35999970196000003,0.25838400826828806,1311,0.0,99,P-GPS,
0.343843456523294,36.9119802432983,6100,2018-04-08 05:09:47,1642.9838416754678,1.6000000512,0.0,0.261256008360192,1642.9838416754678,1.6000000512,0.35999970196000003,0.261256008360192,1311,0.0,99,P-GPS,
0.343843455166393,36.9119803089336,6200,2018-04-08 05:09:47,1643.183841681868,1.8000000576000001,0.0,0.26653500852912004,1643.183841681868,1.8000000576000001,0.35999970196000003,0.26653500852912004,1314,0.0,99,P-GPS,
0.343843446512027,36.9119803624066,6300,2018-04-08 05:09:48,1643.283841685068,1.9000000608000003,0.0,0.271483008687456,1643.283841685068,1.9000000608000003,0.35999970196000003,0.271483008687456,1333,0.0,99,P-GPS,
0.343843450901905,36.9119804128841,6400,2018-04-08 05:09:48,1643.4838416914681,2.1000000672000003,0.0,0.275244008807808,1643.4838416914681,2.1000000672000003,0.35999970196000003,0.275244008807808,1334,0.0,99,P-GPS,
0.343843460143325,36.9119804446386,6500,2018-04-08 05:09:48,1643.5838416946679,2.2000000704000002,0.0,0.277159008869088,1643.5838416946679,2.2000000704000002,0.35999970196000003,0.277159008869088,1342,0.0,99,P-GPS,
0.343843440644743,36.9119804803608,6600,2018-04-08 05:09:48,1643.7838417010678,2.4000000768,0.0,0.281563009010016,1643.7838417010678,2.4000000768,0.35999970196000003,0.281563009010016,1347,0.0,99,P-GPS,
0.34384338407952,36.9119804765901,6800,2018-04-08 05:09:48,1644.083841710668,2.7000000864,0.0,0.285491009135712,1644.083841710668,2.7000000864,0.35999970196000003,0.285491009135712,1343,-0.2,99,P-GPS,
0.343843361690857,36.9119804417137,6900,2018-04-08 05:09:48,1644.283841717068,2.9000000928,0.0,0.284376009100032,1644.283841717068,2.9000000928,0.35999970196000003,0.285491009135712,1335,-0.7,99,P-GPS,
0.343843363832261,36.9119804177683,7000,2018-04-08 05:09:48,1644.383841720268,3.0000000960000004,0.0,0.282293009033376,1644.383841720268,3.0000000960000004,0.35999970196000003,0.285491009135712,1334,-1.5,99,P-GPS,
0.343843370769026,36.9119804132353,7100,2018-04-08 05:09:49,1644.5838417266677,3.2000001024,0.0,0.28139400900460804,1644.5838417266677,3.2000001024,0.35999970196000003,0.285491009135712,1334,-2.3,99,P-GPS,
0.343843380144792,36.9119804155521,7200,2018-04-08 05:09:49,1644.783841733068,3.4000001088000005,0.0,0.280856008987392,1644.783841733068,3.4000001088000005,0.35999970196000003,0.285491009135712,1333,-3.3,99,P-GPS,
0.343843377725738,36.9119804274809,7300,2018-04-08 05:09:49,1644.983841739468,3.6000001152000003,0.0,0.281999009023968,1644.983841739468,3.6000001152000003,0.35999970196000003,0.285491009135712,1334,-4.2,99,P-GPS,
0.343843354822488,36.9119804491095,7400,2018-04-08 05:09:49,1645.083841742668,3.7000001184,0.0,0.28549800913593604,1645.083841742668,3.7000001184,0.35999970196000003,0.28549800913593604,1335,-5.2,99,P-GPS,
0.343843317958587,36.911980477179,7500,2018-04-08 05:09:49,1645.2838417490677,3.9000001248,0.0,0.290589009298848,1645.2838417490677,3.9000001248,0.35999970196000003,0.290589009298848,1338,-5.2,99,P-GPS,
0.343843290087361,36.9119804984736,7600,2018-04-08 05:09:49,1645.3838417522682,4.000000128,0.0,0.29444500942224,1645.3838417522682,4.000000128,0.35999970196000003,0.29444500942224,1338,-6.2,99,P-GPS,
0.343843270517942,36.9119805169888,7700,2018-04-08 05:09:49,1645.5838417586679,4.200000134400001,0.0,0.297438009518016,1645.5838417586679,4.200000134400001,0.35999970196000003,0.297438009518016,1343,-7.3,99,P-GPS,
0.343843267538704,36.9119805224318,7800,2018-04-08 05:09:49,1645.783841765068,4.4000001408000005,0.0,0.298103009539296,1645.783841765068,4.4000001408000005,0.35999970196000003,0.298103009539296,1339,-8.5,99,P-GPS,
0.343843268581315,36.91198053811,7900,2018-04-08 05:09:49,1645.883841768268,4.500000144,0.0,0.299279009576928,1645.883841768268,4.500000144,0.35999970196000003,0.299279009576928,1336,-9.8,99,P-GPS,
0.343843258506946,36.9119805685562,8000,2018-04-08 05:09:49,1646.083841774668,4.7000001504,0.0,0.302503009680096,1646.083841774668,4.7000001504,0.35999970196000003,0.302503009680096,1337,-11.1,99,P-GPS,
0.343843241822723,36.9119806058565,8100,2018-04-08 05:09:49,1646.2838417810678,4.9000001568,0.0,0.306794009817408,1646.2838417810678,4.9000001568,0.35999970196000003,0.306794009817408,1334,-12.3,99,P-GPS,
0.343843207685652,36.9119806481459,8200,2018-04-08 05:09:49,1646.4838417874678,5.1000001632,0.0,0.31282101001027207,1646.4838417874678,5.1000001632,0.35999970196000003,0.31282101001027207,1321,-13.6,99,P-GPS,
0.343843177307843,36.9119806890071,8300,2018-04-08 05:09:50,1646.583841790668,5.200000166400001,0.0,0.318448010190336,1646.583841790668,5.200000166400001,0.35999970196000003,0.318448010190336,1321,-14.7,99,P-GPS,
0.343843124652921,36.9119807136891,8400,2018-04-08 05:09:50,1646.783841797068,5.4000001728,0.0,0.32445701038262403,1646.783841797068,5.4000001728,0.35999970196000003,0.32445701038262403,1318,-15.4,99,P-GPS,
0.343843076564562,36.9119807325833,8500,2018-04-08 05:09:50,1646.983841803468,5.6000001792,0.0,0.32966801054937606,1646.983841803468,5.6000001792,0.35999970196000003,0.32966801054937606,1318,-15.4,99,P-GPS,
0.343843065044542,36.9119807353284,8600,2018-04-08 05:09:50,1647.083841806668,5.7000001824,0.0,0.330776010584832,1647.083841806668,5.7000001824,0.35999970196000003,0.330776010584832,1330,-15.4,99,P-GPS,
0.343843069079827,36.9119807441952,8700,2018-04-08 05:09:50,1647.283841813068,5.9000001888,0.0,0.331176010597632,1647.283841813068,5.9000001888,0.35999970196000003,0.331176010597632,1330,-15.4,99,P-GPS,
0.343843057247553,36.9119807617641,8800,2018-04-08 05:09:50,1647.383841816268,6.000000192000001,0.0,0.333497010671904,1647.383841816268,6.000000192000001,0.35999970196000003,0.333497010671904,1333,-15.4,99,P-GPS,
0.343843038450831,36.9119807778362,8900,2018-04-08 05:09:50,1647.5838418226679,6.200000198400001,0.0,0.336234010759488,1647.5838418226679,6.200000198400001,0.35999970196000003,0.336234010759488,1333,-15.4,99,P-GPS,
0.343843031347558,36.9119807993963,9000,2018-04-08 05:09:50,1647.683841825868,6.3000002016,0.0,0.33851301083241603,1647.683841825868,6.3000002016,0.35999970196000003,0.33851301083241603,1368,-15.4,99,P-GPS,
0.343843032663748,36.9119808260247,9100,2018-04-08 05:09:50,1647.883841832268,6.500000208,0.0,0.34056401089804805,1647.883841832268,6.500000208,0.35999970196000003,0.34056401089804805,1368,-15.4,99,P-GPS,
0.343842995721681,36.9119808508758,9200,2018-04-08 05:09:51,1648.083841838668,6.7000002144,0.0,0.345393011052576,1648.083841838668,6.7000002144,0.35999970196000003,0.345393011052576,1376,-15.4,99,P-GPS,
0.343842961047223,36.9119808766499,9300,2018-04-08 05:09:51,1648.183841841868,6.800000217600001,0.0,0.35012601120403203,1648.183841841868,6.800000217600001,0.35999970196000003,0.35012601120403203,1381,-15.4,99,P-GPS,
0.343842932599121,36.9119808905165,9400,2018-04-08 05:09:51,1648.3838418482678,7.000000224,0.0,0.35342501130959997,1648.3838418482678,7.000000224,0.35999970196000003,0.35342501130959997,1382,-15.4,99,P-GPS,
0.343842926984653,36.9119808986339,9500,2018-04-08 05:09:51,1648.583841854668,7.200000230400001,0.0,0.35450901134428797,1648.583841854668,7.200000230400001,0.35999970196000003,0.35450901134428797,1385,-15.4,99,P-GPS,
0.343842948538331,36.9119808718278,9600,2018-04-08 05:09:51,1648.783841861068,7.4000002368,0.0,0.350698011222336,1648.783841861068,7.4000002368,0.35999970196000003,0.35450901134428797,1399,-15.4,99,P-GPS,
0.343842974741623,36.9119808530107,9700,2018-04-08 05:09:51,1648.9838418674678,7.600000243200001,0.0,0.347172011109504,1648.9838418674678,7.600000243200001,0.35999970196000003,0.35450901134428797,1405,-15.4,99,P-GPS,
0.343842990199221,36.9119808664319,9800,2018-04-08 05:09:51,1649.1838418738678,7.8000002496,0.0,0.347073011106336,1649.1838418738678,7.8000002496,0.35999970196000003,0.35450901134428797,1419,-15.4,99,P-GPS,
0.343842996656408,36.911980908308,9900,2018-04-08 05:09:51,1649.383841880268,8.000000256,0.0,0.34999001119968004,1649.383841880268,8.000000256,0.35999970196000003,0.35450901134428797,1417,-15.4,99,P-GPS,
0.343842993977618,36.9119809398313,10000,2018-04-08 05:09:51,1649.583841886668,8.200000262400001,0.0,0.352776011288832,1649.583841886668,8.200000262400001,0.35999970196000003,0.35450901134428797,1419,-15.4,99,P-GPS,
0.343842985672554,36.911980977926,10100,2018-04-08 05:09:51,1649.8838418962678,8.500000272,0.0,0.356536011409152,1649.8838418962678,8.500000272,0.35999970196000003,0.356536011409152,1442,-15.4,99,P-GPS,
0.343842997558973,36.9119810218727,10200,2018-04-08 05:09:51,1650.083841902668,8.700000278400001,0.0,0.35931001149792,1650.083841902668,8.700000278400001,0.35999970196000003,0.35931001149792,1457,-15.4,99,P-GPS,
0.343843015329369,36.911981070271,10300,2018-04-08 05:09:52,1650.2838419090679,8.9000002848,0.0,0.362084011586688,1650.2838419090679,8.9000002848,0.35999970196000003,0.362084011586688,1474,-15.4,99,P-GPS,
0.343843043936244,36.9119811165752,10400,2018-04-08 05:09:52,1650.583841918668,9.2000002944,0.0,0.36397901164732804,1650.583841918668,9.2000002944,0.35999970196000003,0.36397901164732804,1478,-15.4,99,P-GPS,
0.343843078733243,36.9119811641342,10500,2018-04-08 05:09:52,1650.783841925068,9.4000003008,0.0,0.365643011700576,1650.783841925068,9.4000003008,0.35999970196000003,0.365643011700576,1481,-15.4,99,P-GPS,
0.343843123219076,36.9119812100487,10600,2018-04-08 05:09:52,1651.0838419346678,9.7000003104,0.0,0.36661501173168,1651.0838419346678,9.7000003104,0.35999970196000003,0.36661501173168,1482,-15.4,99,P-GPS,
0.343843159011868,36.9119812571045,10700,2018-04-08 05:09:52,1651.283841941068,9.900000316800002,0.0,0.368398011788736,1651.283841941068,9.900000316800002,0.35999970196000003,0.368398011788736,1487,-15.4,99,P-GPS,
0.343843204578988,36.9119813033616,10800,2018-04-08 05:09:52,1651.583841950668,10.2000003264,0.0,0.36958701182678405,1651.583841950668,10.2000003264,0.35999970196000003,0.36958701182678405,1494,-15.4,99,P-GPS,
0.343843259409918,36.9119813456938,10900,2018-04-08 05:09:52,1651.883841960268,10.500000336,0.0,0.369971011839072,1651.883841960268,10.500000336,0.35999970196000003,0.369971011839072,1491,-15.4,99,P-GPS,
0.343843313089132,36.9119813811698,11000,2018-04-08 05:09:52,1652.183841969868,10.8000003456,0.0,0.369946011838272,1652.183841969868,10.8000003456,0.35999970196000003,0.369971011839072,1484,-15.4,99,P-GPS,
0.343843365572661,36.9119814059182,11100,2018-04-08 05:09:52,1652.4838419794678,11.1000003552,0.0,0.369119011811808,1652.4838419794678,11.1000003552,0.35999970196000003,0.369971011839072,1486,-15.4,99,P-GPS,
0.343843409261778,36.9119814129222,11200,2018-04-08 05:09:53,1652.783841989068,11.4000003648,0.0,0.36722401175116803,1652.783841989068,11.4000003648,0.35999970196000003,0.369971011839072,1489,-15.4,99,P-GPS,
0.343843442153089,36.9119814271999,11300,2018-04-08 05:09:53,1653.083841998668,11.7000003744,0.0,0.36669401173420807,1653.083841998668,11.7000003744,0.35999970196000003,0.369971011839072,1487,-15.5,99,P-GPS,
0.343843431834047,36.9119814567211,11400,2018-04-08 05:09:53,1653.3838420082677,12.000000384000002,0.0,0.37010301184329597,1653.3838420082677,12.000000384000002,0.35999970196000003,0.37010301184329597,1483,-15.5,99,P-GPS,
0.343843415705123,36.9119814939786,11500,2018-04-08 05:09:53,1653.6838420178678,12.300000393600001,0.0,0.374581011986592,1653.6838420178678,12.300000393600001,0.35999970196000003,0.374581011986592,1486,-15.6,99,P-GPS,
0.343843404706206,36.9119815386212,11600,2018-04-08 05:09:53,1653.983842027468,12.6000004032,0.0,0.37948001214336,1653.983842027468,12.6000004032,0.35999970196000003,0.37948001214336,1488,-15.7,99,P-GPS,
0.343843402085632,36.9119815815722,11700,2018-04-08 05:09:53,1654.2838420370679,12.9000004128,0.0,0.38375501228016007,1654.2838420370679,12.9000004128,0.35999970196000003,0.38375501228016007,1485,-15.7,99,P-GPS,
0.343843389264078,36.9119816097038,11800,2018-04-08 05:09:53,1654.683842049868,13.3000004256,0.0,0.387177012389664,1654.683842049868,13.3000004256,0.35999970196000003,0.387177012389664,1480,-15.7,99,P-GPS,
0.343843376722617,36.9119816359917,11900,2018-04-08 05:09:53,1654.983842059468,13.600000435200002,0.0,0.39040601249299206,1654.983842059468,13.600000435200002,0.35999970196000003,0.39040601249299206,1481,-15.8,99,P-GPS,
0.343843366782595,36.9119816737674,12000,2018-04-08 05:09:53,1655.2838420690678,13.9000004448,0.0,0.394599012627168,1655.2838420690678,13.9000004448,0.35999970196000003,0.394599012627168,1479,-16.0,99,P-GPS,
0.343843358787342,36.9119817175556,12100,2018-04-08 05:09:53,1655.5838420786679,14.2000004544,0.0,0.39927001277664004,1655.5838420786679,14.2000004544,0.35999970196000003,0.39927001277664004,1480,-16.1,99,P-GPS,
0.343843326696817,36.9119817680074,12200,2018-04-08 05:09:53,1655.883842088268,14.500000464000001,0.0,0.40591001298912005,1655.883842088268,14.500000464000001,0.35999970196000003,0.40591001298912005,1479,-16.2,99,P-GPS,
0.343843294011911,36.911981819684,12300,2018-04-08 05:09:54,1656.2838421010679,14.9000004768,0.0,0.41270301320649605,1656.2838421010679,14.9000004768,0.35999970196000003,0.41270301320649605,1474,-16.3,99,P-GPS,
0.343843267683228,36.911981848141,12400,2018-04-08 05:09:54,1656.583842110668,15.200000486400002,0.0,0.416903013340896,1656.583842110668,15.200000486400002,0.35999970196000003,0.416903013340896,1458,-16.5,99,P-GPS,
0.343843254932919,36.9119818667954,12500,2018-04-08 05:09:54,1656.8838421202681,15.500000496,0.0,0.41940701342102404,1656.8838421202681,15.500000496,0.35999970196000003,0.41940701342102404,1455,-16.5,99,P-GPS,
0.34384322399289,36.9119818897751,12600,2018-04-08 05:09:54,1657.1838421298678,15.8000005056,0.0,0.423339013546848,1657.1838421298678,15.8000005056,0.35999970196000003,0.423339013546848,1455,-16.6,99,P-GPS,
0.34384319067289,36.9119819199344,12700,2018-04-08 05:09:54,1657.483842139468,16.1000005152,0.0,0.42810001369920003,1657.483842139468,16.1000005152,0.35999970196000003,0.42810001369920003,1456,-16.6,99,P-GPS,
0.343843161455348,36.9119819558794,12800,2018-04-08 05:09:54,1657.783842149068,16.400000524800003,0.0,0.43319001386208,1657.783842149068,16.400000524800003,0.35999970196000003,0.43319001386208,1460,-16.6,99,P-GPS,
0.343843144935191,36.9119819940897,12900,2018-04-08 05:09:54,1658.183842161868,16.800000537600003,0.0,0.43778601400915207,1658.183842161868,16.800000537600003,0.35999970196000003,0.43778601400915207,1478,-16.6,99,P-GPS,
0.343843113228979,36.9119820432118,13000,2018-04-08 05:09:54,1658.483842171468,17.1000005472,0.0,0.44428101421699207,1658.483842171468,17.1000005472,0.35999970196000003,0.44428101421699207,1521,-16.6,99,P-GPS,
0.343843084275652,36.9119820897858,13100,2018-04-08 05:09:54,1658.783842181068,17.400000556800002,0.0,0.450377014412064,1658.783842181068,17.400000556800002,0.35999970196000003,0.450377014412064,1542,-16.6,99,P-GPS,
0.343843067306858,36.9119821395309,13200,2018-04-08 05:09:55,1659.0838421906678,17.7000005664,0.0,0.456106014595392,1659.0838421906678,17.7000005664,0.35999970196000003,0.456106014595392,1514,-16.6,99,P-GPS,
0.343843068870979,36.9119821790667,13300,2018-04-08 05:09:55,1659.383842200268,18.000000576,0.0,0.4598250147144,1659.383842200268,18.000000576,0.35999970196000003,0.4598250147144,1519,-16.6,99,P-GPS,
0.343843081762963,36.9119822262766,13400,2018-04-08 05:09:55,1659.7838422130678,18.4000005888,0.0,0.46367701483766405,1659.7838422130678,18.4000005888,0.35999970196000003,0.46367701483766405,1524,-16.6,99,P-GPS,
0.343843098236709,36.9119822708336,13500,2018-04-08 05:09:55,1660.083842222668,18.700000598400003,0.0,0.46711101494755203,1660.083842222668,18.700000598400003,0.35999970196000003,0.46711101494755203,1524,-16.6,99,P-GPS,
0.343843097868681,36.9119823202276,13600,2018-04-08 05:09:55,1660.4838422354678,19.1000006112,0.0,0.4719450151022401,1660.4838422354678,19.1000006112,0.35999970196000003,0.4719450151022401,1519,-16.6,99,P-GPS,
0.343843085970455,36.9119823615299,13700,2018-04-08 05:09:55,1660.783842245068,19.4000006208,0.0,0.47661201525158403,1660.783842245068,19.4000006208,0.35999970196000003,0.47661201525158403,1531,-16.6,99,P-GPS,
0.343843093657525,36.9119824034296,13800,2018-04-08 05:09:55,1661.183842257868,19.800000633600003,0.0,0.48030901536988807,1661.183842257868,19.800000633600003,0.35999970196000003,0.48030901536988807,1531,-16.6,99,P-GPS,
0.343843107533496,36.9119824284435,13900,2018-04-08 05:09:55,1661.583842270668,20.200000646400003,0.0,0.48204201542534403,1661.583842270668,20.200000646400003,0.35999970196000003,0.48204201542534403,1531,-16.6,99,P-GPS,
0.34384310007848,36.9119824343062,14000,2018-04-08 05:09:55,1661.883842280268,20.500000656,0.0,0.48300601545619204,1661.883842280268,20.500000656,0.35999970196000003,0.48300601545619204,1542,-16.6,99,P-GPS,
0.343843081782504,36.9119824264949,14100,2018-04-08 05:09:55,1662.2838422930681,20.900000668800004,0.0,0.483194015462208,1662.2838422930681,20.900000668800004,0.35999970196000003,0.483194015462208,1544,-16.6,99,P-GPS,
0.343843063660365,36.9119824364517,14200,2018-04-08 05:09:55,1662.683842305868,21.3000006816,0.0,0.485122015523904,1662.683842305868,21.3000006816,0.35999970196000003,0.485122015523904,1544,-16.6,99,P-GPS,
0.343843051182413,36.9119824487145,14300,2018-04-08 05:09:56,1663.083842318668,21.7000006944,0.0,0.48698001558336,1663.083842318668,21.7000006944,0.35999970196000003,0.48698001558336,1560,-16.6,99,P-GPS,
0.343842932419992,36.9119823986846,14500,2018-04-08 05:09:56,1663.883842344268,22.50000072,0.0,0.488562015633984,1663.883842344268,22.50000072,0.35999970196000003,0.488562015633984,1569,-16.6,99,P-GPS,
0.343842875563684,36.9119823668637,14600,2018-04-08 05:09:56,1664.283842357068,22.900000732800002,0.0,0.488714015638848,1664.283842357068,22.900000732800002,0.35999970196000003,0.488714015638848,1580,-16.6,99,P-GPS,
0.343842841324428,36.9119823407106,14700,2018-04-08 05:09:56,1664.683842369868,23.300000745600002,0.0,0.48819401562220804,1664.683842369868,23.300000745600002,0.35999970196000003,0.488714015638848,1598,-16.6,99,P-GPS,
0.3438427848162,36.9119823260389,14800,2018-04-08 05:09:56,1665.0838423826679,23.7000007584,0.0,0.49011701568374405,1665.0838423826679,23.7000007584,0.35999970196000003,0.49011701568374405,1615,-16.6,99,P-GPS,
0.343842713922298,36.9119823153434,14900,2018-04-08 05:09:56,1665.483842395468,24.100000771200005,0.0,0.49336001578752003,1665.483842395468,24.100000771200005,0.35999970196000003,0.49336001578752003,1674,-16.6,99,P-GPS,
0.343842609483263,36.9119823209984,15000,2018-04-08 05:09:56,1665.8838424082678,24.500000784,0.0,0.5003010160096321,1665.8838424082678,24.500000784,0.35999970196000003,0.5003010160096321,1656,-16.6,99,P-GPS,
0.343842506695064,36.9119823233367,15100,2018-04-08 05:09:57,1666.3838424242679,25.000000800000002,0.0,0.507006016224192,1666.3838424242679,25.000000800000002,0.35999970196000003,0.507006016224192,1660,-16.6,99,P-GPS,
0.343842372223451,36.9119823258462,15300,2018-04-08 05:09:57,1667.283842453068,25.9000008288,0.0,0.51598001651136,1667.283842453068,25.9000008288,0.35999970196000003,0.51598001651136,1670,-16.6,99,P-GPS,
0.34384232073653,36.9119822772723,15400,2018-04-08 05:09:57,1667.7838424690678,26.4000008448,0.0,0.515099016483168,1667.7838424690678,26.4000008448,0.35999970196000003,0.51598001651136,1684,-16.6,99,P-GPS,
0.343842258602435,36.9119822106263,15500,2018-04-08 05:09:57,1668.283842485068,26.900000860800002,0.0,0.513494016431808,1668.283842485068,26.900000860800002,0.35999970196000003,0.51598001651136,1684,-16.6,99,P-GPS,
0.343842194878572,36.911982137591,15600,2018-04-08 05:09:57,1668.783842501068,27.4000008768,0.0,0.5116500163728,1668.783842501068,27.4000008768,0.35999970196000003,0.51598001651136,1684,-16.6,99,P-GPS,
0.343842077070826,36.9119820598299,15800,2018-04-08 05:09:57,1669.7838425330679,28.4000009088,0.0,0.513586016434752,1669.7838425330679,28.4000009088,0.35999970196000003,0.51598001651136,1684,-16.6,99,P-GPS,
0.343842008932251,36.9119820470917,15900,2018-04-08 05:09:57,1670.3838425522679,29.000000928000002,0.0,0.517574016562368,1670.3838425522679,29.000000928000002,0.35999970196000003,0.517574016562368,1684,-16.6,99,P-GPS,
0.343841919810768,36.9119820298055,16000,2018-04-08 05:09:57,1670.883842568268,29.500000944,0.0,0.5228660167317121,1670.883842568268,29.500000944,0.35999970196000003,0.5228660167317121,1684,-16.6,99,P-GPS,
0.343841696334513,36.9119819366318,16300,2018-04-08 05:09:58,1672.3838426162679,31.000000992,0.0,0.532862017051584,1672.3838426162679,31.000000992,0.35999970196000003,0.532862017051584,1684,-16.6,99,P-GPS,
0.343841672291759,36.9119819111768,16400,2018-04-08 05:09:58,1672.983842635468,31.6000010112,0.0,0.5328170170501441,1672.983842635468,31.6000010112,0.35999970196000003,0.532862017051584,1684,-16.6,99,P-GPS,
0.343841653802813,36.9119818774117,16500,2018-04-08 05:09:58,1673.483842651468,32.1000010272,0.0,0.531718017014976,1673.483842651468,32.1000010272,0.35999970196000003,0.532862017051584,1684,-16.6,99,P-GPS,
0.343841620512939,36.9119818234825,16600,2018-04-08 05:09:58,1673.9838426674678,32.6000010432,0.0,0.530337016970784,1673.9838426674678,32.6000010432,0.35999970196000003,0.532862017051584,1657,-16.6,99,P-GPS,
0.343841570076772,36.9119817679839,16700,2018-04-08 05:09:58,1674.483842683468,33.100001059200004,0.0,0.530351016971232,1674.483842683468,33.100001059200004,0.35999970196000003,0.532862017051584,1636,-16.6,99,P-GPS,
0.343841500802764,36.9119817382721,16800,2018-04-08 05:09:58,1675.0838427026679,33.7000010784,0.0,0.533957017086624,1675.0838427026679,33.7000010784,0.35999970196000003,0.533957017086624,1628,-16.6,99,P-GPS,
0.343841428535677,36.9119817246645,16900,2018-04-08 05:09:58,1675.483842715468,34.1000010912,0.0,0.539079017250528,1675.483842715468,34.1000010912,0.35999970196000003,0.539079017250528,1633,-16.6,99,P-GPS,
0.343841356389501,36.911981716545,17000,2018-04-08 05:09:58,1675.9838427314678,34.6000011072,0.0,0.544654017428928,1675.9838427314678,34.6000011072,0.35999970196000003,0.544654017428928,1643,-16.6,99,P-GPS,
0.343841293002725,36.9119816993166,17100,2018-04-08 05:09:59,1676.483842747468,35.1000011232,0.0,0.5488960175646721,1676.483842747468,35.1000011232,0.35999970196000003,0.5488960175646721,1648,-16.6,99,P-GPS,
0.343841216809052,36.9119817005542,17200,2018-04-08 05:09:59,1676.983842763468,35.6000011392,0.0,0.5555940177790081,1676.983842763468,35.6000011392,0.35999970196000003,0.5555940177790081,1655,-16.6,99,P-GPS,
0.343841135939302,36.9119817021623,17300,2018-04-08 05:09:59,1677.3838427762678,36.000001152,0.0,0.562776018008832,1677.3838427762678,36.000001152,0.35999970196000003,0.562776018008832,1661,-16.6,99,P-GPS,
0.343841054415731,36.9119817146072,17400,2018-04-08 05:09:59,1677.8838427922678,36.500001168000004,0.0,0.570799018265568,1677.8838427922678,36.500001168000004,0.35999970196000003,0.570799018265568,1668,-16.6,99,P-GPS,
0.343840982085949,36.9119817186669,17500,2018-04-08 05:09:59,1678.2838428050677,36.900001180800004,0.0,0.577478018479296,1678.2838428050677,36.900001180800004,0.35999970196000003,0.577478018479296,1679,-16.6,99,P-GPS,
0.343840924033956,36.911981725384,17600,2018-04-08 05:09:59,1678.783842821068,37.400001196800005,0.0,0.583093018658976,1678.783842821068,37.400001196800005,0.35999970196000003,0.583093018658976,1684,-16.6,99,P-GPS,
0.343840866614206,36.9119817278057,17700,2018-04-08 05:09:59,1679.2838428370678,37.9000012128,0.0,0.5883870188283841,1679.2838428370678,37.9000012128,0.35999970196000003,0.5883870188283841,1684,-16.6,99,P-GPS,
0.343840807976177,36.9119817480147,17800,2018-04-08 05:09:59,1679.7838428530679,38.4000012288,0.0,0.594976019039232,1679.7838428530679,38.4000012288,0.35999970196000003,0.594976019039232,1684,-16.6,99,P-GPS,
0.343840754603111,36.9119817717117,17900,2018-04-08 05:09:59,1680.283842869068,38.9000012448,0.0,0.6013250192424,1680.283842869068,38.9000012448,0.35999970196000003,0.6013250192424,1684,-16.6,99,P-GPS,
0.343840689679491,36.9119817964623,18100,2018-04-08 05:09:59,1681.383842904268,40.00000128,0.0,0.6087880194812161,1681.383842904268,40.00000128,0.35999970196000003,0.6087880194812161,1684,-16.6,99,P-GPS,
0.343840683532726,36.9119818093654,18200,2018-04-08 05:09:59,1681.8838429202679,40.500001296,0.0,0.6101820195258241,1681.8838429202679,40.500001296,0.35999970196000003,0.6101820195258241,1684,-16.6,99,P-GPS,
0.343840677552062,36.911981812331,18300,2018-04-08 05:10:00,1682.383842936268,41.000001312,0.0,0.6109140195492481,1682.383842936268,41.000001312,0.35999970196000003,0.6109140195492481,1684,-16.6,99,P-GPS,
0.3438406957257,36.9119818106801,18400,2018-04-08 05:10:00,1682.983842955468,41.600001331200005,0.0,0.60917001949344,1682.983842955468,41.600001331200005,0.35999970196000003,0.6109140195492481,1684,-16.6,99,P-GPS,
0.343840706871789,36.9119817938778,18500,2018-04-08 05:10:00,1683.483842971468,42.100001347200006,0.0,0.6070700194262401,1683.483842971468,42.100001347200006,0.35999970196000003,0.6109140195492481,1684,-16.6,99,P-GPS,
0.343840740921331,36.9119817624573,18600,2018-04-08 05:10:00,1683.9838429874678,42.6000013632,0.0,0.601954019262528,1683.9838429874678,42.6000013632,0.35999970196000003,0.6109140195492481,1684,-16.6,99,P-GPS,
0.343840762210387,36.9119817295765,18700,2018-04-08 05:10:00,1684.483843003468,43.1000013792,0.0,0.597897019132704,1684.483843003468,43.1000013792,0.35999970196000003,0.6109140195492481,1684,-16.6,99,P-GPS,
0.343840787847998,36.9119817200437,18800,2018-04-08 05:10:00,1684.983843019468,43.6000013952,0.0,0.5949630190388161,1684.983843019468,43.6000013952,0.35999970196000003,0.6109140195492481,1684,-16.6,99,P-GPS,
0.343840796256266,36.911981718714,18900,2018-04-08 05:10:00,1685.4838430354678,44.100001411200004,0.0,0.5941180190117761,1685.4838430354678,44.100001411200004,0.35999970196000003,0.6109140195492481,1682,-16.6,99,P-GPS,
0.343840803209314,36.9119817244204,19000,2018-04-08 05:10:00,1685.983843051468,44.600001427200006,0.0,0.593863019003616,1685.983843051468,44.600001427200006,0.35999970196000003,0.6109140195492481,1681,-16.6,99,P-GPS,
0.343840799842303,36.9119817205491,19100,2018-04-08 05:10:00,1686.483843067468,45.1000014432,0.0,0.5939140190052481,1686.483843067468,45.1000014432,0.35999970196000003,0.6109140195492481,1648,-16.6,99,P-GPS,
0.343840831761434,36.9119817236325,19200,2018-04-08 05:10:01,1686.983843083468,45.6000014592,0.0,0.591241018919712,1686.983843083468,45.6000014592,0.35999970196000003,0.6109140195492481,1627,-16.6,99,P-GPS,
0.343840866236814,36.911981720472,19300,2018-04-08 05:10:01,1687.483843099468,46.1000014752,0.0,0.5879380188140161,1687.483843099468,46.1000014752,0.35999970196000003,0.6109140195492481,1540,-16.6,99,P-GPS,
0.343840931913589,36.9119817243583,19500,2018-04-08 05:10:01,1688.483843131468,47.100001507200005,0.0,0.582322018634304,1688.483843131468,47.100001507200005,0.35999970196000003,0.6109140195492481,1540,-16.6,99,P-GPS,
0.343840975405257,36.9119817299363,19600,2018-04-08 05:10:01,1688.883843144268,47.500001520000005,0.0,0.5788250185224,1688.883843144268,47.500001520000005,0.35999970196000003,0.6109140195492481,1560,-16.6,99,P-GPS,
0.343840998470131,36.9119817215619,19700,2018-04-08 05:10:01,1689.2838431570678,47.9000015328,0.0,0.576217018438944,1689.2838431570678,47.9000015328,0.35999970196000003,0.6109140195492481,1592,-16.6,99,P-GPS,
0.343841036272423,36.9119817133074,19800,2018-04-08 05:10:01,1689.683843169868,48.300001545600004,0.0,0.572314018314048,1689.683843169868,48.300001545600004,0.35999970196000003,0.6109140195492481,1580,-16.6,99,P-GPS,
0.3438410697858,36.9119817009504,19900,2018-04-08 05:10:01,1690.0838431826678,48.7000015584,0.0,0.568518018192576,1690.0838431826678,48.7000015584,0.35999970196000003,0.6109140195492481,1592,-16.6,99,P-GPS,
0.343841147890045,36.9119817072841,20000,2018-04-08 05:10:01,1690.483843195468,49.1000015712,0.0,0.562078017986496,1690.483843195468,49.1000015712,0.35999970196000003,0.6109140195492481,1630,-16.6,99,P-GPS,
0.343841231590438,36.9119817156628,20100,2018-04-08 05:10:01,1690.8838432082678,49.500001584,0.0,0.5553560177713921,1690.8838432082678,49.500001584,0.35999970196000003,0.6109140195492481,1630,-16.6,99,P-GPS,
0.343841347526694,36.9119817317499,20200,2018-04-08 05:10:01,1691.2838432210679,49.9000015968,0.0,0.546492017487744,1691.2838432210679,49.9000015968,0.35999970196000003,0.6109140195492481,1664,-16.6,99,P-GPS,
0.343841434996935,36.9119817503808,20300,2018-04-08 05:10:02,1691.6838432338677,50.3000016096,0.0,0.540383017292256,1691.6838432338677,50.3000016096,0.35999970196000003,0.6109140195492481,1679,-16.6,99,P-GPS,
0.343841536040257,36.9119817817991,20400,2018-04-08 05:10:02,1692.083843246668,50.7000016224,0.0,0.534201017094432,1692.083843246668,50.7000016224,0.35999970196000003,0.6109140195492481,1684,-16.6,99,P-GPS,
0.343841616263922,36.9119817963295,20500,2018-04-08 05:10:02,1692.5838432626679,51.2000016384,0.0,0.528646016916672,1692.5838432626679,51.2000016384,0.35999970196000003,0.6109140195492481,1684,-16.6,99,P-GPS,
0.343841724547713,36.911981810057,20600,2018-04-08 05:10:02,1693.083843278668,51.700001654400005,0.0,0.520856016667392,1693.083843278668,51.700001654400005,0.35999970196000003,0.6109140195492481,1684,-16.6,99,P-GPS,
0.343841823320576,36.9119818004086,20700,2018-04-08 05:10:02,1693.5838432946678,52.200001670400006,0.0,0.512177016389664,1693.5838432946678,52.200001670400006,0.35999970196000003,0.6109140195492481,1684,-16.6,99,P-GPS,
0.343841938679142,36.9119817785765,20800,2018-04-08 05:10:02,1694.083843310668,52.70000168640001,0.0,0.501328016042496,1694.083843310668,52.70000168640001,0.35999970196000003,0.6109140195492481,1684,-16.6,99,P-GPS,
0.343842015867387,36.9119817352551,20900,2018-04-08 05:10:02,1694.5838433266679,53.2000017024,0.0,0.491856015739392,1694.5838433266679,53.2000017024,0.35999970196000003,0.6109140195492481,1684,-16.6,99,P-GPS,
0.343842103561132,36.911981690075,21000,2018-04-08 05:10:02,1695.083843342668,53.7000017184,0.0,0.48143401540588804,1695.083843342668,53.7000017184,0.35999970196000003,0.6109140195492481,1684,-16.6,99,P-GPS,
0.343842174971658,36.9119816446273,21100,2018-04-08 05:10:02,1695.583843358668,54.200001734400004,0.0,0.472273015112736,1695.583843358668,54.200001734400004,0.35999970196000003,0.6109140195492481,1684,-16.6,98,P-GPS,
0.343842282209988,36.9119816251421,21200,2018-04-08 05:10:03,1696.0838433746678,54.700001750400006,0.0,0.462473014799136,1696.0838433746678,54.700001750400006,0.35999970196000003,0.6109140195492481,1684,-16.6,98,P-GPS,
0.343842368005781,36.9119816057318,21300,2018-04-08 05:10:03,1696.5838433906679,55.20000176640001,0.0,0.454399014540768,1696.5838433906679,55.20000176640001,0.35999970196000003,0.6109140195492481,1684,-16.6,98,P-GPS,
0.343842468743362,36.9119815804074,21400,2018-04-08 05:10:03,1697.083843406668,55.7000017824,0.0,0.444797014233504,1697.083843406668,55.7000017824,0.35999970196000003,0.6109140195492481,1684,-16.6,98,P-GPS,
0.34384261237538,36.9119815429615,21600,2018-04-08 05:10:03,1698.0838434386678,56.700001814400004,0.0,0.43115801379705604,1698.0838434386678,56.700001814400004,0.35999970196000003,0.6109140195492481,1684,-16.6,98,P-GPS,
0.343842662653995,36.91198154112,21700,2018-04-08 05:10:03,1698.583843454668,57.200001830400005,0.0,0.42739101367651205,1698.583843454668,57.200001830400005,0.35999970196000003,0.6109140195492481,1684,-16.6,98,P-GPS,
0.343842723950256,36.9119815348355,21800,2018-04-08 05:10:03,1699.083843470668,57.700001846400006,0.0,0.422506013520192,1699.083843470668,57.700001846400006,0.35999970196000003,0.6109140195492481,1684,-16.6,98,P-GPS,
0.343842761193991,36.9119815177741,21900,2018-04-08 05:10:03,1699.583843486668,58.2000018624,0.0,0.418419013389408,1699.583843486668,58.2000018624,0.35999970196000003,0.6109140195492481,1684,-16.6,98,P-GPS,
0.343842834337996,36.9119815368119,22000,2018-04-08 05:10:03,1700.0838435026678,58.7000018784,0.0,0.415014013280448,1700.0838435026678,58.7000018784,0.35999970196000003,0.6109140195492481,1684,-16.6,98,P-GPS,
0.343842881582413,36.9119815605239,22100,2018-04-08 05:10:03,1700.583843518668,59.2000018944,0.0,0.41390101324483203,1700.583843518668,59.2000018944,0.35999970196000003,0.6109140195492481,1684,-16.6,98,P-GPS,
0.343842944919521,36.9119815895997,22200,2018-04-08 05:10:03,1701.083843534668,59.700001910400005,0.0,0.412292013193344,1701.083843534668,59.700001910400005,0.35999970196000003,0.6109140195492481,1684,-16.6,98,P-GPS,
0.343842970833358,36.9119815993445,22300,2018-04-08 05:10:04,1701.5838435506678,60.2000019264,0.0,0.41148001316736005,1701.5838435506678,60.2000019264,0.35999970196000003,0.6109140195492481,1684,-16.6,98,P-GPS,
0.343843023171548,36.9119816162067,22400,2018-04-08 05:10:04,1702.083843566668,60.7000019424,0.0,0.409647013108704,1702.083843566668,60.7000019424,0.35999970196000003,0.6109140195492481,1684,-16.6,98,P-GPS,
0.343843037423282,36.9119816177013,22500,2018-04-08 05:10:04,1702.583843582668,61.2000019584,0.0,0.40888001308416005,1702.583843582668,61.2000019584,0.35999970196000003,0.6109140195492481,1684,-16.6,98,P-GPS,
0.343843064655344,36.9119816154765,22600,2018-04-08 05:10:04,1703.083843598668,61.7000019744,0.0,0.40695901302268805,1703.083843598668,61.7000019744,0.35999970196000003,0.6109140195492481,1684,-16.6,98,P-GPS,
0.343843051444592,36.9119815933576,22700,2018-04-08 05:10:04,1703.683843617868,62.300001993600006,0.0,0.405766012984512,1703.683843617868,62.300001993600006,0.35999970196000003,0.6109140195492481,1684,-16.6,98,P-GPS,
0.343843058550715,36.911981574382,22800,2018-04-08 05:10:04,1704.1838436338678,62.80000200960001,0.0,0.40358201291462403,1704.1838436338678,62.80000200960001,0.35999970196000003,0.6109140195492481,1684,-16.6,98,P-GPS,
0.343843055260444,36.9119815491518,22900,2018-04-08 05:10:04,1704.6838436498679,63.30000202560001,0.0,0.40149201284774405,1704.6838436498679,63.30000202560001,0.35999970196000003,0.6109140195492481,1684,-16.6,98,P-GPS,
0.343843084830951,36.9119815391158,23000,2018-04-08 05:10:04,1705.183843665868,63.8000020416,0.0,0.39869401275820804,1705.183843665868,63.8000020416,0.35999970196000003,0.6109140195492481,1684,-16.6,98,P-GPS,
0.343843103985931,36.9119815179155,23100,2018-04-08 05:10:04,1705.683843681868,64.3000020576,0.0,0.395543012657376,1705.683843681868,64.3000020576,0.35999970196000003,0.6109140195492481,1684,-16.6,98,P-GPS,
0.343843165506102,36.9119815195706,23200,2018-04-08 05:10:04,1706.1838436978678,64.8000020736,0.0,0.391839012538848,1706.1838436978678,64.8000020736,0.35999970196000003,0.6109140195492481,1684,-16.6,98,P-GPS,
0.343843221224942,36.9119815069523,23300,2018-04-08 05:10:05,1706.683843713868,65.3000020896,0.0,0.387244012391808,1706.683843713868,65.3000020896,0.35999970196000003,0.6109140195492481,1684,-16.6,98,P-GPS,
0.343843342684066,36.9119814503938,23500,2018-04-08 05:10:05,1707.6838437458678,66.3000021216,0.0,0.37466201198918403,1707.6838437458678,66.3000021216,0.35999970196000003,0.6109140195492481,1684,-16.6,98,P-GPS,
0.343843399890082,36.9119814372423,23600,2018-04-08 05:10:05,1708.0838437586679,66.70000213440001,0.0,0.37007601184243205,1708.0838437586679,66.70000213440001,0.35999970196000003,0.6109140195492481,1684,-16.6,98,P-GPS,
0.343843424147791,36.9119814347092,23700,2018-04-08 05:10:05,1708.5838437746681,67.20000215040001,0.0,0.368439011790048,1708.5838437746681,67.20000215040001,0.35999970196000003,0.6109140195492481,1684,-16.6,98,P-GPS,
0.343843476748568,36.9119814722686,23800,2018-04-08 05:10:05,1709.083843790668,67.7000021664,0.0,0.36907701181046404,1709.083843790668,67.7000021664,0.35999970196000003,0.6109140195492481,1684,-16.6,98,P-GPS,
0.343843510960141,36.9119814921029,23900,2018-04-08 05:10:05,1709.5838438066678,68.2000021824,0.0,0.369121011811872,1709.5838438066678,68.2000021824,0.35999970196000003,0.6109140195492481,1684,-16.6,98,P-GPS,
0.343843575207956,36.9119815195449,24000,2018-04-08 05:10:05,1710.083843822668,68.7000021984,0.0,0.368381011788192,1710.083843822668,68.7000021984,0.35999970196000003,0.6109140195492481,1684,-16.6,98,P-GPS,
0.343843720706577,36.9119815161746,24200,2018-04-08 05:10:05,1711.1838438578677,69.80000223360001,0.0,0.360731011543392,1711.1838438578677,69.80000223360001,0.35999970196000003,0.6109140195492481,1684,-16.6,98,P-GPS,
0.343843780523804,36.9119814673074,24300,2018-04-08 05:10:06,1711.683843873868,70.30000224960001,0.0,0.35296501129488,1711.683843873868,70.30000224960001,0.35999970196000003,0.6109140195492481,1684,-16.6,98,P-GPS,
0.343843843029591,36.9119814314288,24400,2018-04-08 05:10:06,1712.1838438898678,70.8000022656,0.0,0.34642901108572804,1712.1838438898678,70.8000022656,0.35999970196000003,0.6109140195492481,1684,-16.6,98,P-GPS,
0.343843873618283,36.9119813980748,24500,2018-04-08 05:10:06,1712.683843905868,71.3000022816,0.0,0.341649010932768,1712.683843905868,71.3000022816,0.35999970196000003,0.6109140195492481,1684,-16.6,98,P-GPS,
0.3438439398528,36.9119813901694,24600,2018-04-08 05:10:06,1713.0838439186678,71.70000229440001,0.0,0.33789501081264,1713.0838439186678,71.70000229440001,0.35999970196000003,0.6109140195492481,1684,-16.6,98,P-GPS,
0.343843990600814,36.9119813802576,24700,2018-04-08 05:10:06,1713.583843934668,72.2000023104,0.0,0.334704010710528,1713.583843934668,72.2000023104,0.35999970196000003,0.6109140195492481,1684,-16.6,98,P-GPS,
0.343844063318981,36.9119813971648,24800,2018-04-08 05:10:06,1714.0838439506679,72.7000023264,0.0,0.333483010671456,1714.0838439506679,72.7000023264,0.35999970196000003,0.6109140195492481,1684,-16.6,98,P-GPS,
0.343844098215315,36.9119814079802,24900,2018-04-08 05:10:06,1714.583843966668,73.2000023424,0.0,0.333252010664064,1714.583843966668,73.2000023424,0.35999970196000003,0.6109140195492481,1684,-16.6,98,P-GPS,
0.343844154046924,36.9119814426767,25000,2018-04-08 05:10:06,1715.083843982668,73.7000023584,0.0,0.33481301071401603,1715.083843982668,73.7000023584,0.35999970196000003,0.6109140195492481,1684,-16.6,98,P-GPS,
0.343844208602241,36.9119815116588,25200,2018-04-08 05:10:07,1716.0838440146679,74.7000023904,0.0,0.340203010886496,1716.0838440146679,74.7000023904,0.35999970196000003,0.6109140195492481,1684,-16.6,98,P-GPS,
0.343844220791551,36.9119815470727,25300,2018-04-08 05:10:07,1716.683844033868,75.3000024096,0.0,0.343558010993856,1716.683844033868,75.3000024096,0.35999970196000003,0.6109140195492481,1684,-16.6,98,P-GPS,
0.343844249400869,36.9119815844286,25400,2018-04-08 05:10:07,1717.183844049868,75.8000024256,0.0,0.34661801109177603,1717.183844049868,75.8000024256,0.35999970196000003,0.6109140195492481,1684,-16.6,98,P-GPS,
0.343844259308323,36.9119816022887,25500,2018-04-08 05:10:07,1717.6838440658678,76.3000024416,0.0,0.34821601114291206,1717.6838440658678,76.3000024416,0.35999970196000003,0.6109140195492481,1684,-16.6,98,P-GPS,
0.343844312609737,36.9119816525328,25600,2018-04-08 05:10:07,1718.183844081868,76.8000024576,0.0,0.352009011264288,1718.183844081868,76.8000024576,0.35999970196000003,0.6109140195492481,1684,-16.6,98,P-GPS,
0.343844416594029,36.9119817391864,25800,2018-04-08 05:10:07,1719.1838441138677,77.8000024896,0.0,0.358593011474976,1719.1838441138677,77.8000024896,0.35999970196000003,0.6109140195492481,1682,-16.6,98,P-GPS,
0.34384445864371,36.911981756721,25900,2018-04-08 05:10:07,1719.683844129868,78.3000025056,0.0,0.35949501150384,1719.683844129868,78.3000025056,0.35999970196000003,0.6109140195492481,1664,-16.6,98,P-GPS,
0.343844525223457,36.9119817909015,26000,2018-04-08 05:10:07,1720.1838441458679,78.8000025216,0.0,0.36176401157644805,1720.1838441458679,78.8000025216,0.35999970196000003,0.6109140195492481,1652,-16.6,98,P-GPS,
0.343844566233376,36.9119818115601,26100,2018-04-08 05:10:07,1720.683844161868,79.30000253760001,0.0,0.36320701162262403,1720.683844161868,79.30000253760001,0.35999970196000003,0.6109140195492481,1650,-16.6,98,P-GPS,
0.343844637254704,36.9119818554833,26200,2018-04-08 05:10:07,1721.183844177868,79.80000255360001,0.0,0.366756011736192,1721.183844177868,79.80000255360001,0.35999970196000003,0.6109140195492481,1652,-16.6,98,P-GPS,
0.343844674360429,36.9119818886831,26300,2018-04-08 05:10:08,1721.683844193868,80.30000256960001,0.0,0.369819011834208,1721.683844193868,80.30000256960001,0.35999970196000003,0.6109140195492481,1652,-16.6,98,P-GPS,
0.343844730414728,36.911981947338,26400,2018-04-08 05:10:08,1722.083844206668,80.7000025824,0.0,0.375492012015744,1722.083844206668,80.7000025824,0.35999970196000003,0.6109140195492481,1653,-16.6,98,P-GPS,
0.343844761278627,36.911981988212,26500,2018-04-08 05:10:08,1722.583844222668,81.2000025984,0.0,0.37962001214784,1722.583844222668,81.2000025984,0.35999970196000003,0.6109140195492481,1653,-16.6,98,P-GPS,
0.343844823248249,36.9119820506611,26600,2018-04-08 05:10:08,1723.083844238668,81.7000026144,0.0,0.385854012347328,1723.083844238668,81.7000026144,0.35999970196000003,0.6109140195492481,1656,-16.6,98,P-GPS,
0.343844857612489,36.911982082831,26700,2018-04-08 05:10:08,1723.483844251468,82.10000262720001,0.0,0.389102012451264,1723.483844251468,82.10000262720001,0.35999970196000003,0.6109140195492481,1656,-16.6,98,P-GPS,
0.343844924683212,36.9119821356275,26800,2018-04-08 05:10:08,1723.983844267468,82.60000264320001,0.0,0.394453012622496,1723.983844267468,82.60000264320001,0.35999970196000003,0.6109140195492481,1656,-16.6,98,P-GPS,
0.343844951218707,36.9119821667096,26900,2018-04-08 05:10:08,1724.483844283468,83.10000265920002,0.0,0.39774601272787197,1724.483844283468,83.10000265920002,0.35999970196000003,0.6109140195492481,1662,-16.6,98,P-GPS,
0.343844998093467,36.9119822188316,27000,2018-04-08 05:10:08,1724.9838442994678,83.60000267520002,0.0,0.40331101290595206,1724.9838442994678,83.60000267520002,0.35999970196000003,0.6109140195492481,1661,-16.6,98,P-GPS,
0.343845023621769,36.9119822455156,27100,2018-04-08 05:10:08,1725.3838443122681,84.000002688,0.0,0.40618401299788803,1725.3838443122681,84.000002688,0.35999970196000003,0.6109140195492481,1659,-16.6,98,P-GPS,
0.343845086517162,36.9119823225401,27200,2018-04-08 05:10:08,1725.883844328268,84.500002704,0.0,0.41460501326736005,1725.883844328268,84.500002704,0.35999970196000003,0.6109140195492481,1653,-16.6,98,P-GPS,
0.343845132959571,36.9119823876915,27300,2018-04-08 05:10:09,1726.3838443442678,85.00000272,0.0,0.42182201349830406,1726.3838443442678,85.00000272,0.35999970196000003,0.6109140195492481,1645,-16.6,98,P-GPS,
0.343845245389787,36.911982455695,27400,2018-04-08 05:10:09,1726.8838443602679,85.500002736,0.0,0.42957601374643206,1726.8838443602679,85.500002736,0.35999970196000003,0.6109140195492481,1626,-16.6,98,P-GPS,
0.343845333378687,36.9119824787989,27500,2018-04-08 05:10:09,1727.383844376268,86.000002752,0.0,0.43254501384144,1727.383844376268,86.000002752,0.35999970196000003,0.6109140195492481,1586,-16.6,98,P-GPS,
0.343845446124821,36.9119825495988,27600,2018-04-08 05:10:09,1727.883844392268,86.500002768,0.0,0.441229014119328,1727.883844392268,86.500002768,0.35999970196000003,0.6109140195492481,1456,-16.6,98,P-GPS,
0.343845527779889,36.9119826103649,27700,2018-04-08 05:10:09,1728.2838444050678,86.90000278080001,0.0,0.448769014360608,1728.2838444050678,86.90000278080001,0.35999970196000003,0.6109140195492481,1296,-16.6,98,P-GPS,
0.343845656448948,36.9119826916697,27800,2018-04-08 05:10:09,1728.683844417868,87.3000027936,0.0,0.45937101469987207,1728.683844417868,87.3000027936,0.35999970196000003,0.6109140195492481,1189,-16.6,98,P-GPS,
0.343845749605716,36.9119827439994,27900,2018-04-08 05:10:09,1729.0838444306678,87.70000280640001,0.0,0.466561014929952,1729.0838444306678,87.70000280640001,0.35999970196000003,0.6109140195492481,1067,-16.6,98,P-GPS,
0.343845870978532,36.9119828207926,28000,2018-04-08 05:10:09,1729.383844440268,88.00000281599999,0.0,0.47715301526889603,1729.383844440268,88.00000281599999,0.35999970196000003,0.6109140195492481,1024,-16.6,98,P-GPS,
0.343845968773922,36.9119828703836,28100,2018-04-08 05:10:09,1729.5838444466679,88.20000282240001,0.0,0.48456101550595204,1729.5838444466679,88.20000282240001,0.35999970196000003,0.6109140195492481,1024,-16.6,98,P-GPS,
0.343846102505814,36.9119829415497,28200,2018-04-08 05:10:10,1729.683844449868,88.3000028256,0.0,0.495362015851584,1729.683844449868,88.3000028256,0.35999970196000003,0.6109140195492481,1024,-16.6,98,P-GPS,
0.343846204681719,36.9119829910679,28300,2018-04-08 05:10:10,1729.783844453068,88.4000028288,0.0,0.5033140161060481,1729.783844453068,88.4000028288,0.35999970196000003,0.6109140195492481,1024,-16.6,98,P-GPS,
0.343846318791675,36.9119830598251,28400,2018-04-08 05:10:10,1729.783844453068,88.4000028288,0.0,0.513862016443584,1729.783844453068,88.4000028288,0.35999970196000003,0.6109140195492481,1024,-16.6,98,P-GPS,
0.343846391936494,36.9119830944446,28500,2018-04-08 05:10:10,1729.8838444562678,88.50000283199999,0.0,0.5197200166310401,1729.8838444562678,88.50000283199999,0.35999970196000003,0.6109140195492481,1024,-16.6,98,P-GPS,
0.343846488920105,36.9119831388067,28600,2018-04-08 05:10:10,1729.8838444562678,88.50000283199999,0.0,0.52746001687872,1729.8838444562678,88.50000283199999,0.35999970196000003,0.6109140195492481,1024,-16.6,98,P-GPS,
0.343846737454042,36.9119832120926,28800,2018-04-08 05:10:10,1729.8838444562678,88.50000283199999,0.35999970196000003,0.5437230173991361,1729.8838444562678,88.50000283199999,0.35999970196000003,0.6109140195492481,1024,-16.6,98,P-GPS,
0.343846890557089,36.9119832418879,28900,2018-04-08 05:10:10,1729.8838444562678,88.50000283199999,0.35999970196000003,0.552653017684896,1729.8838444562678,88.50000283199999,0.35999970196000003,0.6109140195492481,1024,-16.6,98,P-GPS,
0.343847098720271,36.9119832954509,29000,2018-04-08 05:10:10,1729.8838444562678,88.50000283199999,0.35999970196000003,0.56676001813632,1729.8838444562678,88.50000283199999,0.35999970196000003,0.6109140195492481,1024,-16.6,98,P-GPS,
0.343847601137584,36.9119833521807,29200,2018-04-08 05:10:10,1729.983844459468,88.60000283520002,0.0,0.596187019077984,1729.983844459468,88.60000283520002,0.35999970196000003,0.6109140195492481,1024,-16.6,98,P-GPS,
0.343847903643854,36.9119833612103,29300,2018-04-08 05:10:11,1729.983844459468,88.60000283520002,0.0,0.613288019625216,1729.983844459468,88.60000283520002,0.35999970196000003,0.613288019625216,1034,-16.6,98,P-GPS,
0.343848305903719,36.9119834228329,29400,2018-04-08 05:10:11,1729.983844459468,88.60000283520002,0.0,0.6426750205656001,1729.983844459468,88.60000283520002,0.35999970196000003,0.6426750205656001,1081,-16.6,98,P-GPS,
0.343848652655627,36.9119834699529,29500,2018-04-08 05:10:11,1729.983844459468,88.60000283520002,0.0,0.6688870214043839,1729.983844459468,88.60000283520002,0.35999970196000003,0.6688870214043839,1138,-16.6,98,P-GPS,
0.343849063457495,36.911983592787,29600,2018-04-08 05:10:11,1729.983844459468,88.60000283520002,0.0,0.7073100226339201,1729.983844459468,88.60000283520002,0.35999970196000003,0.7073100226339201,1178,-16.6,98,P-GPS,
0.343849412386633,36.9119837051526,29700,2018-04-08 05:10:11,1729.983844459468,88.60000283520002,0.0,0.7414760237272321,1729.983844459468,88.60000283520002,0.35999970196000003,0.7414760237272321,1195,-16.6,98,P-GPS,
0.34384977983525,36.9119838385173,29800,2018-04-08 05:10:11,1730.083844462668,88.70000283840001,0.0,0.779393024940576,1730.083844462668,88.70000283840001,0.35999970196000003,0.779393024940576,1208,-16.6,98,P-GPS,
0.343850074802639,36.9119839286226,29900,2018-04-08 05:10:11,1730.083844462668,88.70000283840001,0.0,0.808851025883232,1730.083844462668,88.70000283840001,0.35999970196000003,0.808851025883232,1222,-16.6,98,P-GPS,
0.343850435236734,36.9119840481099,30000,2018-04-08 05:10:11,1730.083844462668,88.70000283840001,0.0,0.84609002707488,1730.083844462668,88.70000283840001,0.35999970196000003,0.84609002707488,1225,-16.6,98,P-GPS,
0.343850737874908,36.9119841304361,30100,2018-04-08 05:10:12,1730.1838444658679,88.8000028416,0.0,0.876299028041568,1730.1838444658679,88.8000028416,0.35999970196000003,0.876299028041568,1236,-16.6,98,P-GPS,
0.343851084344282,36.9119842340333,30200,2018-04-08 05:10:12,1730.2838444690678,88.9000028448,0.0,0.912008029184256,1730.2838444690678,88.9000028448,0.35999970196000003,0.912008029184256,1242,-16.6,98,P-GPS,
0.343851351225083,36.9119842908895,30300,2018-04-08 05:10:12,1730.2838444690678,88.9000028448,0.0,0.938037030017184,1730.2838444690678,88.9000028448,0.35999970196000003,0.938037030017184,1243,-16.6,98,P-GPS,
0.34385167332642,36.9119843405683,30400,2018-04-08 05:10:12,1730.383844472268,89.000002848,0.0,0.96839503098864,1730.383844472268,89.000002848,0.35999970196000003,0.96839503098864,1248,-16.6,98,P-GPS,
0.34385191961229,36.9119843418188,30500,2018-04-08 05:10:12,1730.483844475468,89.1000028512,0.0,0.989229031655328,1730.483844475468,89.1000028512,0.35999970196000003,0.989229031655328,1249,-16.6,98,P-GPS,
