latitude,longitude,time_millisecond,datetime_utc,altitude_m,ascent_m,speed_kph,distance_m,max_altitude_m,max_ascent_m,max_speed_kph,max_distance_m,rc_throttle,gimbal_pitch_degrees,battery_percent,flycState,message
0.350524159660364,36.8971100373263,0,2018-04-17 05:21:40,1765.9756424112322,0.0,0.0,0.0,1765.9756424112322,0.0,0.0,0.0,364,0.0,100,Motors_Started,
0.350524134111045,36.8971100609466,100,2018-04-17 05:21:40,1765.9756424112322,0.0,0.0,0.00386937012381984,1765.9756424112322,0.0,0.0,0.00386937012381984,364,0.0,100,Motors_Started,Setting new Return-To-Home altitude to 45m (148 ft). Setting new Maximum Flight Altitude to 150m (492 ft)
0.350524108247894,36.8971100816593,200,2018-04-17 05:21:40,1765.9756424112322,0.0,0.0,0.007549390241580481,1765.9756424112322,0.0,0.0,0.007549390241580481,364,0.0,100,Motors_Started,
0.350524088761068,36.8971101202979,300,2018-04-17 05:21:40,1765.9756424112322,0.0,0.0,0.012136600388371199,1765.9756424112322,0.0,0.0,0.012136600388371199,364,0.0,100,Motors_Started,
0.350524073992251,36.8971101589084,400,2018-04-17 05:21:40,1765.9756424112322,0.0,0.0,0.016539700529270403,1765.9756424112322,0.0,0.0,0.016539700529270403,364,0.0,100,Motors_Started,
0.350524066343043,36.8971101826617,500,2018-04-17 05:21:40,1765.9756424112322,0.0,0.0,0.0192067006146144,1765.9756424112322,0.0,0.0,0.0192067006146144,364,0.0,100,Motors_Started,
0.350524059728354,36.8971102038808,600,2018-04-17 05:21:40,1765.9756424112322,0.0,0.0,0.021599700691190403,1765.9756424112322,0.0,0.0,0.021599700691190403,364,0.0,100,Motors_Started,
0.35052406035846,36.8971102415114,700,2018-04-17 05:21:40,1765.9756424112322,0.0,0.0,0.0252491008079712,1765.9756424112322,0.0,0.0,0.0252491008079712,470,0.0,100,Motors_Started,
0.350524060223706,36.897110281013,800,2018-04-17 05:21:40,1765.9756424112322,0.0,0.0,0.0292683009365856,1765.9756424112322,0.0,0.0,0.0292683009365856,666,0.0,100,Motors_Started,
0.350524065680724,36.8971103609804,900,2018-04-17 05:21:41,1765.9756424112322,0.0,0.0,0.0374783011993056,1765.9756424112322,0.0,0.0,0.0374783011993056,746,0.0,100,Motors_Started,
0.350524070468909,36.8971104421599,1000,2018-04-17 05:21:41,1765.9756424112322,0.0,0.0,0.0460988014751616,1765.9756424112322,0.0,0.0,0.0460988014751616,877,0.0,100,Motors_Started,
0.350524079825083,36.8971105691994,1100,2018-04-17 05:21:41,1765.9756424112322,0.0,0.0,0.059809001913888,1765.9756424112322,0.0,0.0,0.059809001913888,992,0.0,100,Motors_Started,
0.350524084706039,36.8971106745786,1200,2018-04-17 05:21:41,1765.9756424112322,0.0,0.0,0.071353502283312,1765.9756424112322,0.0,0.0,0.071353502283312,1024,0.0,100,Motors_Started,
0.350524091570592,36.8971108769969,1300,2018-04-17 05:21:41,1765.9756424112322,0.0,0.0,0.0936813029978016,1765.9756424112322,0.0,0.0,0.0936813029978016,1024,0.0,100,Motors_Started,
0.35052409726465,36.8971110552171,1400,2018-04-17 05:21:41,1765.9756424112322,0.0,0.0,0.113406003628992,1765.9756424112322,0.0,0.0,0.113406003628992,1024,0.0,100,Motors_Started,
0.35052410315234,36.8971113484509,1500,2018-04-17 05:21:41,1765.9756424112322,0.0,0.0,0.14593800467001602,1765.9756424112322,0.0,0.0,0.14593800467001602,1024,0.0,100,Motors_Started,
0.350524107012973,36.8971115997275,1600,2018-04-17 05:21:41,1765.9756424112322,0.0,0.0,0.17384400556300802,1765.9756424112322,0.0,0.0,0.17384400556300802,1024,0.0,100,Assisted_Takeoff,
0.350524144932564,36.8971119853445,1700,2018-04-17 05:21:41,1765.9756424112322,0.0,0.0,0.216634006932288,1765.9756424112322,0.0,0.0,0.216634006932288,1044,0.0,100,Assisted_Takeoff,
0.350524177708867,36.89711230607,1800,2018-04-17 05:21:41,1765.9756424112322,0.0,0.0,0.252301008073632,1765.9756424112322,0.0,0.0,0.252301008073632,1094,0.0,100,Assisted_Takeoff,
0.350524208245805,36.8971127669421,1900,2018-04-17 05:21:42,1765.9756424112322,0.0,0.0,0.303592009714944,1765.9756424112322,0.0,0.0,0.303592009714944,1146,0.0,100,Assisted_Takeoff,
0.350524227045021,36.897113067368,2000,2018-04-17 05:21:42,1765.9756424112322,0.0,0.0,0.337036010785152,1765.9756424112322,0.0,0.0,0.337036010785152,1183,0.0,100,Assisted_Takeoff,
0.350524241258233,36.8971135189443,2100,2018-04-17 05:21:42,1765.9756424112322,0.0,0.0,0.38727601239283205,1765.9756424112322,0.0,0.0,0.38727601239283205,1204,0.0,100,Assisted_Takeoff,
0.350524253803816,36.897113912623,2200,2018-04-17 05:21:42,1765.9756424112322,0.0,0.0,0.431076013794432,1765.9756424112322,0.0,0.0,0.431076013794432,1230,0.0,100,Assisted_Takeoff,
0.350524258099651,36.8971143439888,2300,2018-04-17 05:21:42,1765.9756424112322,0.0,0.0,0.479043015329376,1765.9756424112322,0.0,0.0,0.479043015329376,1252,0.0,100,Assisted_Takeoff,
0.350524264703501,36.897114721574,2400,2018-04-17 05:21:42,1765.9756424112322,0.0,0.0,0.521038016673216,1765.9756424112322,0.0,0.0,0.521038016673216,1273,0.0,100,Assisted_Takeoff,
0.350524295718031,36.8971151161099,2500,2018-04-17 05:21:42,1765.9756424112322,0.0,0.0,0.5649840180794881,1765.9756424112322,0.0,0.0,0.5649840180794881,1291,0.0,100,Assisted_Takeoff,
0.350524334719315,36.8971154721665,2600,2018-04-17 05:21:42,1765.9756424112322,0.0,0.0,0.604689019350048,1765.9756424112322,0.0,0.0,0.604689019350048,1299,0.0,100,Assisted_Takeoff,
0.350524387293604,36.8971158014142,2700,2018-04-17 05:21:42,1765.9756424112322,0.0,0.0,0.641489020527648,1765.9756424112322,0.0,0.0,0.641489020527648,1305,0.0,100,P-GPS,Obstacle Avoided. Revise Flight Route
0.35052447886559,36.8971161341644,2800,2018-04-17 05:21:42,1765.9756424112322,0.0,0.35999970196000003,0.678922021725504,1765.9756424112322,0.0,0.35999970196000003,0.678922021725504,1310,0.0,100,P-GPS,
0.350524623643358,36.8971165069897,2900,2018-04-17 05:21:42,1765.9756424112322,0.0,0.35999970196000003,0.7213000230816,1765.9756424112322,0.0,0.35999970196000003,0.7213000230816,1315,0.0,100,P-GPS,
0.350524773417174,36.8971168698697,3000,2018-04-17 05:21:43,1766.0756424144322,0.1000000032,0.0,0.762866024411712,1766.0756424144322,0.1000000032,0.35999970196000003,0.762866024411712,1323,0.0,100,P-GPS,
0.350524936717747,36.8971172987964,3100,2018-04-17 05:21:43,1766.1756424176324,0.2000000064,0.0,0.81211502598768,1766.1756424176324,0.2000000064,0.35999970196000003,0.81211502598768,1323,0.0,100,P-GPS,Home Point Recorded. RTH Altitude:  45m.
0.350525066984068,36.897117683098,3200,2018-04-17 05:21:43,1766.2756424208324,0.3000000096,0.0,0.8562070273986241,1766.2756424208324,0.3000000096,0.35999970196000003,0.8562070273986241,1321,0.0,100,P-GPS,
0.350525189982962,36.8971179564262,3300,2018-04-17 05:21:43,1766.3756424240323,0.4000000128,0.0,0.888058028417856,1766.3756424240323,0.4000000128,0.35999970196000003,0.888058028417856,1322,0.0,100,P-GPS,
0.350525311414123,36.8971182162195,3400,2018-04-17 05:21:43,1766.475642427232,0.500000016,0.0,0.918500029392,1766.475642427232,0.500000016,0.35999970196000003,0.918500029392,1323,0.0,100,P-GPS,
0.350525411122782,36.897118353856,3500,2018-04-17 05:21:43,1766.6756424336322,0.7000000224,0.0,0.935244029927808,1766.6756424336322,0.7000000224,0.35999970196000003,0.935244029927808,1324,0.0,100,P-GPS,
0.350525508844739,36.8971185284383,3600,2018-04-17 05:21:43,1766.7756424368322,0.8000000256,0.0,0.9560920305949441,1766.7756424368322,0.8000000256,0.35999970196000003,0.9560920305949441,1315,0.0,100,P-GPS,
0.350525683810513,36.8971186965585,3800,2018-04-17 05:21:43,1767.1756424496323,1.2000000384,0.0,0.9777450312878401,1767.1756424496323,1.2000000384,0.35999970196000003,0.9777450312878401,1308,0.0,100,P-GPS,
0.350525709415454,36.8971186615499,3900,2018-04-17 05:21:44,1767.2756424528322,1.3000000416000002,0.0,0.97441003118112,1767.2756424528322,1.3000000416000002,0.35999970196000003,0.9777450312878401,1306,0.0,100,P-GPS,
0.350525723145577,36.8971186836572,4000,2018-04-17 05:21:44,1767.4756424592322,1.5000000480000002,0.0,0.977101031267232,1767.4756424592322,1.5000000480000002,0.35999970196000003,0.9777450312878401,1304,0.0,100,P-GPS,
0.350525699382814,36.8971185634377,4100,2018-04-17 05:21:44,1767.675642465632,1.7000000544000002,0.0,0.9634750308312,1767.675642465632,1.7000000544000002,0.35999970196000003,0.9777450312878401,1308,0.0,100,P-GPS,
0.350525685130265,36.8971185290314,4200,2018-04-17 05:21:44,1767.7756424688323,1.8000000576000001,0.0,0.959428030701696,1767.7756424688323,1.8000000576000001,0.35999970196000003,0.9777450312878401,1307,0.0,100,P-GPS,
0.35052563903502,36.8971184297662,4300,2018-04-17 05:21:44,1767.9756424752322,2.000000064,0.0,0.947662030325184,1767.9756424752322,2.000000064,0.35999970196000003,0.9777450312878401,1308,0.0,100,P-GPS,
0.350525593735016,36.8971183879187,4400,2018-04-17 05:21:44,1768.0756424784324,2.1000000672000003,0.0,0.942214030150848,1768.0756424784324,2.1000000672000003,0.35999970196000003,0.9777450312878401,1304,0.0,100,P-GPS,
0.350525564241605,36.8971183354867,4500,2018-04-17 05:21:44,1768.1756424816324,2.2000000704000002,0.0,0.9359150299492801,1768.1756424816324,2.2000000704000002,0.35999970196000003,0.9777450312878401,1305,0.0,100,P-GPS,
0.350525544519774,36.8971183369609,4600,2018-04-17 05:21:44,1768.375642488032,2.4000000768,0.0,0.935713029942816,1768.375642488032,2.4000000768,0.35999970196000003,0.9777450312878401,1305,0.0,100,P-GPS,
0.35052550954838,36.8971183188486,4700,2018-04-17 05:21:44,1768.4756424912323,2.50000008,0.0,0.9330930298589761,1768.4756424912323,2.50000008,0.35999970196000003,0.9777450312878401,1301,0.0,100,P-GPS,
0.350525483540908,36.897118326149,4800,2018-04-17 05:21:44,1768.6756424976322,2.7000000864,0.0,0.933434029869888,1768.6756424976322,2.7000000864,0.35999970196000003,0.9777450312878401,1303,0.0,100,P-GPS,
0.350525468883741,36.8971183520767,4900,2018-04-17 05:21:44,1768.7756425008322,2.8000000896,0.0,0.936026029952832,1768.7756425008322,2.8000000896,0.35999970196000003,0.9777450312878401,1303,0.0,100,P-GPS,
0.350525453727151,36.8971183978485,5000,2018-04-17 05:21:45,1768.9756425072324,3.0000000960000004,0.0,0.9407950301054401,1768.9756425072324,3.0000000960000004,0.35999970196000003,0.9777450312878401,1304,0.0,100,P-GPS,
0.350525478126586,36.8971184540896,5100,2018-04-17 05:21:45,1769.0756425104323,3.1000000992000003,0.0,0.9473920303165441,1769.0756425104323,3.1000000992000003,0.35999970196000003,0.9777450312878401,1304,0.0,100,P-GPS,
0.350525499516045,36.897118524954,5200,2018-04-17 05:21:45,1769.175642513632,3.2000001024,0.0,0.955547030577504,1769.175642513632,3.2000001024,0.35999970196000003,0.9777450312878401,1302,0.0,100,P-GPS,
0.350525519881518,36.89711863267,5300,2018-04-17 05:21:45,1769.3756425200322,3.4000001088000005,0.0,0.9677320309674241,1769.3756425200322,3.4000001088000005,0.35999970196000003,0.9777450312878401,1302,0.0,100,P-GPS,
0.350525526335907,36.8971187438708,5400,2018-04-17 05:21:45,1769.4756425232322,3.500000112,0.0,0.9800590313618881,1769.4756425232322,3.500000112,0.35999970196000003,0.9800590313618881,1302,0.0,100,P-GPS,
0.350525501776376,36.8971188363453,5500,2018-04-17 05:21:45,1769.6756425296323,3.7000001184,0.0,0.9898040316737281,1769.6756425296323,3.7000001184,0.35999970196000003,0.9898040316737281,1294,0.0,100,P-GPS,
0.350525476322524,36.8971189289551,5600,2018-04-17 05:21:45,1769.7756425328323,3.8000001216000006,0.0,0.9995670319861439,1769.7756425328323,3.8000001216000006,0.35999970196000003,0.9995670319861439,1294,0.0,100,P-GPS,
0.350525469102207,36.8971190649601,5700,2018-04-17 05:21:45,1769.975642539232,4.000000128,0.0,1.01442003246144,1769.975642539232,4.000000128,0.35999970196000003,1.01442003246144,1289,0.0,100,P-GPS,
0.350525472653996,36.8971191937385,5800,2018-04-17 05:21:45,1770.0756425424324,4.100000131200001,0.0,1.0286500329168,1770.0756425424324,4.100000131200001,0.35999970196000003,1.0286500329168,1290,0.0,100,P-GPS,
0.350525448542644,36.8971193404081,5900,2018-04-17 05:21:46,1770.1756425456322,4.200000134400001,0.0,1.04442003342144,1770.1756425456322,4.200000134400001,0.35999970196000003,1.04442003342144,1288,0.0,100,P-GPS,
0.350525414552794,36.8971194594039,6000,2018-04-17 05:21:46,1770.3756425520323,4.4000001408000005,0.0,1.05703003382496,1770.3756425520323,4.4000001408000005,0.35999970196000003,1.05703003382496,1284,0.0,100,P-GPS,
0.350525374931988,36.8971195509935,6100,2018-04-17 05:21:46,1770.4756425552323,4.500000144,0.0,1.0665500341296,1770.4756425552323,4.500000144,0.35999970196000003,1.0665500341296,1275,0.0,100,P-GPS,
0.35052534116035,36.8971196083411,6200,2018-04-17 05:21:46,1770.5756425584323,4.6000001472,0.0,1.0724100343171201,1770.5756425584323,4.6000001472,0.35999970196000003,1.0724100343171201,1269,0.0,100,P-GPS,
0.350525316801321,36.8971196308472,6300,2018-04-17 05:21:46,1770.6756425616322,4.7000001504,0.0,1.07457003438624,1770.6756425616322,4.7000001504,0.35999970196000003,1.07457003438624,1254,0.0,100,P-GPS,
0.350525298271918,36.89711964519,6400,2018-04-17 05:21:46,1770.8756425680324,4.9000001568,0.0,1.0759100344291201,1770.8756425680324,4.9000001568,0.35999970196000003,1.0759100344291201,1236,0.0,100,P-GPS,
0.350525276591324,36.8971196953229,6500,2018-04-17 05:21:46,1770.9756425712321,5.00000016,0.0,1.08117003459744,1770.9756425712321,5.00000016,0.35999970196000003,1.08117003459744,1222,0.0,100,P-GPS,
0.350525273862306,36.8971197450179,6600,2018-04-17 05:21:46,1771.075642574432,5.1000001632,0.0,1.08662003477184,1771.075642574432,5.1000001632,0.35999970196000003,1.08662003477184,1198,0.0,100,P-GPS,
0.350525272343884,36.8971197768778,6700,2018-04-17 05:21:46,1771.1756425776323,5.200000166400001,0.0,1.09012003488384,1771.1756425776323,5.200000166400001,0.35999970196000003,1.09012003488384,1168,0.0,100,P-GPS,
0.350525285452095,36.8971198089957,6800,2018-04-17 05:21:46,1771.2756425808323,5.3000001696000005,0.0,1.09384003500288,1771.2756425808323,5.3000001696000005,0.35999970196000003,1.09384003500288,1093,0.0,100,P-GPS,
0.350525338497182,36.897119824908,6900,2018-04-17 05:21:47,1771.3756425840322,5.4000001728,0.0,1.09628003508096,1771.3756425840322,5.4000001728,0.35999970196000003,1.09628003508096,1024,0.0,100,P-GPS,
0.350525400677484,36.8971198454902,7000,2018-04-17 05:21:47,1771.3756425840322,5.4000001728,0.0,1.0994000351808,1771.3756425840322,5.4000001728,0.35999970196000003,1.0994000351808,1024,0.0,100,P-GPS,
0.350525442015738,36.8971198775225,7100,2018-04-17 05:21:47,1771.4756425872322,5.5000001759999995,0.0,1.10352003531264,1771.4756425872322,5.5000001759999995,0.35999970196000003,1.10352003531264,1024,0.0,99,P-GPS,
0.350525479117901,36.8971199124507,7200,2018-04-17 05:21:47,1771.4756425872322,5.5000001759999995,0.0,1.10791003545312,1771.4756425872322,5.5000001759999995,0.35999970196000003,1.10791003545312,1024,0.0,99,P-GPS,
0.350525549316407,36.8971199940184,7300,2018-04-17 05:21:47,1771.4756425872322,5.5000001759999995,0.0,1.1179600357747201,1771.4756425872322,5.5000001759999995,0.35999970196000003,1.1179600357747201,1024,0.0,99,P-GPS,
0.35052561518829,36.8971200739813,7400,2018-04-17 05:21:47,1771.4756425872322,5.5000001759999995,0.0,1.12779003608928,1771.4756425872322,5.5000001759999995,0.35999970196000003,1.12779003608928,1024,0.0,99,P-GPS,
0.350525706591528,36.8971201646406,7500,2018-04-17 05:21:47,1771.4756425872322,5.5000001759999995,0.0,1.1392600364563201,1771.4756425872322,5.5000001759999995,0.35999970196000003,1.1392600364563201,1024,0.0,99,P-GPS,
0.350525781858922,36.8971202497638,7600,2018-04-17 05:21:47,1771.4756425872322,5.5000001759999995,0.0,1.1499000367968,1771.4756425872322,5.5000001759999995,0.35999970196000003,1.1499000367968,1024,0.0,99,P-GPS,
0.350525819021134,36.8971203408619,7700,2018-04-17 05:21:47,1771.4756425872322,5.5000001759999995,0.0,1.16056003713792,1771.4756425872322,5.5000001759999995,0.35999970196000003,1.16056003713792,1024,0.0,99,P-GPS,
0.350525841349238,36.8971204345767,7800,2018-04-17 05:21:47,1771.4756425872322,5.5000001759999995,0.0,1.17124003747968,1771.4756425872322,5.5000001759999995,0.35999970196000003,1.17124003747968,1024,0.0,99,P-GPS,
0.35052583807861,36.8971205203347,7900,2018-04-17 05:21:48,1771.4756425872322,5.5000001759999995,0.0,1.1806000377792,1771.4756425872322,5.5000001759999995,0.35999970196000003,1.1806000377792,1024,0.0,99,P-GPS,
0.350525844619764,36.8971206027225,8000,2018-04-17 05:21:48,1771.4756425872322,5.5000001759999995,0.0,1.1897600380723201,1771.4756425872322,5.5000001759999995,0.35999970196000003,1.1897600380723201,1024,0.0,99,P-GPS,
0.350525863665231,36.8971206546101,8100,2018-04-17 05:21:48,1771.4756425872322,5.5000001759999995,0.0,1.1957900382652802,1771.4756425872322,5.5000001759999995,0.35999970196000003,1.1957900382652802,1024,0.0,99,P-GPS,
0.35052590622146,36.8971207123677,8200,2018-04-17 05:21:48,1771.4756425872322,5.5000001759999995,0.0,1.20289003849248,1771.4756425872322,5.5000001759999995,0.35999970196000003,1.20289003849248,1024,0.0,99,P-GPS,
0.350526014915008,36.8971207695473,8300,2018-04-17 05:21:48,1771.5756425904324,5.6000001792,0.35999970196000003,1.21117003875744,1771.5756425904324,5.6000001792,0.35999970196000003,1.21117003875744,1024,0.0,99,P-GPS,
0.350526164239251,36.8971208504716,8400,2018-04-17 05:21:48,1771.5756425904324,5.6000001792,0.35999970196000003,1.2229500391344001,1771.5756425904324,5.6000001792,0.35999970196000003,1.2229500391344001,1024,0.0,99,P-GPS,
0.350526377837263,36.897120959286,8500,2018-04-17 05:21:48,1771.5756425904324,5.6000001792,0.7199994039200001,1.2393600396595201,1771.5756425904324,5.6000001792,0.7199994039200001,1.2393600396595201,1024,0.0,99,P-GPS,
0.350526670491753,36.8971211217877,8600,2018-04-17 05:21:48,1771.5756425904324,5.6000001792,1.151999046272,1.2638700404438399,1771.5756425904324,5.6000001792,1.151999046272,1.2638700404438399,1024,0.0,99,P-GPS,
0.350527191101024,36.8971214336012,8700,2018-04-17 05:21:48,1771.5756425904324,5.6000001792,2.7359977348960003,1.3113800419641601,1771.5756425904324,5.6000001792,2.7359977348960003,1.3113800419641601,1024,0.0,99,P-GPS,
0.350528039775198,36.8971219462578,8800,2018-04-17 05:21:48,1771.4756425872322,5.5000001759999995,4.823996006263999,1.3928400445708802,1771.5756425904324,5.6000001792,4.823996006263999,1.3928400445708802,1024,0.0,99,P-GPS,
0.350529436658326,36.8971228067299,8900,2018-04-17 05:21:48,1771.4756425872322,5.5000001759999995,6.911994277632001,1.53649004916768,1771.5756425904324,5.6000001792,6.911994277632001,1.53649004916768,1024,0.0,99,P-GPS,
0.350531266362938,36.8971239113122,9000,2018-04-17 05:21:49,1771.4756425872322,5.5000001759999995,8.531992936452,1.7334800554713599,1771.5756425904324,5.6000001792,8.531992936452,1.7334800554713599,1024,0.0,99,P-GPS,
0.350533660991871,36.8971254205673,9100,2018-04-17 05:21:49,1771.4756425872322,5.5000001759999995,9.827991863508,2.01068006434176,1771.5756425904324,5.6000001792,9.827991863508,2.01068006434176,1024,0.0,99,P-GPS,
0.350536364914836,36.897127099207,9200,2018-04-17 05:21:49,1771.4756425872322,5.5000001759999995,11.123990790564001,2.3328500746512,1771.5756425904324,5.6000001792,11.123990790564001,2.3328500746512,1024,0.0,99,P-GPS,
0.350539500565175,36.8971291138611,9300,2018-04-17 05:21:49,1771.4756425872322,5.5000001759999995,12.41998971762,2.72227008711264,1771.5756425904324,5.6000001792,12.41998971762,2.72227008711264,1024,0.0,99,P-GPS,
0.350542858201742,36.8971312388916,9400,2018-04-17 05:21:49,1771.4756425872322,5.5000001759999995,12.41998971762,3.1436601005971205,1771.5756425904324,5.6000001792,12.41998971762,3.1436601005971205,1024,0.0,99,P-GPS,
0.350546510423828,36.8971337477783,9500,2018-04-17 05:21:49,1771.4756425872322,5.5000001759999995,15.011987571732002,3.6235501159536003,1771.5756425904324,5.6000001792,15.011987571732002,3.6235501159536003,1024,0.0,99,P-GPS,
0.350550364432923,36.8971363360926,9600,2018-04-17 05:21:49,1771.4756425872322,5.5000001759999995,15.011987571732002,4.12856013211392,1771.5756425904324,5.6000001792,15.011987571732002,4.12856013211392,1024,0.0,99,P-GPS,
0.350554470474668,36.8971392721412,9700,2018-04-17 05:21:49,1771.4756425872322,5.5000001759999995,17.27998569408,4.68307014985824,1771.5756425904324,5.6000001792,17.27998569408,4.68307014985824,1024,0.0,99,P-GPS,
0.350558795068252,36.8971422634519,9800,2018-04-17 05:21:49,1771.5756425904324,5.6000001792,18.395984770156,5.261000168352001,1771.5756425904324,5.6000001792,18.395984770156,5.261000168352001,1024,0.0,99,P-GPS,
0.350563321787563,36.8971455335932,9900,2018-04-17 05:21:50,1771.5756425904324,5.6000001792,19.691983697212,5.8777601880883195,1771.5756425904324,5.6000001792,19.691983697212,5.8777601880883195,1024,0.0,99,P-GPS,
0.350568067535848,36.8971488432866,10000,2018-04-17 05:21:50,1771.5756425904324,5.6000001792,20.195983279956,6.51648020852736,1771.5756425904324,5.6000001792,20.195983279956,6.51648020852736,1024,0.0,99,P-GPS,
0.350572794215054,36.8971522803319,10100,2018-04-17 05:21:50,1771.5756425904324,5.6000001792,20.195983279956,7.1637102292387205,1771.5756425904324,5.6000001792,20.195983279956,7.1637102292387205,1024,0.0,99,P-GPS,
0.350577482352247,36.897155603487,10200,2018-04-17 05:21:50,1771.6756425936323,5.7000001824,20.195983279956,7.79991024959712,1771.6756425936323,5.7000001824,20.195983279956,7.79991024959712,1024,0.0,99,P-GPS,
0.350581605152309,36.8971586946993,10300,2018-04-17 05:21:50,1771.6756425936323,5.7000001824,16.775986111336,8.371860267899521,1771.6756425936323,5.7000001824,20.195983279956,8.371860267899521,1024,0.0,99,P-GPS,
0.350585323958213,36.8971614874678,10400,2018-04-17 05:21:50,1771.6756425936323,5.7000001824,14.57998792938,8.88821028442272,1771.6756425936323,5.7000001824,20.195983279956,8.88821028442272,1024,0.0,99,P-GPS,
0.350588204167569,36.8971637617074,10500,2018-04-17 05:21:50,1771.6756425936323,5.7000001824,12.491989658011999,9.296120297475841,1771.6756425936323,5.7000001824,20.195983279956,9.296120297475841,1024,0.0,99,P-GPS,
0.350590742312493,36.8971657661052,10600,2018-04-17 05:21:50,1771.7756425968323,5.8000001856,10.691991148212,9.655630308980161,1771.7756425968323,5.8000001856,20.195983279956,9.655630308980161,1024,0.0,99,P-GPS,
0.350592560808932,36.897167244677,10700,2018-04-17 05:21:50,1771.7756425968323,5.8000001856,8.891992638411999,9.916240317319682,1771.7756425968323,5.8000001856,20.195983279956,9.916240317319682,1024,0.0,99,P-GPS,
0.350594162448741,36.8971685805511,10800,2018-04-17 05:21:50,1771.7756425968323,5.8000001856,7.775993562336,10.148200324742401,1771.7756425968323,5.8000001856,20.195983279956,10.148200324742401,1024,0.0,99,P-GPS,
0.350595467229723,36.8971695839405,10900,2018-04-17 05:21:50,1771.7756425968323,5.8000001856,8.099993294099999,10.331100330595202,1771.7756425968323,5.8000001856,20.195983279956,10.331100330595202,1024,0.0,99,P-GPS,
0.350596893166938,36.8971706817437,11000,2018-04-17 05:21:51,1771.6756425936323,5.7000001824,7.595993711356,10.531000336992001,1771.7756425968323,5.8000001856,20.195983279956,10.531000336992001,1024,0.0,99,P-GPS,
0.350598295270247,36.8971716317017,11100,2018-04-17 05:21:51,1771.6756425936323,5.7000001824,6.803994367043999,10.718500342992002,1771.7756425968323,5.8000001856,20.195983279956,10.718500342992002,1024,0.0,99,P-GPS,
0.350599652838869,36.8971726075296,11200,2018-04-17 05:21:51,1771.6756425936323,5.7000001824,6.803994367043999,10.9039003489248,1771.7756425968323,5.8000001856,20.195983279956,10.9039003489248,1024,0.0,99,P-GPS,
0.350600951562039,36.8971734311058,11300,2018-04-17 05:21:51,1771.6756425936323,5.7000001824,5.003995857244,11.073600354355202,1771.7756425968323,5.8000001856,20.195983279956,11.073600354355202,1024,0.0,99,P-GPS,
0.350602057145238,36.8971741968269,11400,2018-04-17 05:21:51,1771.6756425936323,5.7000001824,5.003995857244,11.2226003591232,1771.7756425968323,5.8000001856,20.195983279956,11.2226003591232,1024,0.0,99,P-GPS,
0.350603045421844,36.8971747986995,11500,2018-04-17 05:21:51,1771.5756425904324,5.6000001792,3.707996930188,11.3500003632,1771.7756425968323,5.8000001856,20.195983279956,11.3500003632,1066,0.0,99,P-GPS,
0.350603799801783,36.8971753123292,11600,2018-04-17 05:21:51,1771.5756425904324,5.6000001792,2.9159975858759997,11.4511003664352,1771.7756425968323,5.8000001856,20.195983279956,11.4511003664352,1131,0.0,99,P-GPS,
0.350604454012874,36.8971756591556,11700,2018-04-17 05:21:51,1771.5756425904324,5.6000001792,2.4119980031319996,11.531800369017601,1771.7756425968323,5.8000001856,20.195983279956,11.531800369017601,1182,0.0,99,P-GPS,
0.350604899854785,36.8971759242355,11800,2018-04-17 05:21:51,1771.5756425904324,5.6000001792,2.087998271368,11.5889003708448,1771.7756425968323,5.8000001856,20.195983279956,11.5889003708448,1187,0.0,99,P-GPS,
0.350605326643902,36.8971760861098,11900,2018-04-17 05:21:52,1771.5756425904324,5.6000001792,1.6199986588200002,11.637000372384001,1771.7756425968323,5.8000001856,20.195983279956,11.637000372384001,1197,0.0,99,P-GPS,
0.350605941088391,36.8971762929791,12100,2018-04-17 05:21:52,1771.5756425904324,5.6000001792,1.151999046272,11.704600374547201,1771.7756425968323,5.8000001856,20.195983279956,11.704600374547201,1196,0.0,99,P-GPS,
0.350606165325129,36.8971763494296,12200,2018-04-17 05:21:52,1771.6756425936323,5.7000001824,1.151999046272,11.7279003752928,1771.7756425968323,5.8000001856,20.195983279956,11.7279003752928,1196,0.0,99,P-GPS,
0.350606445202542,36.8971763988655,12300,2018-04-17 05:21:52,1771.7756425968323,5.8000001856,0.7199994039200001,11.755600376179201,1771.7756425968323,5.8000001856,20.195983279956,11.755600376179201,1190,0.0,99,P-GPS,
0.35060662024073,36.8971764307607,12400,2018-04-17 05:21:52,1771.875642600032,5.9000001888,0.35999970196000003,11.773000376736,1771.875642600032,5.9000001888,20.195983279956,11.773000376736,1195,0.0,99,P-GPS,
0.350606916930199,36.8971765732315,12500,2018-04-17 05:21:52,1771.9756426032322,6.000000192000001,0.35999970196000003,11.808600377875202,1771.9756426032322,6.000000192000001,20.195983279956,11.808600377875202,1197,0.0,99,P-GPS,
0.350607087903791,36.8971766809807,12600,2018-04-17 05:21:52,1772.0756426064322,6.100000195200001,0.35999970196000003,11.830900378588801,1772.0756426064322,6.100000195200001,20.195983279956,11.830900378588801,1199,0.0,99,P-GPS,
0.350607306473544,36.8971768450219,12700,2018-04-17 05:21:52,1772.0756426064322,6.100000195200001,0.0,11.8613003795616,1772.0756426064322,6.100000195200001,20.195983279956,11.8613003795616,1182,0.0,99,P-GPS,
0.350607407228631,36.8971769516148,12800,2018-04-17 05:21:52,1772.1756426096322,6.200000198400001,0.0,11.87750038008,1772.1756426096322,6.200000198400001,20.195983279956,11.87750038008,1205,0.0,99,P-GPS,
0.350607530052391,36.8971771159515,12900,2018-04-17 05:21:52,1772.2756426128321,6.3000002016,0.0,11.8996003807872,1772.2756426128321,6.3000002016,20.195983279956,11.8996003807872,1260,0.0,99,P-GPS,
0.350607572919551,36.8971772390273,13000,2018-04-17 05:21:53,1772.2756426128321,6.3000002016,0.0,11.9119003811808,1772.2756426128321,6.3000002016,20.195983279956,11.9119003811808,1307,0.0,99,P-GPS,
0.350607683797046,36.8971773720769,13100,2018-04-17 05:21:53,1772.3756426160323,6.4000002048,0.0,11.930800381785602,1772.3756426160323,6.4000002048,20.195983279956,11.930800381785602,1325,0.0,99,P-GPS,
0.350607708822973,36.897177444445,13200,2018-04-17 05:21:53,1772.4756426192323,6.500000208,0.0,11.938000382016002,1772.4756426192323,6.500000208,20.195983279956,11.938000382016002,1300,0.0,99,P-GPS,
0.350607752504355,36.8971775268296,13300,2018-04-17 05:21:53,1772.5756426224323,6.6000002112,0.0,11.947500382320001,1772.5756426224323,6.6000002112,20.195983279956,11.947500382320001,1301,0.0,99,P-GPS,
0.350607746036176,36.8971775595684,13400,2018-04-17 05:21:53,1772.6756426256325,6.7000002144,0.0,11.949200382374402,1772.6756426256325,6.7000002144,20.195983279956,11.949200382374402,1324,0.0,99,P-GPS,
0.350607789528658,36.8971776210207,13500,2018-04-17 05:21:53,1772.8756426320322,6.900000220800001,0.0,11.957300382633601,1772.8756426320322,6.900000220800001,20.195983279956,11.957300382633601,1325,0.0,99,P-GPS,
0.350607802855844,36.8971776498112,13600,2018-04-17 05:21:53,1772.9756426352321,7.000000224,0.0,11.960500382736,1772.9756426352321,7.000000224,20.195983279956,11.960500382736,1324,0.0,99,P-GPS,
0.350607830682695,36.8971777134218,13700,2018-04-17 05:21:53,1773.1756426416323,7.200000230400001,0.0,11.967300382953601,1773.1756426416323,7.200000230400001,20.195983279956,11.967300382953601,1326,0.0,99,P-GPS,
0.350607812033754,36.8971777315406,13800,2018-04-17 05:21:53,1773.2756426448323,7.3000002336000005,0.0,11.967000382944,1773.2756426448323,7.3000002336000005,20.195983279956,11.967300382953601,1326,0.0,99,P-GPS,
0.35060781796129,36.8971777863509,13900,2018-04-17 05:21:53,1773.4756426512324,7.50000024,0.0,11.9713003830816,1773.4756426512324,7.50000024,20.195983279956,11.9713003830816,1327,0.0,99,P-GPS,
0.350607796302985,36.8971777993436,14000,2018-04-17 05:21:54,1773.6756426576321,7.7000002464,0.0,11.9703003830496,1773.6756426576321,7.7000002464,20.195983279956,11.9713003830816,1326,0.0,99,P-GPS,
0.35060782046258,36.8971778571174,14100,2018-04-17 05:21:54,1773.775642660832,7.8000002496,0.0,11.976500383248,1773.775642660832,7.8000002496,20.195983279956,11.976500383248,1326,0.0,99,P-GPS,
0.350607827021952,36.8971778709752,14200,2018-04-17 05:21:54,1773.9756426672323,8.000000256,0.0,11.978000383296001,1773.9756426672323,8.000000256,20.195983279956,11.978000383296001,1325,0.0,99,P-GPS,
0.350607841834279,36.8971779225351,14300,2018-04-17 05:21:54,1774.0756426704322,8.1000002592,0.0,11.9829003834528,1774.0756426704322,8.1000002592,20.195983279956,11.9829003834528,1332,0.0,99,P-GPS,
0.350607840199321,36.8971779305903,14400,2018-04-17 05:21:54,1774.2756426768324,8.300000265600001,0.0,11.9833003834656,1774.2756426768324,8.300000265600001,20.195983279956,11.9833003834656,1329,0.0,99,P-GPS,
0.350607836532065,36.8971779606441,14500,2018-04-17 05:21:54,1774.475642683232,8.500000272,0.0,11.9851003835232,1774.475642683232,8.500000272,20.195983279956,11.9851003835232,1327,0.0,99,P-GPS,
0.350607826298923,36.8971779500452,14600,2018-04-17 05:21:54,1774.6756426896322,8.700000278400001,0.0,11.983500383472,1774.6756426896322,8.700000278400001,20.195983279956,11.9851003835232,1327,-0.4,99,P-GPS,
0.350607840199321,36.8971779679413,14700,2018-04-17 05:21:54,1774.7756426928322,8.800000281600001,0.0,11.985900383548799,1774.7756426928322,8.800000281600001,20.195983279956,11.985900383548799,1331,-3.2,99,P-GPS,
0.350607837053168,36.897177945189,14800,2018-04-17 05:21:54,1774.9756426992324,9.000000288,0.0,11.9841003834912,1774.9756426992324,9.000000288,20.195983279956,11.985900383548799,1325,-7.5,99,P-GPS,
0.350607831340586,36.8971779185268,14900,2018-04-17 05:21:55,1775.1756427056323,9.2000002944,0.0,11.9817003834144,1775.1756427056323,9.2000002944,20.195983279956,11.985900383548799,1323,-12.2,99,P-GPS,
0.350607816932113,36.8971778789019,15000,2018-04-17 05:21:55,1775.2756427088323,9.3000002976,0.0,11.9777003832864,1775.2756427088323,9.3000002976,20.195983279956,11.985900383548799,1318,-12.4,99,P-GPS,
0.350607816547801,36.8971778997186,15100,2018-04-17 05:21:55,1775.4756427152322,9.500000304,0.0,11.9791003833312,1775.4756427152322,9.500000304,20.195983279956,11.985900383548799,1317,-12.4,99,P-GPS,
0.35060779901923,36.8971779016756,15200,2018-04-17 05:21:55,1775.6756427216321,9.7000003104,0.0,11.9777003832864,1775.6756427216321,9.7000003104,20.195983279956,11.985900383548799,1316,-12.4,99,P-GPS,
0.350607756380052,36.8971779025449,15300,2018-04-17 05:21:55,1775.7756427248323,9.8000003136,0.0,11.9741003831712,1775.7756427248323,9.8000003136,20.195983279956,11.985900383548799,1314,-12.4,99,P-GPS,
0.35060769553487,36.8971778823792,15400,2018-04-17 05:21:55,1775.9756427312323,10.00000032,0.0,11.96750038296,1775.9756427312323,10.00000032,20.195983279956,11.985900383548799,1317,-12.4,99,P-GPS,
0.350607660783876,36.897177888139,15500,2018-04-17 05:21:55,1776.0756427344322,10.100000323200002,0.0,11.9649003828768,1776.0756427344322,10.100000323200002,20.195983279956,11.985900383548799,1321,-12.4,99,P-GPS,
0.35060762420251,36.8971778705812,15600,2018-04-17 05:21:55,1776.2756427408324,10.3000003296,0.0,11.960500382736,1776.2756427408324,10.3000003296,20.195983279956,11.985900383548799,1323,-13.7,99,P-GPS,
0.350607577668094,36.8971778910724,15700,2018-04-17 05:21:55,1776.3756427440321,10.400000332800001,0.0,11.9579003826528,1776.3756427440321,10.400000332800001,20.195983279956,11.985900383548799,1323,-17.6,99,P-GPS,
0.350607524502654,36.8971778736517,15800,2018-04-17 05:21:55,1776.5756427504323,10.600000339200001,0.0,11.9521003824672,1776.5756427504323,10.600000339200001,20.195983279956,11.985900383548799,1315,-22.8,99,P-GPS,
0.350607456238282,36.897177849302,15900,2018-04-17 05:21:56,1776.6756427536322,10.700000342400001,0.0,11.944500382224001,1776.6756427536322,10.700000342400001,20.195983279956,11.985900383548799,1313,-26.1,99,P-GPS,
0.350607382534907,36.8971778138652,16000,2018-04-17 05:21:56,1776.8756427600322,10.9000003488,0.0,11.935600381939201,1776.8756427600322,10.9000003488,20.195983279956,11.985900383548799,1308,-26.1,99,P-GPS,
0.350607336853796,36.8971777961404,16100,2018-04-17 05:21:56,1777.0756427664323,11.1000003552,0.35999970196000003,11.930500381776001,1777.0756427664323,11.1000003552,20.195983279956,11.985900383548799,1306,-26.1,99,P-GPS,
0.350607283434319,36.8971777648961,16200,2018-04-17 05:21:56,1777.175642769632,11.2000003584,0.35999970196000003,11.9237003815584,1777.175642769632,11.2000003584,20.195983279956,11.985900383548799,1303,-26.1,99,P-GPS,
0.350607245615335,36.8971777702063,16300,2018-04-17 05:21:56,1777.3756427760322,11.4000003648,0.0,11.9208003814656,1777.3756427760322,11.4000003648,20.195983279956,11.985900383548799,1305,-26.1,99,P-GPS,
0.350607211782783,36.8971777617528,16400,2018-04-17 05:21:56,1777.5756427824322,11.6000003712,0.0,11.9173003813536,1777.5756427824322,11.6000003712,20.195983279956,11.985900383548799,1306,-26.1,99,P-GPS,
0.35060719319898,36.8971777846636,16500,2018-04-17 05:21:56,1777.6756427856324,11.7000003744,0.0,11.9173003813536,1777.6756427856324,11.7000003744,20.195983279956,11.985900383548799,1306,-26.1,99,P-GPS,
0.350607174862701,36.8971777930186,16600,2018-04-17 05:21:56,1777.8756427920323,11.9000003808,0.0,11.9163003813216,1777.8756427920323,11.9000003808,20.195983279956,11.985900383548799,1307,-26.1,99,P-GPS,
0.350607158519637,36.8971778240188,16700,2018-04-17 05:21:56,1777.9756427952323,12.000000384000002,0.0,11.9171003813472,1777.9756427952323,12.000000384000002,20.195983279956,11.985900383548799,1309,-26.1,99,P-GPS,
0.350607142052811,36.8971778410498,16800,2018-04-17 05:21:56,1778.1756428016322,12.200000390400001,0.0,11.9168003813376,1778.1756428016322,12.200000390400001,20.195983279956,11.985900383548799,1311,-26.1,99,P-GPS,
0.350607181910606,36.8971778733262,16900,2018-04-17 05:21:57,1778.3756428080321,12.400000396800001,0.0,11.922500381519999,1778.3756428080321,12.400000396800001,20.195983279956,11.985900383548799,1317,-26.1,99,P-GPS,
0.35060723758385,36.8971779029518,17100,2018-04-17 05:21:57,1778.6756428176323,12.700000406400001,0.0,11.929400381740802,1778.6756428176323,12.700000406400001,20.195983279956,11.985900383548799,1317,-26.1,99,P-GPS,
0.350607236821738,36.8971778964083,17200,2018-04-17 05:21:57,1778.7756428208322,12.8000004096,0.0,11.928900381724802,1778.7756428208322,12.8000004096,20.195983279956,11.985900383548799,1312,-26.1,99,P-GPS,
0.350607236606783,36.8971778857622,17300,2018-04-17 05:21:57,1778.9756428272322,13.000000416,0.0,11.928100381699199,1778.9756428272322,13.000000416,20.195983279956,11.985900383548799,1302,-26.1,99,P-GPS,
0.350607238925687,36.89717785367,17400,2018-04-17 05:21:57,1779.175642833632,13.2000004224,0.0,11.9261003816352,1779.175642833632,13.2000004224,20.195983279956,11.985900383548799,1303,-26.1,99,P-GPS,
0.350607253431867,36.8971778333758,17500,2018-04-17 05:21:57,1779.3756428400322,13.4000004288,0.0,11.925900381628802,1779.3756428400322,13.4000004288,20.195983279956,11.985900383548799,1310,-26.1,99,P-GPS,
0.350607272328331,36.8971778044097,17600,2018-04-17 05:21:57,1779.4756428432322,13.500000432,0.0,11.925500381616002,1779.4756428432322,13.500000432,20.195983279956,11.985900383548799,1310,-26.1,99,P-GPS,
0.350607291400667,36.8971777653158,17700,2018-04-17 05:21:57,1779.6756428496324,13.7000004384,0.0,11.9244003815808,1779.6756428496324,13.7000004384,20.195983279956,11.985900383548799,1317,-26.1,99,P-GPS,
0.350607307821896,36.8971777097175,17800,2018-04-17 05:21:57,1779.7756428528323,13.800000441600002,0.0,11.9219003815008,1779.7756428528323,13.800000441600002,20.195983279956,11.985900383548799,1317,-26.1,99,P-GPS,
0.35060734148509,36.8971776448265,17900,2018-04-17 05:21:57,1779.9756428592323,14.000000448,0.0,11.9202003814464,1779.9756428592323,14.000000448,20.195983279956,11.985900383548799,1308,-26.1,99,P-GPS,
0.350607374066998,36.8971775722443,18000,2018-04-17 05:21:58,1780.1756428656322,14.2000004544,0.0,11.918000381376,1780.1756428656322,14.2000004544,20.195983279956,11.985900383548799,1301,-26.1,99,P-GPS,
0.35060741500608,36.8971774779846,18100,2018-04-17 05:21:58,1780.3756428720324,14.400000460800001,0.0,11.9149003812768,1780.3756428720324,14.400000460800001,20.195983279956,11.985900383548799,1301,-26.1,99,P-GPS,
0.350607436468972,36.8971773911378,18200,2018-04-17 05:21:58,1780.4756428752323,14.500000464000001,0.0,11.9107003811424,1780.4756428752323,14.500000464000001,20.195983279956,11.985900383548799,1301,-26.1,99,P-GPS,
0.350607444526513,36.8971773371454,18300,2018-04-17 05:21:58,1780.675642881632,14.7000004704,0.0,11.907600381043201,1780.675642881632,14.7000004704,20.195983279956,11.985900383548799,1295,-26.1,99,P-GPS,
0.350607444767522,36.8971772931524,18400,2018-04-17 05:21:58,1780.7756428848325,14.8000004736,0.0,11.904600380947201,1780.7756428848325,14.8000004736,20.195983279956,11.985900383548799,1302,-26.1,99,P-GPS,
0.35060740603661,36.8971772247284,18500,2018-04-17 05:21:58,1780.9756428912322,15.00000048,0.0,11.8964003806848,1780.9756428912322,15.00000048,20.195983279956,11.985900383548799,1303,-26.1,99,P-GPS,
0.350607357450355,36.8971771514396,18600,2018-04-17 05:21:58,1781.0756428944321,15.1000004832,0.0,11.887100380387201,1781.0756428944321,15.1000004832,20.195983279956,11.985900383548799,1302,-26.1,99,P-GPS,
0.350607335283976,36.8971770795083,18700,2018-04-17 05:21:58,1781.2756429008323,15.3000004896,0.0,11.880200380166402,1781.2756429008323,15.3000004896,20.195983279956,11.985900383548799,1318,-26.1,99,P-GPS,
0.3506073154365,36.8971770165487,18800,2018-04-17 05:21:58,1781.4756429072324,15.500000496,0.0,11.874000379968,1781.4756429072324,15.500000496,20.195983279956,11.985900383548799,1291,-26.1,99,P-GPS,
0.350607273904665,36.897177027533,18900,2018-04-17 05:21:59,1781.5756429104324,15.6000004992,0.0,11.8712003798784,1781.5756429104324,15.6000004992,20.195983279956,11.985900383548799,1282,-26.1,99,P-GPS,
0.350607227904378,36.8971770380163,19000,2018-04-17 05:21:59,1781.775642916832,15.8000005056,0.0,11.868000379776,1781.775642916832,15.8000005056,20.195983279956,11.985900383548799,1294,-26.1,99,P-GPS,
0.350607204865153,36.8971770460244,19100,2018-04-17 05:21:59,1781.9756429232323,16.000000512,0.0,11.866500379728002,1781.9756429232323,16.000000512,20.195983279956,11.985900383548799,1291,-26.1,99,P-GPS,
0.35060717701876,36.8971770275159,19200,2018-04-17 05:21:59,1782.0756429264322,16.1000005152,0.0,11.862800379609602,1782.0756429264322,16.1000005152,20.195983279956,11.985900383548799,1286,-26.1,99,P-GPS,
0.350607142951712,36.8971770299654,19300,2018-04-17 05:21:59,1782.2756429328324,16.3000005216,0.0,11.8601003795232,1782.2756429328324,16.3000005216,20.195983279956,11.985900383548799,1256,-26.1,99,P-GPS,
0.350607107581908,36.8971770288391,19400,2018-04-17 05:21:59,1782.4756429392323,16.500000528,0.0,11.8569003794208,1782.4756429392323,16.500000528,20.195983279956,11.985900383548799,1262,-26.1,99,P-GPS,
0.350607098892531,36.8971770519597,19500,2018-04-17 05:21:59,1782.575642942432,16.600000531200003,0.0,11.8578003794496,1782.575642942432,16.600000531200003,20.195983279956,11.985900383548799,1299,-26.1,99,P-GPS,
0.350607086268833,36.8971770651452,19600,2018-04-17 05:21:59,1782.6756429456323,16.7000005344,0.0,11.8576003794432,1782.6756429456323,16.7000005344,20.195983279956,11.985900383548799,1336,-26.1,99,P-GPS,
0.350607093844355,36.8971770969077,19700,2018-04-17 05:21:59,1782.7756429488322,16.800000537600003,0.0,11.860500379536,1782.7756429488322,16.800000537600003,20.195983279956,11.985900383548799,1356,-26.1,99,P-GPS,
0.350607097687483,36.89717712527,19800,2018-04-17 05:21:59,1782.9756429552322,17.000000544,0.0,11.862800379609602,1782.9756429552322,17.000000544,20.195983279956,11.985900383548799,1370,-26.1,99,P-GPS,
0.350607095166651,36.8971771677855,19900,2018-04-17 05:22:00,1783.0756429584324,17.1000005472,0.0,11.865600379699199,1783.0756429584324,17.1000005472,20.195983279956,11.985900383548799,1390,-26.1,99,P-GPS,
0.350607087480396,36.8971772010083,20000,2018-04-17 05:22:00,1783.2756429648323,17.3000005536,0.0,11.867200379750402,1783.2756429648323,17.3000005536,20.195983279956,11.985900383548799,1415,-26.1,99,P-GPS,
0.350607093824814,36.8971772259875,20100,2018-04-17 05:22:00,1783.4756429712322,17.50000056,0.0,11.869500379824002,1783.4756429712322,17.50000056,20.195983279956,11.985900383548799,1443,-26.1,99,P-GPS,
0.350607099993359,36.8971772381066,20200,2018-04-17 05:22:00,1783.6756429776322,17.7000005664,0.0,11.870900379868802,1783.6756429776322,17.7000005664,20.195983279956,11.985900383548799,1459,-26.1,99,P-GPS,
0.350607142456665,36.8971772352931,20300,2018-04-17 05:22:00,1783.9756429872323,18.000000576,0.0,11.874400379980802,1783.9756429872323,18.000000576,20.195983279956,11.985900383548799,1459,-26.1,99,P-GPS,
0.350607178634177,36.8971772323682,20400,2018-04-17 05:22:00,1784.2756429968324,18.3000005856,0.0,11.877300380073601,1784.2756429968324,18.3000005856,20.195983279956,11.985900383548799,1459,-26.1,99,P-GPS,
0.350607212316912,36.8971772258204,20500,2018-04-17 05:22:00,1784.475643003232,18.500000592000003,0.0,11.879700380150402,1784.475643003232,18.500000592000003,20.195983279956,11.985900383548799,1459,-26.1,99,P-GPS,
0.350607236255039,36.8971772156755,20600,2018-04-17 05:22:00,1784.7756430128322,18.8000006016,0.0,11.881100380195202,1784.7756430128322,18.8000006016,20.195983279956,11.985900383548799,1463,-26.1,99,P-GPS,
0.350607301646836,36.8971771942678,20700,2018-04-17 05:22:00,1785.0756430224324,19.1000006112,0.0,11.885300380329602,1785.0756430224324,19.1000006112,20.195983279956,11.985900383548799,1479,-26.1,99,P-GPS,
0.350607362674404,36.8971771676442,20800,2018-04-17 05:22:00,1785.275643028832,19.300000617600002,0.0,11.8887003804384,1785.275643028832,19.300000617600002,20.195983279956,11.985900383548799,1508,-26.1,99,P-GPS,
0.350607399555403,36.89717718044,20900,2018-04-17 05:22:01,1785.5756430384322,19.6000006272,0.0,11.8928003805696,1785.5756430384322,19.6000006272,20.195983279956,11.985900383548799,1535,-26.1,99,P-GPS,
0.350607397177875,36.8971772054748,21000,2018-04-17 05:22:01,1785.8756430480323,19.900000636799998,0.0,11.8943003806176,1785.8756430480323,19.900000636799998,20.195983279956,11.985900383548799,1548,-26.1,99,P-GPS,
0.350607351796398,36.8971772560113,21100,2018-04-17 05:22:01,1786.1756430576322,20.200000646400003,0.0,11.893900380604801,1786.1756430576322,20.200000646400003,20.195983279956,11.985900383548799,1586,-26.1,99,P-GPS,
0.350607299692704,36.8971773244053,21200,2018-04-17 05:22:01,1786.5756430704323,20.6000006592,0.0,11.8942003806144,1786.5756430704323,20.6000006592,20.195983279956,11.985900383548799,1608,-26.1,99,P-GPS,
0.350607249933969,36.897177446462,21300,2018-04-17 05:22:01,1786.8756430800324,20.900000668800004,0.0,11.8984003807488,1786.8756430800324,20.900000668800004,20.195983279956,11.985900383548799,1611,-26.1,99,P-GPS,
0.350607191381636,36.8971775666429,21400,2018-04-17 05:22:01,1787.2756430928323,21.3000006816,0.0,11.901800380857601,1787.2756430928323,21.3000006816,20.195983279956,11.985900383548799,1608,-26.1,99,P-GPS,
0.350607090398567,36.8971777226418,21500,2018-04-17 05:22:01,1787.6756431056324,21.7000006944,0.0,11.904100380931201,1787.6756431056324,21.7000006944,20.195983279956,11.985900383548799,1616,-26.1,99,P-GPS,
0.350606985604939,36.897177866453,21600,2018-04-17 05:22:01,1788.0756431184323,22.1000007072,0.0,11.9052003809664,1788.0756431184323,22.1000007072,20.195983279956,11.985900383548799,1622,-26.1,99,P-GPS,
0.350606891389683,36.8971779918799,21700,2018-04-17 05:22:01,1788.4756431312323,22.50000072,0.0,11.9059003809888,1788.4756431312323,22.50000072,20.195983279956,11.985900383548799,1656,-26.1,99,P-GPS,
0.35060669376172,36.8971781523024,21900,2018-04-17 05:22:01,1789.3756431600323,23.4000007488,0.0,11.9003003808096,1789.3756431600323,23.4000007488,20.195983279956,11.985900383548799,1684,-26.1,99,P-GPS,
0.350606581894131,36.8971782117805,22000,2018-04-17 05:22:02,1789.7756431728321,23.8000007616,0.0,11.8949003806368,1789.7756431728321,23.8000007616,20.195983279956,11.985900383548799,1684,-26.1,99,P-GPS,
0.350606508106077,36.8971782569426,22100,2018-04-17 05:22:02,1790.2756431888322,24.3000007776,0.0,11.891800380537601,1790.2756431888322,24.3000007776,20.195983279956,11.985900383548799,1684,-26.1,99,P-GPS,
0.350606462991664,36.8971783085282,22200,2018-04-17 05:22:02,1790.7756432048322,24.800000793600002,0.0,11.891600380531202,1790.7756432048322,24.800000793600002,20.195983279956,11.985900383548799,1684,-26.1,99,P-GPS,
0.350606411910633,36.8971783983642,22300,2018-04-17 05:22:02,1791.1756432176323,25.2000008064,0.0,11.8936003805952,1791.1756432176323,25.2000008064,20.195983279956,11.985900383548799,1684,-26.1,99,P-GPS,
0.350606338962856,36.8971784917802,22400,2018-04-17 05:22:02,1791.6756432336322,25.7000008224,0.0,11.894000380608,1791.6756432336322,25.7000008224,20.195983279956,11.985900383548799,1684,-26.1,99,P-GPS,
0.350606229140592,36.8971785973839,22500,2018-04-17 05:22:02,1792.1756432496322,26.200000838400005,0.0,11.8921003805472,1792.1756432496322,26.200000838400005,20.195983279956,11.985900383548799,1684,-26.1,99,P-GPS,
0.350606116204744,36.8971786878537,22600,2018-04-17 05:22:02,1792.7756432688323,26.8000008576,0.0,11.889000380448001,1792.7756432688323,26.8000008576,20.195983279956,11.985900383548799,1684,-26.1,99,P-GPS,
0.350606016504889,36.897178785141,22700,2018-04-17 05:22:02,1793.275643284832,27.3000008736,0.0,11.887400380396802,1793.275643284832,27.3000008736,20.195983279956,11.985900383548799,1684,-26.1,99,P-GPS,
0.350605915065856,36.8971788654743,22800,2018-04-17 05:22:02,1793.7756433008324,27.8000008896,0.0,11.884500380304,1793.7756433008324,27.8000008896,20.195983279956,11.985900383548799,1684,-26.1,99,P-GPS,
0.350605777963899,36.8971789629115,22900,2018-04-17 05:22:03,1794.2756433168322,28.300000905600005,0.0,11.879900380156801,1794.2756433168322,28.300000905600005,20.195983279956,11.985900383548799,1684,-26.1,99,P-GPS,
0.350605643969013,36.897179055895,23000,2018-04-17 05:22:03,1794.7756433328323,28.800000921600002,0.0,11.875200380006401,1794.7756433328323,28.800000921600002,20.195983279956,11.985900383548799,1684,-26.1,99,P-GPS,
0.350605531052706,36.897179177168,23100,2018-04-17 05:22:03,1795.2756433488323,29.300000937600004,0.0,11.874300379977601,1795.2756433488323,29.300000937600004,20.195983279956,11.985900383548799,1684,-26.1,98,P-GPS,
0.350605436967726,36.8971792935505,23200,2018-04-17 05:22:03,1795.7756433648324,29.8000009536,0.0,11.8747003799904,1795.7756433648324,29.8000009536,20.195983279956,11.985900383548799,1684,-26.1,98,P-GPS,
0.350605354236257,36.8971794335889,23300,2018-04-17 05:22:03,1796.2756433808322,30.300000969600003,0.0,11.877800380089601,1796.2756433808322,30.300000969600003,20.195983279956,11.985900383548799,1684,-26.1,98,P-GPS,
0.35060526622863,36.8971795719528,23400,2018-04-17 05:22:03,1796.8756434000322,30.900000988800002,0.0,11.880400380172802,1796.8756434000322,30.900000988800002,20.195983279956,11.985900383548799,1684,-26.1,98,P-GPS,
0.35060516357152,36.8971797217851,23500,2018-04-17 05:22:03,1797.3756434160323,31.400001004800004,0.0,11.8826003802432,1797.3756434160323,31.400001004800004,20.195983279956,11.985900383548799,1684,-26.1,98,P-GPS,
0.35060506267313,36.8971798684526,23600,2018-04-17 05:22:03,1797.8756434320321,31.9000010208,0.0,11.884800380313601,1797.8756434320321,31.9000010208,20.195983279956,11.985900383548799,1684,-26.1,98,P-GPS,
0.350604965539702,36.8971800585992,23700,2018-04-17 05:22:03,1798.3756434480324,32.4000010368,0.0,11.890400380492801,1798.3756434480324,32.4000010368,20.195983279956,11.985900383548799,1684,-26.1,98,P-GPS,
0.350604879355932,36.8971802203793,23800,2018-04-17 05:22:03,1798.8756434640322,32.9000010528,0.0,11.89500038064,1798.8756434640322,32.9000010528,20.195983279956,11.985900383548799,1684,-26.1,98,P-GPS,
0.35060482075149,36.8971803728409,23900,2018-04-17 05:22:03,1799.375643480032,33.4000010688,0.0,11.9012003808384,1799.375643480032,33.4000010688,20.195983279956,11.985900383548799,1684,-26.1,98,P-GPS,
0.350604767260361,36.8971804890992,24000,2018-04-17 05:22:04,1799.8756434960324,33.9000010848,0.0,11.9052003809664,1799.8756434960324,33.9000010848,20.195983279956,11.985900383548799,1684,-26.1,98,P-GPS,
0.350604711613173,36.8971805853973,24100,2018-04-17 05:22:04,1800.3756435120322,34.4000011008,0.0,11.907600381043201,1800.3756435120322,34.4000011008,20.195983279956,11.985900383548799,1684,-26.1,98,P-GPS,
0.350604658682229,36.8971806583992,24200,2018-04-17 05:22:04,1800.8756435280322,34.900001116800006,0.0,11.908500381072,1800.8756435280322,34.900001116800006,20.195983279956,11.985900383548799,1684,-26.1,98,P-GPS,
0.350604609040743,36.8971807789398,24400,2018-04-17 05:22:04,1801.9756435632323,36.000001152,0.0,11.913200381222401,1801.9756435632323,36.000001152,20.195983279956,11.985900383548799,1684,-26.1,98,P-GPS,
0.350604601419625,36.8971808375015,24500,2018-04-17 05:22:04,1802.4756435792322,36.500001168000004,0.0,11.9169003813408,1802.4756435792322,36.500001168000004,20.195983279956,11.985900383548799,1684,-26.1,98,P-GPS,
0.350604601126505,36.8971808813874,24600,2018-04-17 05:22:04,1802.9756435952324,37.000001184000006,0.0,11.9201003814432,1802.9756435952324,37.000001184000006,20.195983279956,11.985900383548799,1684,-26.1,98,P-GPS,
0.350604629285558,36.8971809208411,24700,2018-04-17 05:22:04,1803.4756436112323,37.5000012,0.0,11.925300381609599,1803.4756436112323,37.5000012,20.195983279956,11.985900383548799,1684,-26.1,98,P-GPS,
0.350604665215547,36.8971809450751,24800,2018-04-17 05:22:04,1803.975643627232,38.000001216,0.0,11.930100381763202,1803.975643627232,38.000001216,20.195983279956,11.985900383548799,1684,-26.1,98,P-GPS,
0.35060469989489,36.8971809972175,24900,2018-04-17 05:22:04,1804.4756436432324,38.500001232,0.0,11.936800381977601,1804.4756436432324,38.500001232,20.195983279956,11.985900383548799,1684,-26.1,98,P-GPS,
0.350604725435406,36.8971810343201,25000,2018-04-17 05:22:05,1804.9756436592322,39.000001248000004,0.0,11.941700382134401,1804.9756436592322,39.000001248000004,20.195983279956,11.985900383548799,1684,-26.1,98,P-GPS,
0.350604765814303,36.8971810635645,25100,2018-04-17 05:22:05,1805.4756436752323,39.500001264,0.0,11.9472003823104,1805.4756436752323,39.500001264,20.195983279956,11.985900383548799,1684,-26.1,98,P-GPS,
0.350604801959246,36.8971810806084,25200,2018-04-17 05:22:05,1805.975643691232,40.00000128,0.0,11.951500382448002,1805.975643691232,40.00000128,20.195983279956,11.985900383548799,1684,-26.1,98,P-GPS,
0.350604849692196,36.8971811159467,25300,2018-04-17 05:22:05,1806.4756437072324,40.500001296,0.0,11.9581003826592,1806.4756437072324,40.500001296,20.195983279956,11.985900383548799,1684,-26.1,98,P-GPS,
0.350604896786797,36.8971811252695,25400,2018-04-17 05:22:05,1806.9756437232322,41.000001312,0.0,11.9627003828064,1806.9756437232322,41.000001312,20.195983279956,11.985900383548799,1684,-26.1,98,P-GPS,
0.35060493474257,36.8971811486342,25500,2018-04-17 05:22:05,1807.475643739232,41.500001328,0.0,11.9676003829632,1807.475643739232,41.500001328,20.195983279956,11.985900383548799,1684,-26.1,98,P-GPS,
0.350604967923744,36.8971811506041,25600,2018-04-17 05:22:05,1807.9756437552323,42.000001344,0.0,11.970500383056,1807.9756437552323,42.000001344,20.195983279956,11.985900383548799,1684,-26.1,98,P-GPS,
0.350605017591286,36.8971811563168,25700,2018-04-17 05:22:05,1808.4756437712322,42.50000136,0.0,11.9751003832032,1808.4756437712322,42.50000136,20.195983279956,11.985900383548799,1684,-26.1,98,P-GPS,
0.350605066014697,36.8971811452126,25800,2018-04-17 05:22:05,1809.0756437904324,43.1000013792,0.0,11.9783003833056,1809.0756437904324,43.1000013792,20.195983279956,11.985900383548799,1684,-26.5,98,P-GPS,
0.350605122658493,36.8971811178395,25900,2018-04-17 05:22:05,1809.5756438064323,43.6000013952,0.0,11.981000383392,1809.5756438064323,43.6000013952,20.195983279956,11.985900383548799,1684,-27.5,98,P-GPS,
0.350605173622276,36.897181079949,26000,2018-04-17 05:22:06,1810.075643822432,44.100001411200004,0.0,11.98250038344,1810.075643822432,44.100001411200004,20.195983279956,11.985900383548799,1684,-28.6,98,P-GPS,
0.350605218072284,36.8971810644424,26100,2018-04-17 05:22:06,1810.5756438384324,44.600001427200006,0.0,11.9851003835232,1810.5756438384324,44.600001427200006,20.195983279956,11.985900383548799,1684,-28.9,98,P-GPS,
0.350605255207321,36.8971810451802,26200,2018-04-17 05:22:06,1811.0756438544322,45.1000014432,0.0,11.986800383577602,1811.0756438544322,45.1000014432,20.195983279956,11.986800383577602,1684,-28.9,98,P-GPS,
0.35060530286862,36.897181006339,26300,2018-04-17 05:22:06,1811.5756438704323,45.6000014592,0.0,11.9879003836128,1811.5756438704323,45.6000014592,20.195983279956,11.9879003836128,1684,-28.9,98,P-GPS,
0.350605337287412,36.8971809529804,26400,2018-04-17 05:22:06,1812.075643886432,46.1000014752,0.0,11.9869003835808,1812.075643886432,46.1000014752,20.195983279956,11.9879003836128,1684,-28.9,98,P-GPS,
0.350605374357311,36.8971809248151,26500,2018-04-17 05:22:06,1812.5756439024324,46.600001491200004,0.0,11.9879003836128,1812.5756439024324,46.600001491200004,20.195983279956,11.9879003836128,1684,-28.9,98,P-GPS,
0.350605400692507,36.8971808990994,26600,2018-04-17 05:22:06,1813.0756439184322,47.100001507200005,0.0,11.9883003836256,1813.0756439184322,47.100001507200005,20.195983279956,11.9883003836256,1684,-28.9,98,P-GPS,
0.350605429607159,36.8971809004012,26700,2018-04-17 05:22:06,1813.5756439344323,47.6000015232,0.0,11.990800383705599,1813.5756439344323,47.6000015232,20.195983279956,11.990800383705599,1684,-28.9,98,P-GPS,
0.350605442804069,36.8971808784925,26800,2018-04-17 05:22:06,1814.0756439504323,48.1000015392,0.0,11.990300383689602,1814.0756439504323,48.1000015392,20.195983279956,11.990800383705599,1684,-27.5,98,P-GPS,
0.350605454203177,36.8971808330093,26900,2018-04-17 05:22:07,1814.5756439664322,48.6000015552,0.0,11.9879003836128,1814.5756439664322,48.6000015552,20.195983279956,11.990800383705599,1684,-22.3,98,P-GPS,
0.350605458215663,36.8971807703194,27000,2018-04-17 05:22:07,1815.0756439824322,49.1000015712,0.35999970196000003,11.9837003834784,1815.0756439824322,49.1000015712,20.195983279956,11.990800383705599,1684,-18.8,98,P-GPS,
0.350605490126652,36.8971807071113,27100,2018-04-17 05:22:07,1815.5756439984323,49.600001587200005,0.35999970196000003,11.9817003834144,1815.5756439984323,49.600001587200005,20.195983279956,11.990800383705599,1684,-18.8,98,P-GPS,
0.350605528753343,36.8971806410212,27200,2018-04-17 05:22:07,1816.0756440144323,50.1000016032,0.0,11.9802003833664,1816.0756440144323,50.1000016032,20.195983279956,11.990800383705599,1684,-18.8,98,P-GPS,
0.350605576303908,36.8971805871573,27300,2018-04-17 05:22:07,1816.5756440304322,50.6000016192,0.0,11.9802003833664,1816.5756440304322,50.6000016192,20.195983279956,11.990800383705599,1684,-18.8,98,P-GPS,
0.35060562341805,36.8971805300089,27400,2018-04-17 05:22:07,1817.0756440464322,51.1000016352,0.0,11.98000038336,1817.0756440464322,51.1000016352,20.195983279956,11.990800383705599,1684,-18.8,98,P-GPS,
0.350605689383059,36.8971804807528,27500,2018-04-17 05:22:07,1817.6756440656322,51.700001654400005,0.0,11.982000383424,1817.6756440656322,51.700001654400005,20.195983279956,11.990800383705599,1684,-18.8,98,P-GPS,
0.350605752143291,36.8971804253473,27600,2018-04-17 05:22:07,1818.175644081632,52.200001670400006,0.0,11.9833003834656,1818.175644081632,52.200001670400006,20.195983279956,11.990800383705599,1684,-18.8,98,P-GPS,
0.350605822928494,36.8971803832985,27700,2018-04-17 05:22:07,1818.6756440976324,52.70000168640001,0.0,11.9862003835584,1818.6756440976324,52.70000168640001,20.195983279956,11.990800383705599,1684,-18.8,98,P-GPS,
0.350605888457081,36.8971803354257,27800,2018-04-17 05:22:07,1819.1756441136322,53.2000017024,0.0,11.988200383622402,1819.1756441136322,53.2000017024,20.195983279956,11.990800383705599,1684,-18.8,98,P-GPS,
0.350605927031662,36.897180298246,27900,2018-04-17 05:22:07,1819.6756441296322,53.7000017184,0.0,11.9888003836416,1819.6756441296322,53.7000017184,20.195983279956,11.990800383705599,1684,-18.9,98,P-GPS,
0.350605954676127,36.8971802546042,28000,2018-04-17 05:22:08,1820.2756441488323,54.3000017376,0.0,11.9879003836128,1820.2756441488323,54.3000017376,20.195983279956,11.990800383705599,1684,-19.2,98,P-GPS,
0.350606009287625,36.8971802187734,28100,2018-04-17 05:22:08,1820.775644164832,54.8000017536,0.0,11.990000383680002,1820.775644164832,54.8000017536,20.195983279956,11.990800383705599,1684,-19.5,98,P-GPS,
0.350606065573164,36.8971801812725,28200,2018-04-17 05:22:08,1821.2756441808322,55.3000017696,0.0,11.992000383744,1821.2756441808322,55.3000017696,20.195983279956,11.992000383744,1684,-19.6,98,P-GPS,
0.350606091576157,36.8971801511331,28300,2018-04-17 05:22:08,1821.7756441968322,55.8000017856,0.0,11.992000383744,1821.7756441968322,55.8000017856,20.195983279956,11.992000383744,1684,-19.6,98,P-GPS,
0.350606103633157,36.8971801184927,28400,2018-04-17 05:22:08,1822.2756442128323,56.3000018016,0.0,11.990700383702402,1822.2756442128323,56.3000018016,20.195983279956,11.992000383744,1684,-19.6,98,P-GPS,
0.350606124008248,36.8971801224368,28600,2018-04-17 05:22:08,1823.3756442480324,57.4000018368,0.0,11.992700383766401,1823.3756442480324,57.4000018368,20.195983279956,11.992700383766401,1684,-19.6,98,P-GPS,
0.350606149021148,36.8971801527946,28700,2018-04-17 05:22:08,1823.8756442640322,57.9000018528,0.0,11.997000383904002,1823.8756442640322,57.9000018528,20.195983279956,11.997000383904002,1684,-19.6,98,P-GPS,
0.35060617013881,36.8971801746819,28800,2018-04-17 05:22:08,1824.3756442800325,58.400001868800004,0.0,12.000400384012801,1824.3756442800325,58.400001868800004,20.195983279956,12.000400384012801,1684,-19.6,98,P-GPS,
0.35060621683607,36.897180205635,28900,2018-04-17 05:22:09,1824.8756442960323,58.900001884800005,0.0,12.006500384208001,1824.8756442960323,58.900001884800005,20.195983279956,12.006500384208001,1684,-19.6,98,P-GPS,
0.350606266731594,36.8971802299719,29000,2018-04-17 05:22:09,1825.3756443120321,59.40000190080001,0.0,12.012500384400001,1825.3756443120321,59.40000190080001,20.195983279956,12.012500384400001,1684,-19.6,98,P-GPS,
0.350606342350019,36.8971802530968,29100,2018-04-17 05:22:09,1825.8756443280322,59.9000019168,0.0,12.0206003846592,1825.8756443280322,59.9000019168,20.195983279956,12.0206003846592,1684,-19.6,98,P-GPS,
0.350606413890821,36.8971802593062,29200,2018-04-17 05:22:09,1826.3756443440323,60.4000019328,0.0,12.0271003848672,1826.3756443440323,60.4000019328,20.195983279956,12.0271003848672,1684,-19.6,98,P-GPS,
0.350606496407335,36.8971802895142,29300,2018-04-17 05:22:09,1826.8756443600323,60.9000019488,0.0,12.0362003851584,1826.8756443600323,60.9000019488,20.195983279956,12.0362003851584,1684,-19.6,98,P-GPS,
0.350606558105821,36.8971803008839,29400,2018-04-17 05:22:09,1827.3756443760321,61.400001964800005,0.0,12.0423003853536,1827.3756443760321,61.400001964800005,20.195983279956,12.0423003853536,1684,-19.6,98,P-GPS,
0.350606607792904,36.8971803065196,29500,2018-04-17 05:22:09,1827.8756443920324,61.900001980800006,0.0,12.0469003855008,1827.8756443920324,61.900001980800006,20.195983279956,12.0469003855008,1684,-19.6,98,P-GPS,
