latitude,longitude,time_millisecond,datetime_utc,altitude_m,ascent_m,speed_kph,distance_m,max_altitude_m,max_ascent_m,max_speed_kph,max_distance_m,rc_throttle,gimbal_pitch_degrees,battery_percent,flycState,message
0.364685964670322,36.9257815025477,0,2018-04-03 07:22:04,1628.4055697089816,0.0,0.0,0.0,1628.4055697089816,0.0,0.0,0.0,1024,0.0,99,Motors_Started,
0.364685962320478,36.9257815199911,100,2018-04-03 07:22:04,1628.4055697089816,0.0,0.0,0.00195729006263328,1628.4055697089816,0.0,0.0,0.00195729006263328,364,0.0,99,Motors_Started,
0.364685984572351,36.9257815277172,200,2018-04-03 07:22:04,1628.4055697089816,0.0,0.0,0.0035682601141843206,1628.4055697089816,0.0,0.0,0.0035682601141843206,364,0.0,99,Motors_Started,
0.364686010049764,36.9257815357057,300,2018-04-03 07:22:04,1628.4055697089816,0.0,0.0,0.00625004020000128,1628.4055697089816,0.0,0.0,0.00625004020000128,364,0.0,99,Motors_Started,Setting new Return-To-Home altitude to 30m (98 ft). Setting new Maximum Flight Altitude to 150m (492 ft)
0.364686027468415,36.9257815338369,400,2018-04-03 07:22:04,1628.4055697089816,0.0,0.0,0.00780234024967488,1628.4055697089816,0.0,0.0,0.00780234024967488,364,0.0,99,Motors_Started,
0.364686042443994,36.925781535419,500,2018-04-03 07:22:04,1628.4055697089816,0.0,0.0,0.009389660300469121,1628.4055697089816,0.0,0.0,0.009389660300469121,364,0.0,99,Motors_Started,
0.364686047792211,36.9257815289688,600,2018-04-03 07:22:04,1628.4055697089816,0.0,0.0,0.00969937031037984,1628.4055697089816,0.0,0.0,0.00969937031037984,364,0.0,99,Motors_Started,
0.364686054795741,36.9257815267678,700,2018-04-03 07:22:04,1628.4055697089816,0.0,0.0,0.0103781003320992,1628.4055697089816,0.0,0.0,0.0103781003320992,364,0.0,99,Motors_Started,
0.364686052569251,36.9257815520284,800,2018-04-03 07:22:05,1628.4055697089816,0.0,0.0,0.0112172003589504,1628.4055697089816,0.0,0.0,0.0112172003589504,364,0.0,99,Motors_Started,
0.364686053963606,36.9257815783748,900,2018-04-03 07:22:05,1628.4055697089816,0.0,0.0,0.0130272004168704,1628.4055697089816,0.0,0.0,0.0130272004168704,364,0.0,99,Motors_Started,
0.364686080333814,36.9257815980836,1000,2018-04-03 07:22:05,1628.4055697089816,0.0,0.0,0.016682700533846403,1628.4055697089816,0.0,0.0,0.016682700533846403,364,0.0,99,Motors_Started,
0.36468610879128,36.9257816106875,1100,2018-04-03 07:22:05,1628.4055697089816,0.0,0.0,0.020037000641183998,1628.4055697089816,0.0,0.0,0.020037000641183998,364,0.0,99,Motors_Started,
0.364686129925633,36.9257816176803,1200,2018-04-03 07:22:05,1628.4055697089816,0.0,0.0,0.022397600716723202,1628.4055697089816,0.0,0.0,0.022397600716723202,364,0.0,99,Motors_Started,
0.364686146432356,36.9257816241688,1300,2018-04-03 07:22:05,1628.4055697089816,0.0,0.0,0.024320500778256,1628.4055697089816,0.0,0.0,0.024320500778256,366,0.0,99,Motors_Started,
0.36468615083689,36.9257816547907,1400,2018-04-03 07:22:05,1628.4055697089816,0.0,0.0,0.026743900855804803,1628.4055697089816,0.0,0.0,0.026743900855804803,719,0.0,99,Motors_Started,
0.364686157593711,36.9257816861005,1500,2018-04-03 07:22:05,1628.4055697089816,0.0,0.0,0.029612900947612802,1628.4055697089816,0.0,0.0,0.029612900947612802,1024,0.0,99,Assisted_Takeoff,
0.364686162272638,36.9257817394759,1600,2018-04-03 07:22:05,1628.4055697089816,0.0,0.0,0.034308401097868806,1628.4055697089816,0.0,0.0,0.034308401097868806,1024,0.0,99,Assisted_Takeoff,
0.364686166750859,36.9257818010305,1700,2018-04-03 07:22:05,1628.4055697089816,0.0,0.0,0.0400844012827008,1628.4055697089816,0.0,0.0,0.0400844012827008,1024,0.0,99,Assisted_Takeoff,
0.364686192139115,36.925781855552,1800,2018-04-03 07:22:06,1628.4055697089816,0.0,0.0,0.0466998014943936,1628.4055697089816,0.0,0.0,0.0466998014943936,1024,0.0,99,Assisted_Takeoff,
0.364686223262751,36.9257819148995,1900,2018-04-03 07:22:06,1628.4055697089816,0.0,0.0,0.0541263017320416,1628.4055697089816,0.0,0.0,0.0541263017320416,1024,0.0,99,Assisted_Takeoff,
0.364686240939918,36.9257819845395,2000,2018-04-03 07:22:06,1628.4055697089816,0.0,0.0,0.0617801019769632,1628.4055697089816,0.0,0.0,0.0617801019769632,1024,0.0,99,Assisted_Takeoff,
0.364686256713026,36.9257820457138,2100,2018-04-03 07:22:06,1628.4055697089816,0.0,0.0,0.06857970219455041,1628.4055697089816,0.0,0.0,0.06857970219455041,1024,0.0,99,Assisted_Takeoff,
0.364686262125567,36.9257821156722,2200,2018-04-03 07:22:06,1628.4055697089816,0.0,0.0,0.0757824024250368,1628.4055697089816,0.0,0.0,0.0757824024250368,1024,0.0,99,Assisted_Takeoff,
0.364686270141583,36.9257821765617,2300,2018-04-03 07:22:06,1628.4055697089816,0.0,0.0,0.08229170263333441,1628.4055697089816,0.0,0.0,0.08229170263333441,1024,0.0,99,Assisted_Takeoff,
0.364686298506227,36.9257822429015,2400,2018-04-03 07:22:06,1628.4055697089816,0.0,0.0,0.0903133028900256,1628.4055697089816,0.0,0.0,0.0903133028900256,1024,0.0,99,Assisted_Takeoff,
0.364686331203754,36.9257823020622,2500,2018-04-03 07:22:06,1628.4055697089816,0.0,0.0,0.0978073031298336,1628.4055697089816,0.0,0.0,0.0978073031298336,1025,0.0,99,Assisted_Takeoff,
0.364686352639777,36.9257823635109,2600,2018-04-03 07:22:06,1628.4055697089816,0.0,0.0,0.10501500336048,1628.4055697089816,0.0,0.0,0.10501500336048,1071,0.0,99,Assisted_Takeoff,
0.36468637197185,36.9257824200181,2700,2018-04-03 07:22:06,1628.4055697089816,0.0,0.0,0.11162900357212802,1628.4055697089816,0.0,0.0,0.11162900357212802,1095,0.0,99,Assisted_Takeoff,
0.364686408652551,36.9257824767369,2800,2018-04-03 07:22:07,1628.4055697089816,0.0,0.0,0.11905400380972801,1628.4055697089816,0.0,0.0,0.11905400380972801,1100,0.0,99,Assisted_Takeoff,
0.364686447722586,36.9257825308973,2900,2018-04-03 07:22:07,1628.4055697089816,0.0,0.0,0.12634500404304,1628.4055697089816,0.0,0.0,0.12634500404304,1184,0.0,99,Assisted_Takeoff,
0.364686471565856,36.9257825859236,3000,2018-04-03 07:22:07,1628.4055697089816,0.0,0.0,0.133011004256352,1628.4055697089816,0.0,0.0,0.133011004256352,1241,0.0,99,Assisted_Takeoff,
0.364686493906072,36.9257826388763,3100,2018-04-03 07:22:07,1628.4055697089816,0.0,0.0,0.139398004460736,1628.4055697089816,0.0,0.0,0.139398004460736,1293,0.0,99,Assisted_Takeoff,
0.364686531485267,36.9257826920766,3200,2018-04-03 07:22:07,1628.4055697089816,0.0,0.0,0.146531004688992,1628.4055697089816,0.0,0.0,0.146531004688992,1424,0.0,99,Assisted_Takeoff,
0.364686567403449,36.925782743583,3300,2018-04-03 07:22:07,1628.4055697089816,0.0,0.0,0.153424004909568,1628.4055697089816,0.0,0.0,0.153424004909568,1578,0.0,99,Assisted_Takeoff,
0.364686530936482,36.9257828275561,3400,2018-04-03 07:22:07,1628.4055697089816,0.0,0.35999970196000003,0.16023800512761602,1628.4055697089816,0.0,0.35999970196000003,0.16023800512761602,1657,0.0,99,Assisted_Takeoff,
0.364686399653769,36.9257829435636,3500,2018-04-03 07:22:07,1628.4055697089816,0.0,0.7199994039200001,0.16738800535641601,1628.4055697089816,0.0,0.7199994039200001,0.16738800535641601,1684,0.0,99,Assisted_Takeoff,
0.364686174878016,36.9257830054153,3600,2018-04-03 07:22:07,1628.4055697089816,0.0,0.7199994039200001,0.168752005400064,1628.4055697089816,0.0,0.7199994039200001,0.168752005400064,1684,0.0,99,P-GPS,
0.364685925811578,36.9257829991174,3700,2018-04-03 07:22:07,1628.4055697089816,0.0,0.7919993443119999,0.16648000532736001,1628.4055697089816,0.0,0.7919993443119999,0.168752005400064,1684,0.0,99,P-GPS,
0.364685649715412,36.9257829683326,3800,2018-04-03 07:22:07,1628.5055697121816,0.1000000032,0.7919993443119999,0.166721005335072,1628.5055697121816,0.1000000032,0.7919993443119999,0.168752005400064,1684,0.0,99,P-GPS,
0.36468544209613,36.9257829156704,3900,2018-04-03 07:22:08,1628.6055697153813,0.2000000064,0.503999582744,0.16754600536147202,1628.6055697153813,0.2000000064,0.7919993443119999,0.168752005400064,1684,0.0,99,P-GPS,
0.36468528518863,36.9257828782116,4000,2018-04-03 07:22:08,1628.8055697217815,0.4000000128,0.35999970196000003,0.170623005459936,1628.8055697217815,0.4000000128,0.7919993443119999,0.170623005459936,1684,0.0,99,P-GPS,
0.364685198627875,36.9257828200998,4100,2018-04-03 07:22:08,1629.0055697281816,0.6000000192,0.35999970196000003,0.169482005423424,1629.0055697281816,0.6000000192,0.7919993443119999,0.170623005459936,1684,0.0,99,P-GPS,
0.364685229229595,36.9257826885475,4200,2018-04-03 07:22:08,1629.2055697345816,0.8000000256,0.35999970196000003,0.155188004966016,1629.2055697345816,0.8000000256,0.7919993443119999,0.170623005459936,1684,0.0,99,P-GPS,
0.364685295198675,36.9257825766445,4300,2018-04-03 07:22:08,1629.5055697441817,1.1000000352000001,0.0,0.140746004503872,1629.5055697441817,1.1000000352000001,0.7919993443119999,0.170623005459936,1684,0.0,99,P-GPS,
0.364685360337657,36.9257824931614,4400,2018-04-03 07:22:08,1629.9055697569815,1.5000000480000002,0.0,0.129042004129344,1629.9055697569815,1.5000000480000002,0.7919993443119999,0.170623005459936,1684,0.0,99,P-GPS,Home Point Recorded. RTH Altitude:  30m.
0.364685399480565,36.9257824424181,4500,2018-04-03 07:22:08,1630.3055697697816,1.9000000608000003,0.0,0.12196000390272,1630.3055697697816,1.9000000608000003,0.7919993443119999,0.170623005459936,1684,0.0,99,P-GPS,
0.36468543474452,36.925782436833,4600,2018-04-03 07:22:08,1630.8055697857815,2.4000000768,0.0,0.119446003822272,1630.8055697857815,2.4000000768,0.7919993443119999,0.170623005459936,1684,0.0,99,P-GPS,
0.36468551177562,36.9257824684924,4700,2018-04-03 07:22:08,1631.2055697985816,2.8000000896,0.0,0.11863800379641601,1631.2055697985816,2.8000000896,0.7919993443119999,0.170623005459936,1684,0.0,99,P-GPS,
0.364685616411289,36.925782500087,4800,2018-04-03 07:22:09,1631.8055698177816,3.4000001088000005,0.0,0.117496003759872,1631.8055698177816,3.4000001088000005,0.7919993443119999,0.170623005459936,1684,0.0,99,P-GPS,
0.364685737516634,36.9257825380344,4900,2018-04-03 07:22:09,1632.3055698337814,3.9000001248,0.0,0.11788800377241601,1632.3055698337814,3.9000001248,0.7919993443119999,0.170623005459936,1684,0.0,99,P-GPS,
0.364685870823502,36.9257825942961,5000,2018-04-03 07:22:09,1632.8055698497815,4.4000001408000005,0.0,0.121854003899328,1632.8055698497815,4.4000001408000005,0.7919993443119999,0.170623005459936,1684,0.0,99,P-GPS,
0.364686139925908,36.9257826541677,5200,2018-04-03 07:22:09,1633.9055698849813,5.5000001759999995,0.0,0.129539004145248,1633.9055698849813,5.5000001759999995,0.7919993443119999,0.170623005459936,1684,0.0,99,P-GPS,
0.364686267775453,36.9257826426208,5300,2018-04-03 07:22:09,1634.4055699009816,6.000000192000001,0.0,0.13118500419792,1634.4055699009816,6.000000192000001,0.7919993443119999,0.170623005459936,1684,0.0,99,P-GPS,
0.36468639609969,36.9257826195802,5400,2018-04-03 07:22:09,1634.9055699169814,6.500000208,0.0,0.13316200426118402,1634.9055699169814,6.500000208,0.7919993443119999,0.170623005459936,1684,0.0,99,P-GPS,
0.364686554695887,36.9257825880587,5500,2018-04-03 07:22:09,1635.4055699329815,7.000000224,0.0,0.137393004396576,1635.4055699329815,7.000000224,0.7919993443119999,0.170623005459936,1684,0.0,99,P-GPS,
0.364686704980912,36.9257824863064,5600,2018-04-03 07:22:09,1635.9055699489816,7.50000024,0.0,0.13691500438128001,1635.9055699489816,7.50000024,0.7919993443119999,0.170623005459936,1684,0.0,99,P-GPS,
0.364686856006472,36.9257823494552,5700,2018-04-03 07:22:09,1636.4055699649816,8.000000256,0.0,0.136729004375328,1636.4055699649816,8.000000256,0.7919993443119999,0.170623005459936,1684,0.0,99,P-GPS,
0.364686972619754,36.9257821851291,5800,2018-04-03 07:22:09,1636.9055699809815,8.500000272,0.35999970196000003,0.135373004331936,1636.9055699809815,8.500000272,0.7919993443119999,0.170623005459936,1684,0.0,99,P-GPS,
0.364687066485301,36.925782032218,5900,2018-04-03 07:22:10,1637.4055699969815,9.000000288,0.0,0.135951004350432,1637.4055699969815,9.000000288,0.7919993443119999,0.170623005459936,1684,0.0,99,P-GPS,
0.364687142182706,36.9257818589723,6000,2018-04-03 07:22:10,1637.9055700129816,9.500000304,0.0,0.13681400437804803,1637.9055700129816,9.500000304,0.7919993443119999,0.170623005459936,1684,0.0,99,P-GPS,
0.364687222464181,36.9257816876163,6100,2018-04-03 07:22:10,1638.4055700289814,10.00000032,0.35999970196000003,0.14138000452416002,1638.4055700289814,10.00000032,0.7919993443119999,0.170623005459936,1684,0.0,99,P-GPS,
0.364687300867653,36.9257814656779,6200,2018-04-03 07:22:10,1638.9055700449815,10.500000336,0.7199994039200001,0.1486500047568,1638.9055700449815,10.500000336,0.7919993443119999,0.170623005459936,1684,0.0,99,P-GPS,
0.364687400461252,36.9257811717163,6300,2018-04-03 07:22:10,1639.4055700609815,11.000000351999999,1.07999910588,0.16385200524326402,1639.4055700609815,11.000000351999999,1.07999910588,0.170623005459936,1684,0.0,99,P-GPS,
0.364687500452599,36.925780820807,6400,2018-04-03 07:22:10,1639.9055700769816,11.500000368000002,0.7199994039200001,0.186859005979488,1639.9055700769816,11.500000368000002,1.07999910588,0.186859005979488,1684,0.0,99,P-GPS,
0.364687588504194,36.9257805235875,6500,2018-04-03 07:22:10,1640.4055700929814,12.000000384000002,0.35999970196000003,0.21085700674742403,1640.4055700929814,12.000000384000002,1.07999910588,0.21085700674742403,1684,0.0,99,P-GPS,
0.364687641050825,36.9257803186554,6600,2018-04-03 07:22:10,1640.9055701089817,12.500000400000001,0.0,0.2282250073032,1640.9055701089817,12.500000400000001,1.07999910588,0.2282250073032,1684,0.0,99,P-GPS,
0.364687710503962,36.9257801799413,6700,2018-04-03 07:22:10,1641.4055701249815,13.000000416,0.35999970196000003,0.243568007794176,1641.4055701249815,13.000000416,1.07999910588,0.243568007794176,1684,0.0,99,P-GPS,
0.364687816921556,36.9257800712924,6800,2018-04-03 07:22:11,1641.9055701409816,13.500000432,0.35999970196000003,0.260309008329888,1641.9055701409816,13.500000432,1.07999910588,0.260309008329888,1684,0.0,99,P-GPS,
0.364687942745724,36.9257799692497,6900,2018-04-03 07:22:11,1642.4055701569816,14.000000448,0.35999970196000003,0.27832000890624004,1642.4055701569816,14.000000448,1.07999910588,0.27832000890624004,1684,0.0,99,P-GPS,
0.364688038957045,36.9257798779947,7000,2018-04-03 07:22:11,1642.9055701729815,14.500000464000001,0.35999970196000003,0.292997009375904,1642.9055701729815,14.500000464000001,1.07999910588,0.292997009375904,1684,0.0,99,P-GPS,
0.364688130674268,36.9257798102971,7100,2018-04-03 07:22:11,1643.4055701889815,15.00000048,0.0,0.30566900978140804,1643.4055701889815,15.00000048,1.07999910588,0.30566900978140804,1684,0.0,99,P-GPS,
0.364688242170164,36.9257797855342,7200,2018-04-03 07:22:11,1643.9055702049814,15.500000496,0.0,0.317182010149824,1643.9055702049814,15.500000496,1.07999910588,0.317182010149824,1684,0.0,99,P-GPS,
0.364688342933393,36.9257797910955,7300,2018-04-03 07:22:11,1644.4055702209816,16.000000512,0.0,0.32583701042678404,1644.4055702209816,16.000000512,1.07999910588,0.32583701042678404,1684,0.0,99,P-GPS,
0.364688422792287,36.9257798037273,7400,2018-04-03 07:22:11,1644.9055702369815,16.500000528,0.0,0.33228601063315205,1644.9055702369815,16.500000528,1.07999910588,0.33228601063315205,1684,0.0,99,P-GPS,
0.364688485891642,36.9257797919488,7500,2018-04-03 07:22:11,1645.4055702529815,17.000000544,0.0,0.33881501084208,1645.4055702529815,17.000000544,1.07999910588,0.33881501084208,1684,0.0,99,P-GPS,
0.364688504879706,36.9257797785002,7600,2018-04-03 07:22:11,1646.0055702721816,17.600000563200002,0.0,0.341402010924864,1646.0055702721816,17.600000563200002,1.07999910588,0.341402010924864,1684,0.0,99,P-GPS,
0.364688502426455,36.9257797876508,7700,2018-04-03 07:22:11,1646.5055702881814,18.1000005792,0.0,0.340606010899392,1646.5055702881814,18.1000005792,1.07999910588,0.341402010924864,1684,-2.2,99,P-GPS,
0.364688456057734,36.925779792391,7800,2018-04-03 07:22:12,1647.0055703041817,18.6000005952,0.0,0.336047010753504,1647.0055703041817,18.6000005952,1.07999910588,0.341402010924864,1684,-6.1,99,P-GPS,
0.364688416245942,36.9257797869115,7900,2018-04-03 07:22:12,1647.5055703201815,19.1000006112,0.0,0.33275601064819205,1647.5055703201815,19.1000006112,1.07999910588,0.341402010924864,1684,-10.8,99,P-GPS,
0.36468837603681,36.9257797925756,8000,2018-04-03 07:22:12,1648.0055703361816,19.6000006272,0.0,0.328737010519584,1648.0055703361816,19.6000006272,1.07999910588,0.341402010924864,1684,-16.5,99,P-GPS,
0.364688348035308,36.9257798134522,8100,2018-04-03 07:22:12,1648.5055703521814,20.1000006432,0.0,0.32485401039532796,1648.5055703521814,20.1000006432,1.07999910588,0.341402010924864,1684,-20.3,99,P-GPS,
0.364688282672823,36.9257798679603,8200,2018-04-03 07:22:12,1649.1055703713814,20.7000006624,0.0,0.31542001009344,1649.1055703713814,20.7000006624,1.07999910588,0.341402010924864,1684,-20.3,99,P-GPS,
0.364688213576316,36.9257799436565,8300,2018-04-03 07:22:12,1649.6055703873815,21.200000678400002,0.0,0.304299009737568,1649.6055703873815,21.200000678400002,1.07999910588,0.341402010924864,1684,-20.3,99,P-GPS,
0.364688131173793,36.9257800649634,8400,2018-04-03 07:22:12,1650.1055704033815,21.7000006944,0.0,0.289142009252544,1650.1055704033815,21.7000006944,1.07999910588,0.341402010924864,1684,-20.3,99,P-GPS,
0.364688039603537,36.9257801982655,8500,2018-04-03 07:22:12,1650.6055704193816,22.2000007104,0.35999970196000003,0.27254400872140805,1650.6055704193816,22.2000007104,1.07999910588,0.341402010924864,1684,-20.3,99,P-GPS,
0.364687916569708,36.9257804041596,8600,2018-04-03 07:22:12,1651.1055704353814,22.7000007264,0.35999970196000003,0.24907000797024,1651.1055704353814,22.7000007264,1.07999910588,0.341402010924864,1684,-20.3,99,P-GPS,
0.364687807121173,36.9257805996568,8700,2018-04-03 07:22:12,1651.6055704513817,23.2000007424,0.35999970196000003,0.22817100730147202,1651.6055704513817,23.2000007424,1.07999910588,0.341402010924864,1684,-20.3,99,P-GPS,
0.364687684163066,36.9257807962857,8800,2018-04-03 07:22:13,1652.2055704705815,23.8000007616,0.35999970196000003,0.20671900661500803,1652.2055704705815,23.8000007616,1.07999910588,0.341402010924864,1684,-20.3,99,P-GPS,
0.364687622995452,36.9257809255302,8900,2018-04-03 07:22:13,1652.7055704865813,24.3000007776,0.0,0.19526000624832,1652.7055704865813,24.3000007776,1.07999910588,0.341402010924864,1684,-20.3,99,P-GPS,
0.364687575470129,36.9257810088452,9000,2018-04-03 07:22:13,1653.2055705025816,24.800000793600002,0.0,0.18735500599536,1653.2055705025816,24.800000793600002,1.07999910588,0.341402010924864,1684,-20.3,99,P-GPS,
0.364687544893243,36.9257810327372,9100,2018-04-03 07:22:13,1653.8055705217814,25.400000812800002,0.0,0.18333200586662401,1653.8055705217814,25.400000812800002,1.07999910588,0.341402010924864,1684,-20.3,99,P-GPS,
0.364687518077656,36.9257810921316,9200,2018-04-03 07:22:13,1654.3055705377817,25.9000008288,0.0,0.17867600571763204,1654.3055705377817,25.9000008288,1.07999910588,0.341402010924864,1684,-20.3,99,P-GPS,
0.364687490638781,36.925781169676,9300,2018-04-03 07:22:13,1654.8055705537815,26.4000008448,0.0,0.17368700555798403,1654.8055705537815,26.4000008448,1.07999910588,0.341402010924864,1684,-20.3,99,P-GPS,
0.36468743280785,36.925781353497,9400,2018-04-03 07:22:13,1655.3055705697814,26.900000860800002,0.0,0.16410500525136001,1655.3055705697814,26.900000860800002,1.07999910588,0.341402010924864,1684,-20.3,99,P-GPS,
0.364687403070834,36.9257815265974,9500,2018-04-03 07:22:13,1655.8055705857817,27.4000008768,0.0,0.159981005119392,1655.8055705857817,27.4000008768,1.07999910588,0.341402010924864,1684,-20.3,99,P-GPS,
0.364687367335037,36.9257817304939,9600,2018-04-03 07:22:13,1656.4055706049814,28.000000896,0.0,0.15803100505699202,1656.4055706049814,28.000000896,1.07999910588,0.341402010924864,1684,-20.3,99,P-GPS,
0.364687373006908,36.9257818663928,9700,2018-04-03 07:22:13,1656.9055706209815,28.500000912,0.0,0.16175800517625602,1656.9055706209815,28.500000912,1.07999910588,0.341402010924864,1684,-20.3,99,P-GPS,
0.364687371652042,36.9257820252362,9800,2018-04-03 07:22:13,1657.4055706369816,29.000000928000002,0.0,0.166913005341216,1657.4055706369816,29.000000928000002,1.07999910588,0.341402010924864,1684,-20.3,99,P-GPS,
0.364687390078293,36.9257821571974,9900,2018-04-03 07:22:14,1657.9055706529816,29.500000944,0.0,0.174432005581824,1657.9055706529816,29.500000944,1.07999910588,0.341402010924864,1684,-20.3,99,P-GPS,
0.364687381555425,36.9257823473624,10000,2018-04-03 07:22:14,1658.5055706721816,30.1000009632,0.0,0.18344800587033602,1658.5055706721816,30.1000009632,1.07999910588,0.341402010924864,1684,-20.3,99,P-GPS,
0.364687401893469,36.9257825102075,10100,2018-04-03 07:22:14,1659.0055706881815,30.6000009792,0.0,0.195196006246272,1659.0055706881815,30.6000009792,1.07999910588,0.341402010924864,1684,-20.3,99,P-GPS,
0.36468738581177,36.9257827029129,10200,2018-04-03 07:22:14,1659.5055707041815,31.100000995200002,0.0,0.206869006619808,1659.5055707041815,31.100000995200002,1.07999910588,0.341402010924864,1684,-20.3,99,P-GPS,
0.364687380249005,36.9257828531442,10300,2018-04-03 07:22:14,1660.0055707201814,31.6000010112,0.0,0.2175750069624,1660.0055707201814,31.6000010112,1.07999910588,0.341402010924864,1684,-20.3,99,P-GPS,
0.364687340969308,36.9257830232494,10400,2018-04-03 07:22:14,1660.5055707361817,32.1000010272,0.0,0.22808500729872,1660.5055707361817,32.1000010272,1.07999910588,0.341402010924864,1684,-20.3,99,P-GPS,
0.364687314605207,36.925783149891,10500,2018-04-03 07:22:14,1661.1055707553814,32.700001046400004,0.0,0.236844007579008,1661.1055707553814,32.700001046400004,1.07999910588,0.341402010924864,1684,-20.3,99,P-GPS,
0.364687245191967,36.9257832777405,10600,2018-04-03 07:22:14,1661.6055707713815,33.200001062400005,0.0,0.24341000778912,1661.6055707713815,33.200001062400005,1.07999910588,0.341402010924864,1684,-20.3,99,P-GPS,
0.364687157155435,36.9257833464668,10700,2018-04-03 07:22:14,1662.1055707873816,33.7000010784,0.0,0.24419600781427203,1662.1055707873816,33.7000010784,1.07999910588,0.341402010924864,1684,-20.3,99,P-GPS,
0.364687035862819,36.9257834121919,10800,2018-04-03 07:22:15,1662.7055708065816,34.3000010976,0.0,0.243489007791648,1662.7055708065816,34.3000010976,1.07999910588,0.341402010924864,1684,-20.3,99,P-GPS,
0.364686938713514,36.9257834611391,10900,2018-04-03 07:22:15,1663.2055708225816,34.800001113600004,0.0,0.24325100778403203,1663.2055708225816,34.800001113600004,1.07999910588,0.341402010924864,1684,-20.3,99,P-GPS,
0.364686865073241,36.9257835293572,11000,2018-04-03 07:22:15,1663.7055708385815,35.300001129600005,0.0,0.24663000789216002,1663.7055708385815,35.300001129600005,1.07999910588,0.341402010924864,1684,-20.3,99,P-GPS,
0.36468684114,36.9257835821342,11100,2018-04-03 07:22:15,1664.3055708577815,35.9000011488,0.0,0.25095900803068805,1664.3055708577815,35.9000011488,1.07999910588,0.341402010924864,1684,-20.3,99,P-GPS,
0.364686825595281,36.9257836731598,11200,2018-04-03 07:22:15,1664.8055708737816,36.4000011648,0.0,0.259674008309568,1664.8055708737816,36.4000011648,1.07999910588,0.341402010924864,1684,-20.3,99,P-GPS,
0.364686819363225,36.9257837432778,11300,2018-04-03 07:22:15,1665.3055708897814,36.900001180800004,0.0,0.26669000853408004,1665.3055708897814,36.900001180800004,1.07999910588,0.341402010924864,1684,-20.3,99,P-GPS,
0.364686788815244,36.9257838337249,11400,2018-04-03 07:22:15,1665.8055709057817,37.400001196800005,0.0,0.27496000879872,1665.8055709057817,37.400001196800005,1.07999910588,0.341402010924864,1684,-20.3,99,P-GPS,
0.364686736893936,36.9257839202993,11500,2018-04-03 07:22:15,1666.3055709217815,37.9000012128,0.0,0.28224500903184,1666.3055709217815,37.9000012128,1.07999910588,0.341402010924864,1684,-20.3,99,P-GPS,
0.364686659846958,36.9257840569447,11600,2018-04-03 07:22:15,1666.8055709377816,38.4000012288,0.0,0.29439100942051205,1666.8055709377816,38.4000012288,1.07999910588,0.341402010924864,1684,-20.3,99,P-GPS,
0.364686617773665,36.9257841975598,11700,2018-04-03 07:22:15,1667.4055709569816,39.000001248000004,0.0,0.308371009867872,1667.4055709569816,39.000001248000004,1.07999910588,0.341402010924864,1684,-20.3,99,P-GPS,
0.364686573409151,36.9257843273263,11800,2018-04-03 07:22:15,1667.9055709729814,39.500001264,0.0,0.321338010282816,1667.9055709729814,39.500001264,1.07999910588,0.341402010924864,1684,-20.3,99,P-GPS,
0.364686585461672,36.9257843953195,11900,2018-04-03 07:22:16,1668.4055709889815,40.00000128,0.0,0.32901201052838397,1668.4055709889815,40.00000128,1.07999910588,0.341402010924864,1684,-20.5,99,P-GPS,
0.364686638660087,36.9257843990455,12000,2018-04-03 07:22:16,1668.9055710049815,40.500001296,0.35999970196000003,0.33070701058262403,1668.9055710049815,40.500001296,1.07999910588,0.341402010924864,1684,-21.3,99,P-GPS,
0.36468673451193,36.9257843860996,12100,2018-04-03 07:22:16,1669.4055710209816,41.000001312,0.35999970196000003,0.33189401062060797,1669.4055710209816,41.000001312,1.07999910588,0.341402010924864,1684,-22.2,99,P-GPS,
0.3646868376649,36.9257843956292,12200,2018-04-03 07:22:16,1669.9055710369814,41.500001328,0.35999970196000003,0.33605001075359997,1669.9055710369814,41.500001328,1.07999910588,0.341402010924864,1684,-22.7,99,P-GPS,
0.364686942143832,36.9257843992635,12300,2018-04-03 07:22:16,1670.4055710529817,42.000001344,0.35999970196000003,0.339972010879104,1670.4055710529817,42.000001344,1.07999910588,0.341402010924864,1684,-22.7,99,P-GPS,
0.364687019071119,36.9257843753661,12400,2018-04-03 07:22:16,1670.9055710689815,42.50000136,0.35999970196000003,0.340307010889824,1670.9055710689815,42.50000136,1.07999910588,0.341402010924864,1684,-22.7,99,P-GPS,
0.364687100024734,36.9257843253341,12500,2018-04-03 07:22:16,1671.4055710849814,43.000001376,0.35999970196000003,0.33834501082704,1671.4055710849814,43.000001376,1.07999910588,0.341402010924864,1684,-22.7,99,P-GPS,
0.364687137962594,36.9257842702439,12600,2018-04-03 07:22:16,1672.0055711041816,43.6000013952,0.35999970196000003,0.334293010697376,1672.0055711041816,43.6000013952,1.07999910588,0.341402010924864,1684,-22.8,99,P-GPS,
0.364687177041586,36.9257842151477,12700,2018-04-03 07:22:16,1672.5055711201815,44.100001411200004,0.0,0.33041001057311997,1672.5055711201815,44.100001411200004,1.07999910588,0.341402010924864,1684,-24.1,99,P-GPS,
0.364687187684689,36.925784169575,12800,2018-04-03 07:22:17,1673.0055711361815,44.600001427200006,0.0,0.326282010441024,1673.0055711361815,44.600001427200006,1.07999910588,0.341402010924864,1684,-26.5,99,P-GPS,
0.364687201095332,36.9257841373953,12900,2018-04-03 07:22:17,1673.5055711521816,45.1000014432,0.0,0.323663010357216,1673.5055711521816,45.1000014432,1.07999910588,0.341402010924864,1684,-28.1,99,P-GPS,
0.364687158741539,36.9257841135914,13000,2018-04-03 07:22:17,1674.0055711681814,45.6000014592,0.0,0.319281010216992,1674.0055711681814,45.6000014592,1.07999910588,0.341402010924864,1684,-28.1,99,P-GPS,
0.364687121015784,36.9257840865487,13100,2018-04-03 07:22:17,1674.6055711873817,46.2000014784,0.0,0.314812010073984,1674.6055711873817,46.2000014784,1.07999910588,0.341402010924864,1684,-28.1,99,P-GPS,
0.364687087331013,36.925784078332,13200,2018-04-03 07:22:17,1675.1055712033815,46.7000014944,0.0,0.312463009998816,1675.1055712033815,46.7000014944,1.07999910588,0.341402010924864,1684,-28.1,99,P-GPS,
0.364687069957144,36.9257840689052,13300,2018-04-03 07:22:17,1675.6055712193815,47.2000015104,0.0,0.310733009943456,1675.6055712193815,47.2000015104,1.07999910588,0.341402010924864,1684,-28.1,99,P-GPS,
0.364687053502532,36.9257840696914,13400,2018-04-03 07:22:17,1676.1055712353816,47.70000152640001,0.0,0.310094009923008,1676.1055712353816,47.70000152640001,1.07999910588,0.341402010924864,1684,-28.1,99,P-GPS,
0.364687041456931,36.9257840707494,13500,2018-04-03 07:22:17,1676.6055712513817,48.20000154240001,0.0,0.30968200990982403,1676.6055712513817,48.20000154240001,1.07999910588,0.341402010924864,1684,-28.1,99,P-GPS,
0.364687029938947,36.9257840963808,13600,2018-04-03 07:22:17,1677.1055712673815,48.7000015584,0.0,0.311823009978336,1677.1055712673815,48.7000015584,1.07999910588,0.341402010924864,1684,-28.1,99,P-GPS,
0.364687024292317,36.9257841279198,13700,2018-04-03 07:22:17,1677.6055712833813,49.200001574400005,0.0,0.31483501007472,1677.6055712833813,49.200001574400005,1.07999910588,0.341402010924864,1684,-28.1,99,P-GPS,
0.364687020340491,36.9257841397729,13800,2018-04-03 07:22:18,1678.1055712993816,49.70000159040001,0.0,0.315894010108608,1678.1055712993816,49.70000159040001,1.07999910588,0.341402010924864,1684,-28.1,99,P-GPS,
0.364687023045744,36.9257841272777,13900,2018-04-03 07:22:18,1678.6055713153814,50.20000160640001,0.0,0.31471701007094405,1678.6055713153814,50.20000160640001,1.07999910588,0.341402010924864,1684,-28.1,99,P-GPS,
0.364687004981821,36.9257840990728,14000,2018-04-03 07:22:18,1679.1055713313815,50.7000016224,0.0,0.311058009953856,1679.1055713313815,50.7000016224,1.07999910588,0.341402010924864,1684,-28.1,99,P-GPS,
0.364686990451623,36.9257840789437,14100,2018-04-03 07:22:18,1679.7055713505815,51.300001641600005,0.0,0.308379009868128,1679.7055713505815,51.300001641600005,1.07999910588,0.341402010924864,1684,-28.1,99,P-GPS,
0.364686984317681,36.9257840700544,14200,2018-04-03 07:22:18,1680.2055713665814,51.8000016576,0.0,0.30720900983068805,1680.2055713665814,51.8000016576,1.07999910588,0.341402010924864,1684,-28.1,99,P-GPS,
0.36468701038052,36.9257840661915,14300,2018-04-03 07:22:18,1680.7055713825816,52.3000016736,0.0,0.30789300985257606,1680.7055713825816,52.3000016736,1.07999910588,0.341402010924864,1684,-28.1,99,P-GPS,
0.364687050743948,36.925784037009,14400,2018-04-03 07:22:18,1681.3055714017814,52.9000016928,0.0,0.30663000981216004,1681.3055714017814,52.9000016928,1.07999910588,0.341402010924864,1684,-28.1,99,P-GPS,
0.364687101009128,36.9257840144155,14500,2018-04-03 07:22:18,1681.8055714177815,53.400001708800005,0.0,0.30658400981068806,1681.8055714177815,53.400001708800005,1.07999910588,0.341402010924864,1684,-28.1,99,P-GPS,
0.364687125406883,36.9257839986601,14600,2018-04-03 07:22:18,1682.3055714337816,53.900001724800006,0.0,0.30612300979593604,1682.3055714337816,53.900001724800006,1.07999910588,0.341402010924864,1684,-28.1,99,P-GPS,
0.364687146353151,36.9257839985565,14700,2018-04-03 07:22:18,1682.8055714497816,54.40000174080001,0.0,0.307102009827264,1682.8055714497816,54.40000174080001,1.07999910588,0.341402010924864,1684,-28.1,99,P-GPS,
0.364687140800565,36.925783997896,14800,2018-04-03 07:22:18,1683.3055714657814,54.9000017568,0.0,0.30677200981670405,1683.3055714657814,54.9000017568,1.07999910588,0.341402010924864,1684,-28.1,99,P-GPS,
0.364687141293576,36.9257840020361,14900,2018-04-03 07:22:19,1683.8055714817817,55.4000017728,0.0,0.307211009830752,1683.8055714817817,55.4000017728,1.07999910588,0.341402010924864,1684,-28.1,99,P-GPS,
0.364687131341748,36.925783999392,15000,2018-04-03 07:22:19,1684.3055714977816,55.900001788800004,0.0,0.3064750098072,1684.3055714977816,55.900001788800004,1.07999910588,0.341402010924864,1684,-28.1,99,P-GPS,
0.364687146047411,36.925784002151,15100,2018-04-03 07:22:19,1684.8055715137814,56.400001804800006,0.0,0.30744800983833603,1684.8055715137814,56.400001804800006,1.07999910588,0.341402010924864,1684,-28.1,99,P-GPS,
0.364687156572045,36.9257839962071,15200,2018-04-03 07:22:19,1685.3055715297817,56.90000182080001,0.0,0.30735400983532807,1685.3055715297817,56.90000182080001,1.07999910588,0.341402010924864,1684,-28.1,99,P-GPS,
0.364687176030322,36.9257839562156,15300,2018-04-03 07:22:19,1685.9055715489815,57.50000184,0.0,0.304299009737568,1685.9055715489815,57.50000184,1.07999910588,0.341402010924864,1684,-28.1,99,P-GPS,
0.364687173748465,36.9257838531227,15400,2018-04-03 07:22:19,1686.4055715649813,58.000001856000004,0.35999970196000003,0.293947009406304,1686.4055715649813,58.000001856000004,1.07999910588,0.341402010924864,1684,-28.1,99,P-GPS,
0.364687165119747,36.925783745594,15500,2018-04-03 07:22:19,1687.0055715841816,58.60000187520001,0.35999970196000003,0.28291300905321604,1687.0055715841816,58.60000187520001,1.07999910588,0.341402010924864,1684,-28.1,99,P-GPS,
0.364687138588731,36.9257836073918,15600,2018-04-03 07:22:19,1687.5055716001814,59.10000189120001,0.35999970196000003,0.268011008576352,1687.5055716001814,59.10000189120001,1.07999910588,0.341402010924864,1684,-28.1,99,P-GPS,
0.364687128943457,36.9257834886972,15700,2018-04-03 07:22:19,1688.0055716161817,59.6000019072,0.0,0.25602000819264,1688.0055716161817,59.6000019072,1.07999910588,0.341402010924864,1684,-28.1,99,P-GPS,
0.364687090130715,36.9257833812979,15800,2018-04-03 07:22:20,1688.5055716321815,60.100001923200004,0.0,0.243544007793408,1688.5055716321815,60.100001923200004,1.07999910588,0.341402010924864,1684,-28.1,99,P-GPS,
0.364687064863371,36.9257833074558,15900,2018-04-03 07:22:20,1689.1055716513813,60.7000019424,0.0,0.23506300752201603,1689.1055716513813,60.7000019424,1.07999910588,0.341402010924864,1684,-28.1,99,P-GPS,
0.364687031107763,36.9257832258464,16000,2018-04-03 07:22:20,1689.6055716673816,61.2000019584,0.0,0.22536500721168,1689.6055716673816,61.2000019584,1.07999910588,0.341402010924864,1684,-28.1,99,P-GPS,
0.364687012920079,36.9257831592382,16100,2018-04-03 07:22:20,1690.1055716833814,61.7000019744,0.0,0.218013006976416,1690.1055716833814,61.7000019744,1.07999910588,0.341402010924864,1684,-28.1,99,P-GPS,
0.36468696797991,36.9257830789509,16200,2018-04-03 07:22:20,1690.6055716993815,62.200001990400004,0.0,0.207797006649504,1690.6055716993815,62.200001990400004,1.07999910588,0.341402010924864,1684,-28.1,99,P-GPS,
0.364686933802127,36.9257830044194,16300,2018-04-03 07:22:20,1691.1055717153815,62.7000020064,0.0,0.198768006360576,1691.1055717153815,62.7000020064,1.07999910588,0.341402010924864,1684,-28.1,99,P-GPS,
0.364686904298793,36.925782924211,16400,2018-04-03 07:22:20,1691.6055717313816,63.2000020224,0.0,0.189506006064192,1691.6055717313816,63.2000020224,1.07999910588,0.341402010924864,1684,-28.1,99,P-GPS,
0.364686882884755,36.9257828690565,16500,2018-04-03 07:22:20,1692.1055717473814,63.7000020384,0.0,0.18308100585859202,1692.1055717473814,63.7000020384,1.07999910588,0.341402010924864,1684,-28.1,99,P-GPS,
0.364686825530957,36.9257827853315,16600,2018-04-03 07:22:20,1692.7055717665817,64.3000020576,0.0,0.17179600549747198,1692.7055717665817,64.3000020576,1.07999910588,0.341402010924864,1684,-28.1,99,P-GPS,
0.36468678310022,36.9257827282384,16700,2018-04-03 07:22:20,1693.2055717825815,64.8000020736,0.0,0.16389500524463999,1693.2055717825815,64.8000020736,1.07999910588,0.341402010924864,1684,-28.1,99,P-GPS,
0.36468672484345,36.9257826560204,16800,2018-04-03 07:22:20,1693.7055717985813,65.3000020896,0.0,0.15362200491590403,1693.7055717985813,65.3000020896,1.07999910588,0.341402010924864,1024,-28.1,99,P-GPS,
0.364686673861754,36.9257826044065,16900,2018-04-03 07:22:21,1694.2055718145816,65.8000021056,0.0,0.14571800466297602,1694.2055718145816,65.8000021056,1.07999910588,0.341402010924864,1047,-28.1,99,P-GPS,
0.364686629606346,36.9257825507036,17000,2018-04-03 07:22:21,1694.6055718273815,66.20000211840001,0.0,0.138036004417152,1694.6055718273815,66.20000211840001,1.07999910588,0.341402010924864,1024,-28.1,99,P-GPS,
0.364686624466977,36.9257825194165,17100,2018-04-03 07:22:21,1695.1055718433815,66.70000213440001,0.0,0.134799004313568,1695.1055718433815,66.70000213440001,1.07999910588,0.341402010924864,1024,-28.1,99,P-GPS,
0.364686629217962,36.9257824745256,17200,2018-04-03 07:22:21,1695.4055718529814,67.000002144,0.0,0.130937004189984,1695.4055718529814,67.000002144,1.07999910588,0.341402010924864,1024,-28.1,99,P-GPS,
0.364686645817913,36.925782439437,17300,2018-04-03 07:22:21,1695.7055718625816,67.3000021536,0.0,0.128811004121952,1695.7055718625816,67.3000021536,1.07999910588,0.341402010924864,1024,-28.1,98,P-GPS,
0.364686633075746,36.9257823667723,17400,2018-04-03 07:22:21,1695.9055718689815,67.50000216000001,0.0,0.12149600388787202,1695.9055718689815,67.50000216000001,1.07999910588,0.341402010924864,1024,-28.1,98,P-GPS,
0.364686638404422,36.9257823074873,17500,2018-04-03 07:22:21,1695.9055718689815,67.50000216000001,0.0,0.11673000373536001,1695.9055718689815,67.50000216000001,1.07999910588,0.341402010924864,1024,-28.1,98,P-GPS,
0.364686602957674,36.9257822381849,17600,2018-04-03 07:22:21,1696.0055718721817,67.6000021632,0.0,0.108308003465856,1696.0055718721817,67.6000021632,1.07999910588,0.341402010924864,1024,-28.1,98,P-GPS,
0.364686575116574,36.9257821755529,17700,2018-04-03 07:22:21,1696.0055718721817,67.6000021632,0.0,0.10104200323334402,1696.0055718721817,67.6000021632,1.07999910588,0.341402010924864,1024,-28.1,98,P-GPS,
0.36468649599048,36.9257820812397,17800,2018-04-03 07:22:22,1696.0055718721817,67.6000021632,0.0,0.08736380279564161,1696.0055718721817,67.6000021632,1.07999910588,0.341402010924864,1054,-28.1,98,P-GPS,
0.364686427483063,36.9257819953466,17900,2018-04-03 07:22:22,1696.0055718721817,67.6000021632,0.35999970196000003,0.0751803024057696,1696.0055718721817,67.6000021632,1.07999910588,0.341402010924864,1054,-28.1,98,P-GPS,
0.364686359367693,36.925781938553,18000,2018-04-03 07:22:22,1696.0055718721817,67.6000021632,0.35999970196000003,0.0654019020928608,1696.0055718721817,67.6000021632,1.07999910588,0.341402010924864,1110,-28.1,98,P-GPS,
0.364686355772496,36.9257819032594,18100,2018-04-03 07:22:22,1696.0055718721817,67.6000021632,0.0,0.0622679019925728,1696.0055718721817,67.6000021632,1.07999910588,0.341402010924864,1151,-28.1,98,P-GPS,
0.364686392315186,36.9257818941139,18200,2018-04-03 07:22:22,1696.1055718753817,67.7000021664,0.0,0.06448020206336641,1696.1055718753817,67.7000021664,1.07999910588,0.341402010924864,1198,-28.1,98,P-GPS,
0.364686475284001,36.9257818894195,18300,2018-04-03 07:22:22,1696.1055718753817,67.7000021664,0.0,0.071240502279696,1696.1055718753817,67.7000021664,1.07999910588,0.341402010924864,1233,-28.1,98,P-GPS,
0.364686571764422,36.9257819138037,18400,2018-04-03 07:22:22,1696.2055718785816,67.8000021696,0.0,0.0815443026094176,1696.2055718785816,67.8000021696,1.07999910588,0.341402010924864,1262,-28.1,98,P-GPS,
0.364686696919707,36.9257819620344,18500,2018-04-03 07:22:22,1696.3055718817814,67.9000021728,0.0,0.0961344030763008,1696.3055718817814,67.9000021728,1.07999910588,0.341402010924864,1280,-28.1,98,P-GPS,
0.364686806207433,36.9257820167652,18600,2018-04-03 07:22:22,1696.5055718881815,68.1000021792,0.35999970196000003,0.10967200350950401,1696.5055718881815,68.1000021792,1.07999910588,0.341402010924864,1289,-28.1,98,P-GPS,
0.364686957117781,36.9257820884273,18700,2018-04-03 07:22:22,1696.6055718913815,68.2000021824,0.35999970196000003,0.128162004101184,1696.6055718913815,68.2000021824,1.07999910588,0.341402010924864,1300,-28.1,98,P-GPS,
0.364687107084853,36.9257822081408,18800,2018-04-03 07:22:22,1696.8055718977816,68.4000021888,0.35999970196000003,0.149321004778272,1696.8055718977816,68.4000021888,1.07999910588,0.341402010924864,1302,-28.1,98,P-GPS,
0.36468729236514,36.925782345488,18900,2018-04-03 07:22:23,1696.9055719009816,68.500002192,0.503999582744,0.17489100559651202,1696.9055719009816,68.500002192,1.07999910588,0.341402010924864,1311,-28.1,98,P-GPS,
0.364687467645152,36.9257824627131,19000,2018-04-03 07:22:23,1697.1055719073813,68.7000021984,0.503999582744,0.19833400634668802,1697.1055719073813,68.7000021984,1.07999910588,0.341402010924864,1316,-28.1,98,P-GPS,
0.364687666024235,36.9257825739808,19100,2018-04-03 07:22:23,1697.2055719105817,68.8000022016,0.503999582744,0.22359100715491204,1697.2055719105817,68.8000022016,1.07999910588,0.341402010924864,1317,-28.1,98,P-GPS,
0.364687821743785,36.9257826714267,19200,2018-04-03 07:22:23,1697.4055719169814,69.000002208,0.503999582744,0.24401900780860802,1697.4055719169814,69.000002208,1.07999910588,0.341402010924864,1319,-28.1,98,P-GPS,
0.364687998233732,36.9257827536459,19300,2018-04-03 07:22:23,1697.5055719201814,69.1000022112,0.503999582744,0.265514008496448,1697.5055719201814,69.1000022112,1.07999910588,0.341402010924864,1320,-28.1,98,P-GPS,
0.364688099079604,36.9257827498755,19400,2018-04-03 07:22:23,1697.7055719265816,69.30000221760001,0.35999970196000003,0.274917008797344,1697.7055719265816,69.30000221760001,1.07999910588,0.341402010924864,1317,-28.1,98,P-GPS,
0.364688208512262,36.9257827356738,19500,2018-04-03 07:22:23,1697.9055719329815,69.500002224,0.35999970196000003,0.284726009111232,1697.9055719329815,69.500002224,1.07999910588,0.341402010924864,1319,-28.1,98,P-GPS,
0.364688262679602,36.9257827381944,19600,2018-04-03 07:22:23,1698.0055719361817,69.60000222720001,0.35999970196000003,0.290152009284864,1698.0055719361817,69.60000222720001,1.07999910588,0.341402010924864,1131,-28.1,98,P-GPS,
0.36468833226505,36.9257827755561,19700,2018-04-03 07:22:23,1698.2055719425814,69.80000223360001,0.35999970196000003,0.29893500956592,1698.2055719425814,69.80000223360001,1.07999910588,0.341402010924864,1024,-28.1,98,P-GPS,
0.364688340049826,36.9257828104493,19800,2018-04-03 07:22:24,1698.3055719457816,69.9000022368,0.0,0.30155000964960005,1698.3055719457816,69.9000022368,1.07999910588,0.341402010924864,1024,-28.1,98,P-GPS,
0.364688398849275,36.9257828611824,19900,2018-04-03 07:22:24,1698.4055719489816,70.00000224,0.35999970196000003,0.31000500992016,1698.4055719489816,70.00000224,1.07999910588,0.341402010924864,1024,-28.1,98,P-GPS,
0.36468844980858,36.9257828659319,20000,2018-04-03 07:22:24,1698.4055719489816,70.00000224,0.35999970196000003,0.31521901008700803,1698.4055719489816,70.00000224,1.07999910588,0.341402010924864,1024,-28.1,98,P-GPS,
0.364688511744412,36.9257828515151,20100,2018-04-03 07:22:24,1698.5055719521815,70.10000224320001,0.0,0.32052101025667207,1698.5055719521815,70.10000224320001,1.07999910588,0.341402010924864,1024,-28.1,98,P-GPS,
0.364688467478826,36.925782821707,20200,2018-04-03 07:22:24,1698.5055719521815,70.10000224320001,0.0,0.31462001006784,1698.5055719521815,70.10000224320001,1.07999910588,0.341402010924864,1024,-28.1,98,P-GPS,
0.364688382350287,36.9257828105987,20300,2018-04-03 07:22:24,1698.5055719521815,70.10000224320001,0.0,0.305687009781984,1698.5055719521815,70.10000224320001,1.07999910588,0.341402010924864,1024,-28.1,98,P-GPS,
0.364688223832663,36.9257827758407,20400,2018-04-03 07:22:24,1698.5055719521815,70.10000224320001,0.0,0.288387009228384,1698.5055719521815,70.10000224320001,1.07999910588,0.341402010924864,1024,-28.1,98,P-GPS,
0.364688118841179,36.9257827313329,20500,2018-04-03 07:22:24,1698.5055719521815,70.10000224320001,0.0,0.275789008825248,1698.5055719521815,70.10000224320001,1.07999910588,0.341402010924864,1024,-28.1,98,P-GPS,
0.364688021100342,36.9257826681546,20600,2018-04-03 07:22:24,1698.5055719521815,70.10000224320001,0.0,0.26286800841177604,1698.5055719521815,70.10000224320001,1.07999910588,0.341402010924864,1024,-28.1,98,P-GPS,
0.364687954082951,36.9257826417579,20700,2018-04-03 07:22:24,1698.6055719553815,70.2000022464,0.0,0.25493900815804804,1698.6055719553815,70.2000022464,1.07999910588,0.341402010924864,1024,-28.1,98,P-GPS,
0.364687871665772,36.9257826270475,20800,2018-04-03 07:22:24,1698.6055719553815,70.2000022464,0.0,0.24619200787814402,1698.6055719553815,70.2000022464,1.07999910588,0.341402010924864,1024,-28.1,98,P-GPS,
0.364687870534003,36.9257825983572,20900,2018-04-03 07:22:25,1698.6055719553815,70.2000022464,0.0,0.244478007823296,1698.6055719553815,70.2000022464,1.07999910588,0.341402010924864,1024,-28.1,98,P-GPS,
0.364687874719918,36.9257825521593,21000,2018-04-03 07:22:25,1698.6055719553815,70.2000022464,0.0,0.24236600775571202,1698.6055719553815,70.2000022464,1.07999910588,0.341402010924864,1024,-28.1,98,P-GPS,
0.364687918609741,36.9257825440545,21100,2018-04-03 07:22:25,1698.6055719553815,70.2000022464,0.0,0.24623000787936,1698.6055719553815,70.2000022464,1.07999910588,0.341402010924864,1024,-28.1,98,P-GPS,
0.364687964210651,36.9257825070125,21200,2018-04-03 07:22:25,1698.6055719553815,70.2000022464,0.0,0.24884000796288003,1698.6055719553815,70.2000022464,1.07999910588,0.341402010924864,1024,-28.1,98,P-GPS,
0.364688056636247,36.9257824979936,21300,2018-04-03 07:22:25,1698.6055719553815,70.2000022464,0.35999970196000003,0.257633008244256,1698.6055719553815,70.2000022464,1.07999910588,0.341402010924864,1024,-28.1,98,P-GPS,
0.364688114380464,36.9257825057524,21400,2018-04-03 07:22:25,1698.6055719553815,70.2000022464,0.503999582744,0.26381000844192004,1698.6055719553815,70.2000022464,1.07999910588,0.341402010924864,1024,-28.1,98,P-GPS,
0.364688200376556,36.9257825652399,21500,2018-04-03 07:22:25,1698.6055719553815,70.2000022464,0.35999970196000003,0.27528100880899203,1698.6055719553815,70.2000022464,1.07999910588,0.341402010924864,1024,-28.1,98,P-GPS,
0.36468817572395,36.9257825915756,21600,2018-04-03 07:22:25,1698.6055719553815,70.2000022464,0.35999970196000003,0.274088008770816,1698.6055719553815,70.2000022464,1.07999910588,0.341402010924864,1024,-28.1,98,P-GPS,
0.364688187307479,36.9257826206214,21700,2018-04-03 07:22:25,1698.6055719553815,70.2000022464,0.35999970196000003,0.27668100885379204,1698.6055719553815,70.2000022464,1.07999910588,0.341402010924864,1024,-28.1,98,P-GPS,
0.364688092698954,36.9257825762665,21800,2018-04-03 07:22:26,1698.6055719553815,70.2000022464,0.0,0.26506600848211204,1698.6055719553815,70.2000022464,1.07999910588,0.341402010924864,1024,-28.1,98,P-GPS,
0.364688026732316,36.9257825404973,21900,2018-04-03 07:22:26,1698.6055719553815,70.2000022464,0.0,0.2567250082152,1698.6055719553815,70.2000022464,1.07999910588,0.341402010924864,1024,-28.1,98,P-GPS,
0.364687891490042,36.9257824475603,22000,2018-04-03 07:22:26,1698.6055719553815,70.2000022464,0.0,0.238657007637024,1698.6055719553815,70.2000022464,1.07999910588,0.341402010924864,1024,-28.1,98,P-GPS,
0.364687806431934,36.9257823685872,22100,2018-04-03 07:22:26,1698.6055719553815,70.2000022464,0.0,0.22632800724249602,1698.6055719553815,70.2000022464,1.07999910588,0.341402010924864,1024,-28.1,98,P-GPS,
0.364687648467574,36.9257822497516,22200,2018-04-03 07:22:26,1698.5055719521815,70.10000224320001,0.0,0.204857006555424,1698.6055719553815,70.2000022464,1.07999910588,0.341402010924864,1024,-28.1,98,P-GPS,
0.364687525857954,36.9257821744561,22300,2018-04-03 07:22:26,1698.5055719521815,70.10000224320001,0.0,0.18900900604828802,1698.6055719553815,70.2000022464,1.07999910588,0.341402010924864,1024,-28.1,98,P-GPS,
0.364687340879743,36.925782072478,22400,2018-04-03 07:22:26,1698.5055719521815,70.10000224320001,0.0,0.165647005300704,1698.6055719553815,70.2000022464,1.07999910588,0.341402010924864,1024,-28.1,98,P-GPS,
0.364687198932758,36.925781982854,22500,2018-04-03 07:22:26,1698.5055719521815,70.10000224320001,0.0,0.147284004713088,1698.6055719553815,70.2000022464,1.07999910588,0.341402010924864,1024,-28.1,98,P-GPS,
0.364687050639727,36.9257818346448,22600,2018-04-03 07:22:26,1698.5055719521815,70.10000224320001,0.0,0.126287004041184,1698.6055719553815,70.2000022464,1.07999910588,0.341402010924864,1024,-28.1,98,P-GPS,
0.364686971375216,36.9257816991375,22700,2018-04-03 07:22:26,1698.5055719521815,70.10000224320001,0.0,0.11406600365011199,1698.6055719553815,70.2000022464,1.07999910588,0.341402010924864,1024,-28.1,98,P-GPS,
0.364686900912037,36.9257815326675,22800,2018-04-03 07:22:26,1698.5055719521815,70.10000224320001,0.0,0.10417000333344001,1698.6055719553815,70.2000022464,1.07999910588,0.341402010924864,1024,-28.1,98,P-GPS,
0.364686877975403,36.9257814046543,22900,2018-04-03 07:22:27,1698.5055719521815,70.10000224320001,0.0,0.102147003268704,1698.6055719553815,70.2000022464,1.07999910588,0.341402010924864,1024,-28.1,98,P-GPS,
0.364686857669521,36.9257812475736,23000,2018-04-03 07:22:27,1698.4055719489816,70.00000224,0.35999970196000003,0.1032750033048,1698.6055719553815,70.2000022464,1.07999910588,0.341402010924864,1024,-28.1,98,P-GPS,
0.3646868986371,36.9257811097605,23100,2018-04-03 07:22:27,1698.4055719489816,70.00000224,0.35999970196000003,0.11267400360556801,1698.6055719553815,70.2000022464,1.07999910588,0.341402010924864,1024,-28.1,98,P-GPS,
0.364686946835379,36.9257809878238,23200,2018-04-03 07:22:27,1698.4055719489816,70.00000224,0.35999970196000003,0.123312003945984,1698.6055719553815,70.2000022464,1.07999910588,0.341402010924864,1024,-28.1,98,P-GPS,
0.364687041321363,36.925780875849,23300,2018-04-03 07:22:27,1698.4055719489816,70.00000224,0.35999970196000003,0.138536004433152,1698.6055719553815,70.2000022464,1.07999910588,0.341402010924864,1024,-28.1,98,P-GPS,
0.36468710376242,36.9257807583485,23400,2018-04-03 07:22:27,1698.4055719489816,70.00000224,0.35999970196000003,0.151311004841952,1698.6055719553815,70.2000022464,1.07999910588,0.341402010924864,1024,-28.1,98,P-GPS,
0.364687199172547,36.925780674553,23500,2018-04-03 07:22:27,1698.3055719457816,69.9000022368,0.7199994039200001,0.165303005289696,1698.6055719553815,70.2000022464,1.07999910588,0.341402010924864,1024,-28.1,98,P-GPS,
0.364687316142051,36.9257806091915,23600,2018-04-03 07:22:27,1698.3055719457816,69.9000022368,0.7199994039200001,0.18015800576505603,1698.6055719553815,70.2000022464,1.07999910588,0.341402010924864,1024,-28.1,98,P-GPS,
0.364687491395601,36.9257805776138,23700,2018-04-03 07:22:27,1698.3055719457816,69.9000022368,0.7199994039200001,0.198507006352224,1698.6055719553815,70.2000022464,1.07999910588,0.341402010924864,1024,-28.1,98,P-GPS,
0.364687652802899,36.9257805655345,23800,2018-04-03 07:22:28,1698.3055719457816,69.9000022368,0.7199994039200001,0.21471000687072003,1698.6055719553815,70.2000022464,1.07999910588,0.341402010924864,1024,-28.1,98,P-GPS,
0.364687828448089,36.9257805903804,23900,2018-04-03 07:22:28,1698.3055719457816,69.9000022368,0.7199994039200001,0.230754007384128,1698.6055719553815,70.2000022464,1.07999910588,0.341402010924864,1024,-28.1,98,P-GPS,
0.364688011511657,36.9257806183713,24000,2018-04-03 07:22:28,1698.3055719457816,69.9000022368,1.07999910588,0.2479500079344,1698.6055719553815,70.2000022464,1.07999910588,0.341402010924864,1024,-28.1,98,P-GPS,
0.364688227238147,36.9257806750931,24100,2018-04-03 07:22:28,1698.3055719457816,69.9000022368,1.151999046272,0.267909008573088,1698.6055719553815,70.2000022464,1.151999046272,0.341402010924864,1024,-28.1,98,P-GPS,
0.364688417667574,36.9257807206037,24200,2018-04-03 07:22:28,1698.3055719457816,69.9000022368,1.151999046272,0.286312009161984,1698.6055719553815,70.2000022464,1.151999046272,0.341402010924864,1024,-28.1,98,P-GPS,
0.364688647910421,36.9257807982219,24300,2018-04-03 07:22:28,1698.3055719457816,69.9000022368,1.151999046272,0.30850100987203205,1698.6055719553815,70.2000022464,1.151999046272,0.341402010924864,1024,-28.1,98,P-GPS,
0.364688889303224,36.9257808836956,24400,2018-04-03 07:22:28,1698.4055719489816,70.00000224,1.151999046272,0.33243801063801603,1698.6055719553815,70.2000022464,1.151999046272,0.341402010924864,1024,-28.1,98,P-GPS,
0.364689179331339,36.9257810188579,24500,2018-04-03 07:22:28,1698.4055719489816,70.00000224,1.6199986588200002,0.361514011568448,1698.6055719553815,70.2000022464,1.6199986588200002,0.361514011568448,1024,-28.1,98,P-GPS,
0.364689478484847,36.9257811704982,24600,2018-04-03 07:22:28,1698.4055719489816,70.00000224,1.6199986588200002,0.39249801255993605,1698.6055719553815,70.2000022464,1.6199986588200002,0.39249801255993605,1024,-28.1,98,P-GPS,
0.364689826346336,36.9257813637324,24700,2018-04-03 07:22:28,1698.5055719521815,70.10000224320001,1.6199986588200002,0.429719013751008,1698.6055719553815,70.2000022464,1.6199986588200002,0.429719013751008,1024,-28.1,98,P-GPS,
0.364690181518928,36.9257815729018,24800,2018-04-03 07:22:28,1698.5055719521815,70.10000224320001,1.7999985098000002,0.46900501500816005,1698.6055719553815,70.2000022464,1.7999985098000002,0.46900501500816005,1024,-28.1,98,P-GPS,
0.364690577740217,36.9257818106204,24900,2018-04-03 07:22:29,1698.5055719521815,70.10000224320001,2.087998271368,0.5141440164526081,1698.6055719553815,70.2000022464,2.087998271368,0.5141440164526081,1024,-28.1,98,P-GPS,
0.364690982462594,36.9257820159341,25000,2018-04-03 07:22:29,1698.6055719553815,70.2000022464,2.087998271368,0.560922017949504,1698.6055719553815,70.2000022464,2.087998271368,0.560922017949504,1024,-28.1,98,P-GPS,
0.364691439321082,36.9257822270748,25100,2018-04-03 07:22:29,1698.6055719553815,70.2000022464,1.943998390584,0.614123019651936,1698.6055719553815,70.2000022464,2.087998271368,0.614123019651936,1024,-28.1,98,P-GPS,
0.364691946549289,36.9257824192686,25200,2018-04-03 07:22:29,1698.6055719553815,70.2000022464,2.267998122348,0.6729870215355841,1698.6055719553815,70.2000022464,2.267998122348,0.6729870215355841,1024,-28.1,98,P-GPS,
0.364692513020797,36.9257826221829,25300,2018-04-03 07:22:29,1698.6055719553815,70.2000022464,2.267998122348,0.7387840236410881,1698.6055719553815,70.2000022464,2.267998122348,0.7387840236410881,1024,-28.1,98,P-GPS,
0.364693131595452,36.925782813636,25400,2018-04-03 07:22:29,1698.6055719553815,70.2000022464,2.627997824308,0.810232025927424,1698.6055719553815,70.2000022464,2.627997824308,0.810232025927424,1024,-28.1,98,P-GPS,
0.364693803891025,36.9257829975064,25500,2018-04-03 07:22:29,1698.5055719521815,70.10000224320001,2.627997824308,0.887479028399328,1698.6055719553815,70.2000022464,2.627997824308,0.887479028399328,1024,-28.1,98,P-GPS,
0.364694519932506,36.9257831525678,25600,2018-04-03 07:22:29,1698.5055719521815,70.10000224320001,2.9159975858759997,0.96893003100576,1698.6055719553815,70.2000022464,2.9159975858759997,0.96893003100576,1024,-28.1,98,P-GPS,
0.364695289641802,36.925783261554,25700,2018-04-03 07:22:29,1698.5055719521815,70.10000224320001,3.275997287836,1.05528003376896,1698.6055719553815,70.2000022464,3.275997287836,1.05528003376896,1024,-28.1,98,P-GPS,
0.364696120081475,36.9257833222211,25800,2018-04-03 07:22:30,1698.5055719521815,70.10000224320001,3.2399973176400003,1.14733003671456,1698.6055719553815,70.2000022464,3.275997287836,1.14733003671456,1024,-28.1,98,P-GPS,
0.364697006543691,36.925783358107,25900,2018-04-03 07:22:30,1698.5055719521815,70.10000224320001,3.5999970196000004,1.24514003984448,1698.6055719553815,70.2000022464,3.5999970196000004,1.24514003984448,1024,-28.1,98,P-GPS,
0.364697959539245,36.9257834126152,26000,2018-04-03 07:22:30,1698.5055719521815,70.10000224320001,3.5999970196000004,1.35071004322272,1698.6055719553815,70.2000022464,3.5999970196000004,1.35071004322272,1024,-28.1,98,P-GPS,
0.364698961102326,36.9257834762448,26100,2018-04-03 07:22:30,1698.5055719521815,70.10000224320001,3.9599967215600005,1.4618500467792002,1698.6055719553815,70.2000022464,3.9599967215600005,1.4618500467792002,1024,-28.1,98,P-GPS,
0.364700082497715,36.9257835602476,26200,2018-04-03 07:22:30,1698.5055719521815,70.10000224320001,4.31999642352,1.5865800507705599,1698.6055719553815,70.2000022464,4.31999642352,1.5865800507705599,1024,-28.1,98,P-GPS,
0.364701280819985,36.9257836265627,26300,2018-04-03 07:22:30,1698.5055719521815,70.10000224320001,4.31999642352,1.7195500550256,1698.6055719553815,70.2000022464,4.31999642352,1.7195500550256,1024,-28.1,98,P-GPS,
0.364702574259669,36.9257837419254,26400,2018-04-03 07:22:30,1698.5055719521815,70.10000224320001,4.67999612548,1.8638000596416002,1698.6055719553815,70.2000022464,4.67999612548,1.8638000596416002,1024,-28.1,98,P-GPS,
0.364703872367287,36.9257838457815,26500,2018-04-03 07:22:30,1698.5055719521815,70.10000224320001,4.67999612548,2.00842006426944,1698.6055719553815,70.2000022464,4.67999612548,2.00842006426944,1024,-28.1,98,P-GPS,
0.364705217300813,36.9257839915457,26600,2018-04-03 07:22:30,1698.5055719521815,70.10000224320001,5.03999582744,2.15883006908256,1698.6055719553815,70.2000022464,5.03999582744,2.15883006908256,1024,-28.1,98,P-GPS,
0.364706599902691,36.925784167688,26700,2018-04-03 07:22:30,1698.4055719489816,70.00000224,5.3999955294,2.31382007404224,1698.6055719553815,70.2000022464,5.3999955294,2.31382007404224,1024,-28.1,98,P-GPS,
0.364708153334043,36.9257844988535,26800,2018-04-03 07:22:30,1698.4055719489816,70.00000224,5.3999955294,2.48991007967712,1698.6055719553815,70.2000022464,5.3999955294,2.48991007967712,1024,-28.1,98,P-GPS,
0.364709916759763,36.9257849855973,26900,2018-04-03 07:22:31,1698.4055719489816,70.00000224,7.415993860376,2.6916300861321605,1698.6055719553815,70.2000022464,7.415993860376,2.6916300861321605,1024,-28.1,98,P-GPS,
0.364712099395821,36.9257857508414,27000,2018-04-03 07:22:31,1698.5055719521815,70.10000224320001,8.63999284704,2.9444900942236805,1698.6055719553815,70.2000022464,8.63999284704,2.9444900942236805,1024,-28.1,98,P-GPS,
0.364714500417618,36.9257866512898,27100,2018-04-03 07:22:31,1698.5055719521815,70.10000224320001,9.575992072136,3.2245901031868804,1698.6055719553815,70.2000022464,9.575992072136,3.2245901031868804,1024,-28.1,98,P-GPS,
0.364717206596792,36.9257877806921,27200,2018-04-03 07:22:31,1698.5055719521815,70.10000224320001,10.835991028996,3.5437501134000002,1698.6055719553815,70.2000022464,10.835991028996,3.5437501134000002,1024,-28.1,98,P-GPS,
0.364720025938169,36.9257890352035,27300,2018-04-03 07:22:31,1698.5055719521815,70.10000224320001,11.771990254092,3.87934012413888,1698.6055719553815,70.2000022464,11.771990254092,3.87934012413888,1024,-28.1,98,P-GPS,
0.364723071125186,36.925790487996,27400,2018-04-03 07:22:31,1698.5055719521815,70.10000224320001,12.707989479188,4.24572013586304,1698.6055719553815,70.2000022464,12.707989479188,4.24572013586304,1024,-28.1,98,P-GPS,
0.364726197017888,36.9257920275852,27500,2018-04-03 07:22:31,1698.5055719521815,70.10000224320001,13.211989061932002,4.62464014798848,1698.6055719553815,70.2000022464,13.211989061932002,4.62464014798848,1024,-28.1,98,P-GPS,
0.364729538220198,36.9257937566793,27600,2018-04-03 07:22:31,1698.5055719521815,70.10000224320001,13.67998867448,5.03361016107552,1698.6055719553815,70.2000022464,13.67998867448,5.03361016107552,1024,-28.1,98,P-GPS,
0.364732926614815,36.9257955588868,27700,2018-04-03 07:22:31,1698.6055719553815,70.2000022464,14.651987869772002,5.45136017444352,1698.6055719553815,70.2000022464,14.651987869772002,5.45136017444352,1024,-28.1,98,P-GPS,
0.364736416533145,36.9257974832245,27800,2018-04-03 07:22:32,1698.6055719553815,70.2000022464,15.155987452516,5.885270188328641,1698.6055719553815,70.2000022464,15.155987452516,5.885270188328641,1024,-28.1,98,P-GPS,
0.364739943547429,36.9257994707974,27900,2018-04-03 07:22:32,1698.6055719553815,70.2000022464,15.623987065063998,6.3266002024512,1698.6055719553815,70.2000022464,15.623987065063998,6.3266002024512,1024,-28.1,98,P-GPS,
0.364743580344894,36.9258015757245,28000,2018-04-03 07:22:32,1698.6055719553815,70.2000022464,15.803986916044,6.784920217117441,1698.6055719553815,70.2000022464,15.803986916044,6.784920217117441,1024,-28.1,98,P-GPS,
0.364747259638233,36.925803743617,28100,2018-04-03 07:22:32,1698.6055719553815,70.2000022464,16.307986498788,7.25122023203904,1698.6055719553815,70.2000022464,16.307986498788,7.25122023203904,1024,-28.1,98,P-GPS,
0.364751122151063,36.9258061160882,28200,2018-04-03 07:22:32,1698.6055719553815,70.2000022464,16.775986111336,7.7456502478608,1698.6055719553815,70.2000022464,16.775986111336,7.7456502478608,1024,-28.1,98,P-GPS,
0.364754980377828,36.9258085342151,28300,2018-04-03 07:22:32,1698.6055719553815,70.2000022464,16.991985932512,8.2426502637648,1698.6055719553815,70.2000022464,16.991985932512,8.2426502637648,1024,-28.1,98,P-GPS,
0.364758924762309,36.925811088007,28400,2018-04-03 07:22:32,1698.6055719553815,70.2000022464,17.45998554506,8.75527028016864,1698.6055719553815,70.2000022464,17.45998554506,8.75527028016864,1024,-28.1,98,P-GPS,
0.364762860717963,36.9258136664446,28500,2018-04-03 07:22:32,1698.6055719553815,70.2000022464,17.963985127804,9.2692002966144,1698.6055719553815,70.2000022464,17.963985127804,9.2692002966144,1024,-28.1,98,P-GPS,
0.364766987090831,36.9258164308793,28600,2018-04-03 07:22:32,1698.5055719521815,70.10000224320001,18.17998494898,9.811740313975681,1698.6055719553815,70.2000022464,18.17998494898,9.811740313975681,1024,-28.1,98,P-GPS,
0.364771116531687,36.9258192232465,28700,2018-04-03 07:22:32,1698.5055719521815,70.10000224320001,18.683984531724,10.3569003314208,1698.6055719553815,70.2000022464,18.683984531724,10.3569003314208,1024,-28.1,98,P-GPS,
0.364775453364657,36.9258222275627,28800,2018-04-03 07:22:33,1698.6055719553815,70.2000022464,19.187984114467998,10.9337003498784,1698.6055719553815,70.2000022464,19.187984114467998,10.9337003498784,1024,-28.1,98,P-GPS,
