latitude,longitude,time_millisecond,datetime_utc,altitude_m,ascent_m,speed_kph,distance_m,max_altitude_m,max_ascent_m,max_speed_kph,max_distance_m,rc_throttle,gimbal_pitch_degrees,battery_percent,flycState,message
0.35665334651076,36.8955209043055,0,2017-11-13 13:11:34,1770.58599415875,0.0,0.0,0.0,1770.58599415875,0.0,0.0,0.0,1024,0.0,99,Motors_Started,
0.35665337579669604,36.895520828851,100,2017-11-13 13:11:34,1770.58599415875,0.0,0.0,0.00900071028802272,1770.58599415875,0.0,0.0,0.00900071028802272,1024,0.0,99,Motors_Started,
0.35665338330545204,36.8955207717058,200,2017-11-13 13:11:35,1770.58599415875,0.0,0.0,0.015302800489689598,1770.58599415875,0.0,0.0,0.015302800489689598,1024,0.0,99,Motors_Started,
0.356653391168394,36.8955207139514,300,2017-11-13 13:11:35,1770.58599415875,0.0,0.0,0.021742900695772803,1770.58599415875,0.0,0.0,0.021742900695772803,1024,0.0,99,Motors_Started,
0.35665340777608,36.8955206452994,400,2017-11-13 13:11:35,1770.58599415875,0.0,0.0,0.029597300947113603,1770.58599415875,0.0,0.0,0.029597300947113603,1024,0.0,99,Motors_Started,
0.35665343293309704,36.895520569092206,500,2017-11-13 13:11:35,1770.58599415875,0.0,0.0,0.03849600123187201,1770.58599415875,0.0,0.0,0.03849600123187201,1024,0.0,99,Motors_Started,Setting new Return-To-Home altitude to 30m (98 ft). Setting new Maximum Flight Altitude to 120m (394 ft)
0.35665344160781803,36.895520503176705,600,2017-11-13 13:11:35,1770.58599415875,0.0,0.0,0.045843601466995204,1770.58599415875,0.0,0.0,0.045843601466995204,1024,0.0,99,Motors_Started,
0.356653449195553,36.89552043823,700,2017-11-13 13:11:35,1770.58599415875,0.0,0.0,0.05307250169832001,1770.58599415875,0.0,0.0,0.05307250169832001,1024,0.0,99,Motors_Started,
0.356653470483387,36.8955203627873,800,2017-11-13 13:11:35,1770.58599415875,0.0,0.0,0.06177690197686081,1770.58599415875,0.0,0.0,0.06177690197686081,1024,0.0,99,Motors_Started,
0.35665349726559104,36.895520283276205,900,2017-11-13 13:11:35,1770.58599415875,0.0,0.0,0.07106660227413121,1770.58599415875,0.0,0.0,0.07106660227413121,1024,0.0,99,Motors_Started,
0.356653512288801,36.8955202152077,1000,2017-11-13 13:11:35,1770.58599415875,0.0,0.0,0.0788168025221376,1770.58599415875,0.0,0.0,0.0788168025221376,1024,0.0,99,Motors_Started,
0.356653521637698,36.8955201508413,1100,2017-11-13 13:11:35,1770.58599415875,0.0,0.0,0.0860218027526976,1770.58599415875,0.0,0.0,0.0860218027526976,1024,0.0,99,Motors_Started,
0.356653548555063,36.8955200981691,1200,2017-11-13 13:11:36,1770.58599415875,0.0,0.0,0.09241840295738882,1770.58599415875,0.0,0.0,0.09241840295738882,536,0.0,99,Motors_Started,
0.356653577571493,36.895520049084396,1300,2017-11-13 13:11:36,1770.58599415875,0.0,0.0,0.098514003152448,1770.58599415875,0.0,0.0,0.098514003152448,913,0.0,99,Motors_Started,
0.35665359852631,36.895519982331706,1400,2017-11-13 13:11:36,1770.58599415875,0.0,0.0,0.10628900340124801,1770.58599415875,0.0,0.0,0.10628900340124801,1024,0.0,99,Motors_Started,
0.356653610781165,36.895519903599,1500,2017-11-13 13:11:36,1770.58599415875,0.0,0.0,0.11509800368313601,1770.58599415875,0.0,0.0,0.11509800368313601,1024,0.0,99,Motors_Started,
0.35665363624921503,36.8955198305629,1600,2017-11-13 13:11:36,1770.58599415875,0.0,0.0,0.12367500395760002,1770.58599415875,0.0,0.0,0.12367500395760002,1024,0.0,99,Assisted_Takeoff,
0.35665367270437703,36.8955197756927,1700,2017-11-13 13:11:36,1770.58599415875,0.0,0.0,0.13064300418057598,1770.58599415875,0.0,0.0,0.13064300418057598,1024,0.0,99,Assisted_Takeoff,
0.35665369614338505,36.8955197027176,1800,2017-11-13 13:11:36,1770.58599415875,0.0,0.0,0.13916300445321603,1770.58599415875,0.0,0.0,0.13916300445321603,1024,0.0,99,Assisted_Takeoff,
0.35665370829320603,36.8955196163098,1900,2017-11-13 13:11:36,1770.58599415875,0.0,0.0,0.14877300476073602,1770.58599415875,0.0,0.0,0.14877300476073602,1024,0.0,99,Assisted_Takeoff,
0.35665374031085795,36.895519545936295,2000,2017-11-13 13:11:36,1770.58599415875,0.0,0.0,0.15727600503283198,1770.58599415875,0.0,0.0,0.15727600503283198,1024,0.0,99,Assisted_Takeoff,
0.356653772119254,36.895519480602104,2100,2017-11-13 13:11:36,1770.58599415875,0.0,0.0,0.16524500528784,1770.58599415875,0.0,0.0,0.16524500528784,1024,0.0,99,Assisted_Takeoff,
0.356653790270705,36.8955193895982,2200,2017-11-13 13:11:37,1770.58599415875,0.0,0.0,0.175522005616704,1770.58599415875,0.0,0.0,0.175522005616704,1024,0.0,99,Assisted_Takeoff,
0.356653805753951,36.8955193062652,2300,2017-11-13 13:11:37,1770.58599415875,0.0,0.0,0.184901005916832,1770.58599415875,0.0,0.0,0.184901005916832,1024,0.0,99,Assisted_Takeoff,
0.356653810715005,36.895519109602,2500,2017-11-13 13:11:37,1770.58599415875,0.0,0.0,0.206146006596672,1770.58599415875,0.0,0.0,0.206146006596672,1024,0.0,99,Assisted_Takeoff,
0.3566538292963661,36.8955190239586,2600,2017-11-13 13:11:37,1770.58599415875,0.0,0.0,0.21588500690832002,1770.58599415875,0.0,0.0,0.21588500690832002,1073,0.0,99,Assisted_Takeoff,
0.3566538549093471,36.8955189532093,2700,2017-11-13 13:11:37,1770.58599415875,0.0,0.0,0.22421500717488002,1770.58599415875,0.0,0.0,0.22421500717488002,1073,0.0,99,Assisted_Takeoff,
0.356653872122,36.8955188936714,2800,2017-11-13 13:11:37,1770.58599415875,0.0,0.0,0.23110400739532802,1770.58599415875,0.0,0.0,0.23110400739532802,1129,0.0,99,Assisted_Takeoff,
0.35665388217275606,36.8955188361182,2900,2017-11-13 13:11:37,1770.58599415875,0.0,0.0,0.23758000760255998,1770.58599415875,0.0,0.0,0.23758000760255998,1153,0.0,99,Assisted_Takeoff,
0.35665388522690294,36.8955187664717,3000,2017-11-13 13:11:37,1770.58599415875,0.0,0.0,0.245168007845376,1770.58599415875,0.0,0.0,0.245168007845376,1158,0.0,99,Assisted_Takeoff,
0.356653885153623,36.895518686791505,3100,2017-11-13 13:11:37,1770.58599415875,0.0,0.0,0.25376700812054404,1770.58599415875,0.0,0.0,0.25376700812054404,1164,0.0,99,Assisted_Takeoff,
0.35665390497504296,36.8955186205087,3200,2017-11-13 13:11:38,1770.58599415875,0.0,0.0,0.26145000836640003,1770.58599415875,0.0,0.0,0.26145000836640003,1173,0.0,99,Assisted_Takeoff,
0.35665393005226703,36.89551856213129,3300,2017-11-13 13:11:38,1770.58599415875,0.0,0.0,0.268421008589472,1770.58599415875,0.0,0.0,0.268421008589472,1180,0.0,99,Assisted_Takeoff,
0.356653949667689,36.895518514155704,3400,2017-11-13 13:11:38,1770.58599415875,0.0,0.0,0.27412700877206403,1770.58599415875,0.0,0.0,0.27412700877206403,1199,0.0,99,Assisted_Takeoff,
0.356653959404156,36.8955184600221,3500,2017-11-13 13:11:38,1770.58599415875,0.0,0.0,0.280229008967328,1770.58599415875,0.0,0.0,0.280229008967328,1236,0.0,99,Assisted_Takeoff,
0.356653964537825,36.8955183671008,3700,2017-11-13 13:11:38,1770.58599415875,0.0,0.0,0.290397009292704,1770.58599415875,0.0,0.0,0.290397009292704,1256,0.0,99,Assisted_Takeoff,
0.35665397136019106,36.8955182569322,3800,2017-11-13 13:11:38,1770.58599415875,0.0,0.0,0.30248800967961603,1770.58599415875,0.0,0.0,0.30248800967961603,1270,0.0,99,GPS_Atti,Obstacle Avoided. Revise Flight Route
0.35665394068030604,36.8955180699204,3900,2017-11-13 13:11:38,1770.58599415875,0.0,0.35999970196000003,0.322046010305472,1770.58599415875,0.0,0.35999970196000003,0.322046010305472,1286,0.0,99,GPS_Atti,
0.35665391518783,36.8955178332994,4000,2017-11-13 13:11:38,1770.58599415875,0.0,0.35999970196000003,0.347314011114048,1770.58599415875,0.0,0.35999970196000003,0.347314011114048,1295,0.0,99,GPS_Atti,
0.3566538914280179,36.8955175836428,4100,2017-11-13 13:11:38,1770.6859941619502,0.10000000320000002,0.35999970196000003,0.37421001197472004,1770.6859941619502,0.10000000320000002,0.35999970196000003,0.37421001197472004,1302,0.0,99,GPS_Atti,
0.35665386869575394,36.8955173248861,4200,2017-11-13 13:11:39,1770.7859941651502,0.20000000640000004,0.35999970196000003,0.402259012872288,1770.7859941651502,0.20000000640000004,0.35999970196000003,0.402259012872288,1343,0.0,99,GPS_Atti,
0.35665385623490004,36.8955170728357,4300,2017-11-13 13:11:39,1770.8859941683502,0.3000000096,0.35999970196000003,0.42982901375452803,1770.8859941683502,0.3000000096,0.35999970196000003,0.42982901375452803,1408,0.0,99,GPS_Atti,
0.356653844997008,36.895516811049205,4400,2017-11-13 13:11:39,1770.98599417155,0.4000000128000001,0.35999970196000003,0.45854901467356796,1770.98599417155,0.4000000128000001,0.35999970196000003,0.45854901467356796,1452,0.0,99,GPS_Atti,
0.35665380460834006,36.8955165771754,4500,2017-11-13 13:11:39,1771.08599417475,0.500000016,0.35999970196000003,0.48388301548425605,1771.08599417475,0.500000016,0.35999970196000003,0.48388301548425605,1484,0.0,99,GPS_Atti,
0.356653776378449,36.89551636912861,4600,2017-11-13 13:11:39,1771.18599417795,0.6000000192,0.35999970196000003,0.5065900162108801,1771.18599417795,0.6000000192,0.35999970196000003,0.5065900162108801,1536,0.0,99,GPS_Atti,Home Point Recorded. RTH Altitude:  30m.
0.35665373394852706,36.895516237306104,4700,2017-11-13 13:11:39,1771.38599418435,0.8000000256000002,0.35999970196000003,0.520774016664768,1771.38599418435,0.8000000256000002,0.35999970196000003,0.520774016664768,1559,0.0,99,GPS_Atti,
0.356653674177304,36.8955160796543,4800,2017-11-13 13:11:39,1771.6859941939501,1.1000000352,0.35999970196000003,0.5377560172081921,1771.6859941939501,1.1000000352,0.35999970196000003,0.5377560172081921,1595,0.0,99,GPS_Atti,
0.356653649406228,36.8955158956788,4900,2017-11-13 13:11:39,1771.8859942003503,1.3000000416000002,0.0,0.557997017855904,1771.8859942003503,1.3000000416000002,0.35999970196000003,0.557997017855904,1650,0.0,99,GPS_Atti,
0.35665369286207105,36.8955156733331,5000,2017-11-13 13:11:39,1772.18599420995,1.6000000512000003,0.35999970196000003,0.5829780186552961,1772.18599420995,1.6000000512000003,0.35999970196000003,0.5829780186552961,1684,0.0,99,GPS_Atti,
0.356653685784039,36.8955154078253,5100,2017-11-13 13:11:39,1772.58599422275,2.000000064,0.8063993323904,0.6123940195966079,1772.58599422275,2.000000064,0.8063993323904,0.6123940195966079,1684,0.0,99,GPS_Atti,
0.35665357385945395,36.895515125618296,5200,2017-11-13 13:11:40,1772.9859942355502,2.4000000768,1.0187991565468,0.64311002057952,1772.9859942355502,2.4000000768,1.0187991565468,0.64311002057952,1684,0.0,99,GPS_Atti,
0.356653389384433,36.895514833476206,5300,2017-11-13 13:11:40,1773.3859942483502,2.8000000896000006,1.0187991565468,0.675117021603744,1773.3859942483502,2.8000000896000006,1.0187991565468,0.675117021603744,1684,0.0,99,GPS_Atti,
0.356653220478151,36.89551458057571,5400,2017-11-13 13:11:40,1773.88599426435,3.3000001056,0.5075995797636,0.7033630225076161,1773.88599426435,3.3000001056,1.0187991565468,0.7033630225076161,1684,0.0,99,GPS_Atti,
0.35665311197004207,36.8955143788282,5500,2017-11-13 13:11:40,1774.3859942803501,3.8000001215999997,0.5075995797636,0.726127023236064,1774.3859942803501,3.8000001215999997,1.0187991565468,0.726127023236064,1684,0.0,99,GPS_Atti,
0.356653081474985,36.895514250594395,5600,2017-11-13 13:11:40,1774.78599429315,4.2000001344,0.5075995797636,0.7405060236961921,1774.78599429315,4.2000001344,1.0187991565468,0.7405060236961921,1684,0.0,99,GPS_Atti,
0.356653069823469,36.895514141267206,5700,2017-11-13 13:11:40,1775.2859943091503,4.700000150400001,0.0,0.7527060240865922,1775.2859943091503,4.700000150400001,1.0187991565468,0.7527060240865922,1684,0.0,99,GPS_Atti,
0.35665308336723706,36.8955140424319,5800,2017-11-13 13:11:40,1775.78599432515,5.200000166400001,0.0,0.763628024436096,1775.78599432515,5.200000166400001,1.0187991565468,0.763628024436096,1684,0.0,99,GPS_Atti,
0.356653090227872,36.8955139536817,5900,2017-11-13 13:11:40,1776.28599434115,5.7000001824,0.0,0.7734620247507841,1776.28599434115,5.7000001824,1.0187991565468,0.7734620247507841,1684,0.0,99,GPS_Atti,
0.35665311373771796,36.8955138687084,6000,2017-11-13 13:11:40,1776.78599435715,6.2000001984,0.0,0.7828140250500479,1776.78599435715,6.2000001984,1.0187991565468,0.7828140250500479,1684,0.0,99,GPS_Atti,
0.35665312401971294,36.895513796498896,6100,2017-11-13 13:11:40,1777.28599437315,6.7000002144,0.0,0.7908030253056961,1777.28599437315,6.7000002144,1.0187991565468,0.7908030253056961,1684,0.0,99,GPS_Atti,
0.35665312975020796,36.895513717034895,6200,2017-11-13 13:11:41,1777.7859943891501,7.200000230400001,0.35999970196000003,0.799616025587712,1777.7859943891501,7.200000230400001,1.0187991565468,0.799616025587712,1684,0.0,99,GPS_Atti,
0.35665311707440006,36.895513660130604,6300,2017-11-13 13:11:41,1778.18599440195,7.600000243199999,0.35999970196000003,0.8059850257915201,1778.18599440195,7.600000243199999,1.0187991565468,0.8059850257915201,1684,0.0,99,GPS_Atti,
0.3566530905006359,36.8955136205764,6400,2017-11-13 13:11:41,1778.68599441795,8.1000002592,0.0,0.8104800259353601,1778.68599441795,8.1000002592,1.0187991565468,0.8104800259353601,1684,0.0,99,GPS_Atti,
0.356653067826996,36.8955135901907,6500,2017-11-13 13:11:41,1779.18599443395,8.6000002752,0.0,0.813949026046368,1779.18599443395,8.6000002752,1.0187991565468,0.813949026046368,1684,0.0,99,GPS_Atti,
0.35665307232313,36.8955135494888,6600,2017-11-13 13:11:41,1779.6859944499502,9.1000002912,0.0,0.818453026190496,1779.6859944499502,9.1000002912,1.0187991565468,0.818453026190496,1684,0.0,99,GPS_Atti,
0.356653089717355,36.8955135109323,6700,2017-11-13 13:11:41,1780.08599446275,9.500000304,0.0,0.8226680263253761,1780.08599446275,9.500000304,1.0187991565468,0.8226680263253761,1684,0.0,99,GPS_Atti,
0.3566531157797871,36.8955134601604,6800,2017-11-13 13:11:41,1780.58599447875,10.00000032,0.0,0.828216026502912,1780.58599447875,10.00000032,1.0187991565468,0.828216026502912,1684,0.0,99,GPS_Atti,
0.356653143567555,36.8955134062366,6900,2017-11-13 13:11:41,1781.0859944947501,10.500000336,0.0,0.8341200266918399,1781.0859944947501,10.500000336,1.0187991565468,0.8341200266918399,1684,0.0,99,GPS_Atti,
0.35665316658072493,36.8955133483174,7000,2017-11-13 13:11:41,1781.4859945075502,10.9000003488,0.0,0.8404940268958081,1781.4859945075502,10.9000003488,1.0187991565468,0.8404940268958081,1684,0.0,99,GPS_Atti,
0.35665319010359897,36.895513294057395,7100,2017-11-13 13:11:41,1781.98599452355,11.4000003648,0.0,0.8464680270869761,1781.98599452355,11.4000003648,1.0187991565468,0.8464680270869761,1684,0.0,99,GPS_Atti,
0.35665323754180106,36.8955132345708,7200,2017-11-13 13:11:42,1782.48599453955,11.900000380800002,0.0,0.8529910272957121,1782.48599453955,11.900000380800002,1.0187991565468,0.8529910272957121,1684,0.0,99,GPS_Atti,
0.356653292476545,36.895513187775,7300,2017-11-13 13:11:42,1782.9859945555502,12.4000003968,0.0,0.8581300274601601,1782.9859945555502,12.4000003968,1.0187991565468,0.8581300274601601,1684,0.0,99,GPS_Atti,
0.35665336538361103,36.8955131663631,7400,2017-11-13 13:11:42,1783.3859945683503,12.800000409600003,0.0,0.8604920275357442,1783.3859945683503,12.800000409600003,1.0187991565468,0.8604920275357442,1684,0.0,99,GPS_Atti,
0.35665344025295204,36.8955131564558,7500,2017-11-13 13:11:42,1783.88599458435,13.3000004256,0.0,0.86165502757296,1783.88599458435,13.3000004256,1.0187991565468,0.86165502757296,1684,0.0,99,GPS_Atti,
0.356653527867311,36.895513137142295,7600,2017-11-13 13:11:42,1784.38599460035,13.8000004416,0.0,0.8639750276471999,1784.38599460035,13.8000004416,1.0187991565468,0.8639750276471999,1684,0.0,99,GPS_Atti,
0.35665361772077897,36.8955131076795,7700,2017-11-13 13:11:42,1784.8859946163502,14.300000457600001,0.0,0.8675400277612801,1784.8859946163502,14.300000457600001,1.0187991565468,0.8675400277612801,1684,0.0,99,GPS_Atti,
0.35665375865934995,36.89551307086379,7800,2017-11-13 13:11:42,1785.28599462915,14.7000004704,0.0,0.87231502791408,1785.28599462915,14.7000004704,1.0187991565468,0.87231502791408,1684,0.0,99,GPS_Atti,
0.356653900279425,36.895513043674896,7900,2017-11-13 13:11:42,1785.7859946451501,15.200000486399999,0.0,0.8763000280416,1785.7859946451501,15.200000486399999,1.0187991565468,0.8763000280416,1684,0.0,99,GPS_Atti,
0.35665402867897705,36.8955130333201,8000,2017-11-13 13:11:42,1786.3859946643502,15.8000005056,0.0,0.8785660281141121,1786.3859946643502,15.8000005056,1.0187991565468,0.8785660281141121,1684,0.0,99,GPS_Atti,
0.356654147221558,36.895513023284394,8100,2017-11-13 13:11:42,1786.8859946803502,16.3000005216,0.0,0.8809130281892161,1786.8859946803502,16.3000005216,1.0187991565468,0.8809130281892161,1684,0.0,99,GPS_Atti,
0.35665429389469505,36.895513009413705,8200,2017-11-13 13:11:43,1787.38599469635,16.8000005376,0.0,0.8842420282957442,1787.38599469635,16.8000005376,1.0187991565468,0.8842420282957442,1684,0.0,99,GPS_Atti,
0.35665443927566104,36.895512986819895,8300,2017-11-13 13:11:43,1787.8859947123499,17.3000005536,0.0,0.888802028441664,1787.8859947123499,17.3000005536,1.0187991565468,0.888802028441664,1684,0.0,99,GPS_Atti,
0.35665459775827296,36.8955129707481,8400,2017-11-13 13:11:43,1788.3859947283502,17.8000005696,0.0,0.8931480285807359,1788.3859947283502,17.8000005696,1.0187991565468,0.8931480285807359,1684,0.0,99,GPS_Atti,
0.35665473678098003,36.8955129526721,8500,2017-11-13 13:11:43,1788.88599474435,18.3000005856,0.0,0.897667028725344,1788.88599474435,18.3000005856,1.0187991565468,0.897667028725344,1684,0.0,99,GPS_Atti,
0.356654883357224,36.895512954434295,8600,2017-11-13 13:11:43,1789.4859947635503,18.900000604800002,0.0,0.9004250288136001,1789.4859947635503,18.900000604800002,1.0187991565468,0.9004250288136001,1684,0.0,99,GPS_Atti,
0.356655018932515,36.895512954260894,8700,2017-11-13 13:11:43,1789.98599477955,19.4000006208,0.0,0.903427028909664,1789.98599477955,19.4000006208,1.0187991565468,0.903427028909664,1684,0.0,99,GPS_Atti,
0.356655166759404,36.8955129375746,8800,2017-11-13 13:11:43,1790.5859947987499,20.00000064,0.0,0.9087630290804161,1790.5859947987499,20.00000064,1.0187991565468,0.9087630290804161,1684,0.0,99,GPS_Atti,
0.356655294455469,36.8955129019666,8900,2017-11-13 13:11:43,1791.0859948147502,20.500000655999997,0.0,0.9158780293080961,1791.0859948147502,20.500000655999997,1.0187991565468,0.9158780293080961,1684,0.0,99,GPS_Atti,
0.35665540226009,36.8955128689065,9000,2017-11-13 13:11:43,1791.68599483395,21.1000006752,0.0,0.922349029515168,1791.68599483395,21.1000006752,1.0187991565468,0.922349029515168,1684,0.0,99,GPS_Atti,
0.356655482405589,36.8955128309775,9100,2017-11-13 13:11:43,1792.2859948531502,21.700000694400003,0.0,0.9286750297176,1792.2859948531502,21.700000694400003,1.0187991565468,0.9286750297176,1684,0.0,99,GPS_Atti,
0.35665558089144,36.895512781620795,9200,2017-11-13 13:11:44,1792.88599487235,22.3000007136,0.0,0.9368270299784641,1792.88599487235,22.3000007136,1.0187991565468,0.9368270299784641,1684,0.0,99,GPS_Atti,
0.35665566748801997,36.895512723207,9300,2017-11-13 13:11:44,1793.38599488835,22.8000007296,0.0,0.9456750302615999,1793.38599488835,22.8000007296,1.0187991565468,0.9456750302615999,1684,0.0,99,GPS_Atti,
0.356655749110519,36.895512662129505,9400,2017-11-13 13:11:44,1793.98599490755,23.400000748800004,0.0,0.9547110305507522,1793.98599490755,23.400000748800004,1.0187991565468,0.9547110305507522,1684,0.0,99,GPS_Atti,
0.3566558035665,36.89551260263,9500,2017-11-13 13:11:44,1794.5859949267501,24.000000768000003,0.0,0.962767030808544,1794.5859949267501,24.000000768000003,1.0187991565468,0.962767030808544,1684,0.0,99,GPS_Atti,
0.356655866391055,36.8955125222025,9600,2017-11-13 13:11:44,1795.1859949459501,24.600000787200003,0.0,0.973334031146688,1795.1859949459501,24.600000787200003,1.0187991565468,0.973334031146688,1684,0.0,99,GPS_Atti,
0.35665590443639295,36.8955124415995,9700,2017-11-13 13:11:44,1795.7859949651502,25.200000806400006,0.0,0.9831370314603841,1795.7859949651502,25.200000806400006,1.0187991565468,0.9831370314603841,1684,0.0,99,GPS_Atti,
0.35665596412375006,36.895512341652896,9800,2017-11-13 13:11:44,1796.3859949843502,25.800000825599998,0.0,0.9957020318624641,1796.3859949843502,25.800000825599998,1.0187991565468,0.9957020318624641,1684,0.0,99,GPS_Atti,
0.35665599963685707,36.8955122500035,9900,2017-11-13 13:11:44,1796.98599500355,26.4000008448,0.0,1.0066000322112,1796.98599500355,26.4000008448,1.0187991565468,1.0066000322112,1684,0.0,99,GPS_Atti,
0.356656045836628,36.89551213850729,10000,2017-11-13 13:11:44,1797.5859950227502,27.000000864000004,0.0,1.0199600326387201,1797.5859950227502,27.000000864000004,1.0187991565468,1.0199600326387201,1684,0.0,99,GPS_Atti,
0.35665606416313594,36.895512039839,10100,2017-11-13 13:11:44,1798.18599504195,27.6000008832,0.0,1.0310500329936,1798.18599504195,27.6000008832,1.0187991565468,1.0310500329936,1684,0.0,99,GPS_Atti,
0.356656079549489,36.895511949279395,10200,2017-11-13 13:11:45,1798.78599506115,28.200000902400003,0.0,1.04118003331776,1798.78599506115,28.200000902400003,1.0187991565468,1.04118003331776,1684,0.0,99,GPS_Atti,
0.35665606922434,36.8955118716441,10300,2017-11-13 13:11:45,1799.3859950803499,28.800000921600002,0.0,1.04911003357152,1799.3859950803499,28.800000921600002,1.0187991565468,1.04911003357152,1684,0.0,99,GPS_Atti,
0.35665605856698795,36.8955117537757,10400,2017-11-13 13:11:45,1799.98599509955,29.4000009408,0.0,1.0613300339625602,1799.98599509955,29.4000009408,1.0187991565468,1.0613300339625602,1684,0.0,99,GPS_Atti,
0.35665602292523496,36.8955116415858,10500,2017-11-13 13:11:45,1800.5859951187501,30.00000096,0.0,1.0721900343100799,1800.5859951187501,30.00000096,1.0187991565468,1.0721900343100799,1684,0.0,99,GPS_Atti,
0.35665600308020207,36.8955115378194,10600,2017-11-13 13:11:45,1801.18599513795,30.6000009792,0.0,1.0826800346457601,1801.18599513795,30.6000009792,1.0187991565468,1.0826800346457601,1684,0.0,99,GPS_Atti,
0.35665597935133003,36.8955114532423,10700,2017-11-13 13:11:45,1801.7859951571502,31.2000009984,0.0,1.0910200349126402,1801.7859951571502,31.2000009984,1.0187991565468,1.0910200349126402,1684,0.0,99,GPS_Atti,
0.3566559850948521,36.8955113843109,10800,2017-11-13 13:11:45,1802.28599517315,31.7000010144,0.0,1.09857003515424,1802.28599517315,31.7000010144,1.0187991565468,1.09857003515424,1684,0.0,99,GPS_Atti,
0.356655982946935,36.8955113241519,10900,2017-11-13 13:11:45,1802.8859951923503,32.300001033600005,0.0,1.1049600353587201,1802.8859951923503,32.300001033600005,1.0187991565468,1.1049600353587201,1684,0.0,99,GPS_Atti,
0.356655986260818,36.8955112433005,11000,2017-11-13 13:11:45,1803.48599521155,32.9000010528,0.0,1.11373003563936,1803.48599521155,32.9000010528,1.0187991565468,1.11373003563936,1684,0.0,99,GPS_Atti,
0.356655972657611,36.895511186364104,11100,2017-11-13 13:11:45,1804.08599523075,33.500001071999996,0.0,1.11944003582208,1804.08599523075,33.500001071999996,1.0187991565468,1.11944003582208,1684,0.0,99,GPS_Atti,
0.35665597570117297,36.895511163761604,11200,2017-11-13 13:11:46,1804.68599524995,34.1000010912,0.0,1.1219500359024002,1804.68599524995,34.1000010912,1.0187991565468,1.1219500359024002,1684,0.0,99,GPS_Atti,
0.35665597435037893,36.8955111674102,11300,2017-11-13 13:11:46,1805.2859952691501,34.7000011104,0.0,1.1215200358886401,1805.2859952691501,34.7000011104,1.0187991565468,1.1219500359024002,1684,0.0,99,GPS_Atti,
0.356655951399089,36.8955111448806,11400,2017-11-13 13:11:46,1805.88599528835,35.300001129600005,0.0,1.12328003594496,1805.88599528835,35.300001129600005,1.0187991565468,1.12328003594496,1684,0.0,99,GPS_Atti,
0.356655887445208,36.8955111329863,11500,2017-11-13 13:11:46,1806.4859953075502,35.9000011488,0.0,1.122750035928,1806.4859953075502,35.9000011488,1.0187991565468,1.12328003594496,1684,0.0,99,GPS_Atti,
0.356655745763252,36.8955111781033,11600,2017-11-13 13:11:46,1807.0859953267502,36.500001168000004,0.5075995797636,1.11402003564864,1807.0859953267502,36.500001168000004,1.0187991565468,1.12328003594496,1684,0.0,99,GPS_Atti,
0.356655565042609,36.8955112583595,11700,2017-11-13 13:11:46,1807.58599534275,37.000001184000006,0.5075995797636,1.10067003522144,1807.58599534275,37.000001184000006,1.0187991565468,1.12328003594496,1684,0.0,99,GPS_Atti,
0.35665533696925605,36.8955113592504,11800,2017-11-13 13:11:46,1808.18599536195,37.60000120320001,0.5075995797636,1.0842800346969599,1808.18599536195,37.60000120320001,1.0187991565468,1.12328003594496,1684,0.0,99,GPS_Atti,
0.356655123117919,36.8955114659888,11900,2017-11-13 13:11:46,1808.78599538115,38.2000012224,0.5075995797636,1.06801003417632,1808.78599538115,38.2000012224,1.0187991565468,1.12328003594496,1684,0.0,99,GPS_Atti,
0.356654948764492,36.8955115451701,12000,2017-11-13 13:11:46,1809.38599540035,38.8000012416,0.5075995797636,1.05591003378912,1809.38599540035,38.8000012416,1.0187991565468,1.12328003594496,1684,0.0,99,GPS_Atti,
0.3566548093941121,36.895511607363204,12100,2017-11-13 13:11:46,1809.8859954163502,39.3000012576,0.5075995797636,1.0465800334905602,1809.8859954163502,39.3000012576,1.0187991565468,1.12328003594496,1684,0.0,99,GPS_Atti,
0.356654703337626,36.895511621323706,12200,2017-11-13 13:11:47,1810.48599543555,39.900001276800005,0.0,1.04327003338464,1810.48599543555,39.900001276800005,1.0187991565468,1.12328003594496,1684,0.0,99,GPS_Atti,
0.35665462786331803,36.8955116077443,12300,2017-11-13 13:11:47,1811.08599545475,40.500001296,0.0,1.04359003339488,1811.08599545475,40.500001296,1.0187991565468,1.12328003594496,1684,0.0,99,GPS_Atti,
0.35665458687701096,36.895511528922704,12400,2017-11-13 13:11:47,1811.58599547075,41.000001311999995,0.0,1.05166003365312,1811.58599547075,41.000001311999995,1.0187991565468,1.12328003594496,1684,0.0,99,GPS_Atti,
0.356654568722303,36.8955114215569,12500,2017-11-13 13:11:47,1812.18599548995,41.600001331200005,0.0,1.06324003402368,1812.18599548995,41.600001331200005,1.0187991565468,1.12328003594496,1684,0.0,99,GPS_Atti,
0.356654552220466,36.895511280902,12600,2017-11-13 13:11:47,1812.7859955091499,42.2000013504,0.0,1.07853003451296,1812.7859955091499,42.2000013504,1.0187991565468,1.12328003594496,1684,0.0,99,GPS_Atti,
0.356654541418996,36.8955111397803,12700,2017-11-13 13:11:47,1813.2859955251502,42.7000013664,0.0,1.0939500350064,1813.2859955251502,42.7000013664,1.0187991565468,1.12328003594496,1684,0.0,99,GPS_Atti,
0.356654555375576,36.8955109765701,12800,2017-11-13 13:11:47,1813.88599554435,43.300001385600005,0.0,1.1121600355891201,1813.88599554435,43.300001385600005,1.0187991565468,1.12328003594496,1684,0.0,99,GPS_Atti,
0.35665457984946103,36.895510824926504,12900,2017-11-13 13:11:47,1814.3859955603502,43.80000140159999,0.0,1.12923003613536,1814.3859955603502,43.80000140159999,1.0187991565468,1.12923003613536,1684,0.0,99,GPS_Atti,
0.35665461939866605,36.8955106858775,13000,2017-11-13 13:11:47,1814.98599557955,44.4000014208,0.0,1.14511003664352,1814.98599557955,44.4000014208,1.0187991565468,1.14511003664352,1684,0.0,99,GPS_Atti,
0.356654668933489,36.895510562851,13100,2017-11-13 13:11:47,1815.4859955955503,44.9000014368,0.0,1.1593800371001601,1815.4859955955503,44.9000014368,1.0187991565468,1.1593800371001601,1684,0.0,99,GPS_Atti,
0.35665473742014403,36.8955104699254,13200,2017-11-13 13:11:48,1815.9859956115502,45.400001452800005,0.0,1.17061003745952,1815.9859956115502,45.400001452800005,1.0187991565468,1.17061003745952,1684,0.0,99,GPS_Atti,
0.35665479780936205,36.895510383558296,13300,2017-11-13 13:11:48,1816.48599562755,45.9000014688,0.0,1.18103003779296,1816.48599562755,45.9000014688,1.0187991565468,1.18103003779296,1684,0.0,99,GPS_Atti,
0.35665485394996793,36.8955103439205,13400,2017-11-13 13:11:48,1817.0859956467502,46.50000148800001,0.0,1.18626003796032,1817.0859956467502,46.50000148800001,1.0187991565468,1.18626003796032,1684,0.0,99,GPS_Atti,
0.35665487176026,36.8955103165775,13500,2017-11-13 13:11:48,1817.58599566275,47.000001504000004,0.0,1.1895500380656,1817.58599566275,47.000001504000004,1.0187991565468,1.1895500380656,1684,0.0,99,GPS_Atti,
0.356654872762568,36.8955102990754,13600,2017-11-13 13:11:48,1818.1859956819503,47.60000152320001,0.0,1.1914900381276803,1818.1859956819503,47.60000152320001,1.0187991565468,1.1914900381276803,1684,0.0,99,GPS_Atti,
0.35665486031392796,36.8955102818902,13700,2017-11-13 13:11:48,1818.6859956979501,48.1000015392,0.0,1.1931900381820801,1818.6859956979501,48.1000015392,1.0187991565468,1.1931900381820801,1684,0.0,99,GPS_Atti,
0.356654853048625,36.8955102550032,13800,2017-11-13 13:11:48,1819.28599571715,48.70000155840001,0.0,1.19604003827328,1819.28599571715,48.70000155840001,1.0187991565468,1.19604003827328,1684,0.0,99,GPS_Atti,
0.35665482190707604,36.895510134387706,14000,2017-11-13 13:11:48,1820.38599575235,49.8000015936,0.0,1.2088400386828801,1820.38599575235,49.8000015936,1.0187991565468,1.2088400386828801,1684,0.0,99,GPS_Atti,
0.35665481067651206,36.895510065163,14100,2017-11-13 13:11:49,1820.88599576835,50.3000016096,0.0,1.2163000389216,1820.88599576835,50.3000016096,1.0187991565468,1.2163000389216,1684,0.0,99,GPS_Atti,
0.3566548472163521,36.895509956142,14300,2017-11-13 13:11:49,1821.88599580035,51.3000016416,0.0,1.22886003932352,1821.88599580035,51.3000016416,1.0187991565468,1.22886003932352,1684,0.0,99,GPS_Atti,
0.356654853179714,36.895509891443794,14400,2017-11-13 13:11:49,1822.4859958195502,51.90000166080001,0.0,1.2360800395545601,1822.4859958195502,51.90000166080001,1.0187991565468,1.2360800395545601,1684,0.0,99,GPS_Atti,
0.35665483566498496,36.895509827614795,14500,2017-11-13 13:11:49,1822.98599583555,52.400001676799995,0.0,1.2428500397712,1822.98599583555,52.400001676799995,1.0187991565468,1.2428500397712,1684,0.0,99,GPS_Atti,
0.35665484746469,36.895509751786605,14600,2017-11-13 13:11:49,1823.48599585155,52.90000169280001,0.0,1.25139004004448,1823.48599585155,52.90000169280001,1.0187991565468,1.25139004004448,1684,0.0,99,GPS_Atti,
0.35665491914635206,36.895509696847895,14700,2017-11-13 13:11:49,1823.9859958675502,53.400001708800005,0.0,1.2585200402726402,1823.9859958675502,53.400001708800005,1.0187991565468,1.2585200402726402,1684,0.0,99,GPS_Atti,
0.3566550832137129,36.895509649382,14800,2017-11-13 13:11:49,1824.48599588355,53.900001724800006,0.35999970196000003,1.2664100405251202,1824.48599588355,53.900001724800006,1.0187991565468,1.2664100405251202,1684,0.0,99,GPS_Atti,
0.35665524936303994,36.895509619037,14900,2017-11-13 13:11:49,1824.98599589955,54.40000174080001,0.35999970196000003,1.2726800407257601,1824.98599589955,54.40000174080001,1.0187991565468,1.2726800407257601,1684,0.0,99,GPS_Atti,
0.356655428262269,36.8955095741512,15000,2017-11-13 13:11:49,1825.4859959155501,54.9000017568,0.35999970196000003,1.2810500409935999,1825.4859959155501,54.9000017568,1.0187991565468,1.2810500409935999,1684,0.0,99,GPS_Atti,
0.35665557530587705,36.8955095341623,15100,2017-11-13 13:11:49,1825.9859959315502,55.40000177280001,0.0,1.2884700412310401,1825.9859959315502,55.40000177280001,1.0187991565468,1.2884700412310401,1684,0.0,99,GPS_Atti,
0.356655713849007,36.895509471299,15200,2017-11-13 13:11:50,1826.48599594755,55.900001788800004,0.0,1.29837004154784,1826.48599594755,55.900001788800004,1.0187991565468,1.29837004154784,1684,0.0,99,GPS_Atti,
0.35665582668796203,36.8955093979161,15300,2017-11-13 13:11:50,1826.9859959635503,56.400001804800006,0.0,1.3089400418860802,1826.9859959635503,56.400001804800006,1.0187991565468,1.3089400418860802,1684,0.0,99,GPS_Atti,
0.35665596499008295,36.895509316268104,15400,2017-11-13 13:11:50,1827.4859959795501,56.90000182080001,0.0,1.32113004227616,1827.4859959795501,56.90000182080001,1.0187991565468,1.32113004227616,1684,0.0,99,GPS_Atti,
0.356656094233169,36.895509257259,15500,2017-11-13 13:11:50,1827.98599599555,57.4000018368,0.0,1.3307500425840002,1827.98599599555,57.4000018368,1.0187991565468,1.3307500425840002,1684,0.0,99,GPS_Atti,
0.35665622769229705,36.895509219085795,15600,2017-11-13 13:11:50,1828.48599601155,57.90000185280001,0.0,1.3383600428275202,1828.48599601155,57.90000185280001,1.0187991565468,1.3383600428275202,1684,0.0,99,GPS_Atti,
0.35665633337668395,36.895509201673704,15700,2017-11-13 13:11:50,1828.98599602755,58.400001868800004,0.0,1.3431000429792,1828.98599602755,58.400001868800004,1.0187991565468,1.3431000429792,1684,0.0,99,GPS_Atti,
0.35665644903366206,36.895509183666206,15800,2017-11-13 13:11:50,1829.58599604675,59.000001888,0.0,1.34827004314464,1829.58599604675,59.000001888,1.0187991565468,1.34827004314464,1684,0.0,99,GPS_Atti,
0.35665654052208795,36.8955091654233,15900,2017-11-13 13:11:50,1830.0859960627502,59.500001904,0.0,1.3528700432918401,1830.0859960627502,59.500001904,1.0187991565468,1.3528700432918401,1684,0.0,99,GPS_Atti,
0.35665663469581893,36.8955091298688,16000,2017-11-13 13:11:50,1830.5859960787502,60.00000192,0.0,1.3594700435030402,1830.5859960787502,60.00000192,1.0187991565468,1.3594700435030402,1684,0.0,99,GPS_Atti,
0.35665670596222704,36.8955091136942,16100,2017-11-13 13:11:50,1831.08599609475,60.500001936,0.0,1.3633500436272,1831.08599609475,60.500001936,1.0187991565468,1.3633500436272,1684,0.0,99,GPS_Atti,
0.356656813222948,36.8955091092555,16200,2017-11-13 13:11:51,1831.58599611075,61.000001952,0.0,1.36714004374848,1831.58599611075,61.000001952,1.0187991565468,1.36714004374848,1684,0.0,99,GPS_Atti,
0.356656894435079,36.8955091087481,16300,2017-11-13 13:11:51,1832.1859961299501,61.6000019712,0.0,1.3697700438326401,1832.1859961299501,61.6000019712,1.0187991565468,1.3697700438326401,1684,0.0,99,GPS_Atti,
0.35665696962359494,36.895509099451,16400,2017-11-13 13:11:51,1832.68599614595,62.1000019872,0.0,1.37319004394208,1832.68599614595,62.1000019872,1.0187991565468,1.37319004394208,1684,0.0,99,GPS_Atti,
0.356657013260194,36.8955090781997,16500,2017-11-13 13:11:51,1833.1859961619502,62.600002003200004,0.0,1.37688004406016,1833.1859961619502,62.600002003200004,1.0187991565468,1.37688004406016,1684,0.0,99,GPS_Atti,
0.35665707986274,36.8955090555266,16600,2017-11-13 13:11:51,1833.68599617795,63.100002019200005,0.0,1.38149004420768,1833.68599617795,63.100002019200005,1.0187991565468,1.38149004420768,1684,0.0,99,GPS_Atti,
0.35665712093209706,36.8955090545031,16700,2017-11-13 13:11:51,1834.18599619395,63.600002035200006,0.0,1.3829800442553601,1834.18599619395,63.600002035200006,1.0187991565468,1.3829800442553601,1684,0.0,99,GPS_Atti,
0.356657189665462,36.895509040816606,16800,2017-11-13 13:11:51,1834.6859962099502,64.1000020512,0.0,1.38677004437664,1834.6859962099502,64.1000020512,1.0187991565468,1.38677004437664,1684,0.0,99,GPS_Atti,
0.35665723302603997,36.89550902294621,16900,2017-11-13 13:11:51,1835.18599622595,64.60000206720001,0.0,1.3901500444848,1835.18599622595,64.60000206720001,1.0187991565468,1.3901500444848,1684,0.0,99,GPS_Atti,
0.35665730022052505,36.8955089782467,17000,2017-11-13 13:11:51,1835.68599624195,65.1000020832,0.0,1.3972100447107199,1835.68599624195,65.1000020832,1.0187991565468,1.3972100447107199,1684,0.0,99,GPS_Atti,
0.35665733291397994,36.8955089411141,17100,2017-11-13 13:11:52,1836.28599626115,65.7000021024,0.0,1.40227004487264,1836.28599626115,65.7000021024,1.0187991565468,1.40227004487264,1684,0.0,99,GPS_Atti,
0.35665738871831393,36.895508900879,17200,2017-11-13 13:11:52,1836.7859962771502,66.20000211840001,0.0,1.4084900450716802,1836.7859962771502,66.20000211840001,1.0187991565468,1.4084900450716802,1684,0.0,99,GPS_Atti,
0.356657416300898,36.8955088754844,17300,2017-11-13 13:11:52,1837.28599629315,66.7000021344,0.0,1.41214004518848,1837.28599629315,66.7000021344,1.0187991565468,1.41214004518848,1684,0.0,99,GPS_Atti,
0.35665743925300203,36.895508845229394,17400,2017-11-13 13:11:52,1837.88599631235,67.30000215359999,0.0,1.4161500453168,1837.88599631235,67.30000215359999,1.0187991565468,1.4161500453168,1684,0.0,99,GPS_Atti,
0.35665743232967206,36.8955088360437,17500,2017-11-13 13:11:52,1838.38599632835,67.8000021696,0.0,1.41687004533984,1838.38599632835,67.8000021696,1.0187991565468,1.41687004533984,1684,0.0,99,GPS_Atti,
0.356657454962601,36.8955088124156,17600,2017-11-13 13:11:52,1838.8859963443501,68.30000218560001,0.0,1.42017004544544,1838.8859963443501,68.30000218560001,1.0187991565468,1.42017004544544,1684,0.0,99,GPS_Atti,
0.35665745110074604,36.895508800896,17700,2017-11-13 13:11:52,1839.3859963603502,68.8000022016,0.0,1.42124004547968,1839.3859963603502,68.8000022016,1.0187991565468,1.42124004547968,1684,0.0,99,GPS_Atti,
0.35665744706709007,36.895508773493,17800,2017-11-13 13:11:52,1839.88599637635,69.30000221760001,0.0,1.42398004556736,1839.88599637635,69.30000221760001,1.0187991565468,1.42398004556736,1684,0.0,99,GPS_Atti,
0.35665741346821994,36.895508753068206,17900,2017-11-13 13:11:52,1840.48599639555,69.9000022368,0.0,1.42494004559808,1840.48599639555,69.9000022368,1.0187991565468,1.42494004559808,1684,0.0,99,GPS_Atti,
0.35665737321552704,36.8955086995255,18000,2017-11-13 13:11:52,1840.98599641155,70.4000022528,0.0,1.42918004573376,1840.98599641155,70.4000022528,1.0187991565468,1.42918004573376,1684,0.0,99,GPS_Atti,
0.356657315827532,36.895508656155705,18100,2017-11-13 13:11:52,1841.48599642755,70.90000226880001,0.0,1.4317800458169598,1841.48599642755,70.90000226880001,1.0187991565468,1.4317800458169598,1684,0.0,99,GPS_Atti,
0.35665730438527005,36.8955085910206,18200,2017-11-13 13:11:53,1841.9859964435502,71.4000022848,0.0,1.4382900460252803,1841.9859964435502,71.4000022848,1.0187991565468,1.4382900460252803,1684,0.0,99,GPS_Atti,
0.3566572942400639,36.895508536007,18300,2017-11-13 13:11:53,1842.48599645955,71.9000023008,0.0,1.4437700462006402,1842.48599645955,71.9000023008,1.0187991565468,1.4437700462006402,1684,0.0,99,GPS_Atti,
0.356657272018317,36.8955084872927,18400,2017-11-13 13:11:53,1842.9859964755499,72.40000231680001,0.0,1.4481800463417602,1842.9859964755499,72.40000231680001,1.0187991565468,1.4481800463417602,1684,0.0,99,GPS_Atti,
0.356657220817595,36.895508465458995,18500,2017-11-13 13:11:53,1843.4859964915502,72.9000023328,0.0,1.4487900463612802,1843.4859964915502,72.9000023328,1.0187991565468,1.4487900463612802,1684,0.0,99,GPS_Atti,
0.35665720441672205,36.8955084666109,18600,2017-11-13 13:11:53,1843.98599650755,73.4000023488,0.0,1.4481300463401603,1843.98599650755,73.4000023488,1.0187991565468,1.4487900463612802,1684,0.0,99,GPS_Atti,
0.356657191453493,36.8955084898257,18700,2017-11-13 13:11:53,1844.48599652355,73.9000023648,0.0,1.44524004624768,1844.48599652355,73.9000023648,1.0187991565468,1.4487900463612802,1684,0.0,99,GPS_Atti,
0.356657187086006,36.8955084967139,18800,2017-11-13 13:11:53,1844.9859965395501,74.4000023808,0.0,1.44436004621952,1844.9859965395501,74.4000023808,1.0187991565468,1.4487900463612802,1684,0.0,99,GPS_Atti,
0.356657166323345,36.895508504919,18900,2017-11-13 13:11:53,1845.4859965555502,74.9000023968,0.0,1.4428100461699203,1845.4859965555502,74.9000023968,1.0187991565468,1.4487900463612802,1684,0.0,99,GPS_Atti,
0.35665715087836797,36.8955085320201,19000,2017-11-13 13:11:53,1845.88599656835,75.30000240960001,0.0,1.43942004606144,1845.88599656835,75.30000240960001,1.0187991565468,1.4487900463612802,1684,0.0,99,GPS_Atti,
0.3566571299764749,36.895508578186295,19100,2017-11-13 13:11:53,1846.38599658435,75.80000242560001,0.35999970196000003,1.4338300458825601,1846.38599658435,75.80000242560001,1.0187991565468,1.4487900463612802,1684,0.0,99,GPS_Atti,
0.35665713100728,36.8955086110493,19200,2017-11-13 13:11:54,1846.8859966003502,76.3000024416,0.0,1.43037004577184,1846.8859966003502,76.3000024416,1.0187991565468,1.4487900463612802,1684,0.0,99,GPS_Atti,
0.35665713161469,36.8955086428075,19300,2017-11-13 13:11:54,1847.3859966163502,76.8000024576,0.0,1.4270200456646402,1847.3859966163502,76.8000024576,1.0187991565468,1.4487900463612802,1684,0.0,99,GPS_Atti,
0.35665714447532604,36.8955086504965,19400,2017-11-13 13:11:54,1847.88599663235,77.3000024736,0.0,1.4266300456521601,1847.88599663235,77.3000024736,1.0187991565468,1.4487900463612802,1684,0.0,99,GPS_Atti,
0.35665714363912,36.8955086578579,19500,2017-11-13 13:11:54,1848.3859966483499,77.8000024896,0.0,1.42582004562624,1848.3859966483499,77.8000024896,1.0187991565468,1.4487900463612802,1684,0.0,98,GPS_Atti,
0.356657135346269,36.8955086678573,19600,2017-11-13 13:11:54,1848.78599666115,78.20000250240001,0.0,1.42448004558336,1848.78599666115,78.20000250240001,1.0187991565468,1.4487900463612802,1684,0.0,98,GPS_Atti,
0.35665712170642205,36.8955086793191,19700,2017-11-13 13:11:54,1849.38599668035,78.8000025216,0.0,1.4228100455299202,1849.38599668035,78.8000025216,1.0187991565468,1.4487900463612802,1684,0.0,98,GPS_Atti,
0.35665712777319103,36.8955086666796,19800,2017-11-13 13:11:54,1849.88599669635,79.30000253760001,0.0,1.42436004557952,1849.88599669635,79.30000253760001,1.0187991565468,1.4487900463612802,1684,0.0,98,GPS_Atti,
0.35665712698665203,36.8955086514108,19900,2017-11-13 13:11:54,1850.38599671235,79.80000255360001,0.0,1.4259500456304002,1850.38599671235,79.80000255360001,1.0187991565468,1.4487900463612802,1684,0.0,98,GPS_Atti,
0.35665713375772207,36.895508649012704,20000,2017-11-13 13:11:54,1850.8859967283502,80.30000256960001,0.0,1.4264300456457601,1850.8859967283502,80.30000256960001,1.0187991565468,1.4487900463612802,1684,0.0,98,GPS_Atti,
0.35665713112208597,36.895508654128,20100,2017-11-13 13:11:54,1851.38599674435,80.80000258560001,0.0,1.4258000456256001,1851.38599674435,80.80000258560001,1.0187991565468,1.4487900463612802,1684,0.0,98,GPS_Atti,
0.35665713756258205,36.8955086571428,20200,2017-11-13 13:11:55,1851.8859967603503,81.3000026016,0.0,1.42569004562208,1851.8859967603503,81.3000026016,1.0187991565468,1.4487900463612802,1684,0.0,98,GPS_Atti,
0.3566571335525379,36.89550867444579,20300,2017-11-13 13:11:55,1852.38599677635,81.80000261760001,0.0,1.4237200455590402,1852.38599677635,81.80000261760001,1.0187991565468,1.4487900463612802,1684,0.0,98,GPS_Atti,
0.35665713854453296,36.8955087166379,20400,2017-11-13 13:11:55,1852.98599679555,82.40000263680001,0.0,1.41941004542112,1852.98599679555,82.40000263680001,1.0187991565468,1.4487900463612802,1684,0.0,98,GPS_Atti,
0.356657130645766,36.895508755365704,20500,2017-11-13 13:11:55,1853.3859968083502,82.8000026496,0.0,1.4150300452809599,1853.3859968083502,82.8000026496,1.0187991565468,1.4487900463612802,1684,0.0,98,GPS_Atti,
0.356657144360521,36.895508778831,20600,2017-11-13 13:11:55,1853.98599682755,83.4000026688,0.0,1.413000045216,1853.98599682755,83.4000026688,1.0187991565468,1.4487900463612802,1684,0.0,98,GPS_Atti,
0.35665715700131795,36.895508797694895,20700,2017-11-13 13:11:55,1854.48599684355,83.9000026848,0.0,1.4114200451654402,1854.48599684355,83.9000026848,1.0187991565468,1.4487900463612802,1684,0.0,98,GPS_Atti,
0.35665720700187603,36.8955087961661,20800,2017-11-13 13:11:55,1854.9859968595501,84.4000027008,0.0,1.4132600452243198,1854.9859968595501,84.4000027008,1.0187991565468,1.4487900463612802,1474,0.0,98,GPS_Atti,
0.356657241173145,36.8955087896248,20900,2017-11-13 13:11:55,1855.4859968755502,84.9000027168,0.0,1.4151100452835201,1855.4859968755502,84.9000027168,1.0187991565468,1.4487900463612802,962,0.0,98,GPS_Atti,
0.3566572695968211,36.895508751877706,21000,2017-11-13 13:11:55,1855.88599688835,85.30000272960001,0.0,1.4200700454422401,1855.88599688835,85.30000272960001,1.0187991565468,1.4487900463612802,1024,0.0,98,GPS_Atti,
0.356657268107609,36.895508712254895,21100,2017-11-13 13:11:55,1856.2859969011502,85.7000027424,0.0,1.42422004557504,1856.2859969011502,85.7000027424,1.0187991565468,1.4487900463612802,1024,0.0,98,GPS_Atti,
0.35665730095983794,36.895508675041,21200,2017-11-13 13:11:56,1856.68599691395,86.10000275520001,0.0,1.42928004573696,1856.68599691395,86.10000275520001,1.0187991565468,1.4487900463612802,1024,0.0,98,GPS_Atti,
0.356657313261104,36.8955086373496,21300,2017-11-13 13:11:56,1856.8859969203502,86.3000027616,0.0,1.4336900458780801,1856.8859969203502,86.3000027616,1.0187991565468,1.4487900463612802,1024,0.0,98,GPS_Atti,
0.35665731656358896,36.895508567728704,21400,2017-11-13 13:11:56,1857.08599692675,86.500002768,0.0,1.44117004611744,1857.08599692675,86.500002768,1.0187991565468,1.4487900463612802,1024,0.0,98,GPS_Atti,
0.356657291958614,36.895508486684605,21500,2017-11-13 13:11:56,1857.18599692995,86.60000277120001,0.0,1.44892004636544,1857.18599692995,86.60000277120001,1.0187991565468,1.44892004636544,1024,0.0,98,GPS_Atti,
0.35665725838335605,36.895508389690704,21600,2017-11-13 13:11:56,1857.18599692995,86.60000277120001,0.0,1.4580800466585602,1857.18599692995,86.60000277120001,1.0187991565468,1.4580800466585602,1024,0.0,98,GPS_Atti,
0.35665719474702096,36.8955083056554,21700,2017-11-13 13:11:56,1857.2859969331503,86.7000027744,0.0,1.46492004687744,1857.2859969331503,86.7000027744,1.0187991565468,1.46492004687744,1024,0.0,98,GPS_Atti,
0.35665712133188004,36.8955081833205,21800,2017-11-13 13:11:56,1857.2859969331503,86.7000027744,0.0,1.47559004721888,1857.2859969331503,86.7000027744,1.0187991565468,1.47559004721888,1024,0.0,98,GPS_Atti,
0.35665704055780106,36.895508069809395,21900,2017-11-13 13:11:56,1857.2859969331503,86.7000027744,0.0,1.4851900475260802,1857.2859969331503,86.7000027744,1.0187991565468,1.4851900475260802,1024,0.0,98,GPS_Atti,
0.356656965153516,36.895507982271106,22000,2017-11-13 13:11:56,1857.38599693635,86.80000277760001,0.0,1.49226004775232,1857.38599693635,86.80000277760001,1.0187991565468,1.49226004775232,1024,0.0,98,GPS_Atti,
0.35665686934157104,36.8955079293194,22100,2017-11-13 13:11:56,1857.38599693635,86.80000277760001,0.0,1.49511004784352,1857.38599693635,86.80000277760001,1.0187991565468,1.49511004784352,1024,0.0,98,GPS_Atti,
0.356656775982062,36.895507869441,22200,2017-11-13 13:11:57,1857.38599693635,86.80000277760001,0.0,1.4988600479635201,1857.38599693635,86.80000277760001,1.0187991565468,1.4988600479635201,1024,0.0,98,GPS_Atti,
0.35665666613862895,36.8955078352911,22300,2017-11-13 13:11:57,1857.48599693955,86.9000027808,0.0,1.49948004798336,1857.48599693955,86.9000027808,1.0187991565468,1.49948004798336,1024,0.0,98,GPS_Atti,
0.356656545915495,36.895507825546495,22400,2017-11-13 13:11:57,1857.48599693955,86.9000027808,0.0,1.4973000479136,1857.48599693955,86.9000027808,1.0187991565468,1.49948004798336,1024,0.0,98,GPS_Atti,
0.356656410775813,36.895507846179,22500,2017-11-13 13:11:57,1857.48599693955,86.9000027808,0.0,1.4915600477299202,1857.48599693955,86.9000027808,1.0187991565468,1.49948004798336,950,0.0,98,GPS_Atti,
0.35665627178486103,36.895507862728294,22600,2017-11-13 13:11:57,1857.48599693955,86.9000027808,0.0,1.4863100475619202,1857.48599693955,86.9000027808,1.0187991565468,1.49948004798336,907,0.0,98,GPS_Atti,
0.356656130293433,36.8955078948591,22700,2017-11-13 13:11:57,1857.48599693955,86.9000027808,0.0,1.4794500473424002,1857.48599693955,86.9000027808,1.0187991565468,1.49948004798336,883,0.0,98,GPS_Atti,
0.35665601004749997,36.8955079396035,22800,2017-11-13 13:11:57,1857.48599693955,86.9000027808,0.35999970196000003,1.4718400470988802,1857.48599693955,86.9000027808,1.0187991565468,1.49948004798336,826,0.0,98,GPS_Atti,
0.35665589647900103,36.8955080131064,22900,2017-11-13 13:11:57,1857.48599693955,86.9000027808,0.35999970196000003,1.46133004676256,1857.48599693955,86.9000027808,1.0187991565468,1.49948004798336,864,0.0,98,GPS_Atti,
0.356655809360504,36.895508093775796,23000,2017-11-13 13:11:57,1857.48599693955,86.9000027808,0.35999970196000003,1.4506700464214402,1857.48599693955,86.9000027808,1.0187991565468,1.49948004798336,949,0.0,98,GPS_Atti,
0.356655713223684,36.8955081878277,23100,2017-11-13 13:11:57,1857.48599693955,86.9000027808,0.35999970196000003,1.43841004602912,1857.48599693955,86.9000027808,1.0187991565468,1.49948004798336,1024,0.0,98,GPS_Atti,
0.35665564558952,36.8955082757001,23200,2017-11-13 13:11:58,1857.38599693635,86.80000277760001,0.35999970196000003,1.4274300456777602,1857.48599693955,86.9000027808,1.0187991565468,1.49948004798336,1024,0.0,98,GPS_Atti,
0.35665548684961296,36.895508385845105,23400,2017-11-13 13:11:58,1857.38599693635,86.80000277760001,0.0,1.4123000451936,1857.48599693955,86.9000027808,1.0187991565468,1.49948004798336,1024,0.0,98,GPS_Atti,
0.35665540367765003,36.89550841259079,23500,2017-11-13 13:11:58,1857.38599693635,86.80000277760001,0.35999970196000003,1.40784004505088,1857.48599693955,86.9000027808,1.0187991565468,1.49948004798336,1024,0.0,98,GPS_Atti,
0.35665537278443893,36.8955084382166,23600,2017-11-13 13:11:58,1857.2859969331503,86.7000027744,0.35999970196000003,1.4044700449430403,1857.48599693955,86.9000027808,1.0187991565468,1.49948004798336,1024,0.0,98,GPS_Atti,
0.35665534142630706,36.8955084927956,23700,2017-11-13 13:11:58,1857.2859969331503,86.7000027744,0.35999970196000003,1.3979200447334401,1857.48599693955,86.9000027808,1.0187991565468,1.49948004798336,898,0.0,98,GPS_Atti,
0.35665535481700206,36.8955085674953,23800,2017-11-13 13:11:58,1857.2859969331503,86.7000027744,0.35999970196000003,1.3899600444787201,1857.48599693955,86.9000027808,1.0187991565468,1.49948004798336,792,0.0,98,GPS_Atti,
0.356655354050005,36.895508653284296,23900,2017-11-13 13:11:58,1857.2859969331503,86.7000027744,0.35999970196000003,1.3805300441769601,1857.48599693955,86.9000027808,1.0187991565468,1.49948004798336,762,0.0,98,GPS_Atti,
0.35665535889136896,36.8955087301788,24000,2017-11-13 13:11:58,1857.2859969331503,86.7000027744,0.35999970196000003,1.3721800439097602,1857.48599693955,86.9000027808,1.0187991565468,1.49948004798336,764,0.0,98,GPS_Atti,
0.356655348825143,36.895508813385604,24100,2017-11-13 13:11:58,1857.2859969331503,86.7000027744,0.35999970196000003,1.36287004361184,1857.48599693955,86.9000027808,1.0187991565468,1.49948004798336,786,0.0,98,GPS_Atti,
0.35665538922195295,36.8955089294532,24200,2017-11-13 13:11:59,1857.18599692995,86.60000277120001,0.35999970196000003,1.35089004322848,1857.48599693955,86.9000027808,1.0187991565468,1.49948004798336,976,0.0,98,GPS_Atti,
0.35665541049431704,36.8955090518245,24300,2017-11-13 13:11:59,1857.08599692675,86.500002768,0.35999970196000003,1.33788004281216,1857.48599693955,86.9000027808,1.0187991565468,1.49948004798336,1024,0.0,98,GPS_Atti,
0.35665545258145204,36.895509142636705,24400,2017-11-13 13:11:59,1856.9859969235501,86.40000276479999,0.35999970196000003,1.3287500425200003,1857.48599693955,86.9000027808,1.0187991565468,1.49948004798336,1024,0.0,98,GPS_Atti,
0.35665546807528203,36.8955091794095,24500,2017-11-13 13:11:59,1856.9859969235501,86.40000276479999,0.0,1.3250300424009598,1857.48599693955,86.9000027808,1.0187991565468,1.49948004798336,1024,0.0,98,GPS_Atti,
0.35665542519428106,36.8955091836127,24600,2017-11-13 13:11:59,1856.9859969235501,86.40000276479999,0.35999970196000003,1.3237300423593599,1857.48599693955,86.9000027808,1.0187991565468,1.49948004798336,1024,0.0,98,GPS_Atti,
0.35665525941786796,36.895509250764796,24800,2017-11-13 13:11:59,1856.9859969235501,86.40000276479999,0.5075995797636,1.3132600420243201,1857.48599693955,86.9000027808,1.0187991565468,1.49948004798336,1024,0.0,98,GPS_Atti,
0.35665521391751404,36.895509311872296,24900,2017-11-13 13:11:59,1856.9859969235501,86.40000276479999,0.35999970196000003,1.30574004178368,1857.48599693955,86.9000027808,1.0187991565468,1.49948004798336,1024,0.0,98,GPS_Atti,
0.35665521007519996,36.89550939410479,25000,2017-11-13 13:11:59,1857.08599692675,86.500002768,0.35999970196000003,1.2966500414928002,1857.48599693955,86.9000027808,1.0187991565468,1.49948004798336,1024,0.0,98,GPS_Atti,
0.35665520564420394,36.895509484694294,25100,2017-11-13 13:11:59,1857.08599692675,86.500002768,0.35999970196000003,1.2866300411721603,1857.48599693955,86.9000027808,1.0187991565468,1.49948004798336,1024,0.0,98,GPS_Atti,
0.35665522087911206,36.895509611547105,25200,2017-11-13 13:12:00,1857.08599692675,86.500002768,0.35999970196000003,1.2729800407353602,1857.48599693955,86.9000027808,1.0187991565468,1.49948004798336,831,0.0,98,GPS_Atti,
0.3566552186807129,36.8955097319485,25300,2017-11-13 13:12:00,1857.08599692675,86.500002768,0.35999970196000003,1.25973004031136,1857.48599693955,86.9000027808,1.0187991565468,1.49948004798336,749,0.0,98,GPS_Atti,
0.356655223761458,36.8955098211484,25400,2017-11-13 13:12:00,1857.08599692675,86.500002768,0.0,1.2500500400016,1857.48599693955,86.9000027808,1.0187991565468,1.49948004798336,748,0.0,98,GPS_Atti,
0.35665522431268604,36.895509887343394,25500,2017-11-13 13:12:00,1856.9859969235501,86.40000276479999,0.35999970196000003,1.2428000397696,1857.48599693955,86.9000027808,1.0187991565468,1.49948004798336,746,0.0,98,GPS_Atti,
0.356655303591854,36.895510001698,25600,2017-11-13 13:12:00,1856.9859969235501,86.40000276479999,0.35999970196000003,1.2317900394172803,1857.48599693955,86.9000027808,1.0187991565468,1.49948004798336,749,0.0,98,GPS_Atti,
0.356655380964928,36.895510091707294,25700,2017-11-13 13:12:00,1856.8859969203502,86.3000027616,0.0,1.2235000391520001,1857.48599693955,86.9000027808,1.0187991565468,1.49948004798336,750,0.0,98,GPS_Atti,
0.35665548106130895,36.895510138162706,25800,2017-11-13 13:12:00,1856.68599691395,86.10000275520001,0.0,1.22054003905728,1857.48599693955,86.9000027808,1.0187991565468,1.49948004798336,744,0.0,98,GPS_Atti,
0.356655559307229,36.8955101275274,25900,2017-11-13 13:12:00,1856.58599691075,86.000002752,0.0,1.2234200391494399,1857.48599693955,86.9000027808,1.0187991565468,1.49948004798336,738,0.0,98,GPS_Atti,
0.35665566416925104,36.89551010153539,26000,2017-11-13 13:12:00,1856.48599690755,85.9000027488,0.0,1.2286500393168003,1857.48599693955,86.9000027808,1.0187991565468,1.49948004798336,746,0.0,98,GPS_Atti,
0.356655748319909,36.895510068302,26100,2017-11-13 13:12:00,1856.38599690435,85.80000274560001,0.0,1.234250039496,1857.48599693955,86.9000027808,1.0187991565468,1.49948004798336,826,0.0,98,GPS_Atti,
0.35665584143840795,36.8955100672078,26200,2017-11-13 13:12:01,1856.2859969011502,85.7000027424,0.0,1.2366500395728,1857.48599693955,86.9000027808,1.0187991565468,1.49948004798336,956,0.0,98,GPS_Atti,
0.356655930677139,36.895510068910106,26300,2017-11-13 13:12:01,1856.1859968979502,85.60000273920001,0.0,1.23873003963936,1857.48599693955,86.9000027808,1.0187991565468,1.49948004798336,1024,0.0,98,GPS_Atti,
0.356656084846818,36.895510050542896,26400,2017-11-13 13:12:01,1856.1859968979502,85.60000273920001,0.0,1.2448000398335999,1857.48599693955,86.9000027808,1.0187991565468,1.49948004798336,1024,0.0,98,GPS_Atti,
0.3566561980798571,36.895509979710106,26500,2017-11-13 13:12:01,1856.1859968979502,85.60000273920001,0.0,1.2555600401779201,1857.48599693955,86.9000027808,1.0187991565468,1.49948004798336,1024,0.0,98,GPS_Atti,
0.356656302997247,36.895509908853796,26600,2017-11-13 13:12:01,1856.1859968979502,85.60000273920001,0.0,1.26617004051744,1857.48599693955,86.9000027808,1.0187991565468,1.49948004798336,1024,0.0,98,GPS_Atti,
0.35665637249923604,36.8955098639423,26700,2017-11-13 13:12:01,1856.1859968979502,85.60000273920001,0.0,1.2730100407363198,1857.48599693955,86.9000027808,1.0187991565468,1.49948004798336,1024,0.0,98,GPS_Atti,
0.3566565002531111,36.89550985041,26800,2017-11-13 13:12:01,1856.1859968979502,85.60000273920001,0.0,1.2782900409052802,1857.48599693955,86.9000027808,1.0187991565468,1.49948004798336,1024,0.0,98,GPS_Atti,
0.3566566031667,36.8955098484593,26900,2017-11-13 13:12:01,1856.1859968979502,85.60000273920001,0.0,1.28168004101376,1857.48599693955,86.9000027808,1.0187991565468,1.49948004798336,1024,0.0,98,GPS_Atti,
0.35665673983304796,36.8955098707042,27000,2017-11-13 13:12:01,1856.1859968979502,85.60000273920001,0.0,1.2837000410784,1857.48599693955,86.9000027808,1.0187991565468,1.49948004798336,1024,0.0,98,GPS_Atti,
0.35665684190636104,36.8955099068604,27100,2017-11-13 13:12:01,1856.1859968979502,85.60000273920001,0.0,1.2832500410640002,1857.48599693955,86.9000027808,1.0187991565468,1.49948004798336,1024,0.0,98,GPS_Atti,
0.356656982422351,36.8955099499561,27200,2017-11-13 13:12:02,1856.1859968979502,85.60000273920001,0.0,1.2835200410726402,1857.48599693955,86.9000027808,1.0187991565468,1.49948004798336,1024,0.0,98,GPS_Atti,
0.356657073231716,36.8955099888209,27300,2017-11-13 13:12:02,1856.1859968979502,85.60000273920001,0.0,1.28264004104448,1857.48599693955,86.9000027808,1.0187991565468,1.49948004798336,1024,0.0,98,GPS_Atti,
0.35665717702385097,36.895510021853106,27400,2017-11-13 13:12:02,1856.1859968979502,85.60000273920001,0.0,1.2829500410544,1857.48599693955,86.9000027808,1.0187991565468,1.49948004798336,1024,-0.6,98,GPS_Atti,
0.356657233201098,36.895510065846,27500,2017-11-13 13:12:02,1856.1859968979502,85.60000273920001,0.0,1.28044004097408,1857.48599693955,86.9000027808,1.0187991565468,1.49948004798336,1024,-5.7,98,GPS_Atti,
0.356657297775416,36.8955100952425,27600,2017-11-13 13:12:02,1856.1859968979502,85.60000273920001,0.0,1.2798100409539201,1857.48599693955,86.9000027808,1.0187991565468,1.49948004798336,1024,-11.3,98,GPS_Atti,
0.35665733176918396,36.8955101177828,27700,2017-11-13 13:12:02,1856.1859968979502,85.60000273920001,0.0,1.27876004092032,1857.48599693955,86.9000027808,1.0187991565468,1.49948004798336,1024,-17.0,98,GPS_Atti,
0.35665738743021397,36.895510097803296,27800,2017-11-13 13:12:02,1856.1859968979502,85.60000273920001,0.0,1.2830000410559999,1857.48599693955,86.9000027808,1.0187991565468,1.49948004798336,1024,-22.6,98,GPS_Atti,
0.35665740810575397,36.8955100861274,27900,2017-11-13 13:12:02,1856.1859968979502,85.60000273920001,0.0,1.28502004112064,1857.48599693955,86.9000027808,1.0187991565468,1.49948004798336,1024,-28.3,98,GPS_Atti,
0.35665745067409393,36.8955100584311,28000,2017-11-13 13:12:02,1856.1859968979502,85.60000273920001,0.0,1.28957004126624,1857.48599693955,86.9000027808,1.0187991565468,1.49948004798336,1024,-33.9,98,GPS_Atti,
0.35665746596762604,36.8955100470185,28100,2017-11-13 13:12:02,1856.1859968979502,85.60000273920001,0.0,1.2913600413235202,1857.48599693955,86.9000027808,1.0187991565468,1.49948004798336,1024,-39.5,98,GPS_Atti,
0.356657509467436,36.8955100266536,28200,2017-11-13 13:12:03,1856.1859968979502,85.60000273920001,0.0,1.2952000414464,1857.48599693955,86.9000027808,1.0187991565468,1.49948004798336,1024,-39.5,98,GPS_Atti,
0.356657528858947,36.8955100194699,28300,2017-11-13 13:12:03,1856.1859968979502,85.60000273920001,0.0,1.2967200414950402,1857.48599693955,86.9000027808,1.0187991565468,1.49948004798336,1024,-45.1,98,GPS_Atti,
0.35665758917651297,36.8955099946086,28400,2017-11-13 13:12:03,1856.1859968979502,85.60000273920001,0.0,1.30172004165504,1857.48599693955,86.9000027808,1.0187991565468,1.49948004798336,1024,-56.5,98,GPS_Atti,
0.35665762823718505,36.895509983545,28500,2017-11-13 13:12:03,1856.1859968979502,85.60000273920001,0.0,1.30444004174208,1857.48599693955,86.9000027808,1.0187991565468,1.49948004798336,1024,-56.5,98,GPS_Atti,
0.35665768246925506,36.895509965220704,28600,2017-11-13 13:12:03,1856.1859968979502,85.60000273920001,0.0,1.3085500418736,1857.48599693955,86.9000027808,1.0187991565468,1.49948004798336,1024,-62.1,98,GPS_Atti,
0.35665770548486797,36.8955099458793,28700,2017-11-13 13:12:03,1856.1859968979502,85.60000273920001,0.0,1.31149004196768,1857.48599693955,86.9000027808,1.0187991565468,1.49948004798336,1024,-67.8,98,GPS_Atti,
0.35665773660606104,36.895509935289,28800,2017-11-13 13:12:03,1856.1859968979502,85.60000273920001,0.0,1.31387004204384,1857.48599693955,86.9000027808,1.0187991565468,1.49948004798336,1024,-73.4,98,GPS_Atti,
0.35665774211671597,36.8955099538531,28900,2017-11-13 13:12:03,1856.1859968979502,85.60000273920001,0.0,1.31218004198976,1857.48599693955,86.9000027808,1.0187991565468,1.49948004798336,1024,-79.1,98,GPS_Atti,
0.356657768245914,36.8955100061325,29000,2017-11-13 13:12:03,1856.1859968979502,85.60000273920001,0.0,1.3078800418521601,1857.48599693955,86.9000027808,1.0187991565468,1.49948004798336,1024,-84.7,98,GPS_Atti,
0.356657782976004,36.895510064653394,29100,2017-11-13 13:12:04,1856.1859968979502,85.60000273920001,0.0,1.30247004167904,1857.48599693955,86.9000027808,1.0187991565468,1.49948004798336,1024,-89.9,98,GPS_Atti,
0.356657804346889,36.8955101244783,29200,2017-11-13 13:12:04,1856.1859968979502,85.60000273920001,0.0,1.2972200415110402,1857.48599693955,86.9000027808,1.0187991565468,1.49948004798336,1024,-90.0,98,GPS_Atti,
0.35665779678113796,36.8955101741796,29300,2017-11-13 13:12:04,1856.1859968979502,85.60000273920001,0.0,1.2917900413372803,1857.48599693955,86.9000027808,1.0187991565468,1.49948004798336,1024,-89.9,98,GPS_Atti,
0.35665777292443396,36.895510233749796,29400,2017-11-13 13:12:04,1856.1859968979502,85.60000273920001,0.0,1.28466004110912,1857.48599693955,86.9000027808,1.0187991565468,1.49948004798336,1024,-90.0,98,GPS_Atti,
