latitude,longitude,time_millisecond,datetime_utc,altitude_m,ascent_m,speed_kph,distance_m,max_altitude_m,max_ascent_m,max_speed_kph,max_distance_m,rc_throttle,gimbal_pitch_degrees,battery_percent,flycState,message
0.337736682762847,36.9091308215055,0,2018-03-30 05:10:17,1647.751761728067,0.0,0.0,0.0,1647.751761728067,0.0,0.0,0.0,364,0.0,98,Motors_Started,
0.33773661000804,36.9091307908054,100,2018-03-30 05:10:17,1647.751761728067,0.0,0.0,0.00878157028101024,1647.751761728067,0.0,0.0,0.00878157028101024,364,0.0,98,Motors_Started,
0.337736544917098,36.9091307718284,200,2018-03-30 05:10:17,1647.751761728067,0.0,0.0,0.0162943005214176,1647.751761728067,0.0,0.0,0.0162943005214176,364,0.0,98,Motors_Started,
0.33773648615144,36.9091307573481,300,2018-03-30 05:10:17,1647.751761728067,0.0,0.0,0.022999000735968,1647.751761728067,0.0,0.0,0.022999000735968,364,0.0,98,Motors_Started,
0.337736429645247,36.9091307473676,400,2018-03-30 05:10:17,1647.751761728067,0.0,0.0,0.029330800938585602,1647.751761728067,0.0,0.0,0.029330800938585602,364,0.0,98,Motors_Started,
0.33773638012915097,36.909130722998704,500,2018-03-30 05:10:17,1647.751761728067,0.0,0.0,0.0353926011325632,1647.751761728067,0.0,0.0,0.0353926011325632,364,0.0,98,Motors_Started,
0.337736329701532,36.90913068955079,600,2018-03-30 05:10:17,1647.751761728067,0.0,0.0,0.0419151013412832,1647.751761728067,0.0,0.0,0.0419151013412832,364,0.0,98,Motors_Started,
0.337736285290201,36.9091306604181,700,2018-03-30 05:10:18,1647.751761728067,0.0,0.0,0.0476934015261888,1647.751761728067,0.0,0.0,0.0476934015261888,364,0.0,98,Motors_Started,Setting new Return-To-Home altitude to 30m (98 ft). Setting new Maximum Flight Altitude to 120m (394 ft)
0.33773623810277903,36.9091306428708,800,2018-03-30 05:10:18,1647.751761728067,0.0,0.0,0.0532899017052768,1647.751761728067,0.0,0.0,0.0532899017052768,364,0.0,98,Motors_Started,
0.337736195873155,36.90913063288579,900,2018-03-30 05:10:18,1647.751761728067,0.0,0.0,0.058066001858112004,1647.751761728067,0.0,0.0,0.058066001858112004,364,0.0,98,Motors_Started,
0.337736149239404,36.9091306265447,1000,2018-03-30 05:10:18,1647.751761728067,0.0,0.0,0.0631682020213824,1647.751761728067,0.0,0.0,0.0631682020213824,364,0.0,98,Motors_Started,
0.337736128772306,36.9091306079384,1100,2018-03-30 05:10:18,1647.751761728067,0.0,0.0,0.0660264021128448,1647.751761728067,0.0,0.0,0.0660264021128448,364,0.0,98,Motors_Started,
0.33773610939382204,36.9091305767422,1200,2018-03-30 05:10:18,1647.751761728067,0.0,0.0,0.0693287022185184,1647.751761728067,0.0,0.0,0.0693287022185184,364,0.0,98,Motors_Started,
0.337736088864843,36.9091305501266,1300,2018-03-30 05:10:18,1647.751761728067,0.0,0.0,0.0726133023236256,1647.751761728067,0.0,0.0,0.0726133023236256,364,0.0,98,Motors_Started,
0.33773606352421903,36.9091305344841,1400,2018-03-30 05:10:18,1647.751761728067,0.0,0.0,0.07590050242881599,1647.751761728067,0.0,0.0,0.07590050242881599,364,0.0,98,Motors_Started,
0.33773604112090105,36.9091305282696,1500,2018-03-30 05:10:18,1647.751761728067,0.0,0.0,0.0784526025104832,1647.751761728067,0.0,0.0,0.0784526025104832,364,0.0,98,Motors_Started,
0.337736005289026,36.90913052210671,1600,2018-03-30 05:10:18,1647.751761728067,0.0,0.0,0.0823682026357824,1647.751761728067,0.0,0.0,0.0823682026357824,465,0.0,98,Assisted_Takeoff,
0.337735957967258,36.9091305219758,1700,2018-03-30 05:10:19,1647.751761728067,0.0,0.0,0.0872131027908192,1647.751761728067,0.0,0.0,0.0872131027908192,813,0.0,98,Assisted_Takeoff,
0.33773591303889505,36.909130523127104,1800,2018-03-30 05:10:19,1647.751761728067,0.0,0.0,0.0918041029377312,1647.751761728067,0.0,0.0,0.0918041029377312,1022,0.0,98,Assisted_Takeoff,
0.337735847064522,36.9091305124377,1900,2018-03-30 05:10:19,1647.751761728067,0.0,0.0,0.099086503170768,1647.751761728067,0.0,0.0,0.099086503170768,1024,0.0,98,Assisted_Takeoff,
0.337735765537288,36.9091304859084,2000,2018-03-30 05:10:19,1647.751761728067,0.0,0.0,0.108614003475648,1647.751761728067,0.0,0.0,0.108614003475648,1024,0.0,98,Assisted_Takeoff,
0.337735703272103,36.909130463737,2100,2018-03-30 05:10:19,1647.751761728067,0.0,0.0,0.115964003710848,1647.751761728067,0.0,0.0,0.115964003710848,1024,0.0,98,Assisted_Takeoff,
0.337735662895241,36.9091304494379,2200,2018-03-30 05:10:19,1647.751761728067,0.0,0.0,0.12072700386326402,1647.751761728067,0.0,0.0,0.12072700386326402,1024,0.0,98,Assisted_Takeoff,
0.337735600831983,36.9091304404187,2300,2018-03-30 05:10:19,1647.751761728067,0.0,0.0,0.12756200408198404,1647.751761728067,0.0,0.0,0.12756200408198404,1024,0.0,98,Assisted_Takeoff,
0.33773552884661695,36.9091304348511,2400,2018-03-30 05:10:19,1647.751761728067,0.0,0.0,0.13533500433072002,1647.751761728067,0.0,0.0,0.13533500433072002,1024,0.0,98,Assisted_Takeoff,
0.33773547423023303,36.909130415983206,2500,2018-03-30 05:10:19,1647.751761728067,0.0,0.0,0.14176000453632,1647.751761728067,0.0,0.0,0.14176000453632,1024,0.0,98,Assisted_Takeoff,
0.337735438996812,36.9091303862069,2600,2018-03-30 05:10:19,1647.751761728067,0.0,0.0,0.14654000468928002,1647.751761728067,0.0,0.0,0.14654000468928002,1024,0.0,98,Assisted_Takeoff,
0.337735388705983,36.90913036031171,2700,2018-03-30 05:10:20,1647.751761728067,0.0,0.0,0.15277300488873602,1647.751761728067,0.0,0.0,0.15277300488873602,1024,0.0,98,Assisted_Takeoff,
0.33773531738624296,36.9091303445921,2800,2018-03-30 05:10:20,1647.751761728067,0.0,0.0,0.16083400514668802,1647.751761728067,0.0,0.0,0.16083400514668802,1024,0.0,98,Assisted_Takeoff,
0.33773522732148303,36.90913033590571,2900,2018-03-30 05:10:20,1647.751761728067,0.0,0.0,0.17062500546,1647.751761728067,0.0,0.0,0.17062500546,1024,0.0,98,Assisted_Takeoff,
0.337735132845676,36.909130330309296,3000,2018-03-30 05:10:20,1647.751761728067,0.0,0.0,0.180809005785888,1647.751761728067,0.0,0.0,0.180809005785888,1024,0.0,98,Assisted_Takeoff,
0.337735039634763,36.9091303126895,3100,2018-03-30 05:10:20,1647.751761728067,0.0,0.0,0.19128600612115199,1647.751761728067,0.0,0.0,0.19128600612115199,1024,0.0,98,Assisted_Takeoff,
0.337734962075233,36.9091302834455,3200,2018-03-30 05:10:20,1647.751761728067,0.0,0.0,0.200488006415616,1647.751761728067,0.0,0.0,0.200488006415616,1024,0.0,98,Assisted_Takeoff,
0.337734889722652,36.909130258104,3300,2018-03-30 05:10:20,1647.751761728067,0.0,0.0,0.209008006688256,1647.751761728067,0.0,0.0,0.209008006688256,1024,0.0,98,Assisted_Takeoff,
0.33773482336600197,36.9091302423284,3400,2018-03-30 05:10:20,1647.751761728067,0.0,0.0,0.21657500693040002,1647.751761728067,0.0,0.0,0.21657500693040002,1054,0.0,98,Assisted_Takeoff,
0.337734764895906,36.9091302131124,3500,2018-03-30 05:10:20,1647.751761728067,0.0,0.0,0.223752007160064,1647.751761728067,0.0,0.0,0.223752007160064,1073,0.0,98,Assisted_Takeoff,
0.337734706830478,36.9091301775881,3600,2018-03-30 05:10:20,1647.751761728067,0.0,0.0,0.23110900739548804,1647.751761728067,0.0,0.0,0.23110900739548804,1134,0.0,98,Assisted_Takeoff,
0.3377346777025,36.90913014860379,3700,2018-03-30 05:10:20,1647.751761728067,0.0,0.0,0.235196007526272,1647.751761728067,0.0,0.0,0.235196007526272,1185,0.0,98,Assisted_Takeoff,
0.33773465704975897,36.909130130808,3800,2018-03-30 05:10:21,1647.751761728067,0.0,0.0,0.238006007616192,1647.751761728067,0.0,0.0,0.238006007616192,1233,0.0,98,Assisted_Takeoff,
0.33773464793210106,36.9091301220121,3900,2018-03-30 05:10:21,1647.751761728067,0.0,0.0,0.23928200765702404,1647.751761728067,0.0,0.0,0.23928200765702404,1283,0.0,98,Assisted_Takeoff,
0.33773462032346196,36.909130116361105,4000,2018-03-30 05:10:21,1647.751761728067,0.0,0.0,0.24239000775648004,1647.751761728067,0.0,0.0,0.24239000775648004,1314,0.0,98,Assisted_Takeoff,
0.33773459962268204,36.9091301213922,4100,2018-03-30 05:10:21,1647.751761728067,0.0,0.0,0.244391007820512,1647.751761728067,0.0,0.0,0.244391007820512,1349,0.0,98,Assisted_Takeoff,
0.337734561391702,36.9091301339879,4200,2018-03-30 05:10:21,1647.751761728067,0.0,0.0,0.24798900793564801,1647.751761728067,0.0,0.0,0.24798900793564801,1384,0.0,98,Assisted_Takeoff,
0.337734540893663,36.90913016355721,4300,2018-03-30 05:10:21,1647.751761728067,0.0,0.0,0.24917300797353603,1647.751761728067,0.0,0.0,0.24917300797353603,1381,0.0,98,Assisted_Takeoff,
0.337734531903838,36.909130232891606,4400,2018-03-30 05:10:21,1647.751761728067,0.0,0.35999970196000003,0.247983007935456,1647.751761728067,0.0,0.35999970196000003,0.24917300797353603,1419,0.0,98,P-GPS,
0.337734560511528,36.909130357440006,4500,2018-03-30 05:10:21,1647.751761728067,0.0,0.35999970196000003,0.24158400773068806,1647.751761728067,0.0,0.35999970196000003,0.24917300797353603,1476,0.0,98,P-GPS,
0.33773456810252006,36.9091305042675,4600,2018-03-30 05:10:21,1647.851761731267,0.10000000320000002,0.35999970196000003,0.23779500760944,1647.851761731267,0.10000000320000002,0.35999970196000003,0.24917300797353603,1515,0.0,98,P-GPS,
0.337734560631219,36.909130666903,4700,2018-03-30 05:10:22,1647.9517617344668,0.20000000640000004,0.35999970196000003,0.23661900757180804,1647.9517617344668,0.20000000640000004,0.35999970196000003,0.24917300797353603,1609,0.0,98,P-GPS,Home Point Recorded. RTH Altitude:  30m.
0.33773447695362396,36.909130969745895,4900,2018-03-30 05:10:22,1648.251761744067,0.500000016,0.35999970196000003,0.245853007867296,1648.251761744067,0.500000016,0.35999970196000003,0.24917300797353603,1657,0.0,98,P-GPS,
0.33773441572413,36.9091310923833,5000,2018-03-30 05:10:22,1648.551761753667,0.8000000256000002,0.35999970196000003,0.253902008124864,1648.551761753667,0.8000000256000002,0.35999970196000003,0.253902008124864,1684,0.0,98,P-GPS,
0.337734348681904,36.9091311740271,5100,2018-03-30 05:10:22,1648.7517617600668,1.000000032,0.0,0.262508008400256,1648.7517617600668,1.000000032,0.35999970196000003,0.262508008400256,1684,0.0,98,P-GPS,
0.337734276278027,36.9091312160686,5200,2018-03-30 05:10:22,1649.1517617728668,1.4000000448000003,0.0,0.271189008678048,1649.1517617728668,1.4000000448000003,0.35999970196000003,0.271189008678048,1684,0.0,98,P-GPS,
0.337734191741428,36.9091312301825,5300,2018-03-30 05:10:22,1649.451761782467,1.7000000544000002,0.0,0.28072000898304,1649.451761782467,1.7000000544000002,0.35999970196000003,0.28072000898304,1684,0.0,98,P-GPS,
0.337734116958395,36.909131242231204,5400,2018-03-30 05:10:22,1649.951761798467,2.2000000704,0.0,0.289143009252576,1649.951761798467,2.2000000704,0.35999970196000003,0.289143009252576,1684,0.0,98,P-GPS,
0.337734047474318,36.909131265371705,5500,2018-03-30 05:10:22,1650.3517618112671,2.6000000832000003,0.0,0.29718800951001606,1650.3517618112671,2.6000000832000003,0.35999970196000003,0.29718800951001606,1684,0.0,98,P-GPS,
0.33773399088751693,36.909131290664,5600,2018-03-30 05:10:22,1650.851761827267,3.1000000992,0.0,0.30386500972367997,1650.851761827267,3.1000000992,0.35999970196000003,0.30386500972367997,1684,0.0,98,P-GPS,
0.337733946242097,36.9091313001311,5700,2018-03-30 05:10:23,1651.351761843267,3.6000001152000003,0.0,0.308937009885984,1651.351761843267,3.6000001152000003,0.35999970196000003,0.308937009885984,1684,0.0,98,P-GPS,
0.337733893865638,36.909131287322005,5800,2018-03-30 05:10:23,1651.951761862467,4.2000001344,0.0,0.314439010062048,1651.951761862467,4.2000001344,0.35999970196000003,0.314439010062048,1684,0.0,98,P-GPS,
0.337733735899243,36.9091312070219,6000,2018-03-30 05:10:23,1652.951761894467,5.200000166400001,0.0,0.330501010576032,1652.951761894467,5.200000166400001,0.35999970196000003,0.330501010576032,1684,0.0,98,P-GPS,
0.337733667191934,36.9091311755508,6100,2018-03-30 05:10:23,1653.451761910467,5.7000001824,0.0,0.33765301080489607,1653.451761910467,5.7000001824,0.35999970196000003,0.33765301080489607,1684,0.0,98,P-GPS,
0.33773360268356706,36.909131159066,6200,2018-03-30 05:10:23,1653.951761926467,6.2000001984,0.0,0.3445740110263681,1653.951761926467,6.2000001984,0.35999970196000003,0.3445740110263681,1684,0.0,98,P-GPS,
0.337733536186057,36.9091311714102,6300,2018-03-30 05:10:23,1654.4517619424669,6.7000002144,0.0,0.3520750112664,1654.4517619424669,6.7000002144,0.35999970196000003,0.3520750112664,1684,0.0,98,P-GPS,
0.337733448723958,36.9091311858788,6400,2018-03-30 05:10:23,1654.9517619584672,7.200000230400001,0.0,0.36192001158144,1654.9517619584672,7.200000230400001,0.35999970196000003,0.36192001158144,1684,0.0,98,P-GPS,
0.337733345956114,36.9091311827778,6500,2018-03-30 05:10:23,1655.451761974467,7.7000002464,0.0,0.373242011943744,1655.451761974467,7.7000002464,0.35999970196000003,0.373242011943744,1684,0.0,98,P-GPS,
0.337733220158815,36.9091311527417,6600,2018-03-30 05:10:23,1655.9517619904668,8.200000262400001,0.0,0.38682001237824,1655.9517619904668,8.200000262400001,0.35999970196000003,0.38682001237824,1684,0.0,98,P-GPS,
0.33773308952992304,36.9091311300039,6700,2018-03-30 05:10:24,1656.4517620064669,8.700000278400001,0.0,0.40105901283388806,1656.4517620064669,8.700000278400001,0.35999970196000003,0.40105901283388806,1684,0.0,98,P-GPS,
0.33773295634926,36.9091311254819,6800,2018-03-30 05:10:24,1656.951762022467,9.2000002944,0.0,0.415776013304832,1656.951762022467,9.2000002944,0.35999970196000003,0.415776013304832,1684,0.0,98,P-GPS,
0.33773283656173303,36.9091311416948,6900,2018-03-30 05:10:24,1657.451762038467,9.7000003104,0.0,0.42920101373443204,1657.451762038467,9.7000003104,0.35999970196000003,0.42920101373443204,1684,0.0,98,P-GPS,
0.33773273023003997,36.909131170022704,7000,2018-03-30 05:10:24,1657.9517620544668,10.2000003264,0.0,0.441251014120032,1657.9517620544668,10.2000003264,0.35999970196000003,0.441251014120032,1684,0.0,98,P-GPS,
0.337732608064171,36.9091312016484,7100,2018-03-30 05:10:24,1658.451762070467,10.700000342400001,0.0,0.4550990145631681,1658.451762070467,10.700000342400001,0.35999970196000003,0.4550990145631681,1684,0.0,98,P-GPS,
0.33773246059065404,36.909131220355796,7200,2018-03-30 05:10:24,1658.951762086467,11.200000358400002,0.0,0.471622015091904,1658.951762086467,11.200000358400002,0.35999970196000003,0.471622015091904,1684,0.0,98,P-GPS,
0.33773231366348105,36.909131237077496,7300,2018-03-30 05:10:24,1659.4517621024668,11.700000374400002,0.0,0.48806301561801596,1659.4517621024668,11.700000374400002,0.35999970196000003,0.48806301561801596,1684,0.0,98,P-GPS,
0.33773217568867797,36.9091312466989,7400,2018-03-30 05:10:24,1659.951762118467,12.2000003904,0.0,0.503439016110048,1659.951762118467,12.2000003904,0.35999970196000003,0.503439016110048,1684,0.0,98,P-GPS,
0.33773201596111996,36.9091312493842,7500,2018-03-30 05:10:24,1660.451762134467,12.700000406400001,0.0,0.521154016676928,1660.451762134467,12.700000406400001,0.35999970196000003,0.521154016676928,1684,0.0,98,P-GPS,
0.33773184943236606,36.9091312472425,7600,2018-03-30 05:10:24,1660.951762150467,13.2000004224,0.0,0.539577017266464,1660.951762150467,13.2000004224,0.35999970196000003,0.539577017266464,1684,0.0,98,P-GPS,
0.33773168249812896,36.9091312555628,7700,2018-03-30 05:10:25,1661.451762166467,13.7000004384,0.0,0.5581510178608321,1661.451762166467,13.7000004384,0.35999970196000003,0.5581510178608321,1684,0.0,98,P-GPS,
0.337731520716289,36.909131271677104,7800,2018-03-30 05:10:25,1661.951762182467,14.200000454400003,0.0,0.5762300184393601,1661.951762182467,14.200000454400003,0.35999970196000003,0.5762300184393601,1684,0.0,98,P-GPS,
0.337731381644729,36.9091312684067,7900,2018-03-30 05:10:25,1662.451762198467,14.7000004704,0.0,0.591608018931456,1662.451762198467,14.7000004704,0.35999970196000003,0.591608018931456,1684,0.0,98,P-GPS,
0.3377312622578,36.909131243345705,8000,2018-03-30 05:10:25,1662.9517622144667,15.200000486399999,0.0,0.604616019347712,1662.9517622144667,15.200000486399999,0.35999970196000003,0.604616019347712,1684,0.0,98,P-GPS,
0.33773115128585496,36.9091312144803,8100,2018-03-30 05:10:25,1663.451762230467,15.700000502400002,0.0,0.616684019733888,1663.451762230467,15.700000502400002,0.35999970196000003,0.616684019733888,1684,0.0,98,P-GPS,
0.33773102992932297,36.9091312005939,8200,2018-03-30 05:10:25,1663.9517622464668,16.2000005184,0.0,0.630041020161312,1663.9517622464668,16.2000005184,0.35999970196000003,0.630041020161312,1684,0.0,98,P-GPS,
0.33773093461731,36.9091311961404,8300,2018-03-30 05:10:25,1664.451762262467,16.7000005344,0.0,0.64058502049872,1664.451762262467,16.7000005344,0.35999970196000003,0.64058502049872,1684,0.0,98,P-GPS,
0.337730853755295,36.9091312010419,8400,2018-03-30 05:10:25,1664.951762278467,17.2000005504,0.0,0.649594020787008,1664.951762278467,17.2000005504,0.35999970196000003,0.649594020787008,1684,0.0,98,P-GPS,
0.33773079549934,36.9091312075499,8500,2018-03-30 05:10:25,1665.451762294467,17.700000566400004,0.0,0.6561060209953921,1665.451762294467,17.700000566400004,0.35999970196000003,0.6561060209953921,1684,0.0,98,P-GPS,
0.33773073634529704,36.9091312145858,8600,2018-03-30 05:10:25,1665.9517623104668,18.2000005824,0.0,0.6627210212070721,1665.9517623104668,18.2000005824,0.35999970196000003,0.6627210212070721,1684,0.0,98,P-GPS,
0.33773070862510896,36.9091312383181,8700,2018-03-30 05:10:25,1666.4517623264671,18.7000005984,0.0,0.6659760213112321,1666.4517623264671,18.7000005984,0.35999970196000003,0.6659760213112321,1684,0.0,98,P-GPS,
0.337730688206864,36.9091312636456,8800,2018-03-30 05:10:26,1666.951762342467,19.2000006144,0.0,0.6684420213901441,1666.951762342467,19.2000006144,0.35999970196000003,0.6684420213901441,1684,0.0,98,P-GPS,
0.33773066912312893,36.909131283879496,8900,2018-03-30 05:10:26,1667.4517623584668,19.7000006304,0.0,0.6707270214632639,1667.4517623584668,19.7000006304,0.35999970196000003,0.6707270214632639,1684,0.0,98,P-GPS,
0.337730634714922,36.909131292630704,9000,2018-03-30 05:10:26,1667.951762374467,20.200000646400003,0.0,0.674617021587744,1667.951762374467,20.200000646400003,0.35999970196000003,0.674617021587744,1684,0.0,98,P-GPS,
0.337730586394103,36.90913128239529,9100,2018-03-30 05:10:26,1668.451762390467,20.7000006624,0.0,0.679888021756416,1668.451762390467,20.7000006624,0.35999970196000003,0.679888021756416,1684,0.0,98,P-GPS,
0.337730531553809,36.9091312556431,9200,2018-03-30 05:10:26,1668.951762406467,21.2000006784,0.0,0.685753021944096,1668.951762406467,21.2000006784,0.35999970196000003,0.685753021944096,1684,0.0,98,P-GPS,
0.337730471246014,36.909131223127105,9300,2018-03-30 05:10:26,1669.551762425667,21.8000006976,0.0,0.692201022150432,1669.551762425667,21.8000006976,0.35999970196000003,0.692201022150432,1684,0.0,98,P-GPS,
0.337730423609956,36.909131201778294,9400,2018-03-30 05:10:26,1670.051762441667,22.3000007136,0.0,0.6973390223148479,1670.051762441667,22.3000007136,0.35999970196000003,0.6973390223148479,1684,0.0,98,P-GPS,
0.33773041396712394,36.9091312199664,9500,2018-03-30 05:10:26,1670.5517624576669,22.8000007296,0.0,0.69853502235312,1670.5517624576669,22.8000007296,0.35999970196000003,0.69853502235312,1684,0.0,98,P-GPS,
0.337730437082073,36.9091312648479,9600,2018-03-30 05:10:26,1671.0517624736672,23.300000745600002,0.0,0.69630502228176,1671.0517624736672,23.300000745600002,0.35999970196000003,0.69853502235312,1684,0.0,98,P-GPS,
0.337730457285363,36.9091313017146,9700,2018-03-30 05:10:27,1671.551762489667,23.800000761600003,0.0,0.6943680222197761,1671.551762489667,23.800000761600003,0.35999970196000003,0.69853502235312,1684,0.0,98,P-GPS,
0.3377304570012,36.9091313074804,9800,2018-03-30 05:10:27,1672.1517625088668,24.4000007808,0.0,0.694449022222368,1672.1517625088668,24.4000007808,0.35999970196000003,0.69853502235312,1684,0.0,98,P-GPS,
0.337730459256595,36.909131306153604,9900,2018-03-30 05:10:27,1672.651762524867,24.9000007968,0.0,0.694187022213984,1672.651762524867,24.9000007968,0.35999970196000003,0.69853502235312,1684,0.0,98,P-GPS,
0.33773045916540195,36.909131298131,10000,2018-03-30 05:10:27,1673.151762540867,25.400000812800002,0.0,0.694129022212128,1673.151762540867,25.400000812800002,0.35999970196000003,0.69853502235312,1684,0.0,98,P-GPS,
0.33773047713528104,36.909131266020495,10100,2018-03-30 05:10:27,1673.6517625568667,25.900000828800003,0.0,0.6918720221399041,1673.6517625568667,25.900000828800003,0.35999970196000003,0.69853502235312,1684,0.0,98,P-GPS,
0.33773050528782106,36.9091312213309,10200,2018-03-30 05:10:27,1674.151762572867,26.4000008448,0.0,0.68841002202912,1674.151762572867,26.4000008448,0.35999970196000003,0.69853502235312,1684,0.0,98,P-GPS,
0.337730554841372,36.9091311808841,10300,2018-03-30 05:10:27,1674.7517625920668,27.000000864000004,0.0,0.6826330218442561,1674.7517625920668,27.000000864000004,0.35999970196000003,0.69853502235312,1684,0.0,98,P-GPS,
0.33773059861883203,36.9091311548018,10400,2018-03-30 05:10:27,1675.251762608067,27.50000088,0.0,0.677608021683456,1675.251762608067,27.50000088,0.35999970196000003,0.69853502235312,1684,0.0,98,P-GPS,
0.337730661523995,36.909131136923,10500,2018-03-30 05:10:27,1675.7517626240672,28.000000896,0.0,0.670517021456544,1675.7517626240672,28.000000896,0.35999970196000003,0.69853502235312,1684,0.0,98,P-GPS,
0.33773071391673803,36.909131129106996,10600,2018-03-30 05:10:27,1676.3517626432672,28.600000915200003,0.0,0.664653021268896,1676.3517626432672,28.600000915200003,0.35999970196000003,0.69853502235312,1684,0.0,98,P-GPS,
0.337730781129136,36.9091311291504,10700,2018-03-30 05:10:27,1676.851762659267,29.1000009312,0.0,0.6571890210300481,1676.851762659267,29.1000009312,0.35999970196000003,0.69853502235312,1684,0.0,98,P-GPS,
0.337730833623656,36.9091311295521,10800,2018-03-30 05:10:28,1677.3517626752673,29.6000009472,0.0,0.6513610208435521,1677.3517626752673,29.6000009472,0.35999970196000003,0.69853502235312,1684,0.0,98,P-GPS,
0.337730897600336,36.9091311339334,10900,2018-03-30 05:10:28,1677.8517626912671,30.1000009632,0.0,0.644283020617056,1677.8517626912671,30.1000009632,0.35999970196000003,0.69853502235312,1684,0.0,98,P-GPS,
0.33773094704152395,36.9091311334366,11000,2018-03-30 05:10:28,1678.4517627104672,30.700000982400002,0.0,0.63879002044128,1678.4517627104672,30.700000982400002,0.35999970196000003,0.69853502235312,1684,0.0,98,P-GPS,
0.33773110082037605,36.9091311377651,11200,2018-03-30 05:10:28,1679.451762742467,31.7000010144,0.0,0.621742019895744,1679.451762742467,31.7000010144,0.35999970196000003,0.69853502235312,1684,0.0,98,P-GPS,
0.33773120193371997,36.9091311393705,11300,2018-03-30 05:10:28,1679.9517627584673,32.2000010304,0.0,0.610526019536832,1679.9517627584673,32.2000010304,0.35999970196000003,0.69853502235312,1684,0.0,98,P-GPS,
0.337731284808492,36.9091311431005,11400,2018-03-30 05:10:28,1680.5517627776671,32.800001049600006,0.0,0.6013500192432001,1680.5517627776671,32.800001049600006,0.35999970196000003,0.69853502235312,1684,0.0,98,P-GPS,
0.337731376024154,36.9091311581394,11500,2018-03-30 05:10:28,1681.051762793667,33.3000010656,0.0,0.5913280189224961,1681.051762793667,33.3000010656,0.35999970196000003,0.69853502235312,1684,0.0,98,P-GPS,
0.337731427065289,36.9091311708763,11600,2018-03-30 05:10:28,1681.5517628096673,33.800001081599994,0.0,0.58575501874416,1681.5517628096673,33.800001081599994,0.35999970196000003,0.69853502235312,1684,0.0,98,P-GPS,
0.33773150252738393,36.909131166302096,11700,2018-03-30 05:10:29,1682.051762825667,34.3000010976,0.0,0.577348018475136,1682.051762825667,34.3000010976,0.35999970196000003,0.69853502235312,1684,0.0,98,P-GPS,
0.337731564417212,36.9091311463292,11800,2018-03-30 05:10:29,1682.5517628416671,34.800001113600004,0.0,0.5703360182507521,1682.5517628416671,34.800001113600004,0.35999970196000003,0.69853502235312,1684,0.0,98,P-GPS,
0.337731638970635,36.9091311260397,11900,2018-03-30 05:10:29,1683.0517628576672,35.300001129600005,0.0,0.561922017981504,1683.0517628576672,35.300001129600005,0.35999970196000003,0.69853502235312,1684,0.0,98,P-GPS,
0.33773168790456304,36.9091311186011,12000,2018-03-30 05:10:29,1683.651762876867,35.9000011488,0.0,0.5564400178060801,1683.651762876867,35.9000011488,0.35999970196000003,0.69853502235312,1684,0.0,98,P-GPS,
0.33773175330694505,36.9091311327375,12100,2018-03-30 05:10:29,1684.151762892867,36.4000011648,0.0,0.5492770175768641,1684.151762892867,36.4000011648,0.35999970196000003,0.69853502235312,1684,0.0,98,P-GPS,
0.33773179869086495,36.9091311641793,12200,2018-03-30 05:10:29,1684.651762908867,36.900001180800004,0.0,0.544474017423168,1684.651762908867,36.900001180800004,0.35999970196000003,0.69853502235312,1684,0.0,98,P-GPS,
0.337731859608512,36.909131203632,12300,2018-03-30 05:10:29,1685.1517629248672,37.4000011968,0.0,0.53804501721744,1685.1517629248672,37.4000011968,0.35999970196000003,0.69853502235312,1684,0.0,98,P-GPS,
0.33773190095633393,36.9091312332535,12400,2018-03-30 05:10:29,1685.651762940867,37.90000121280001,0.0,0.533734017079488,1685.651762940867,37.90000121280001,0.35999970196000003,0.69853502235312,1684,0.0,98,P-GPS,
0.337731951254083,36.9091312532738,12500,2018-03-30 05:10:29,1686.1517629568673,38.4000012288,0.0,0.528359016907488,1686.1517629568673,38.4000012288,0.35999970196000003,0.69853502235312,1684,0.0,98,P-GPS,
0.33773198021921697,36.9091312603575,12600,2018-03-30 05:10:29,1686.6517629728671,38.9000012448,0.0,0.5252240168071679,1686.6517629728671,38.9000012448,0.35999970196000003,0.69853502235312,1684,0.0,98,P-GPS,
0.33773202276150205,36.909131277245706,12700,2018-03-30 05:10:30,1687.151762988867,39.4000012608,0.0,0.520693016662176,1687.151762988867,39.4000012608,0.35999970196000003,0.69853502235312,1684,0.0,98,P-GPS,
0.337732049546149,36.909131302407,12800,2018-03-30 05:10:30,1687.7517630080672,40.00000128,0.0,0.5180100165763201,1687.7517630080672,40.00000128,0.35999970196000003,0.69853502235312,1684,0.0,98,P-GPS,
0.337732078470571,36.9091313260885,12900,2018-03-30 05:10:30,1688.251763024067,40.500001296,0.0,0.515091016482912,1688.251763024067,40.500001296,0.35999970196000003,0.69853502235312,1684,0.0,98,P-GPS,
0.337732084310985,36.909131343740505,13000,2018-03-30 05:10:30,1688.7517630400673,41.000001311999995,0.0,0.5146630164692161,1688.7517630400673,41.000001311999995,0.35999970196000003,0.69853502235312,1684,0.0,98,P-GPS,
0.33773211008681103,36.909131378645,13100,2018-03-30 05:10:30,1689.2517630560671,41.500001328,0.0,0.51227001639264,1689.2517630560671,41.500001328,0.35999970196000003,0.69853502235312,1684,0.0,98,P-GPS,
0.33773213678189395,36.909131420406496,13200,2018-03-30 05:10:30,1689.7517630720672,42.000001344,0.0,0.509909016317088,1689.7517630720672,42.000001344,0.35999970196000003,0.69853502235312,1684,0.0,98,P-GPS,
0.33773217033679603,36.909131456660496,13300,2018-03-30 05:10:30,1690.251763088067,42.50000136,0.0,0.506756016216192,1690.251763088067,42.50000136,0.35999970196000003,0.69853502235312,1684,0.0,98,P-GPS,
0.337732178214394,36.9091314805186,13400,2018-03-30 05:10:30,1690.7517631040673,43.000001376,0.0,0.5062660162005119,1690.7517631040673,43.000001376,0.35999970196000003,0.69853502235312,1684,0.0,98,P-GPS,
0.337732180924125,36.909131496860795,13500,2018-03-30 05:10:30,1691.2517631200672,43.500001391999994,0.0,0.506234016199488,1691.2517631200672,43.500001391999994,0.35999970196000003,0.69853502235312,1684,0.0,98,P-GPS,
0.337732171785297,36.9091315051891,13600,2018-03-30 05:10:30,1691.751763136067,44.00000140800001,0.0,0.507377016236064,1691.751763136067,44.00000140800001,0.35999970196000003,0.69853502235312,1684,0.0,98,P-GPS,
0.3377321676262511,36.909131520016295,13700,2018-03-30 05:10:31,1692.2517631520673,44.500001424,0.0,0.5080840162586879,1692.2517631520673,44.500001424,0.35999970196000003,0.69853502235312,1684,0.0,98,P-GPS,
0.337732155712555,36.9091315548354,13800,2018-03-30 05:10:31,1692.851763171267,45.10000144320001,0.0,0.509998016319936,1692.851763171267,45.10000144320001,0.35999970196000003,0.69853502235312,1684,0.0,98,P-GPS,
0.33773215460847,36.9091315842131,13900,2018-03-30 05:10:31,1693.3517631872674,45.6000014592,0.0,0.510651016340832,1693.3517631872674,45.6000014592,0.35999970196000003,0.69853502235312,1684,0.0,98,P-GPS,
0.33773214591339296,36.909131602379,14000,2018-03-30 05:10:31,1693.8517632032672,46.1000014752,0.0,0.511944016382208,1693.8517632032672,46.1000014752,0.35999970196000003,0.69853502235312,1684,0.0,98,P-GPS,
0.337732144813379,36.9091316080345,14100,2018-03-30 05:10:31,1694.351763219267,46.600001491200004,0.0,0.5121710163894719,1694.351763219267,46.600001491200004,0.35999970196000003,0.69853502235312,1684,0.0,98,P-GPS,
0.337732135856937,36.909131609431206,14200,2018-03-30 05:10:31,1694.851763235267,47.1000015072,0.0,0.513179016421728,1694.851763235267,47.1000015072,0.35999970196000003,0.69853502235312,1684,0.0,98,P-GPS,
0.337732135743761,36.909131598938295,14300,2018-03-30 05:10:31,1695.3517632512671,47.60000152320001,0.0,0.512994016415808,1695.3517632512671,47.60000152320001,0.35999970196000003,0.69853502235312,1684,0.0,98,P-GPS,
0.337732128598148,36.9091315899979,14400,2018-03-30 05:10:31,1695.8517632672672,48.1000015392,0.0,0.513611016435552,1695.8517632672672,48.1000015392,0.35999970196000003,0.69853502235312,1684,0.0,98,P-GPS,
0.337732132826403,36.909131553257,14500,2018-03-30 05:10:31,1696.351763283267,48.6000015552,0.0,0.512482016399424,1696.351763283267,48.6000015552,0.35999970196000003,0.69853502235312,1684,0.0,98,P-GPS,
0.33773212641847605,36.9091315157807,14600,2018-03-30 05:10:31,1696.9517633024673,49.200001574400005,0.0,0.512542016401344,1696.9517633024673,49.200001574400005,0.35999970196000003,0.69853502235312,1684,0.0,98,P-GPS,
0.337732127982596,36.9091314735885,14700,2018-03-30 05:10:31,1697.451763318467,49.70000159040001,0.0,0.511684016373888,1697.451763318467,49.70000159040001,0.35999970196000003,0.69853502235312,1684,0.0,97,P-GPS,
0.337732118969159,36.909131449845205,14800,2018-03-30 05:10:32,1697.9517633344672,50.200001606399994,0.0,0.512309016393888,1697.9517633344672,50.200001606399994,0.35999970196000003,0.69853502235312,1684,0.0,97,P-GPS,
0.337732120515367,36.9091314433787,14900,2018-03-30 05:10:32,1698.4517633504672,50.7000016224,0.0,0.5120410163853121,1698.4517633504672,50.7000016224,0.35999970196000003,0.69853502235312,1684,0.0,97,P-GPS,
0.33773211419374705,36.9091314585151,15000,2018-03-30 05:10:32,1698.951763366467,51.20000163840001,0.0,0.512967016414944,1698.951763366467,51.20000163840001,0.35999970196000003,0.69853502235312,1684,0.0,97,P-GPS,
0.33773211803931696,36.9091314557989,15100,2018-03-30 05:10:32,1699.451763382467,51.700001654400005,0.0,0.512502016400064,1699.451763382467,51.700001654400005,0.35999970196000003,0.69853502235312,1684,0.0,97,P-GPS,
0.337732108795455,36.909131432513796,15200,2018-03-30 05:10:32,1699.9517633984672,52.200001670400006,0.0,0.513171016421472,1699.9517633984672,52.200001670400006,0.35999970196000003,0.69853502235312,1684,0.0,97,P-GPS,
0.337732094603566,36.9091314108266,15300,2018-03-30 05:10:32,1700.4517634144672,52.7000016864,0.0,0.5144230164615361,1700.4517634144672,52.7000016864,0.35999970196000003,0.69853502235312,1684,0.0,97,P-GPS,
0.33773206171958203,36.909131402437296,15400,2018-03-30 05:10:32,1700.951763430467,53.2000017024,0.0,0.517933016573856,1700.951763430467,53.2000017024,0.35999970196000003,0.69853502235312,1684,0.0,97,P-GPS,
0.3377320426081631,36.9091313991339,15500,2018-03-30 05:10:32,1701.4517634464673,53.7000017184,0.0,0.519996016639872,1701.4517634464673,53.7000017184,0.35999970196000003,0.69853502235312,1684,0.0,97,P-GPS,
0.33773202898785704,36.909131403944706,15600,2018-03-30 05:10:32,1701.9517634624672,54.200001734400004,0.0,0.52156501669008,1701.9517634624672,54.200001734400004,0.35999970196000003,0.69853502235312,1684,0.0,97,P-GPS,
0.337732028715093,36.9091313923106,15700,2018-03-30 05:10:33,1702.5517634816672,54.8000017536,0.0,0.521436016685952,1702.5517634816672,54.8000017536,0.35999970196000003,0.69853502235312,1684,0.0,97,P-GPS,
0.337732022574231,36.9091313714178,15800,2018-03-30 05:10:33,1703.0517634976673,55.3000017696,0.0,0.521837016698784,1703.0517634976673,55.3000017696,0.35999970196000003,0.69853502235312,1684,0.0,97,P-GPS,
0.33773202299111205,36.90913134768871,15900,2018-03-30 05:10:33,1703.551763513667,55.8000017856,0.0,0.5214880166876161,1703.551763513667,55.8000017856,0.35999970196000003,0.69853502235312,1684,0.0,97,P-GPS,
0.33773201263665104,36.909131336423705,16000,2018-03-30 05:10:33,1704.051763529667,56.3000018016,0.0,0.522494016719808,1704.051763529667,56.3000018016,0.35999970196000003,0.69853502235312,1684,0.0,97,P-GPS,
0.33773199353826,36.9091313270411,16100,2018-03-30 05:10:33,1704.5517635456672,56.80000181760001,0.0,0.524492016783744,1704.5517635456672,56.80000181760001,0.35999970196000003,0.69853502235312,1684,0.0,97,P-GPS,
0.337731954188539,36.909131326886104,16200,2018-03-30 05:10:33,1705.051763561667,57.3000018336,0.0,0.5288410169229121,1705.051763561667,57.3000018336,0.35999970196000003,0.69853502235312,1684,0.0,97,P-GPS,
0.337731931709498,36.909131320136105,16300,2018-03-30 05:10:33,1705.551763577667,57.8000018496,0.0,0.5312480169999361,1705.551763577667,57.8000018496,0.35999970196000003,0.69853502235312,1684,0.0,97,P-GPS,
0.33773191825692306,36.9091313167942,16400,2018-03-30 05:10:33,1706.0517635936671,58.30000186560001,0.0,0.5326970170463039,1706.0517635936671,58.30000186560001,0.35999970196000003,0.69853502235312,1684,0.0,97,P-GPS,
0.337731916065851,36.9091313204817,16500,2018-03-30 05:10:33,1706.5517636096672,58.8000018816,0.0,0.532982017055424,1706.5517636096672,58.8000018816,0.35999970196000003,0.69853502235312,1684,0.0,97,P-GPS,
0.337731908545697,36.9091313281342,16600,2018-03-30 05:10:33,1707.051763625667,59.30000189760001,0.0,0.5339030170848961,1707.051763625667,59.30000189760001,0.35999970196000003,0.69853502235312,1684,0.0,97,P-GPS,
0.33773191578087397,36.9091313170736,16700,2018-03-30 05:10:33,1707.5517636416673,59.800001913600006,0.0,0.532974017055168,1707.5517636416673,59.800001913600006,0.35999970196000003,0.69853502235312,1684,0.0,97,P-GPS,
0.33773191367611,36.909131299014,16800,2018-03-30 05:10:34,1708.0517636576672,60.30000192960001,0.0,0.5330030170560961,1708.0517636576672,60.30000192960001,0.35999970196000003,0.69853502235312,1684,0.0,97,P-GPS,
0.33773192435056,36.909131275098,16900,2018-03-30 05:10:34,1708.551763673667,60.800001945599995,0.0,0.5315630170100161,1708.551763673667,60.800001945599995,0.35999970196000003,0.69853502235312,1684,0.0,97,P-GPS,
0.33773192966010196,36.9091312622185,17000,2018-03-30 05:10:34,1709.0517636896673,61.3000019616,0.0,0.5308410169869121,1709.0517636896673,61.3000019616,0.35999970196000003,0.69853502235312,1684,0.0,97,P-GPS,
0.337731947962184,36.9091312283525,17100,2018-03-30 05:10:34,1709.651763708867,61.9000019808,0.0,0.5284790169113279,1709.651763708867,61.9000019808,0.35999970196000003,0.69853502235312,1684,0.0,97,P-GPS,
0.33773195959253105,36.909131192703704,17200,2018-03-30 05:10:34,1710.1517637248671,62.4000019968,0.0,0.52686501685968,1710.1517637248671,62.4000019968,0.35999970196000003,0.69853502235312,1684,0.0,97,P-GPS,
0.337732001836811,36.909131157799,17300,2018-03-30 05:10:34,1710.6517637408672,62.9000020128,0.0,0.521889016700448,1710.6517637408672,62.9000020128,0.35999970196000003,0.69853502235312,1684,0.0,97,P-GPS,
0.33773205301391995,36.9091311463841,17400,2018-03-30 05:10:34,1711.1517637568672,63.4000020288,0.0,0.5161220165159041,1711.1517637568672,63.4000020288,0.35999970196000003,0.69853502235312,1684,0.0,97,P-GPS,
0.33773211533121505,36.909131135684596,17500,2018-03-30 05:10:34,1711.651763772867,63.900002044800004,0.0,0.509126016292032,1711.651763772867,63.900002044800004,0.35999970196000003,0.69853502235312,1684,0.0,97,P-GPS,
0.33773214954808006,36.9091311363917,17600,2018-03-30 05:10:34,1712.1517637888674,64.4000020608,0.0,0.5053360161707521,1712.1517637888674,64.4000020608,0.35999970196000003,0.69853502235312,1684,0.0,97,P-GPS,
0.33773218949951095,36.9091311171809,17700,2018-03-30 05:10:35,1712.6517638048672,64.9000020768,0.0,0.5007590160242881,1712.6517638048672,64.9000020768,0.35999970196000003,0.69853502235312,1684,0.0,97,P-GPS,
0.33773222030885697,36.909131088301,17800,2018-03-30 05:10:35,1713.151763820867,65.40000209280001,0.0,0.49713801590841605,1713.151763820867,65.40000209280001,0.35999970196000003,0.69853502235312,1684,0.0,97,P-GPS,
0.337732247527485,36.9091310568972,17900,2018-03-30 05:10:35,1713.6517638368673,65.90000210880001,0.0,0.4939190158054081,1713.6517638368673,65.90000210880001,0.35999970196000003,0.69853502235312,1684,0.0,97,P-GPS,
0.337732253482704,36.909131043495,18000,2018-03-30 05:10:35,1714.1517638528671,66.4000021248,0.0,0.493181015781792,1714.1517638528671,66.4000021248,0.35999970196000003,0.69853502235312,1684,0.0,97,P-GPS,
0.337732273007748,36.9091310114517,18100,2018-03-30 05:10:35,1714.6517638688672,66.9000021408,0.0,0.49084601570707204,1714.6517638688672,66.9000021408,0.35999970196000003,0.69853502235312,1684,0.0,97,P-GPS,
0.337732305434139,36.909130978920004,18200,2018-03-30 05:10:35,1715.151763884867,67.40000215680001,0.0,0.48710001558720006,1715.151763884867,67.40000215680001,0.35999970196000003,0.69853502235312,1684,0.0,97,P-GPS,
0.33773235013167,36.9091309484428,18300,2018-03-30 05:10:35,1715.6517639008673,67.9000021728,0.0,0.482022015424704,1715.6517639008673,67.9000021728,0.35999970196000003,0.69853502235312,1684,0.0,97,P-GPS,
0.337732375973447,36.9091309355959,18400,2018-03-30 05:10:35,1716.251763920067,68.500002192,0.0,0.4791090153314881,1716.251763920067,68.500002192,0.35999970196000003,0.69853502235312,1684,0.0,97,P-GPS,
0.337732406224237,36.9091309193081,18500,2018-03-30 05:10:35,1716.7517639360672,69.000002208,0.0,0.475702015222464,1716.7517639360672,69.000002208,0.35999970196000003,0.69853502235312,1684,0.0,97,P-GPS,
0.337732430248672,36.909130911156204,18600,2018-03-30 05:10:35,1717.2517639520672,69.500002224,0.0,0.473011015136352,1717.2517639520672,69.500002224,0.35999970196000003,0.69853502235312,1684,0.0,97,P-GPS,
0.33773246712967103,36.9091309064979,18700,2018-03-30 05:10:35,1717.751763968067,70.00000224,0.0,0.46889901500476805,1717.751763968067,70.00000224,0.35999970196000003,0.69853502235312,1684,0.0,97,P-GPS,
0.33773250040936703,36.909130906475504,18800,2018-03-30 05:10:36,1718.2517639840673,70.50000225600002,0.0,0.465199014886368,1718.2517639840673,70.50000225600002,0.35999970196000003,0.69853502235312,1684,0.0,97,P-GPS,
0.33773253480128995,36.9091309050374,18900,2018-03-30 05:10:36,1718.7517640000672,71.000002272,0.0,0.461372014763904,1718.7517640000672,71.000002272,0.35999970196000003,0.69853502235312,1684,0.0,97,P-GPS,
0.33773254962420196,36.909130903503396,19000,2018-03-30 05:10:36,1719.251764016067,71.500002288,0.0,0.4597210147110721,1719.251764016067,71.500002288,0.35999970196000003,0.69853502235312,1684,0.0,97,P-GPS,
0.337732579544417,36.909130904019996,19100,2018-03-30 05:10:36,1719.751764032067,72.00000230399999,0.0,0.45639501460464005,1719.751764032067,72.00000230399999,0.35999970196000003,0.69853502235312,1684,0.0,97,P-GPS,
0.3377326097211131,36.9091309087837,19200,2018-03-30 05:10:36,1720.2517640480671,72.50000232,0.0,0.4530510144976321,1720.2517640480671,72.50000232,0.35999970196000003,0.69853502235312,1684,0.0,97,P-GPS,
0.337732635439943,36.9091309163963,19300,2018-03-30 05:10:36,1720.7517640640672,73.00000233600001,0.0,0.45021101440675204,1720.7517640640672,73.00000233600001,0.35999970196000003,0.69853502235312,1684,0.0,97,P-GPS,
0.33773264199117303,36.9091309267583,19400,2018-03-30 05:10:36,1721.251764080067,73.50000235200001,0.0,0.44951101438435204,1721.251764080067,73.50000235200001,0.35999970196000003,0.69853502235312,1684,0.0,97,P-GPS,
0.337732660954404,36.9091309413361,19500,2018-03-30 05:10:36,1721.7517640960673,74.00000236800001,0.0,0.44744801431833603,1721.7517640960673,74.00000236800001,0.35999970196000003,0.69853502235312,1684,0.0,97,P-GPS,
0.33773268380147303,36.909130956957895,19600,2018-03-30 05:10:36,1722.2517641120671,74.500002384,0.0,0.44496401423884807,1722.2517641120671,74.500002384,0.35999970196000003,0.69853502235312,1684,0.0,97,P-GPS,
0.337732724729156,36.9091309492342,19700,2018-03-30 05:10:37,1722.751764128067,75.0000024,0.0,0.44038701409238395,1722.751764128067,75.0000024,0.35999970196000003,0.69853502235312,1684,0.0,97,P-GPS,
0.33773275536670094,36.9091309300397,19800,2018-03-30 05:10:37,1723.2517641440672,75.50000241600002,0.0,0.436917013981344,1723.2517641440672,75.50000241600002,0.35999970196000003,0.69853502235312,1684,0.0,97,P-GPS,
0.337732784895276,36.909130903983296,19900,2018-03-30 05:10:37,1723.751764160067,76.000002432,0.0,0.4335640138740481,1723.751764160067,76.000002432,0.35999970196000003,0.69853502235312,1684,0.0,97,P-GPS,
0.33773278651964894,36.9091308948898,20000,2018-03-30 05:10:37,1724.351764179267,76.6000024512,0.0,0.43336301386761605,1724.351764179267,76.6000024512,0.35999970196000003,0.69853502235312,1684,0.0,97,P-GPS,
0.337732806619534,36.909130878548496,20100,2018-03-30 05:10:37,1724.8517641952672,77.1000024672,0.0,0.431097013795104,1724.8517641952672,77.1000024672,0.35999970196000003,0.69853502235312,1684,0.0,97,P-GPS,
0.33773283411662497,36.9091308694485,20200,2018-03-30 05:10:37,1725.3517642112672,77.6000024832,0.0,0.428026013696832,1725.3517642112672,77.6000024832,0.35999970196000003,0.69853502235312,1684,0.0,97,P-GPS,
0.33773287402083096,36.9091308555444,20300,2018-03-30 05:10:37,1725.851764227267,78.1000024992,0.0,0.42357201355430396,1725.851764227267,78.1000024992,0.35999970196000003,0.69853502235312,1684,0.0,97,P-GPS,
0.33773289659432104,36.9091308509932,20400,2018-03-30 05:10:37,1726.3517642432673,78.6000025152,0.0,0.421058013473856,1726.3517642432673,78.6000025152,0.35999970196000003,0.69853502235312,1684,0.0,97,P-GPS,
0.33773293604012,36.9091308468481,20500,2018-03-30 05:10:37,1726.7517642560672,79.00000252800001,0.0,0.41666801333337605,1726.7517642560672,79.00000252800001,0.35999970196000003,0.69853502235312,1684,0.0,97,P-GPS,
0.33773296857235996,36.9091308514212,20600,2018-03-30 05:10:37,1727.251764272067,79.500002544,0.0,0.4130540132177281,1727.251764272067,79.500002544,0.35999970196000003,0.69853502235312,1684,0.0,97,P-GPS,
0.33773301497242897,36.9091308516195,20700,2018-03-30 05:10:37,1727.751764288067,80.00000256,0.0,0.40789401305260803,1727.751764288067,80.00000256,0.35999970196000003,0.69853502235312,1684,0.0,97,P-GPS,
0.33773304854117403,36.909130853509396,20800,2018-03-30 05:10:38,1728.2517643040671,80.500002576,0.0,0.40416301293321605,1728.2517643040671,80.500002576,0.35999970196000003,0.69853502235312,1684,0.0,97,P-GPS,
0.337733088184014,36.9091308578452,20900,2018-03-30 05:10:38,1728.7517643200672,81.000002592,0.0,0.39976001279232,1728.7517643200672,81.000002592,0.35999970196000003,0.69853502235312,1684,0.0,97,P-GPS,
0.337733103861045,36.9091308671684,21000,2018-03-30 05:10:38,1729.3517643392672,81.6000026112,0.0,0.39802801273689603,1729.3517643392672,81.6000026112,0.35999970196000003,0.69853502235312,1545,0.0,97,P-GPS,
0.337733162091759,36.909130829772295,21200,2018-03-30 05:10:38,1730.351764371267,82.60000264320001,0.0,0.391521012528672,1730.351764371267,82.60000264320001,0.35999970196000003,0.69853502235312,1442,0.0,97,P-GPS,
0.337733207874648,36.90913079017879,21300,2018-03-30 05:10:38,1730.851764387267,83.10000265920002,0.0,0.38644401236620807,1730.851764387267,83.10000265920002,0.35999970196000003,0.69853502235312,1322,0.0,97,P-GPS,
0.33773324480205796,36.9091307726579,21400,2018-03-30 05:10:38,1731.2517644000673,83.500002672,0.0,0.382361012235552,1731.2517644000673,83.500002672,0.35999970196000003,0.69853502235312,1322,0.0,97,P-GPS,
0.33773327892447397,36.9091307472316,21500,2018-03-30 05:10:38,1731.751764416067,84.000002688,0.0,0.378618012115776,1731.751764416067,84.000002688,0.35999970196000003,0.69853502235312,1348,0.0,97,P-GPS,
0.337733283695001,36.9091307251807,21600,2018-03-30 05:10:38,1732.0517644256672,84.30000269760001,0.0,0.378149012100768,1732.0517644256672,84.30000269760001,0.35999970196000003,0.69853502235312,1427,0.0,97,P-GPS,
0.337733305977814,36.9091306825473,21700,2018-03-30 05:10:39,1732.3517644352671,84.60000270720002,0.0,0.37583701202678405,1732.3517644352671,84.60000270720002,0.35999970196000003,0.69853502235312,1428,0.0,97,P-GPS,
0.337733328148265,36.90913064266871,21800,2018-03-30 05:10:39,1732.5517644416673,84.8000027136,0.0,0.37358301195465604,1732.5517644416673,84.8000027136,0.35999970196000003,0.69853502235312,1389,0.0,97,P-GPS,
0.337733378118697,36.9091306156687,21900,2018-03-30 05:10:39,1732.751764448067,85.00000272,0.0,0.368209011782688,1732.751764448067,85.00000272,0.35999970196000003,0.69853502235312,1389,0.0,97,P-GPS,
0.33773344257739596,36.9091306230399,22000,2018-03-30 05:10:39,1733.051764457667,85.30000272960001,0.0,0.361004011552128,1733.051764457667,85.30000272960001,0.35999970196000003,0.69853502235312,1045,0.0,97,P-GPS,
0.33773353555503494,36.909130623016,22100,2018-03-30 05:10:39,1733.2517644640673,85.500002736,0.0,0.350684011221888,1733.2517644640673,85.500002736,0.35999970196000003,0.69853502235312,1024,0.0,97,P-GPS,
0.33773360542830994,36.9091306145267,22200,2018-03-30 05:10:39,1733.451764470467,85.7000027424,0.0,0.342992010975744,1733.451764470467,85.7000027424,0.35999970196000003,0.69853502235312,1024,0.0,97,P-GPS,
0.33773365552494605,36.909130590924,22300,2018-03-30 05:10:39,1733.5517644736674,85.80000274560001,0.0,0.337622010803904,1733.5517644736674,85.80000274560001,0.35999970196000003,0.69853502235312,1024,0.0,97,P-GPS,
0.337733659053785,36.9091305703825,22400,2018-03-30 05:10:39,1733.6517644768671,85.9000027488,0.0,0.337413010797216,1733.6517644768671,85.9000027488,0.35999970196000003,0.69853502235312,1024,0.0,97,P-GPS,
0.33773366642900704,36.9091305444922,22500,2018-03-30 05:10:39,1733.751764480067,86.000002752,0.0,0.336846010779072,1733.751764480067,86.000002752,0.35999970196000003,0.69853502235312,1024,0.0,97,P-GPS,
0.33773366828543394,36.9091305294613,22600,2018-03-30 05:10:39,1733.751764480067,86.000002752,0.0,0.336798010777536,1733.751764480067,86.000002752,0.35999970196000003,0.69853502235312,1024,0.0,97,P-GPS,
0.337733691482618,36.9091305137221,22700,2018-03-30 05:10:39,1733.751764480067,86.000002752,0.0,0.33440501070096,1733.751764480067,86.000002752,0.35999970196000003,0.69853502235312,1024,0.0,97,P-GPS,
0.337733713745076,36.9091305080535,22800,2018-03-30 05:10:40,1733.751764480067,86.000002752,0.0,0.332008010624256,1733.751764480067,86.000002752,0.35999970196000003,0.69853502235312,1024,0.0,97,P-GPS,
0.337733758924627,36.9091304880437,22900,2018-03-30 05:10:40,1733.751764480067,86.000002752,0.0,0.327256010472192,1733.751764480067,86.000002752,0.35999970196000003,0.69853502235312,1024,0.0,97,P-GPS,
0.33773379214325605,36.9091304609196,23000,2018-03-30 05:10:40,1733.751764480067,86.000002752,0.0,0.323946010366272,1733.751764480067,86.000002752,0.35999970196000003,0.69853502235312,1024,0.0,97,P-GPS,
0.33773384385123806,36.909130433623,23100,2018-03-30 05:10:40,1733.851764483267,86.10000275520001,0.0,0.31863701019638396,1733.851764483267,86.10000275520001,0.35999970196000003,0.69853502235312,1024,0.0,97,P-GPS,
0.337733876995773,36.9091304205749,23200,2018-03-30 05:10:40,1733.851764483267,86.10000275520001,0.0,0.31518801008601605,1733.851764483267,86.10000275520001,0.35999970196000003,0.69853502235312,1024,0.0,97,P-GPS,
0.33773391891110693,36.9091304053685,23300,2018-03-30 05:10:40,1733.851764483267,86.10000275520001,0.0,0.310821009946272,1733.851764483267,86.10000275520001,0.35999970196000003,0.69853502235312,1024,0.0,97,P-GPS,
0.337733931779886,36.9091303936567,23400,2018-03-30 05:10:40,1733.851764483267,86.10000275520001,0.0,0.30960400990732806,1733.851764483267,86.10000275520001,0.35999970196000003,0.69853502235312,1024,0.0,97,P-GPS,
0.33773396566861896,36.9091303816343,23500,2018-03-30 05:10:40,1733.851764483267,86.10000275520001,0.0,0.30609100979491205,1733.851764483267,86.10000275520001,0.35999970196000003,0.69853502235312,1024,0.0,97,P-GPS,
0.337733991928093,36.9091303695069,23600,2018-03-30 05:10:40,1733.851764483267,86.10000275520001,0.0,0.303429009709728,1733.851764483267,86.10000275520001,0.35999970196000003,0.69853502235312,1024,0.0,97,P-GPS,
0.33773404047200895,36.909130358244504,23700,2018-03-30 05:10:41,1733.851764483267,86.10000275520001,0.0,0.298321009546272,1733.851764483267,86.10000275520001,0.35999970196000003,0.69853502235312,1024,0.0,97,P-GPS,
0.337734080769484,36.909130345798395,23800,2018-03-30 05:10:41,1733.851764483267,86.10000275520001,0.0,0.29415300941289607,1733.851764483267,86.10000275520001,0.35999970196000003,0.69853502235312,1024,0.0,97,P-GPS,
0.33773414476407604,36.909130321364295,23900,2018-03-30 05:10:41,1733.851764483267,86.10000275520001,0.0,0.28766900920540805,1733.851764483267,86.10000275520001,0.35999970196000003,0.69853502235312,1024,0.0,97,P-GPS,
0.337734190404476,36.909130285732296,24000,2018-03-30 05:10:41,1733.751764480067,86.000002752,0.0,0.283497009071904,1733.851764483267,86.10000275520001,0.35999970196000003,0.69853502235312,1024,0.0,97,P-GPS,
0.33773425943747404,36.9091302389644,24100,2018-03-30 05:10:41,1733.751764480067,86.000002752,0.0,0.27716500886928,1733.851764483267,86.10000275520001,0.35999970196000003,0.69853502235312,1024,0.0,97,P-GPS,
0.337734309499913,36.9091301927605,24200,2018-03-30 05:10:41,1733.751764480067,86.000002752,0.0,0.273026008736832,1733.851764483267,86.10000275520001,0.35999970196000003,0.69853502235312,1024,0.0,97,P-GPS,
0.33773438139327305,36.9091301331145,24300,2018-03-30 05:10:41,1733.751764480067,86.000002752,0.0,0.26713000854816005,1733.851764483267,86.10000275520001,0.35999970196000003,0.69853502235312,1024,0.0,97,P-GPS,
0.33773442916367796,36.909130080860294,24400,2018-03-30 05:10:41,1733.751764480067,86.000002752,0.0,0.263801008441632,1733.851764483267,86.10000275520001,0.35999970196000003,0.69853502235312,1024,0.0,97,P-GPS,
0.337734491621833,36.9091300253981,24500,2018-03-30 05:10:41,1733.751764480067,86.000002752,0.0,0.25925200829606404,1733.851764483267,86.10000275520001,0.35999970196000003,0.69853502235312,1024,0.0,97,P-GPS,
0.337734537838702,36.9091299796758,24600,2018-03-30 05:10:41,1733.751764480067,86.000002752,0.0,0.256241008199712,1733.851764483267,86.10000275520001,0.35999970196000003,0.69853502235312,1024,0.0,97,P-GPS,
0.337734601008488,36.9091299261204,24700,2018-03-30 05:10:41,1733.751764480067,86.000002752,0.0,0.252009008064288,1733.851764483267,86.10000275520001,0.35999970196000003,0.69853502235312,1024,0.0,97,P-GPS,
0.337734647218029,36.9091298788777,24800,2018-03-30 05:10:42,1733.751764480067,86.000002752,0.0,0.24945800798265602,1733.851764483267,86.10000275520001,0.35999970196000003,0.69853502235312,1024,0.0,97,P-GPS,
0.337734710560429,36.9091298258618,24900,2018-03-30 05:10:42,1733.751764480067,86.000002752,0.0,0.24568400786188802,1733.851764483267,86.10000275520001,0.35999970196000003,0.69853502235312,1024,0.0,97,P-GPS,
0.33773475796199104,36.9091297814759,25000,2018-03-30 05:10:42,1733.751764480067,86.000002752,0.0,0.243297007785504,1733.851764483267,86.10000275520001,0.35999970196000003,0.69853502235312,1024,0.0,97,P-GPS,
0.337734819209398,36.909129732188795,25100,2018-03-30 05:10:42,1733.751764480067,86.000002752,0.0,0.240046007681472,1733.851764483267,86.10000275520001,0.35999970196000003,0.69853502235312,1024,0.0,97,P-GPS,
0.33773486107995004,36.9091296933437,25200,2018-03-30 05:10:42,1733.751764480067,86.000002752,0.0,0.238283007625056,1733.851764483267,86.10000275520001,0.35999970196000003,0.69853502235312,1024,0.0,97,P-GPS,
0.337734915844522,36.909129663732294,25300,2018-03-30 05:10:42,1733.751764480067,86.000002752,0.0,0.23491600751731198,1733.851764483267,86.10000275520001,0.35999970196000003,0.69853502235312,1024,0.0,97,P-GPS,
0.337734951277021,36.909129655644,25400,2018-03-30 05:10:42,1733.751764480067,86.000002752,0.0,0.232131007428192,1733.851764483267,86.10000275520001,0.35999970196000003,0.69853502235312,1024,0.0,97,P-GPS,
0.337734970416123,36.9091296524697,25500,2018-03-30 05:10:42,1733.751764480067,86.000002752,0.0,0.230568007378176,1733.851764483267,86.10000275520001,0.35999970196000003,0.69853502235312,1024,0.0,97,P-GPS,
0.33773502425573804,36.909129624701,25600,2018-03-30 05:10:42,1733.751764480067,86.000002752,0.0,0.22744100727811203,1733.851764483267,86.10000275520001,0.35999970196000003,0.69853502235312,1024,0.0,97,P-GPS,
0.337735067374086,36.9091295864815,25700,2018-03-30 05:10:43,1733.751764480067,86.000002752,0.0,0.22612600723603196,1733.851764483267,86.10000275520001,0.35999970196000003,0.69853502235312,1024,0.0,97,P-GPS,
0.337735075247612,36.9091295514285,25800,2018-03-30 05:10:43,1733.751764480067,86.000002752,0.0,0.22782700729046398,1733.851764483267,86.10000275520001,0.35999970196000003,0.69853502235312,1024,0.0,97,P-GPS,
0.33773509798598306,36.9091295184216,25900,2018-03-30 05:10:43,1733.751764480067,86.000002752,0.0,0.228162007301184,1733.851764483267,86.10000275520001,0.35999970196000003,0.69853502235312,1024,0.0,97,P-GPS,
0.337735117424312,36.909129503509796,26000,2018-03-30 05:10:43,1733.751764480067,86.000002752,0.0,0.227561007281952,1733.851764483267,86.10000275520001,0.35999970196000003,0.69853502235312,1024,0.0,97,P-GPS,
0.337735157626523,36.90912947938921,26100,2018-03-30 05:10:43,1733.6517644768671,85.9000027488,0.0,0.225922007229504,1733.851764483267,86.10000275520001,0.35999970196000003,0.69853502235312,1024,0.0,97,P-GPS,
0.337735187703069,36.9091294552869,26200,2018-03-30 05:10:43,1733.6517644768671,85.9000027488,0.0,0.22522200720710403,1733.851764483267,86.10000275520001,0.35999970196000003,0.69853502235312,1024,0.0,97,P-GPS,
0.33773521988600796,36.9091294350905,26300,2018-03-30 05:10:43,1733.6517644768671,85.9000027488,0.0,0.224132007172224,1733.851764483267,86.10000275520001,0.35999970196000003,0.69853502235312,1024,0.0,97,P-GPS,
0.33773522232786,36.90912943177,26400,2018-03-30 05:10:43,1733.6517644768671,85.9000027488,0.0,0.22418900717404802,1733.851764483267,86.10000275520001,0.35999970196000003,0.69853502235312,1024,0.0,97,P-GPS,
0.33773524380418607,36.9091294311087,26500,2018-03-30 05:10:43,1733.751764480067,86.000002752,0.0,0.222516007120512,1733.851764483267,86.10000275520001,0.35999970196000003,0.69853502235312,1024,0.0,97,P-GPS,
0.337735255618141,36.909129438227204,26600,2018-03-30 05:10:43,1733.751764480067,86.000002752,0.0,0.22102200707270403,1733.851764483267,86.10000275520001,0.35999970196000003,0.69853502235312,1024,0.0,97,P-GPS,
0.337735273671885,36.9091294461916,26700,2018-03-30 05:10:43,1733.751764480067,86.000002752,0.0,0.21896500700688,1733.851764483267,86.10000275520001,0.35999970196000003,0.69853502235312,1024,0.0,97,P-GPS,
0.33773526697531603,36.909129457279,26800,2018-03-30 05:10:44,1733.751764480067,86.000002752,0.0,0.21864100699651198,1733.851764483267,86.10000275520001,0.35999970196000003,0.69853502235312,1024,0.0,97,P-GPS,
0.337735288305083,36.9091294668079,26900,2018-03-30 05:10:44,1733.6517644768671,85.9000027488,0.0,0.21619900691836805,1733.851764483267,86.10000275520001,0.35999970196000003,0.69853502235312,1024,0.0,97,P-GPS,
0.337735307252843,36.9091294803085,27000,2018-03-30 05:10:44,1733.6517644768671,85.9000027488,0.0,0.21364200683654402,1733.851764483267,86.10000275520001,0.35999970196000003,0.69853502235312,1024,0.0,97,P-GPS,
0.337735343874513,36.9091294701211,27100,2018-03-30 05:10:44,1733.6517644768671,85.9000027488,0.0,0.211549006769568,1733.851764483267,86.10000275520001,0.35999970196000003,0.69853502235312,1024,0.0,97,P-GPS,
0.33773535758764,36.9091294489084,27200,2018-03-30 05:10:44,1733.6517644768671,85.9000027488,0.0,0.21216900678940806,1733.851764483267,86.10000275520001,0.35999970196000003,0.69853502235312,1024,0.0,97,P-GPS,
0.33773537812639,36.9091294198398,27300,2018-03-30 05:10:44,1733.6517644768671,85.9000027488,0.0,0.212944006814208,1733.851764483267,86.10000275520001,0.35999970196000003,0.69853502235312,1024,0.0,97,P-GPS,
0.337735376914013,36.9091294046099,27400,2018-03-30 05:10:44,1733.6517644768671,85.9000027488,0.0,0.214278006856896,1733.851764483267,86.10000275520001,0.35999970196000003,0.69853502235312,1024,0.0,97,P-GPS,
0.33773538197969505,36.9091293842839,27500,2018-03-30 05:10:44,1733.6517644768671,85.9000027488,0.0,0.215567006898144,1733.851764483267,86.10000275520001,0.35999970196000003,0.69853502235312,1024,0.0,97,P-GPS,
0.337735371842224,36.909129377694995,27600,2018-03-30 05:10:44,1733.6517644768671,85.9000027488,0.0,0.21686700693974406,1733.851764483267,86.10000275520001,0.35999970196000003,0.69853502235312,1024,0.0,97,P-GPS,
0.33773538270638803,36.9091293673442,27700,2018-03-30 05:10:45,1733.751764480067,86.000002752,0.0,0.216913006941216,1733.851764483267,86.10000275520001,0.35999970196000003,0.69853502235312,1024,0.0,96,P-GPS,
0.337735402287206,36.909129363831205,27800,2018-03-30 05:10:45,1733.6517644768671,85.9000027488,0.0,0.215762006904384,1733.851764483267,86.10000275520001,0.35999970196000003,0.69853502235312,1024,0.0,96,P-GPS,
0.337735442058694,36.9091293568315,27900,2018-03-30 05:10:45,1733.6517644768671,85.9000027488,0.0,0.213462006830784,1733.851764483267,86.10000275520001,0.35999970196000003,0.69853502235312,1024,0.0,96,P-GPS,
0.33773545015246803,36.9091293593199,28000,2018-03-30 05:10:45,1733.6517644768671,85.9000027488,0.0,0.21267000680544002,1733.851764483267,86.10000275520001,0.35999970196000003,0.69853502235312,1024,0.0,96,P-GPS,
0.337735467724192,36.9091293581839,28100,2018-03-30 05:10:45,1733.6517644768671,85.9000027488,0.0,0.211513006768416,1733.851764483267,86.10000275520001,0.35999970196000003,0.69853502235312,1024,0.0,96,P-GPS,
0.337735468252623,36.9091293602507,28200,2018-03-30 05:10:45,1733.6517644768671,85.9000027488,0.0,0.21129800676153604,1733.851764483267,86.10000275520001,0.35999970196000003,0.69853502235312,1024,0.0,96,P-GPS,
0.337735477404885,36.909129360967604,28300,2018-03-30 05:10:45,1733.751764480067,86.000002752,0.0,0.21058800673881603,1733.851764483267,86.10000275520001,0.35999970196000003,0.69853502235312,1024,0.0,96,P-GPS,
0.337735469021655,36.9091293644388,28400,2018-03-30 05:10:45,1733.751764480067,86.000002752,0.0,0.21088600674835198,1733.851764483267,86.10000275520001,0.35999970196000003,0.69853502235312,1024,0.0,96,P-GPS,
0.3377354706655689,36.9091293463898,28500,2018-03-30 05:10:45,1733.751764480067,86.000002752,0.0,0.21231500679408,1733.851764483267,86.10000275520001,0.35999970196000003,0.69853502235312,1024,0.0,96,P-GPS,
0.337735461304866,36.909129318767796,28600,2018-03-30 05:10:45,1733.751764480067,86.000002752,0.0,0.215353006891296,1733.851764483267,86.10000275520001,0.35999970196000003,0.69853502235312,1024,0.0,96,P-GPS,
0.337735448044854,36.9091292732382,28700,2018-03-30 05:10:46,1733.751764480067,86.000002752,0.0,0.220221007047072,1733.851764483267,86.10000275520001,0.35999970196000003,0.69853502235312,1024,0.0,96,P-GPS,
0.337735384108886,36.909129216787,28800,2018-03-30 05:10:46,1733.751764480067,86.000002752,0.35999970196000003,0.22956800734617602,1733.851764483267,86.10000275520001,0.35999970196000003,0.69853502235312,1024,0.0,96,P-GPS,
0.33773526883174204,36.909129122733205,28900,2018-03-30 05:10:46,1733.751764480067,86.000002752,0.7199994039200001,0.24578600786515195,1733.851764483267,86.10000275520001,0.7199994039200001,0.69853502235312,1024,0.0,96,P-GPS,
0.33773506444980705,36.909128993875896,29000,2018-03-30 05:10:46,1733.751764480067,86.000002752,0.7919993443119999,0.27146700868694396,1733.851764483267,86.10000275520001,0.7919993443119999,0.69853502235312,1024,0.0,96,P-GPS,
0.337734384940024,36.9091285191713,29200,2018-03-30 05:10:46,1733.751764480067,86.000002752,2.087998271368,0.36172801157529605,1733.851764483267,86.10000275520001,2.087998271368,0.69853502235312,1024,0.0,96,P-GPS,
0.33773385420651303,36.9091281453883,29300,2018-03-30 05:10:46,1733.751764480067,86.000002752,2.9159975858759997,0.43302001385664,1733.851764483267,86.10000275520001,2.9159975858759997,0.69853502235312,1024,0.0,96,P-GPS,
0.33773314284517997,36.9091276753759,29400,2018-03-30 05:10:46,1733.751764480067,86.000002752,3.383997198424,0.526662016853184,1733.851764483267,86.10000275520001,3.383997198424,0.69853502235312,1024,0.0,96,P-GPS,
0.337732238182659,36.9091270774299,29500,2018-03-30 05:10:46,1733.751764480067,86.000002752,4.211996512931999,0.646259020680288,1733.851764483267,86.10000275520001,4.211996512931999,0.69853502235312,1024,0.0,96,P-GPS,
