latitude,longitude,time_millisecond,datetime_utc,altitude_m,ascent_m,speed_kph,distance_m,max_altitude_m,max_ascent_m,max_speed_kph,max_distance_m,rc_throttle,gimbal_pitch_degrees,battery_percent,flycState,message
0.320252404731363,36.8777205112554,100,2017-11-07 12:34:45,1806.0072598922416,0.0,0.0,0.0,1806.0072598922416,0.0,0.0,0.0,1024,0.0,100,Motors_Started,
0.320252411286664,36.8777205394991,200,2017-11-07 12:34:45,1806.0072598922416,0.0,0.0,0.00322431010317792,1806.0072598922416,0.0,0.0,0.00322431010317792,1024,0.0,100,Motors_Started,
0.320252416611676,36.8777205659195,300,2017-11-07 12:34:45,1806.0072598922416,0.0,0.0,0.006220800199065601,1806.0072598922416,0.0,0.0,0.006220800199065601,1024,0.0,100,Motors_Started,
0.320252419763529,36.8777205977256,400,2017-11-07 12:34:46,1806.0072598922416,0.0,0.0,0.00976009031232288,1806.0072598922416,0.0,0.0,0.00976009031232288,1024,0.0,100,Motors_Started,
0.320252388016606,36.8777206322017,500,2017-11-07 12:34:46,1806.0072598922416,0.0,0.0,0.0135776004344832,1806.0072598922416,0.0,0.0,0.0135776004344832,1024,0.0,100,Motors_Started,
0.320252359074271,36.8777206697637,600,2017-11-07 12:34:46,1806.0072598922416,0.0,0.0,0.018343500586992,1806.0072598922416,0.0,0.0,0.018343500586992,1024,0.0,100,Motors_Started,
0.320252332471603,36.8777206763982,700,2017-11-07 12:34:46,1806.0072598922416,0.0,0.0,0.0200457006414624,1806.0072598922416,0.0,0.0,0.0200457006414624,1024,0.0,100,Motors_Started,
0.320252313026353,36.8777206881254,800,2017-11-07 12:34:46,1806.0072598922416,0.0,0.0,0.0221554007089728,1806.0072598922416,0.0,0.0,0.0221554007089728,1024,0.0,100,Motors_Started,
0.320252298908151,36.8777207069361,900,2017-11-07 12:34:46,1806.0072598922416,0.0,0.0,0.024738900791644803,1806.0072598922416,0.0,0.0,0.024738900791644803,1024,0.0,100,Motors_Started,Setting new Return-To-Home altitude to 30m (98 ft). Setting new Maximum Flight Altitude to 100m (328 ft)
0.320252286958222,36.8777207318797,1000,2017-11-07 12:34:46,1806.0072598922416,0.0,0.0,0.0278113008899616,1806.0072598922416,0.0,0.0,0.0278113008899616,582,0.0,100,Motors_Started,
0.320252282565087,36.8777207666009,1100,2017-11-07 12:34:46,1806.0072598922416,0.0,0.0,0.0314782010073024,1806.0072598922416,0.0,0.0,0.0314782010073024,938,0.0,100,Motors_Started,
0.320252277444038,36.8777208019266,1200,2017-11-07 12:34:46,1806.0072598922416,0.0,0.0,0.0352874011291968,1806.0072598922416,0.0,0.0,0.0352874011291968,1024,0.0,100,Motors_Started,
0.32025224471272,36.8777208479264,1300,2017-11-07 12:34:47,1806.0072598922416,0.0,0.0,0.041453201326502404,1806.0072598922416,0.0,0.0,0.041453201326502404,1024,0.0,100,Motors_Started,
0.320252213678242,36.8777208903035,1400,2017-11-07 12:34:47,1806.0072598922416,0.0,0.0,0.047203601510515204,1806.0072598922416,0.0,0.0,0.047203601510515204,1024,0.0,100,Motors_Started,
0.320252191554609,36.8777209082154,1500,2017-11-07 12:34:47,1806.0072598922416,0.0,0.0,0.050106501603408,1806.0072598922416,0.0,0.0,0.050106501603408,1177,0.0,100,Motors_Started,
0.320252174166491,36.8777209223782,1600,2017-11-07 12:34:47,1806.0072598922416,0.0,0.0,0.0524177016773664,1806.0072598922416,0.0,0.0,0.0524177016773664,1435,0.0,100,Assisted_Takeoff,
0.320252168087509,36.877720955515,1700,2017-11-07 12:34:47,1806.0072598922416,0.0,0.0,0.055975501791216,1806.0072598922416,0.0,0.0,0.055975501791216,1684,0.0,100,Assisted_Takeoff,
0.320252161147081,36.8777209879366,1800,2017-11-07 12:34:47,1806.0072598922416,0.0,0.0,0.0595292019049344,1806.0072598922416,0.0,0.0,0.0595292019049344,1684,0.0,100,Assisted_Takeoff,
0.320252165576042,36.8777210317151,1900,2017-11-07 12:34:47,1806.0072598922416,0.0,0.0,0.06369550203825601,1806.0072598922416,0.0,0.0,0.06369550203825601,1684,0.0,100,Assisted_Takeoff,
0.320252166168795,36.877721070162,2000,2017-11-07 12:34:47,1806.0072598922416,0.0,0.0,0.0675781021624992,1806.0072598922416,0.0,0.0,0.0675781021624992,1684,0.0,100,Assisted_Takeoff,
0.320252137593267,36.8777210683291,2100,2017-11-07 12:34:47,1806.0072598922416,0.0,0.0,0.06870380219852161,1806.0072598922416,0.0,0.0,0.06870380219852161,1684,0.0,100,Assisted_Takeoff,
0.320252084597186,36.8777210099318,2200,2017-11-07 12:34:47,1806.0072598922416,0.0,0.35999970196000003,0.065899002108768,1806.0072598922416,0.0,0.35999970196000003,0.06870380219852161,1684,0.0,100,GPS_Atti,Obstacle Avoided. Revise Flight Route
0.320251969950657,36.8777209174471,2300,2017-11-07 12:34:47,1806.0072598922416,0.0,0.5075995797636,0.0661672021173504,1806.0072598922416,0.0,0.5075995797636,0.06870380219852161,1684,0.0,100,GPS_Atti,
0.32025185745856,36.8777207534408,2400,2017-11-07 12:34:48,1806.1072598954415,0.1000000032,0.8063993323904,0.06655290212969281,1806.1072598954415,0.1000000032,0.8063993323904,0.06870380219852161,1684,0.0,100,GPS_Atti,
0.320251773545248,36.8777204611916,2500,2017-11-07 12:34:48,1806.2072598986417,0.2000000064,1.2995989240756,0.0704122022531904,1806.2072598986417,0.2000000064,1.2995989240756,0.0704122022531904,1684,0.0,100,GPS_Atti,
0.320251611332685,36.8777200902329,2600,2017-11-07 12:34:48,1806.3072599018415,0.3000000096,1.2995989240756,0.09988360319627519,1806.3072599018415,0.3000000096,1.2995989240756,0.09988360319627519,1684,0.0,100,GPS_Atti,
0.320251457120259,36.8777195832808,2700,2017-11-07 12:34:48,1806.5072599082414,0.500000016,1.7999985098000002,0.147493004719776,1806.5072599082414,0.500000016,1.7999985098000002,0.147493004719776,1684,0.0,100,GPS_Atti,
0.320251222459037,36.8777190607442,2800,2017-11-07 12:34:48,1806.7072599146416,0.7000000224,1.7999985098000002,0.208098006659136,1806.7072599146416,0.7000000224,1.7999985098000002,0.208098006659136,1684,0.0,100,GPS_Atti,
0.320250883105557,36.8777185638567,2900,2017-11-07 12:34:48,1807.0072599242417,1.000000032,2.0375983130936,0.27483000879456004,1807.0072599242417,1.000000032,2.0375983130936,0.27483000879456004,1684,0.0,100,GPS_Atti,
0.320250525686119,36.8777181467782,3000,2017-11-07 12:34:48,1807.4072599370415,1.4000000448,1.7999985098000002,0.33586101074755204,1807.4072599370415,1.4000000448,2.0375983130936,0.33586101074755204,1684,0.0,100,GPS_Atti,Home Point Recorded. RTH Altitude:  30m.
0.320250202249865,36.8777177795585,3100,2017-11-07 12:34:48,1807.8072599498416,1.8000000576000001,1.5263987363104,0.390219012487008,1807.8072599498416,1.8000000576000001,2.0375983130936,0.390219012487008,1684,0.0,100,GPS_Atti,
0.320249945969827,36.8777174874662,3200,2017-11-07 12:34:48,1808.2072599626415,2.2000000704000002,1.2995989240756,0.43339701386870405,1808.2072599626415,2.2000000704000002,2.0375983130936,0.43339701386870405,1684,0.0,100,GPS_Atti,
0.320249841715214,36.8777172576108,3300,2017-11-07 12:34:49,1808.7072599786416,2.7000000864,1.2995989240756,0.46059901473916803,1808.7072599786416,2.7000000864,2.0375983130936,0.46059901473916803,1684,0.0,100,GPS_Atti,
0.320249739505926,36.8777170327245,3400,2017-11-07 12:34:49,1809.1072599914414,3.1000000992000003,1.2995989240756,0.48732201559430405,1809.1072599914414,3.1000000992000003,2.0375983130936,0.48732201559430405,1684,0.0,100,GPS_Atti,
0.320249652012073,36.8777168041174,3500,2017-11-07 12:34:49,1809.6072600074415,3.6000001152000003,1.2995989240756,0.513477016431264,1809.6072600074415,3.6000001152000003,2.0375983130936,0.513477016431264,1684,0.0,100,GPS_Atti,
0.320249539927087,36.8777166088349,3600,2017-11-07 12:34:49,1810.2072600266415,4.200000134400001,1.0187991565468,0.5383510172272321,1810.2072600266415,4.200000134400001,2.0375983130936,0.5383510172272321,1684,0.0,100,GPS_Atti,
0.320249377631473,36.8777166200343,3700,2017-11-07 12:34:49,1810.7072600426413,4.7000001504,1.0187991565468,0.548241017543712,1810.7072600426413,4.7000001504,2.0375983130936,0.548241017543712,1684,0.0,100,GPS_Atti,
0.320249207060921,36.8777166389874,3800,2017-11-07 12:34:49,1811.2072600586416,5.200000166400001,1.0187991565468,0.558462017870784,1811.2072600586416,5.200000166400001,2.0375983130936,0.558462017870784,1684,0.0,100,GPS_Atti,
0.320248980154348,36.8777167013106,3900,2017-11-07 12:34:49,1811.7072600746415,5.7000001824,1.0187991565468,0.56968501822992,1811.7072600746415,5.7000001824,2.0375983130936,0.56968501822992,1684,0.0,100,GPS_Atti,
0.320248766398275,36.8777167102821,4000,2017-11-07 12:34:49,1812.3072600938417,6.3000002016,1.0187991565468,0.585122018723904,1812.3072600938417,6.3000002016,2.0375983130936,0.585122018723904,1684,0.0,100,GPS_Atti,
0.320248453910457,36.8777167829112,4100,2017-11-07 12:34:49,1812.8072601098415,6.800000217600001,1.0187991565468,0.604097019331104,1812.8072601098415,6.800000217600001,2.0375983130936,0.604097019331104,1684,0.0,100,GPS_Atti,
0.320248161045389,36.8777168242069,4200,2017-11-07 12:34:49,1813.3072601258416,7.3000002336000005,1.0187991565468,0.62516002000512,1813.3072601258416,7.3000002336000005,2.0375983130936,0.62516002000512,1684,0.0,100,GPS_Atti,
0.320247796915541,36.8777169170899,4300,2017-11-07 12:34:50,1813.8072601418414,7.8000002496,1.2995989240756,0.6498620207955841,1813.8072601418414,7.8000002496,2.0375983130936,0.6498620207955841,1684,0.0,100,GPS_Atti,
0.320247449097816,36.8777169923511,4400,2017-11-07 12:34:50,1814.3072601578417,8.300000265600001,1.2995989240756,0.675897021628704,1814.3072601578417,8.300000265600001,2.0375983130936,0.675897021628704,1684,0.0,100,GPS_Atti,
0.320247060599118,36.8777170767175,4500,2017-11-07 12:34:50,1814.9072601770415,8.9000002848,1.0187991565468,0.7064470226063041,1814.9072601770415,8.9000002848,2.0375983130936,0.7064470226063041,1684,0.0,100,GPS_Atti,
0.320246716386768,36.8777171265544,4600,2017-11-07 12:34:50,1815.4072601930416,9.4000003008,1.0187991565468,0.7360900235548801,1815.4072601930416,9.4000003008,2.0375983130936,0.7360900235548801,1684,0.0,100,GPS_Atti,
0.32024637474166,36.8777171353744,4700,2017-11-07 12:34:50,1815.9072602090416,9.900000316800002,1.0187991565468,0.7685060245921921,1815.9072602090416,9.900000316800002,2.0375983130936,0.7685060245921921,1684,0.0,100,GPS_Atti,
0.320246064394431,36.87771715008,4800,2017-11-07 12:34:50,1816.4072602250415,10.400000332800001,1.0187991565468,0.7980310255369921,1816.4072602250415,10.400000332800001,2.0375983130936,0.7980310255369921,1684,0.0,100,GPS_Atti,
0.320245781981531,36.87771717942,4900,2017-11-07 12:34:50,1817.0072602442415,11.000000351999999,0.8063993323904,0.824439026382048,1817.0072602442415,11.000000351999999,2.0375983130936,0.824439026382048,1684,0.0,100,GPS_Atti,
0.32024551307576,36.8777172310961,5000,2017-11-07 12:34:50,1817.5072602602415,11.500000368000002,0.8063993323904,0.8487730271607361,1817.5072602602415,11.500000368000002,2.0375983130936,0.8487730271607361,1684,0.0,100,GPS_Atti,
0.320245276970921,36.8777172689001,5100,2017-11-07 12:34:50,1818.0072602762414,12.000000384000002,1.0187991565468,0.87080502786576,1818.0072602762414,12.000000384000002,2.0375983130936,0.87080502786576,1684,0.0,100,GPS_Atti,
0.320245057753048,36.8777172867826,5200,2017-11-07 12:34:50,1818.6072602954416,12.6000004032,1.0187991565468,0.8922510285520321,1818.6072602954416,12.6000004032,2.0375983130936,0.8922510285520321,1684,0.0,100,GPS_Atti,
0.320244848939302,36.87771725772,5300,2017-11-07 12:34:51,1819.1072603114415,13.100000419200002,1.2995989240756,0.914836029274752,1819.1072603114415,13.100000419200002,2.0375983130936,0.914836029274752,1684,0.0,100,GPS_Atti,
0.320244650614365,36.8777172161812,5400,2017-11-07 12:34:51,1819.7072603306415,13.7000004384,0.8063993323904,0.93693002998176,1819.7072603306415,13.7000004384,2.0375983130936,0.93693002998176,1684,0.0,100,GPS_Atti,
0.320244500831714,36.8777171657314,5500,2017-11-07 12:34:51,1820.2072603466415,14.2000004544,0.8063993323904,0.9544550305425601,1820.2072603466415,14.2000004544,2.0375983130936,0.9544550305425601,1684,0.0,100,GPS_Atti,
0.320244341699353,36.8777171489125,5600,2017-11-07 12:34:51,1820.7072603626414,14.7000004704,0.8063993323904,0.9714950310878401,1820.7072603626414,14.7000004704,2.0375983130936,0.9714950310878401,1684,0.0,100,GPS_Atti,
0.320244175629005,36.8777171503942,5700,2017-11-07 12:34:51,1821.2072603786416,15.200000486400002,0.5075995797636,0.988504031632128,1821.2072603786416,15.200000486400002,2.0375983130936,0.988504031632128,1684,0.0,100,GPS_Atti,
0.320244000322124,36.8777171895916,5800,2017-11-07 12:34:51,1821.7072603946415,15.700000502400002,0.5075995797636,1.00497003215904,1821.7072603946415,15.700000502400002,2.0375983130936,1.00497003215904,1684,0.0,100,GPS_Atti,
0.320243841965716,36.8777172993685,5900,2017-11-07 12:34:51,1822.3072604138417,16.3000005216,0.35999970196000003,1.0170200325446401,1822.3072604138417,16.3000005216,2.0375983130936,1.0170200325446401,1684,0.0,100,GPS_Atti,
0.320243665224175,36.8777174408625,6000,2017-11-07 12:34:51,1822.8072604298416,16.800000537600003,0.7199994039200001,1.03012003296384,1822.8072604298416,16.800000537600003,2.0375983130936,1.03012003296384,1684,0.0,100,GPS_Atti,
0.320243479453727,36.8777175773301,6100,2017-11-07 12:34:51,1823.4072604490416,17.400000556800002,0.7199994039200001,1.04479003343328,1823.4072604490416,17.400000556800002,2.0375983130936,1.04479003343328,1684,0.0,100,GPS_Atti,
0.320243260962139,36.877717698088,6200,2017-11-07 12:34:51,1823.9072604650416,17.9000005728,0.7199994039200001,1.06388003404416,1823.9072604650416,17.9000005728,2.0375983130936,1.06388003404416,1684,0.0,100,GPS_Atti,
0.320242993895695,36.877717727004,6300,2017-11-07 12:34:52,1824.5072604842414,18.500000592000003,0.8063993323904,1.09138003492416,1824.5072604842414,18.500000592000003,2.0375983130936,1.09138003492416,1684,0.0,100,GPS_Atti,
0.320242721867382,36.877717722476,6400,2017-11-07 12:34:52,1825.0072605002417,19.000000608,0.8063993323904,1.1205600358579202,1825.0072605002417,19.000000608,2.0375983130936,1.1205600358579202,1684,0.0,100,GPS_Atti,
0.320242470883451,36.8777176734067,6500,2017-11-07 12:34:52,1825.6072605194415,19.6000006272,0.8063993323904,1.1489000367648001,1825.6072605194415,19.6000006272,2.0375983130936,1.1489000367648001,1684,0.0,100,GPS_Atti,
0.320242223556191,36.8777176374773,6600,2017-11-07 12:34:52,1826.2072605386415,20.200000646400003,0.8063993323904,1.1764500376464,1826.2072605386415,20.200000646400003,2.0375983130936,1.1764500376464,1684,0.0,100,GPS_Atti,
0.320242044974508,36.8777175451885,6700,2017-11-07 12:34:52,1826.7072605546414,20.7000006624,0.8063993323904,1.1983600383475201,1826.7072605546414,20.7000006624,2.0375983130936,1.1983600383475201,1684,0.0,100,GPS_Atti,
0.320241897224156,36.8777174536507,6800,2017-11-07 12:34:52,1827.2072605706414,21.200000678400002,0.5075995797636,1.21696003894272,1827.2072605706414,21.200000678400002,2.0375983130936,1.21696003894272,1684,0.0,100,GPS_Atti,
0.32024176317716,36.8777174167004,6900,2017-11-07 12:34:52,1827.8072605898415,21.8000006976,0.35999970196000003,1.2324300394377599,1827.8072605898415,21.8000006976,2.0375983130936,1.2324300394377599,1684,0.0,100,GPS_Atti,
0.320241598608238,36.8777174191874,7000,2017-11-07 12:34:52,1828.3072606058415,22.300000713600003,0.7199994039200001,1.2499300399977602,1828.3072606058415,22.300000713600003,2.0375983130936,1.2499300399977602,1684,0.0,100,GPS_Atti,
0.320241411205275,36.8777174161507,7100,2017-11-07 12:34:52,1828.9072606250415,22.900000732800002,0.7199994039200001,1.27007004064224,1828.9072606250415,22.900000732800002,2.0375983130936,1.27007004064224,1684,0.0,100,GPS_Atti,
0.320241236191513,36.8777174008504,7200,2017-11-07 12:34:52,1829.4072606410414,23.4000007488,0.35999970196000003,1.28927004125664,1829.4072606410414,23.4000007488,2.0375983130936,1.28927004125664,1684,0.0,100,GPS_Atti,
0.320241078429487,36.87771739982,7300,2017-11-07 12:34:53,1830.0072606602416,24.000000768000003,0.35999970196000003,1.3062100417987201,1830.0072606602416,24.000000768000003,2.0375983130936,1.3062100417987201,1684,0.0,100,GPS_Atti,
0.320240941609251,36.8777174137462,7400,2017-11-07 12:34:53,1830.5072606762415,24.500000784,0.35999970196000003,1.32049004225568,1830.5072606762415,24.500000784,2.0375983130936,1.32049004225568,1684,0.0,100,GPS_Atti,
0.320240828046452,36.8777174883489,7500,2017-11-07 12:34:53,1831.0072606922415,25.000000800000002,0.35999970196000003,1.33056004257792,1831.0072606922415,25.000000800000002,2.0375983130936,1.33056004257792,1684,0.0,100,GPS_Atti,
0.320240718738777,36.8777175476679,7600,2017-11-07 12:34:53,1831.6072607114415,25.6000008192,0.35999970196000003,1.34069004290208,1831.6072607114415,25.6000008192,2.0375983130936,1.34069004290208,1684,0.0,100,GPS_Atti,
0.320240575222379,36.8777176121221,7700,2017-11-07 12:34:53,1832.1072607274414,26.100000835200003,0.0,1.3544400433420802,1832.1072607274414,26.100000835200003,2.0375983130936,1.3544400433420802,1684,0.0,100,GPS_Atti,
0.320240477732322,36.8777176077969,7800,2017-11-07 12:34:53,1832.6072607434417,26.6000008512,0.35999970196000003,1.3650900436828801,1832.6072607434417,26.6000008512,2.0375983130936,1.3650900436828801,1684,0.0,100,GPS_Atti,
0.320240431061117,36.8777175294155,7900,2017-11-07 12:34:53,1833.1072607594415,27.100000867200002,0.35999970196000003,1.37221004391072,1833.1072607594415,27.100000867200002,2.0375983130936,1.37221004391072,1684,-0.3,100,GPS_Atti,
0.320240406932463,36.8777174117484,8000,2017-11-07 12:34:53,1833.6072607754415,27.600000883200003,0.35999970196000003,1.37803004409696,1833.6072607754415,27.600000883200003,2.0375983130936,1.37803004409696,1684,-0.6,100,GPS_Atti,
0.320240389078203,36.8777172991088,8100,2017-11-07 12:34:53,1834.2072607946416,28.200000902400003,0.35999970196000003,1.38314004426048,1834.2072607946416,28.200000902400003,2.0375983130936,1.38314004426048,1684,-1.0,100,GPS_Atti,
0.32024033969401,36.8777171983501,8200,2017-11-07 12:34:53,1834.7072608106416,28.7000009184,0.35999970196000003,1.3913700445238402,1834.7072608106416,28.7000009184,2.0375983130936,1.3913700445238402,1684,-1.4,100,GPS_Atti,
0.320240247910021,36.8777171414725,8300,2017-11-07 12:34:54,1835.3072608298417,29.300000937600004,0.0,1.4028900448924801,1835.3072608298417,29.300000937600004,2.0375983130936,1.4028900448924801,1684,-1.8,100,GPS_Atti,
0.320240159918678,36.8777171287855,8400,2017-11-07 12:34:54,1835.8072608458415,29.8000009536,0.0,1.41269004520608,1835.8072608458415,29.8000009536,2.0375983130936,1.41269004520608,1684,-2.2,100,GPS_Atti,
0.320240063724863,36.877717167719,8500,2017-11-07 12:34:54,1836.3072608618415,30.300000969600003,0.0,1.42187004549984,1836.3072608618415,30.300000969600003,2.0375983130936,1.42187004549984,1684,-2.6,100,GPS_Atti,
0.320240005784825,36.8777171942744,8600,2017-11-07 12:34:54,1836.8072608778416,30.8000009856,0.0,1.42732004567424,1836.8072608778416,30.8000009856,2.0375983130936,1.42732004567424,1684,-3.0,100,GPS_Atti,
0.320240028495105,36.8777172005517,8700,2017-11-07 12:34:54,1837.3072608938417,31.300001001600002,0.0,1.4247000455904002,1837.3072608938417,31.300001001600002,2.0375983130936,1.42732004567424,1684,-3.0,100,GPS_Atti,
0.320240120634095,36.8777171705025,8800,2017-11-07 12:34:54,1837.8072609098415,31.800001017600003,0.5075995797636,1.41568004530176,1837.8072609098415,31.800001017600003,2.0375983130936,1.42732004567424,1684,-3.4,100,GPS_Atti,
0.320240291676082,36.8777170869117,8900,2017-11-07 12:34:54,1838.3072609258413,32.3000010336,0.5075995797636,1.3998400447948802,1838.3072609258413,32.3000010336,2.0375983130936,1.42732004567424,1684,-3.8,100,GPS_Atti,
0.320240456305256,36.8777169891757,9000,2017-11-07 12:34:54,1838.8072609418416,32.800001049600006,0.5075995797636,1.38526004432832,1838.8072609418416,32.800001049600006,2.0375983130936,1.42732004567424,1684,-4.2,100,GPS_Atti,
0.320240603558933,36.8777168991121,9100,2017-11-07 12:34:54,1839.3072609578414,33.3000010656,0.5075995797636,1.37246004391872,1839.3072609578414,33.3000010656,2.0375983130936,1.42732004567424,1684,-4.6,100,GPS_Atti,
0.320240717289462,36.8777168298998,9200,2017-11-07 12:34:54,1839.8072609738415,33.8000010816,0.5075995797636,1.3626600436051202,1839.8072609738415,33.8000010816,2.0375983130936,1.42732004567424,1684,-5.0,100,GPS_Atti,
0.320240828067621,36.8777168046248,9300,2017-11-07 12:34:54,1840.3072609898416,34.3000010976,0.0,1.3517700432566402,1840.3072609898416,34.3000010976,2.0375983130936,1.42732004567424,1684,-5.4,100,GPS_Atti,
0.320240907661079,36.8777168154302,9400,2017-11-07 12:34:55,1840.8072610058416,34.800001113600004,0.0,1.34298004297536,1840.8072610058416,34.800001113600004,2.0375983130936,1.42732004567424,1684,-5.8,100,GPS_Atti,
0.320240997420912,36.8777168400366,9500,2017-11-07 12:34:55,1841.3072610218414,35.300001129600005,0.0,1.3326400426444802,1841.3072610218414,35.300001129600005,2.0375983130936,1.42732004567424,1684,-6.2,100,GPS_Atti,
0.320241072593144,36.8777168639,9600,2017-11-07 12:34:55,1841.8072610378417,35.8000011456,0.0,1.32387004236384,1841.8072610378417,35.8000011456,2.0375983130936,1.42732004567424,1684,-6.6,100,GPS_Atti,
0.320241181796598,36.8777168928342,9700,2017-11-07 12:34:55,1842.4072610570415,36.4000011648,0.0,1.3113200419622402,1842.4072610570415,36.4000011648,2.0375983130936,1.42732004567424,1684,-7.0,100,GPS_Atti,
0.320241281069801,36.8777169162008,9800,2017-11-07 12:34:55,1842.9072610730414,36.900001180800004,0.0,1.30002004160064,1842.9072610730414,36.900001180800004,2.0375983130936,1.42732004567424,1684,-7.4,100,GPS_Atti,
0.320241411573303,36.8777169291977,9900,2017-11-07 12:34:55,1843.4072610890416,37.400001196800005,0.0,1.28577004114464,1843.4072610890416,37.400001196800005,2.0375983130936,1.42732004567424,1684,-7.7,100,GPS_Atti,
0.320241508512946,36.8777169554704,10000,2017-11-07 12:34:55,1843.9072611050415,37.9000012128,0.0,1.27461004078752,1843.9072611050415,37.9000012128,2.0375983130936,1.42732004567424,1684,-8.1,100,GPS_Atti,
0.320241578707024,36.8777169814782,10100,2017-11-07 12:34:55,1844.4072611210415,38.4000012288,0.0,1.26629004052128,1844.4072611210415,38.4000012288,2.0375983130936,1.42732004567424,1684,-8.1,100,GPS_Atti,
0.320241592219852,36.8777170105403,10200,2017-11-07 12:34:55,1844.9072611370416,38.9000012448,0.0,1.2638700404438399,1844.9072611370416,38.9000012448,2.0375983130936,1.42732004567424,1684,-8.5,100,GPS_Atti,
0.320241618011148,36.8777170012193,10300,2017-11-07 12:34:55,1845.5072611562414,39.500001264,0.0,1.26146004036672,1845.5072611562414,39.500001264,2.0375983130936,1.42732004567424,1684,-8.8,100,GPS_Atti,
0.320241634225565,36.8777169971441,10400,2017-11-07 12:34:56,1846.0072611722417,40.00000128,0.0,1.25988004031616,1846.0072611722417,40.00000128,2.0375983130936,1.42732004567424,1684,-9.2,100,GPS_Atti,
0.32024170139888,36.8777169850679,10500,2017-11-07 12:34:56,1846.5072611882415,40.500001296,0.0,1.2532000401024002,1846.5072611882415,40.500001296,2.0375983130936,1.42732004567424,1684,-9.6,100,GPS_Atti,
0.320241756454943,36.877716995156,10600,2017-11-07 12:34:56,1847.0072612042416,41.000001312,0.0,1.2470400399052801,1847.0072612042416,41.000001312,2.0375983130936,1.42732004567424,1684,-10.0,100,GPS_Atti,
0.320241841523229,36.8777169938081,10700,2017-11-07 12:34:56,1847.6072612234416,41.600001331200005,0.0,1.2381100396195202,1847.6072612234416,41.600001331200005,2.0375983130936,1.42732004567424,1684,-10.3,100,GPS_Atti,
0.320241902446576,36.8777170004806,10800,2017-11-07 12:34:56,1848.1072612394414,42.100001347200006,0.0,1.23144003940608,1848.1072612394414,42.100001347200006,2.0375983130936,1.42732004567424,1684,-10.7,100,GPS_Atti,
0.320242010516633,36.8777170263068,10900,2017-11-07 12:34:56,1848.6072612554415,42.6000013632,0.0,1.21914003901248,1848.6072612554415,42.6000013632,2.0375983130936,1.42732004567424,1684,-11.1,100,GPS_Atti,
0.320242096394256,36.8777170709851,11000,2017-11-07 12:34:56,1849.1072612714415,43.1000013792,0.0,1.208500038672,1849.1072612714415,43.1000013792,2.0375983130936,1.42732004567424,1684,-11.5,100,GPS_Atti,
0.320242201015269,36.8777171108799,11100,2017-11-07 12:34:56,1849.6072612874416,43.6000013952,0.0,1.19606003827392,1849.6072612874416,43.6000013952,2.0375983130936,1.42732004567424,1684,-11.9,100,GPS_Atti,
0.320242291309232,36.8777171680129,11200,2017-11-07 12:34:57,1850.1072613034414,44.100001411200004,0.0,1.1845300379049601,1850.1072613034414,44.100001411200004,2.0375983130936,1.42732004567424,1684,-12.2,100,GPS_Atti,
0.320242392595191,36.877717244791,11300,2017-11-07 12:34:57,1850.6072613194417,44.600001427200006,0.0,1.17117003747744,1850.6072613194417,44.600001427200006,2.0375983130936,1.42732004567424,1684,-12.6,100,GPS_Atti,
0.320242472251344,36.8777173396621,11400,2017-11-07 12:34:57,1851.1072613354415,45.1000014432,0.0,1.159500037104,1851.1072613354415,45.1000014432,2.0375983130936,1.42732004567424,1684,-13.0,100,GPS_Atti,
0.320242550415841,36.8777174203404,11500,2017-11-07 12:34:57,1851.6072613514416,45.6000014592,0.0,1.1485000367520002,1851.6072613514416,45.6000014592,2.0375983130936,1.42732004567424,1684,-13.0,100,GPS_Atti,
0.320242623134822,36.8777174936975,11600,2017-11-07 12:34:57,1852.1072613674414,46.1000014752,0.0,1.13836003642752,1852.1072613674414,46.1000014752,2.0375983130936,1.42732004567424,1684,-13.4,100,GPS_Atti,
0.320242735390795,36.8777175637706,11700,2017-11-07 12:34:57,1852.6072613834415,46.600001491200004,0.0,1.12414003597248,1852.6072613834415,46.600001491200004,2.0375983130936,1.42732004567424,1684,-13.7,100,GPS_Atti,
0.320242855661155,36.877717619349,11800,2017-11-07 12:34:57,1853.1072613994415,47.100001507200005,0.0,1.10954003550528,1853.1072613994415,47.100001507200005,2.0375983130936,1.42732004567424,1684,-14.1,100,GPS_Atti,
0.320242986648305,36.87771766011,11900,2017-11-07 12:34:57,1853.6072614154414,47.6000015232,0.0,1.09429003501728,1853.6072614154414,47.6000015232,2.0375983130936,1.42732004567424,1684,-14.5,99,GPS_Atti,
0.320243061945927,36.8777176914926,12000,2017-11-07 12:34:57,1854.1072614314417,48.1000015392,0.0,1.0852600347283199,1854.1072614314417,48.1000015392,2.0375983130936,1.42732004567424,1684,-14.8,99,GPS_Atti,
0.320243098959644,36.8777177344553,12100,2017-11-07 12:34:57,1854.6072614474415,48.6000015552,0.0,1.0799500345584,1854.6072614474415,48.6000015552,2.0375983130936,1.42732004567424,1684,-14.9,99,GPS_Atti,
0.320243119437328,36.877717791798,12200,2017-11-07 12:34:57,1855.1072614634415,49.1000015712,0.0,1.07596003443072,1855.1072614634415,49.1000015712,2.0375983130936,1.42732004567424,1684,-14.9,99,GPS_Atti,
0.3202431429716,36.8777178530286,12300,2017-11-07 12:34:58,1855.6072614794416,49.600001587200005,0.0,1.0715500342896,1855.6072614794416,49.600001587200005,2.0375983130936,1.42732004567424,1684,-14.9,99,GPS_Atti,
0.320243171497868,36.8777179275805,12400,2017-11-07 12:34:58,1856.1072614954417,50.1000016032,0.0,1.06623003411936,1856.1072614954417,50.1000016032,2.0375983130936,1.42732004567424,1684,-14.9,99,GPS_Atti,
0.32024320840818,36.8777179922129,12500,2017-11-07 12:34:58,1856.6072615114415,50.6000016192,0.0,1.06036003393152,1856.6072615114415,50.6000016192,2.0375983130936,1.42732004567424,1684,-14.9,99,GPS_Atti,
0.32024324907694,36.8777180483218,12600,2017-11-07 12:34:58,1857.1072615274416,51.1000016352,0.0,1.05436003373952,1857.1072615274416,51.1000016352,2.0375983130936,1.42732004567424,1684,-14.9,99,GPS_Atti,
0.320243310181044,36.8777180714635,12700,2017-11-07 12:34:58,1857.6072615434416,51.6000016512,0.0,1.04713003350816,1857.6072615434416,51.6000016512,2.0375983130936,1.42732004567424,1684,-14.9,99,GPS_Atti,
0.320243363493858,36.8777180984198,12800,2017-11-07 12:34:58,1858.2072615626414,52.200001670400006,0.0,1.0406300333001601,1858.2072615626414,52.200001670400006,2.0375983130936,1.42732004567424,1684,-14.9,99,GPS_Atti,
0.320243429611127,36.8777181251679,12900,2017-11-07 12:34:58,1858.6072615754415,52.6000016832,0.0,1.03276003304832,1858.6072615754415,52.6000016832,2.0375983130936,1.42732004567424,1684,-14.9,99,GPS_Atti,
0.320243497078376,36.8777181693505,13000,2017-11-07 12:34:58,1859.1072615914416,53.1000016992,0.0,1.024250032776,1859.1072615914416,53.1000016992,2.0375983130936,1.42732004567424,1684,-14.9,99,GPS_Atti,
0.320243552538293,36.8777182160264,13100,2017-11-07 12:34:58,1859.7072616106414,53.7000017184,0.0,1.01697003254304,1859.7072616106414,53.7000017184,2.0375983130936,1.42732004567424,1684,-15.1,99,GPS_Atti,
0.320243574010956,36.8777182668402,13200,2017-11-07 12:34:58,1860.2072616266416,54.200001734400004,0.0,1.013250032424,1860.2072616266416,54.200001734400004,2.0375983130936,1.42732004567424,1684,-15.3,99,GPS_Atti,
0.320243563632882,36.8777183173837,13300,2017-11-07 12:34:58,1860.7072616426415,54.700001750400006,0.0,1.013000032416,1860.7072616426415,54.700001750400006,2.0375983130936,1.42732004567424,1684,-15.4,99,GPS_Atti,
0.32024353112344,36.8777183524802,13400,2017-11-07 12:34:59,1861.3072616618417,55.3000017696,0.0,1.01558003249856,1861.3072616618417,55.3000017696,2.0375983130936,1.42732004567424,1684,-15.4,99,GPS_Atti,
0.320243476462275,36.8777183629473,13500,2017-11-07 12:34:59,1861.8072616778416,55.8000017856,0.0,1.02122003267904,1861.8072616778416,55.8000017856,2.0375983130936,1.42732004567424,1684,-15.4,99,GPS_Atti,
0.320243411949838,36.8777183676263,13600,2017-11-07 12:34:59,1862.3072616938416,56.3000018016,0.0,1.02807003289824,1862.3072616938416,56.3000018016,2.0375983130936,1.42732004567424,1684,-15.5,99,GPS_Atti,
0.320243383820096,36.8777183840282,13700,2017-11-07 12:34:59,1862.8072617098414,56.8000018176,0.0,1.03069003298208,1862.8072617098414,56.8000018176,2.0375983130936,1.42732004567424,1684,-15.4,99,GPS_Atti,
0.320243358185945,36.8777184250017,13800,2017-11-07 12:34:59,1863.3072617258415,57.3000018336,0.0,1.03244003303808,1863.3072617258415,57.3000018336,2.0375983130936,1.42732004567424,1684,-15.5,99,GPS_Atti,
0.320243309515825,36.87771843987,14000,2017-11-07 12:34:59,1864.3072617578414,58.30000186560001,0.0,1.03734003319488,1864.3072617578414,58.30000186560001,2.0375983130936,1.42732004567424,1684,-15.4,99,GPS_Atti,
0.320243264988466,36.8777184053719,14100,2017-11-07 12:34:59,1864.8072617738417,58.8000018816,0.0,1.04302003337664,1864.8072617738417,58.8000018816,2.0375983130936,1.42732004567424,1684,-15.4,99,GPS_Atti,
0.320243205639825,36.8777183690593,14200,2017-11-07 12:34:59,1865.4072617930415,59.40000190080001,0.0,1.05037003361184,1865.4072617930415,59.40000190080001,2.0375983130936,1.42732004567424,1684,-15.4,99,GPS_Atti,
0.320243134864392,36.8777183045034,14300,2017-11-07 12:34:59,1865.9072618090418,59.9000019168,0.0,1.05967003390944,1865.9072618090418,59.9000019168,2.0375983130936,1.42732004567424,1684,-15.5,99,GPS_Atti,
0.320243074174727,36.8777182603016,14400,2017-11-07 12:35:00,1866.4072618250416,60.4000019328,0.0,1.0673800341561601,1866.4072618250416,60.4000019328,2.0375983130936,1.42732004567424,1684,-15.4,99,GPS_Atti,
0.320243026276489,36.8777182435539,14500,2017-11-07 12:35:00,1866.9072618410414,60.9000019488,0.0,1.073000034336,1866.9072618410414,60.9000019488,2.0375983130936,1.42732004567424,1684,-15.4,99,GPS_Atti,
0.320242969000043,36.8777182297754,14600,2017-11-07 12:35:00,1867.4072618570415,61.400001964800005,0.0,1.0795500345456002,1867.4072618570415,61.400001964800005,2.0375983130936,1.42732004567424,1684,-15.4,99,GPS_Atti,
0.32024290848055,36.8777181876939,14700,2017-11-07 12:35:00,1867.9072618730415,61.900001980800006,0.0,1.08719003479008,1867.9072618730415,61.900001980800006,2.0375983130936,1.42732004567424,1684,-15.4,99,GPS_Atti,
0.320242852870816,36.8777181480779,14800,2017-11-07 12:35:00,1868.4072618890416,62.4000019968,0.0,1.094250035016,1868.4072618890416,62.4000019968,2.0375983130936,1.42732004567424,1684,-15.4,99,GPS_Atti,
0.320242777045578,36.8777180620472,14900,2017-11-07 12:35:00,1868.9072619050414,62.9000020128,0.0,1.1047600353523201,1868.9072619050414,62.9000020128,2.0375983130936,1.42732004567424,1684,-15.5,99,GPS_Atti,
0.320242708276388,36.87771795972,15000,2017-11-07 12:35:00,1869.4072619210417,63.4000020288,0.35999970196000003,1.11501003568032,1869.4072619210417,63.4000020288,2.0375983130936,1.42732004567424,1684,-15.4,99,GPS_Atti,
0.320242617994639,36.8777178481424,15100,2017-11-07 12:35:00,1869.9072619370415,63.900002044800004,0.35999970196000003,1.12792003609344,1869.9072619370415,63.900002044800004,2.0375983130936,1.42732004567424,1684,-15.4,99,GPS_Atti,
0.320242534112674,36.8777177424568,15200,2017-11-07 12:35:00,1870.5072619562416,64.500002064,0.35999970196000003,1.1400400364812802,1870.5072619562416,64.500002064,2.0375983130936,1.42732004567424,1684,-15.5,99,GPS_Atti,
0.320242467460462,36.877717630762,15300,2017-11-07 12:35:01,1871.0072619722416,65.00000208,0.35999970196000003,1.15057003681824,1871.0072619722416,65.00000208,2.0375983130936,1.42732004567424,1684,-15.4,99,GPS_Atti,
0.320242419332613,36.8777175411754,15400,2017-11-07 12:35:01,1871.5072619882415,65.500002096,0.0,1.15852003707264,1871.5072619882415,65.500002096,2.0375983130936,1.42732004567424,1684,-15.4,99,GPS_Atti,
0.320242365328525,36.8777174329257,15500,2017-11-07 12:35:01,1872.0072620042415,66.000002112,0.0,1.167750037368,1872.0072620042415,66.000002112,2.0375983130936,1.42732004567424,1684,-15.4,99,GPS_Atti,
0.3202423421004,36.8777173480668,15600,2017-11-07 12:35:01,1872.5072620202416,66.500002128,0.0,1.17301003753632,1872.5072620202416,66.500002128,2.0375983130936,1.42732004567424,1684,-15.4,99,GPS_Atti,
0.32024232753234,36.8777172530265,15700,2017-11-07 12:35:01,1873.0072620362416,67.000002144,0.0,1.1777600376883202,1873.0072620362416,67.000002144,2.0375983130936,1.42732004567424,1684,-15.4,99,GPS_Atti,
0.320242337327431,36.8777171882898,15800,2017-11-07 12:35:01,1873.5072620522415,67.50000216000001,0.0,1.17896003772672,1873.5072620522415,67.50000216000001,2.0375983130936,1.42732004567424,1684,-15.5,99,GPS_Atti,
0.320242340978402,36.877717136119,15900,2017-11-07 12:35:01,1874.0072620682415,68.000002176,0.0,1.18041003777312,1874.0072620682415,68.000002176,2.0375983130936,1.42732004567424,1684,-15.5,99,GPS_Atti,
0.320242315543735,36.8777171022596,16000,2017-11-07 12:35:01,1874.5072620842416,68.500002192,0.0,1.18429003789728,1874.5072620842416,68.500002192,2.0375983130936,1.42732004567424,1684,-15.4,99,GPS_Atti,
0.32024224968946,36.8777170502778,16100,2017-11-07 12:35:01,1875.0072621002414,69.000002208,0.0,1.19309003817888,1875.0072621002414,69.000002208,2.0375983130936,1.42732004567424,1684,-15.5,99,GPS_Atti,
0.320242176481132,36.8777170553925,16200,2017-11-07 12:35:01,1875.5072621162417,69.500002224,0.0,1.2006100384195202,1875.5072621162417,69.500002224,2.0375983130936,1.42732004567424,1684,-15.4,99,GPS_Atti,
0.320242066561162,36.8777171336995,16300,2017-11-07 12:35:02,1876.0072621322415,70.00000224,0.5075995797636,1.20947003870304,1876.0072621322415,70.00000224,2.0375983130936,1.42732004567424,1684,-15.4,99,GPS_Atti,
0.32024195042705,36.87771727291,16400,2017-11-07 12:35:02,1876.5072621482416,70.500002256,0.5075995797636,1.2170800389465601,1876.5072621482416,70.500002256,2.0375983130936,1.42732004567424,1684,-15.4,99,GPS_Atti,
0.320241821312611,36.8777174094103,16500,2017-11-07 12:35:02,1876.9072621610414,70.90000226880001,0.5075995797636,1.2264500392464,1876.9072621610414,70.90000226880001,2.0375983130936,1.42732004567424,1684,-15.4,99,GPS_Atti,
0.320241629136678,36.8777177090792,16700,2017-11-07 12:35:02,1877.9072621930416,71.9000023008,0.7199994039200001,1.2381700396214401,1877.9072621930416,71.9000023008,2.0375983130936,1.42732004567424,1684,-15.4,99,GPS_Atti,
0.32024159282889,36.877717877628,16800,2017-11-07 12:35:02,1878.3072622058417,72.3000023136,0.7199994039200001,1.2375000396000002,1878.3072622058417,72.3000023136,2.0375983130936,1.42732004567424,1684,-15.4,99,GPS_Atti,
0.320241566049129,36.8777179962704,16900,2017-11-07 12:35:02,1878.8072622218415,72.8000023296,0.35999970196000003,1.2373500395952002,1878.8072622218415,72.8000023296,2.0375983130936,1.42732004567424,1652,-15.4,99,GPS_Atti,
0.320241550262993,36.8777180884998,17000,2017-11-07 12:35:02,1879.3072622378418,73.3000023456,0.35999970196000003,1.23679003957728,1879.3072622378418,73.3000023456,2.0375983130936,1.42732004567424,1578,-15.4,99,GPS_Atti,
0.320241519482144,36.8777180933313,17100,2017-11-07 12:35:02,1879.8072622538416,73.80000236160001,0.0,1.24001003968032,1879.8072622538416,73.80000236160001,2.0375983130936,1.42732004567424,1452,-15.5,99,GPS_Atti,
0.320241484753948,36.8777180646439,17200,2017-11-07 12:35:02,1880.3072622698414,74.30000237760001,0.0,1.2444700398230402,1880.3072622698414,74.30000237760001,2.0375983130936,1.42732004567424,1281,-15.5,99,GPS_Atti,
0.320241437910128,36.877717987285,17300,2017-11-07 12:35:03,1880.7072622826415,74.7000023904,0.0,1.2514600400467202,1880.7072622826415,74.7000023904,2.0375983130936,1.42732004567424,1151,-15.4,99,GPS_Atti,
0.320241380548188,36.8777179310433,17400,2017-11-07 12:35:03,1881.0072622922416,75.0000024,0.0,1.25909004029088,1881.0072622922416,75.0000024,2.0375983130936,1.42732004567424,1100,-15.4,99,GPS_Atti,
0.320241282154345,36.8777178533444,17500,2017-11-07 12:35:03,1881.3072623018415,75.3000024096,0.35999970196000003,1.27172004069504,1881.3072623018415,75.3000024096,2.0375983130936,1.42732004567424,1077,-15.4,99,GPS_Atti,
0.320241155415805,36.8777177758693,17600,2017-11-07 12:35:03,1881.5072623082415,75.500002416,0.35999970196000003,1.2874400411980802,1881.5072623082415,75.500002416,2.0375983130936,1.42732004567424,1052,-15.4,99,GPS_Atti,
0.320240979648074,36.8777176629631,17700,2017-11-07 12:35:03,1881.5072623082415,75.500002416,0.35999970196000003,1.3094300419017602,1881.5072623082415,75.500002416,2.0375983130936,1.42732004567424,1033,-15.4,99,GPS_Atti,
0.320240811126919,36.877717571489,17800,2017-11-07 12:35:03,1881.6072623114417,75.60000241920001,0.35999970196000003,1.33008004256256,1881.6072623114417,75.60000241920001,2.0375983130936,1.42732004567424,1024,-15.4,99,GPS_Atti,
0.320240653983701,36.8777174798709,17900,2017-11-07 12:35:03,1881.7072623146416,75.7000024224,0.35999970196000003,1.34954004318528,1881.7072623146416,75.7000024224,2.0375983130936,1.42732004567424,1024,-15.4,99,GPS_Atti,
0.320240516731927,36.8777173950719,18000,2017-11-07 12:35:03,1881.7072623146416,75.7000024224,0.35999970196000003,1.36668004373376,1881.7072623146416,75.7000024224,2.0375983130936,1.42732004567424,1024,-15.4,99,GPS_Atti,
0.320240380701487,36.8777173109661,18100,2017-11-07 12:35:03,1881.8072623178416,75.8000024256,0.0,1.3837000442784002,1881.8072623178416,75.8000024256,2.0375983130936,1.42732004567424,1024,-15.4,99,GPS_Atti,
0.320240252512004,36.8777172244039,18200,2017-11-07 12:35:03,1881.8072623178416,75.8000024256,0.0,1.3999600447987202,1881.8072623178416,75.8000024256,2.0375983130936,1.42732004567424,1024,-15.4,99,GPS_Atti,
0.320240114867775,36.8777171144579,18300,2017-11-07 12:35:04,1881.8072623178416,75.8000024256,0.0,1.4179500453744,1881.8072623178416,75.8000024256,2.0375983130936,1.42732004567424,1024,-15.4,99,GPS_Atti,
0.320239983328583,36.8777170064898,18400,2017-11-07 12:35:04,1881.9072623210413,75.90000242880001,0.0,1.43527004592864,1881.9072623210413,75.90000242880001,2.0375983130936,1.43527004592864,1024,-15.4,99,GPS_Atti,
0.320239845655042,36.8777168947173,18500,2017-11-07 12:35:04,1881.9072623210413,75.90000242880001,0.0,1.4534000465088002,1881.9072623210413,75.90000242880001,2.0375983130936,1.4534000465088002,1024,-15.4,99,GPS_Atti,
0.320239724231744,36.8777167918624,18600,2017-11-07 12:35:04,1881.9072623210413,75.90000242880001,0.0,1.46956004702592,1881.9072623210413,75.90000242880001,2.0375983130936,1.46956004702592,1024,-15.4,99,GPS_Atti,
0.320239621652799,36.8777166832412,18700,2017-11-07 12:35:04,1881.9072623210413,75.90000242880001,0.0,1.48393004748576,1881.9072623210413,75.90000242880001,2.0375983130936,1.48393004748576,1024,-15.4,99,GPS_Atti,
0.320239539387065,36.8777165759792,18800,2017-11-07 12:35:04,1881.9072623210413,75.90000242880001,0.0,1.4961400478764801,1881.9072623210413,75.90000242880001,2.0375983130936,1.4961400478764801,1024,-15.8,99,GPS_Atti,
0.320239471288794,36.8777164429802,18900,2017-11-07 12:35:04,1881.9072623210413,75.90000242880001,0.0,1.5077500482480002,1881.9072623210413,75.90000242880001,2.0375983130936,1.5077500482480002,1024,-17.9,99,GPS_Atti,
0.320239399513497,36.877716317416,19000,2017-11-07 12:35:04,1881.9072623210413,75.90000242880001,0.0,1.5196000486272,1881.9072623210413,75.90000242880001,2.0375983130936,1.5196000486272,1024,-20.8,99,GPS_Atti,
0.320239306237853,36.877716188705,19100,2017-11-07 12:35:04,1881.9072623210413,75.90000242880001,0.0,1.5339000490848,1881.9072623210413,75.90000242880001,2.0375983130936,1.5339000490848,1024,-23.6,99,GPS_Atti,
0.320239198594448,36.8777160641289,19200,2017-11-07 12:35:04,1882.0072623242418,76.000002432,0.0,1.54963004958816,1882.0072623242418,76.000002432,2.0375983130936,1.54963004958816,1024,-26.5,99,GPS_Atti,
0.320239099847232,36.8777159274316,19300,2017-11-07 12:35:05,1882.0072623242418,76.000002432,0.0,1.56493005007776,1882.0072623242418,76.000002432,2.0375983130936,1.56493005007776,1024,-29.3,99,GPS_Atti,
0.320239002902704,36.8777157736973,19400,2017-11-07 12:35:05,1882.0072623242418,76.000002432,0.0,1.5807400505836802,1882.0072623242418,76.000002432,2.0375983130936,1.5807400505836802,1024,-31.5,99,GPS_Atti,
0.320238915157257,36.8777155864135,19500,2017-11-07 12:35:05,1882.0072623242418,76.000002432,0.0,1.5969700511030402,1882.0072623242418,76.000002432,2.0375983130936,1.5969700511030402,1024,-31.5,99,GPS_Atti,
0.320238823332556,36.8777153985673,19600,2017-11-07 12:35:05,1882.0072623242418,76.000002432,0.0,1.6138000516416,1882.0072623242418,76.000002432,2.0375983130936,1.6138000516416,1025,-31.5,99,GPS_Atti,
0.320238734212702,36.8777151716812,19700,2017-11-07 12:35:05,1882.0072623242418,76.000002432,0.0,1.6320900522268802,1882.0072623242418,76.000002432,2.0375983130936,1.6320900522268802,1026,-31.5,99,GPS_Atti,
0.320238661745316,36.8777149448691,19800,2017-11-07 12:35:05,1882.0072623242418,76.000002432,0.35999970196000003,1.6489000527648001,1882.0072623242418,76.000002432,2.0375983130936,1.6489000527648001,1025,-31.5,99,GPS_Atti,
0.320238615948585,36.877714699453,19900,2017-11-07 12:35:05,1881.9072623210413,75.90000242880001,0.35999970196000003,1.6640300532489603,1882.0072623242418,76.000002432,2.0375983130936,1.6640300532489603,1025,-31.5,99,GPS_Atti,
0.320238596107623,36.8777144600228,20000,2017-11-07 12:35:05,1881.9072623210413,75.90000242880001,0.35999970196000003,1.6765700536502401,1882.0072623242418,76.000002432,2.0375983130936,1.6765700536502401,1024,-31.5,99,GPS_Atti,
0.320238609171001,36.8777141842012,20100,2017-11-07 12:35:05,1881.9072623210413,75.90000242880001,0.35999970196000003,1.6878000540096,1882.0072623242418,76.000002432,2.0375983130936,1.6878000540096,1024,-31.5,99,GPS_Atti,
0.3202386539125,36.8777139153366,20200,2017-11-07 12:35:05,1881.9072623210413,75.90000242880001,0.5075995797636,1.6959900542716801,1882.0072623242418,76.000002432,2.0375983130936,1.6959900542716801,1024,-31.5,99,GPS_Atti,
0.320238741706801,36.8777136604716,20300,2017-11-07 12:35:06,1881.9072623210413,75.90000242880001,0.35999970196000003,1.6997100543907202,1882.0072623242418,76.000002432,2.0375983130936,1.6997100543907202,1024,-31.5,99,GPS_Atti,
0.320238794033592,36.8777134368865,20400,2017-11-07 12:35:06,1881.9072623210413,75.90000242880001,0.35999970196000003,1.7058300545865601,1882.0072623242418,76.000002432,2.0375983130936,1.7058300545865601,1024,-31.5,99,GPS_Atti,
0.320238818751743,36.8777132372976,20500,2017-11-07 12:35:06,1881.9072623210413,75.90000242880001,0.35999970196000003,1.7137600548403202,1882.0072623242418,76.000002432,2.0375983130936,1.7137600548403202,1024,-31.5,99,GPS_Atti,
0.320238794113386,36.8777130870864,20600,2017-11-07 12:35:06,1881.9072623210413,75.90000242880001,0.0,1.72411005517152,1882.0072623242418,76.000002432,2.0375983130936,1.72411005517152,1024,-31.5,99,GPS_Atti,
0.320238735478003,36.8777129753272,20700,2017-11-07 12:35:06,1881.9072623210413,75.90000242880001,0.0,1.7358000555456001,1882.0072623242418,76.000002432,2.0375983130936,1.7358000555456001,1024,-31.5,99,GPS_Atti,
0.32023862906733,36.8777129306922,20800,2017-11-07 12:35:06,1881.9072623210413,75.90000242880001,0.35999970196000003,1.74856005595392,1882.0072623242418,76.000002432,2.0375983130936,1.74856005595392,1024,-31.5,99,GPS_Atti,
0.320238471217368,36.8777129695335,20900,2017-11-07 12:35:06,1882.0072623242418,76.000002432,0.5075995797636,1.7619000563808003,1882.0072623242418,76.000002432,2.0375983130936,1.7619000563808003,1024,-31.5,99,GPS_Atti,
0.320238272027727,36.8777130626297,21000,2017-11-07 12:35:06,1882.0072623242418,76.000002432,0.8063993323904,1.7765600568499202,1882.0072623242418,76.000002432,2.0375983130936,1.7765600568499202,1024,-31.5,99,GPS_Atti,
0.32023801596305,36.8777132178125,21100,2017-11-07 12:35:06,1882.0072623242418,76.000002432,1.2995989240756,1.79393005740576,1882.0072623242418,76.000002432,2.0375983130936,1.79393005740576,1024,-31.5,99,GPS_Atti,
0.320237708061745,36.8777134220927,21200,2017-11-07 12:35:06,1882.0072623242418,76.000002432,1.2995989240756,1.8145600580659202,1882.0072623242418,76.000002432,2.0375983130936,1.8145600580659202,1024,-31.5,99,GPS_Atti,
0.320237337325299,36.877713685253,21300,2017-11-07 12:35:07,1882.0072623242418,76.000002432,1.7999985098000002,1.83951005886432,1882.0072623242418,76.000002432,2.0375983130936,1.83951005886432,1024,-31.5,99,GPS_Atti,
0.320236908611362,36.8777140194139,21400,2017-11-07 12:35:07,1882.0072623242418,76.000002432,2.0375983130936,1.86837005978784,1882.0072623242418,76.000002432,2.0375983130936,1.86837005978784,1024,-31.5,99,GPS_Atti,
0.320236395324185,36.8777144013967,21500,2017-11-07 12:35:07,1882.1072623274415,76.1000024352,2.303998092544,1.90559006097888,1882.1072623274415,76.1000024352,2.303998092544,1.90559006097888,1024,-31.5,99,GPS_Atti,
0.320235847303927,36.8777148565466,21600,2017-11-07 12:35:07,1882.1072623274415,76.1000024352,2.5451978928572,1.9457000622623999,1882.1072623274415,76.1000024352,2.5451978928572,1.9457000622623999,1024,-31.5,99,GPS_Atti,
0.32023465491815,36.8777159388178,21800,2017-11-07 12:35:07,1882.0072623242418,76.000002432,3.3191972520712003,2.0383300652265604,1882.1072623274415,76.1000024352,3.3191972520712003,2.0383300652265604,1024,-31.5,99,GPS_Atti,
0.320234025863262,36.8777166251555,21900,2017-11-07 12:35:07,1881.9072623210413,75.90000242880001,3.5999970196000004,2.08903006684896,1882.1072623274415,76.1000024352,3.5999970196000004,2.08903006684896,1024,-31.5,99,GPS_Atti,
0.320233374567085,36.8777174188967,22000,2017-11-07 12:35:07,1881.9072623210413,75.90000242880001,4.103996602344,2.14403006860896,1882.1072623274415,76.1000024352,4.103996602344,2.14403006860896,1024,-31.5,99,GPS_Atti,
0.32023265274137,36.8777182904231,22100,2017-11-07 12:35:07,1881.9072623210413,75.90000242880001,4.3955963609315996,2.21038007073216,1882.1072623274415,76.1000024352,4.3955963609315996,2.21038007073216,1024,-31.5,99,GPS_Atti,
0.320231894350574,36.8777192589825,22200,2017-11-07 12:35:07,1881.8072623178416,75.8000024256,4.895995946656,2.28513007312416,1882.1072623274415,76.1000024352,4.895995946656,2.28513007312416,1024,-31.5,99,GPS_Atti,
0.320231071616699,36.8777203008531,22300,2017-11-07 12:35:08,1881.8072623178416,75.8000024256,5.1911957022632,2.37249007591968,1882.1072623274415,76.1000024352,5.1911957022632,2.37249007591968,1024,-31.5,99,GPS_Atti,
0.320230225451143,36.8777214259082,22400,2017-11-07 12:35:08,1881.8072623178416,75.8000024256,5.1911957022632,2.4685700789942397,1882.1072623274415,76.1000024352,5.1911957022632,2.4685700789942397,1024,-31.5,99,GPS_Atti,
0.320229287864741,36.8777226927672,22500,2017-11-07 12:35:08,1881.8072623178416,75.8000024256,5.6915952879875995,2.58216008262912,1882.1072623274415,76.1000024352,5.6915952879875995,2.58216008262912,1024,-31.5,99,GPS_Atti,
0.320228343730366,36.8777240452229,22600,2017-11-07 12:35:08,1881.8072623178416,75.8000024256,5.9903950406144,2.70444008654208,1882.1072623274415,76.1000024352,5.9903950406144,2.70444008654208,1024,-31.5,99,GPS_Atti,
0.320227333915959,36.8777254720211,22700,2017-11-07 12:35:08,1881.8072623178416,75.8000024256,5.9903950406144,2.8420800909465602,1882.1072623274415,76.1000024352,5.9903950406144,2.8420800909465602,1024,-31.5,99,GPS_Atti,
0.320226344014166,36.8777269148225,22800,2017-11-07 12:35:08,1881.8072623178416,75.8000024256,6.2963947872804,2.9843200954982403,1882.1072623274415,76.1000024352,6.2963947872804,2.9843200954982403,1024,-31.5,99,GPS_Atti,
0.320225287264746,36.8777284044931,22900,2017-11-07 12:35:08,1881.8072623178416,75.8000024256,6.2963947872804,3.1407801005049603,1882.1072623274415,76.1000024352,6.2963947872804,3.1407801005049603,1024,-31.5,99,GPS_Atti,
0.320224269536101,36.8777298943221,23000,2017-11-07 12:35:08,1881.7072623146416,75.7000024224,6.2963947872804,3.2982101055427204,1882.1072623274415,76.1000024352,6.2963947872804,3.2982101055427204,1024,-31.5,99,GPS_Atti,
0.320223201918446,36.8777314800682,23100,2017-11-07 12:35:08,1881.7072623146416,75.7000024224,6.2963947872804,3.4690501110096,1882.1072623274415,76.1000024352,6.2963947872804,3.4690501110096,1024,-31.5,99,GPS_Atti,
0.320222223005392,36.8777330572966,23200,2017-11-07 12:35:08,1881.7072623146416,75.7000024224,6.6095945279856,3.6348101163139206,1882.1072623274415,76.1000024352,6.6095945279856,3.6348101163139206,1024,-31.5,99,GPS_Atti,
0.320221192633508,36.8777347187417,23300,2017-11-07 12:35:09,1881.7072623146416,75.7000024224,6.6095945279856,3.8136401220364804,1882.1072623274415,76.1000024352,6.6095945279856,3.8136401220364804,1024,-31.5,99,GPS_Atti,
0.320220188127829,36.8777364004123,23400,2017-11-07 12:35:09,1881.7072623146416,75.7000024224,6.9263942657104005,3.99471012783072,1882.1072623274415,76.1000024352,6.9263942657104005,3.99471012783072,1024,-31.5,99,GPS_Atti,
0.320219070337814,36.8777382531091,23500,2017-11-07 12:35:09,1881.7072623146416,75.7000024224,7.4123938633563995,4.1993301343785605,1882.1072623274415,76.1000024352,7.4123938633563995,4.1993301343785605,1024,-31.5,99,GPS_Atti,
0.320217985051542,36.8777401139915,23600,2017-11-07 12:35:09,1881.7072623146416,75.7000024224,7.4123938633563995,4.4049001409568005,1882.1072623274415,76.1000024352,7.4123938633563995,4.4049001409568005,1024,-31.5,99,GPS_Atti,
0.320216785696024,36.8777421058024,23700,2017-11-07 12:35:09,1881.7072623146416,75.7000024224,7.901993458022,4.632140148228481,1882.1072623274415,76.1000024352,7.901993458022,4.632140148228481,1024,-31.5,99,GPS_Atti,
0.32021555024116,36.8777441465648,23800,2017-11-07 12:35:09,1881.7072623146416,75.7000024224,8.7083927904124,4.86883015580256,1882.1072623274415,76.1000024352,8.7083927904124,4.86883015580256,1024,-31.5,99,GPS_Atti,
0.320214081583345,36.8777464518477,23900,2017-11-07 12:35:09,1881.7072623146416,75.7000024224,9.694791973782799,5.1462801646809595,1882.1072623274415,76.1000024352,9.694791973782799,5.1462801646809595,1024,-31.5,99,GPS_Atti,
0.320212561987802,36.8777488441778,24000,2017-11-07 12:35:09,1881.8072623178416,75.8000024256,10.493991312134,5.4368001739776,1882.1072623274415,76.1000024352,10.493991312134,5.4368001739776,1024,-31.5,99,GPS_Atti,
0.320210821125802,36.8777516185337,24100,2017-11-07 12:35:09,1881.8072623178416,75.8000024256,11.4875904895436,5.775040184801281,1882.1072623274415,76.1000024352,11.4875904895436,5.775040184801281,1024,-31.5,99,GPS_Atti,
0.320208996480359,36.877754482926,24200,2017-11-07 12:35:09,1881.8072623178416,75.8000024256,12.4811896669532,6.12978019615296,1882.1072623274415,76.1000024352,12.4811896669532,6.12978019615296,1024,-31.5,99,GPS_Atti,
0.320206881721104,36.8777576645545,24300,2017-11-07 12:35:10,1881.9072623210413,75.90000242880001,13.478388841382401,6.534410209101121,1882.1072623274415,76.1000024352,13.478388841382401,6.534410209101121,1024,-31.5,99,GPS_Atti,
0.32020466501474,36.8777608833279,24400,2017-11-07 12:35:10,1881.9072623210413,75.90000242880001,14.479188012831202,6.95277022248864,1882.1072623274415,76.1000024352,14.479188012831202,6.95277022248864,1024,-31.5,99,GPS_Atti,
0.320202105462292,36.8777643615045,24500,2017-11-07 12:35:10,1881.9072623210413,75.90000242880001,15.191987422712,7.420710237462721,1882.1072623274415,76.1000024352,15.191987422712,7.420710237462721,1024,-31.5,99,GPS_Atti,
0.32019647782039,36.877771614667,24700,2017-11-07 12:35:10,1881.9072623210413,75.90000242880001,17.1467858043548,8.42477026959264,1882.1072623274415,76.1000024352,17.1467858043548,8.42477026959264,1024,-31.5,99,GPS_Atti,
0.320193433522503,36.8777753924236,24800,2017-11-07 12:35:10,1882.0072623242418,76.000002432,18.161984963882,8.958440286670081,1882.1072623274415,76.1000024352,18.161984963882,8.958440286670081,1024,-31.5,99,GPS_Atti,
0.320190068772892,36.8777794392528,24900,2017-11-07 12:35:10,1882.0072623242418,76.000002432,19.1735841263896,9.53924030525568,1882.1072623274415,76.1000024352,19.1735841263896,9.53924030525568,1024,-31.5,99,GPS_Atti,
0.320186630971284,36.8777835131635,25000,2017-11-07 12:35:10,1881.9072623210413,75.90000242880001,19.915183512427202,10.128500324112,1882.1072623274415,76.1000024352,19.915183512427202,10.128500324112,1024,-31.5,99,GPS_Atti,
0.320182878912554,36.8777878271212,25100,2017-11-07 12:35:10,1882.0072623242418,76.000002432,20.9303826719544,10.761800344377601,1882.1072623274415,76.1000024352,20.9303826719544,10.761800344377601,1024,-31.5,99,GPS_Atti,
0.320179073414805,36.8777921617797,25200,2017-11-07 12:35:10,1881.9072623210413,75.90000242880001,21.6755820550116,11.401300364841601,1882.1072623274415,76.1000024352,21.6755820550116,11.401300364841601,1024,-31.5,99,GPS_Atti,
0.32017491368489,36.8777967497731,25300,2017-11-07 12:35:11,1881.9072623210413,75.90000242880001,22.690781214538802,12.0888003868416,1882.1072623274415,76.1000024352,22.690781214538802,12.0888003868416,1024,-31.5,99,GPS_Atti,
0.320170701525593,36.8778013591783,25400,2017-11-07 12:35:11,1882.0072623242418,76.000002432,23.198380794302402,12.7822004090304,1882.1072623274415,76.1000024352,23.198380794302402,12.7822004090304,1024,-31.5,99,GPS_Atti,
0.320166073631056,36.8778063702589,25500,2017-11-07 12:35:11,1882.0072623242418,76.000002432,24.2171799508492,13.540000433280001,1882.1072623274415,76.1000024352,24.2171799508492,13.540000433280001,1024,-31.5,99,GPS_Atti,
0.320161436949436,36.8778113754214,25600,2017-11-07 12:35:11,1882.0072623242418,76.000002432,24.965979330926,14.2982004575424,1882.1072623274415,76.1000024352,24.965979330926,14.2982004575424,1024,-31.5,99,GPS_Atti,
0.320156429946624,36.8778167207562,25700,2017-11-07 12:35:11,1882.0072623242418,76.000002432,25.9847784874728,15.112200483590401,1882.1072623274415,76.1000024352,25.9847784874728,15.112200483590401,1024,-31.5,99,GPS_Atti,
0.320151442947618,36.8778220207838,25800,2017-11-07 12:35:11,1882.0072623242418,76.000002432,26.740777861588803,15.9212005094784,1882.1072623274415,76.1000024352,26.740777861588803,15.9212005094784,1024,-31.5,99,GPS_Atti,
0.320146140577633,36.8778275240172,25900,2017-11-07 12:35:11,1882.0072623242418,76.000002432,27.511177223783196,16.7709005366688,1882.1072623274415,76.1000024352,27.511177223783196,16.7709005366688,1024,-31.5,99,GPS_Atti,
0.320140865734866,36.8778329887267,26000,2017-11-07 12:35:11,1882.0072623242418,76.000002432,28.2671765978992,17.615500563696,1882.1072623274415,76.1000024352,28.2671765978992,17.615500563696,1024,-31.5,99,GPS_Atti,
0.320135183064584,36.877838832338,26100,2017-11-07 12:35:11,1882.0072623242418,76.000002432,28.7747761776628,18.521900592700803,1882.1072623274415,76.1000024352,28.7747761776628,18.521900592700803,1024,-31.5,99,GPS_Atti,
0.320129576748784,36.8778446229768,26200,2017-11-07 12:35:11,1882.0072623242418,76.000002432,29.534375548798398,19.418100621379203,1882.1072623274415,76.1000024352,29.534375548798398,19.418100621379203,1024,-31.5,99,GPS_Atti,
0.320123695864299,36.8778506129416,26300,2017-11-07 12:35:12,1882.0072623242418,76.000002432,30.549574708325597,20.3516006512512,1882.1072623274415,76.1000024352,30.549574708325597,20.3516006512512,1024,-31.5,99,GPS_Atti,
0.320117858283397,36.8778565341063,26400,2017-11-07 12:35:12,1882.0072623242418,76.000002432,31.0607742851088,21.276300680841597,1882.1072623274415,76.1000024352,31.0607742851088,21.276300680841597,1024,-31.5,99,GPS_Atti,
0.320111683823028,36.877862707227,26500,2017-11-07 12:35:12,1882.0072623242418,76.000002432,31.820373656244403,22.2472007119104,1882.1072623274415,76.1000024352,31.820373656244403,22.2472007119104,1024,-31.5,99,GPS_Atti,
0.320105578812539,36.8778688235639,26600,2017-11-07 12:35:12,1882.0072623242418,76.000002432,32.3315732330276,23.2082007426624,1882.1072623274415,76.1000024352,32.3315732330276,23.2082007426624,1024,-31.5,99,GPS_Atti,
0.320099120924749,36.8778752617789,26700,2017-11-07 12:35:12,1882.0072623242418,76.000002432,32.8391728127912,24.222200775110398,1882.1072623274415,76.1000024352,32.8391728127912,24.222200775110398,1024,-31.5,99,GPS_Atti,
0.320092751220459,36.8778816223293,26800,2017-11-07 12:35:12,1882.0072623242418,76.000002432,33.3467723925548,25.223300807145602,1882.1072623274415,76.1000024352,33.3467723925548,25.223300807145602,1024,-31.5,99,GPS_Atti,
0.320086074886678,36.8778882513143,26900,2017-11-07 12:35:12,1882.0072623242418,76.000002432,33.857971969338,26.269500840624,1882.1072623274415,76.1000024352,33.857971969338,26.269500840624,1024,-31.5,98,GPS_Atti,
0.32007952034748,36.8778947743711,27000,2017-11-07 12:35:12,1882.1072623274415,76.1000024352,34.3655715491016,27.2978008735296,1882.1072623274415,76.1000024352,34.3655715491016,27.2978008735296,1024,-31.5,98,GPS_Atti,
0.320072866030261,36.877901404538,27100,2017-11-07 12:35:12,1882.0072623242418,76.000002432,34.8767711258848,28.3424009069568,1882.1072623274415,76.1000024352,34.8767711258848,28.3424009069568,1024,-31.5,98,GPS_Atti,
0.320066297238922,36.8779079749405,27200,2017-11-07 12:35:12,1882.0072623242418,76.000002432,35.3843707056484,29.3756009400192,1882.1072623274415,76.1000024352,35.3843707056484,29.3756009400192,1024,-31.5,98,GPS_Atti,
0.320059337816436,36.877914923731,27300,2017-11-07 12:35:13,1882.0072623242418,76.000002432,35.891970285412,30.469200975014402,1882.1072623274415,76.1000024352,35.891970285412,30.469200975014402,1024,-31.5,98,GPS_Atti,
0.320052443140884,36.8779218334322,27400,2017-11-07 12:35:13,1882.0072623242418,76.000002432,36.4031698621952,31.554701009750403,1882.1072623274415,76.1000024352,36.4031698621952,31.554701009750403,1024,-31.5,98,GPS_Atti,
0.32004513077596,36.8779291850201,27500,2017-11-07 12:35:13,1882.0072623242418,76.000002432,36.9107694419588,32.7078010466496,1882.1072623274415,76.1000024352,36.9107694419588,32.7078010466496,1024,-31.5,98,GPS_Atti,
0.320037973751566,36.8779364271856,27600,2017-11-07 12:35:13,1882.0072623242418,76.000002432,37.677568807133596,33.8401010828832,1882.1072623274415,76.1000024352,37.677568807133596,33.8401010828832,1024,-31.5,98,GPS_Atti,
0.320030684028528,36.8779438594015,27700,2017-11-07 12:35:13,1882.0072623242418,76.000002432,37.9367685925448,34.9978011199296,1882.1072623274415,76.1000024352,37.9367685925448,34.9978011199296,1024,-31.5,98,GPS_Atti,
0.320023546910233,36.8779511771931,27800,2017-11-07 12:35:13,1881.9072623210413,75.90000242880001,38.4443681723084,36.134501156304005,1882.1072623274415,76.1000024352,38.4443681723084,36.134501156304005,1024,-31.5,98,GPS_Atti,
0.320016179204269,36.8779587464955,27900,2017-11-07 12:35:13,1881.9072623210413,75.90000242880001,38.9555677490916,37.3091011938912,1882.1072623274415,76.1000024352,38.9555677490916,37.3091011938912,1024,-31.5,98,GPS_Atti,
0.320008925749935,36.8779662236589,28000,2017-11-07 12:35:13,1881.9072623210413,75.90000242880001,39.203967543444,38.46750123096,1882.1072623274415,76.1000024352,39.203967543444,38.46750123096,1024,-31.5,98,GPS_Atti,
0.320001321463627,36.8779740627147,28100,2017-11-07 12:35:13,1881.9072623210413,75.90000242880001,39.4631673288552,39.6819012698208,1882.1072623274415,76.1000024352,39.4631673288552,39.6819012698208,1024,-31.5,98,GPS_Atti,
0.319993868948299,36.8779817623716,28200,2017-11-07 12:35:13,1882.0072623242418,76.000002432,39.4631673288552,40.873501307952,1882.1072623274415,76.1000024352,39.4631673288552,40.873501307952,1024,-31.6,98,GPS_Atti,
