latitude,longitude,time_millisecond,datetime_utc,altitude_m,ascent_m,speed_kph,distance_m,max_altitude_m,max_ascent_m,max_speed_kph,max_distance_m,rc_throttle,gimbal_pitch_degrees,battery_percent,flycState,message
0.35651041293032704,36.9195166567428,0,2017-11-15 07:14:20,1677.4210741774666,0.0,0.0,0.0,1677.4210741774666,0.0,0.0,0.0,1024,0.0,99,Motors_Started,
0.356510374199211,36.91951665896,100,2017-11-15 07:14:20,1677.4210741774666,0.0,0.0,0.00431419013805408,1677.4210741774666,0.0,0.0,0.00431419013805408,1024,0.0,99,Motors_Started,
0.356510349081887,36.919516658502296,200,2017-11-15 07:14:20,1677.4210741774666,0.0,0.0,0.0071030302272969605,1677.4210741774666,0.0,0.0,0.0071030302272969605,1024,0.0,99,Motors_Started,
0.356510324344195,36.919516659585206,300,2017-11-15 07:14:20,1677.4210741774666,0.0,0.0,0.00985639031540448,1677.4210741774666,0.0,0.0,0.00985639031540448,1024,0.0,99,Motors_Started,
0.356510286242676,36.9195166588289,400,2017-11-15 07:14:20,1677.4210741774666,0.0,0.0,0.0140903004508896,1677.4210741774666,0.0,0.0,0.0140903004508896,1024,0.0,99,Motors_Started,
0.3565102602808011,36.919516658523705,500,2017-11-15 07:14:20,1677.4210741774666,0.0,0.0,0.0169767005432544,1677.4210741774666,0.0,0.0,0.0169767005432544,1024,0.0,99,Motors_Started,
0.3565102445365971,36.919516658081605,600,2017-11-15 07:14:21,1677.4210741774666,0.0,0.0,0.018727000599264,1677.4210741774666,0.0,0.0,0.018727000599264,1024,0.0,99,Motors_Started,
0.35651022871890997,36.919516658056395,700,2017-11-15 07:14:21,1677.4210741774666,0.0,0.0,0.020486000655552002,1677.4210741774666,0.0,0.0,0.020486000655552002,1024,0.0,99,Motors_Started,
0.356510196033596,36.919516657270606,800,2017-11-15 07:14:21,1677.4210741774666,0.0,0.0,0.0241203007718496,1677.4210741774666,0.0,0.0,0.0241203007718496,372,0.0,99,Motors_Started,
0.35651016031245597,36.919516657865294,900,2017-11-15 07:14:21,1677.4210741774666,0.0,0.0,0.0280929008989728,1677.4210741774666,0.0,0.0,0.0280929008989728,819,0.0,99,Motors_Started,
0.35651011681020295,36.9195166577475,1000,2017-11-15 07:14:21,1677.4210741774666,0.0,0.0,0.03293060105377921,1677.4210741774666,0.0,0.0,0.03293060105377921,1025,0.0,99,Motors_Started,
0.3565100849777871,36.919516659313295,1100,2017-11-15 07:14:21,1677.4210741774666,0.0,0.0,0.0364714011670848,1677.4210741774666,0.0,0.0,0.0364714011670848,1024,0.0,99,Motors_Started,
0.356510061695923,36.9195166561534,1200,2017-11-15 07:14:21,1677.4210741774666,0.0,0.0,0.039059501249904004,1677.4210741774666,0.0,0.0,0.039059501249904004,1024,0.0,99,Motors_Started,
0.3565100410529529,36.9195166582572,1300,2017-11-15 07:14:21,1677.4210741774666,0.0,0.0,0.0413554013233728,1677.4210741774666,0.0,0.0,0.0413554013233728,1024,0.0,99,Motors_Started,
0.356510003575128,36.9195166557985,1400,2017-11-15 07:14:21,1677.4210741774666,0.0,0.0,0.0455229014567328,1677.4210741774666,0.0,0.0,0.0455229014567328,1024,0.0,99,Motors_Started,
0.35650997913951205,36.919516658313896,1500,2017-11-15 07:14:22,1677.4210741774666,0.0,0.0,0.048240501543696,1677.4210741774666,0.0,0.0,0.048240501543696,1024,0.0,99,Motors_Started,
0.356509963554488,36.9195166588861,1600,2017-11-15 07:14:22,1677.4210741774666,0.0,0.0,0.0499739015991648,1677.4210741774666,0.0,0.0,0.0499739015991648,1024,0.0,99,Assisted_Takeoff,
0.35650994261636293,36.9195166567695,1700,2017-11-15 07:14:22,1677.4210741774666,0.0,0.0,0.05230180167365761,1677.4210741774666,0.0,0.0,0.05230180167365761,1032,0.0,99,Assisted_Takeoff,
0.356509910172466,36.9195166615771,1800,2017-11-15 07:14:22,1677.4210741774666,0.0,0.0,0.055912301789193604,1677.4210741774666,0.0,0.0,0.055912301789193604,1375,0.0,99,Assisted_Takeoff,
0.35650986831453396,36.9195166461935,1900,2017-11-15 07:14:22,1677.4210741774666,0.0,0.0,0.060576001938431996,1677.4210741774666,0.0,0.0,0.060576001938431996,1607,0.0,99,Assisted_Takeoff,
0.35650982544289594,36.919516621265295,2000,2017-11-15 07:14:22,1677.4210741774666,0.0,0.0,0.0654512020944384,1677.4210741774666,0.0,0.0,0.0654512020944384,1684,0.0,99,Assisted_Takeoff,
0.35650978964155505,36.9195165904804,2100,2017-11-15 07:14:22,1677.4210741774666,0.0,0.0,0.06970410223053121,1677.4210741774666,0.0,0.0,0.06970410223053121,1684,0.0,99,Assisted_Takeoff,
0.3565097678122629,36.919516576453205,2200,2017-11-15 07:14:22,1677.4210741774666,0.0,0.0,0.072294502313424,1677.4210741774666,0.0,0.0,0.072294502313424,1684,0.0,99,Assisted_Takeoff,
0.356509739142285,36.9195165656106,2300,2017-11-15 07:14:22,1677.4210741774666,0.0,0.0,0.07561160241957121,1677.4210741774666,0.0,0.0,0.07561160241957121,1684,0.0,99,Assisted_Takeoff,
0.3565096130848429,36.919516640912704,2500,2017-11-15 07:14:22,1677.4210741774666,0.0,0.0,0.0889651028468832,1677.4210741774666,0.0,0.0,0.0889651028468832,1684,0.0,99,GPS_Atti,
0.356509510310078,36.9195167415498,2600,2017-11-15 07:14:23,1677.4210741774666,0.0,0.0,0.100819003226208,1677.4210741774666,0.0,0.0,0.100819003226208,1684,0.0,99,GPS_Atti,
0.356509376134435,36.919516859674296,2700,2017-11-15 07:14:23,1677.5210741806666,0.10000000320000002,0.0,0.11748600375955201,1677.5210741806666,0.10000000320000002,0.0,0.11748600375955201,1684,0.0,99,GPS_Atti,
0.35650922516179906,36.919516925890605,2800,2017-11-15 07:14:23,1677.6210741838665,0.20000000640000004,0.0,0.135436004333952,1677.6210741838665,0.20000000640000004,0.0,0.135436004333952,1684,0.0,99,GPS_Atti,
0.356509105928351,36.9195169206954,2900,2017-11-15 07:14:23,1677.7210741870665,0.3000000096,0.0,0.148281004744992,1677.7210741870665,0.3000000096,0.0,0.148281004744992,1684,0.0,99,GPS_Atti,
0.35650903238171294,36.919516852211,3000,2017-11-15 07:14:23,1677.9210741934667,0.500000016,0.0,0.15505700496182404,1677.9210741934667,0.500000016,0.0,0.15505700496182404,1684,0.0,99,GPS_Atti,
0.35650895555050394,36.9195167912289,3100,2017-11-15 07:14:23,1678.1210741998664,0.7000000224000001,0.0,0.162758005208256,1678.1210741998664,0.7000000224000001,0.0,0.162758005208256,1684,0.0,99,GPS_Atti,
0.3565088527684121,36.919516741142395,3200,2017-11-15 07:14:23,1678.4210742094665,1.000000032,0.0,0.17375300556009599,1678.4210742094665,1.000000032,0.0,0.17375300556009599,1684,0.0,99,GPS_Atti,
0.35650872871354794,36.9195167415476,3300,2017-11-15 07:14:23,1678.7210742190666,1.3000000416000002,0.0,0.187532006001024,1678.7210742190666,1.3000000416000002,0.0,0.187532006001024,1684,0.0,99,GPS_Atti,
0.35650857613078796,36.9195167465982,3400,2017-11-15 07:14:23,1679.1210742318665,1.7000000544000002,0.0,0.204508006544256,1679.1210742318665,1.7000000544000002,0.0,0.204508006544256,1684,0.0,99,GPS_Atti,
0.356508418435935,36.91951674454371,3500,2017-11-15 07:14:23,1679.5210742446666,2.1000000672,0.35999970196000003,0.22201500710448002,1679.5210742446666,2.1000000672,0.35999970196000003,0.22201500710448002,1684,0.0,99,GPS_Atti,
0.3565082453706071,36.919516739007605,3600,2017-11-15 07:14:24,1680.0210742606664,2.6000000832000003,0.5075995797636,0.241219007719008,1680.0210742606664,2.6000000832000003,0.5075995797636,0.241219007719008,1684,0.0,99,GPS_Atti,
0.35650804932142,36.9195167618834,3700,2017-11-15 07:14:24,1680.5210742766667,3.1000000992,0.35999970196000003,0.2631080084194561,1680.5210742766667,3.1000000992,0.5075995797636,0.2631080084194561,1684,0.0,99,GPS_Atti,
0.35650788271002204,36.91951677578321,3800,2017-11-15 07:14:24,1681.0210742926665,3.6000001152000003,0.0,0.28168700901398397,1681.0210742926665,3.6000001152000003,0.5075995797636,0.28168700901398397,1684,0.0,99,GPS_Atti,
0.356507744828448,36.9195168578724,3900,2017-11-15 07:14:24,1681.5210743086666,4.100000131200001,0.0,0.297551009521632,1681.5210743086666,4.100000131200001,0.5075995797636,0.297551009521632,1684,0.0,99,GPS_Atti,
0.35650765149743696,36.919516944903606,4000,2017-11-15 07:14:24,1682.0210743246666,4.6000001472,0.0,0.308756009880192,1682.0210743246666,4.6000001472,0.5075995797636,0.308756009880192,1684,0.0,99,GPS_Atti,
0.35650755375904203,36.919517072385204,4100,2017-11-15 07:14:24,1682.5210743406667,5.1000001632,0.0,0.321299010281568,1682.5210743406667,5.1000001632,0.5075995797636,0.321299010281568,1684,0.0,99,GPS_Atti,
0.356507453448521,36.9195171810214,4200,2017-11-15 07:14:24,1683.0210743566665,5.600000179200001,0.0,0.334237010695584,1683.0210743566665,5.600000179200001,0.5075995797636,0.334237010695584,1684,0.0,99,GPS_Atti,
0.3565073616771521,36.9195172886496,4300,2017-11-15 07:14:24,1683.5210743726664,6.1000001952,0.0,0.34651801108857605,1683.5210743726664,6.1000001952,0.5075995797636,0.34651801108857605,1684,0.0,99,GPS_Atti,
0.35650730375095596,36.9195173635529,4400,2017-11-15 07:14:24,1684.0210743886666,6.6000002112,0.0,0.354581011346592,1684.0210743886666,6.6000002112,0.5075995797636,0.354581011346592,1684,0.0,99,GPS_Atti,
0.356507248391596,36.9195174564056,4500,2017-11-15 07:14:25,1684.5210744046665,7.100000227200002,0.0,0.36297701161526397,1684.5210744046665,7.100000227200002,0.5075995797636,0.36297701161526397,1684,0.0,99,GPS_Atti,
0.35650714891117297,36.9195175360881,4600,2017-11-15 07:14:25,1685.0210744206665,7.600000243199999,0.0,0.37592001202944003,1685.0210744206665,7.600000243199999,0.5075995797636,0.37592001202944003,1684,0.0,99,GPS_Atti,
0.356507025914798,36.919517551594794,4700,2017-11-15 07:14:25,1685.4210744334664,8.000000256,0.35999970196000003,0.38958001246656004,1685.4210744334664,8.000000256,0.5075995797636,0.38958001246656004,1684,0.0,99,GPS_Atti,
0.35650689250533796,36.9195174884206,4800,2017-11-15 07:14:25,1685.9210744494667,8.500000272000001,0.7199994039200001,0.402269012872608,1685.9210744494667,8.500000272000001,0.7199994039200001,0.402269012872608,1684,0.0,99,GPS_Atti,
0.35650650709009796,36.9195170003576,5100,2017-11-15 07:14:25,1687.3210744942664,9.900000316799998,0.35999970196000003,0.43603101395299204,1687.3210744942664,9.900000316799998,0.7199994039200001,0.43603101395299204,1684,0.0,99,GPS_Atti,
0.35650635708028006,36.9195169048209,5200,2017-11-15 07:14:25,1687.8210745102667,10.400000332800001,0.0,0.451878014460096,1687.8210745102667,10.400000332800001,0.7199994039200001,0.451878014460096,1684,0.0,99,GPS_Atti,
0.35650620958315,36.9195168230229,5300,2017-11-15 07:14:25,1688.2210745230666,10.800000345599999,0.35999970196000003,0.4678030149696961,1688.2210745230666,10.800000345599999,0.7199994039200001,0.4678030149696961,1684,0.0,99,GPS_Atti,
0.35650602371988105,36.919516784427294,5400,2017-11-15 07:14:25,1688.7210745390666,11.3000003616,0.35999970196000003,0.48831301562601603,1688.7210745390666,11.3000003616,0.7199994039200001,0.48831301562601603,1684,0.0,99,GPS_Atti,
0.356505850288966,36.9195167765995,5500,2017-11-15 07:14:25,1689.2210745550665,11.8000003776,0.35999970196000003,0.5075690162422081,1689.2210745550665,11.8000003776,0.7199994039200001,0.5075690162422081,1684,0.0,99,GPS_Atti,
0.356505661694796,36.9195168279017,5600,2017-11-15 07:14:26,1689.7210745710665,12.300000393600001,0.35999970196000003,0.528709016918688,1689.7210745710665,12.300000393600001,0.7199994039200001,0.528709016918688,1684,0.0,99,GPS_Atti,
0.35650549264439596,36.9195168927728,5700,2017-11-15 07:14:26,1690.1210745838666,12.700000406400001,0.35999970196000003,0.54779501752944,1690.1210745838666,12.700000406400001,0.7199994039200001,0.54779501752944,1684,0.0,99,GPS_Atti,
0.35650533888345703,36.9195169624601,5800,2017-11-15 07:14:26,1690.6210745998665,13.2000004224,0.35999970196000003,0.565288018089216,1690.6210745998665,13.2000004224,0.7199994039200001,0.565288018089216,1684,0.0,99,GPS_Atti,
0.35650522144659,36.919517023196995,5900,2017-11-15 07:14:26,1691.1210746158665,13.7000004384,0.0,0.5787610185203521,1691.1210746158665,13.7000004384,0.7199994039200001,0.5787610185203521,1684,0.0,99,GPS_Atti,
0.356505136169049,36.91951707147361,6000,2017-11-15 07:14:26,1691.6210746318666,14.200000454400003,0.0,0.588618018835776,1691.6210746318666,14.200000454400003,0.7199994039200001,0.588618018835776,1684,0.0,99,GPS_Atti,
0.356505090869808,36.9195171186518,6100,2017-11-15 07:14:26,1692.1210746478666,14.7000004704,0.0,0.59407001901024,1692.1210746478666,14.7000004704,0.7199994039200001,0.59407001901024,1684,0.0,99,GPS_Atti,
0.356505112654318,36.919517186586496,6200,2017-11-15 07:14:26,1692.6210746638665,15.200000486399999,0.0,0.592361018955552,1692.6210746638665,15.200000486399999,0.7199994039200001,0.59407001901024,1684,0.0,99,GPS_Atti,
0.356505111402044,36.919517218972004,6300,2017-11-15 07:14:26,1693.1210746798668,15.700000502400002,0.0,0.592868018971776,1693.1210746798668,15.700000502400002,0.7199994039200001,0.59407001901024,1684,0.0,99,GPS_Atti,
0.356505135909312,36.9195172109547,6400,2017-11-15 07:14:26,1693.6210746958666,16.2000005184,0.0,0.590064018882048,1693.6210746958666,16.2000005184,0.7199994039200001,0.59407001901024,1684,0.0,99,GPS_Atti,
0.356505144020592,36.919517183722,6500,2017-11-15 07:14:26,1694.2210747150664,16.8000005376,0.0,0.588858018843456,1694.2210747150664,16.8000005376,0.7199994039200001,0.59407001901024,1684,0.0,99,GPS_Atti,
0.35650513326390504,36.919517169015606,6600,2017-11-15 07:14:27,1694.7210747310667,17.3000005536,0.0,0.5898880188764161,1694.7210747310667,17.3000005536,0.7199994039200001,0.59407001901024,1684,0.0,99,GPS_Atti,
0.35650511631180304,36.9195171449824,6700,2017-11-15 07:14:27,1695.2210747470665,17.8000005696,0.0,0.591513018928416,1695.2210747470665,17.8000005696,0.7199994039200001,0.59407001901024,1684,0.0,99,GPS_Atti,
0.356505123038091,36.9195170906221,6800,2017-11-15 07:14:27,1695.8210747662667,18.4000005888,0.0,0.590244018887808,1695.8210747662667,18.4000005888,0.7199994039200001,0.59407001901024,1684,0.0,99,GPS_Atti,
0.35650513353341207,36.9195170483077,6900,2017-11-15 07:14:27,1696.3210747822666,18.900000604800002,0.0,0.588714018838848,1696.3210747822666,18.900000604800002,0.7199994039200001,0.59407001901024,1684,0.0,99,GPS_Atti,Setting new Return-To-Home altitude to 30m (98 ft). Setting new Maximum Flight Altitude to 120m (394 ft)
0.356505147269337,36.9195170305211,7000,2017-11-15 07:14:27,1696.9210748014664,19.500000624000002,0.0,0.587047018785504,1696.9210748014664,19.500000624000002,0.7199994039200001,0.59407001901024,1684,0.0,99,GPS_Atti,
0.356505155024802,36.9195170303476,7100,2017-11-15 07:14:27,1697.4210748174667,20.00000064,0.0,0.5861850187579201,1697.4210748174667,20.00000064,0.7199994039200001,0.59407001901024,1684,0.0,99,GPS_Atti,Home Point Recorded. RTH Altitude:  30m.
0.35650517772124,36.919517036761704,7200,2017-11-15 07:14:27,1698.0210748366665,20.600000659200003,0.0,0.583719018679008,1698.0210748366665,20.600000659200003,0.7199994039200001,0.59407001901024,1684,0.0,99,GPS_Atti,
0.356505217591249,36.9195170444182,7300,2017-11-15 07:14:27,1698.5210748526667,21.1000006752,0.0,0.57936001853952,1698.5210748526667,21.1000006752,0.7199994039200001,0.59407001901024,1684,0.0,99,GPS_Atti,
0.35650527633085205,36.9195170441901,7400,2017-11-15 07:14:27,1699.1210748718665,21.700000694400003,0.0,0.5728440183310081,1699.1210748718665,21.700000694400003,0.7199994039200001,0.59407001901024,1684,0.0,99,GPS_Atti,
0.356505344911957,36.919517010841105,7500,2017-11-15 07:14:27,1699.7210748910666,22.3000007136,0.0,0.5649680180789761,1699.7210748910666,22.3000007136,0.7199994039200001,0.59407001901024,1684,0.0,99,GPS_Atti,
0.35650545283708296,36.919516956489204,7600,2017-11-15 07:14:28,1700.2210749070666,22.8000007296,0.0,0.552599017683168,1700.2210749070666,22.8000007296,0.7199994039200001,0.59407001901024,1684,0.0,99,GPS_Atti,
0.35650554625603004,36.9195169162867,7700,2017-11-15 07:14:28,1700.8210749262666,23.400000748800004,0.0,0.541973017343136,1700.8210749262666,23.400000748800004,0.7199994039200001,0.59407001901024,1684,0.0,99,GPS_Atti,
0.35650569831035905,36.9195169134035,7800,2017-11-15 07:14:28,1701.3210749422665,23.9000007648,0.0,0.5250710168022721,1701.3210749422665,23.9000007648,0.7199994039200001,0.59407001901024,1684,0.0,99,GPS_Atti,
0.356505831697021,36.9195169567478,7900,2017-11-15 07:14:28,1701.9210749614667,24.500000784000004,0.35999970196000003,0.510552016337664,1701.9210749614667,24.500000784000004,0.7199994039200001,0.59407001901024,1684,0.0,99,GPS_Atti,
0.35650602909456,36.9195170306131,8000,2017-11-15 07:14:28,1702.5210749806665,25.100000803199997,0.35999970196000003,0.489279015656928,1702.5210749806665,25.100000803199997,0.7199994039200001,0.59407001901024,1684,0.0,99,GPS_Atti,
0.35650622238434904,36.919517089681,8100,2017-11-15 07:14:28,1703.0210749966664,25.600000819200005,0.35999970196000003,0.46849501499184004,1703.0210749966664,25.600000819200005,0.7199994039200001,0.59407001901024,1684,0.0,99,GPS_Atti,
0.356506360320069,36.9195171359882,8200,2017-11-15 07:14:28,1703.6210750158666,26.200000838399998,0.0,0.45381501452208006,1703.6210750158666,26.200000838399998,0.7199994039200001,0.59407001901024,1684,0.0,99,GPS_Atti,
0.35650644921031294,36.91951718054771,8300,2017-11-15 07:14:28,1704.2210750350666,26.8000008576,0.0,0.444622014227904,1704.2210750350666,26.8000008576,0.7199994039200001,0.59407001901024,1684,0.0,99,GPS_Atti,
0.356506529803635,36.9195172242854,8400,2017-11-15 07:14:28,1704.7210750510667,27.3000008736,0.0,0.4364150139652801,1704.7210750510667,27.3000008736,0.7199994039200001,0.59407001901024,1684,0.0,99,GPS_Atti,
0.35650657056033097,36.91951727974261,8500,2017-11-15 07:14:28,1705.3210750702665,27.9000008928,0.0,0.43287501385200006,1705.3210750702665,27.9000008928,0.7199994039200001,0.59407001901024,1684,0.0,99,GPS_Atti,
0.35650662504481,36.91951733692029,8600,2017-11-15 07:14:29,1705.9210750894665,28.500000912,0.0,0.427973013695136,1705.9210750894665,28.500000912,0.7199994039200001,0.59407001901024,1684,0.0,99,GPS_Atti,
0.356506644391539,36.9195174098425,8700,2017-11-15 07:14:29,1706.4210751054666,29.000000928,0.0,0.4273700136758401,1706.4210751054666,29.000000928,0.7199994039200001,0.59407001901024,1684,0.0,99,GPS_Atti,
0.35650667635952293,36.919517480153395,8800,2017-11-15 07:14:29,1707.0210751246666,29.6000009472,0.0,0.4254990136159681,1707.0210751246666,29.6000009472,0.7199994039200001,0.59407001901024,1684,0.0,99,GPS_Atti,
0.356506696183386,36.9195175358022,8900,2017-11-15 07:14:29,1707.6210751438664,30.200000966400005,0.0,0.424728013591296,1707.6210751438664,30.200000966400005,0.7199994039200001,0.59407001901024,1684,0.0,99,GPS_Atti,
0.356506684758223,36.9195175833037,9000,2017-11-15 07:14:29,1708.2210751630666,30.8000009856,0.0,0.42720701367062397,1708.2210751630666,30.8000009856,0.7199994039200001,0.59407001901024,1684,0.0,99,GPS_Atti,
0.356506656622782,36.919517605523794,9200,2017-11-15 07:14:29,1709.3210751982665,31.9000010208,0.0,0.43084301378697604,1709.3210751982665,31.9000010208,0.7199994039200001,0.59407001901024,1684,0.0,99,GPS_Atti,
0.356506674757135,36.9195176128751,9300,2017-11-15 07:14:29,1709.9210752174665,32.50000104,0.0,0.42909001373088,1709.9210752174665,32.50000104,0.7199994039200001,0.59407001901024,1684,0.0,99,GPS_Atti,
0.35650669310399896,36.919517663533796,9400,2017-11-15 07:14:29,1710.5210752366665,33.100001059200004,0.0,0.428551013713632,1710.5210752366665,33.100001059200004,0.7199994039200001,0.59407001901024,1684,0.0,99,GPS_Atti,
0.356506732114189,36.9195177167835,9500,2017-11-15 07:14:29,1711.1210752558666,33.70000107840001,0.0,0.42596501363088,1711.1210752558666,33.70000107840001,0.7199994039200001,0.59407001901024,1684,0.0,99,GPS_Atti,
0.356506756299839,36.9195177523498,9600,2017-11-15 07:14:30,1711.6210752718666,34.2000010944,0.0,0.4244990135839681,1711.6210752718666,34.2000010944,0.7199994039200001,0.59407001901024,1684,0.0,99,GPS_Atti,
0.35650680231681703,36.9195177926316,9700,2017-11-15 07:14:30,1712.2210752910664,34.800001113600004,0.0,0.420922013469504,1712.2210752910664,34.800001113600004,0.7199994039200001,0.59407001901024,1684,0.0,99,GPS_Atti,
0.356506843451719,36.919517833039706,9800,2017-11-15 07:14:30,1712.8210753102665,35.40000113280001,0.0,0.417946013374272,1712.8210753102665,35.40000113280001,0.7199994039200001,0.59407001901024,1684,0.0,99,GPS_Atti,
0.356506895584318,36.919517887606204,9900,2017-11-15 07:14:30,1713.3210753262665,35.9000011488,0.0,0.4144080132610561,1713.3210753262665,35.9000011488,0.7199994039200001,0.59407001901024,1684,0.0,99,GPS_Atti,
0.35650690900595394,36.9195179593597,10000,2017-11-15 07:14:30,1713.9210753454665,36.500001168000004,0.0,0.41571201330278407,1713.9210753454665,36.500001168000004,0.7199994039200001,0.59407001901024,1684,0.0,99,GPS_Atti,
0.35650692163697995,36.9195180435806,10100,2017-11-15 07:14:30,1714.4210753614666,37.000001184000006,0.0,0.41776201336838403,1714.4210753614666,37.000001184000006,0.7199994039200001,0.59407001901024,1684,0.0,99,GPS_Atti,
0.356506914960766,36.9195181035804,10200,2017-11-15 07:14:30,1715.0210753806666,37.60000120320001,0.0,0.420957013470624,1715.0210753806666,37.60000120320001,0.7199994039200001,0.59407001901024,1684,0.0,99,GPS_Atti,
0.356506914500731,36.9195181721997,10300,2017-11-15 07:14:30,1715.5210753966664,38.1000012192,0.0,0.42397901356732803,1715.5210753966664,38.1000012192,0.7199994039200001,0.59407001901024,1684,0.0,99,GPS_Atti,
0.35650690416296105,36.9195182347043,10400,2017-11-15 07:14:30,1716.1210754158667,38.700001238400006,0.0,0.42783701369078403,1716.1210754158667,38.700001238400006,0.7199994039200001,0.59407001901024,1684,0.0,99,GPS_Atti,
0.356506906160655,36.9195183088212,10500,2017-11-15 07:14:30,1716.7210754350665,39.3000012576,0.0,0.43108201379462396,1716.7210754350665,39.3000012576,0.7199994039200001,0.59407001901024,1684,0.0,99,GPS_Atti,
0.356506909934574,36.9195183774523,10600,2017-11-15 07:14:31,1717.2210754510668,39.80000127360001,0.0,0.43401301388841607,1717.2210754510668,39.80000127360001,0.7199994039200001,0.59407001901024,1684,0.0,99,GPS_Atti,
0.356506913442649,36.9195184597198,10700,2017-11-15 07:14:31,1717.8210754702666,40.400001292800006,0.0,0.43777701400886404,1717.8210754702666,40.400001292800006,0.7199994039200001,0.59407001901024,1684,0.0,99,GPS_Atti,
0.35650688607298403,36.9195185334454,10800,2017-11-15 07:14:31,1718.3210754862664,40.90000130880001,0.0,0.444276014216832,1718.3210754862664,40.90000130880001,0.7199994039200001,0.59407001901024,1684,0.0,99,GPS_Atti,
0.35650687410066406,36.9195186152135,10900,2017-11-15 07:14:31,1718.9210755054667,41.500001328,0.0,0.44978401439308807,1718.9210755054667,41.500001328,0.7199994039200001,0.59407001901024,1684,0.0,99,GPS_Atti,
0.35650686487715705,36.919518692728,11000,2017-11-15 07:14:31,1719.4210755214665,42.000001344,0.0,0.45491001455712005,1719.4210755214665,42.000001344,0.7199994039200001,0.59407001901024,1684,0.0,99,GPS_Atti,
0.35650686386222896,36.919518778835794,11100,2017-11-15 07:14:31,1719.9210755374668,42.50000136,0.0,0.45984701471510403,1719.9210755374668,42.50000136,0.7199994039200001,0.59407001901024,1684,0.0,99,GPS_Atti,
0.35650686353246896,36.919518842776604,11200,2017-11-15 07:14:31,1720.4210755534666,43.000001376,0.0,0.46356801483417603,1720.4210755534666,43.000001376,0.7199994039200001,0.59407001901024,1684,0.0,99,GPS_Atti,
0.356506868857074,36.91951891722329,11300,2017-11-15 07:14:31,1721.0210755726664,43.6000013952,0.0,0.4674630149588161,1721.0210755726664,43.6000013952,0.7199994039200001,0.59407001901024,1684,0.0,99,GPS_Atti,
0.35650685461103904,36.9195189916785,11400,2017-11-15 07:14:31,1721.5210755886667,44.100001411200004,0.0,0.473291015145312,1721.5210755886667,44.100001411200004,0.7199994039200001,0.59407001901024,1684,0.0,99,GPS_Atti,
0.3565068436406189,36.9195190687284,11500,2017-11-15 07:14:31,1722.0210756046665,44.6000014272,0.0,0.47905501532976,1722.0210756046665,44.6000014272,0.7199994039200001,0.59407001901024,1684,0.0,99,GPS_Atti,
0.35650682949921103,36.9195191178631,11600,2017-11-15 07:14:32,1722.6210756238668,45.2000014464,0.0,0.483431015469792,1722.6210756238668,45.2000014464,0.7199994039200001,0.59407001901024,1684,0.0,99,GPS_Atti,
0.356506834669521,36.9195191692654,11700,2017-11-15 07:14:32,1723.1210756398666,45.700001462399996,0.0,0.48622001555904,1723.1210756398666,45.700001462399996,0.7199994039200001,0.59407001901024,1684,0.0,99,GPS_Atti,
0.356506860559745,36.9195192121659,11800,2017-11-15 07:14:32,1723.7210756590664,46.3000014816,0.0,0.486637015572384,1723.7210756590664,46.3000014816,0.7199994039200001,0.59407001901024,1684,0.0,99,GPS_Atti,
0.35650690356288,36.9195192716609,11900,2017-11-15 07:14:32,1724.2210756750667,46.80000149760001,0.0,0.48668601557395197,1724.2210756750667,46.80000149760001,0.7199994039200001,0.59407001901024,1684,0.0,99,GPS_Atti,
0.35650692897515507,36.9195193379945,12000,2017-11-15 07:14:32,1724.7210756910665,47.30000151360001,0.0,0.48888701564438397,1724.7210756910665,47.30000151360001,0.7199994039200001,0.59407001901024,1684,0.0,99,GPS_Atti,
0.35650695044618896,36.9195193973327,12100,2017-11-15 07:14:32,1725.3210757102665,47.900001532800005,0.0,0.49106401571404806,1725.3210757102665,47.900001532800005,0.7199994039200001,0.59407001901024,1684,0.0,99,GPS_Atti,
0.3565069704764579,36.9195194646245,12200,2017-11-15 07:14:32,1725.8210757262666,48.4000015488,0.0,0.49401501580848,1725.8210757262666,48.4000015488,0.7199994039200001,0.59407001901024,1684,0.0,99,GPS_Atti,
0.356506977163256,36.919519525199796,12300,2017-11-15 07:14:32,1726.3210757422664,48.9000015648,0.0,0.497729015927328,1726.3210757422664,48.9000015648,0.7199994039200001,0.59407001901024,1684,0.0,99,GPS_Atti,
0.35650696094924605,36.919519572553,12400,2017-11-15 07:14:32,1726.8210757582667,49.4000015808,0.0,0.502496016079872,1726.8210757582667,49.4000015808,0.7199994039200001,0.59407001901024,1684,0.0,99,GPS_Atti,
0.35650693209077594,36.9195196193768,12500,2017-11-15 07:14:33,1727.3210757742665,49.900001596799996,0.0,0.508312016265984,1727.3210757742665,49.900001596799996,0.7199994039200001,0.59407001901024,1684,0.0,99,GPS_Atti,
0.35650694131794697,36.9195196722072,12600,2017-11-15 07:14:33,1727.9210757934663,50.500001616000006,0.0,0.511364016363648,1727.9210757934663,50.500001616000006,0.7199994039200001,0.59407001901024,1684,0.0,99,GPS_Atti,
0.35650692774201603,36.9195197056312,12700,2017-11-15 07:14:33,1728.4210758094666,51.000001632,0.0,0.5149440164782081,1728.4210758094666,51.000001632,0.7199994039200001,0.59407001901024,1684,0.0,99,GPS_Atti,
0.35650688389860397,36.9195197224795,12800,2017-11-15 07:14:33,1728.9210758254665,51.50000164800001,0.0,0.519851016635232,1728.9210758254665,51.50000164800001,0.7199994039200001,0.59407001901024,1684,0.0,99,GPS_Atti,
0.35650684221043794,36.9195197307093,12900,2017-11-15 07:14:33,1729.5210758446667,52.1000016672,0.0,0.5239560167665921,1729.5210758446667,52.1000016672,0.7199994039200001,0.59407001901024,1684,0.0,99,GPS_Atti,
0.356506842010139,36.9195197290413,13000,2017-11-15 07:14:33,1730.0210758606665,52.600001683200006,0.0,0.523852016763264,1730.0210758606665,52.600001683200006,0.7199994039200001,0.59407001901024,1684,0.0,99,GPS_Atti,
0.3565068178460661,36.9195197229281,13100,2017-11-15 07:14:33,1730.5210758766666,53.1000016992,0.0,0.5254500168144001,1730.5210758766666,53.1000016992,0.7199994039200001,0.59407001901024,1684,0.0,99,GPS_Atti,
0.356506826543992,36.9195197641413,13200,2017-11-15 07:14:33,1731.0210758926667,53.6000017152,0.0,0.5277040168865279,1731.0210758926667,53.6000017152,0.7199994039200001,0.59407001901024,1684,0.0,99,GPS_Atti,
0.35650683274592104,36.919519805213795,13300,2017-11-15 07:14:33,1731.5210759086665,54.100001731199995,0.0,0.5301890169660479,1731.5210759086665,54.100001731199995,0.7199994039200001,0.59407001901024,1684,0.0,99,GPS_Atti,
0.356506811255346,36.919519834259,13400,2017-11-15 07:14:33,1732.0210759246665,54.6000017472,0.0,0.534117017091744,1732.0210759246665,54.6000017472,0.7199994039200001,0.59407001901024,1684,0.0,99,GPS_Atti,
0.356506786185451,36.919519876055205,13500,2017-11-15 07:14:34,1732.6210759438666,55.2000017664,0.0,0.53928501725712,1732.6210759438666,55.2000017664,0.7199994039200001,0.59407001901024,1684,0.0,99,GPS_Atti,
0.35650674709913105,36.9195199117457,13600,2017-11-15 07:14:34,1733.1210759598666,55.7000017824,0.0,0.54517001744544,1733.1210759598666,55.7000017824,0.7199994039200001,0.59407001901024,1684,0.0,99,GPS_Atti,
0.35650670602977297,36.91951993806929,13700,2017-11-15 07:14:34,1733.6210759758665,56.2000017984,0.0,0.5505300176169601,1733.6210759758665,56.2000017984,0.7199994039200001,0.59407001901024,1684,0.0,99,GPS_Atti,
0.356506660119051,36.9195199381309,13800,2017-11-15 07:14:34,1734.1210759918667,56.700001814400004,0.0,0.554367017739744,1734.1210759918667,56.700001814400004,0.7199994039200001,0.59407001901024,1684,0.0,99,GPS_Atti,
0.35650661747254603,36.919519936486395,13900,2017-11-15 07:14:34,1734.7210760110665,57.3000018336,0.0,0.557827017850464,1734.7210760110665,57.3000018336,0.7199994039200001,0.59407001901024,1684,0.0,99,GPS_Atti,
0.356506593833239,36.9195199750419,14000,2017-11-15 07:14:34,1735.2210760270666,57.8000018496,0.0,0.5626210180038721,1735.2210760270666,57.8000018496,0.7199994039200001,0.59407001901024,1684,0.0,99,GPS_Atti,
0.356506570318507,36.919520002349,14100,2017-11-15 07:14:34,1735.7210760430667,58.30000186560001,0.0,0.566587018130784,1735.7210760430667,58.30000186560001,0.7199994039200001,0.59407001901024,1684,0.0,99,GPS_Atti,
0.35650657105456396,36.9195200290982,14200,2017-11-15 07:14:34,1736.2210760590665,58.8000018816,0.0,0.568483018191456,1736.2210760590665,58.8000018816,0.7199994039200001,0.59407001901024,1684,0.0,99,GPS_Atti,
0.35650658732516205,36.9195200555392,14300,2017-11-15 07:14:34,1736.7210760750665,59.30000189760001,0.0,0.5690730182103361,1736.7210760750665,59.30000189760001,0.7199994039200001,0.59407001901024,1684,0.0,99,GPS_Atti,
0.35650661006638296,36.9195200817146,14400,2017-11-15 07:14:34,1737.2210760910666,59.800001913600006,0.0,0.569129018212128,1737.2210760910666,59.800001913600006,0.7199994039200001,0.59407001901024,1684,0.0,99,GPS_Atti,
0.35650664094168105,36.9195201048826,14500,2017-11-15 07:14:34,1737.8210761102664,60.40000193280001,0.0,0.568318018186176,1737.8210761102664,60.40000193280001,0.7199994039200001,0.59407001901024,1684,0.0,99,GPS_Atti,
0.35650664094168105,36.919520129039896,14600,2017-11-15 07:14:35,1738.3210761262667,60.9000019488,0.0,0.570134018244288,1738.3210761262667,60.9000019488,0.7199994039200001,0.59407001901024,1684,0.0,99,GPS_Atti,
0.356506638782364,36.9195201664927,14700,2017-11-15 07:14:35,1738.8210761422665,61.400001964800005,0.0,0.573138018340416,1738.8210761422665,61.400001964800005,0.7199994039200001,0.59407001901024,1684,0.0,99,GPS_Atti,
0.356506636938965,36.919520213891396,14800,2017-11-15 07:14:35,1739.3210761582666,61.9000019808,0.0,0.57689001846048,1739.3210761582666,61.9000019808,0.7199994039200001,0.59407001901024,1684,0.0,99,GPS_Atti,
0.356506634953892,36.91952026912271,14900,2017-11-15 07:14:35,1739.8210761742666,62.4000019968,0.0,0.581278018600896,1739.8210761742666,62.4000019968,0.7199994039200001,0.59407001901024,1684,0.0,99,GPS_Atti,
0.35650662044934206,36.9195203027373,15000,2017-11-15 07:14:35,1740.3210761902667,62.9000020128,0.0,0.585029018720928,1740.3210761902667,62.9000020128,0.7199994039200001,0.59407001901024,1684,0.0,99,GPS_Atti,
0.356506619611507,36.9195203408869,15100,2017-11-15 07:14:35,1740.8210762062665,63.4000020288,0.0,0.588044018817408,1740.8210762062665,63.4000020288,0.7199994039200001,0.59407001901024,1684,0.0,99,GPS_Atti,
0.35650661852207793,36.9195203753409,15200,2017-11-15 07:14:35,1741.3210762222664,63.900002044800004,0.0,0.590807018905824,1741.3210762222664,63.900002044800004,0.7199994039200001,0.59407001901024,1684,0.0,99,GPS_Atti,
0.35650662857527704,36.9195204183024,15300,2017-11-15 07:14:35,1741.8210762382666,64.4000020608,0.0,0.5933670189877439,1741.8210762382666,64.4000020608,0.7199994039200001,0.59407001901024,1684,0.0,99,GPS_Atti,
0.35650664015839895,36.9195204636129,15400,2017-11-15 07:14:35,1742.3210762542665,64.9000020768,0.0,0.596022019072704,1742.3210762542665,64.9000020768,0.7199994039200001,0.596022019072704,1684,0.0,99,GPS_Atti,
0.356506669039668,36.9195205209833,15500,2017-11-15 07:14:35,1742.8210762702665,65.40000209280001,0.0,0.598331019146592,1742.8210762702665,65.40000209280001,0.7199994039200001,0.598331019146592,1684,0.0,99,GPS_Atti,
0.356506689326823,36.9195205605109,15600,2017-11-15 07:14:36,1743.3210762862666,65.90000210880001,0.0,0.599936019197952,1743.3210762862666,65.90000210880001,0.7199994039200001,0.599936019197952,1684,0.0,99,GPS_Atti,
0.356506712581817,36.9195205833412,15700,2017-11-15 07:14:36,1743.8210763022666,66.4000021248,0.0,0.5999990191999679,1743.8210763022666,66.4000021248,0.7199994039200001,0.5999990191999679,1684,0.0,99,GPS_Atti,
0.356506751272833,36.9195205720639,15800,2017-11-15 07:14:36,1744.4210763214667,67.00000214399999,0.0,0.59614001907648,1744.4210763214667,67.00000214399999,0.7199994039200001,0.5999990191999679,1684,0.0,99,GPS_Atti,
0.35650679102315097,36.9195205530375,15900,2017-11-15 07:14:36,1744.9210763374665,67.50000216000001,0.0,0.5915780189304961,1744.9210763374665,67.50000216000001,0.7199994039200001,0.5999990191999679,1684,0.0,99,GPS_Atti,
0.35650682569475894,36.9195205294711,16000,2017-11-15 07:14:36,1745.4210763534666,68.00000217600001,0.0,0.587034018785088,1745.4210763534666,68.00000217600001,0.7199994039200001,0.5999990191999679,1684,0.0,99,GPS_Atti,
0.356506855711053,36.91952050719121,16100,2017-11-15 07:14:36,1745.9210763694664,68.500002192,0.0,0.582949018654368,1745.9210763694664,68.500002192,0.7199994039200001,0.5999990191999679,1684,0.0,99,GPS_Atti,
0.35650692027967207,36.9195205017401,16200,2017-11-15 07:14:36,1746.4210763854667,69.000002208,0.0,0.5776520184848641,1746.4210763854667,69.000002208,0.7199994039200001,0.5999990191999679,1684,0.0,99,GPS_Atti,
0.356506960082507,36.9195204918471,16300,2017-11-15 07:14:36,1746.9210764014665,69.500002224,0.0,0.573867018363744,1746.9210764014665,69.500002224,0.7199994039200001,0.5999990191999679,1684,0.0,99,GPS_Atti,
0.35650702463362,36.9195204956371,16400,2017-11-15 07:14:36,1747.4210764174666,70.00000224,0.0,0.569404018220928,1747.4210764174666,70.00000224,0.7199994039200001,0.5999990191999679,1684,0.0,99,GPS_Atti,
0.356507060581928,36.9195204939525,16500,2017-11-15 07:14:37,1747.9210764334666,70.50000225600002,0.0,0.5666260181320321,1747.9210764334666,70.50000225600002,0.7199994039200001,0.5999990191999679,1684,0.0,99,GPS_Atti,
0.35650707909815105,36.919520541344795,16600,2017-11-15 07:14:37,1748.4210764494665,71.000002272,0.0,0.569262018216384,1748.4210764494665,71.000002272,0.7199994039200001,0.5999990191999679,1684,0.0,99,GPS_Atti,
0.35650708434906797,36.919520572002895,16700,2017-11-15 07:14:37,1748.9210764654665,71.500002288,0.0,0.5714750182872,1748.9210764654665,71.500002288,0.7199994039200001,0.5999990191999679,1684,0.0,99,GPS_Atti,
0.35650712082865604,36.9195206056383,16800,2017-11-15 07:14:37,1749.4210764814666,72.00000230399999,0.0,0.571724018295168,1749.4210764814666,72.00000230399999,0.7199994039200001,0.5999990191999679,1684,0.0,99,GPS_Atti,
0.35650713141964896,36.919520623309296,16900,2017-11-15 07:14:37,1750.0210765006666,72.6000023232,0.0,0.572483018319456,1750.0210765006666,72.6000023232,0.7199994039200001,0.5999990191999679,1684,0.0,99,GPS_Atti,
0.356507135909269,36.919520642211,17000,2017-11-15 07:14:37,1750.5210765166664,73.1000023392,0.0,0.573787018361184,1750.5210765166664,73.1000023392,0.7199994039200001,0.5999990191999679,1684,0.0,99,GPS_Atti,
0.35650712392107203,36.9195206509429,17100,2017-11-15 07:14:37,1751.0210765326667,73.6000023552,0.0,0.5753840184122879,1751.0210765326667,73.6000023552,0.7199994039200001,0.5999990191999679,1684,0.0,99,GPS_Atti,
0.35650716014214395,36.9195206916503,17200,2017-11-15 07:14:37,1751.5210765486665,74.1000023712,0.0,0.576349018443168,1751.5210765486665,74.1000023712,0.7199994039200001,0.5999990191999679,1684,0.0,99,GPS_Atti,
0.356507178567581,36.9195207177529,17300,2017-11-15 07:14:37,1752.0210765646664,74.6000023872,0.0,0.577333018474656,1752.0210765646664,74.6000023872,0.7199994039200001,0.5999990191999679,1684,0.0,99,GPS_Atti,
0.356507203506794,36.9195207344903,17400,2017-11-15 07:14:37,1752.5210765806667,75.1000024032,0.0,0.5770710184662721,1752.5210765806667,75.1000024032,0.7199994039200001,0.5999990191999679,1684,0.0,99,GPS_Atti,
0.35650720772609207,36.919520736757896,17500,2017-11-15 07:14:37,1753.0210765966665,75.60000241920001,0.0,0.576979018463328,1753.0210765966665,75.60000241920001,0.7199994039200001,0.5999990191999679,1684,0.0,99,GPS_Atti,
0.356507216830315,36.9195207305125,17600,2017-11-15 07:14:38,1753.5210766126665,76.10000243520001,0.0,0.575807018425824,1753.5210766126665,76.10000243520001,0.7199994039200001,0.5999990191999679,1684,0.0,99,GPS_Atti,
0.35650721294321996,36.9195207219941,17700,2017-11-15 07:14:38,1754.0210766286666,76.6000024512,0.0,0.5753300184105601,1754.0210766286666,76.6000024512,0.7199994039200001,0.5999990191999679,1684,0.0,99,GPS_Atti,
0.356507254604109,36.9195207293203,17800,2017-11-15 07:14:38,1754.5210766446667,77.1000024672,0.0,0.573119018339808,1754.5210766446667,77.1000024672,0.7199994039200001,0.5999990191999679,1684,0.0,99,GPS_Atti,
0.35650725902045005,36.9195207391566,17900,2017-11-15 07:14:38,1755.0210766606665,77.6000024832,0.0,0.5736830183578561,1755.0210766606665,77.6000024832,0.7199994039200001,0.5999990191999679,1684,0.0,99,GPS_Atti,
0.35650725753123796,36.919520757017104,18000,2017-11-15 07:14:38,1755.5210766766668,78.1000024992,0.0,0.5753570184114241,1755.5210766766668,78.1000024992,0.7199994039200001,0.5999990191999679,1684,0.0,99,GPS_Atti,
0.356507233012978,36.9195207601299,18100,2017-11-15 07:14:38,1756.1210766958666,78.70000251840001,0.0,0.577298018473536,1756.1210766958666,78.70000251840001,0.7199994039200001,0.5999990191999679,1684,0.0,99,GPS_Atti,
0.3565072559178571,36.919520790505295,18200,2017-11-15 07:14:38,1756.6210767118664,79.20000253439999,0.0,0.5784220185095039,1756.6210767118664,79.20000253439999,0.7199994039200001,0.5999990191999679,1684,0.0,99,GPS_Atti,
0.35650724205206297,36.9195208074017,18300,2017-11-15 07:14:38,1757.1210767278667,79.70000255040001,0.0,0.5808510185872321,1757.1210767278667,79.70000255040001,0.7199994039200001,0.5999990191999679,1684,0.0,99,GPS_Atti,
0.356507247539512,36.9195208227297,18400,2017-11-15 07:14:38,1757.6210767438665,80.20000256640002,0.0,0.581837018618784,1757.6210767438665,80.20000256640002,0.7199994039200001,0.5999990191999679,1684,0.0,99,GPS_Atti,
0.356507228227795,36.9195208373216,18500,2017-11-15 07:14:38,1758.1210767598664,80.7000025824,0.0,0.584429018701728,1758.1210767598664,80.7000025824,0.7199994039200001,0.5999990191999679,1684,0.0,99,GPS_Atti,
0.35650724752322793,36.9195208560788,18600,2017-11-15 07:14:39,1758.6210767758666,81.2000025984,0.0,0.5847950187134401,1758.6210767758666,81.2000025984,0.7199994039200001,0.5999990191999679,1684,0.0,99,GPS_Atti,
0.356507244709684,36.9195208674835,18700,2017-11-15 07:14:39,1759.1210767918665,81.7000026144,0.0,0.585997018751904,1759.1210767918665,81.7000026144,0.7199994039200001,0.5999990191999679,1684,0.0,99,GPS_Atti,
0.356507271519571,36.919520874466,18800,2017-11-15 07:14:39,1759.6210768078665,82.20000263040001,0.0,0.584832018714624,1759.6210768078665,82.20000263040001,0.7199994039200001,0.5999990191999679,1684,0.0,99,GPS_Atti,
0.35650726106781105,36.9195208761597,18900,2017-11-15 07:14:39,1760.1210768238666,82.70000264640001,0.0,0.5856780187416961,1760.1210768238666,82.70000264640001,0.7199994039200001,0.5999990191999679,1684,0.0,98,GPS_Atti,
0.35650722636770504,36.919520875241105,19000,2017-11-15 07:14:39,1760.6210768398666,83.20000266240001,0.0,0.587914018813248,1760.6210768398666,83.20000266240001,0.7199994039200001,0.5999990191999679,1684,0.0,98,GPS_Atti,
0.35650718101309703,36.9195208780515,19100,2017-11-15 07:14:39,1761.1210768558665,83.70000267840001,0.0,0.5912150189188801,1761.1210768558665,83.70000267840001,0.7199994039200001,0.5999990191999679,1684,0.0,98,GPS_Atti,
0.356507176262111,36.919520924696,19200,2017-11-15 07:14:39,1761.6210768718665,84.2000026944,0.0,0.5956610190611521,1761.6210768718665,84.2000026944,0.7199994039200001,0.5999990191999679,1684,0.0,98,GPS_Atti,
0.35650715572743297,36.91952096726779,19300,2017-11-15 07:14:39,1762.1210768878666,84.70000271040001,0.0,0.600814019226048,1762.1210768878666,84.70000271040001,0.7199994039200001,0.600814019226048,1684,0.0,98,GPS_Atti,
0.35650717264126597,36.919521000547796,19400,2017-11-15 07:14:39,1762.6210769038664,85.20000272640002,0.0,0.6026450192846401,1762.6210769038664,85.20000272640002,0.7199994039200001,0.6026450192846401,1684,0.0,98,GPS_Atti,
0.356507155201445,36.9195210237427,19500,2017-11-15 07:14:40,1763.1210769198665,85.7000027424,0.0,0.605872019387904,1763.1210769198665,85.7000027424,0.7199994039200001,0.605872019387904,1684,0.0,98,GPS_Atti,
0.35650715816114203,36.9195210268399,19600,2017-11-15 07:14:40,1763.6210769358665,86.2000027584,0.0,0.605951019390432,1763.6210769358665,86.2000027584,0.7199994039200001,0.605951019390432,1684,0.0,98,GPS_Atti,
0.356507139557798,36.9195210311802,19700,2017-11-15 07:14:40,1764.1210769518666,86.7000027744,0.0,0.6075750194424001,1764.1210769518666,86.7000027744,0.7199994039200001,0.6075750194424001,1684,0.0,98,GPS_Atti,
0.35650712172348603,36.9195210278474,19800,2017-11-15 07:14:40,1764.6210769678664,87.2000027904,0.0,0.60847001947104,1764.6210769678664,87.2000027904,0.7199994039200001,0.60847001947104,1684,0.0,98,GPS_Atti,
0.356507095777895,36.9195210440672,19900,2017-11-15 07:14:40,1765.1210769838667,87.70000280640001,0.0,0.611647019572704,1765.1210769838667,87.70000280640001,0.7199994039200001,0.611647019572704,1684,0.0,98,GPS_Atti,
0.35650712035722204,36.919521107554495,20000,2017-11-15 07:14:40,1765.6210769998665,88.20000282240001,0.0,0.615664019701248,1765.6210769998665,88.20000282240001,0.7199994039200001,0.615664019701248,1684,0.0,98,GPS_Atti,
0.356507143455479,36.9195211606237,20100,2017-11-15 07:14:40,1766.1210770158666,88.70000283840001,0.0,0.618906019804992,1766.1210770158666,88.70000283840001,0.7199994039200001,0.618906019804992,1684,0.0,98,GPS_Atti,
0.35650720331992997,36.9195212255875,20200,2017-11-15 07:14:40,1766.6210770318667,89.2000028544,0.0,0.620916019869312,1766.6210770318667,89.2000028544,0.7199994039200001,0.620916019869312,1684,0.0,98,GPS_Atti,
0.356507248610621,36.9195212762842,20300,2017-11-15 07:14:40,1767.1210770478665,89.7000028704,0.0,0.622677019925664,1767.1210770478665,89.7000028704,0.7199994039200001,0.622677019925664,1684,0.0,98,GPS_Atti,
0.35650728696943396,36.919521328749596,20400,2017-11-15 07:14:40,1767.6210770638666,90.20000288640001,0.0,0.6251170200037439,1767.6210770638666,90.20000288640001,0.7199994039200001,0.6251170200037439,1684,0.0,98,GPS_Atti,
0.356507298392969,36.9195213704971,20500,2017-11-15 07:14:40,1768.1210770798664,90.7000029024,0.0,0.62828002010496,1768.1210770798664,90.7000029024,0.7199994039200001,0.62828002010496,1684,0.0,98,GPS_Atti,
0.35650732746802205,36.919521421136,20600,2017-11-15 07:14:41,1768.6210770958667,91.2000029184,0.0,0.631222020199104,1768.6210770958667,91.2000029184,0.7199994039200001,0.631222020199104,1684,0.0,98,GPS_Atti,
0.35650733131603496,36.9195214582906,20700,2017-11-15 07:14:41,1769.1210771118665,91.7000029344,0.0,0.6344630203028161,1769.1210771118665,91.7000029344,0.7199994039200001,0.6344630203028161,1684,0.0,98,GPS_Atti,
0.356507329394878,36.9195215048215,20800,2017-11-15 07:14:41,1769.6210771278666,92.2000029504,0.0,0.638938020446016,1769.6210771278666,92.2000029504,0.7199994039200001,0.638938020446016,1684,0.0,98,GPS_Atti,
0.35650731585721596,36.9195215403905,20900,2017-11-15 07:14:41,1770.1210771438666,92.7000029664,0.0,0.643084020578688,1770.1210771438666,92.7000029664,0.7199994039200001,0.643084020578688,1684,0.0,98,GPS_Atti,
0.3565073458067439,36.9195215895755,21000,2017-11-15 07:14:41,1770.6210771598667,93.20000298240001,0.0,0.64594502067024,1770.6210771598667,93.20000298240001,0.7199994039200001,0.64594502067024,1684,0.0,98,GPS_Atti,
0.35650737888003403,36.9195216409061,21100,2017-11-15 07:14:41,1771.1210771758665,93.70000299840001,0.0,0.6488800207641601,1771.1210771758665,93.70000299840001,0.7199994039200001,0.6488800207641601,1684,0.0,98,GPS_Atti,
0.35650740654119106,36.919521689617895,21200,2017-11-15 07:14:41,1771.6210771918666,94.2000030144,0.0,0.65193002086176,1771.6210771918666,94.2000030144,0.7199994039200001,0.65193002086176,1684,0.0,98,GPS_Atti,
0.3565074234586889,36.9195217347988,21300,2017-11-15 07:14:41,1772.2210772110666,94.80000303359999,0.0,0.655292020969344,1772.2210772110666,94.80000303359999,0.7199994039200001,0.655292020969344,1059,0.0,98,GPS_Atti,
0.35650744774204607,36.919521834277,21400,2017-11-15 07:14:41,1772.7210772270664,95.30000304960001,0.0,0.663502021232064,1772.7210772270664,95.30000304960001,0.7199994039200001,0.663502021232064,1024,0.0,98,GPS_Atti,
0.35650743926762296,36.919521884126894,21500,2017-11-15 07:14:41,1773.1210772398667,95.7000030624,0.0,0.6687840214010881,1773.1210772398667,95.7000030624,0.7199994039200001,0.6687840214010881,1024,0.0,98,GPS_Atti,
0.356507438240889,36.9195219397634,21600,2017-11-15 07:14:42,1773.5210772526666,96.10000307520001,0.0,0.6742250215752,1773.5210772526666,96.10000307520001,0.7199994039200001,0.6742250215752,1024,0.0,98,GPS_Atti,
0.35650741439436207,36.9195219818599,21700,2017-11-15 07:14:42,1773.8210772622665,96.40000308479999,0.0,0.67960502174736,1773.8210772622665,96.40000308479999,0.7199994039200001,0.67960502174736,1024,0.0,98,GPS_Atti,
0.35650740576930895,36.9195219781652,21800,2017-11-15 07:14:42,1774.0210772686667,96.60000309120001,0.0,0.6797180217509761,1774.0210772686667,96.60000309120001,0.7199994039200001,0.6797180217509761,1024,0.0,98,GPS_Atti,
0.356507373126335,36.9195219568954,21900,2017-11-15 07:14:42,1774.2210772750664,96.8000030976,0.0,0.6794590217426879,1774.2210772750664,96.8000030976,0.7199994039200001,0.6797180217509761,1024,0.0,98,GPS_Atti,
0.356507366492868,36.91952192708629,22000,2017-11-15 07:14:42,1774.2210772750664,96.8000030976,0.0,0.676954021662528,1774.2210772750664,96.8000030976,0.7199994039200001,0.6797180217509761,1024,0.0,98,GPS_Atti,
0.356507335775529,36.9195219039396,22100,2017-11-15 07:14:42,1774.3210772782666,96.90000310079999,0.35999970196000003,0.676448021646336,1774.3210772782666,96.90000310079999,0.7199994039200001,0.6797180217509761,1024,0.0,98,GPS_Atti,
0.35650729338631704,36.9195218535801,22200,2017-11-15 07:14:42,1774.3210772782666,96.90000310079999,0.5075995797636,0.674038021569216,1774.3210772782666,96.90000310079999,0.7199994039200001,0.6797180217509761,1024,0.0,98,GPS_Atti,
0.35650724055592997,36.9195218040022,22300,2017-11-15 07:14:42,1774.3210772782666,96.90000310079999,0.5075995797636,0.6723810215161921,1774.3210772782666,96.90000310079999,0.7199994039200001,0.6797180217509761,1024,0.0,98,GPS_Atti,
0.356507170304856,36.9195217651282,22400,2017-11-15 07:14:42,1774.3210772782666,96.90000310079999,0.5075995797636,0.672859021531488,1774.3210772782666,96.90000310079999,0.7199994039200001,0.6797180217509761,1024,0.0,98,GPS_Atti,
0.35650709570135797,36.9195217468165,22500,2017-11-15 07:14:43,1774.3210772782666,96.90000310079999,0.5075995797636,0.675634021620288,1774.3210772782666,96.90000310079999,0.7199994039200001,0.6797180217509761,1024,0.0,98,GPS_Atti,
0.356507058580978,36.9195217338556,22600,2017-11-15 07:14:43,1774.3210772782666,96.90000310079999,0.35999970196000003,0.676694021654208,1774.3210772782666,96.90000310079999,0.7199994039200001,0.6797180217509761,1024,0.0,98,GPS_Atti,
0.356507038611776,36.919521760228,22700,2017-11-15 07:14:43,1774.4210772814665,97.000003104,0.35999970196000003,0.68036502177168,1774.4210772814665,97.000003104,0.7199994039200001,0.68036502177168,1024,0.0,98,GPS_Atti,
0.35650706181465996,36.91952187201179,22800,2017-11-15 07:14:43,1774.4210772814665,97.000003104,0.35999970196000003,0.6893700220598401,1774.4210772814665,97.000003104,0.7199994039200001,0.6893700220598401,1024,0.0,98,GPS_Atti,
0.35650711297304294,36.9195220392587,22900,2017-11-15 07:14:43,1774.4210772814665,97.000003104,0.35999970196000003,0.702098022467136,1774.4210772814665,97.000003104,0.7199994039200001,0.702098022467136,1024,0.0,98,GPS_Atti,
0.356507190669363,36.9195222629162,23000,2017-11-15 07:14:43,1774.4210772814665,97.000003104,0.0,0.7190740230103679,1774.4210772814665,97.000003104,0.7199994039200001,0.7190740230103679,1024,0.0,98,GPS_Atti,
0.35650730169423206,36.9195225371665,23100,2017-11-15 07:14:43,1774.4210772814665,97.000003104,0.0,0.7398160236741121,1774.4210772814665,97.000003104,0.7199994039200001,0.7398160236741121,1024,0.0,98,GPS_Atti,
0.3565074015895,36.9195228266068,23200,2017-11-15 07:14:43,1774.4210772814665,97.000003104,0.0,0.7634760244312322,1774.4210772814665,97.000003104,0.7199994039200001,0.7634760244312322,1024,0.0,98,GPS_Atti,
0.35650750200627795,36.9195231366691,23300,2017-11-15 07:14:43,1774.4210772814665,97.000003104,0.35999970196000003,0.7899650252788801,1774.4210772814665,97.000003104,0.7199994039200001,0.7899650252788801,1024,0.0,98,GPS_Atti,
0.356507606407044,36.919523480980395,23400,2017-11-15 07:14:43,1774.4210772814665,97.000003104,0.35999970196000003,0.82055502625776,1774.4210772814665,97.000003104,0.7199994039200001,0.82055502625776,1024,0.0,98,GPS_Atti,
0.35650769406577704,36.9195238230894,23500,2017-11-15 07:14:43,1774.4210772814665,97.000003104,0.35999970196000003,0.8523550272753599,1774.4210772814665,97.000003104,0.7199994039200001,0.8523550272753599,1024,0.0,98,GPS_Atti,
0.35650776574621795,36.919524221625096,23600,2017-11-15 07:14:44,1774.4210772814665,97.000003104,0.35999970196000003,0.8912650285204801,1774.4210772814665,97.000003104,0.7199994039200001,0.8912650285204801,1024,0.0,98,GPS_Atti,
0.356507840217812,36.9195246157745,23700,2017-11-15 07:14:44,1774.4210772814665,97.000003104,0.35999970196000003,0.930168029765376,1774.4210772814665,97.000003104,0.7199994039200001,0.930168029765376,1024,0.0,98,GPS_Atti,
0.35650791502323603,36.919524986685204,23800,2017-11-15 07:14:44,1774.4210772814665,97.000003104,0.35999970196000003,0.967076030946432,1774.4210772814665,97.000003104,0.7199994039200001,0.967076030946432,1024,0.0,98,GPS_Atti,
0.35650798951111495,36.9195253357885,23900,2017-11-15 07:14:44,1774.4210772814665,97.000003104,0.35999970196000003,1.00206003206592,1774.4210772814665,97.000003104,0.7199994039200001,1.00206003206592,1024,0.0,98,GPS_Atti,
0.35650810209033296,36.9195257007059,24000,2017-11-15 07:14:44,1774.4210772814665,97.000003104,0.35999970196000003,1.0380400332172801,1774.4210772814665,97.000003104,0.7199994039200001,1.0380400332172801,1024,0.0,98,GPS_Atti,
0.356508195067158,36.919526017383596,24100,2017-11-15 07:14:44,1774.4210772814665,97.000003104,0.35999970196000003,1.0697600342323201,1774.4210772814665,97.000003104,0.7199994039200001,1.0697600342323201,1024,0.0,98,GPS_Atti,
0.35650826146736897,36.919526365367,24200,2017-11-15 07:14:44,1774.3210772782666,96.90000310079999,0.35999970196000003,1.1058300353865602,1774.4210772814665,97.000003104,0.7199994039200001,1.1058300353865602,1024,0.0,98,GPS_Atti,
0.35650831206149497,36.919526663294,24300,2017-11-15 07:14:44,1774.3210772782666,96.90000310079999,0.35999970196000003,1.13703003638496,1774.4210772814665,97.000003104,0.7199994039200001,1.13703003638496,1024,0.0,98,GPS_Atti,
0.356508384500791,36.9195269738799,24400,2017-11-15 07:14:44,1774.3210772782666,96.90000310079999,0.35999970196000003,1.16927003741664,1774.4210772814665,97.000003104,0.7199994039200001,1.16927003741664,1024,0.0,98,GPS_Atti,
0.35650844159973705,36.919527223772796,24500,2017-11-15 07:14:44,1774.4210772814665,97.000003104,0.0,1.19537003825184,1774.4210772814665,97.000003104,0.7199994039200001,1.19537003825184,1024,0.0,98,GPS_Atti,
0.35650852954141204,36.919527507012,24600,2017-11-15 07:14:45,1774.4210772814665,97.000003104,0.0,1.2246400391884802,1774.4210772814665,97.000003104,0.7199994039200001,1.2246400391884802,1024,0.0,98,GPS_Atti,
0.35650859394393,36.91952772641171,24700,2017-11-15 07:14:45,1774.4210772814665,97.000003104,0.0,1.24750003992,1774.4210772814665,97.000003104,0.7199994039200001,1.24750003992,1024,0.0,98,GPS_Atti,
0.356508735013998,36.919527982728205,24800,2017-11-15 07:14:45,1774.4210772814665,97.000003104,0.0,1.2732400407436801,1774.4210772814665,97.000003104,0.7199994039200001,1.2732400407436801,1024,0.0,98,GPS_Atti,
0.356508826288691,36.9195281613685,24900,2017-11-15 07:14:45,1774.3210772782666,96.90000310079999,0.0,1.2914700413270401,1774.4210772814665,97.000003104,0.7199994039200001,1.2914700413270401,1024,0.0,98,GPS_Atti,
0.35650892920431604,36.919528402978,25000,2017-11-15 07:14:45,1774.3210772782666,96.90000310079999,0.0,1.31661004213152,1774.4210772814665,97.000003104,0.7199994039200001,1.31661004213152,1024,0.0,98,GPS_Atti,
0.3565089799217971,36.919528570664895,25100,2017-11-15 07:14:45,1774.3210772782666,96.90000310079999,0.0,1.33442004270144,1774.4210772814665,97.000003104,0.7199994039200001,1.33442004270144,1024,0.0,98,GPS_Atti,
0.35650905815184003,36.919528763211495,25200,2017-11-15 07:14:45,1774.3210772782666,96.90000310079999,0.0,1.3546900433500801,1774.4210772814665,97.000003104,0.7199994039200001,1.3546900433500801,1024,0.0,98,GPS_Atti,
0.356509086160669,36.919528883386704,25300,2017-11-15 07:14:45,1774.3210772782666,96.90000310079999,0.0,1.3676300437641602,1774.4210772814665,97.000003104,0.7199994039200001,1.3676300437641602,1024,0.0,98,GPS_Atti,
0.35650916614576705,36.919529013266,25400,2017-11-15 07:14:45,1774.3210772782666,96.90000310079999,0.0,1.38107004419424,1774.4210772814665,97.000003104,0.7199994039200001,1.38107004419424,1024,0.0,98,GPS_Atti,
0.356509199340784,36.91952908644671,25500,2017-11-15 07:14:46,1774.3210772782666,96.90000310079999,0.0,1.38881004444192,1774.4210772814665,97.000003104,0.7199994039200001,1.38881004444192,1024,0.0,98,GPS_Atti,
0.356509264490757,36.9195292033844,25600,2017-11-15 07:14:46,1774.3210772782666,96.90000310079999,0.0,1.40107004483424,1774.4210772814665,97.000003104,0.7199994039200001,1.40107004483424,1024,0.0,98,GPS_Atti,
0.356509282787547,36.919529255861505,25700,2017-11-15 07:14:46,1774.3210772782666,96.90000310079999,0.0,1.4067000450144003,1774.4210772814665,97.000003104,0.7199994039200001,1.4067000450144003,1024,0.0,98,GPS_Atti,
0.356509373663271,36.9195293470307,25800,2017-11-15 07:14:46,1774.3210772782666,96.90000310079999,0.0,1.41593004530976,1774.4210772814665,97.000003104,0.7199994039200001,1.41593004530976,1024,0.0,98,GPS_Atti,
0.35650939721382796,36.91952938692379,25900,2017-11-15 07:14:46,1774.3210772782666,96.90000310079999,0.0,1.4201500454448002,1774.4210772814665,97.000003104,0.7199994039200001,1.4201500454448002,1024,0.0,98,GPS_Atti,
0.35650944273983004,36.9195294414041,26000,2017-11-15 07:14:46,1774.3210772782666,96.90000310079999,0.0,1.4257900456252801,1774.4210772814665,97.000003104,0.7199994039200001,1.4257900456252801,1024,0.0,98,GPS_Atti,
0.35650942966505295,36.919529460113104,26100,2017-11-15 07:14:46,1774.3210772782666,96.90000310079999,0.0,1.42798004569536,1774.4210772814665,97.000003104,0.7199994039200001,1.42798004569536,1024,0.0,98,GPS_Atti,
0.35650942606252795,36.9195294736092,26200,2017-11-15 07:14:46,1774.3210772782666,96.90000310079999,0.35999970196000003,1.429500045744,1774.4210772814665,97.000003104,0.7199994039200001,1.429500045744,1024,0.0,98,GPS_Atti,
0.35650941225576505,36.919529484639796,26300,2017-11-15 07:14:46,1774.4210772814665,97.000003104,0.5075995797636,1.4308500457872,1774.4210772814665,97.000003104,0.7199994039200001,1.4308500457872,1024,0.0,98,GPS_Atti,
0.35650936827515706,36.9195294811442,26400,2017-11-15 07:14:46,1774.4210772814665,97.000003104,0.5075995797636,1.4308500457872,1774.4210772814665,97.000003104,0.7199994039200001,1.4308500457872,1024,0.0,98,GPS_Atti,
0.356509316537456,36.919529458801605,26500,2017-11-15 07:14:47,1774.3210772782666,96.90000310079999,0.35999970196000003,1.4288500457231998,1774.4210772814665,97.000003104,0.7199994039200001,1.4308500457872,1024,0.0,98,GPS_Atti,
0.35650933113727,36.919529415224396,26600,2017-11-15 07:14:47,1774.3210772782666,96.90000310079999,0.5075995797636,1.42388004556416,1774.4210772814665,97.000003104,0.7199994039200001,1.4308500457872,1024,0.0,98,GPS_Atti,
0.35650929570965706,36.919529349533704,26700,2017-11-15 07:14:47,1774.3210772782666,96.90000310079999,0.5075995797636,1.4169500453424002,1774.4210772814665,97.000003104,0.7199994039200001,1.4308500457872,1024,0.0,98,GPS_Atti,
0.35650927678021704,36.9195292822425,26800,2017-11-15 07:14:47,1774.3210772782666,96.90000310079999,0.5075995797636,1.4096800451097602,1774.4210772814665,97.000003104,0.7199994039200001,1.4308500457872,1024,0.0,98,GPS_Atti,
0.3565092239197029,36.919529193342,26900,2017-11-15 07:14:47,1774.4210772814665,97.000003104,0.5075995797636,1.40038004481216,1774.4210772814665,97.000003104,0.7199994039200001,1.4308500457872,1024,0.0,98,GPS_Atti,
0.35650923958167097,36.919529123800395,27000,2017-11-15 07:14:47,1774.4210772814665,97.000003104,0.35999970196000003,1.39251004456032,1774.4210772814665,97.000003104,0.7199994039200001,1.4308500457872,1024,0.0,98,GPS_Atti,
0.35650921222096205,36.9195290368195,27100,2017-11-15 07:14:47,1774.3210772782666,96.90000310079999,0.35999970196000003,1.38317004426144,1774.4210772814665,97.000003104,0.7199994039200001,1.4308500457872,1024,0.0,98,GPS_Atti,
0.356509211459664,36.919528899172896,27200,2017-11-15 07:14:47,1774.3210772782666,96.90000310079999,0.35999970196000003,1.3679500437743999,1774.4210772814665,97.000003104,0.7199994039200001,1.4308500457872,1024,0.0,98,GPS_Atti,
0.35650917818119,36.9195287615199,27300,2017-11-15 07:14:47,1774.3210772782666,96.90000310079999,0.35999970196000003,1.3530800432985601,1774.4210772814665,97.000003104,0.7199994039200001,1.4308500457872,1024,0.0,98,GPS_Atti,
0.356509160994592,36.9195286408768,27400,2017-11-15 07:14:47,1774.3210772782666,96.90000310079999,0.35999970196000003,1.33994004287808,1774.4210772814665,97.000003104,0.7199994039200001,1.4308500457872,1024,0.0,98,GPS_Atti,
0.356509113460719,36.919528521073104,27500,2017-11-15 07:14:48,1774.3210772782666,96.90000310079999,0.35999970196000003,1.327250042472,1774.4210772814665,97.000003104,0.7199994039200001,1.4308500457872,1024,0.0,98,GPS_Atti,
0.35650907714926705,36.9195283391695,27600,2017-11-15 07:14:48,1774.3210772782666,96.90000310079999,0.35999970196000003,1.3076000418432001,1774.4210772814665,97.000003104,0.7199994039200001,1.4308500457872,1024,0.0,98,GPS_Atti,
0.356509020531526,36.919528178106496,27700,2017-11-15 07:14:48,1774.4210772814665,97.000003104,0.35999970196000003,1.29054004129728,1774.4210772814665,97.000003104,0.7199994039200001,1.4308500457872,1024,0.0,98,GPS_Atti,
0.356508988605068,36.919528044668496,27800,2017-11-15 07:14:48,1774.4210772814665,97.000003104,0.35999970196000003,1.2762500408400002,1774.4210772814665,97.000003104,0.7199994039200001,1.4308500457872,1024,0.0,98,GPS_Atti,
0.356508942960189,36.9195279096171,27900,2017-11-15 07:14:48,1774.4210772814665,97.000003104,0.35999970196000003,1.2620000403840002,1774.4210772814665,97.000003104,0.7199994039200001,1.4308500457872,1024,0.0,98,GPS_Atti,
0.356508923194136,36.9195277110644,28000,2017-11-15 07:14:48,1774.3210772782666,96.90000310079999,0.35999970196000003,1.2404000396928,1774.4210772814665,97.000003104,0.7199994039200001,1.4308500457872,1024,-0.1,98,GPS_Atti,
0.356508882042135,36.919527533955005,28100,2017-11-15 07:14:48,1774.3210772782666,96.90000310079999,0.35999970196000003,1.22151003908832,1774.4210772814665,97.000003104,0.7199994039200001,1.4308500457872,1024,-0.6,98,GPS_Atti,
0.356508849573812,36.9195273641408,28200,2017-11-15 07:14:48,1774.3210772782666,96.90000310079999,0.35999970196000003,1.2033300385065602,1774.4210772814665,97.000003104,0.7199994039200001,1.4308500457872,1024,-1.4,98,GPS_Atti,
0.35650880108933397,36.919527219565296,28300,2017-11-15 07:14:48,1774.3210772782666,96.90000310079999,0.35999970196000003,1.1882300380233601,1774.4210772814665,97.000003104,0.7199994039200001,1.4308500457872,1024,-2.3,98,GPS_Atti,
0.35650875853687103,36.919527087636794,28400,2017-11-15 07:14:48,1774.3210772782666,96.90000310079999,0.35999970196000003,1.17446003758272,1774.4210772814665,97.000003104,0.7199994039200001,1.4308500457872,1024,-2.3,98,GPS_Atti,
