latitude,longitude,time_millisecond,datetime_utc,altitude_m,ascent_m,speed_kph,distance_m,max_altitude_m,max_ascent_m,max_speed_kph,max_distance_m,rc_throttle,gimbal_pitch_degrees,battery_percent,flycState,message
0.073646929215256,36.872371099484894,0,2018-04-12 07:30:11,1819.2102633147317,0.0,0.0,0.0,1819.2102633147317,0.0,0.0,0.0,364,0.0,99,P-GPS,
0.0736469676194615,36.8723710668991,100,2018-04-12 07:30:11,1819.2102633147317,0.0,0.0,0.005600980179231361,1819.2102633147317,0.0,0.0,0.005600980179231361,364,0.0,99,Motors_Started,
0.0736469847981208,36.8723710221146,200,2018-04-12 07:30:11,1819.2102633147317,0.0,0.0,0.010594200339014401,1819.2102633147317,0.0,0.0,0.010594200339014401,364,0.0,99,Motors_Started,
0.0736470289183682,36.872370976765396,300,2018-04-12 07:30:11,1819.2102633147317,0.0,0.0,0.017583500562671998,1819.2102633147317,0.0,0.0,0.017583500562671998,364,0.0,99,Motors_Started,
0.0736470188116341,36.8723709601807,400,2018-04-12 07:30:11,1819.2102633147317,0.0,0.0,0.018419000589408003,1819.2102633147317,0.0,0.0,0.018419000589408003,364,0.0,99,Motors_Started,
0.0736470319735327,36.872370939759,500,2018-04-12 07:30:11,1819.2102633147317,0.0,0.0,0.021120800675865598,1819.2102633147317,0.0,0.0,0.021120800675865598,364,0.0,99,Motors_Started,
0.0736469997816375,36.87237094622171,600,2018-04-12 07:30:11,1819.2102633147317,0.0,0.0,0.0187636006004352,1819.2102633147317,0.0,0.0,0.021120800675865598,364,0.0,99,Motors_Started,
0.0736469893882973,36.872370922365604,800,2018-04-12 07:30:11,1819.2102633147317,0.0,0.0,0.0208024006656768,1819.2102633147317,0.0,0.0,0.021120800675865598,364,0.0,99,Motors_Started,
0.0736470052302076,36.8723708973563,900,2018-04-12 07:30:12,1819.2102633147317,0.0,0.0,0.024014900768476805,1819.2102633147317,0.0,0.0,0.024014900768476805,364,0.0,99,Motors_Started,Setting new Return-To-Home altitude to 45m (148 ft). Setting new Maximum Flight Altitude to 150m (492 ft)
0.0736469914584567,36.8723708930561,1000,2018-04-12 07:30:12,1819.2102633147317,0.0,0.0,0.023977000767264004,1819.2102633147317,0.0,0.0,0.024014900768476805,364,0.0,99,Motors_Started,
0.0736469943664506,36.8723708846223,1100,2018-04-12 07:30:12,1819.2102633147317,0.0,0.0,0.024968300798985602,1819.2102633147317,0.0,0.0,0.024968300798985602,370,0.0,99,Motors_Started,
0.0736470085438876,36.872370855186794,1200,2018-04-12 07:30:12,1819.2102633147317,0.0,0.0,0.0285638009140416,1819.2102633147317,0.0,0.0,0.0285638009140416,396,0.0,99,Motors_Started,
0.0736470325675076,36.872370825718704,1300,2018-04-12 07:30:12,1819.2102633147317,0.0,0.0,0.0325417010413344,1819.2102633147317,0.0,0.0,0.0325417010413344,502,0.0,99,Motors_Started,
0.0736470314355355,36.8723708135948,1400,2018-04-12 07:30:12,1819.2102633147317,0.0,0.0,0.0337638010804416,1819.2102633147317,0.0,0.0,0.0337638010804416,698,0.0,99,Motors_Started,
0.0736470417519318,36.8723708003336,1500,2018-04-12 07:30:12,1819.2102633147317,0.0,0.0,0.035543501137392006,1819.2102633147317,0.0,0.0,0.035543501137392006,972,0.0,99,Motors_Started,
0.0736470316380732,36.872370729896005,1700,2018-04-12 07:30:12,1819.2102633147317,0.0,0.0,0.042649501364784,1819.2102633147317,0.0,0.0,0.042649501364784,1024,0.0,99,Assisted_Takeoff,
0.07364705548826402,36.872370716791394,1800,2018-04-12 07:30:12,1819.2102633147317,0.0,0.0,0.0448147014340704,1819.2102633147317,0.0,0.0,0.0448147014340704,1024,0.0,99,Assisted_Takeoff,
0.0736470807928588,36.8723706986441,1900,2018-04-12 07:30:12,1819.2102633147317,0.0,0.0,0.047656601525011194,1819.2102633147317,0.0,0.0,0.047656601525011194,1024,0.0,99,Assisted_Takeoff,
0.073647088605726,36.8723706990077,2000,2018-04-12 07:30:12,1819.2102633147317,0.0,0.0,0.0479332015338624,1819.2102633147317,0.0,0.0,0.0479332015338624,1024,0.0,99,Assisted_Takeoff,
0.0736471025423568,36.87237069417,2100,2018-04-12 07:30:13,1819.2102633147317,0.0,0.0,0.04902190156870081,1819.2102633147317,0.0,0.0,0.04902190156870081,1024,0.0,99,Assisted_Takeoff,
0.0736470985545011,36.87237066663621,2200,2018-04-12 07:30:13,1819.2102633147317,0.0,0.0,0.05168790165401281,1819.2102633147317,0.0,0.0,0.05168790165401281,1040,0.0,99,Assisted_Takeoff,
0.0736471027216892,36.8723706379779,2300,2018-04-12 07:30:13,1819.2102633147317,0.0,0.0,0.054829501754544,1819.2102633147317,0.0,0.0,0.054829501754544,1076,0.0,99,Assisted_Takeoff,
0.0736471295338161,36.8723706260396,2400,2018-04-12 07:30:13,1819.2102633147317,0.0,0.0,0.0571688018294016,1819.2102633147317,0.0,0.0,0.0571688018294016,1135,0.0,99,Assisted_Takeoff,
0.0736471585575734,36.8723706122739,2500,2018-04-12 07:30:13,1819.2102633147317,0.0,0.0,0.05988340191626881,1819.2102633147317,0.0,0.0,0.05988340191626881,1252,0.0,99,Assisted_Takeoff,
0.0736471712895628,36.8723705757363,2600,2018-04-12 07:30:13,1819.2102633147317,0.0,0.0,0.06416430205325761,1819.2102633147317,0.0,0.0,0.06416430205325761,1553,0.0,99,Assisted_Takeoff,
0.0736472272441199,36.8723705291267,2800,2018-04-12 07:30:13,1819.2102633147317,0.0,0.0,0.0715643022900576,1819.2102633147317,0.0,0.0,0.0715643022900576,1684,0.0,99,Assisted_Takeoff,
0.0736472652082384,36.8723705134251,2900,2018-04-12 07:30:14,1819.2102633147317,0.0,0.0,0.0751244024039808,1819.2102633147317,0.0,0.0,0.0751244024039808,1684,0.0,99,Assisted_Takeoff,
0.0736472892463109,36.87237047319879,3000,2018-04-12 07:30:14,1819.2102633147317,0.0,0.0,0.0803348025707136,1819.2102633147317,0.0,0.0,0.0803348025707136,1684,0.0,99,Assisted_Takeoff,
0.0736473381317925,36.872370432267395,3100,2018-04-12 07:30:14,1819.2102633147317,0.0,0.0,0.0870248027847936,1819.2102633147317,0.0,0.0,0.0870248027847936,1684,0.0,99,Assisted_Takeoff,
0.0736473984876266,36.872370408281,3200,2018-04-12 07:30:14,1819.2102633147317,0.0,0.0,0.0929072029730304,1819.2102633147317,0.0,0.0,0.0929072029730304,1684,0.0,99,P-GPS,
0.0736474891095173,36.87237038957,3300,2018-04-12 07:30:14,1819.2102633147317,0.0,0.35999970196000003,0.10054500321744,1819.2102633147317,0.0,0.35999970196000003,0.10054500321744,1684,0.0,99,P-GPS,
0.0736476176713033,36.8723703248874,3400,2018-04-12 07:30:14,1819.3102633179317,0.10000000320000002,0.35999970196000003,0.11524600368787202,1819.3102633179317,0.10000000320000002,0.35999970196000003,0.11524600368787202,1684,0.0,99,P-GPS,
0.0736477447159901,36.8723703004897,3500,2018-04-12 07:30:14,1819.4102633211317,0.20000000640000004,0.35999970196000003,0.126962004062784,1819.4102633211317,0.20000000640000004,0.35999970196000003,0.126962004062784,1684,0.0,99,P-GPS,
0.0736478753410147,36.87237036188571,3600,2018-04-12 07:30:14,1819.6102633275316,0.4000000128000001,0.35999970196000003,0.13341000426912,1819.6102633275316,0.4000000128000001,0.35999970196000003,0.13341000426912,1684,0.0,99,P-GPS,
0.0736480255295547,36.8723703977392,3700,2018-04-12 07:30:14,1819.8102633339315,0.6000000192,0.35999970196000003,0.144754004632128,1819.8102633339315,0.6000000192,0.35999970196000003,0.144754004632128,1684,0.0,99,P-GPS,
0.0736481346426305,36.8723703340663,3800,2018-04-12 07:30:14,1820.0102633403317,0.8000000256000002,0.35999970196000003,0.158792005081344,1820.0102633403317,0.8000000256000002,0.35999970196000003,0.158792005081344,1684,0.0,99,P-GPS,
0.07364823776873199,36.8723702385944,3900,2018-04-12 07:30:15,1820.3102633499318,1.1000000352,0.35999970196000003,0.174187005573984,1820.3102633499318,1.1000000352,0.35999970196000003,0.174187005573984,1684,0.0,99,P-GPS,Home Point Recorded. RTH Altitude:  45m.
0.0736483934994776,36.8723702320535,4000,2018-04-12 07:30:15,1820.7102633627317,1.5000000480000002,0.35999970196000003,0.18926500605648,1820.7102633627317,1.5000000480000002,0.35999970196000003,0.18926500605648,1684,0.0,99,P-GPS,
0.0736485440684629,36.8723702738826,4100,2018-04-12 07:30:15,1821.1102633755318,1.9000000607999998,0.35999970196000003,0.20169000645408003,1821.1102633755318,1.9000000607999998,0.35999970196000003,0.20169000645408003,1684,0.0,99,P-GPS,
0.0736486821943041,36.8723702847912,4200,2018-04-12 07:30:15,1821.5102633883316,2.3000000736,0.0,0.21496600687891199,1821.5102633883316,2.3000000736,0.35999970196000003,0.21496600687891199,1684,0.0,99,P-GPS,
0.0736488721645096,36.8723702324318,4400,2018-04-12 07:30:15,1822.5102634203315,3.3000001056,0.0,0.236606007571392,1822.5102634203315,3.3000001056,0.35999970196000003,0.236606007571392,1684,0.0,99,P-GPS,
0.0736489414100195,36.87237018178679,4500,2018-04-12 07:30:15,1823.0102634363318,3.8000001215999997,0.0,0.24594100787011203,1823.0102634363318,3.8000001215999997,0.35999970196000003,0.24594100787011203,1684,0.0,99,P-GPS,
0.0736489900044168,36.8723701738936,4600,2018-04-12 07:30:15,1823.5102634523316,4.3000001376,0.0,0.251227008039264,1823.5102634523316,4.3000001376,0.35999970196000003,0.251227008039264,1684,0.0,99,P-GPS,
0.073648937527809,36.872370078463,4800,2018-04-12 07:30:15,1824.5102634843317,5.3000001696,0.0,0.250542008017344,1824.5102634843317,5.3000001696,0.35999970196000003,0.251227008039264,1684,0.0,99,P-GPS,
0.0736488483310104,36.872370009309996,5000,2018-04-12 07:30:16,1825.5102635163316,6.300000201600001,0.0,0.24544800785433601,1825.5102635163316,6.300000201600001,0.35999970196000003,0.251227008039264,1684,0.0,99,P-GPS,
0.0736488369062544,36.8723700556052,5200,2018-04-12 07:30:16,1826.5102635483317,7.3000002336000005,0.0,0.24183100773859198,1826.5102635483317,7.3000002336000005,0.35999970196000003,0.251227008039264,1684,0.0,99,P-GPS,
0.0736488449084282,36.8723700883587,5300,2018-04-12 07:30:16,1827.0102635643316,7.8000002496,0.0,0.24089000770848004,1827.0102635643316,7.8000002496,0.35999970196000003,0.251227008039264,1684,0.0,99,P-GPS,
0.0736488515622504,36.8723701261202,5400,2018-04-12 07:30:16,1827.4102635771317,8.200000262400001,0.0,0.23961900766780803,1827.4102635771317,8.200000262400001,0.35999970196000003,0.251227008039264,1684,0.0,99,P-GPS,
0.0736488633631769,36.8723701621252,5500,2018-04-12 07:30:16,1827.9102635931315,8.700000278400001,0.0,0.239017007648544,1827.9102635931315,8.700000278400001,0.35999970196000003,0.251227008039264,1684,0.0,99,P-GPS,
0.0736488862867831,36.8723702401222,5700,2018-04-12 07:30:16,1828.8102636219317,9.6000003072,0.0,0.23769600760627202,1828.8102636219317,9.6000003072,0.35999970196000003,0.251227008039264,1684,0.0,99,P-GPS,
0.0736488938789961,36.8723702853549,5800,2018-04-12 07:30:16,1829.3102636379317,10.100000323200002,0.0,0.23649800756793604,1829.3102636379317,10.100000323200002,0.35999970196000003,0.251227008039264,1684,0.0,99,P-GPS,
0.0736488938085659,36.8723703326291,5900,2018-04-12 07:30:17,1829.8102636539315,10.6000003392,0.0,0.234529007504928,1829.8102636539315,10.6000003392,0.35999970196000003,0.251227008039264,1684,0.0,99,P-GPS,
0.0736488293132272,36.87237052510879,6100,2018-04-12 07:30:17,1830.7102636827317,11.500000367999998,0.0,0.22074600706387199,1830.7102636827317,11.500000367999998,0.35999970196000003,0.251227008039264,1684,0.0,99,P-GPS,
0.0736487795414649,36.8723706419423,6200,2018-04-12 07:30:17,1831.2102636987315,12.000000384000002,0.0,0.21196500678288,1831.2102636987315,12.000000384000002,0.35999970196000003,0.251227008039264,1684,0.0,99,P-GPS,
0.0736487301328455,36.87237072523521,6300,2018-04-12 07:30:17,1831.6102637115316,12.4000003968,0.0,0.204552006545664,1831.6102637115316,12.4000003968,0.35999970196000003,0.251227008039264,1684,0.0,99,P-GPS,
0.0736486538369874,36.8723707944906,6400,2018-04-12 07:30:17,1832.1102637275314,12.900000412799999,0.0,0.19476400623244802,1832.1102637275314,12.900000412799999,0.35999970196000003,0.251227008039264,1684,0.0,99,P-GPS,
0.0736485825933768,36.872370863404896,6500,2018-04-12 07:30:17,1832.6102637435317,13.4000004288,0.0,0.18573100594339198,1832.6102637435317,13.4000004288,0.35999970196000003,0.251227008039264,1684,0.0,99,P-GPS,
0.0736485027070032,36.872370980191796,6600,2018-04-12 07:30:17,1833.1102637595316,13.9000004448,0.0,0.17548400561548802,1833.1102637595316,13.9000004448,0.35999970196000003,0.251227008039264,1684,0.0,99,P-GPS,
0.0736484282270636,36.872371086364105,6700,2018-04-12 07:30:17,1833.5102637723317,14.300000457600001,0.0,0.166706005334592,1833.5102637723317,14.300000457600001,0.35999970196000003,0.251227008039264,1684,0.0,99,P-GPS,
0.0736482727892343,36.872371128565796,6800,2018-04-12 07:30:18,1834.0102637883315,14.8000004736,0.0,0.14944900478236803,1834.0102637883315,14.8000004736,0.35999970196000003,0.251227008039264,1684,-6.7,99,P-GPS,
0.0736478202330449,36.8723711092747,7100,2018-04-12 07:30:18,1835.5102638363317,16.3000005216,0.0,0.0990926031709632,1835.5102638363317,16.3000005216,0.35999970196000003,0.251227008039264,1684,-9.4,99,P-GPS,
0.0736476644560922,36.8723710640585,7200,2018-04-12 07:30:18,1836.0102638523317,16.8000005376,0.0,0.0818581026194592,1836.0102638523317,16.8000005376,0.35999970196000003,0.251227008039264,1684,-9.4,99,P-GPS,
0.0736475221555313,36.8723710418432,7300,2018-04-12 07:30:18,1836.5102638683315,17.3000005536,0.0,0.0662494021199808,1836.5102638683315,17.3000005536,0.35999970196000003,0.251227008039264,1684,-12.2,99,P-GPS,
0.0736472145387963,36.8723710404922,7500,2018-04-12 07:30:18,1837.6102639035316,18.4000005888,0.0,0.0324008010368256,1837.6102639035316,18.4000005888,0.35999970196000003,0.251227008039264,1684,-13.4,99,P-GPS,
0.07364710817086999,36.872371063723,7600,2018-04-12 07:30:18,1838.1102639195317,18.900000604800002,0.0,0.020294400649420802,1838.1102639195317,18.900000604800002,0.35999970196000003,0.251227008039264,1684,-13.4,99,P-GPS,
0.0736470185926084,36.8723710833293,7700,2018-04-12 07:30:18,1838.7102639387317,19.500000624000002,0.0,0.0101004003232128,1838.7102639387317,19.500000624000002,0.35999970196000003,0.251227008039264,1684,-13.4,99,P-GPS,
0.0736469404268894,36.8723710967592,7800,2018-04-12 07:30:18,1839.2102639547315,20.00000064,0.0,0.0012831200410598402,1839.2102639547315,20.00000064,0.35999970196000003,0.251227008039264,1684,-13.4,99,P-GPS,
0.0736468500181214,36.8723711107582,7900,2018-04-12 07:30:19,1839.8102639739316,20.600000659200003,0.0,0.00889598028467136,1839.8102639739316,20.600000659200003,0.35999970196000003,0.251227008039264,1684,-13.4,99,P-GPS,
0.0736467820420854,36.872371125955894,8000,2018-04-12 07:30:19,1840.3102639899316,21.1000006752,0.0,0.016629200532134403,1840.3102639899316,21.1000006752,0.35999970196000003,0.251227008039264,1684,-13.4,99,P-GPS,
0.0736467046682991,36.872371140552204,8100,2018-04-12 07:30:19,1840.9102640091314,21.700000694400003,0.0,0.0253852008123264,1840.9102640091314,21.700000694400003,0.35999970196000003,0.251227008039264,1684,-13.4,99,P-GPS,
0.0736466701354139,36.8723712233431,8200,2018-04-12 07:30:19,1841.5102640283317,22.3000007136,0.0,0.0319344010219008,1841.5102640283317,22.3000007136,0.35999970196000003,0.251227008039264,1684,-13.4,99,P-GPS,
0.0736466465113733,36.8723712943586,8300,2018-04-12 07:30:19,1842.0102640443315,22.8000007296,0.0,0.03818390122188481,1842.0102640443315,22.8000007296,0.35999970196000003,0.251227008039264,1684,-13.4,99,P-GPS,
0.0736467125955645,36.8723713852641,8400,2018-04-12 07:30:19,1842.6102640635318,23.400000748800004,0.0,0.039878501276112005,1842.6102640635318,23.400000748800004,0.35999970196000003,0.251227008039264,1684,-13.4,99,P-GPS,
0.0736467729146568,36.8723714640287,8500,2018-04-12 07:30:19,1843.2102640827316,24.000000768000003,0.0,0.0441086014114752,1843.2102640827316,24.000000768000003,0.35999970196000003,0.251227008039264,1684,-13.5,99,P-GPS,
0.0736469975647146,36.8723717855932,8800,2018-04-12 07:30:19,1844.9102641371317,25.7000008224,0.0,0.076677002453664,1844.9102641371317,25.7000008224,0.35999970196000003,0.251227008039264,1684,-14.0,99,P-GPS,
0.0736470454655983,36.87237183538689,8900,2018-04-12 07:30:20,1845.4102641531315,26.200000838399998,0.0,0.08285150265124801,1845.4102641531315,26.200000838399998,0.35999970196000003,0.251227008039264,1684,-14.9,99,P-GPS,
0.0736471252446982,36.8723719045764,9000,2018-04-12 07:30:20,1846.0102641723317,26.8000008576,0.0,0.0921468029486976,1846.0102641723317,26.8000008576,0.35999970196000003,0.251227008039264,1684,-16.9,99,P-GPS,
0.0736472834653347,36.8723720592792,9200,2018-04-12 07:30:20,1847.2102642107316,28.000000896,0.0,0.11377300364073599,1847.2102642107316,28.000000896,0.35999970196000003,0.251227008039264,1684,-18.9,99,P-GPS,
0.0736473892730763,36.8723722473504,9400,2018-04-12 07:30:20,1848.4102642491316,29.200000934400002,0.0,0.13752000440064,1848.4102642491316,29.200000934400002,0.35999970196000003,0.251227008039264,1684,-19.2,99,P-GPS,
0.0736474144250045,36.87237231976779,9500,2018-04-12 07:30:20,1849.0102642683319,29.8000009536,0.0,0.146037004673184,1849.0102642683319,29.8000009536,0.35999970196000003,0.251227008039264,1684,-19.2,99,P-GPS,
0.0736473998907347,36.8723723734426,9600,2018-04-12 07:30:20,1849.6102642875317,30.400000972799997,0.0,0.151032004833024,1849.6102642875317,30.400000972799997,0.35999970196000003,0.251227008039264,1684,-19.2,99,P-GPS,
0.0736473851685832,36.87237240969821,9700,2018-04-12 07:30:20,1850.3102643099317,31.100000995200002,0.0,0.15427400493676802,1850.3102643099317,31.100000995200002,0.35999970196000003,0.251227008039264,1684,-19.2,99,P-GPS,
0.0736473526603628,36.8723724031179,9800,2018-04-12 07:30:20,1850.8102643259315,31.6000010112,0.0,0.152428004877696,1850.8102643259315,31.6000010112,0.35999970196000003,0.251227008039264,1684,-19.2,99,P-GPS,
0.07364732376911999,36.872372368329295,9900,2018-04-12 07:30:21,1851.4102643451317,32.2000010304,0.0,0.14776800472857599,1851.4102643451317,32.2000010304,0.35999970196000003,0.251227008039264,1684,-19.2,99,P-GPS,
0.0736472906518616,36.872372291208,10000,2018-04-12 07:30:21,1852.0102643643315,32.800001049600006,0.0,0.138488004431616,1852.0102643643315,32.800001049600006,0.35999970196000003,0.251227008039264,1684,-19.2,99,P-GPS,
0.0736472569363535,36.8723722143075,10100,2018-04-12 07:30:21,1852.6102643835316,33.4000010688,0.0,0.129221004135072,1852.6102643835316,33.4000010688,0.35999970196000003,0.251227008039264,1684,-19.2,99,P-GPS,
0.0736472217580956,36.8723721172126,10200,2018-04-12 07:30:21,1853.2102644027316,34.000001088000005,0.0,0.11776000376832002,1853.2102644027316,34.000001088000005,0.35999970196000003,0.251227008039264,1684,-19.2,99,P-GPS,
0.0736471746115886,36.872372035705794,10300,2018-04-12 07:30:21,1853.8102644219316,34.6000011072,0.0,0.10763000344416,1853.8102644219316,34.6000011072,0.35999970196000003,0.251227008039264,1684,-19.2,99,P-GPS,
0.0736471387105051,36.872371972010704,10400,2018-04-12 07:30:21,1854.4102644411316,35.2000011264,0.0,0.09978780319320961,1854.4102644411316,35.2000011264,0.35999970196000003,0.251227008039264,1684,-19.2,99,P-GPS,
0.0736470892868227,36.8723719253924,10500,2018-04-12 07:30:21,1855.0102644603317,35.8000011456,0.0,0.09355500299376,1855.0102644603317,35.8000011456,0.35999970196000003,0.251227008039264,1684,-19.2,99,P-GPS,
0.0736469566529089,36.8723717933355,10700,2018-04-12 07:30:21,1856.1102644955315,36.900001180800004,0.0,0.0772207024710624,1856.1102644955315,36.900001180800004,0.35999970196000003,0.251227008039264,1684,-19.2,99,P-GPS,
0.0736468975403919,36.872371775868295,10800,2018-04-12 07:30:21,1856.7102645147318,37.5000012,0.0,0.07530030240960961,1856.7102645147318,37.5000012,0.35999970196000003,0.251227008039264,1684,-19.2,99,P-GPS,
0.0736468425777607,36.8723717628803,10900,2018-04-12 07:30:21,1857.3102645339316,38.1000012192,0.0,0.07440000238080001,1857.3102645339316,38.1000012192,0.35999970196000003,0.251227008039264,1684,-19.2,99,P-GPS,
0.0736468006732149,36.8723717394738,11000,2018-04-12 07:30:21,1857.8102645499318,38.600001235200004,0.0,0.07259200232294401,1857.8102645499318,38.600001235200004,0.35999970196000003,0.251227008039264,1684,-19.2,99,P-GPS,
0.0736467414645179,36.872371718232706,11100,2018-04-12 07:30:22,1858.4102645691316,39.2000012544,0.0,0.071906502301008,1858.4102645691316,39.2000012544,0.35999970196000003,0.251227008039264,1684,-19.2,99,P-GPS,
0.073646638553371,36.8723716850823,11200,2018-04-12 07:30:22,1858.9102645851315,39.7000012704,0.0,0.0727026023264832,1858.9102645851315,39.7000012704,0.35999970196000003,0.251227008039264,1684,-19.2,99,P-GPS,
0.0736465378509032,36.8723716619186,11300,2018-04-12 07:30:22,1859.5102646043317,40.3000012896,0.0,0.0761983024383456,1859.5102646043317,40.3000012896,0.35999970196000003,0.251227008039264,1684,-19.2,99,P-GPS,
0.0736463966581931,36.8723715658845,11500,2018-04-12 07:30:22,1860.6102646395316,41.4000013248,0.0,0.0787246025191872,1860.6102646395316,41.4000013248,0.35999970196000003,0.251227008039264,1684,-19.2,99,P-GPS,
0.0736463361836861,36.872371528212796,11600,2018-04-12 07:30:22,1861.2102646587316,42.000001344,0.0,0.08137780260408961,1861.2102646587316,42.000001344,0.35999970196000003,0.251227008039264,1684,-19.2,99,P-GPS,
0.0736462946581607,36.8723714909701,11700,2018-04-12 07:30:22,1861.8102646779316,42.60000136320001,0.0,0.08291560265329921,1861.8102646779316,42.60000136320001,0.35999970196000003,0.251227008039264,1684,-19.2,99,P-GPS,
0.0736462757224103,36.8723714452079,11800,2018-04-12 07:30:22,1862.3102646939315,43.1000013792,0.0,0.08221560263089919,1862.3102646939315,43.1000013792,0.35999970196000003,0.251227008039264,1684,-19.2,99,P-GPS,
0.0736462533445364,36.872371413707796,11900,2018-04-12 07:30:23,1862.9102647131317,43.700001398400005,0.0,0.08288680265237759,1862.9102647131317,43.700001398400005,0.35999970196000003,0.251227008039264,1684,-19.2,99,P-GPS,
0.0736462322864147,36.8723713790281,12000,2018-04-12 07:30:23,1863.4102647291315,44.2000014144,0.0,0.08350490267215681,1863.4102647291315,44.2000014144,0.35999970196000003,0.251227008039264,1684,-19.2,99,P-GPS,
0.0736462191153561,36.872371358730604,12100,2018-04-12 07:30:23,1863.9102647451316,44.7000014304,0.0,0.084065502690096,1863.9102647451316,44.7000014304,0.35999970196000003,0.251227008039264,1684,-19.2,99,P-GPS,
0.0736462278292617,36.8723713565099,12200,2018-04-12 07:30:23,1864.5102647643316,45.3000014496,0.0,0.0830706026582592,1864.5102647643316,45.3000014496,0.35999970196000003,0.251227008039264,1684,-19.2,99,P-GPS,
0.07364622747008799,36.8723713528165,12300,2018-04-12 07:30:23,1865.0102647803315,45.800001465600005,0.0,0.08296770265496639,1865.0102647803315,45.800001465600005,0.35999970196000003,0.251227008039264,1684,-19.2,99,P-GPS,
0.0736462303234272,36.8723713631461,12400,2018-04-12 07:30:23,1865.6102647995317,46.4000014848,0.0,0.0830678026581696,1865.6102647995317,46.4000014848,0.35999970196000003,0.251227008039264,1684,-19.2,99,P-GPS,
0.0736462302102504,36.8723713730512,12500,2018-04-12 07:30:23,1866.1102648155315,46.9000015008,0.0,0.0834747026711904,1866.1102648155315,46.9000015008,0.35999970196000003,0.251227008039264,1684,-19.2,99,P-GPS,
0.0736462456452532,36.872371350433504,12600,2018-04-12 07:30:23,1866.6102648315316,47.400001516799996,0.0,0.0809778025912896,1866.6102648315316,47.400001516799996,0.35999970196000003,0.251227008039264,1684,-19.2,99,P-GPS,
0.0736462590688224,36.8723713412517,12700,2018-04-12 07:30:23,1867.1102648475317,47.900001532800005,0.0,0.0792258025352256,1867.1102648475317,47.900001532800005,0.35999970196000003,0.251227008039264,1684,-19.2,99,P-GPS,
0.0736462380766526,36.8723713366886,12800,2018-04-12 07:30:23,1867.6102648635315,48.4000015488,0.0,0.08125950260030401,1867.6102648635315,48.4000015488,0.35999970196000003,0.251227008039264,1684,-19.2,99,P-GPS,
0.0736462071883269,36.8723713378369,12900,2018-04-12 07:30:23,1868.1102648795315,48.9000015648,0.0,0.0845557027057824,1868.1102648795315,48.9000015648,0.35999970196000003,0.251227008039264,1684,-19.2,99,P-GPS,
0.0736462084979012,36.872371341232096,13000,2018-04-12 07:30:24,1868.7102648987316,49.500001584,0.0,0.0845368027051776,1868.7102648987316,49.500001584,0.35999970196000003,0.251227008039264,1684,-19.2,99,P-GPS,
0.0736462100464497,36.87237135479229,13100,2018-04-12 07:30:24,1869.2102649147316,50.000001600000004,0.0,0.08486600271571201,1869.2102649147316,50.000001600000004,0.35999970196000003,0.251227008039264,1684,-19.2,99,P-GPS,
0.0736462180833297,36.8723713693546,13200,2018-04-12 07:30:24,1869.7102649307317,50.500001616000006,0.0,0.0845852027067264,1869.7102649307317,50.500001616000006,0.35999970196000003,0.251227008039264,1684,-19.2,99,P-GPS,
0.0736462134066421,36.8723713893809,13300,2018-04-12 07:30:24,1870.2102649467317,51.000001632,0.0,0.08588260274824319,1870.2102649467317,51.000001632,0.35999970196000003,0.251227008039264,1684,-19.2,99,P-GPS,
0.0736462169956309,36.8723713966998,13400,2018-04-12 07:30:24,1870.8102649659315,51.600001651199996,0.0,0.085823002746336,1870.8102649659315,51.600001651199996,0.35999970196000003,0.251227008039264,1684,-19.2,99,P-GPS,
0.0736462147110257,36.872371404523,13500,2018-04-12 07:30:24,1871.3102649819316,52.1000016672,0.0,0.08639540276465281,1871.3102649819316,52.1000016672,0.35999970196000003,0.251227008039264,1684,-19.2,99,P-GPS,
0.0736461908492323,36.8723713871594,13600,2018-04-12 07:30:24,1871.8102649979317,52.600001683200006,0.0,0.08812270281992642,1871.8102649979317,52.600001683200006,0.35999970196000003,0.251227008039264,1684,-19.2,99,P-GPS,
0.073646175301765,36.8723713750584,13700,2018-04-12 07:30:24,1872.4102650171317,53.2000017024,0.0,0.0892651028564832,1872.4102650171317,53.2000017024,0.35999970196000003,0.251227008039264,1684,-19.2,99,P-GPS,
0.0736461758831195,36.8723713941827,13800,2018-04-12 07:30:24,1872.9102650331317,53.7000017184,0.0,0.08995710287862721,1872.9102650331317,53.7000017184,0.35999970196000003,0.251227008039264,1684,-19.2,99,P-GPS,
0.07364617395768801,36.87237141954729,13900,2018-04-12 07:30:24,1873.4102650491316,54.200001734400004,0.0,0.0912198029190336,1873.4102650491316,54.200001734400004,0.35999970196000003,0.251227008039264,1684,-19.2,98,P-GPS,
0.0736462102995709,36.8723714808484,14000,2018-04-12 07:30:25,1873.9102650651319,54.700001750400006,0.0,0.090500002896,1873.9102650651319,54.700001750400006,0.35999970196000003,0.251227008039264,1684,-19.2,98,P-GPS,
0.0736462337833618,36.8723715292007,14100,2018-04-12 07:30:25,1874.4102650811317,55.2000017664,0.0,0.0909093029090976,1874.4102650811317,55.2000017664,0.35999970196000003,0.251227008039264,1684,-19.2,98,P-GPS,
0.073646263370459,36.8723715733343,14300,2018-04-12 07:30:25,1875.4102651131316,56.2000017984,0.0,0.09088210290822721,1875.4102651131316,56.2000017984,0.35999970196000003,0.251227008039264,1684,-19.2,98,P-GPS,
0.07364630834452,36.87237160789021,14400,2018-04-12 07:30:25,1875.9102651291316,56.700001814400004,0.0,0.0892394028556608,1875.9102651291316,56.700001814400004,0.35999970196000003,0.251227008039264,1684,-19.2,98,P-GPS,
0.0736463378372692,36.8723716343293,14500,2018-04-12 07:30:25,1876.5102651483314,57.3000018336,0.0,0.088671502837488,1876.5102651483314,57.3000018336,0.35999970196000003,0.251227008039264,1684,-19.2,98,P-GPS,
0.0736463672190807,36.87237172102171,14700,2018-04-12 07:30:25,1877.5102651803315,58.30000186560001,0.0,0.0931843029818976,1877.5102651803315,58.30000186560001,0.35999970196000003,0.251227008039264,1684,-19.2,98,P-GPS,
0.0736463676242579,36.8723717426042,14800,2018-04-12 07:30:25,1878.0102651963316,58.8000018816,0.0,0.094948503038352,1878.0102651963316,58.8000018816,0.35999970196000003,0.251227008039264,1684,-19.2,98,P-GPS,
0.0736463622798065,36.8723717511814,15000,2018-04-12 07:30:25,1879.0102652283317,59.800001913600006,0.0,0.09605810307385919,1879.0102652283317,59.800001913600006,0.35999970196000003,0.251227008039264,1684,-19.2,98,P-GPS,
0.07364636260519,36.872371745934,15100,2018-04-12 07:30:26,1879.6102652475315,60.40000193280001,0.0,0.0955947030590304,1879.6102652475315,60.40000193280001,0.35999970196000003,0.251227008039264,1684,-19.2,98,P-GPS,
0.0736464085009503,36.872371754740705,15200,2018-04-12 07:30:26,1880.1102652635318,60.9000019488,0.0,0.0930751029784032,1880.1102652635318,60.9000019488,0.35999970196000003,0.251227008039264,1684,-19.2,98,P-GPS,
0.0736464379196053,36.872371753147604,15300,2018-04-12 07:30:26,1880.6102652795316,61.400001964800005,0.0,0.0909341029098912,1880.6102652795316,61.400001964800005,0.35999970196000003,0.251227008039264,1684,-19.2,98,P-GPS,
0.0736464908057667,36.8723717568694,15400,2018-04-12 07:30:26,1881.1102652955315,61.9000019808,0.0,0.08787090281186881,1881.1102652955315,61.9000019808,0.35999970196000003,0.251227008039264,1684,-19.2,98,P-GPS,
0.0736465194621064,36.8723717608924,15500,2018-04-12 07:30:26,1881.6102653115317,62.4000019968,0.0,0.08652350276875201,1881.6102653115317,62.4000019968,0.35999970196000003,0.251227008039264,1684,-19.2,98,P-GPS,
0.0736465317701915,36.872371804821704,15600,2018-04-12 07:30:26,1882.1102653275316,62.9000020128,0.0,0.0900331028810592,1882.1102653275316,62.9000020128,0.35999970196000003,0.251227008039264,1684,-19.2,98,P-GPS,
0.0736465258644358,36.872371823277604,15700,2018-04-12 07:30:26,1882.7102653467318,63.500002032,0.0,0.09214460294862721,1882.7102653467318,63.500002032,0.35999970196000003,0.251227008039264,1684,-19.2,98,P-GPS,
0.0736465603502996,36.872371860029,15800,2018-04-12 07:30:26,1883.2102653627317,64.000002048,0.0,0.0939996030079872,1883.2102653627317,64.000002048,0.35999970196000003,0.251227008039264,1684,-19.2,98,P-GPS,
0.07364658526997099,36.87237186766,15900,2018-04-12 07:30:27,1883.7102653787315,64.500002064,0.0,0.0935977029951264,1883.7102653787315,64.500002064,0.35999970196000003,0.251227008039264,1684,-19.2,98,P-GPS,
0.0736466115309714,36.8723718648898,16000,2018-04-12 07:30:27,1884.2102653947316,65.00000208,0.0,0.09215810294905921,1884.2102653947316,65.00000208,0.35999970196000003,0.251227008039264,1684,-19.2,98,P-GPS,
0.0736466201485952,36.8723718461238,16100,2018-04-12 07:30:27,1884.7102654107316,65.500002096,0.0,0.0898633028756256,1884.7102654107316,65.500002096,0.35999970196000003,0.251227008039264,1684,-19.2,98,P-GPS,
0.0736466615799763,36.8723718717848,16200,2018-04-12 07:30:27,1885.2102654267317,66.000002112,0.0,0.0908952029086464,1885.2102654267317,66.000002112,0.35999970196000003,0.251227008039264,1684,-19.2,98,P-GPS,
0.0736466668693659,36.872371875085605,16300,2018-04-12 07:30:27,1885.7102654427315,66.500002128,0.0,0.09105200291366401,1885.7102654427315,66.500002128,0.35999970196000003,0.251227008039264,1684,-19.2,98,P-GPS,
0.0736466438490709,36.8723718969255,16400,2018-04-12 07:30:27,1886.2102654587318,67.00000214399999,0.0,0.09418730301399361,1886.2102654587318,67.00000214399999,0.35999970196000003,0.251227008039264,1684,-19.2,98,P-GPS,
0.07364659664159899,36.872371911378295,16500,2018-04-12 07:30:27,1886.7102654747316,67.50000216000001,0.0,0.09756870312219841,1886.7102654747316,67.50000216000001,0.35999970196000003,0.251227008039264,1684,-19.2,98,P-GPS,
0.0736465837024919,36.872371964787604,16600,2018-04-12 07:30:27,1887.2102654907314,68.00000217600001,0.0,0.103614003315648,1887.2102654907314,68.00000217600001,0.35999970196000003,0.251227008039264,1684,-19.2,98,P-GPS,
0.0736465858578393,36.8723720143799,16700,2018-04-12 07:30:27,1887.7102655067317,68.500002192,0.0,0.10867100347747201,1887.7102655067317,68.500002192,0.35999970196000003,0.251227008039264,1684,-19.2,98,P-GPS,
0.0736466412849841,36.8723720737052,16800,2018-04-12 07:30:27,1888.2102655227316,69.000002208,0.0,0.11297200361510401,1888.2102655227316,69.000002208,0.35999970196000003,0.251227008039264,1684,-19.2,98,P-GPS,
0.0736466806432541,36.8723721142607,16900,2018-04-12 07:30:28,1888.7102655387316,69.500002224,0.0,0.11618500371792,1888.7102655387316,69.500002224,0.35999970196000003,0.251227008039264,1684,-19.2,98,P-GPS,
0.0736467623506352,36.87237216421679,17000,2018-04-12 07:30:28,1889.2102655547317,70.00000224,0.0,0.1198500038352,1889.2102655547317,70.00000224,0.35999970196000003,0.251227008039264,1684,-19.2,98,P-GPS,
0.0736468134453047,36.872372191344105,17100,2018-04-12 07:30:28,1889.7102655707317,70.50000225600002,0.0,0.12210200390726403,1889.7102655707317,70.50000225600002,0.35999970196000003,0.251227008039264,1684,-19.2,98,P-GPS,
0.0736468798105043,36.8723722316452,17200,2018-04-12 07:30:28,1890.2102655867316,71.000002272,0.0,0.126023004032736,1890.2102655867316,71.000002272,0.35999970196000003,0.251227008039264,1684,-19.2,98,P-GPS,
0.0736469089728829,36.872372257281604,17300,2018-04-12 07:30:28,1890.7102656027314,71.500002288,0.0,0.128774004120768,1890.7102656027314,71.500002288,0.35999970196000003,0.251227008039264,1684,-19.2,98,P-GPS,
0.073646915215523,36.872372271012395,17400,2018-04-12 07:30:28,1891.2102656187317,72.00000230399999,0.0,0.13029000416928,1891.2102656187317,72.00000230399999,0.35999970196000003,0.251227008039264,1684,-19.2,98,P-GPS,
0.0736469047421854,36.872372274776396,17500,2018-04-12 07:30:28,1891.7102656347315,72.50000232,0.0,0.130728004183296,1891.7102656347315,72.50000232,0.35999970196000003,0.251227008039264,1684,-19.2,98,P-GPS,
0.0736469606071781,36.8723723298986,17700,2018-04-12 07:30:28,1892.7102656667316,73.50000235200001,0.0,0.13687400437996802,1892.7102656667316,73.50000235200001,0.35999970196000003,0.251227008039264,1684,-19.2,98,P-GPS,
0.0736470012641322,36.8723723740446,17800,2018-04-12 07:30:28,1893.2102656827317,74.00000236800001,0.0,0.14196500454288002,1893.2102656827317,74.00000236800001,0.35999970196000003,0.251227008039264,1684,-19.2,98,P-GPS,
0.0736470311587,36.8723723918606,17900,2018-04-12 07:30:28,1893.7102656987315,74.500002384,0.0,0.144166004613312,1893.7102656987315,74.500002384,0.35999970196000003,0.251227008039264,1684,-19.2,98,P-GPS,
0.0736471009434284,36.8723723939929,18000,2018-04-12 07:30:29,1894.2102657147318,75.0000024,0.0,0.14521800464697598,1894.2102657147318,75.0000024,0.35999970196000003,0.251227008039264,1684,-19.2,98,P-GPS,
0.0736471473616139,36.872372379994296,18100,2018-04-12 07:30:29,1894.7102657307316,75.50000241600002,0.0,0.14445200462246402,1894.7102657307316,75.50000241600002,0.35999970196000003,0.251227008039264,1684,-19.2,98,P-GPS,
0.0736472109788142,36.872372411324704,18200,2018-04-12 07:30:29,1895.2102657467315,76.000002432,0.0,0.149212004774784,1895.2102657467315,76.000002432,0.35999970196000003,0.251227008039264,1684,-19.2,98,P-GPS,
0.0736472450008768,36.872372429852796,18300,2018-04-12 07:30:29,1895.8102657659317,76.6000024512,0.0,0.152056004865792,1895.8102657659317,76.6000024512,0.35999970196000003,0.251227008039264,1684,-19.2,98,P-GPS,
0.0736472852348426,36.87237246864721,18400,2018-04-12 07:30:29,1896.3102657819315,77.1000024672,0.0,0.157322005034304,1896.3102657819315,77.1000024672,0.35999970196000003,0.251227008039264,1684,-19.2,98,P-GPS,
0.0736472937552687,36.8723724945686,18500,2018-04-12 07:30:29,1896.8102657979316,77.6000024832,0.0,0.160351005131232,1896.8102657979316,77.6000024832,0.35999970196000003,0.251227008039264,1684,-19.2,98,P-GPS,
0.07364732681492099,36.8723725333797,18600,2018-04-12 07:30:29,1897.3102658139317,78.1000024992,0.0,0.16547400529516804,1897.3102658139317,78.1000024992,0.35999970196000003,0.251227008039264,1684,-19.2,98,P-GPS,
0.0736473406330825,36.872372566037704,18700,2018-04-12 07:30:29,1897.7102658267318,78.500002512,0.0,0.16938500542032003,1897.7102658267318,78.500002512,0.35999970196000003,0.251227008039264,1684,-19.2,98,P-GPS,
0.0736473622877237,36.8723726357046,18800,2018-04-12 07:30:29,1898.2102658427316,79.00000252800001,0.0,0.17749500567984003,1898.2102658427316,79.00000252800001,0.35999970196000003,0.251227008039264,1684,-19.2,98,P-GPS,
0.0736473641455747,36.8723726880266,18900,2018-04-12 07:30:29,1898.7102658587316,79.500002544,0.0,0.183157005861024,1898.7102658587316,79.500002544,0.35999970196000003,0.251227008039264,1684,-19.2,98,P-GPS,
0.0736473725188302,36.87237271842729,19000,2018-04-12 07:30:30,1899.2102658747317,80.00000256,0.0,0.186664005973248,1899.2102658747317,80.00000256,0.35999970196000003,0.251227008039264,1684,-19.2,98,P-GPS,
0.0736473708048929,36.8723727253877,19100,2018-04-12 07:30:30,1899.7102658907315,80.500002576,0.0,0.18736000599552002,1899.7102658907315,80.500002576,0.35999970196000003,0.251227008039264,1684,-19.2,98,P-GPS,
0.07364737697242099,36.872372734117896,19200,2018-04-12 07:30:30,1900.2102659067316,81.000002592,0.0,0.18847700603126402,1900.2102659067316,81.000002592,0.35999970196000003,0.251227008039264,1684,-19.2,98,P-GPS,
0.0736473653805459,36.8723727288939,19300,2018-04-12 07:30:30,1900.7102659227317,81.500002608,0.0,0.18758000600256003,1900.7102659227317,81.500002608,0.35999970196000003,0.251227008039264,1684,-19.2,98,P-GPS,
0.0736473985598888,36.8723727294449,19400,2018-04-12 07:30:30,1901.2102659387317,82.00000262399999,0.0,0.18862600603603202,1901.2102659387317,82.00000262399999,0.35999970196000003,0.251227008039264,1684,-19.2,98,P-GPS,
0.0736474149410177,36.872372737898395,19500,2018-04-12 07:30:30,1901.7102659547315,82.50000264,0.0,0.19004000608128002,1901.7102659547315,82.50000264,0.35999970196000003,0.251227008039264,1684,-19.2,98,P-GPS,
0.0736474598522818,36.872372780751206,19700,2018-04-12 07:30:30,1902.7102659867317,83.500002672,0.0,0.196058006273856,1902.7102659867317,83.500002672,0.35999970196000003,0.251227008039264,1684,-19.2,98,P-GPS,
0.0736475270683433,36.8723727985176,19800,2018-04-12 07:30:30,1903.2102660027317,84.000002688,0.0,0.20029900640956802,1903.2102660027317,84.000002688,0.35999970196000003,0.251227008039264,1684,-19.2,98,P-GPS,
0.0736475717096928,36.8723728112926,19900,2018-04-12 07:30:31,1903.7102660187315,84.500002704,0.0,0.20333000650656002,1903.7102660187315,84.500002704,0.35999970196000003,0.251227008039264,1684,-19.2,98,P-GPS,
0.0736476452811641,36.872372890772795,20000,2018-04-12 07:30:31,1904.2102660347316,85.00000272,0.0,0.21452900686492804,1904.2102660347316,85.00000272,0.35999970196000003,0.251227008039264,1684,-19.2,98,P-GPS,
0.0736476848118457,36.8723729514706,20100,2018-04-12 07:30:31,1904.7102660507317,85.500002736,0.0,0.22243400711788802,1904.7102660507317,85.500002736,0.35999970196000003,0.251227008039264,1684,-19.2,98,P-GPS,
0.0736477084018926,36.8723730278265,20200,2018-04-12 07:30:31,1905.2102660667315,86.000002752,0.0,0.23128800740121602,1905.2102660667315,86.000002752,0.35999970196000003,0.251227008039264,1684,-19.2,98,P-GPS,
0.0736477080621584,36.8723730793762,20300,2018-04-12 07:30:31,1905.7102660827318,86.500002768,0.0,0.23659900757116803,1905.7102660827318,86.500002768,0.35999970196000003,0.251227008039264,1684,-19.2,98,P-GPS,
0.0736477322414985,36.872373144779104,20400,2018-04-12 07:30:31,1906.1102660955316,86.9000027808,0.0,0.24435200781926403,1906.1102660955316,86.9000027808,0.35999970196000003,0.251227008039264,1684,-19.2,98,P-GPS,
0.0736477613253047,36.8723732023393,20600,2018-04-12 07:30:31,1907.1102661275315,87.9000028128,0.0,0.251493008047776,1907.1102661275315,87.9000028128,0.35999970196000003,0.251493008047776,1684,-19.2,98,P-GPS,
0.07364777282273,36.872373200157206,20700,2018-04-12 07:30:31,1907.6102661435318,88.4000028288,0.0,0.25174100805571203,1907.6102661435318,88.4000028288,0.35999970196000003,0.25174100805571203,1684,-19.2,98,P-GPS,
0.0736478261609882,36.8723731871784,20800,2018-04-12 07:30:31,1908.1102661595316,88.9000028448,0.0,0.252684008085888,1908.1102661595316,88.9000028448,0.35999970196000003,0.252684008085888,1684,-19.2,98,P-GPS,
0.0736478523319152,36.87237317958971,20900,2018-04-12 07:30:32,1908.7102661787314,89.500002864,0.0,0.253076008098432,1908.7102661787314,89.500002864,0.35999970196000003,0.253076008098432,1684,-19.2,98,P-GPS,
0.0736478769849289,36.872373174864705,21000,2018-04-12 07:30:32,1909.1102661915315,89.9000028768,0.0,0.253722008119104,1909.1102661915315,89.9000028768,0.35999970196000003,0.253722008119104,1684,-19.2,98,P-GPS,
0.0736478842856505,36.8723731704891,21100,2018-04-12 07:30:32,1909.6102662075316,90.4000028928,0.0,0.253618008115776,1909.6102662075316,90.4000028928,0.35999970196000003,0.253722008119104,1684,-19.2,98,P-GPS,
0.0736479283890028,36.872373199787795,21200,2018-04-12 07:30:32,1910.1102662235317,90.9000029088,0.0,0.2586500082768,1910.1102662235317,90.9000029088,0.35999970196000003,0.2586500082768,1684,-19.2,98,P-GPS,
0.0736479403527737,36.8723731970785,21300,2018-04-12 07:30:32,1910.6102662395315,91.40000292479999,0.0,0.258952008286464,1910.6102662395315,91.40000292479999,0.35999970196000003,0.258952008286464,1684,-19.2,98,P-GPS,
0.0736479437710812,36.872373220498794,21400,2018-04-12 07:30:32,1911.1102662555318,91.9000029408,0.0,0.26146500836688,1911.1102662555318,91.9000029408,0.35999970196000003,0.26146500836688,1684,-19.2,98,P-GPS,
0.0736479250771548,36.8723732265724,21500,2018-04-12 07:30:32,1911.6102662715316,92.40000295680002,0.0,0.261186008357952,1911.6102662715316,92.40000295680002,0.35999970196000003,0.26146500836688,1684,-19.2,98,P-GPS,
0.0736479575825254,36.8723732851756,21600,2018-04-12 07:30:32,1912.1102662875314,92.9000029728,0.0,0.26862100859587196,1912.1102662875314,92.9000029728,0.35999970196000003,0.26862100859587196,1684,-19.2,98,P-GPS,
0.0736479689985285,36.872373323016895,21700,2018-04-12 07:30:32,1912.6102663035317,93.4000029888,0.0,0.27297000873504,1912.6102663035317,93.4000029888,0.35999970196000003,0.27297000873504,1684,-19.2,98,P-GPS,
0.0736480330875705,36.872373371962205,21800,2018-04-12 07:30:32,1913.1102663195315,93.9000030048,0.0,0.280951008990432,1913.1102663195315,93.9000030048,0.35999970196000003,0.280951008990432,1684,-19.2,98,P-GPS,
0.07364806864240599,36.8723734045131,21900,2018-04-12 07:30:32,1913.6102663355316,94.4000030208,0.0,0.285941009150112,1913.6102663355316,94.4000030208,0.35999970196000003,0.285941009150112,1599,-19.2,98,P-GPS,
0.0736481550775671,36.872373434509896,22000,2018-04-12 07:30:33,1914.1102663515317,94.9000030368,0.0,0.29327800938489607,1914.1102663515317,94.9000030368,0.35999970196000003,0.29327800938489607,1088,-19.2,98,P-GPS,
0.0736482123055674,36.8723734430188,22100,2018-04-12 07:30:33,1914.6102663675317,95.40000305279999,0.0,0.297119009507808,1914.6102663675317,95.40000305279999,0.35999970196000003,0.297119009507808,1024,-19.2,98,P-GPS,
0.0736482772475069,36.8723734710784,22200,2018-04-12 07:30:33,1915.1102663835316,95.90000306880002,0.0,0.30336300970761604,1915.1102663835316,95.90000306880002,0.35999970196000003,0.30336300970761604,1024,-19.2,98,P-GPS,
0.0736483244149802,36.8723734821029,22300,2018-04-12 07:30:33,1915.6102663995314,96.40000308479999,0.0,0.307046009825472,1915.6102663995314,96.40000308479999,0.35999970196000003,0.307046009825472,1024,-19.2,98,P-GPS,
0.0736484310587242,36.8723734954205,22400,2018-04-12 07:30:33,1915.9102664091315,96.7000030944,0.0,0.31446001006272,1915.9102664091315,96.7000030944,0.35999970196000003,0.31446001006272,1024,-19.2,98,P-GPS,
0.0736485069637558,36.8723734905593,22500,2018-04-12 07:30:33,1916.2102664187316,97.000003104,0.0,0.318572010194304,1916.2102664187316,97.000003104,0.35999970196000003,0.318572010194304,1024,-19.2,98,P-GPS,
0.0736486105985424,36.8723735242533,22600,2018-04-12 07:30:33,1916.4102664251318,97.2000031104,0.0,0.328134010500288,1916.4102664251318,97.2000031104,0.35999970196000003,0.328134010500288,1024,-19.2,98,P-GPS,
0.0736487780408537,36.872373591144,22800,2018-04-12 07:30:33,1916.6102664315315,97.40000311680002,0.0,0.34503501104112,1916.6102664315315,97.40000311680002,0.35999970196000003,0.34503501104112,1024,-19.2,98,P-GPS,
0.0736488464969754,36.872373619685604,22900,2018-04-12 07:30:34,1916.7102664347315,97.50000312,0.0,0.35214501126864,1916.7102664347315,97.50000312,0.35999970196000003,0.35214501126864,1024,-19.2,98,P-GPS,
0.0736490871980967,36.8723737050757,23200,2018-04-12 07:30:34,1916.8102664379317,97.6000031232,0.0,0.376231012039392,1916.8102664379317,97.6000031232,0.35999970196000003,0.376231012039392,1024,-19.2,98,P-GPS,
0.0736491817272352,36.8723737260013,23300,2018-04-12 07:30:34,1916.8102664379317,97.6000031232,0.0,0.384786012313152,1916.8102664379317,97.6000031232,0.35999970196000003,0.384786012313152,991,-19.2,98,P-GPS,
0.0736493099256747,36.87237379198611,23400,2018-04-12 07:30:34,1916.8102664379317,97.6000031232,0.0,0.399682012789824,1916.8102664379317,97.6000031232,0.35999970196000003,0.399682012789824,839,-19.2,98,P-GPS,
0.0736494195814294,36.8723738460209,23500,2018-04-12 07:30:34,1916.8102664379317,97.6000031232,0.0,0.412294013193408,1916.8102664379317,97.6000031232,0.35999970196000003,0.412294013193408,754,-19.2,98,P-GPS,
0.0736495524062782,36.87237392965471,23600,2018-04-12 07:30:34,1916.8102664379317,97.6000031232,0.0,0.42913101373219203,1916.8102664379317,97.6000031232,0.35999970196000003,0.42913101373219203,735,-19.2,98,P-GPS,
0.0736496519787078,36.872373989424794,23700,2018-04-12 07:30:34,1916.8102664379317,97.6000031232,0.0,0.44154801412953604,1916.8102664379317,97.6000031232,0.35999970196000003,0.44154801412953604,734,-19.2,98,P-GPS,
0.0736497544062067,36.872374107979,23800,2018-04-12 07:30:34,1916.8102664379317,97.6000031232,0.0,0.458956014686592,1916.8102664379317,97.6000031232,0.35999970196000003,0.458956014686592,752,-19.2,98,P-GPS,
0.0736498496156277,36.8723742089668,23900,2018-04-12 07:30:35,1916.7102664347315,97.50000312,0.0,0.47439001518047996,1916.8102664379317,97.6000031232,0.35999970196000003,0.47439001518047996,899,-19.2,98,P-GPS,
0.0736500950078891,36.8723743552238,24100,2018-04-12 07:30:35,1916.5102664283318,97.3000031136,0.0,0.505004016160128,1916.8102664379317,97.6000031232,0.35999970196000003,0.505004016160128,968,-19.2,98,P-GPS,
0.0736502623301027,36.8723743538696,24200,2018-04-12 07:30:35,1916.5102664283318,97.3000031136,0.0,0.5180420165773439,1916.8102664379317,97.6000031232,0.35999970196000003,0.5180420165773439,1024,-19.2,98,P-GPS,
0.0736504227175875,36.8723743171188,24300,2018-04-12 07:30:35,1916.5102664283318,97.3000031136,0.35999970196000003,0.5281730169015361,1916.8102664379317,97.6000031232,0.35999970196000003,0.5281730169015361,1024,-19.2,98,P-GPS,
0.0736506351130953,36.8723742888735,24400,2018-04-12 07:30:35,1916.5102664283318,97.3000031136,0.0,0.543727017399264,1916.8102664379317,97.6000031232,0.35999970196000003,0.543727017399264,1024,-19.2,98,P-GPS,
0.073650979640142,36.8723743372249,24600,2018-04-12 07:30:35,1916.4102664251318,97.2000031104,0.0,0.576654018452928,1916.8102664379317,97.6000031232,0.35999970196000003,0.576654018452928,1024,-19.2,98,P-GPS,
0.0736511023303696,36.8723744014571,24700,2018-04-12 07:30:35,1916.4102664251318,97.2000031104,0.0,0.591778018936896,1916.8102664379317,97.6000031232,0.35999970196000003,0.591778018936896,1024,-19.2,98,P-GPS,
0.0736512370267077,36.8723745118196,24800,2018-04-12 07:30:35,1916.4102664251318,97.2000031104,0.0,0.61114001955648,1916.8102664379317,97.6000031232,0.35999970196000003,0.61114001955648,950,-19.2,98,P-GPS,
0.0736513179111139,36.872374586568,24900,2018-04-12 07:30:36,1916.4102664251318,97.2000031104,0.0,0.6233530199472961,1916.8102664379317,97.6000031232,0.35999970196000003,0.6233530199472961,781,-19.2,98,P-GPS,
0.0736515319802551,36.87237474609879,25100,2018-04-12 07:30:36,1916.4102664251318,97.2000031104,0.0,0.6530290208969279,1916.8102664379317,97.6000031232,0.35999970196000003,0.6530290208969279,756,-19.2,98,P-GPS,
0.0736516881610619,36.8723748265391,25200,2018-04-12 07:30:36,1916.3102664219316,97.10000310720001,0.0,0.672208021510656,1916.8102664379317,97.6000031232,0.35999970196000003,0.672208021510656,728,-19.2,98,P-GPS,
0.0736517887492334,36.8723748786935,25300,2018-04-12 07:30:36,1916.3102664219316,97.10000310720001,0.0,0.6845950219070399,1916.8102664379317,97.6000031232,0.35999970196000003,0.6845950219070399,732,-19.2,98,P-GPS,
0.0736519313341613,36.8723749607592,25400,2018-04-12 07:30:36,1916.2102664187316,97.000003104,0.0,0.702719022487008,1916.8102664379317,97.6000031232,0.35999970196000003,0.702719022487008,784,-19.2,98,P-GPS,
0.0736521851108738,36.8723750523707,25600,2018-04-12 07:30:36,1915.9102664091315,96.7000030944,0.0,0.731342023402944,1916.8102664379317,97.6000031232,0.35999970196000003,0.731342023402944,813,-19.2,98,P-GPS,
0.0736523072523158,36.8723750883838,25700,2018-04-12 07:30:36,1915.8102664059315,96.60000309120001,0.0,0.744621023827872,1916.8102664379317,97.6000031232,0.35999970196000003,0.744621023827872,846,-19.2,98,P-GPS,
0.0736525284748043,36.8723751988218,25800,2018-04-12 07:30:36,1915.8102664059315,96.60000309120001,0.0,0.7717110246947521,1916.8102664379317,97.6000031232,0.35999970196000003,0.7717110246947521,875,-19.2,98,P-GPS,
0.0736526385388914,36.8723752126482,25900,2018-04-12 07:30:37,1915.7102664027318,96.50000308800001,0.35999970196000003,0.782519025040608,1916.8102664379317,97.6000031232,0.35999970196000003,0.782519025040608,912,-19.2,98,P-GPS,
0.0736527240151026,36.872375273906606,26000,2018-04-12 07:30:37,1915.7102664027318,96.50000308800001,0.0,0.7942130254148161,1916.8102664379317,97.6000031232,0.35999970196000003,0.7942130254148161,926,-19.2,98,P-GPS,
0.0736527629072306,36.872375326401894,26100,2018-04-12 07:30:37,1915.6102663995314,96.40000308479999,0.0,0.801138025636416,1916.8102664379317,97.6000031232,0.35999970196000003,0.801138025636416,947,-19.2,98,P-GPS,
0.0736528803693387,36.872375459907204,26200,2018-04-12 07:30:37,1915.6102663995314,96.40000308479999,0.0,0.8204380262540161,1916.8102664379317,97.6000031232,0.35999970196000003,0.8204380262540161,894,-19.2,98,P-GPS,
0.0736529324600053,36.8723755428409,26300,2018-04-12 07:30:37,1915.5102663963316,96.3000030816,0.0,0.8305710265782721,1916.8102664379317,97.6000031232,0.35999970196000003,0.8305710265782721,800,-19.2,98,P-GPS,
0.07365301084841401,36.8723756942176,26400,2018-04-12 07:30:37,1915.5102663963316,96.3000030816,0.35999970196000003,0.8476340271242879,1916.8102664379317,97.6000031232,0.35999970196000003,0.8476340271242879,780,-19.2,98,P-GPS,
0.0736530383813309,36.8723757869026,26500,2018-04-12 07:30:37,1915.5102663963316,96.3000030816,0.35999970196000003,0.8563140274020481,1916.8102664379317,97.6000031232,0.35999970196000003,0.8563140274020481,789,-19.2,98,P-GPS,
0.0736531299039546,36.8723759547399,26600,2018-04-12 07:30:37,1915.5102663963316,96.3000030816,0.35999970196000003,0.8757930280253761,1916.8102664379317,97.6000031232,0.35999970196000003,0.8757930280253761,884,-19.2,98,P-GPS,
0.0736531549811779,36.872376066171604,26700,2018-04-12 07:30:37,1915.4102663931317,96.2000030784,0.35999970196000003,0.8856650283412801,1916.8102664379317,97.6000031232,0.35999970196000003,0.8856650283412801,974,-19.2,98,P-GPS,
0.0736532679992624,36.872376379441796,26900,2018-04-12 07:30:38,1915.3102663899317,96.10000307520001,0.0,0.917421029357472,1916.8102664379317,97.6000031232,0.35999970196000003,0.917421029357472,1009,-19.2,98,P-GPS,
0.0736533638804165,36.8723765139984,27000,2018-04-12 07:30:38,1915.2102663867315,96.00000307200001,0.0,0.9352020299264641,1916.8102664379317,97.6000031232,0.35999970196000003,0.9352020299264641,974,-19.2,98,P-GPS,
0.0736534129959159,36.8723766007476,27100,2018-04-12 07:30:38,1915.2102663867315,96.00000307200001,0.0,0.9456000302591999,1916.8102664379317,97.6000031232,0.35999970196000003,0.9456000302591999,892,-19.2,98,P-GPS,
0.073653524237368,36.872376741378496,27200,2018-04-12 07:30:38,1915.1102663835316,95.90000306880002,0.35999970196000003,0.9651590308850881,1916.8102664379317,97.6000031232,0.35999970196000003,0.9651590308850881,769,-19.2,98,P-GPS,
0.0736535513330477,36.872376828423704,27300,2018-04-12 07:30:38,1915.2102663867315,96.00000307200001,0.35999970196000003,0.973756031160192,1916.8102664379317,97.6000031232,0.35999970196000003,0.973756031160192,781,-19.2,98,P-GPS,
0.0736536028513162,36.8723770071449,27400,2018-04-12 07:30:38,1915.1102663835316,95.90000306880002,0.35999970196000003,0.9911560317169922,1916.8102664379317,97.6000031232,0.35999970196000003,0.9911560317169922,928,-19.2,98,P-GPS,
0.0736535805481472,36.872377118007606,27500,2018-04-12 07:30:38,1915.1102663835316,95.90000306880002,0.35999970196000003,0.99753003192096,1916.8102664379317,97.6000031232,0.35999970196000003,0.99753003192096,1024,-19.2,98,P-GPS,
0.0736535960981589,36.8723773478988,27700,2018-04-12 07:30:38,1915.0102663803316,95.80000306560001,0.35999970196000003,1.01612003251584,1916.8102664379317,97.6000031232,0.35999970196000003,1.01612003251584,1024,-19.2,98,P-GPS,
0.0736536941353729,36.8723774265915,27800,2018-04-12 07:30:38,1915.0102663803316,95.80000306560001,0.503999582744,1.03006003296192,1916.8102664379317,97.6000031232,0.503999582744,1.03006003296192,1024,-19.2,98,P-GPS,
0.0736537339516428,36.872377418003396,27900,2018-04-12 07:30:39,1915.0102663803316,95.80000306560001,0.503999582744,1.0326500330448,1916.8102664379317,97.6000031232,0.503999582744,1.0326500330448,1024,-19.2,97,P-GPS,
0.0736538456303321,36.87237746889021,28000,2018-04-12 07:30:39,1915.0102663803316,95.80000306560001,0.503999582744,1.04561003345952,1916.8102664379317,97.6000031232,0.503999582744,1.04561003345952,1024,-19.2,97,P-GPS,
0.0736538864570516,36.8723774846045,28100,2018-04-12 07:30:39,1915.0102663803316,95.80000306560001,0.503999582744,1.0501300336041601,1916.8102664379317,97.6000031232,0.503999582744,1.0501300336041601,1024,-19.2,97,P-GPS,
0.0736538570367681,36.872377595433505,28200,2018-04-12 07:30:39,1915.0102663803316,95.80000306560001,1.475998778036,1.05612003379584,1916.8102664379317,97.6000031232,1.475998778036,1.05612003379584,1024,-19.2,97,P-GPS,
0.0736533642118049,36.87237759235929,28300,2018-04-12 07:30:39,1915.0102663803316,95.80000306560001,3.3119972580320005,1.01659003253088,1916.8102664379317,97.6000031232,3.3119972580320005,1.05612003379584,1024,-19.2,97,P-GPS,
0.0736522955804434,36.872377599669704,28400,2018-04-12 07:30:39,1915.0102663803316,95.80000306560001,5.507995439988,0.93737002999584,1916.8102664379317,97.6000031232,5.507995439988,1.05612003379584,1024,-19.2,97,P-GPS,
0.0736507794844263,36.8723774525811,28500,2018-04-12 07:30:39,1915.0102663803316,95.80000306560001,5.507995439988,0.826122026435904,1916.8102664379317,97.6000031232,5.507995439988,1.05612003379584,1024,-19.2,97,P-GPS,
0.0736487742596068,36.8723772532756,28600,2018-04-12 07:30:39,1915.0102663803316,95.80000306560001,8.387993055668,0.7144350228619201,1916.8102664379317,97.6000031232,8.387993055668,1.05612003379584,1024,-19.2,97,P-GPS,
0.0736464384190287,36.8723769263904,28700,2018-04-12 07:30:39,1915.0102663803316,95.80000306560001,8.387993055668,0.650281020808992,1916.8102664379317,97.6000031232,8.387993055668,1.05612003379584,1024,-19.2,97,P-GPS,
0.0736437580995449,36.8723765488925,28800,2018-04-12 07:30:39,1915.0102663803316,95.80000306560001,11.375990581936001,0.7011450224366401,1916.8102664379317,97.6000031232,11.375990581936001,1.05612003379584,1024,-19.2,97,P-GPS,
0.0736408099691129,36.8723760595507,28900,2018-04-12 07:30:40,1915.0102663803316,95.80000306560001,12.491989658011999,0.8759720280311041,1916.8102664379317,97.6000031232,12.491989658011999,1.05612003379584,1024,-19.2,97,P-GPS,
0.073634266406849,36.872374825566,29100,2018-04-12 07:30:40,1915.0102663803316,95.80000306560001,14.327988138008,1.46788004697216,1916.8102664379317,97.6000031232,14.327988138008,1.46788004697216,1024,-19.2,97,P-GPS,
0.0736306849667097,36.872374080023,29200,2018-04-12 07:30:40,1915.0102663803316,95.80000306560001,15.479987184279999,1.8366200587718402,1916.8102664379317,97.6000031232,15.479987184279999,1.8366200587718402,1024,-19.2,97,P-GPS,
0.073626797203227,36.8723732739943,29300,2018-04-12 07:30:40,1915.1102663835316,95.90000306880002,16.523986319964,2.25182007205824,1916.8102664379317,97.6000031232,16.523986319964,2.25182007205824,1024,-19.2,97,P-GPS,
0.0736227712646428,36.8723724398385,29400,2018-04-12 07:30:40,1915.1102663835316,95.90000306880002,16.523986319964,2.69064008610048,1916.8102664379317,97.6000031232,16.523986319964,2.69064008610048,1024,-19.2,97,P-GPS,
0.0736184282273012,36.872371600972,29500,2018-04-12 07:30:40,1915.1102663835316,95.90000306880002,18.647984561528002,3.1699701014390405,1916.8102664379317,97.6000031232,18.647984561528002,3.1699701014390405,1024,-19.2,97,P-GPS,
0.0736139756510458,36.872370756421795,29600,2018-04-12 07:30:40,1915.1102663835316,95.90000306880002,19.367983965447998,3.66484011727488,1916.8102664379317,97.6000031232,19.367983965447998,3.66484011727488,1024,-19.2,97,P-GPS,
0.07360920983055999,36.87236991652029,29700,2018-04-12 07:30:40,1915.2102663867315,96.00000307200001,20.411983101132,4.19669013429408,1916.8102664379317,97.6000031232,20.411983101132,4.19669013429408,1024,-19.2,97,P-GPS,
0.07360434707206,36.87236911896821,29800,2018-04-12 07:30:40,1915.2102663867315,96.00000307200001,21.131982505052,4.74051015169632,1916.8102664379317,97.6000031232,21.131982505052,4.74051015169632,1024,-19.2,97,P-GPS,
0.0735991660048687,36.8723683172493,29900,2018-04-12 07:30:40,1915.2102663867315,96.00000307200001,21.131982505052,5.32056017025792,1916.8102664379317,97.6000031232,21.131982505052,5.32056017025792,1024,-19.2,97,P-GPS,
0.0735937801706155,36.872367505951,30000,2018-04-12 07:30:41,1915.2102663867315,96.00000307200001,22.895981044656,5.923990189567681,1916.8102664379317,97.6000031232,22.895981044656,5.923990189567681,1024,-19.2,97,P-GPS,
0.0735880951000073,36.8723667075647,30100,2018-04-12 07:30:41,1915.2102663867315,96.00000307200001,23.93998018034,6.560920209949441,1916.8102664379317,97.6000031232,23.93998018034,6.560920209949441,1024,-19.2,97,P-GPS,
0.0735821763639699,36.872365869997104,30200,2018-04-12 07:30:41,1915.2102663867315,96.00000307200001,24.659979584260004,7.22436023117952,1916.8102664379317,97.6000031232,24.659979584260004,7.22436023117952,1024,-19.2,97,P-GPS,
0.0735695629578719,36.8723642592885,30400,2018-04-12 07:30:41,1915.2102663867315,96.00000307200001,26.423978123864003,8.63716027638912,1916.8102664379317,97.6000031232,26.423978123864003,8.63716027638912,1024,-19.2,97,P-GPS,
0.0735629009413703,36.8723634908908,30500,2018-04-12 07:30:41,1915.3102663899317,96.10000307520001,27.143977527784003,9.38269030024608,1916.8102664379317,97.6000031232,27.143977527784003,9.38269030024608,1024,-19.2,97,P-GPS,
0.0735559665838947,36.8723627340386,30600,2018-04-12 07:30:41,1915.3102663899317,96.10000307520001,28.187976663468003,10.1583003250656,1916.8102664379317,97.6000031232,28.187976663468003,10.1583003250656,1024,-19.2,97,P-GPS,
0.073548841770123,36.87236201909379,30700,2018-04-12 07:30:41,1915.3102663899317,96.10000307520001,28.187976663468003,10.954600350547201,1916.8102664379317,97.6000031232,28.187976663468003,10.954600350547201,1024,-19.2,97,P-GPS,
0.0735415903285461,36.872361297652205,30800,2018-04-12 07:30:41,1915.4102663931317,96.2000030784,29.627975471307995,11.7649003764768,1916.8102664379317,97.6000031232,29.627975471307995,11.7649003764768,1024,-19.2,97,P-GPS,
0.0735341558433502,36.872360617782505,30900,2018-04-12 07:30:41,1915.4102663931317,96.2000030784,30.347974875227997,12.595100403043201,1916.8102664379317,97.6000031232,30.347974875227997,12.595100403043201,1024,-19.2,97,P-GPS,
0.0735263184680818,36.8723598696886,31000,2018-04-12 07:30:42,1915.4102663931317,96.2000030784,31.067974279147997,13.470700431062403,1916.8102664379317,97.6000031232,31.067974279147997,13.470700431062403,1024,-19.2,97,P-GPS,
0.0735183411899329,36.872359177624,31100,2018-04-12 07:30:42,1915.4102663931317,96.2000030784,31.067974279147997,14.3611004595552,1916.8102664379317,97.6000031232,31.067974279147997,14.3611004595552,1024,-19.2,97,P-GPS,
0.0735100277748878,36.8723584495358,31200,2018-04-12 07:30:42,1915.4102663931317,96.2000030784,32.47197311679201,15.289100489251199,1916.8102664379317,97.6000031232,32.47197311679201,15.289100489251199,1024,-19.2,97,P-GPS,
0.0735016155849437,36.8723577946178,31300,2018-04-12 07:30:42,1915.4102663931317,96.2000030784,32.47197311679201,16.227400519276802,1916.8102664379317,97.6000031232,32.47197311679201,16.227400519276802,1024,-19.2,97,P-GPS,
0.0734929881928685,36.872357132005604,31400,2018-04-12 07:30:42,1915.4102663931317,96.2000030784,33.875971954436,17.189500550064,1916.8102664379317,97.6000031232,33.875971954436,17.189500550064,1024,-19.2,97,P-GPS,
0.0734842483730197,36.8723565475727,31500,2018-04-12 07:30:42,1915.4102663931317,96.2000030784,34.955971060315996,18.1633005812256,1916.8102664379317,97.6000031232,34.955971060315996,18.1633005812256,1024,-19.2,97,P-GPS,
0.0734752400422972,36.872355970486105,31600,2018-04-12 07:30:42,1915.4102663931317,96.2000030784,35.675970464236,19.166900613340804,1916.8102664379317,97.6000031232,35.675970464236,19.166900613340804,1024,-19.2,97,P-GPS,
