latitude,longitude,time_millisecond,datetime_utc,altitude_m,ascent_m,speed_kph,distance_m,max_altitude_m,max_ascent_m,max_speed_kph,max_distance_m,rc_throttle,gimbal_pitch_degrees,battery_percent,flycState,message
0.30753443634155503,36.8793866441519,0,2018-03-31 05:57:32,1770.603328159317,0.0,0.0,0.0,1770.603328159317,0.0,0.0,0.0,364,0.0,100,Motors_Started,
0.30753443773631706,36.879386680851795,100,2018-03-31 05:57:32,1770.603328159317,0.0,0.0,0.00408414013069248,1770.603328159317,0.0,0.0,0.00408414013069248,364,0.0,100,Motors_Started,Setting new Return-To-Home altitude to 30m (98 ft). Setting new Maximum Flight Altitude to 120m (394 ft)
0.307534433812581,36.879386724999705,200,2018-03-31 05:57:32,1770.603328159317,0.0,0.0,0.00899504028784128,1770.603328159317,0.0,0.0,0.00899504028784128,364,0.0,100,Motors_Started,
0.307534480244812,36.8793867242974,300,2018-03-31 05:57:33,1770.603328159317,0.0,0.0,0.0101622003251904,1770.603328159317,0.0,0.0,0.0101622003251904,364,0.0,100,Motors_Started,
0.30753451262133197,36.879386737409995,400,2018-03-31 05:57:33,1770.603328159317,0.0,0.0,0.0133981004287392,1770.603328159317,0.0,0.0,0.0133981004287392,364,0.0,100,Motors_Started,
0.30753454995320695,36.8793867535406,500,2018-03-31 05:57:33,1770.603328159317,0.0,0.0,0.0175386005612352,1770.603328159317,0.0,0.0,0.0175386005612352,364,0.0,100,Motors_Started,
0.307534572861547,36.8793867805474,600,2018-03-31 05:57:33,1770.603328159317,0.0,0.0,0.0214604006867328,1770.603328159317,0.0,0.0,0.0214604006867328,364,0.0,100,Motors_Started,
0.30753459267197497,36.8793868137068,700,2018-03-31 05:57:33,1770.603328159317,0.0,0.0,0.025646700820694406,1770.603328159317,0.0,0.0,0.025646700820694406,364,0.0,100,Motors_Started,
0.307534607720426,36.879386849747206,800,2018-03-31 05:57:33,1770.603328159317,0.0,0.0,0.029764800952473604,1770.603328159317,0.0,0.0,0.029764800952473604,364,0.0,100,Motors_Started,
0.307534618048832,36.879386892577294,900,2018-03-31 05:57:33,1770.603328159317,0.0,0.0,0.034227401095276805,1770.603328159317,0.0,0.0,0.034227401095276805,364,0.0,100,Motors_Started,
0.30753462601965803,36.879386934852796,1000,2018-03-31 05:57:33,1770.603328159317,0.0,0.0,0.038600301235209605,1770.603328159317,0.0,0.0,0.038600301235209605,364,0.0,100,Motors_Started,
0.307534628193021,36.879386943810395,1100,2018-03-31 05:57:33,1770.603328159317,0.0,0.0,0.039568101266179205,1770.603328159317,0.0,0.0,0.039568101266179205,364,0.0,100,Motors_Started,
0.307534630881378,36.8793869628487,1200,2018-03-31 05:57:33,1770.603328159317,0.0,0.0,0.04152180132869761,1770.603328159317,0.0,0.0,0.04152180132869761,364,0.0,100,Motors_Started,
0.30753462988762,36.879386993333796,1300,2018-03-31 05:57:34,1770.603328159317,0.0,0.0,0.04439680142069761,1770.603328159317,0.0,0.0,0.04439680142069761,364,0.0,100,Motors_Started,
0.307534629672869,36.8793870258755,1400,2018-03-31 05:57:34,1770.603328159317,0.0,0.0,0.04758340152266881,1770.603328159317,0.0,0.0,0.04758340152266881,364,0.0,100,Motors_Started,
0.30753462658025,36.87938703019321,1500,2018-03-31 05:57:34,1770.603328159317,0.0,0.0,0.0478593015314976,1770.603328159317,0.0,0.0,0.0478593015314976,364,0.0,100,Motors_Started,
0.307534624899289,36.8793870432437,1600,2018-03-31 05:57:34,1770.603328159317,0.0,0.0,0.049085101570723204,1770.603328159317,0.0,0.0,0.049085101570723204,588,0.0,100,Assisted_Takeoff,
0.307534621499709,36.8793870723917,1700,2018-03-31 05:57:34,1770.603328159317,0.0,0.0,0.05188300166025601,1770.603328159317,0.0,0.0,0.05188300166025601,950,0.0,100,Assisted_Takeoff,
0.307534619505882,36.8793871031829,1800,2018-03-31 05:57:34,1770.603328159317,0.0,0.0,0.0549602017587264,1770.603328159317,0.0,0.0,0.0549602017587264,950,0.0,100,Assisted_Takeoff,
0.307534657016683,36.8793871495631,1900,2018-03-31 05:57:34,1770.603328159317,0.0,0.0,0.06132800196249601,1770.603328159317,0.0,0.0,0.06132800196249601,1024,0.0,100,Assisted_Takeoff,
0.307534685448908,36.879387192570896,2000,2018-03-31 05:57:34,1770.603328159317,0.0,0.0,0.066983502143472,1770.603328159317,0.0,0.0,0.066983502143472,1024,0.0,100,Assisted_Takeoff,
0.30753470760775603,36.8793872085216,2100,2018-03-31 05:57:34,1770.603328159317,0.0,0.0,0.069634002228288,1770.603328159317,0.0,0.0,0.069634002228288,1024,0.0,100,Assisted_Takeoff,
0.30753472458632,36.8793872298896,2200,2018-03-31 05:57:34,1770.603328159317,0.0,0.0,0.07259670232309441,1770.603328159317,0.0,0.0,0.07259670232309441,1024,0.0,100,Assisted_Takeoff,
0.30753473322399394,36.879387266308996,2300,2018-03-31 05:57:35,1770.603328159317,0.0,0.0,0.07666020245312641,1770.603328159317,0.0,0.0,0.07666020245312641,1024,0.0,100,Assisted_Takeoff,
0.307534740893355,36.879387302670494,2400,2018-03-31 05:57:35,1770.603328159317,0.0,0.0,0.0806828025818496,1770.603328159317,0.0,0.0,0.0806828025818496,1024,0.0,100,Assisted_Takeoff,
0.307534740966635,36.8793873131184,2500,2018-03-31 05:57:35,1770.603328159317,0.0,0.0,0.0817421026157472,1770.603328159317,0.0,0.0,0.0817421026157472,1024,0.0,100,Assisted_Takeoff,
0.307534742578591,36.8793873298507,2600,2018-03-31 05:57:35,1770.603328159317,0.0,0.0,0.083512002672384,1770.603328159317,0.0,0.0,0.083512002672384,1024,0.0,100,Assisted_Takeoff,
0.307534738750526,36.8793873634277,2700,2018-03-31 05:57:35,1770.603328159317,0.0,0.0,0.08676880277660161,1770.603328159317,0.0,0.0,0.08676880277660161,1024,0.0,100,Assisted_Takeoff,
0.307534737115568,36.8793873969928,2800,2018-03-31 05:57:35,1770.603328159317,0.0,0.0,0.09015370288491842,1770.603328159317,0.0,0.0,0.09015370288491842,1024,0.0,100,Assisted_Takeoff,
0.307534731604914,36.8793874061485,2900,2018-03-31 05:57:35,1770.603328159317,0.0,0.0,0.0908767029080544,1770.603328159317,0.0,0.0,0.0908767029080544,1024,0.0,100,Assisted_Takeoff,
0.30753472571096396,36.8793874230971,3000,2018-03-31 05:57:35,1770.603328159317,0.0,0.0,0.09240640295700481,1770.603328159317,0.0,0.0,0.09240640295700481,1024,0.0,100,Assisted_Takeoff,
0.30753472191791104,36.8793874567907,3100,2018-03-31 05:57:35,1770.603328159317,0.0,0.0,0.09578690306518081,1770.603328159317,0.0,0.0,0.09578690306518081,1024,0.0,100,Assisted_Takeoff,
0.307534717747263,36.8793874909533,3200,2018-03-31 05:57:35,1770.603328159317,0.0,0.0,0.0992318031754176,1770.603328159317,0.0,0.0,0.0992318031754176,1024,0.0,100,Assisted_Takeoff,
0.30753471298772805,36.879387541206896,3300,2018-03-31 05:57:36,1770.603328159317,0.0,0.0,0.10439300334057598,1770.603328159317,0.0,0.0,0.10439300334057598,1034,0.0,100,Assisted_Takeoff,
0.30753470866543,36.879387586878295,3400,2018-03-31 05:57:36,1770.603328159317,0.0,0.0,0.10912200349190401,1770.603328159317,0.0,0.0,0.10912200349190401,1036,0.0,100,Assisted_Takeoff,
0.30753470537210603,36.8793876048407,3500,2018-03-31 05:57:36,1770.603328159317,0.0,0.0,0.110943003550176,1770.603328159317,0.0,0.0,0.110943003550176,1030,0.0,100,Assisted_Takeoff,
0.30753470173680797,36.8793876259666,3600,2018-03-31 05:57:36,1770.603328159317,0.0,0.0,0.113101003619232,1770.603328159317,0.0,0.0,0.113101003619232,1034,0.0,100,Assisted_Takeoff,
0.307534699405487,36.8793876632778,3700,2018-03-31 05:57:36,1770.603328159317,0.0,0.0,0.117046003745472,1770.603328159317,0.0,0.0,0.117046003745472,1054,0.0,100,Assisted_Takeoff,
0.307534696312461,36.8793877005719,3800,2018-03-31 05:57:36,1770.603328159317,0.0,0.0,0.12098400387148799,1770.603328159317,0.0,0.0,0.12098400387148799,1080,0.0,100,Assisted_Takeoff,
0.307534695174586,36.8793877110348,3900,2018-03-31 05:57:36,1770.603328159317,0.0,0.0,0.12208400390668801,1770.603328159317,0.0,0.0,0.12208400390668801,1089,0.0,100,Assisted_Takeoff,
0.307534693200505,36.8793877282092,4000,2018-03-31 05:57:36,1770.603328159317,0.0,0.0,0.12389000396448,1770.603328159317,0.0,0.0,0.12389000396448,1131,0.0,100,Assisted_Takeoff,
0.307534693723032,36.87938772254579,4100,2018-03-31 05:57:36,1770.603328159317,0.0,0.0,0.123291003945312,1770.603328159317,0.0,0.0,0.12389000396448,1200,0.0,99,Assisted_Takeoff,
0.307534692719503,36.8793877261012,4200,2018-03-31 05:57:37,1770.603328159317,0.0,0.0,0.12364900395676802,1770.603328159317,0.0,0.0,0.12389000396448,1252,0.0,99,Assisted_Takeoff,
0.307534734214292,36.879387750091,4300,2018-03-31 05:57:37,1770.603328159317,0.0,0.0,0.127368004075776,1770.603328159317,0.0,0.0,0.127368004075776,1289,0.0,99,Assisted_Takeoff,
0.307534763908357,36.879387776501396,4400,2018-03-31 05:57:37,1770.603328159317,0.0,0.0,0.13108500419472002,1770.603328159317,0.0,0.0,0.13108500419472002,1362,0.0,99,Assisted_Takeoff,
0.307534799068906,36.8793877830021,4500,2018-03-31 05:57:37,1770.603328159317,0.0,0.0,0.132914004253248,1770.603328159317,0.0,0.0,0.132914004253248,1417,0.0,99,Assisted_Takeoff,
0.307534865067299,36.87938780391929,4600,2018-03-31 05:57:37,1770.603328159317,0.0,0.0,0.13750200440006402,1770.603328159317,0.0,0.0,0.13750200440006402,1461,0.0,99,Assisted_Takeoff,
0.30753494412031607,36.8793878441757,4700,2018-03-31 05:57:37,1770.603328159317,0.0,0.0,0.144903004636896,1770.603328159317,0.0,0.0,0.144903004636896,1526,0.0,99,P-GPS,
0.30753499793408,36.8793878622933,4800,2018-03-31 05:57:37,1770.603328159317,0.0,0.0,0.14916600477331202,1770.603328159317,0.0,0.0,0.14916600477331202,1601,0.0,99,P-GPS,Obstacle Avoided. Revise Flight Route
0.307535048306534,36.879387820492,4900,2018-03-31 05:57:37,1770.603328159317,0.0,0.0,0.147458004718656,1770.603328159317,0.0,0.0,0.14916600477331202,1684,0.0,99,P-GPS,
0.307535098757765,36.8793877196241,5000,2018-03-31 05:57:37,1770.703328162517,0.10000000320000002,0.35999970196000003,0.14046400449484803,1770.703328162517,0.10000000320000002,0.35999970196000003,0.14916600477331202,1684,0.0,99,P-GPS,
0.307535207549834,36.879387571543106,5100,2018-03-31 05:57:37,1770.9033281689171,0.3000000096,0.35999970196000003,0.134131004292192,1770.9033281689171,0.3000000096,0.35999970196000003,0.14916600477331202,1684,0.0,99,P-GPS,
0.307535351927068,36.8793873981341,5200,2018-03-31 05:57:37,1771.103328175317,0.500000016,0.503999582744,0.13189900422076803,1771.103328175317,0.500000016,0.503999582744,0.14916600477331202,1684,0.0,99,P-GPS,Home Point Recorded. RTH Altitude:  30m.
0.30753561560370196,36.8793872699168,5300,2018-03-31 05:57:38,1771.3033281817172,0.7000000224000001,0.503999582744,0.14846000475072002,1771.3033281817172,0.7000000224000001,0.503999582744,0.14916600477331202,1684,0.0,99,P-GPS,
0.307535853375456,36.8793871330685,5400,2018-03-31 05:57:38,1771.5033281881174,0.9000000288000001,0.503999582744,0.16669900533436802,1771.5033281881174,0.9000000288000001,0.503999582744,0.16669900533436802,1684,0.0,99,P-GPS,
0.307536098523655,36.8793870896239,5500,2018-03-31 05:57:38,1771.803328197717,1.2000000384,0.35999970196000003,0.19136800612377602,1771.803328197717,1.2000000384,0.503999582744,0.19136800612377602,1684,0.0,99,P-GPS,
0.307536265163041,36.8793870390096,5600,2018-03-31 05:57:38,1772.2033282105172,1.6000000512000003,0.35999970196000003,0.20806200665798402,1772.2033282105172,1.6000000512000003,0.503999582744,0.20806200665798402,1684,0.0,99,P-GPS,
0.307536361518174,36.879386933218,5700,2018-03-31 05:57:38,1772.603328223317,2.000000064,0.0,0.216491006927712,1772.603328223317,2.000000064,0.503999582744,0.216491006927712,1684,0.0,99,P-GPS,
0.307536422730366,36.879386851488,5800,2018-03-31 05:57:38,1773.1033282393173,2.50000008,0.0,0.222099007107168,1773.1033282393173,2.50000008,0.503999582744,0.222099007107168,1684,0.0,99,P-GPS,
0.307536454684203,36.879386829691796,5900,2018-03-31 05:57:38,1773.6033282553171,3.0000000960000004,0.0,0.225398007212736,1773.6033282553171,3.0000000960000004,0.503999582744,0.225398007212736,1684,0.0,99,P-GPS,
0.307536508588346,36.87938678729,6000,2018-03-31 05:57:38,1774.103328271317,3.500000112,0.0,0.23099600739187198,1774.103328271317,3.500000112,0.503999582744,0.23099600739187198,1684,0.0,99,P-GPS,
0.307536604134448,36.8793867300133,6100,2018-03-31 05:57:38,1774.6033282873173,4.000000128,0.35999970196000003,0.241261007720352,1774.6033282873173,4.000000128,0.503999582744,0.241261007720352,1684,0.0,99,P-GPS,
0.307536734250787,36.8793866917632,6200,2018-03-31 05:57:39,1775.203328306517,4.6000001472,0.35999970196000003,0.255596008179072,1775.203328306517,4.6000001472,0.503999582744,0.255596008179072,1684,0.0,99,P-GPS,
0.307536869894065,36.8793865962986,6300,2018-03-31 05:57:39,1775.703328322517,5.1000001632,0.0,0.27067800866169606,1775.703328322517,5.1000001632,0.503999582744,0.27067800866169606,1684,0.0,99,P-GPS,
0.307537018390754,36.879386514935796,6400,2018-03-31 05:57:39,1776.2033283385172,5.600000179200001,0.0,0.287499009199968,1776.2033283385172,5.600000179200001,0.503999582744,0.287499009199968,1684,0.0,99,P-GPS,
0.30753716120040697,36.8793863545098,6500,2018-03-31 05:57:39,1776.7033283545172,6.1000001952,0.0,0.30472800975129605,1776.7033283545172,6.1000001952,0.503999582744,0.30472800975129605,1684,0.0,99,P-GPS,
0.307537309265405,36.8793862247552,6600,2018-03-31 05:57:39,1777.203328370517,6.6000002112,0.35999970196000003,0.32287301033193605,1777.203328370517,6.6000002112,0.503999582744,0.32287301033193605,1684,0.0,99,P-GPS,
0.30753741185086303,36.8793860235568,6700,2018-03-31 05:57:39,1777.7033283865173,7.100000227200002,0.0,0.33801501081648005,1777.7033283865173,7.100000227200002,0.503999582744,0.33801501081648005,1684,0.0,99,P-GPS,
0.307537522807389,36.879385857502704,6800,2018-03-31 05:57:39,1778.2033284025172,7.600000243199999,0.0,0.354206011334592,1778.2033284025172,7.600000243199999,0.503999582744,0.354206011334592,1684,0.0,99,P-GPS,
0.307537627526999,36.8793857216639,6900,2018-03-31 05:57:39,1778.703328418517,8.1000002592,0.0,0.36940901182108804,1778.703328418517,8.1000002592,0.503999582744,0.36940901182108804,1684,0.0,99,P-GPS,
0.307537739364105,36.87938560581421,7000,2018-03-31 05:57:39,1779.2033284345173,8.6000002752,0.0,0.38503801232121604,1779.2033284345173,8.6000002752,0.503999582744,0.38503801232121604,1684,0.0,99,P-GPS,
0.307537860517492,36.8793854424526,7100,2018-03-31 05:57:39,1779.7033284505171,9.1000002912,0.0,0.403557012913824,1779.7033284505171,9.1000002912,0.503999582744,0.403557012913824,1684,0.0,99,P-GPS,
0.307537978209977,36.8793852903955,7200,2018-03-31 05:57:39,1780.2033284665172,9.6000003072,0.0,0.421667013493344,1780.2033284665172,9.6000003072,0.503999582744,0.421667013493344,1684,0.0,99,P-GPS,
0.30753806593807803,36.879385095201,7300,2018-03-31 05:57:40,1780.7033284825172,10.100000323200002,0.0,0.438851014043232,1780.7033284825172,10.100000323200002,0.503999582744,0.438851014043232,1684,0.0,99,P-GPS,
0.307538151089479,36.8793849187996,7400,2018-03-31 05:57:40,1781.2033284985173,10.6000003392,0.0,0.45548501457552004,1781.2033284985173,10.6000003392,0.503999582744,0.45548501457552004,1684,0.0,99,P-GPS,
0.307538176850826,36.8793847234895,7500,2018-03-31 05:57:40,1781.7033285145171,11.1000003552,0.0,0.467598014963136,1781.7033285145171,11.1000003552,0.503999582744,0.467598014963136,1684,0.0,99,P-GPS,
0.30753820661389697,36.879384541315495,7600,2018-03-31 05:57:40,1782.203328530517,11.6000003712,0.0,0.48008001536256006,1782.203328530517,11.6000003712,0.503999582744,0.48008001536256006,1684,0.0,99,P-GPS,
0.30753824197894297,36.879384363049205,7700,2018-03-31 05:57:40,1782.7033285465172,12.1000003872,0.0,0.493411015789152,1782.7033285465172,12.1000003872,0.503999582744,0.493411015789152,1684,0.0,99,P-GPS,
0.30753828635867303,36.8793842087534,7800,2018-03-31 05:57:40,1783.203328562517,12.600000403200003,0.0,0.506612016211584,1783.203328562517,12.600000403200003,0.503999582744,0.506612016211584,1684,0.0,99,P-GPS,
0.307538300292785,36.879384017789896,7900,2018-03-31 05:57:40,1783.7033285785171,13.100000419199999,0.0,0.519556016625792,1783.7033285785171,13.100000419199999,0.503999582744,0.519556016625792,1684,0.0,99,P-GPS,
0.307538304716275,36.8793838254474,8000,2018-03-31 05:57:40,1784.2033285945172,13.600000435200002,0.0,0.532272017032704,1784.2033285945172,13.600000435200002,0.503999582744,0.532272017032704,1684,0.0,99,P-GPS,
0.307538259713232,36.8793836247758,8100,2018-03-31 05:57:40,1784.7033286105172,14.100000451200001,0.0,0.5417750173368,1784.7033286105172,14.100000451200001,0.503999582744,0.5417750173368,1684,0.0,99,P-GPS,
0.30753822506783196,36.8793834378462,8200,2018-03-31 05:57:41,1785.203328626517,14.600000467200001,0.0,0.551951017662432,1785.203328626517,14.600000467200001,0.503999582744,0.551951017662432,1684,0.0,99,P-GPS,
0.307538219838084,36.8793832840194,8300,2018-03-31 05:57:41,1785.7033286425174,15.100000483200002,0.0,0.5627180180069761,1785.7033286425174,15.100000483200002,0.503999582744,0.5627180180069761,1684,0.0,99,P-GPS,
0.307538210304995,36.8793831546395,8400,2018-03-31 05:57:41,1786.2033286585172,15.6000004992,0.0,0.571594018291008,1786.2033286585172,15.6000004992,0.503999582744,0.571594018291008,1684,0.0,99,P-GPS,
0.30753815617462604,36.879383058996,8500,2018-03-31 05:57:41,1786.703328674517,16.1000005152,0.0,0.574518018384576,1786.703328674517,16.1000005152,0.503999582744,0.574518018384576,1684,0.0,99,P-GPS,
0.307538112162492,36.87938297890079,8600,2018-03-31 05:57:41,1787.2033286905173,16.6000005312,0.0,0.577259018472288,1787.2033286905173,16.6000005312,0.503999582744,0.577259018472288,1684,0.0,99,P-GPS,
0.30753803767373605,36.879382882862295,8700,2018-03-31 05:57:41,1787.7033287065171,17.1000005472,0.0,0.579089018530848,1787.7033287065171,17.1000005472,0.503999582744,0.579089018530848,1684,0.0,99,P-GPS,
0.307537969384377,36.8793827936435,8800,2018-03-31 05:57:41,1788.2033287225172,17.6000005632,0.0,0.581134018596288,1788.2033287225172,17.6000005632,0.503999582744,0.581134018596288,1684,0.0,99,P-GPS,
0.30753791551761894,36.8793827447614,8900,2018-03-31 05:57:41,1788.703328738517,18.100000579200003,0.0,0.581146018596672,1788.703328738517,18.100000579200003,0.503999582744,0.581146018596672,1684,0.0,99,P-GPS,
0.30753786160049296,36.8793826891003,9000,2018-03-31 05:57:41,1789.2033287545173,18.6000005952,0.0,0.581836018618752,1789.2033287545173,18.6000005952,0.503999582744,0.581836018618752,1684,0.0,99,P-GPS,
0.30753783298078696,36.87938261155521,9100,2018-03-31 05:57:41,1789.7033287705171,19.1000006112,0.0,0.5863260187624321,1789.7033287705171,19.1000006112,0.503999582744,0.5863260187624321,1684,0.0,99,P-GPS,
0.307537794722849,36.8793825486869,9200,2018-03-31 05:57:41,1790.203328786517,19.6000006272,0.0,0.5889840188474881,1790.203328786517,19.6000006272,0.503999582744,0.5889840188474881,1684,0.0,99,P-GPS,
0.307537713570672,36.8793824754766,9300,2018-03-31 05:57:42,1790.8033288057172,20.200000646400003,0.0,0.589682018869824,1790.8033288057172,20.200000646400003,0.503999582744,0.589682018869824,1684,0.0,99,P-GPS,
0.307537638484544,36.879382415982796,9400,2018-03-31 05:57:42,1791.303328821717,20.7000006624,0.0,0.5898180188741761,1791.303328821717,20.7000006624,0.503999582744,0.5898180188741761,1684,0.0,99,P-GPS,
0.307537531570758,36.8793823780849,9500,2018-03-31 05:57:42,1791.8033288377173,21.2000006784,0.0,0.5861230187559361,1791.8033288377173,21.2000006784,0.503999582744,0.5898180188741761,1684,0.0,99,P-GPS,
0.30753743829272306,36.8793823575226,9600,2018-03-31 05:57:42,1792.3033288537172,21.700000694400003,0.0,0.581964018622848,1792.3033288537172,21.700000694400003,0.503999582744,0.5898180188741761,1684,0.0,99,P-GPS,
0.30753736892050004,36.879382344137504,9700,2018-03-31 05:57:42,1792.803328869717,22.2000007104,0.0,0.578802018521664,1792.803328869717,22.2000007104,0.503999582744,0.5898180188741761,1684,0.0,99,P-GPS,
0.30753731403695,36.8793823409777,9800,2018-03-31 05:57:42,1793.4033288889173,22.8000007296,0.0,0.575677018421664,1793.4033288889173,22.8000007296,0.503999582744,0.5898180188741761,1684,0.0,99,P-GPS,
0.30753723595947197,36.8793824090561,9900,2018-03-31 05:57:42,1793.903328904917,23.300000745600002,0.0,0.5645650180660801,1793.903328904917,23.300000745600002,0.503999582744,0.5898180188741761,1684,0.0,99,P-GPS,
0.307537171047608,36.8793824734382,10000,2018-03-31 05:57:42,1794.4033289209171,23.800000761600003,0.0,0.5546160177477121,1794.4033289209171,23.800000761600003,0.503999582744,0.5898180188741761,1684,0.0,99,P-GPS,
0.30753708609478897,36.879382565869896,10100,2018-03-31 05:57:42,1795.0033289401172,24.4000007808,0.0,0.54084501730704,1795.0033289401172,24.4000007808,0.503999582744,0.5898180188741761,1684,0.0,99,P-GPS,
0.307537010340643,36.879382650458396,10200,2018-03-31 05:57:43,1795.503328956117,24.9000007968,0.0,0.528371016907872,1795.503328956117,24.9000007968,0.503999582744,0.5898180188741761,1684,0.0,99,P-GPS,
0.307536898630199,36.879382748804005,10300,2018-03-31 05:57:43,1796.003328972117,25.400000812800002,0.0,0.512468016398976,1796.003328972117,25.400000812800002,0.503999582744,0.5898180188741761,1684,0.0,99,P-GPS,
0.307536817542848,36.879382832023204,10400,2018-03-31 05:57:43,1796.5033289881171,25.900000828800003,0.0,0.499834015994688,1796.5033289881171,25.900000828800003,0.503999582744,0.5898180188741761,1684,0.0,99,P-GPS,
0.307536714170546,36.8793829162669,10500,2018-03-31 05:57:43,1797.1033290073171,26.500000848000003,0.0,0.485822015546304,1797.1033290073171,26.500000848000003,0.503999582744,0.5898180188741761,1684,0.0,99,P-GPS,
0.307536637899114,36.8793829983941,10600,2018-03-31 05:57:43,1797.6033290233172,27.000000864000004,0.0,0.47361301515561605,1797.6033290233172,27.000000864000004,0.503999582744,0.5898180188741761,1684,0.0,99,P-GPS,
0.3075365297501789,36.8793831115878,10700,2018-03-31 05:57:43,1798.1033290393173,27.50000088,0.0,0.456636014612352,1798.1033290393173,27.50000088,0.503999582744,0.5898180188741761,1684,0.0,99,P-GPS,
0.307536429057278,36.8793832204669,10800,2018-03-31 05:57:43,1798.7033290585173,28.1000008992,0.0,0.4405250140968,1798.7033290585173,28.1000008992,0.503999582744,0.5898180188741761,1684,0.0,99,P-GPS,
0.30753634464963203,36.879383316545,10900,2018-03-31 05:57:43,1799.2033290745171,28.600000915200003,0.0,0.4265780136504961,1799.2033290745171,28.600000915200003,0.503999582744,0.5898180188741761,1684,0.0,99,P-GPS,
0.307536270413043,36.879383402746896,11000,2018-03-31 05:57:43,1799.7033290905172,29.1000009312,0.0,0.41416201325318397,1799.7033290905172,29.1000009312,0.503999582744,0.5898180188741761,1684,0.0,99,P-GPS,
0.307536165079586,36.879383496099294,11100,2018-03-31 05:57:43,1800.3033291097172,29.7000009504,0.0,0.39939101278051203,1800.3033291097172,29.7000009504,0.503999582744,0.5898180188741761,1684,0.0,99,P-GPS,
0.307536084662136,36.8793835665078,11200,2018-03-31 05:57:43,1800.803329125717,30.200000966400005,0.0,0.38824401242380807,1800.803329125717,30.200000966400005,0.503999582744,0.5898180188741761,1684,0.0,99,P-GPS,
0.307536008831809,36.879383649731295,11300,2018-03-31 05:57:44,1801.303329141717,30.700000982400002,0.0,0.376117012035744,1801.303329141717,30.700000982400002,0.503999582744,0.5898180188741761,1684,0.0,99,P-GPS,
0.30753595412219703,36.879383723246605,11400,2018-03-31 05:57:44,1801.8033291577171,31.2000009984,0.0,0.36605401171372803,1801.8033291577171,31.2000009984,0.503999582744,0.5898180188741761,1684,0.0,99,P-GPS,
0.307535901379136,36.8793838267193,11500,2018-03-31 05:57:44,1802.4033291769172,31.800001017600003,0.0,0.353139011300448,1802.4033291769172,31.800001017600003,0.503999582744,0.5898180188741761,1684,0.0,99,P-GPS,
0.307535864720622,36.8793839053863,11600,2018-03-31 05:57:44,1802.9033291929172,32.300001033600005,0.0,0.343497010991904,1802.9033291929172,32.300001033600005,0.503999582744,0.5898180188741761,1684,0.0,99,P-GPS,
0.30753578393433,36.8793840095217,11700,2018-03-31 05:57:44,1803.4033292089173,32.800001049600006,0.0,0.32908501053072003,1803.4033292089173,32.800001049600006,0.503999582744,0.5898180188741761,1684,0.0,99,P-GPS,
0.307535726408935,36.8793840850626,11800,2018-03-31 05:57:44,1803.9033292249171,33.3000010656,0.0,0.31869901019836805,1803.9033292249171,33.3000010656,0.503999582744,0.5898180188741761,1684,0.0,99,P-GPS,
0.30753566118161,36.8793841860986,11900,2018-03-31 05:57:44,1804.5033292441171,33.9000010848,0.0,0.305404009772928,1804.5033292441171,33.9000010848,0.503999582744,0.5898180188741761,1684,0.0,99,P-GPS,
0.307535618223665,36.8793842587779,12000,2018-03-31 05:57:44,1805.0033292601172,34.4000011008,0.0,0.29604000947328,1805.0033292601172,34.4000011008,0.503999582744,0.5898180188741761,1684,0.0,99,P-GPS,
0.30753556419352196,36.879384362588794,12100,2018-03-31 05:57:44,1805.503329276117,34.9000011168,0.0,0.283028009056896,1805.503329276117,34.9000011168,0.503999582744,0.5898180188741761,1684,0.0,99,P-GPS,
0.30753552810679496,36.8793844370378,12200,2018-03-31 05:57:45,1806.0033292921173,35.40000113280001,0.0,0.273828008762496,1806.0033292921173,35.40000113280001,0.503999582744,0.5898180188741761,1684,0.0,99,P-GPS,
0.307535477270845,36.8793845809702,12300,2018-03-31 05:57:45,1806.5033293081171,35.9000011488,0.0,0.256983008223456,1806.5033293081171,35.9000011488,0.503999582744,0.5898180188741761,1684,0.0,99,P-GPS,
0.30753544850560305,36.879384677995795,12400,2018-03-31 05:57:45,1807.003329324117,36.4000011648,0.0,0.245917007869344,1807.003329324117,36.4000011648,0.503999582744,0.5898180188741761,1684,0.0,99,P-GPS,
0.30753540026518894,36.8793847604677,12500,2018-03-31 05:57:45,1807.5033293401173,36.900001180800004,0.0,0.235308007529856,1807.5033293401173,36.900001180800004,0.503999582744,0.5898180188741761,1684,0.0,99,P-GPS,
0.307535372143182,36.879384809614294,12600,2018-03-31 05:57:45,1808.003329356117,37.4000011968,0.0,0.22901900732860803,1808.003329356117,37.4000011968,0.503999582744,0.5898180188741761,1684,0.0,99,P-GPS,
0.307535361309144,36.879384894965,12700,2018-03-31 05:57:45,1808.6033293753171,38.000001216,0.0,0.22004000704128002,1808.6033293753171,38.000001216,0.503999582744,0.5898180188741761,1684,0.0,99,P-GPS,
0.307535361451023,36.8793849483715,12800,2018-03-31 05:57:45,1809.1033293913172,38.500001232,0.0,0.21481500687407998,1809.1033293913172,38.500001232,0.503999582744,0.5898180188741761,1684,0.0,99,P-GPS,
0.307535367783227,36.8793850925181,12900,2018-03-31 05:57:45,1809.6033294073172,39.000001248000004,0.0,0.20125200644006402,1809.6033294073172,39.000001248000004,0.503999582744,0.5898180188741761,1684,0.0,99,P-GPS,
0.30753537776619894,36.8793851920638,13000,2018-03-31 05:57:45,1810.103329423317,39.500001264000005,0.0,0.192447006158304,1810.103329423317,39.500001264000005,0.503999582744,0.5898180188741761,1684,0.0,99,P-GPS,
0.307535381728407,36.8793852964989,13100,2018-03-31 05:57:45,1810.6033294393173,40.00000128,0.0,0.18306400585804802,1810.6033294393173,40.00000128,0.503999582744,0.5898180188741761,1684,0.0,99,P-GPS,
0.307535387586734,36.8793853620084,13200,2018-03-31 05:57:45,1811.2033294585171,40.6000012992,0.0,0.17753700568118402,1811.2033294585171,40.6000012992,0.503999582744,0.5898180188741761,1684,0.0,99,P-GPS,
0.307535380405704,36.8793854688823,13300,2018-03-31 05:57:46,1811.7033294745172,41.100001315200004,0.0,0.16764000536447998,1811.7033294745172,41.100001315200004,0.503999582744,0.5898180188741761,1684,0.0,99,P-GPS,
0.307535377427076,36.8793855390639,13400,2018-03-31 05:57:46,1812.2033294905173,41.600001331200005,0.0,0.16141500516528,1812.2033294905173,41.600001331200005,0.503999582744,0.5898180188741761,1684,0.0,99,P-GPS,
0.307535368396133,36.879385655007894,13500,2018-03-31 05:57:46,1812.703329506517,42.1000013472,0.0,0.151138004836416,1812.703329506517,42.1000013472,0.503999582744,0.5898180188741761,1684,0.0,99,P-GPS,
0.30753536151595695,36.8793857273499,13600,2018-03-31 05:57:46,1813.203329522517,42.60000136320001,0.0,0.14484400463500802,1813.203329522517,42.60000136320001,0.503999582744,0.5898180188741761,1684,0.0,99,P-GPS,
0.307535355807853,36.8793858056733,13700,2018-03-31 05:57:46,1813.7033295385172,43.1000013792,0.0,0.13838100442819198,1813.7033295385172,43.1000013792,0.503999582744,0.5898180188741761,1684,0.0,99,P-GPS,
0.30753535525011105,36.87938585054071,13800,2018-03-31 05:57:46,1814.203329554517,43.6000013952,0.0,0.13502200432070402,1814.203329554517,43.6000013952,0.503999582744,0.5898180188741761,1684,0.0,99,P-GPS,
0.307535314785924,36.87938587185079,13900,2018-03-31 05:57:46,1814.703329570517,44.100001411200004,0.0,0.130073004162336,1814.703329570517,44.100001411200004,0.503999582744,0.5898180188741761,1684,0.0,99,P-GPS,
0.307535289975969,36.8793858892779,14000,2018-03-31 05:57:46,1815.3033295897171,44.7000014304,0.0,0.126722004055104,1815.3033295897171,44.7000014304,0.503999582744,0.5898180188741761,1684,0.0,99,P-GPS,
0.307535271537709,36.879385939221,14100,2018-03-31 05:57:46,1815.8033296057172,45.2000014464,0.0,0.121539003889248,1815.8033296057172,45.2000014464,0.503999582744,0.5898180188741761,1684,0.0,99,P-GPS,
0.30753526554462796,36.879385973795706,14200,2018-03-31 05:57:46,1816.3033296217172,45.700001462399996,0.0,0.118576003794432,1816.3033296217172,45.700001462399996,0.503999582744,0.5898180188741761,1684,0.0,99,P-GPS,
0.307535263267249,36.8793859937355,14300,2018-03-31 05:57:47,1816.8033296377173,46.20000147840001,0.0,0.116996003743872,1816.8033296377173,46.20000147840001,0.503999582744,0.5898180188741761,1684,0.0,99,P-GPS,
0.307535265996724,36.8793860072838,14400,2018-03-31 05:57:47,1817.3033296537171,46.7000014944,0.0,0.11631100372195201,1817.3033296537171,46.7000014944,0.503999582744,0.5898180188741761,1684,0.0,99,P-GPS,
0.30753523232762703,36.879386050934,14500,2018-03-31 05:57:47,1817.803329669717,47.2000015104,0.0,0.11039600353267201,1817.803329669717,47.2000015104,0.503999582744,0.5898180188741761,1684,0.0,99,P-GPS,
0.307535216732833,36.879386077876504,14600,2018-03-31 05:57:47,1818.3033296857172,47.700001526399994,0.0,0.107224003431168,1818.3033296857172,47.700001526399994,0.503999582744,0.5898180188741761,1684,0.0,99,P-GPS,
0.307535199255965,36.879386088262294,14700,2018-03-31 05:57:47,1818.803329701717,48.200001542399995,0.0,0.10497300335913601,1818.803329701717,48.200001542399995,0.503999582744,0.5898180188741761,1684,0.0,99,P-GPS,
0.307535183237368,36.8793860949556,14800,2018-03-31 05:57:47,1819.3033297177171,48.70000155840001,0.0,0.10309600329907202,1819.3033297177171,48.70000155840001,0.503999582744,0.5898180188741761,1684,0.0,99,P-GPS,
0.307535160019828,36.8793861336061,14900,2018-03-31 05:57:47,1819.8033297337172,49.200001574400005,0.0,0.09848870315163841,1819.8033297337172,49.200001574400005,0.503999582744,0.5898180188741761,1684,0.0,99,P-GPS,
0.307535148816133,36.8793861571366,15000,2018-03-31 05:57:47,1820.403329752917,49.8000015936,0.0,0.0959727030711264,1820.403329752917,49.8000015936,0.503999582744,0.5898180188741761,1684,0.0,99,P-GPS,
0.307535148340628,36.8793861687504,15100,2018-03-31 05:57:47,1820.9033297689173,50.3000016096,0.0,0.0952058030465856,1820.9033297689173,50.3000016096,0.503999582744,0.5898180188741761,1684,0.0,99,P-GPS,
0.307535154066848,36.8793861691861,15200,2018-03-31 05:57:47,1821.403329784917,50.800001625600004,0.0,0.09570930306269759,1821.403329784917,50.800001625600004,0.503999582744,0.5898180188741761,1684,0.0,99,P-GPS,
0.307535121702337,36.8793861577394,15300,2018-03-31 05:57:48,1821.9033298009172,51.3000016416,0.0,0.0934601029907232,1821.9033298009172,51.3000016416,0.503999582744,0.5898180188741761,1684,0.0,99,P-GPS,
0.307535105026664,36.8793861365952,15400,2018-03-31 05:57:48,1822.403329816917,51.800001657600006,0.0,0.0933566029874112,1822.403329816917,51.800001657600006,0.503999582744,0.5898180188741761,1684,0.0,99,P-GPS,
0.30753509043173405,36.8793861602456,15500,2018-03-31 05:57:48,1822.9033298329173,52.3000016736,0.0,0.090480502895376,1822.9033298329173,52.3000016736,0.503999582744,0.5898180188741761,1684,0.0,99,P-GPS,
0.307535085837283,36.879386161245606,15600,2018-03-31 05:57:48,1823.503329852117,52.90000169280001,0.0,0.09000390288012482,1823.503329852117,52.90000169280001,0.503999582744,0.5898180188741761,1684,0.0,99,P-GPS,
0.30753504113181396,36.879386124180606,15700,2018-03-31 05:57:48,1824.0033298681174,53.400001708800005,0.0,0.0886957028382624,1824.0033298681174,53.400001708800005,0.503999582744,0.5898180188741761,1684,0.0,99,P-GPS,
0.307535016138048,36.8793860855301,15800,2018-03-31 05:57:48,1824.5033298841172,53.900001724800006,0.0,0.08953390286508482,1824.5033298841172,53.900001724800006,0.503999582744,0.5898180188741761,1684,0.0,99,P-GPS,
0.30753499278412605,36.8793860708223,15900,2018-03-31 05:57:48,1825.003329900117,54.40000174080001,0.0,0.08884840284314881,1825.003329900117,54.40000174080001,0.503999582744,0.5898180188741761,1684,0.0,99,P-GPS,
0.307534972227666,36.879386055059,16000,2018-03-31 05:57:48,1825.5033299161173,54.9000017568,0.0,0.08856040283393281,1825.5033299161173,54.9000017568,0.503999582744,0.5898180188741761,1684,0.0,99,P-GPS,
0.307534950355832,36.8793860184801,16100,2018-03-31 05:57:48,1826.0033299321171,55.40000177280001,0.0,0.09004700288150401,1826.0033299321171,55.40000177280001,0.503999582744,0.5898180188741761,1684,0.0,99,P-GPS,
0.30753493583581104,36.8793859742625,16200,2018-03-31 05:57:48,1826.5033299481172,55.900001788800004,0.0,0.09292420297357441,1826.5033299481172,55.900001788800004,0.503999582744,0.5898180188741761,1684,0.0,99,P-GPS,
0.307534933118752,36.8793859536515,16300,2018-03-31 05:57:49,1827.003329964117,56.400001804800006,0.0,0.0945948030270336,1827.003329964117,56.400001804800006,0.503999582744,0.5898180188741761,1684,0.0,99,P-GPS,
0.30753494650232205,36.879385942517295,16400,2018-03-31 05:57:49,1827.5033299801173,56.90000182080001,0.0,0.09647030308704961,1827.5033299801173,56.90000182080001,0.503999582744,0.5898180188741761,1684,0.0,99,P-GPS,
0.30753497639872196,36.8793859355906,16500,2018-03-31 05:57:49,1828.103329999317,57.50000184,0.0,0.09907370317035842,1828.103329999317,57.50000184,0.503999582744,0.5898180188741761,1684,0.0,99,P-GPS,
0.30753500323609,36.879385928153205,16600,2018-03-31 05:57:49,1828.503330012117,57.90000185280001,0.0,0.10155800324985599,1828.503330012117,57.90000185280001,0.503999582744,0.5898180188741761,1684,0.0,99,P-GPS,
0.307535005324773,36.8793859291874,16700,2018-03-31 05:57:49,1829.0033300281173,58.400001868800004,0.0,0.10161200325158401,1829.0033300281173,58.400001868800004,0.503999582744,0.5898180188741761,1684,0.0,99,P-GPS,
0.30753500321084903,36.8793859179665,16800,2018-03-31 05:57:49,1829.503330044117,58.900001884800005,0.0,0.10244700327830401,1829.503330044117,58.900001884800005,0.503999582744,0.5898180188741761,1684,0.0,99,P-GPS,
0.30753499039703003,36.879385908990706,16900,2018-03-31 05:57:49,1830.1033300633173,59.500001904,0.0,0.10237100327587202,1830.1033300633173,59.500001904,0.503999582744,0.5898180188741761,1684,0.0,99,P-GPS,
0.30753499342614005,36.8793858945452,17000,2018-03-31 05:57:49,1830.6033300793172,60.00000192,0.0,0.10385900332348799,1830.6033300793172,60.00000192,0.503999582744,0.5898180188741761,1684,0.0,99,P-GPS,
0.307535003349063,36.879385906612896,17100,2018-03-31 05:57:49,1831.0033300921173,60.40000193280001,0.0,0.103454003310528,1831.0033300921173,60.40000193280001,0.503999582744,0.5898180188741761,1684,0.0,99,P-GPS,
0.307535018685545,36.879385922352704,17200,2018-03-31 05:57:50,1831.503330108117,60.9000019488,0.0,0.10313400330028799,1831.503330108117,60.9000019488,0.503999582744,0.5898180188741761,1684,0.0,99,P-GPS,
0.30753497913125105,36.879385951939604,17300,2018-03-31 05:57:50,1832.0033301241174,61.400001964800005,0.0,0.09782120313027841,1832.0033301241174,61.400001964800005,0.503999582744,0.5898180188741761,1684,0.0,99,P-GPS,
0.30753495116862894,36.8793859681355,17400,2018-03-31 05:57:50,1832.5033301401172,61.9000019808,0.0,0.0944946030238272,1832.5033301401172,61.9000019808,0.503999582744,0.5898180188741761,1684,0.0,99,P-GPS,
0.30753490740297496,36.8793859746704,17500,2018-03-31 05:57:50,1833.003330156117,62.4000019968,0.0,0.09103230291303362,1833.003330156117,62.4000019968,0.503999582744,0.5898180188741761,1684,0.0,99,P-GPS,
0.307534871852007,36.8793859740484,17600,2018-03-31 05:57:50,1833.503330172117,62.9000020128,0.0,0.0888741028439712,1833.503330172117,62.9000020128,0.503999582744,0.5898180188741761,1684,0.0,99,P-GPS,
0.307534839748455,36.8793859684406,17700,2018-03-31 05:57:50,1834.0033301881172,63.4000020288,0.0,0.08751500280048001,1834.0033301881172,63.4000020288,0.503999582744,0.5898180188741761,1684,0.0,99,P-GPS,
0.30753481875292604,36.879385963135796,17800,2018-03-31 05:57:50,1834.5033302041172,63.900002044800004,0.0,0.0868553027793696,1834.5033302041172,63.900002044800004,0.503999582744,0.5898180188741761,1684,0.0,99,P-GPS,
0.307534781535857,36.8793860066961,17900,2018-03-31 05:57:50,1835.003330220117,64.4000020608,0.0,0.0806146025796672,1835.003330220117,64.4000020608,0.503999582744,0.5898180188741761,1684,0.0,99,P-GPS,
0.30753475890557397,36.879386037554795,18000,2018-03-31 05:57:50,1835.5033302361173,64.9000020768,0.0,0.0764009024448288,1835.5033302361173,64.9000020768,0.503999582744,0.5898180188741761,1684,0.0,99,P-GPS,
0.307534750423416,36.8793860623668,18100,2018-03-31 05:57:50,1836.0033302521172,65.40000209280001,0.0,0.07352330235274561,1836.0033302521172,65.40000209280001,0.503999582744,0.5898180188741761,1684,0.0,99,P-GPS,
0.30753474743542497,36.879386076268396,18200,2018-03-31 05:57:50,1836.503330268117,65.90000210880001,0.0,0.0720064023042048,1836.503330268117,65.90000210880001,0.503999582744,0.5898180188741761,1684,0.0,99,P-GPS,
0.307534750405096,36.879386126156895,18300,2018-03-31 05:57:51,1837.0033302841173,66.4000021248,0.0,0.0673644021556608,1837.0033302841173,66.4000021248,0.503999582744,0.5898180188741761,1684,0.0,99,P-GPS,
0.307534752857736,36.8793861667259,18400,2018-03-31 05:57:51,1837.503330300117,66.9000021408,0.0,0.06370000203840001,1837.503330300117,66.9000021408,0.503999582744,0.5898180188741761,1684,0.0,99,P-GPS,
0.30753475115194107,36.879386193189895,18500,2018-03-31 05:57:51,1838.0033303161172,67.40000215680001,0.0,0.061160001957120014,1838.0033303161172,67.40000215680001,0.503999582744,0.5898180188741761,1684,0.0,99,P-GPS,
0.30753474111034496,36.8793861990278,18600,2018-03-31 05:57:51,1838.503330332117,67.9000021728,0.0,0.05999090191970881,1838.503330332117,67.9000021728,0.503999582744,0.5898180188741761,1684,0.0,99,P-GPS,
0.307534673410432,36.8793862289669,18700,2018-03-31 05:57:51,1839.0033303481173,68.4000021888,0.0,0.053167101701347204,1839.0033303481173,68.4000021888,0.503999582744,0.5898180188741761,1684,0.0,99,P-GPS,
0.307534613831976,36.8793862472269,18800,2018-03-31 05:57:51,1839.5033303641171,68.9000022048,0.0,0.048352001547264,1839.5033303641171,68.9000022048,0.503999582744,0.5898180188741761,1684,0.0,99,P-GPS,
0.307534530687697,36.879386260703505,18900,2018-03-31 05:57:51,1840.003330380117,69.4000022208,0.0,0.043913001405216,1840.003330380117,69.4000022208,0.503999582744,0.5898180188741761,1684,0.0,99,P-GPS,
0.30753447142231,36.879386270118296,19000,2018-03-31 05:57:51,1840.5033303961172,69.9000022368,0.0,0.0417768013368576,1840.5033303961172,69.9000022368,0.503999582744,0.5898180188741761,1684,0.0,99,P-GPS,
0.307534416674837,36.8793862832801,19100,2018-03-31 05:57:51,1841.003330412117,70.4000022528,0.0,0.040190101286083205,1841.003330412117,70.4000022528,0.503999582744,0.5898180188741761,1684,0.0,99,P-GPS,
0.307534384493119,36.8793863080922,19200,2018-03-31 05:57:52,1841.5033304281171,70.90000226880001,0.0,0.037813501210032005,1841.5033304281171,70.90000226880001,0.503999582744,0.5898180188741761,1684,0.0,99,P-GPS,
0.307534361014214,36.8793863364425,19300,2018-03-31 05:57:52,1842.0033304441172,71.4000022848,0.0,0.0352291011273312,1842.0033304441172,71.4000022848,0.503999582744,0.5898180188741761,1684,0.0,99,P-GPS,
0.30753434075433506,36.879386350003706,19400,2018-03-31 05:57:52,1842.5033304601172,71.9000023008,0.0,0.0343944011006208,1842.5033304601172,71.9000023008,0.503999582744,0.5898180188741761,1684,0.0,99,P-GPS,
0.307534283974971,36.8793863687851,19500,2018-03-31 05:57:52,1843.003330476117,72.40000231680001,0.0,0.0349973011199136,1843.003330476117,72.40000231680001,0.503999582744,0.5898180188741761,1684,0.0,99,P-GPS,
0.30753423131353497,36.8793863760533,19600,2018-03-31 05:57:52,1843.5033304921174,72.9000023328,0.0,0.03753290120105281,1843.5033304921174,72.9000023328,0.503999582744,0.5898180188741761,1684,0.0,99,P-GPS,
0.30753414413275,36.879386415303294,19700,2018-03-31 05:57:52,1844.0033305081172,73.4000023488,0.0,0.041274701320790405,1844.0033305081172,73.4000023488,0.503999582744,0.5898180188741761,1684,0.0,99,P-GPS,
0.307534079345106,36.879386445281,19800,2018-03-31 05:57:52,1844.503330524117,73.9000023648,0.0,0.0454444014542208,1844.503330524117,73.9000023648,0.503999582744,0.5898180188741761,1373,0.0,99,P-GPS,
0.307534017644991,36.879386517063,19900,2018-03-31 05:57:52,1845.003330540117,74.4000023808,0.0,0.048659201557094404,1845.003330540117,74.4000023808,0.503999582744,0.5898180188741761,1015,0.0,99,P-GPS,
0.307533977608881,36.8793865624358,20000,2018-03-31 05:57:52,1845.5033305561171,74.9000023968,0.0,0.051816901658140804,1845.5033305561171,74.9000023968,0.503999582744,0.5898180188741761,1024,0.0,99,P-GPS,
0.30753394684187396,36.8793866128799,20100,2018-03-31 05:57:52,1845.9033305689172,75.30000240960001,0.0,0.054546301745481605,1845.9033305689172,75.30000240960001,0.503999582744,0.5898180188741761,1024,0.0,99,P-GPS,
0.307533931197006,36.879386630509295,20200,2018-03-31 05:57:52,1846.303330581717,75.7000024224,0.0,0.05619560179825921,1846.303330581717,75.7000024224,0.503999582744,0.5898180188741761,1024,0.0,99,P-GPS,
0.307533896892205,36.879386618007004,20300,2018-03-31 05:57:53,1846.7033305945172,76.10000243520001,0.0,0.06006050192193601,1846.7033305945172,76.10000243520001,0.503999582744,0.5898180188741761,1024,0.0,99,P-GPS,
0.307533880381818,36.8793865929166,20400,2018-03-31 05:57:53,1847.0033306041173,76.4000024448,0.0,0.062088101986819196,1847.0033306041173,76.4000024448,0.503999582744,0.5898180188741761,1024,0.0,99,P-GPS,
0.307533888289949,36.8793865643575,20500,2018-03-31 05:57:53,1847.203330610517,76.6000024512,0.0,0.0615893019708576,1847.203330610517,76.6000024512,0.503999582744,0.5898180188741761,1024,0.0,99,P-GPS,
0.30753390960506,36.8793865208551,20600,2018-03-31 05:57:53,1847.303330613717,76.70000245439999,0.0,0.0601596019251072,1847.303330613717,76.70000245439999,0.503999582744,0.5898180188741761,1024,0.0,99,P-GPS,
0.307533928826399,36.8793864980483,20700,2018-03-31 05:57:53,1847.4033306169172,76.8000024576,0.0,0.058730901879388814,1847.4033306169172,76.8000024576,0.503999582744,0.5898180188741761,1024,0.0,99,P-GPS,
0.307533955512932,36.8793864626524,20800,2018-03-31 05:57:53,1847.5033306201171,76.9000024608,0.0,0.0571536018289152,1847.5033306201171,76.9000024608,0.503999582744,0.5898180188741761,1024,0.0,99,P-GPS,
0.307533966265954,36.8793864219913,20900,2018-03-31 05:57:53,1847.5033306201171,76.9000024608,0.0,0.05781910185021121,1847.5033306201171,76.9000024608,0.503999582744,0.5898180188741761,1024,0.0,99,P-GPS,
0.30753398764661,36.8793863647789,21000,2018-03-31 05:57:53,1847.5033306201171,76.9000024608,0.0,0.0587789018809248,1847.5033306201171,76.9000024608,0.503999582744,0.5898180188741761,1024,0.0,99,P-GPS,
0.30753399758622496,36.8793863345154,21100,2018-03-31 05:57:53,1847.5033306201171,76.9000024608,0.503999582744,0.059718601910995206,1847.5033306201171,76.9000024608,0.503999582744,0.5898180188741761,1024,0.0,99,P-GPS,
0.307534034788028,36.8793862894821,21200,2018-03-31 05:57:53,1847.603330623317,77.000002464,0.503999582744,0.059579101906531214,1847.603330623317,77.000002464,0.503999582744,0.5898180188741761,1024,0.0,99,P-GPS,
0.30753407634429,36.8793862521677,21300,2018-03-31 05:57:54,1847.603330623317,77.000002464,0.35999970196000003,0.059184801893913605,1847.603330623317,77.000002464,0.503999582744,0.5898180188741761,1024,0.0,99,P-GPS,
0.307534166799876,36.879386209975706,21400,2018-03-31 05:57:54,1847.603330623317,77.000002464,0.35999970196000003,0.05683020181856641,1847.603330623317,77.000002464,0.503999582744,0.5898180188741761,1024,0.0,99,P-GPS,
0.30753424774982696,36.8793862292089,21500,2018-03-31 05:57:54,1847.7033306265173,77.1000024672,0.0,0.05068600162195201,1847.7033306265173,77.1000024672,0.503999582744,0.5898180188741761,1024,0.0,99,P-GPS,
0.307534385715674,36.8793862463694,21600,2018-03-31 05:57:54,1847.7033306265173,77.1000024672,0.0,0.04459200142694401,1847.7033306265173,77.1000024672,0.503999582744,0.5898180188741761,1024,0.0,99,P-GPS,
0.30753460814545003,36.879386353899605,21700,2018-03-31 05:57:54,1847.7033306265173,77.1000024672,0.0,0.037508001200256,1847.7033306265173,77.1000024672,0.503999582744,0.5898180188741761,1024,0.0,99,P-GPS,
0.30753487504212895,36.879386443700795,21800,2018-03-31 05:57:54,1847.603330623317,77.000002464,0.0,0.053637501716400006,1847.7033306265173,77.1000024672,0.503999582744,0.5898180188741761,1024,0.0,99,P-GPS,
0.30753516583724105,36.8793865865434,21900,2018-03-31 05:57:54,1847.603330623317,77.000002464,0.0,0.0813769026040608,1847.7033306265173,77.1000024672,0.503999582744,0.5898180188741761,1024,0.0,99,P-GPS,
0.30753582112676897,36.8793868354302,22100,2018-03-31 05:57:54,1847.603330623317,77.000002464,0.35999970196000003,0.155459004974688,1847.7033306265173,77.1000024672,0.503999582744,0.5898180188741761,1024,0.0,99,P-GPS,
0.30753616577656,36.8793869478326,22200,2018-03-31 05:57:54,1847.603330623317,77.000002464,0.35999970196000003,0.195266006248512,1847.7033306265173,77.1000024672,0.503999582744,0.5898180188741761,1024,0.0,99,P-GPS,
0.30753654355022403,36.8793870898252,22300,2018-03-31 05:57:55,1847.603330623317,77.000002464,0.35999970196000003,0.239518007664576,1847.7033306265173,77.1000024672,0.503999582744,0.5898180188741761,1024,0.0,99,P-GPS,
0.307536924264961,36.8793871988863,22400,2018-03-31 05:57:55,1847.5033306201171,76.9000024608,0.35999970196000003,0.283466009070912,1847.7033306265173,77.1000024672,0.503999582744,0.5898180188741761,1024,0.0,99,P-GPS,
0.307537289626167,36.8793873284322,22500,2018-03-31 05:57:55,1847.5033306201171,76.9000024608,0.35999970196000003,0.3263000104416,1847.7033306265173,77.1000024672,0.503999582744,0.5898180188741761,1024,0.0,99,P-GPS,
0.307537646462266,36.8793874331328,22600,2018-03-31 05:57:55,1847.5033306201171,76.9000024608,0.35999970196000003,0.36760901176348804,1847.7033306265173,77.1000024672,0.503999582744,0.5898180188741761,1024,0.0,99,P-GPS,
0.307537980190712,36.8793875568075,22700,2018-03-31 05:57:55,1847.5033306201171,76.9000024608,0.35999970196000003,0.406956013022592,1847.7033306265173,77.1000024672,0.503999582744,0.5898180188741761,989,0.0,99,P-GPS,
0.307538306542015,36.8793876585212,22800,2018-03-31 05:57:55,1847.5033306201171,76.9000024608,0.35999970196000003,0.444927014237664,1847.7033306265173,77.1000024672,0.503999582744,0.5898180188741761,952,0.0,99,P-GPS,
0.30753864851515195,36.8793877695565,22900,2018-03-31 05:57:55,1847.4033306169172,76.8000024576,0.35999970196000003,0.4848500155152001,1847.7033306265173,77.1000024672,0.503999582744,0.5898180188741761,925,0.0,99,P-GPS,
0.307538968499461,36.8793878479677,23000,2018-03-31 05:57:55,1847.4033306169172,76.8000024576,0.35999970196000003,0.521479016687328,1847.7033306265173,77.1000024672,0.503999582744,0.5898180188741761,921,0.0,99,P-GPS,
0.307539276820193,36.8793879359799,23100,2018-03-31 05:57:55,1847.4033306169172,76.8000024576,0.35999970196000003,0.55713001782816,1847.7033306265173,77.1000024672,0.503999582744,0.5898180188741761,894,0.0,98,P-GPS,
0.30753955946850503,36.8793880088936,23200,2018-03-31 05:57:56,1847.4033306169172,76.8000024576,0.35999970196000003,0.5895910188669121,1847.7033306265173,77.1000024672,0.503999582744,0.5898180188741761,901,0.0,98,P-GPS,
0.30753981519873996,36.879388107266,23300,2018-03-31 05:57:56,1847.303330613717,76.70000245439999,0.35999970196000003,0.6198950198366401,1847.7033306265173,77.1000024672,0.503999582744,0.6198950198366401,903,0.0,98,P-GPS,
0.30754005359032105,36.8793881767784,23400,2018-03-31 05:57:56,1847.303330613717,76.70000245439999,0.35999970196000003,0.6475060207201921,1847.7033306265173,77.1000024672,0.503999582744,0.6475060207201921,902,0.0,98,P-GPS,
0.30754033180549895,36.879388276061896,23500,2018-03-31 05:57:56,1847.303330613717,76.70000245439999,0.35999970196000003,0.68026502176848,1847.7033306265173,77.1000024672,0.503999582744,0.68026502176848,901,0.0,98,P-GPS,
0.30754057883394,36.879388354601495,23600,2018-03-31 05:57:56,1847.203330610517,76.6000024512,0.35999970196000003,0.7090710226902721,1847.7033306265173,77.1000024672,0.503999582744,0.7090710226902721,900,0.0,98,P-GPS,
0.307540793303068,36.879388459158704,23700,2018-03-31 05:57:56,1847.203330610517,76.6000024512,0.35999970196000003,0.735182023525824,1847.7033306265173,77.1000024672,0.503999582744,0.735182023525824,901,0.0,98,P-GPS,
0.307540973185266,36.879388539118,23800,2018-03-31 05:57:56,1847.1033306073173,76.500002448,0.35999970196000003,0.756864024219648,1847.7033306265173,77.1000024672,0.503999582744,0.756864024219648,901,0.0,98,P-GPS,
0.30754116272861604,36.8793886131879,23900,2018-03-31 05:57:56,1847.1033306073173,76.500002448,0.0,0.77940502494096,1847.7033306265173,77.1000024672,0.503999582744,0.77940502494096,906,0.0,98,P-GPS,
0.30754130609499297,36.87938865101079,24000,2018-03-31 05:57:56,1847.1033306073173,76.500002448,0.0,0.7958880254684161,1847.7033306265173,77.1000024672,0.503999582744,0.7958880254684161,904,0.0,98,P-GPS,
0.307541437152573,36.879388711926396,24100,2018-03-31 05:57:56,1847.0033306041173,76.4000024448,0.0,0.811781025976992,1847.7033306265173,77.1000024672,0.503999582744,0.811781025976992,906,0.0,98,P-GPS,
0.307541530405012,36.87938874532671,24200,2018-03-31 05:57:56,1847.0033306041173,76.4000024448,0.0,0.822779026328928,1847.7033306265173,77.1000024672,0.503999582744,0.822779026328928,910,0.0,98,P-GPS,
0.307541616380341,36.879388760512,24300,2018-03-31 05:57:57,1847.0033306041173,76.4000024448,0.0,0.8324270266376639,1847.7033306265173,77.1000024672,0.503999582744,0.8324270266376639,908,0.0,98,P-GPS,
0.307541667737393,36.8793887693058,24400,2018-03-31 05:57:57,1846.9033306009171,76.3000024416,0.0,0.8381810268217921,1847.7033306265173,77.1000024672,0.503999582744,0.8381810268217921,910,0.0,98,P-GPS,
0.30754166626324503,36.8793887660608,24500,2018-03-31 05:57:57,1846.9033306009171,76.3000024416,0.0,0.837923026813536,1847.7033306265173,77.1000024672,0.503999582744,0.8381810268217921,910,0.0,98,P-GPS,
0.30754163846652,36.8793887512085,24600,2018-03-31 05:57:57,1846.9033306009171,76.3000024416,0.0,0.8344920267037441,1847.7033306265173,77.1000024672,0.503999582744,0.8381810268217921,908,0.0,98,P-GPS,
0.30754161083956,36.8793887662075,24700,2018-03-31 05:57:57,1846.9033306009171,76.3000024416,0.0,0.8320150266244799,1847.7033306265173,77.1000024672,0.503999582744,0.8381810268217921,908,0.0,98,P-GPS,
0.307541566899663,36.8793887577252,24800,2018-03-31 05:57:57,1846.9033306009171,76.3000024416,0.35999970196000003,0.8270620264659841,1847.7033306265173,77.1000024672,0.503999582744,0.8381810268217921,905,0.0,98,P-GPS,
0.307541481224782,36.8793887395348,24900,2018-03-31 05:57:57,1846.8033305977171,76.2000024384,0.35999970196000003,0.817353026155296,1847.7033306265173,77.1000024672,0.503999582744,0.8381810268217921,903,0.0,98,P-GPS,
0.307541392954568,36.8793887091878,25000,2018-03-31 05:57:57,1846.8033305977171,76.2000024384,0.35999970196000003,0.806982025823424,1847.7033306265173,77.1000024672,0.503999582744,0.8381810268217921,907,0.0,98,P-GPS,
0.307541265857567,36.8793887045939,25100,2018-03-31 05:57:57,1846.8033305977171,76.2000024384,0.35999970196000003,0.7932950253854401,1847.7033306265173,77.1000024672,0.503999582744,0.8381810268217921,906,0.0,98,P-GPS,
0.30754114306780106,36.8793886862911,25200,2018-03-31 05:57:58,1846.7033305945172,76.10000243520001,0.35999970196000003,0.779636024948352,1847.7033306265173,77.1000024672,0.503999582744,0.8381810268217921,891,0.0,98,P-GPS,
0.30754104388518,36.8793886979755,25300,2018-03-31 05:57:58,1846.7033305945172,76.10000243520001,0.35999970196000003,0.7694760246232321,1847.7033306265173,77.1000024672,0.503999582744,0.8381810268217921,891,0.0,98,P-GPS,
0.30754094711571,36.879388693807705,25400,2018-03-31 05:57:58,1846.7033305945172,76.10000243520001,0.35999970196000003,0.759067024290144,1847.7033306265173,77.1000024672,0.503999582744,0.8381810268217921,850,0.0,98,P-GPS,
0.307540851783341,36.87938871680829,25500,2018-03-31 05:57:58,1846.6033305913172,76.000002432,0.35999970196000003,0.749744023991808,1847.7033306265173,77.1000024672,0.503999582744,0.8381810268217921,850,0.0,98,P-GPS,
0.307540768406194,36.879388739328206,25600,2018-03-31 05:57:58,1846.6033305913172,76.000002432,0.0,0.741709023734688,1847.7033306265173,77.1000024672,0.503999582744,0.8381810268217921,838,0.0,98,P-GPS,
0.30754065749328097,36.87938878830771,25700,2018-03-31 05:57:58,1846.6033305913172,76.000002432,0.0,0.7317670234165441,1847.7033306265173,77.1000024672,0.503999582744,0.8381810268217921,848,0.0,98,P-GPS,
0.30754056276058694,36.8793888196868,25800,2018-03-31 05:57:58,1846.6033305913172,76.000002432,0.0,0.7229750231352001,1847.7033306265173,77.1000024672,0.503999582744,0.8381810268217921,849,0.0,98,P-GPS,
0.30754042211981797,36.8793888374661,25900,2018-03-31 05:57:58,1846.503330588117,75.90000242880001,0.0,0.7089340226858879,1847.7033306265173,77.1000024672,0.503999582744,0.8381810268217921,849,0.0,98,P-GPS,
0.307540104690079,36.8793888705056,26100,2018-03-31 05:57:58,1846.403330584917,75.80000242560001,0.0,0.6772320216714242,1847.7033306265173,77.1000024672,0.503999582744,0.8381810268217921,866,0.0,98,P-GPS,
0.30753995036732695,36.8793888774024,26200,2018-03-31 05:57:58,1846.403330584917,75.80000242560001,0.0,0.661576021170432,1847.7033306265173,77.1000024672,0.503999582744,0.8381810268217921,1024,0.0,98,P-GPS,
0.30753977029745,36.87938887465629,26300,2018-03-31 05:57:59,1846.403330584917,75.80000242560001,0.0,0.6429410205741122,1847.7033306265173,77.1000024672,0.503999582744,0.8381810268217921,1024,0.0,98,P-GPS,
0.307539640180907,36.8793888550848,26400,2018-03-31 05:57:59,1846.303330581717,75.7000024224,0.0,0.628762020120384,1847.7033306265173,77.1000024672,0.503999582744,0.8381810268217921,1024,0.0,98,P-GPS,
0.307539484250881,36.8793888373986,26500,2018-03-31 05:57:59,1846.303330581717,75.7000024224,0.0,0.612054019585728,1847.7033306265173,77.1000024672,0.503999582744,0.8381810268217921,1024,0.0,98,P-GPS,
0.307539368266178,36.8793887970448,26600,2018-03-31 05:57:59,1846.303330581717,75.7000024224,0.0,0.598437019149984,1847.7033306265173,77.1000024672,0.503999582744,0.8381810268217921,1024,0.0,98,P-GPS,
0.30753916744758397,36.879388745392,26700,2018-03-31 05:57:59,1846.303330581717,75.7000024224,0.0,0.575683018421856,1847.7033306265173,77.1000024672,0.503999582744,0.8381810268217921,1024,0.0,98,P-GPS,
0.307539010972334,36.879388703704294,26800,2018-03-31 05:57:59,1846.303330581717,75.7000024224,0.0,0.5579050178529601,1847.7033306265173,77.1000024672,0.503999582744,0.8381810268217921,1024,0.0,98,P-GPS,
0.30753881495602103,36.8793887012162,26900,2018-03-31 05:57:59,1846.303330581717,75.7000024224,0.0,0.5379850172155201,1847.7033306265173,77.1000024672,0.503999582744,0.8381810268217921,1024,0.0,98,P-GPS,
0.307538670575022,36.8793886748925,27000,2018-03-31 05:57:59,1846.303330581717,75.7000024224,0.0,0.5222250167112,1847.7033306265173,77.1000024672,0.503999582744,0.8381810268217921,1024,0.0,98,P-GPS,
0.307538495368442,36.8793886351939,27100,2018-03-31 05:57:59,1846.303330581717,75.7000024224,0.0,0.502768016088576,1847.7033306265173,77.1000024672,0.503999582744,0.8381810268217921,1024,0.0,98,P-GPS,
0.30753836978279,36.879388588295605,27200,2018-03-31 05:58:00,1846.2033305785174,75.60000241920001,0.0,0.48793401561388805,1847.7033306265173,77.1000024672,0.503999582744,0.8381810268217921,1024,0.0,98,P-GPS,
0.30753821701110495,36.879388575709704,27300,2018-03-31 05:58:00,1846.2033305785174,75.60000241920001,0.0,0.47212501510800003,1847.7033306265173,77.1000024672,0.503999582744,0.8381810268217921,1024,0.0,98,P-GPS,
0.30753810853714303,36.879388549793894,27400,2018-03-31 05:58:00,1846.2033305785174,75.60000241920001,0.0,0.460081014722592,1847.7033306265173,77.1000024672,0.503999582744,0.8381810268217921,1024,0.0,98,P-GPS,
0.307537955983415,36.879388562512496,27500,2018-03-31 05:58:00,1846.2033305785174,75.60000241920001,0.0,0.44576701426454407,1847.7033306265173,77.1000024672,0.503999582744,0.8381810268217921,1024,0.0,98,P-GPS,
0.307537846170678,36.87938856110679,27600,2018-03-31 05:58:00,1846.2033305785174,75.60000241920001,0.0,0.435007013920224,1847.7033306265173,77.1000024672,0.503999582744,0.8381810268217921,1024,0.0,98,P-GPS,
0.307537684607956,36.879388592455896,27700,2018-03-31 05:58:00,1846.2033305785174,75.60000241920001,0.0,0.42122001347904,1847.7033306265173,77.1000024672,0.503999582744,0.8381810268217921,1024,0.0,98,P-GPS,
0.307537568902557,36.8793886068939,27800,2018-03-31 05:58:00,1846.2033305785174,75.60000241920001,0.0,0.411089013154848,1847.7033306265173,77.1000024672,0.503999582744,0.8381810268217921,1024,0.0,98,P-GPS,
0.307537440650862,36.8793886370685,27900,2018-03-31 05:58:00,1846.2033305785174,75.60000241920001,0.0,0.40092001282944006,1847.7033306265173,77.1000024672,0.503999582744,0.8381810268217921,1024,0.0,98,P-GPS,
0.30753734771337504,36.879388652559996,28000,2018-03-31 05:58:00,1846.2033305785174,75.60000241920001,0.0,0.3933250125864,1847.7033306265173,77.1000024672,0.503999582744,0.8381810268217921,1024,0.0,98,P-GPS,
0.30753720714731103,36.8793886816758,28100,2018-03-31 05:58:00,1846.2033305785174,75.60000241920001,0.0,0.38247101223907204,1847.7033306265173,77.1000024672,0.503999582744,0.8381810268217921,1024,-0.2,98,P-GPS,
0.307537092009959,36.8793887013725,28200,2018-03-31 05:58:00,1846.2033305785174,75.60000241920001,0.0,0.37357001195424006,1847.7033306265173,77.1000024672,0.503999582744,0.8381810268217921,1024,-0.8,98,P-GPS,
0.307536952667568,36.879388756417,28300,2018-03-31 05:58:01,1846.2033305785174,75.60000241920001,0.0,0.365349011691168,1847.7033306265173,77.1000024672,0.503999582744,0.8381810268217921,1024,-1.5,98,P-GPS,
0.307536856428055,36.879388785039204,28400,2018-03-31 05:58:01,1846.2033305785174,75.60000241920001,0.0,0.35931901149820805,1847.7033306265173,77.1000024672,0.503999582744,0.8381810268217921,1024,-2.2,98,P-GPS,
0.307536705384175,36.8793888016334,28500,2018-03-31 05:58:01,1846.2033305785174,75.60000241920001,0.0,0.348186011141952,1847.7033306265173,77.1000024672,0.503999582744,0.8381810268217921,1024,-3.0,98,P-GPS,
0.30753660444171504,36.8793887984666,28600,2018-03-31 05:58:01,1846.2033305785174,75.60000241920001,0.0,0.339891010876512,1847.7033306265173,77.1000024672,0.503999582744,0.8381810268217921,1024,-3.8,98,P-GPS,
0.307536487214611,36.8793888336933,28700,2018-03-31 05:58:01,1846.2033305785174,75.60000241920001,0.0,0.333619010675808,1847.7033306265173,77.1000024672,0.503999582744,0.8381810268217921,1024,-4.6,98,P-GPS,
0.307536414557002,36.8793888478208,28800,2018-03-31 05:58:01,1846.2033305785174,75.60000241920001,0.0,0.32931601053811205,1847.7033306265173,77.1000024672,0.503999582744,0.8381810268217921,1024,-5.4,98,P-GPS,
0.307536326293506,36.8793888681749,28900,2018-03-31 05:58:01,1846.2033305785174,75.60000241920001,0.0,0.32456301038601604,1847.7033306265173,77.1000024672,0.503999582744,0.8381810268217921,1024,-6.2,98,P-GPS,
0.30753627307076503,36.8793888797095,29000,2018-03-31 05:58:01,1846.2033305785174,75.60000241920001,0.0,0.321752010296064,1847.7033306265173,77.1000024672,0.503999582744,0.8381810268217921,1024,-6.9,98,P-GPS,
0.30753617459682303,36.879388940481604,29100,2018-03-31 05:58:01,1846.2033305785174,75.60000241920001,0.0,0.320276010248832,1847.7033306265173,77.1000024672,0.503999582744,0.8381810268217921,1024,-7.7,98,P-GPS,
0.307536119877848,36.8793889789801,29200,2018-03-31 05:58:01,1846.2033305785174,75.60000241920001,0.0,0.32010301024329607,1847.7033306265173,77.1000024672,0.503999582744,0.8381810268217921,1024,-8.5,98,P-GPS,
0.307536023095146,36.879389015875894,29300,2018-03-31 05:58:02,1846.2033305785174,75.60000241920001,0.0,0.31733101015459203,1847.7033306265173,77.1000024672,0.503999582744,0.8381810268217921,1024,-9.3,98,P-GPS,
