latitude,longitude,time_millisecond,datetime_utc,altitude_m,ascent_m,speed_kph,distance_m,max_altitude_m,max_ascent_m,max_speed_kph,max_distance_m,rc_throttle,gimbal_pitch_degrees,battery_percent,flycState,message
0.37673001328947103,36.924518537498706,0,2018-04-02 06:42:06,1627.001150664028,0.0,0.0,0.0,1627.001150664028,0.0,0.0,0.0,364,0.0,99,Motors_Started,Setting new Return-To-Home altitude to 30m (98 ft). Setting new Maximum Flight Altitude to 150m (492 ft)
0.376730055321239,36.9245185362777,100,2018-04-02 06:42:06,1627.001150664028,0.0,0.0,0.00467616014963712,1627.001150664028,0.0,0.0,0.00467616014963712,364,0.0,99,Motors_Started,
0.37673009747514,36.9245185310295,200,2018-04-02 06:42:06,1627.001150664028,0.0,0.0,0.009389560300465921,1627.001150664028,0.0,0.0,0.009389560300465921,364,0.0,99,Motors_Started,
0.37673014316765,36.9245185284515,300,2018-04-02 06:42:06,1627.001150664028,0.0,0.0,0.0144782004633024,1627.001150664028,0.0,0.0,0.0144782004633024,364,0.0,99,Motors_Started,
0.37673019043812295,36.9245185230705,400,2018-04-02 06:42:07,1627.001150664028,0.0,0.0,0.0197652006324864,1627.001150664028,0.0,0.0,0.0197652006324864,364,0.0,99,Motors_Started,
0.376730238688918,36.924518520326,500,2018-04-02 06:42:07,1627.001150664028,0.0,0.0,0.0251384008044288,1627.001150664028,0.0,0.0,0.0251384008044288,364,0.0,99,Motors_Started,
0.376730288017744,36.9245185156554,600,2018-04-02 06:42:07,1627.001150664028,0.0,0.0,0.030647900980732803,1627.001150664028,0.0,0.0,0.030647900980732803,364,0.0,99,Motors_Started,
0.3767303387405179,36.9245185135302,700,2018-04-02 06:42:07,1627.001150664028,0.0,0.0,0.0362902011612864,1627.001150664028,0.0,0.0,0.0362902011612864,368,0.0,99,Motors_Started,
0.37673036071636895,36.9245185104992,800,2018-04-02 06:42:07,1627.001150664028,0.0,0.0,0.038752501240080006,1627.001150664028,0.0,0.0,0.038752501240080006,383,0.0,99,Motors_Started,
0.37673038092698796,36.92451850907,900,2018-04-02 06:42:07,1627.001150664028,0.0,0.0,0.0410056013121792,1627.001150664028,0.0,0.0,0.0410056013121792,493,0.0,99,Motors_Started,
0.376730402585293,36.924518507297,1000,2018-04-02 06:42:07,1627.001150664028,0.0,0.0,0.0434221013895072,1627.001150664028,0.0,0.0,0.0434221013895072,693,0.0,99,Motors_Started,
0.37673043433506503,36.9245185066311,1100,2018-04-02 06:42:07,1627.001150664028,0.0,0.0,0.046948501502352004,1627.001150664028,0.0,0.0,0.046948501502352004,918,0.0,99,Motors_Started,
0.37673046717752395,36.9245185043667,1200,2018-04-02 06:42:07,1627.001150664028,0.0,0.0,0.0506094016195008,1627.001150664028,0.0,0.0,0.0506094016195008,1071,0.0,99,Motors_Started,
0.37673050741800396,36.92451850399571,1300,2018-04-02 06:42:07,1627.001150664028,0.0,0.0,0.055076301762441604,1627.001150664028,0.0,0.0,0.055076301762441604,1024,0.0,99,Motors_Started,
0.376730550482205,36.9245185014139,1400,2018-04-02 06:42:08,1627.001150664028,0.0,0.0,0.05987370191595841,1627.001150664028,0.0,0.0,0.05987370191595841,1024,0.0,99,Motors_Started,
0.37673059779176005,36.9245185018647,1500,2018-04-02 06:42:08,1627.001150664028,0.0,0.0,0.0651209020838688,1627.001150664028,0.0,0.0,0.0651209020838688,1024,0.0,99,Motors_Started,
0.376730648542217,36.9245185013625,1600,2018-04-02 06:42:08,1627.001150664028,0.0,0.0,0.07075820226426241,1627.001150664028,0.0,0.0,0.07075820226426241,1024,0.0,99,Assisted_Takeoff,
0.37673069628330996,36.924518499868,1700,2018-04-02 06:42:08,1627.001150664028,0.0,0.0,0.07606830243418561,1627.001150664028,0.0,0.0,0.07606830243418561,1024,0.0,99,Assisted_Takeoff,
0.37673074878597296,36.924518469378704,1800,2018-04-02 06:42:08,1627.001150664028,0.0,0.0,0.0821417026285344,1627.001150664028,0.0,0.0,0.0821417026285344,1024,0.0,99,Assisted_Takeoff,
0.376730800606318,36.924518438064105,1900,2018-04-02 06:42:08,1627.001150664028,0.0,0.0,0.08824990282399679,1627.001150664028,0.0,0.0,0.08824990282399679,1024,0.0,99,Assisted_Takeoff,
0.37673085722405897,36.9245184079207,2000,2018-04-02 06:42:08,1627.001150664028,0.0,0.0,0.0949504030384128,1627.001150664028,0.0,0.0,0.0949504030384128,1024,0.0,99,Assisted_Takeoff,
0.37673091102459105,36.9245183878374,2100,2018-04-02 06:42:08,1627.001150664028,0.0,0.0,0.101211003238752,1627.001150664028,0.0,0.0,0.101211003238752,1024,0.0,99,Assisted_Takeoff,
0.376730967541369,36.9245183723819,2200,2018-04-02 06:42:08,1627.001150664028,0.0,0.0,0.10769500344624001,1627.001150664028,0.0,0.0,0.10769500344624001,1024,0.0,99,Assisted_Takeoff,
0.37673102187766,36.92451836046371,2300,2018-04-02 06:42:09,1627.001150664028,0.0,0.0,0.113876003644032,1627.001150664028,0.0,0.0,0.113876003644032,1024,0.0,99,Assisted_Takeoff,
0.376731075748215,36.9245183265405,2400,2018-04-02 06:42:09,1627.001150664028,0.0,0.0,0.12045800385465599,1627.001150664028,0.0,0.0,0.12045800385465599,1024,0.0,99,Assisted_Takeoff,
0.3767311284202371,36.924518291226,2500,2018-04-02 06:42:09,1627.001150664028,0.0,0.0,0.12699700406390402,1627.001150664028,0.0,0.0,0.12699700406390402,1024,0.0,99,Assisted_Takeoff,
0.37673118161824504,36.924518263093795,2600,2018-04-02 06:42:09,1627.001150664028,0.0,0.0,0.133461004270752,1627.001150664028,0.0,0.0,0.133461004270752,1024,0.0,99,Assisted_Takeoff,
0.37673123365517297,36.924518242566705,2700,2018-04-02 06:42:09,1627.001150664028,0.0,0.0,0.13961900446780803,1627.001150664028,0.0,0.0,0.13961900446780803,1024,0.0,99,Assisted_Takeoff,
0.376731283734711,36.924518231925795,2800,2018-04-02 06:42:09,1627.001150664028,0.0,0.0,0.14531000464992,1627.001150664028,0.0,0.0,0.14531000464992,1024,0.0,99,Assisted_Takeoff,
0.37673133358301,36.9245182219684,2900,2018-04-02 06:42:09,1627.001150664028,0.0,0.0,0.150959004830688,1627.001150664028,0.0,0.0,0.150959004830688,1024,0.0,99,Assisted_Takeoff,
0.37673138259754607,36.9245181933352,3000,2018-04-02 06:42:09,1627.001150664028,0.0,0.0,0.15701100502435197,1627.001150664028,0.0,0.0,0.15701100502435197,1024,0.0,99,Assisted_Takeoff,
0.376731431639766,36.924518159327896,3100,2018-04-02 06:42:09,1627.001150664028,0.0,0.0,0.163239005223648,1627.001150664028,0.0,0.0,0.163239005223648,1024,0.0,99,Assisted_Takeoff,
0.37673148005829105,36.9245181353984,3200,2018-04-02 06:42:09,1627.001150664028,0.0,0.0,0.169132005412224,1627.001150664028,0.0,0.0,0.169132005412224,1024,0.0,99,Assisted_Takeoff,
0.376731529102139,36.92451811661061,3300,2018-04-02 06:42:09,1627.001150664028,0.0,0.0,0.17494500559824003,1627.001150664028,0.0,0.0,0.17494500559824003,1024,0.0,99,Assisted_Takeoff,
0.37673157830394605,36.9245181098753,3400,2018-04-02 06:42:10,1627.001150664028,0.0,0.0,0.18041900577340803,1627.001150664028,0.0,0.0,0.18041900577340803,1024,0.0,99,Assisted_Takeoff,
0.376731627212633,36.9245181020073,3500,2018-04-02 06:42:10,1627.001150664028,0.0,0.0,0.185897005948704,1627.001150664028,0.0,0.0,0.185897005948704,1024,0.0,99,Assisted_Takeoff,
0.37673167611806296,36.9245180776672,3600,2018-04-02 06:42:10,1627.001150664028,0.0,0.0,0.19185700613942402,1627.001150664028,0.0,0.0,0.19185700613942402,1024,0.0,99,Assisted_Takeoff,
0.376731725054433,36.92451804697561,3700,2018-04-02 06:42:10,1627.001150664028,0.0,0.0,0.19802000633664002,1627.001150664028,0.0,0.0,0.19802000633664002,1024,0.0,99,Assisted_Takeoff,
0.376731773792134,36.9245180272189,3800,2018-04-02 06:42:10,1627.001150664028,0.0,0.0,0.203836006522752,1627.001150664028,0.0,0.0,0.203836006522752,1024,0.0,99,Assisted_Takeoff,
0.376731822225315,36.924518010640796,3900,2018-04-02 06:42:10,1627.001150664028,0.0,0.0,0.20952300670473598,1627.001150664028,0.0,0.0,0.20952300670473598,1024,0.0,99,Assisted_Takeoff,
0.37673187126427793,36.9245180060007,4000,2018-04-02 06:42:10,1627.001150664028,0.0,0.0,0.21490600687699202,1627.001150664028,0.0,0.0,0.21490600687699202,1024,0.0,99,Assisted_Takeoff,
0.376731919674661,36.9245179974823,4100,2018-04-02 06:42:10,1627.001150664028,0.0,0.0,0.22034300705097598,1627.001150664028,0.0,0.0,0.22034300705097598,1024,0.0,99,Assisted_Takeoff,
0.376731967967796,36.924518000683996,4200,2018-04-02 06:42:10,1627.001150664028,0.0,0.0,0.22542000721344002,1627.001150664028,0.0,0.0,0.22542000721344002,1024,0.0,99,Assisted_Takeoff,
0.376732014928864,36.9245179980813,4300,2018-04-02 06:42:11,1627.001150664028,0.0,0.0,0.23053500737712002,1627.001150664028,0.0,0.0,0.23053500737712002,1024,0.0,99,Assisted_Takeoff,
0.37673206242731805,36.924517975776,4400,2018-04-02 06:42:11,1627.001150664028,0.0,0.0,0.23628300756105602,1627.001150664028,0.0,0.0,0.23628300756105602,1024,0.0,99,Assisted_Takeoff,
0.376732109212515,36.92451794617,4500,2018-04-02 06:42:11,1627.001150664028,0.0,0.0,0.24217800774969597,1627.001150664028,0.0,0.0,0.24217800774969597,1024,0.0,99,Assisted_Takeoff,
0.37673212841349796,36.924517927110294,4600,2018-04-02 06:42:11,1627.001150664028,0.0,0.0,0.24481300783401602,1627.001150664028,0.0,0.0,0.24481300783401602,1024,0.0,99,Assisted_Takeoff,
0.37673214654785,36.924517909776895,4700,2018-04-02 06:42:11,1627.001150664028,0.0,0.0,0.247288007913216,1627.001150664028,0.0,0.0,0.247288007913216,1024,0.0,99,Assisted_Takeoff,
0.3767321691587949,36.924517905239604,4800,2018-04-02 06:42:11,1627.001150664028,0.0,0.0,0.24984300799497597,1627.001150664028,0.0,0.0,0.24984300799497597,1024,0.0,99,Assisted_Takeoff,
0.37673219997709795,36.9245178969241,4900,2018-04-02 06:42:11,1627.001150664028,0.0,0.0,0.253392008108544,1627.001150664028,0.0,0.0,0.253392008108544,1024,0.0,99,Assisted_Takeoff,
0.376732236107385,36.9245179000166,5000,2018-04-02 06:42:11,1627.001150664028,0.0,0.0,0.25715500822896,1627.001150664028,0.0,0.0,0.25715500822896,1024,0.0,99,Assisted_Takeoff,
0.376732273786322,36.924517898819104,5100,2018-04-02 06:42:11,1627.001150664028,0.0,0.0,0.26122200835910403,1627.001150664028,0.0,0.0,0.26122200835910403,1024,0.0,99,Assisted_Takeoff,
0.37673228949429294,36.9245179081544,5200,2018-04-02 06:42:11,1627.001150664028,0.0,0.0,0.262625008404,1627.001150664028,0.0,0.0,0.262625008404,1024,0.0,99,Assisted_Takeoff,
0.37673230355427795,36.924517909471795,5300,2018-04-02 06:42:11,1627.001150664028,0.0,0.0,0.26409300845097605,1627.001150664028,0.0,0.0,0.26409300845097605,1111,0.0,99,Assisted_Takeoff,
0.376732296994906,36.924517889381,5400,2018-04-02 06:42:12,1627.001150664028,0.0,0.0,0.263991008447712,1627.001150664028,0.0,0.0,0.26409300845097605,1208,0.0,99,Assisted_Takeoff,
0.3767322960569221,36.9245178623204,5500,2018-04-02 06:42:12,1627.001150664028,0.0,0.0,0.264728008471296,1627.001150664028,0.0,0.0,0.264728008471296,1225,0.0,99,Assisted_Takeoff,
0.37673230899002397,36.924517843870895,5600,2018-04-02 06:42:12,1627.001150664028,0.0,0.0,0.26669400853420805,1627.001150664028,0.0,0.0,0.26669400853420805,1211,0.0,99,Assisted_Takeoff,
0.37673233078674706,36.9245178290637,5700,2018-04-02 06:42:12,1627.001150664028,0.0,0.0,0.269492008623744,1627.001150664028,0.0,0.0,0.269492008623744,1215,0.0,99,Assisted_Takeoff,
0.376732337964928,36.9245178242089,5800,2018-04-02 06:42:12,1627.001150664028,0.0,0.0,0.27041300865321605,1627.001150664028,0.0,0.0,0.27041300865321605,1245,0.0,99,Assisted_Takeoff,
0.37673234604201006,36.9245178180641,5900,2018-04-02 06:42:12,1627.001150664028,0.0,0.0,0.27147300868713603,1627.001150664028,0.0,0.0,0.27147300868713603,1274,0.0,99,Assisted_Takeoff,
0.37673237105653895,36.92451782111971,6000,2018-04-02 06:42:12,1627.001150664028,0.0,0.0,0.27403300876905606,1627.001150664028,0.0,0.0,0.27403300876905606,1286,0.0,99,Assisted_Takeoff,
0.37673240961972104,36.9245178291552,6100,2018-04-02 06:42:12,1627.001150664028,0.0,0.0,0.27788500889232004,1627.001150664028,0.0,0.0,0.27788500889232004,1299,0.0,99,Assisted_Takeoff,
0.37673247812835997,36.924517854994704,6200,2018-04-02 06:42:12,1627.001150664028,0.0,0.0,0.28441900910140805,1627.001150664028,0.0,0.0,0.28441900910140805,1290,0.0,99,P-GPS,
0.37673260370093303,36.9245178835027,6300,2018-04-02 06:42:12,1627.001150664028,0.0,0.35999970196000003,0.29710800950745603,1627.001150664028,0.0,0.35999970196000003,0.29710800950745603,1286,0.0,99,P-GPS,
0.376732812407201,36.9245179164924,6400,2018-04-02 06:42:13,1627.001150664028,0.0,0.35999970196000003,0.31884701020310396,1627.001150664028,0.0,0.35999970196000003,0.31884701020310396,1286,0.0,99,P-GPS,
0.37673302189186497,36.9245179408721,6500,2018-04-02 06:42:13,1627.101150667228,0.10000000320000002,0.35999970196000003,0.34109001091488,1627.101150667228,0.10000000320000002,0.35999970196000003,0.34109001091488,1289,0.0,99,P-GPS,
0.37673320981918795,36.9245179848811,6600,2018-04-02 06:42:13,1627.201150670428,0.20000000640000004,0.35999970196000003,0.360746011543872,1627.201150670428,0.20000000640000004,0.35999970196000003,0.360746011543872,1315,0.0,99,P-GPS,
0.37673338103053294,36.9245180282365,6700,2018-04-02 06:42:13,1627.301150673628,0.3000000096,0.35999970196000003,0.37877101212067205,1627.301150673628,0.3000000096,0.35999970196000003,0.37877101212067205,1358,0.0,99,P-GPS,
0.37673357458250106,36.92451808682689,6800,2018-04-02 06:42:13,1627.4011506768281,0.4000000128000001,0.35999970196000003,0.399196012774272,1627.4011506768281,0.4000000128000001,0.35999970196000003,0.399196012774272,1357,0.0,99,P-GPS,
0.37673375134684006,36.924518117127704,6900,2018-04-02 06:42:13,1627.501150680028,0.500000016,0.35999970196000003,0.41831501338608,1627.501150680028,0.500000016,0.35999970196000003,0.41831501338608,1341,0.0,99,P-GPS,
0.37673394365956203,36.924518073810795,7000,2018-04-02 06:42:13,1627.6011506832278,0.6000000192,0.35999970196000003,0.44011201408358397,1627.6011506832278,0.6000000192,0.35999970196000003,0.44011201408358397,1331,0.0,99,P-GPS,
0.37673410738983604,36.9245180195613,7100,2018-04-02 06:42:13,1627.801150689628,0.8000000256000002,0.0,0.4589180146853761,1627.801150689628,0.8000000256000002,0.35999970196000003,0.4589180146853761,1324,0.0,99,P-GPS,Home Point Recorded. RTH Altitude:  30m.
0.37673423765232794,36.9245180069359,7200,2018-04-02 06:42:13,1627.901150692828,0.9000000288000001,0.0,0.47346501515088,1627.901150692828,0.9000000288000001,0.35999970196000003,0.47346501515088,1345,0.0,99,P-GPS,
0.37673434250946497,36.9245180091714,7300,2018-04-02 06:42:13,1628.101150699228,1.1000000352,0.0,0.485007015520224,1628.101150699228,1.1000000352,0.35999970196000003,0.485007015520224,1332,0.0,99,P-GPS,
0.376734424791484,36.924517995064896,7400,2018-04-02 06:42:14,1628.301150705628,1.3000000416000002,0.0,0.49428001581696007,1628.301150705628,1.3000000416000002,0.35999970196000003,0.49428001581696007,1301,0.0,99,P-GPS,
0.37673449871307,36.924517977244896,7500,2018-04-02 06:42:14,1628.5011507120282,1.5000000480000002,0.0,0.502682016085824,1628.5011507120282,1.5000000480000002,0.35999970196000003,0.502682016085824,1303,0.0,99,P-GPS,
0.376734559600591,36.924517933436604,7600,2018-04-02 06:42:14,1628.601150715228,1.6000000512000003,0.0,0.510021016320672,1628.601150715228,1.6000000512000003,0.35999970196000003,0.510021016320672,1325,0.0,99,P-GPS,
0.37673461573957,36.9245179004346,7700,2018-04-02 06:42:14,1628.801150721628,1.8000000576000001,0.0,0.5167000165344001,1628.801150721628,1.8000000576000001,0.35999970196000003,0.5167000165344001,1337,0.0,99,P-GPS,
0.3767347032374939,36.924517895998,7800,2018-04-02 06:42:14,1629.001150728028,2.000000064,0.0,0.526407016845024,1629.001150728028,2.000000064,0.35999970196000003,0.526407016845024,1326,0.0,99,P-GPS,
0.37673478824064205,36.9245179018505,7900,2018-04-02 06:42:14,1629.101150731228,2.1000000672,0.0,0.535688017142016,1629.101150731228,2.1000000672,0.35999970196000003,0.535688017142016,1315,0.0,99,P-GPS,
0.37673486036116993,36.9245179023853,8000,2018-04-02 06:42:14,1629.3011507376282,2.3000000736,0.0,0.543631017396192,1629.3011507376282,2.3000000736,0.35999970196000003,0.543631017396192,1315,0.0,99,P-GPS,
0.376734911930734,36.924517893151204,8100,2018-04-02 06:42:14,1629.5011507440279,2.50000008,0.0,0.549451017582432,1629.5011507440279,2.50000008,0.35999970196000003,0.549451017582432,1300,0.0,99,P-GPS,
0.37673494536594704,36.9245178689075,8200,2018-04-02 06:42:14,1629.6011507472278,2.6000000832000003,0.0,0.5534930177117761,1629.6011507472278,2.6000000832000003,0.35999970196000003,0.5534930177117761,1290,0.0,99,P-GPS,
0.376734957488084,36.924517846297,8300,2018-04-02 06:42:14,1629.801150753628,2.8000000896000006,0.0,0.555172017765504,1629.801150753628,2.8000000896000006,0.35999970196000003,0.555172017765504,1290,0.0,99,P-GPS,
0.3767349638211021,36.9245178325694,8400,2018-04-02 06:42:15,1629.901150756828,2.9000000928,0.0,0.556082017794624,1629.901150756828,2.9000000928,0.35999970196000003,0.556082017794624,1293,0.0,99,P-GPS,
0.376734971259835,36.92451782612321,8500,2018-04-02 06:42:15,1630.1011507632281,3.1000000992,0.0,0.557003017824096,1630.1011507632281,3.1000000992,0.35999970196000003,0.557003017824096,1300,0.0,99,P-GPS,
0.37673499045267606,36.9245178662475,8600,2018-04-02 06:42:15,1630.2011507664279,3.2000001024000007,0.0,0.558502017872064,1630.2011507664279,3.2000001024000007,0.35999970196000003,0.558502017872064,1305,0.0,99,P-GPS,
0.3767349966342489,36.9245179201469,8700,2018-04-02 06:42:15,1630.4011507728278,3.4000001088000005,0.0,0.558414017869248,1630.4011507728278,3.4000001088000005,0.35999970196000003,0.558502017872064,1318,0.0,99,P-GPS,
0.37673499211857403,36.9245179548919,8800,2018-04-02 06:42:15,1630.501150776028,3.500000112,0.0,0.557454017838528,1630.501150776028,3.500000112,0.35999970196000003,0.558502017872064,1333,0.0,99,P-GPS,
0.376734968097396,36.9245179623348,8900,2018-04-02 06:42:15,1630.601150779228,3.6000001152000003,0.0,0.55470501775056,1630.601150779228,3.6000001152000003,0.35999970196000003,0.558502017872064,1341,0.0,99,P-GPS,
0.376734948839418,36.9245180116991,9000,2018-04-02 06:42:15,1630.8011507856281,3.8000001215999997,0.0,0.551969017663008,1630.8011507856281,3.8000001215999997,0.35999970196000003,0.558502017872064,1341,0.0,99,P-GPS,
0.37673492367833006,36.9245180744484,9100,2018-04-02 06:42:15,1630.901150788828,3.9000001248,0.0,0.5484880175516161,1630.901150788828,3.9000001248,0.35999970196000003,0.558502017872064,1339,0.0,99,P-GPS,
0.376734899642496,36.9245181158429,9200,2018-04-02 06:42:15,1631.1011507952278,4.100000131200001,0.0,0.5454120174531839,1631.1011507952278,4.100000131200001,0.35999970196000003,0.558502017872064,1341,0.0,99,P-GPS,
0.376734880272155,36.9245181396001,9300,2018-04-02 06:42:16,1631.301150801628,4.3000001376,0.0,0.5430440173774079,1631.301150801628,4.3000001376,0.35999970196000003,0.558502017872064,1341,0.0,99,P-GPS,
0.376734899466624,36.9245181501441,9400,2018-04-02 06:42:16,1631.401150804828,4.4000001408,0.0,0.545077017442464,1631.401150804828,4.4000001408,0.35999970196000003,0.558502017872064,1327,0.0,99,P-GPS,
0.376734973357271,36.924518143664706,9500,2018-04-02 06:42:16,1631.601150811228,4.6000001472,0.35999970196000003,0.553326017706432,1631.601150811228,4.6000001472,0.35999970196000003,0.558502017872064,1316,0.0,99,P-GPS,
0.37673510260687104,36.924518128063,9600,2018-04-02 06:42:16,1631.801150817628,4.8000001536,0.35999970196000003,0.567792018169344,1631.801150817628,4.8000001536,0.35999970196000003,0.567792018169344,1309,0.0,99,P-GPS,
0.37673524758561105,36.9245181325677,9700,2018-04-02 06:42:16,1632.0011508240282,5.00000016,0.35999970196000003,0.5838250186824001,1632.0011508240282,5.00000016,0.35999970196000003,0.5838250186824001,1307,-0.1,99,P-GPS,
0.376735429945284,36.9245181555293,9800,2018-04-02 06:42:16,1632.101150827228,5.1000001632,0.35999970196000003,0.6038610193235521,1632.101150827228,5.1000001632,0.35999970196000003,0.6038610193235521,1306,-2.2,99,P-GPS,
0.37673560968641795,36.9245181753342,9900,2018-04-02 06:42:16,1632.3011508336278,5.3000001696,0.35999970196000003,0.62365501995696,1632.3011508336278,5.3000001696,0.35999970196000003,0.62365501995696,1308,-4.4,99,P-GPS,
0.37673575305951296,36.9245181726288,10000,2018-04-02 06:42:16,1632.401150836828,5.4000001727999996,0.0,0.6395860204667521,1632.401150836828,5.4000001727999996,0.35999970196000003,0.6395860204667521,1308,-6.5,99,P-GPS,
0.37673585066518894,36.9245181528292,10100,2018-04-02 06:42:16,1632.601150843228,5.600000179200001,0.0,0.65056002081792,1632.601150843228,5.600000179200001,0.35999970196000003,0.65056002081792,1304,-6.5,99,P-GPS,
0.376735932489615,36.9245181154629,10200,2018-04-02 06:42:16,1632.701150846428,5.7000001824,0.0,0.6599220211175041,1632.701150846428,5.7000001824,0.35999970196000003,0.6599220211175041,1302,-8.3,99,P-GPS,
0.376736010803115,36.924518108332,10300,2018-04-02 06:42:16,1632.9011508528279,5.9000001888,0.35999970196000003,0.66866502139728,1632.9011508528279,5.9000001888,0.35999970196000003,0.66866502139728,1302,-8.4,99,P-GPS,
0.376736104458186,36.92451811435421,10400,2018-04-02 06:42:17,1633.0011508560278,6.000000192000001,0.35999970196000003,0.679008021728256,1633.0011508560278,6.000000192000001,0.35999970196000003,0.679008021728256,1307,-8.4,99,P-GPS,
0.37673620150042103,36.924518156989706,10500,2018-04-02 06:42:17,1633.201150862428,6.2000001984,0.35999970196000003,0.6894660220629121,1633.201150862428,6.2000001984,0.35999970196000003,0.6894660220629121,1311,-8.4,99,P-GPS,
0.37673630983917206,36.9245182480328,10600,2018-04-02 06:42:17,1633.301150865628,6.300000201600001,0.503999582744,0.700954022430528,1633.301150865628,6.300000201600001,0.503999582744,0.700954022430528,1312,-8.4,99,P-GPS,
0.376736404476195,36.92451838417,10700,2018-04-02 06:42:17,1633.401150868828,6.400000204800001,0.35999970196000003,0.7109430227501761,1633.401150868828,6.400000204800001,0.503999582744,0.7109430227501761,1315,-8.4,99,P-GPS,
0.37673648232558793,36.9245185436281,10800,2018-04-02 06:42:17,1633.601150875228,6.6000002112,0.35999970196000003,0.719397023020704,1633.601150875228,6.6000002112,0.503999582744,0.719397023020704,1325,-8.4,99,P-GPS,
0.37673653337893603,36.924518683209996,10900,2018-04-02 06:42:17,1633.701150878428,6.7000002144,0.0,0.7252550232081599,1633.701150878428,6.7000002144,0.503999582744,0.7252550232081599,1326,-8.4,99,P-GPS,
0.37673657991498,36.9245187502417,11000,2018-04-02 06:42:17,1633.901150884828,6.9000002208,0.0,0.730632023380224,1633.901150884828,6.9000002208,0.503999582744,0.730632023380224,1327,-8.4,99,P-GPS,
0.37673661116156304,36.9245187831372,11100,2018-04-02 06:42:17,1634.001150888028,7.000000224,0.0,0.734232023495424,1634.001150888028,7.000000224,0.503999582744,0.734232023495424,1327,-8.4,99,P-GPS,
0.37673664721531397,36.924518825233,11200,2018-04-02 06:42:17,1634.2011508944279,7.200000230400001,0.0,0.7384270236296641,1634.2011508944279,7.200000230400001,0.503999582744,0.7384270236296641,1334,-8.4,99,P-GPS,
0.376736672741173,36.924518863519,11300,2018-04-02 06:42:17,1634.301150897628,7.3000002336000005,0.35999970196000003,0.741459023726688,1634.301150897628,7.3000002336000005,0.503999582744,0.741459023726688,1332,-8.4,99,P-GPS,
0.37673670700689205,36.924518877674295,11400,2018-04-02 06:42:18,1634.501150904028,7.50000024,0.0,0.7453430238509761,1634.501150904028,7.50000024,0.503999582744,0.7453430238509761,1333,-8.4,99,P-GPS,
0.376736733504933,36.9245188717559,11500,2018-04-02 06:42:18,1634.701150910428,7.7000002464,0.0,0.7482530239440961,1634.701150910428,7.7000002464,0.503999582744,0.7482530239440961,1333,-8.4,99,P-GPS,
0.37673678105061204,36.9245188471519,11600,2018-04-02 06:42:18,1634.801150913628,7.8000002496,0.0,0.7534040241089279,1634.801150913628,7.8000002496,0.503999582744,0.7534040241089279,1335,-8.4,99,P-GPS,
0.376736813865387,36.9245188324399,11700,2018-04-02 06:42:18,1635.0011509200278,8.000000256,0.0,0.7569760242232322,1635.0011509200278,8.000000256,0.503999582744,0.7569760242232322,1336,-8.4,99,P-GPS,
0.37673682932583397,36.924518824793,11800,2018-04-02 06:42:18,1635.101150923228,8.1000002592,0.0,0.7586580242770561,1635.101150923228,8.1000002592,0.503999582744,0.7586580242770561,1337,-8.4,99,P-GPS,
0.3767368184592271,36.924518829054605,11900,2018-04-02 06:42:18,1635.301150929628,8.3000002656,0.0,0.7574710242390721,1635.301150929628,8.3000002656,0.503999582744,0.7586580242770561,1336,-8.4,99,P-GPS,
0.37673681968707395,36.9245188112111,12000,2018-04-02 06:42:18,1635.5011509360281,8.500000272000001,0.0,0.7575250242408,1635.5011509360281,8.500000272000001,0.503999582744,0.7586580242770561,1344,-8.4,99,P-GPS,
0.376736814691008,36.9245187814247,12100,2018-04-02 06:42:18,1635.7011509424278,8.700000278400001,0.0,0.756844024219008,1635.7011509424278,8.700000278400001,0.503999582744,0.7586580242770561,1343,-8.4,99,P-GPS,
0.376736794820734,36.9245187393069,12200,2018-04-02 06:42:18,1635.801150945628,8.8000002816,0.0,0.754481024143392,1635.801150945628,8.8000002816,0.503999582744,0.7586580242770561,1341,-8.4,99,P-GPS,
0.37673675270103,36.9245186985446,12300,2018-04-02 06:42:18,1636.001150952028,9.000000287999999,0.0,0.7496780239896961,1636.001150952028,9.000000287999999,0.503999582744,0.7586580242770561,1337,-8.4,99,P-GPS,
0.376736720345477,36.9245186559627,12400,2018-04-02 06:42:19,1636.2011509584281,9.2000002944,0.0,0.745982023871424,1636.2011509584281,9.2000002944,0.503999582744,0.7586580242770561,1335,-8.4,99,P-GPS,
0.37673669487661204,36.9245186232872,12500,2018-04-02 06:42:19,1636.4011509648278,9.400000300800002,0.0,0.743094023779008,1636.4011509648278,9.400000300800002,0.503999582744,0.7586580242770561,1336,-8.4,99,P-GPS,
0.376736689180315,36.9245185732046,12600,2018-04-02 06:42:19,1636.5011509680278,9.500000304,0.0,0.7424100237571201,1636.5011509680278,9.500000304,0.503999582744,0.7586580242770561,1340,-8.4,99,P-GPS,
0.37673667864754,36.924518526707395,12700,2018-04-02 06:42:19,1636.701150974428,9.7000003104,0.0,0.741229023719328,1636.701150974428,9.7000003104,0.503999582744,0.7586580242770561,1339,-8.4,99,P-GPS,
0.376736688913251,36.924518482604704,12800,2018-04-02 06:42:19,1636.9011509808279,9.900000316799998,0.0,0.7423950237566401,1636.9011509808279,9.900000316799998,0.503999582744,0.7586580242770561,1358,-8.4,99,P-GPS,
0.37673670628223405,36.924518478471,13000,2018-04-02 06:42:19,1637.201150990428,10.2000003264,0.0,0.7443310238185922,1637.201150990428,10.2000003264,0.503999582744,0.7586580242770561,1350,-8.4,99,P-GPS,
0.376736700390524,36.92451852816129,13100,2018-04-02 06:42:19,1637.401150996828,10.400000332800001,0.0,0.743647023796704,1637.401150996828,10.400000332800001,0.503999582744,0.7586580242770561,1349,-8.4,99,P-GPS,
0.37673671120013497,36.9245186217996,13200,2018-04-02 06:42:19,1637.6011510032279,10.6000003392,0.0,0.744907023837024,1637.6011510032279,10.6000003392,0.503999582744,0.7586580242770561,1348,-8.4,99,P-GPS,
0.376736709084786,36.924518719752,13300,2018-04-02 06:42:19,1637.801151009628,10.800000345599999,0.0,0.7448890238364481,1637.801151009628,10.800000345599999,0.503999582744,0.7586580242770561,1345,-8.4,99,P-GPS,
0.37673670033190004,36.924518825129105,13400,2018-04-02 06:42:20,1638.001151016028,11.000000352000002,0.0,0.744327023818464,1638.001151016028,11.000000352000002,0.503999582744,0.7586580242770561,1346,-8.4,99,P-GPS,
0.376736685586339,36.9245189093053,13500,2018-04-02 06:42:20,1638.2011510224281,11.200000358400002,0.0,0.7431510237808321,1638.2011510224281,11.200000358400002,0.503999582744,0.7586580242770561,1356,-8.4,99,P-GPS,
0.376736683067137,36.924518980862004,13600,2018-04-02 06:42:20,1638.4011510288278,11.4000003648,0.0,0.7433570237874241,1638.4011510288278,11.4000003648,0.503999582744,0.7586580242770561,1369,-8.4,99,P-GPS,
0.376736680085456,36.9245190409031,13700,2018-04-02 06:42:20,1638.601151035228,11.6000003712,0.0,0.743499023791968,1638.601151035228,11.6000003712,0.503999582744,0.7586580242770561,1394,-8.4,99,P-GPS,
0.376736680414401,36.9245190458103,13800,2018-04-02 06:42:20,1638.801151041628,11.8000003776,0.0,0.7435770237944641,1638.801151041628,11.8000003776,0.503999582744,0.7586580242770561,1390,-8.4,99,P-GPS,
0.376736680891535,36.924519008854,13900,2018-04-02 06:42:20,1639.001151048028,12.000000384000002,0.0,0.7433280237864961,1639.001151048028,12.000000384000002,0.503999582744,0.7586580242770561,1387,-8.4,99,P-GPS,
0.37673666498489394,36.92451894079021,14000,2018-04-02 06:42:20,1639.2011510544278,12.2000003904,0.0,0.741067023714144,1639.2011510544278,12.2000003904,0.503999582744,0.7586580242770561,1380,-8.4,99,P-GPS,
0.376736634024917,36.92451891631679,14100,2018-04-02 06:42:20,1639.401151060828,12.4000003968,0.0,0.73747002359904,1639.401151060828,12.4000003968,0.503999582744,0.7586580242770561,1380,-8.4,99,P-GPS,
0.37673659769758905,36.9245188883923,14200,2018-04-02 06:42:20,1639.601151067228,12.600000403200003,0.0,0.73326502346448,1639.601151067228,12.600000403200003,0.503999582744,0.7586580242770561,1380,-8.4,99,P-GPS,
0.376736549331173,36.9245188425525,14300,2018-04-02 06:42:21,1639.801151073628,12.800000409600003,0.0,0.727639023284448,1639.801151073628,12.800000409600003,0.503999582744,0.7586580242770561,1379,-8.4,99,P-GPS,
0.37673643309935495,36.9245186294342,14500,2018-04-02 06:42:21,1640.201151086428,13.2000004224,0.35999970196000003,0.7139950228478401,1640.201151086428,13.2000004224,0.503999582744,0.7586580242770561,1373,-8.7,99,P-GPS,
0.37673637565273604,36.924518508069504,14600,2018-04-02 06:42:21,1640.401151092828,13.4000004288,0.0,0.7075410226413121,1640.401151092828,13.4000004288,0.503999582744,0.7586580242770561,1369,-9.3,99,P-GPS,
0.376736324060373,36.924518412578394,14700,2018-04-02 06:42:21,1640.601151099228,13.600000435200002,0.0,0.701934022461888,1640.601151099228,13.600000435200002,0.503999582744,0.7586580242770561,1373,-9.5,99,P-GPS,
0.37673632894733294,36.92451831395,14800,2018-04-02 06:42:21,1640.901151108828,13.9000004448,0.0,0.702779022488928,1640.901151108828,13.9000004448,0.503999582744,0.7586580242770561,1374,-9.5,99,P-GPS,
0.37673636606771405,36.924518218562795,14900,2018-04-02 06:42:21,1641.1011511152278,14.100000451200001,0.0,0.707357022635424,1641.1011511152278,14.100000451200001,0.503999582744,0.7586580242770561,1376,-9.5,99,P-GPS,
0.37673644227238,36.924518117576795,15000,2018-04-02 06:42:21,1641.301151121628,14.300000457600001,0.0,0.7164650229268801,1641.301151121628,14.300000457600001,0.503999582744,0.7586580242770561,1379,-9.5,99,P-GPS,
0.37673649969782896,36.9245180214076,15100,2018-04-02 06:42:21,1641.501151128028,14.500000464,0.0,0.723608023155456,1641.501151128028,14.500000464,0.503999582744,0.7586580242770561,1381,-9.7,99,P-GPS,
0.376736554698525,36.9245179023874,15200,2018-04-02 06:42:21,1641.701151134428,14.7000004704,0.0,0.73086502338768,1641.701151134428,14.7000004704,0.503999582744,0.7586580242770561,1382,-10.4,99,P-GPS,
0.37673659994158404,36.9245178025144,15300,2018-04-02 06:42:22,1641.901151140828,14.9000004768,0.0,0.7370220235847039,1641.901151140828,14.9000004768,0.503999582744,0.7586580242770561,1382,-11.2,99,P-GPS,
0.3767366638400979,36.9245176927718,15400,2018-04-02 06:42:22,1642.101151147228,15.100000483200002,0.0,0.745524023856768,1642.101151147228,15.100000483200002,0.503999582744,0.7586580242770561,1384,-11.2,99,P-GPS,
0.37673671881473897,36.9245176069276,15500,2018-04-02 06:42:22,1642.301151153628,15.3000004896,0.0,0.752841024090912,1642.301151153628,15.3000004896,0.503999582744,0.7586580242770561,1383,-13.8,99,P-GPS,
0.37673676959613706,36.9245175248349,15600,2018-04-02 06:42:22,1642.501151160028,15.500000496,0.0,0.7597350243115201,1642.501151160028,15.500000496,0.503999582744,0.7597350243115201,1379,-15.5,99,P-GPS,
0.376736807915053,36.924517471651704,15700,2018-04-02 06:42:22,1642.7011511664282,15.700000502400002,0.0,0.7648430244749761,1642.7011511664282,15.700000502400002,0.503999582744,0.7648430244749761,1379,-16.0,99,P-GPS,
0.3767368618344621,36.9245173890911,15800,2018-04-02 06:42:22,1642.901151172828,15.900000508800002,0.0,0.7722330247114559,1642.901151172828,15.900000508800002,0.503999582744,0.7722330247114559,1385,-16.0,99,P-GPS,
0.376736917269952,36.9245173060386,15900,2018-04-02 06:42:22,1643.201151182428,16.2000005184,0.0,0.779882024956224,1643.201151182428,16.2000005184,0.503999582744,0.779882024956224,1385,-16.0,99,P-GPS,
0.37673698402475697,36.924517219856604,16000,2018-04-02 06:42:22,1643.401151188828,16.400000524800003,0.0,0.78891502524528,1643.401151188828,16.400000524800003,0.503999582744,0.78891502524528,1387,-16.0,99,P-GPS,
0.376737044013377,36.924517164858706,16100,2018-04-02 06:42:22,1643.6011511952279,16.6000005312,0.0,0.7966200254918401,1643.6011511952279,16.6000005312,0.503999582744,0.7966200254918401,1388,-16.0,99,P-GPS,
0.376737098126571,36.924517100824794,16200,2018-04-02 06:42:22,1643.8011512016278,16.8000005376,0.0,0.8039120257251839,1643.8011512016278,16.8000005376,0.503999582744,0.8039120257251839,1408,-16.0,99,P-GPS,
0.3767371397365721,36.924517067052,16300,2018-04-02 06:42:22,1644.101151211228,17.1000005472,0.0,0.8091980258943361,1644.101151211228,17.1000005472,0.503999582744,0.8091980258943361,1415,-16.0,99,P-GPS,
0.376737212213729,36.9245170087694,16400,2018-04-02 06:42:23,1644.301151217628,17.3000005536,0.0,0.8184150261892801,1644.301151217628,17.3000005536,0.503999582744,0.8184150261892801,1416,-16.0,99,P-GPS,
0.37673728094220793,36.924516963527005,16500,2018-04-02 06:42:23,1644.5011512240278,17.50000056,0.0,0.8269430264621761,1644.5011512240278,17.50000056,0.503999582744,0.8269430264621761,1416,-16.0,99,P-GPS,
0.376737348074812,36.92451690545,16600,2018-04-02 06:42:23,1644.801151233628,17.8000005696,0.0,0.83562002673984,1644.801151233628,17.8000005696,0.503999582744,0.83562002673984,1417,-16.0,99,P-GPS,
0.376737383542322,36.9245168706322,16700,2018-04-02 06:42:23,1645.001151240028,18.000000575999998,0.0,0.8403160268901121,1645.001151240028,18.000000575999998,0.503999582744,0.8403160268901121,1421,-16.0,99,P-GPS,
0.376737433037249,36.9245168183173,16800,2018-04-02 06:42:23,1645.3011512496278,18.3000005856,0.0,0.8469800271033601,1645.3011512496278,18.3000005856,0.503999582744,0.8469800271033601,1422,-16.0,99,P-GPS,
0.376737465138765,36.9245167920196,16900,2018-04-02 06:42:23,1645.501151256028,18.500000592000003,0.0,0.85112002723584,1645.501151256028,18.500000592000003,0.503999582744,0.85112002723584,1422,-16.0,99,P-GPS,
0.37673750753856206,36.9245167621556,17000,2018-04-02 06:42:23,1645.801151265628,18.800000601600004,0.0,0.856471027407072,1645.801151265628,18.800000601600004,0.503999582744,0.856471027407072,1425,-16.0,99,P-GPS,
0.37673752759936296,36.9245167514108,17100,2018-04-02 06:42:23,1646.001151272028,19.000000608,0.0,0.858917027485344,1646.001151272028,19.000000608,0.503999582744,0.858917027485344,1432,-16.0,99,P-GPS,
0.37673753367834495,36.92451673687071,17200,2018-04-02 06:42:23,1646.2011512784281,19.2000006144,0.0,0.8599500275184,1646.2011512784281,19.2000006144,0.503999582744,0.8599500275184,1440,-16.0,99,P-GPS,
0.37673750726824,36.9245167565017,17300,2018-04-02 06:42:24,1646.501151288028,19.500000624000002,0.0,0.856587027410784,1646.501151288028,19.500000624000002,0.503999582744,0.8599500275184,1446,-16.0,99,P-GPS,
0.37673751122861604,36.9245167782749,17400,2018-04-02 06:42:24,1646.701151294428,19.7000006304,0.0,0.856459027406688,1646.701151294428,19.7000006304,0.503999582744,0.8599500275184,1454,-16.0,99,P-GPS,
0.37673752188678206,36.924516820750796,17500,2018-04-02 06:42:24,1647.001151304028,20.00000064,0.0,0.8565480274095361,1647.001151304028,20.00000064,0.503999582744,0.8599500275184,1449,-16.0,99,P-GPS,
0.3767375576604389,36.9245168516254,17600,2018-04-02 06:42:24,1647.301151313628,20.3000006496,0.0,0.8596710275094721,1647.301151313628,20.3000006496,0.503999582744,0.8599500275184,1449,-16.0,99,P-GPS,
0.37673755970413697,36.9245169017745,17700,2018-04-02 06:42:24,1647.601151323228,20.600000659200003,0.0,0.858694027478208,1647.601151323228,20.600000659200003,0.503999582744,0.8599500275184,1451,-16.0,99,P-GPS,
0.37673756065514796,36.9245169431873,17800,2018-04-02 06:42:24,1647.801151329628,20.800000665600002,0.0,0.857834027450688,1647.801151329628,20.800000665600002,0.503999582744,0.8599500275184,1451,-16.0,99,P-GPS,
0.376737537243009,36.9245169873815,17900,2018-04-02 06:42:24,1648.101151339228,21.1000006752,0.0,0.8542820273370239,1648.101151339228,21.1000006752,0.503999582744,0.8599500275184,1457,-16.0,99,P-GPS,
0.37673752782897396,36.9245169987098,18000,2018-04-02 06:42:24,1648.4011513488279,21.400000684800002,0.0,0.8530030272960961,1648.4011513488279,21.400000684800002,0.503999582744,0.8599500275184,1457,-16.0,99,P-GPS,
0.376737503187359,36.9245169920216,18100,2018-04-02 06:42:24,1648.701151358428,21.700000694400003,0.0,0.8504680272149762,1648.701151358428,21.700000694400003,0.503999582744,0.8599500275184,1465,-16.0,99,P-GPS,
0.376737491830591,36.9245169879029,18200,2018-04-02 06:42:24,1649.0011513680279,22.000000704000005,0.0,0.849324027178368,1649.0011513680279,22.000000704000005,0.503999582744,0.8599500275184,1467,-16.0,99,P-GPS,
0.376737476357116,36.9245170158098,18300,2018-04-02 06:42:24,1649.201151374428,22.2000007104,0.0,0.8470140271044481,1649.201151374428,22.2000007104,0.503999582744,0.8599500275184,1468,-16.0,99,P-GPS,
0.37673748305164895,36.9245170623905,18400,2018-04-02 06:42:25,1649.501151384028,22.50000072,0.0,0.8467250270952,1649.501151384028,22.50000072,0.503999582744,0.8599500275184,1471,-16.0,99,P-GPS,
0.37673746343704106,36.924517101029295,18500,2018-04-02 06:42:25,1649.8011513936278,22.8000007296,0.0,0.8437610270003522,1649.8011513936278,22.8000007296,0.503999582744,0.8599500275184,1480,-16.0,99,P-GPS,
0.37673745146309295,36.9245171078266,18600,2018-04-02 06:42:25,1650.101151403228,23.100000739200006,0.0,0.8423100269539201,1650.101151403228,23.100000739200006,0.503999582744,0.8599500275184,1488,-16.0,99,P-GPS,
0.3767374241133761,36.9245171155223,18700,2018-04-02 06:42:25,1650.401151412828,23.400000748800004,0.0,0.8391620268531839,1650.401151412828,23.400000748800004,0.503999582744,0.8599500275184,1481,-16.0,99,P-GPS,
0.37673740367965997,36.924517105529105,18800,2018-04-02 06:42:25,1650.7011514224282,23.700000758399998,0.0,0.8371410267885121,1650.7011514224282,23.700000758399998,0.503999582744,0.8599500275184,1479,-16.0,99,P-GPS,
0.376737368176324,36.9245170902791,18900,2018-04-02 06:42:25,1651.0011514320279,24.000000768000003,0.0,0.833591026674912,1651.0011514320279,24.000000768000003,0.503999582744,0.8599500275184,1474,-16.0,99,P-GPS,
0.376737351813719,36.924517065352894,19000,2018-04-02 06:42:25,1651.301151441628,24.3000007776,0.0,0.832347026635104,1651.301151441628,24.3000007776,0.503999582744,0.8599500275184,1476,-16.0,99,P-GPS,
0.37673731758056894,36.924517057248295,19100,2018-04-02 06:42:25,1651.601151451228,24.600000787200003,0.0,0.828793026521376,1651.601151451228,24.600000787200003,0.503999582744,0.8599500275184,1479,-16.0,99,P-GPS,
0.37673728254134,36.9245170645906,19200,2018-04-02 06:42:25,1651.901151460828,24.9000007968,0.0,0.8248120263939841,1651.901151460828,24.9000007968,0.503999582744,0.8599500275184,1479,-16.0,99,P-GPS,
0.37673723006310406,36.9245170973227,19300,2018-04-02 06:42:26,1652.201151470428,25.200000806400006,0.0,0.8183730261879361,1652.201151470428,25.200000806400006,0.503999582744,0.8599500275184,1476,-16.0,99,P-GPS,
0.376737200873245,36.9245171478572,19400,2018-04-02 06:42:26,1652.5011514800278,25.500000816,0.0,0.8141040260513279,1652.5011514800278,25.500000816,0.503999582744,0.8599500275184,1480,-16.0,99,P-GPS,
0.376737169024137,36.9245172150827,19500,2018-04-02 06:42:26,1652.801151489628,25.800000825599998,0.0,0.80923502589552,1652.801151489628,25.800000825599998,0.503999582744,0.8599500275184,1480,-16.0,99,P-GPS,
0.37673714222483395,36.9245172688119,19600,2018-04-02 06:42:26,1653.101151499228,26.100000835200003,0.0,0.805237025767584,1653.101151499228,26.100000835200003,0.503999582744,0.8599500275184,1461,-16.0,99,P-GPS,
0.37673708092531705,36.9245173486323,19800,2018-04-02 06:42:26,1653.7011515184279,26.700000854400002,0.0,0.797006025504192,1653.7011515184279,26.700000854400002,0.503999582744,0.8599500275184,1449,-16.0,99,P-GPS,
0.376737051839679,36.924517374888204,19900,2018-04-02 06:42:26,1654.001151528028,27.000000864000004,0.0,0.79333502538672,1654.001151528028,27.000000864000004,0.503999582744,0.8599500275184,1457,-16.0,99,P-GPS,
0.376737032902504,36.924517404567,20000,2018-04-02 06:42:26,1654.301151537628,27.3000008736,0.0,0.7907250253032,1654.301151537628,27.3000008736,0.503999582744,0.8599500275184,1482,-16.0,98,P-GPS,
0.3767369909033039,36.9245174427106,20100,2018-04-02 06:42:26,1654.601151547228,27.6000008832,0.0,0.7854460251342721,1654.601151547228,27.6000008832,0.503999582744,0.8599500275184,1513,-16.0,98,P-GPS,
0.376736976682103,36.924517454424794,20200,2018-04-02 06:42:26,1654.901151556828,27.9000008928,0.0,0.783682025077824,1654.901151556828,27.9000008928,0.503999582744,0.8599500275184,1500,-16.0,98,P-GPS,
0.376736960171309,36.924517470918296,20300,2018-04-02 06:42:27,1655.2011515664278,28.200000902400003,0.0,0.781588025010816,1655.2011515664278,28.200000902400003,0.503999582744,0.8599500275184,1489,-16.0,98,P-GPS,
0.37673693627877897,36.924517497178,20500,2018-04-02 06:42:27,1655.801151585628,28.800000921600002,0.0,0.778522024912704,1655.801151585628,28.800000921600002,0.503999582744,0.8599500275184,1488,-16.0,98,P-GPS,
0.37673694601524604,36.924517535937206,20600,2018-04-02 06:42:27,1656.101151595228,29.1000009312,0.0,0.77896502492688,1656.101151595228,29.1000009312,0.503999582744,0.8599500275184,1487,-16.0,98,P-GPS,
0.37673693296489597,36.924517587921294,20700,2018-04-02 06:42:27,1656.4011516048279,29.4000009408,0.0,0.7767220248551041,1656.4011516048279,29.4000009408,0.503999582744,0.8599500275184,1488,-16.0,98,P-GPS,
0.376736936106164,36.924517640047796,20800,2018-04-02 06:42:27,1656.701151614428,29.7000009504,0.0,0.7763010248416321,1656.701151614428,29.7000009504,0.503999582744,0.8599500275184,1498,-16.0,98,P-GPS,
0.37673692112610796,36.9245176965864,20900,2018-04-02 06:42:27,1657.001151624028,30.00000096,0.0,0.7738640247636479,1657.001151624028,30.00000096,0.503999582744,0.8599500275184,1500,-16.0,98,P-GPS,
0.37673689716844,36.924517764526,21000,2018-04-02 06:42:27,1657.301151633628,30.300000969600003,0.0,0.7703400246508801,1657.301151633628,30.300000969600003,0.503999582744,0.8599500275184,1500,-16.0,98,P-GPS,
0.37673685297572596,36.9245178454715,21100,2018-04-02 06:42:27,1657.6011516432281,30.6000009792,0.0,0.7644980244639361,1657.6011516432281,30.6000009792,0.503999582744,0.8599500275184,1500,-16.0,98,P-GPS,
0.37673684531878293,36.9245179139545,21200,2018-04-02 06:42:27,1657.9011516528278,30.900000988800006,0.0,0.7629210244134721,1657.9011516528278,30.900000988800006,0.503999582744,0.8599500275184,1500,-16.0,98,P-GPS,
0.3767368395834029,36.924517969216296,21300,2018-04-02 06:42:27,1658.201151662428,31.2000009984,0.0,0.7617510243760321,1658.201151662428,31.2000009984,0.503999582744,0.8599500275184,1501,-16.0,98,P-GPS,
0.37673683011074394,36.9245180264127,21400,2018-04-02 06:42:28,1658.501151672028,31.500001007999998,0.0,0.7602000243264,1658.501151672028,31.500001007999998,0.503999582744,0.8599500275184,1500,-16.0,98,P-GPS,
0.37673679473117,36.9245180871411,21500,2018-04-02 06:42:28,1658.801151681628,31.800001017600003,0.0,0.755799024185568,1658.801151681628,31.800001017600003,0.503999582744,0.8599500275184,1500,-16.0,98,P-GPS,
0.37673676154511,36.9245181251825,21600,2018-04-02 06:42:28,1659.1011516912279,32.1000010272,0.0,0.751847024059104,1659.1011516912279,32.1000010272,0.503999582744,0.8599500275184,1500,-16.0,98,P-GPS,
0.3767367128090379,36.9245181493481,21700,2018-04-02 06:42:28,1659.5011517040277,32.50000104,0.0,0.746277023880864,1659.5011517040277,32.50000104,0.503999582744,0.8599500275184,1500,-16.0,98,P-GPS,
0.37673665423065,36.924518157033,21800,2018-04-02 06:42:28,1659.8011517136279,32.800001049600006,0.35999970196000003,0.7397240236711681,1659.8011517136279,32.800001049600006,0.503999582744,0.8599500275184,1500,-16.0,98,P-GPS,
0.3767365727254,36.9245181809491,21900,2018-04-02 06:42:28,1660.101151723228,33.100001059200004,0.35999970196000003,0.7305260233768321,1660.101151723228,33.100001059200004,0.503999582744,0.8599500275184,1501,-16.0,98,P-GPS,
0.376736525777359,36.9245182159296,22000,2018-04-02 06:42:28,1660.401151732828,33.4000010688,0.0,0.725111023203552,1660.401151732828,33.4000010688,0.503999582744,0.8599500275184,1510,-16.0,98,P-GPS,
0.37673649557297995,36.924518263765,22100,2018-04-02 06:42:28,1660.701151742428,33.70000107840001,0.0,0.721512023088384,1660.701151742428,33.70000107840001,0.503999582744,0.8599500275184,1510,-16.0,98,P-GPS,
0.37673646681140205,36.9245183128301,22200,2018-04-02 06:42:28,1661.001151752028,34.000001088000005,0.0,0.7181060229793921,1661.001151752028,34.000001088000005,0.503999582744,0.8599500275184,1511,-16.0,98,P-GPS,
0.37673641016272097,36.9245183625525,22300,2018-04-02 06:42:28,1661.301151761628,34.3000010976,0.0,0.711637022772384,1661.301151761628,34.3000010976,0.503999582744,0.8599500275184,1508,-16.0,98,P-GPS,
0.37673638183430896,36.924518410828,22400,2018-04-02 06:42:29,1661.601151771228,34.6000011072,0.0,0.708361022667552,1661.601151771228,34.6000011072,0.503999582744,0.8599500275184,1499,-16.0,98,P-GPS,
0.37673635592902205,36.9245184635599,22500,2018-04-02 06:42:29,1661.901151780828,34.9000011168,0.0,0.7053880225724161,1661.901151780828,34.9000011168,0.503999582744,0.8599500275184,1488,-16.0,98,P-GPS,
0.37673634334929207,36.9245184898062,22600,2018-04-02 06:42:29,1662.301151793628,35.300001129600005,0.0,0.703961022526752,1662.301151793628,35.300001129600005,0.503999582744,0.8599500275184,1482,-16.0,98,P-GPS,
0.376736320231901,36.9245185080909,22700,2018-04-02 06:42:29,1662.601151803228,35.6000011392,0.0,0.7013780224440961,1662.601151803228,35.6000011392,0.503999582744,0.8599500275184,1485,-16.0,98,P-GPS,
0.376736305919507,36.9245185246604,22800,2018-04-02 06:42:29,1662.901151812828,35.9000011488,0.0,0.6997800223929601,1662.901151812828,35.9000011488,0.503999582744,0.8599500275184,1475,-16.0,98,P-GPS,
0.37673627443028496,36.9245185484389,22900,2018-04-02 06:42:29,1663.2011518224278,36.200001158400006,0.0,0.696278022280896,1663.2011518224278,36.200001158400006,0.503999582744,0.8599500275184,1477,-16.0,98,P-GPS,
0.376736279774839,36.9245185449444,23000,2018-04-02 06:42:29,1663.501151832028,36.500001168000004,0.0,0.696872022299904,1663.501151832028,36.500001168000004,0.503999582744,0.8599500275184,1489,-16.0,98,P-GPS,
0.37673629182369606,36.9245185368548,23100,2018-04-02 06:42:29,1663.801151841628,36.8000011776,0.0,0.6982110223427521,1663.801151841628,36.8000011776,0.503999582744,0.8599500275184,1500,-16.0,98,P-GPS,
0.37673631943233504,36.92451851666821,23200,2018-04-02 06:42:29,1664.1011518512282,37.1000011872,0.0,0.70128502244112,1664.1011518512282,37.1000011872,0.503999582744,0.8599500275184,1500,-16.0,98,P-GPS,
0.376736341935803,36.924518507286294,23300,2018-04-02 06:42:29,1664.401151860828,37.4000011968,0.0,0.7037920225213441,1664.401151860828,37.4000011968,0.503999582744,0.8599500275184,1519,-16.0,98,P-GPS,
0.376736370386348,36.9245184885531,23400,2018-04-02 06:42:30,1664.701151870428,37.700001206399996,0.0,0.706969022623008,1664.701151870428,37.700001206399996,0.503999582744,0.8599500275184,1516,-16.0,98,P-GPS,
0.376736380746509,36.9245184836555,23500,2018-04-02 06:42:30,1665.1011518832279,38.1000012192,0.0,0.7081250226600001,1665.1011518832279,38.1000012192,0.503999582744,0.8599500275184,1517,-16.0,98,P-GPS,
0.376736424392065,36.924518481556,23600,2018-04-02 06:42:30,1665.401151892828,38.4000012288,0.0,0.7129810228153921,1665.401151892828,38.4000012288,0.503999582744,0.8599500275184,1518,-16.0,98,P-GPS,
0.376736476660232,36.9245184895739,23700,2018-04-02 06:42:30,1665.7011519024281,38.700001238400006,0.0,0.718786023001152,1665.7011519024281,38.700001238400006,0.503999582744,0.8599500275184,1507,-16.0,98,P-GPS,
0.376736605748616,36.92451849860571,23900,2018-04-02 06:42:30,1666.4011519248281,39.4000012608,0.0,0.733134023460288,1666.4011519248281,39.4000012608,0.503999582744,0.8599500275184,1516,-16.0,98,P-GPS,
0.37673666935401,36.9245184810576,24000,2018-04-02 06:42:30,1666.7011519344278,39.7000012704,0.0,0.740222023687104,1666.7011519344278,39.7000012704,0.503999582744,0.8599500275184,1524,-16.0,98,P-GPS,
0.37673670627897704,36.924518458946096,24100,2018-04-02 06:42:30,1667.101151947228,40.10000128320001,0.0,0.744353023819296,1667.101151947228,40.10000128320001,0.503999582744,0.8599500275184,1540,-16.0,98,P-GPS,
0.376736743055757,36.9245184341413,24200,2018-04-02 06:42:30,1667.401151956828,40.400001292800006,0.0,0.7484790239513279,1667.401151956828,40.400001292800006,0.503999582744,0.8599500275184,1537,-16.0,98,P-GPS,
0.376736764898076,36.9245184315686,24300,2018-04-02 06:42:30,1667.701151966428,40.7000013024,0.0,0.750912024029184,1667.701151966428,40.7000013024,0.503999582744,0.8599500275184,1536,-16.0,98,P-GPS,
0.37673681263753994,36.924518406918104,24400,2018-04-02 06:42:31,1668.101151979228,41.100001315200004,0.0,0.756268024200576,1668.101151979228,41.100001315200004,0.503999582744,0.8599500275184,1544,-16.0,98,P-GPS,
0.37673684054581297,36.9245184157384,24500,2018-04-02 06:42:31,1668.4011519888281,41.4000013248,0.0,0.7593530242992961,1668.4011519888281,41.4000013248,0.503999582744,0.8599500275184,1545,-16.0,98,P-GPS,
0.376736868548536,36.924518420651495,24600,2018-04-02 06:42:31,1668.801152001628,41.80000133760001,0.0,0.7624570243986241,1668.801152001628,41.80000133760001,0.503999582744,0.8599500275184,1547,-16.0,98,P-GPS,
0.376736870233976,36.924518444422496,24700,2018-04-02 06:42:31,1669.1011520112281,42.1000013472,0.0,0.762604024403328,1669.1011520112281,42.1000013472,0.503999582744,0.8599500275184,1546,-16.0,98,P-GPS,
0.37673689278141104,36.9245184409012,24800,2018-04-02 06:42:31,1669.501152024028,42.50000136,0.0,0.7651170244837439,1669.501152024028,42.50000136,0.503999582744,0.8599500275184,1540,-16.0,98,P-GPS,
0.376736903514486,36.9245184406106,24900,2018-04-02 06:42:31,1669.801152033628,42.800001369600004,0.0,0.7663110245219521,1669.801152033628,42.800001369600004,0.503999582744,0.8599500275184,1539,-16.0,98,P-GPS,
0.37673694892527504,36.9245184315729,25000,2018-04-02 06:42:31,1670.2011520464278,43.200001382399996,0.0,0.771375024684,1670.2011520464278,43.200001382399996,0.503999582744,0.8599500275184,1538,-16.1,98,P-GPS,
0.37673699207741296,36.9245184387279,25100,2018-04-02 06:42:31,1670.5011520560279,43.500001391999994,0.0,0.7761610248371521,1670.5011520560279,43.500001391999994,0.503999582744,0.8599500275184,1539,-16.1,98,P-GPS,
0.376737041243394,36.924518407269794,25200,2018-04-02 06:42:31,1670.901152068828,43.9000014048,0.0,0.78168502501392,1670.901152068828,43.9000014048,0.503999582744,0.8599500275184,1539,-16.2,98,P-GPS,
0.376737061292796,36.9245183868214,25300,2018-04-02 06:42:32,1671.2011520784279,44.2000014144,0.0,0.78396002508672,1671.2011520784279,44.2000014144,0.503999582744,0.8599500275184,1539,-16.5,98,P-GPS,
0.37673709347410606,36.924518367739104,25400,2018-04-02 06:42:32,1671.601152091228,44.6000014272,0.0,0.787586025202752,1671.601152091228,44.6000014272,0.503999582744,0.8599500275184,1540,-17.2,98,P-GPS,
0.376737095237711,36.9245183723091,25500,2018-04-02 06:42:32,1672.001152104028,45.00000144,0.0,0.78777002520864,1672.001152104028,45.00000144,0.503999582744,0.8599500275184,1540,-18.0,98,P-GPS,
0.376737123082475,36.9245183694762,25600,2018-04-02 06:42:32,1672.301152113628,45.3000014496,0.0,0.7908730253079361,1672.301152113628,45.3000014496,0.503999582744,0.8599500275184,1539,-18.7,98,P-GPS,
0.3767371391503321,36.9245183842171,25700,2018-04-02 06:42:32,1672.701152126428,45.700001462399996,0.0,0.792622025363904,1672.701152126428,45.700001462399996,0.503999582744,0.8599500275184,1530,-19.6,98,P-GPS,
0.3767371695110421,36.924518379811,25800,2018-04-02 06:42:32,1673.101152139228,46.1000014752,0.0,0.796009025472288,1673.101152139228,46.1000014752,0.503999582744,0.8599500275184,1531,-20.3,98,P-GPS,
0.376737179894001,36.9245183922425,25900,2018-04-02 06:42:32,1673.501152152028,46.50000148800001,0.0,0.7971340255082879,1673.501152152028,46.50000148800001,0.503999582744,0.8599500275184,1531,-20.3,98,P-GPS,
0.376737199081957,36.9245183960298,26000,2018-04-02 06:42:32,1673.8011521616281,46.80000149760001,0.0,0.799259025576288,1673.8011521616281,46.80000149760001,0.503999582744,0.8599500275184,1536,-20.3,98,P-GPS,
0.376737186293786,36.924518404886605,26100,2018-04-02 06:42:32,1674.201152174428,47.2000015104,0.0,0.797818025530176,1674.201152174428,47.2000015104,0.503999582744,0.8599500275184,1536,-20.3,98,P-GPS,
0.376737166747573,36.9245183862518,26200,2018-04-02 06:42:32,1674.5011521840281,47.500001520000005,0.0,0.7956860254619521,1674.5011521840281,47.500001520000005,0.503999582744,0.8599500275184,1536,-20.3,98,P-GPS,
0.37673712395369297,36.924518382890604,26300,2018-04-02 06:42:32,1674.8011521936278,47.8000015296,0.0,0.7909360253099521,1674.8011521936278,47.8000015296,0.503999582744,0.8599500275184,1536,-20.3,98,P-GPS,
0.37673709813634204,36.9245183952135,26400,2018-04-02 06:42:33,1675.101152203228,48.1000015392,0.0,0.788037025217184,1675.101152203228,48.1000015392,0.503999582744,0.8599500275184,1538,-20.3,98,P-GPS,
0.37673705782258204,36.924518431887705,26500,2018-04-02 06:42:33,1675.501152216028,48.500001552,0.35999970196000003,0.783483025071456,1675.501152216028,48.500001552,0.503999582744,0.8599500275184,1540,-20.3,98,P-GPS,
0.376737021952846,36.9245184534361,26600,2018-04-02 06:42:33,1675.8011522256277,48.8000015616,0.35999970196000003,0.779462024942784,1675.8011522256277,48.8000015616,0.503999582744,0.8599500275184,1540,-20.3,98,P-GPS,
0.376736974869645,36.924518476024105,26700,2018-04-02 06:42:33,1676.2011522384278,49.200001574400005,0.0,0.7742000247744001,1676.2011522384278,49.200001574400005,0.503999582744,0.8599500275184,1540,-20.3,98,P-GPS,
0.376736940159361,36.9245184887485,26800,2018-04-02 06:42:33,1676.6011522512276,49.6000015872,0.0,0.770329024650528,1676.6011522512276,49.6000015872,0.503999582744,0.8599500275184,1540,-20.3,98,P-GPS,
0.37673690095782897,36.9245185146672,26900,2018-04-02 06:42:33,1676.9011522608278,49.900001596799996,0.0,0.7659550245105601,1676.9011522608278,49.900001596799996,0.503999582744,0.8599500275184,1546,-20.3,98,P-GPS,
0.37673687670541206,36.92451854309329,27000,2018-04-02 06:42:33,1677.3011522736276,50.3000016096,0.0,0.763254024424128,1677.3011522736276,50.3000016096,0.503999582744,0.8599500275184,1545,-20.3,98,P-GPS,
0.37673685325581896,36.924518586873795,27100,2018-04-02 06:42:33,1677.6011522832277,50.6000016192,0.0,0.760666024341312,1677.6011522832277,50.6000016192,0.503999582744,0.8599500275184,1547,-20.3,98,P-GPS,
0.376736856911676,36.9245186257984,27200,2018-04-02 06:42:33,1678.0011522960278,51.000001632,0.0,0.761116024355712,1678.0011522960278,51.000001632,0.503999582744,0.8599500275184,1553,-20.3,98,P-GPS,
0.37673684254391404,36.9245186723261,27300,2018-04-02 06:42:33,1678.4011523088277,51.4000016448,0.0,0.7596030243072961,1678.4011523088277,51.4000016448,0.503999582744,0.8599500275184,1554,-20.3,98,P-GPS,
0.376736804648394,36.924518711278,27400,2018-04-02 06:42:34,1678.7011523184278,51.700001654400005,0.0,0.755488024175616,1678.7011523184278,51.700001654400005,0.503999582744,0.8599500275184,1557,-20.3,98,P-GPS,
0.37673673507312394,36.924518750581704,27500,2018-04-02 06:42:34,1679.1011523312277,52.1000016672,0.35999970196000003,0.747879023932128,1679.1011523312277,52.1000016672,0.503999582744,0.8599500275184,1557,-20.3,98,P-GPS,
0.3767366925463089,36.9245187885401,27600,2018-04-02 06:42:34,1679.5011523440278,52.500001680000004,0.0,0.7432990237855681,1679.5011523440278,52.500001680000004,0.503999582744,0.8599500275184,1558,-20.3,98,P-GPS,
0.376736664439366,36.9245188318714,27700,2018-04-02 06:42:34,1679.801152353628,52.8000016896,0.0,0.7403720236919041,1679.801152353628,52.8000016896,0.503999582744,0.8599500275184,1554,-20.3,98,P-GPS,
0.3767366562434071,36.9245188525655,27800,2018-04-02 06:42:34,1680.2011523664278,53.2000017024,0.0,0.739567023666144,1680.2011523664278,53.2000017024,0.503999582744,0.8599500275184,1555,-20.3,98,P-GPS,
0.37673663778988004,36.9245188756545,27900,2018-04-02 06:42:34,1680.6011523792279,53.6000017152,0.0,0.737644023604608,1680.6011523792279,53.6000017152,0.503999582744,0.8599500275184,1557,-20.3,98,P-GPS,
0.37673663538304003,36.9245188882317,28000,2018-04-02 06:42:34,1680.9011523888278,53.900001724800006,0.0,0.737449023598368,1680.9011523888278,53.900001724800006,0.503999582744,0.8599500275184,1560,-20.3,98,P-GPS,
0.376736625817559,36.9245189032172,28100,2018-04-02 06:42:34,1681.3011524016279,54.300001737600006,0.0,0.7364770235672641,1681.3011524016279,54.300001737600006,0.503999582744,0.8599500275184,1560,-20.3,98,P-GPS,
0.3767366138175561,36.924518900571705,28200,2018-04-02 06:42:34,1681.701152414428,54.700001750400006,0.0,0.735129023524128,1681.701152414428,54.700001750400006,0.503999582744,0.8599500275184,1566,-20.3,98,P-GPS,
0.376736578289793,36.9245189113968,28300,2018-04-02 06:42:34,1682.1011524272278,55.1000017632,0.0,0.7312510234000321,1682.1011524272278,55.1000017632,0.503999582744,0.8599500275184,1566,-20.3,98,P-GPS,
0.376736536258025,36.924518925867794,28400,2018-04-02 06:42:35,1682.401152436828,55.40000177280001,0.0,0.726678023253696,1682.401152436828,55.40000177280001,0.503999582744,0.8599500275184,1566,-20.3,98,P-GPS,
0.37673648288903006,36.9245189476791,28500,2018-04-02 06:42:35,1682.8011524496278,55.8000017856,0.0,0.7209030230688961,1682.8011524496278,55.8000017856,0.503999582744,0.8599500275184,1570,-20.3,98,P-GPS,
0.3767364530429079,36.9245189344216,28600,2018-04-02 06:42:35,1683.201152462428,56.2000017984,0.0,0.717499022959968,1683.201152462428,56.2000017984,0.503999582744,0.8599500275184,1570,-20.3,98,P-GPS,
0.37673642425690396,36.9245189167713,28700,2018-04-02 06:42:35,1683.501152472028,56.50000180800001,0.0,0.71418502285392,1683.501152472028,56.50000180800001,0.503999582744,0.8599500275184,1571,-20.3,98,P-GPS,
0.37673639106758705,36.924518887980106,28800,2018-04-02 06:42:35,1683.901152484828,56.90000182080001,0.0,0.7103180227301761,1683.901152484828,56.90000182080001,0.503999582744,0.8599500275184,1571,-20.3,98,P-GPS,
0.376736340087519,36.92451886759171,28900,2018-04-02 06:42:35,1684.301152497628,57.3000018336,0.0,0.70453502254512,1684.301152497628,57.3000018336,0.503999582744,0.8599500275184,1571,-20.3,98,P-GPS,
0.37673631790974,36.924518849851395,29000,2018-04-02 06:42:35,1684.6011525072277,57.600001843200005,0.0,0.701972022463104,1684.6011525072277,57.600001843200005,0.503999582744,0.8599500275184,1571,-20.3,98,P-GPS,
0.376736300778509,36.9245188513696,29100,2018-04-02 06:42:35,1685.0011525200277,58.000001856,0.0,0.7000780224024962,1685.0011525200277,58.000001856,0.503999582744,0.8599500275184,1571,-20.3,98,P-GPS,
0.37673629092153793,36.9245188598907,29200,2018-04-02 06:42:35,1685.4011525328276,58.400001868800004,0.0,0.6990310223689921,1685.4011525328276,58.400001868800004,0.503999582744,0.8599500275184,1570,-20.3,98,P-GPS,
0.376736264488635,36.9245188817699,29300,2018-04-02 06:42:35,1685.801152545628,58.8000018816,0.0,0.6962250222792001,1685.801152545628,58.8000018816,0.503999582744,0.8599500275184,1569,-20.3,98,P-GPS,
0.376736258837934,36.9245188795179,29400,2018-04-02 06:42:36,1686.201152558428,59.2000018944,0.0,0.6955840222586881,1686.201152558428,59.2000018944,0.503999582744,0.8599500275184,1568,-20.3,98,P-GPS,
0.376736246679971,36.9245188707639,29500,2018-04-02 06:42:36,1686.6011525712279,59.6000019072,0.0,0.6941810222137922,1686.6011525712279,59.6000019072,0.503999582744,0.8599500275184,1567,-20.3,98,P-GPS,
0.3767362485982779,36.924518844024,29600,2018-04-02 06:42:36,1687.001152584028,60.00000192,0.0,0.6942420222157439,1687.001152584028,60.00000192,0.503999582744,0.8599500275184,1569,-20.3,98,P-GPS,
0.37673623751671703,36.9245188285466,29700,2018-04-02 06:42:36,1687.4011525968278,60.40000193280001,0.0,0.6929280221736961,1687.4011525968278,60.40000193280001,0.503999582744,0.8599500275184,1569,-20.3,98,P-GPS,
0.376736244571136,36.9245187985547,29800,2018-04-02 06:42:36,1687.7011526064277,60.7000019424,0.0,0.693564022194048,1687.7011526064277,60.7000019424,0.503999582744,0.8599500275184,1571,-20.3,98,P-GPS,
0.37673624000009404,36.924518779959,29900,2018-04-02 06:42:36,1688.1011526192278,61.10000195520001,0.0,0.692973022175136,1688.1011526192278,61.10000195520001,0.503999582744,0.8599500275184,1571,-20.3,98,P-GPS,
