latitude,longitude,time_millisecond,datetime_utc,altitude_m,ascent_m,speed_kph,distance_m,max_altitude_m,max_ascent_m,max_speed_kph,max_distance_m,rc_throttle,gimbal_pitch_degrees,battery_percent,flycState,message
0.33915878360035395,36.9100267976969,0,2018-04-06 07:01:54,1646.2723915807223,0.0,0.0,0.0,1646.2723915807223,0.0,0.0,0.0,364,0.0,98,P-GPS,
0.33915877238688796,36.910026808033706,100,2018-04-06 07:01:54,1646.2723915807223,0.0,0.0,0.00169598005427136,1646.2723915807223,0.0,0.0,0.00169598005427136,364,0.0,98,Motors_Started,
0.339158760489476,36.9100268293775,200,2018-04-06 07:01:54,1646.2723915807223,0.0,0.0,0.0043608401395468805,1646.2723915807223,0.0,0.0,0.0043608401395468805,364,0.0,98,Motors_Started,
0.33915875270714296,36.910026862250795,300,2018-04-06 07:01:54,1646.2723915807223,0.0,0.0,0.00795839025466848,1646.2723915807223,0.0,0.0,0.00795839025466848,364,0.0,98,Motors_Started,
0.33915874570320503,36.910026909497105,400,2018-04-06 07:01:54,1646.2723915807223,0.0,0.0,0.013127500420080002,1646.2723915807223,0.0,0.0,0.013127500420080002,364,0.0,98,Motors_Started,
0.33915874125755296,36.9100269571385,500,2018-04-06 07:01:55,1646.2723915807223,0.0,0.0,0.0183452005870464,1646.2723915807223,0.0,0.0,0.0183452005870464,364,0.0,98,Motors_Started,Setting new Return-To-Home altitude to 45m (148 ft). Setting new Maximum Flight Altitude to 150m (492 ft)
0.339158738293785,36.91002700691679,600,2018-04-06 07:01:55,1646.2723915807223,0.0,0.0,0.023805400761772802,1646.2723915807223,0.0,0.0,0.023805400761772802,364,0.0,98,Motors_Started,
0.33915873537887,36.9100270327668,700,2018-04-06 07:01:55,1646.2723915807223,0.0,0.0,0.026685100853923203,1646.2723915807223,0.0,0.0,0.026685100853923203,364,0.0,98,Motors_Started,
0.33915871982397305,36.9100270686464,800,2018-04-06 07:01:55,1646.2723915807223,0.0,0.0,0.030954200990534402,1646.2723915807223,0.0,0.0,0.030954200990534402,364,0.0,98,Motors_Started,
0.33915868827449897,36.910027108726,900,2018-04-06 07:01:55,1646.2723915807223,0.0,0.0,0.0361758011576256,1646.2723915807223,0.0,0.0,0.0361758011576256,364,0.0,98,Motors_Started,
0.339158655646995,36.9100271460199,1000,2018-04-06 07:01:55,1646.2723915807223,0.0,0.0,0.041265801320505606,1646.2723915807223,0.0,0.0,0.041265801320505606,364,0.0,98,Motors_Started,
0.339158636068213,36.910027166753395,1100,2018-04-06 07:01:55,1646.2723915807223,0.0,0.0,0.044198501414352005,1646.2723915807223,0.0,0.0,0.044198501414352005,364,0.0,98,Motors_Started,
0.339158620539371,36.9100271956194,1200,2018-04-06 07:01:55,1646.2723915807223,0.0,0.0,0.04782190153030081,1646.2723915807223,0.0,0.0,0.04782190153030081,364,0.0,98,Motors_Started,
0.339158609154919,36.9100272314733,1300,2018-04-06 07:01:55,1646.2723915807223,0.0,0.0,0.05199250166376,1646.2723915807223,0.0,0.0,0.05199250166376,364,0.0,98,Motors_Started,
0.33915860451711,36.9100272639665,1400,2018-04-06 07:01:56,1646.2723915807223,0.0,0.0,0.0555441017774112,1646.2723915807223,0.0,0.0,0.0555441017774112,364,0.0,98,Motors_Started,
0.339158600296183,36.910027282112395,1500,2018-04-06 07:01:56,1646.2723915807223,0.0,0.0,0.0575969018431008,1646.2723915807223,0.0,0.0,0.0575969018431008,425,0.0,98,Motors_Started,
0.339158585519683,36.9100272923261,1600,2018-04-06 07:01:56,1646.2723915807223,0.0,0.0,0.0592516018960512,1646.2723915807223,0.0,0.0,0.0592516018960512,824,0.0,98,Assisted_Takeoff,
0.33915855479583,36.910027295001505,1700,2018-04-06 07:01:56,1646.2723915807223,0.0,0.0,0.060875001948,1646.2723915807223,0.0,0.0,0.060875001948,1004,0.0,98,Assisted_Takeoff,
0.339158526190583,36.9100273058116,1800,2018-04-06 07:01:56,1646.2723915807223,0.0,0.0,0.0633417020269344,1646.2723915807223,0.0,0.0,0.0633417020269344,1024,0.0,98,Assisted_Takeoff,
0.339158507834762,36.9100273309218,1900,2018-04-06 07:01:56,1646.2723915807223,0.0,0.0,0.06675750213624,1646.2723915807223,0.0,0.0,0.06675750213624,1024,0.0,98,Assisted_Takeoff,
0.33915849574030804,36.9100273531521,2000,2018-04-06 07:01:56,1646.2723915807223,0.0,0.0,0.0695712022262784,1646.2723915807223,0.0,0.0,0.0695712022262784,1024,0.0,98,Assisted_Takeoff,
0.339158486883201,36.9100273640124,2100,2018-04-06 07:01:56,1646.2723915807223,0.0,0.0,0.07109740227511681,1646.2723915807223,0.0,0.0,0.07109740227511681,1024,0.0,98,Assisted_Takeoff,
0.339158485634185,36.910027370333296,2200,2018-04-06 07:01:56,1646.2723915807223,0.0,0.0,0.0717848022971136,1646.2723915807223,0.0,0.0,0.0717848022971136,1024,0.0,98,Assisted_Takeoff,
0.339158483434157,36.910027372856796,2300,2018-04-06 07:01:56,1646.2723915807223,0.0,0.0,0.07214670230869441,1646.2723915807223,0.0,0.0,0.07214670230869441,1024,0.0,98,Assisted_Takeoff,
0.33915848859469605,36.9100273684801,2400,2018-04-06 07:01:56,1646.2723915807223,0.0,0.0,0.07145030228640961,1646.2723915807223,0.0,0.0,0.07214670230869441,1024,0.0,98,Assisted_Takeoff,
0.33915849136630793,36.9100273656655,2500,2018-04-06 07:01:57,1646.2723915807223,0.0,0.0,0.0710308022729856,1646.2723915807223,0.0,0.0,0.07214670230869441,1025,0.0,98,Assisted_Takeoff,
0.339158500462796,36.910027372135204,2600,2018-04-06 07:01:57,1646.2723915807223,0.0,0.0,0.0712183022789856,1646.2723915807223,0.0,0.0,0.07214670230869441,1026,0.0,98,Assisted_Takeoff,
0.33915850436617606,36.9100273977915,2700,2018-04-06 07:01:57,1646.2723915807223,0.0,0.0,0.07360400235532799,1646.2723915807223,0.0,0.0,0.07360400235532799,1026,0.0,98,Assisted_Takeoff,
0.33915851228855604,36.910027420753,2800,2018-04-06 07:01:57,1646.2723915807223,0.0,0.0,0.0755707024182624,1646.2723915807223,0.0,0.0,0.0755707024182624,1034,0.0,98,Assisted_Takeoff,
0.33915851648017104,36.910027434667796,2900,2018-04-06 07:01:57,1646.2723915807223,0.0,0.0,0.0768104024579328,1646.2723915807223,0.0,0.0,0.0768104024579328,1034,0.0,98,Assisted_Takeoff,
0.33915852488619896,36.910027444476796,3000,2018-04-06 07:01:57,1646.2723915807223,0.0,0.0,0.0774654024788928,1646.2723915807223,0.0,0.0,0.0774654024788928,1107,0.0,98,Assisted_Takeoff,
0.33915852933022306,36.9100274500343,3100,2018-04-06 07:01:57,1646.2723915807223,0.0,0.0,0.0778588024914816,1646.2723915807223,0.0,0.0,0.0778588024914816,1158,0.0,98,Assisted_Takeoff,
0.339158521676536,36.9100274662424,3200,2018-04-06 07:01:57,1646.2723915807223,0.0,0.0,0.07984730255511359,1646.2723915807223,0.0,0.0,0.07984730255511359,1158,0.0,98,Assisted_Takeoff,
0.33915849537228004,36.910027498014,3300,2018-04-06 07:01:57,1646.2723915807223,0.0,0.0,0.08421630269492161,1646.2723915807223,0.0,0.0,0.08421630269492161,1257,0.0,98,Assisted_Takeoff,
0.33915846726208,36.910027527287895,3400,2018-04-06 07:01:58,1646.2723915807223,0.0,0.0,0.0884319028298208,1646.2723915807223,0.0,0.0,0.0884319028298208,1257,0.0,98,Assisted_Takeoff,
0.339158451977504,36.9100275477195,3500,2018-04-06 07:01:58,1646.2723915807223,0.0,0.0,0.09119500291824001,1646.2723915807223,0.0,0.0,0.09119500291824001,1684,0.0,98,Assisted_Takeoff,
0.33915844595551803,36.9100275649918,3600,2018-04-06 07:01:58,1646.2723915807223,0.0,0.0,0.09322260298312321,1646.2723915807223,0.0,0.0,0.09322260298312321,1684,0.0,98,Assisted_Takeoff,
0.339158484701086,36.910027602518,3700,2018-04-06 07:01:58,1646.2723915807223,0.0,0.0,0.0954726030551232,1646.2723915807223,0.0,0.0,0.0954726030551232,1684,0.0,98,Assisted_Takeoff,
0.339158592704378,36.9100277078795,3800,2018-04-06 07:01:58,1646.2723915807223,0.0,0.503999582744,0.10341800330937599,1646.2723915807223,0.0,0.503999582744,0.10341800330937599,1684,0.0,98,P-GPS,
0.339158753713521,36.9100279329477,3900,2018-04-06 07:01:58,1646.2723915807223,0.0,0.503999582744,0.126288004041216,1646.2723915807223,0.0,0.503999582744,0.126288004041216,1684,0.0,98,P-GPS,
0.3391589397518481,36.9100282762849,4000,2018-04-06 07:01:58,1646.2723915807223,0.0,1.151999046272,0.16534000529088,1646.2723915807223,0.0,1.151999046272,0.16534000529088,1684,0.0,98,P-GPS,
0.339159101848792,36.9100286870591,4100,2018-04-06 07:01:58,1646.3723915839223,0.10000000320000002,1.151999046272,0.21306500681807997,1646.3723915839223,0.10000000320000002,1.151999046272,0.21306500681807997,1684,0.0,98,P-GPS,
0.33915924160674105,36.910029125456205,4200,2018-04-06 07:01:58,1646.572391590322,0.3000000096,1.151999046272,0.26382000844223996,1646.572391590322,0.3000000096,1.151999046272,0.26382000844223996,1684,0.0,98,P-GPS,
0.3391593469214719,36.9100295619659,4300,2018-04-06 07:01:58,1646.6723915935222,0.4000000128000001,1.151999046272,0.313716010038912,1646.6723915935222,0.4000000128000001,1.151999046272,0.313716010038912,1684,0.0,98,P-GPS,
0.339159450832483,36.910030019051796,4400,2018-04-06 07:01:58,1646.972391603122,0.7000000224000001,1.151999046272,0.365832011706624,1646.972391603122,0.7000000224000001,1.151999046272,0.365832011706624,1684,0.0,98,P-GPS,
0.3391595548672561,36.910030412694,4500,2018-04-06 07:01:59,1647.1723916095223,0.9000000288000001,0.7199994039200001,0.41105101315363207,1647.1723916095223,0.9000000288000001,1.151999046272,0.41105101315363207,1684,0.0,98,P-GPS,
0.339159642308185,36.910030709233396,4600,2018-04-06 07:01:59,1647.4723916191224,1.2000000384,0.503999582744,0.4453380142508161,1647.4723916191224,1.2000000384,1.151999046272,0.4453380142508161,1684,0.0,98,P-GPS,Home Point Recorded. RTH Altitude:  45m.
0.33915971996053695,36.910030893039,4700,2018-04-06 07:01:59,1647.8723916319223,1.6000000512000003,0.503999582744,0.467172014949504,1647.8723916319223,1.6000000512000003,1.151999046272,0.467172014949504,1684,0.0,98,P-GPS,
0.33915980294604303,36.9100310409596,4800,2018-04-06 07:01:59,1648.2723916447223,2.000000064,0.35999970196000003,0.4852930155293761,1648.2723916447223,2.000000064,1.151999046272,0.4852930155293761,1684,0.0,98,P-GPS,
0.33915987752063603,36.9100311693437,4900,2018-04-06 07:01:59,1648.7723916607222,2.50000008,0.35999970196000003,0.50113501603632,1648.7723916607222,2.50000008,1.151999046272,0.50113501603632,1684,0.0,98,P-GPS,
0.33915994953857204,36.910031300616296,5000,2018-04-06 07:01:59,1649.272391676722,3.0000000960000004,0.35999970196000003,0.5172580165522561,1649.272391676722,3.0000000960000004,1.151999046272,0.5172580165522561,1684,0.0,98,P-GPS,
0.33916001392561895,36.910031456279704,5100,2018-04-06 07:01:59,1649.7723916927223,3.500000112,0.35999970196000003,0.5358160171461122,1649.7723916927223,3.500000112,1.151999046272,0.5358160171461122,1684,0.0,98,P-GPS,
0.33916010622093895,36.910031603434895,5200,2018-04-06 07:01:59,1650.2723917087221,4.000000128,0.35999970196000003,0.554289017737248,1650.2723917087221,4.000000128,1.151999046272,0.554289017737248,1684,0.0,98,P-GPS,
0.33916019285578897,36.910031734789904,5300,2018-04-06 07:01:59,1650.7723917247222,4.5000001439999995,0.0,0.57095501827056,1650.7723917247222,4.5000001439999995,1.151999046272,0.57095501827056,1684,0.0,98,P-GPS,
0.339160271113922,36.9100318602811,5400,2018-04-06 07:02:00,1651.2723917407222,5.00000016,0.0,0.5867800187769601,1651.2723917407222,5.00000016,1.151999046272,0.5867800187769601,1684,0.0,98,P-GPS,
0.339160335354409,36.910031981477104,5500,2018-04-06 07:02:00,1651.7723917567223,5.500000176000001,0.0,0.6017330192554561,1651.7723917567223,5.500000176000001,1.151999046272,0.6017330192554561,1684,0.0,98,P-GPS,
0.339160422529901,36.9100321048389,5600,2018-04-06 07:02:00,1652.2723917727221,6.000000192000001,0.0,0.617678019765696,1652.2723917727221,6.000000192000001,1.151999046272,0.617678019765696,1684,0.0,98,P-GPS,
0.33916050209893206,36.9100322434688,5700,2018-04-06 07:02:00,1652.7723917887224,6.500000208,0.0,0.635031020320992,1652.7723917887224,6.500000208,1.151999046272,0.635031020320992,1684,0.0,98,P-GPS,
0.339160579972752,36.910032372689,5800,2018-04-06 07:02:00,1653.2723918047222,7.000000224,0.0,0.651353020843296,1653.2723918047222,7.000000224,1.151999046272,0.651353020843296,1684,0.0,98,P-GPS,
0.339160630151626,36.910032472995,5900,2018-04-06 07:02:00,1653.672391817522,7.4000002368,0.0,0.6636840212378879,1653.672391817522,7.4000002368,1.151999046272,0.6636840212378879,1684,0.0,98,P-GPS,
0.339160634432805,36.91003255849021,6000,2018-04-06 07:02:00,1654.1723918335222,7.9000002528,0.0,0.6728760215320321,1654.1723918335222,7.9000002528,1.151999046272,0.6728760215320321,1684,0.0,98,P-GPS,
0.33916059373636104,36.9100326508266,6100,2018-04-06 07:02:00,1654.672391849522,8.4000002688,0.0,0.681309021801888,1654.672391849522,8.4000002688,1.151999046272,0.681309021801888,1684,0.0,98,P-GPS,
0.339160531974366,36.9100327329044,6200,2018-04-06 07:02:00,1655.1723918655223,8.9000002848,0.0,0.6880620220179839,1655.1723918655223,8.9000002848,1.151999046272,0.6880620220179839,1684,0.0,98,P-GPS,
0.33916048923096703,36.9100328044901,6300,2018-04-06 07:02:00,1655.5723918783222,9.3000002976,0.0,0.6943880222204161,1655.5723918783222,9.3000002976,1.151999046272,0.6943880222204161,1684,0.0,98,P-GPS,
0.339160447388099,36.9100328758124,6400,2018-04-06 07:02:00,1656.0723918943222,9.8000003136,0.0,0.7007780224248961,1656.0723918943222,9.8000003136,1.151999046272,0.7007780224248961,1684,0.0,98,P-GPS,
0.33916038231547696,36.9100329527769,6500,2018-04-06 07:02:01,1656.572391910322,10.300000329600001,0.0,0.707183022629856,1656.572391910322,10.300000329600001,1.151999046272,0.707183022629856,1684,0.0,98,P-GPS,
0.339160283299568,36.910033035407096,6600,2018-04-06 07:02:01,1656.9723919231224,10.700000342400001,0.0,0.713426022829632,1656.9723919231224,10.700000342400001,1.151999046272,0.713426022829632,1684,0.0,98,P-GPS,
0.339160182581935,36.91003312589989,6700,2018-04-06 07:02:01,1657.4723919391222,11.200000358400002,0.0,0.7207140230628479,1657.4723919391222,11.200000358400002,1.151999046272,0.7207140230628479,1684,0.0,98,P-GPS,
0.339160076355277,36.9100332145834,6800,2018-04-06 07:02:01,1657.9723919551222,11.700000374400002,0.0,0.727922023293504,1657.9723919551222,11.700000374400002,1.151999046272,0.727922023293504,1684,0.0,98,P-GPS,
0.33915997951008403,36.910033302446706,6900,2018-04-06 07:02:01,1658.472391971122,12.2000003904,0.0,0.735479023535328,1658.472391971122,12.2000003904,1.151999046272,0.735479023535328,1684,0.0,98,P-GPS,
0.339159869145549,36.910033382096294,7000,2018-04-06 07:02:01,1658.8723919839222,12.600000403200003,0.0,0.7420970237471041,1658.8723919839222,12.600000403200003,1.151999046272,0.7420970237471041,1684,0.0,98,P-GPS,
0.33915976818039195,36.9100334343874,7100,2018-04-06 07:02:01,1659.3723919999222,13.100000419199999,0.0,0.74610502387536,1659.3723919999222,13.100000419199999,1.151999046272,0.74610502387536,1684,0.0,98,P-GPS,
0.339159692964193,36.9100334766896,7200,2018-04-06 07:02:01,1659.872392015922,13.600000435200002,0.0,0.74958502398672,1659.872392015922,13.600000435200002,1.151999046272,0.74958502398672,1684,0.0,98,P-GPS,
0.339159620345361,36.910033503891796,7300,2018-04-06 07:02:01,1660.3723920319221,14.100000451200001,0.0,0.751539024049248,1660.3723920319221,14.100000451200001,1.151999046272,0.751539024049248,1684,0.0,98,P-GPS,
0.33915953300213897,36.910033552076,7400,2018-04-06 07:02:02,1660.8723920479222,14.600000467200001,0.0,0.755724024183168,1660.8723920479222,14.600000467200001,1.151999046272,0.755724024183168,1684,0.0,98,P-GPS,
0.339159425751189,36.910033633297296,7500,2018-04-06 07:02:02,1661.3723920639222,15.100000483200002,0.0,0.763494024431808,1661.3723920639222,15.100000483200002,1.151999046272,0.763494024431808,1684,0.0,98,P-GPS,
0.33915932240199,36.9100337154157,7600,2018-04-06 07:02:02,1661.9723920831223,15.700000502400002,0.0,0.771609024691488,1661.9723920831223,15.700000502400002,1.151999046272,0.771609024691488,1684,0.0,98,P-GPS,
0.33915924295997807,36.9100337945578,7700,2018-04-06 07:02:02,1662.4723920991223,16.2000005184,0.0,0.7797550249521601,1662.4723920991223,16.2000005184,1.151999046272,0.7797550249521601,1684,0.0,98,P-GPS,
0.33915917449693606,36.910033870423796,7800,2018-04-06 07:02:02,1663.072392118322,16.8000005376,0.0,0.7877170252069441,1663.072392118322,16.8000005376,1.151999046272,0.7877170252069441,1684,0.0,98,P-GPS,
0.339159101954641,36.9100339122271,7900,2018-04-06 07:02:02,1663.5723921343222,17.3000005536,0.0,0.791957025342624,1663.5723921343222,17.3000005536,1.151999046272,0.791957025342624,1684,0.0,98,P-GPS,
0.339158997789593,36.910033940429294,8000,2018-04-06 07:02:02,1664.1723921535222,17.9000005728,0.0,0.794659025429088,1664.1723921535222,17.9000005728,1.151999046272,0.794659025429088,1684,0.0,98,P-GPS,
0.33915887475087797,36.9100339675116,8100,2018-04-06 07:02:02,1664.6723921695223,18.4000005888,0.0,0.797378025516096,1664.6723921695223,18.4000005888,1.151999046272,0.797378025516096,1684,0.0,98,P-GPS,
0.339158753374805,36.9100339798066,8200,2018-04-06 07:02:02,1665.272392188722,19.000000608,0.0,0.798687025557984,1665.272392188722,19.000000608,1.151999046272,0.798687025557984,1684,0.0,98,P-GPS,
0.339158673864398,36.9100339832626,8300,2018-04-06 07:02:02,1665.772392204722,19.500000624000002,0.0,0.799158025573056,1665.772392204722,19.500000624000002,1.151999046272,0.799158025573056,1684,0.0,98,P-GPS,
0.339158643787037,36.91003400369421,8400,2018-04-06 07:02:02,1666.3723922239221,20.1000006432,0.0,0.801488025647616,1666.3723922239221,20.1000006432,1.151999046272,0.801488025647616,1684,0.0,98,P-GPS,
0.33915865130230605,36.910034036647794,8500,2018-04-06 07:02:03,1666.8723922399222,20.600000659200003,0.0,0.8051360257643522,1666.8723922399222,20.600000659200003,1.151999046272,0.8051360257643522,1684,0.0,98,P-GPS,
0.339158653269467,36.910034050869896,8600,2018-04-06 07:02:03,1667.4723922591222,21.2000006784,0.0,0.8067130258148162,1667.4723922591222,21.2000006784,1.151999046272,0.8067130258148162,1684,0.0,98,P-GPS,
0.33915863748333097,36.9100340327893,8700,2018-04-06 07:02:03,1667.972392275122,21.700000694400003,0.0,0.8047360257515521,1667.972392275122,21.700000694400003,1.151999046272,0.8067130258148162,1684,0.0,98,P-GPS,
0.339158633060477,36.910034005227295,8800,2018-04-06 07:02:03,1668.4723922911223,22.2000007104,0.0,0.8016820256538241,1668.4723922911223,22.2000007104,1.151999046272,0.8067130258148162,1684,0.0,98,P-GPS,
0.33915864546759195,36.910033976213604,8900,2018-04-06 07:02:03,1669.0723923103221,22.8000007296,0.0,0.7984290255497279,1669.0723923103221,22.8000007296,1.151999046272,0.8067130258148162,1684,0.0,98,P-GPS,
0.3391586584984,36.9100339415385,9000,2018-04-06 07:02:03,1669.5723923263222,23.300000745600002,0.0,0.7945470254255039,1669.5723923263222,23.300000745600002,1.151999046272,0.8067130258148162,1684,0.0,98,P-GPS,
0.339158657241242,36.9100339051311,9100,2018-04-06 07:02:03,1670.0723923423222,23.800000761600003,0.0,0.7905010252960322,1670.0723923423222,23.800000761600003,1.151999046272,0.8067130258148162,1684,0.0,98,P-GPS,
0.33915865283792895,36.9100338690235,9200,2018-04-06 07:02:03,1670.572392358322,24.3000007776,0.0,0.7864950251678401,1670.572392358322,24.3000007776,1.151999046272,0.8067130258148162,1684,0.0,98,P-GPS,
0.33915865877849294,36.910033853760794,9300,2018-04-06 07:02:03,1671.1723923775223,24.9000007968,0.0,0.7847860251131522,1671.1723923775223,24.9000007968,1.151999046272,0.8067130258148162,1684,0.0,98,P-GPS,
0.3391586685100739,36.9100338362862,9400,2018-04-06 07:02:04,1671.6723923935222,25.400000812800002,0.0,0.7828250250504001,1671.6723923935222,25.400000812800002,1.151999046272,0.8067130258148162,1684,0.0,98,P-GPS,
0.33915869145322197,36.9100338136041,9500,2018-04-06 07:02:04,1672.1723924095222,25.900000828800003,0.0,0.78026502496848,1672.1723924095222,25.900000828800003,1.151999046272,0.8067130258148162,1684,0.0,98,P-GPS,
0.33915870809754806,36.9100337935429,9600,2018-04-06 07:02:04,1672.6723924255223,26.4000008448,0.0,0.778012024896384,1672.6723924255223,26.4000008448,1.151999046272,0.8067130258148162,1684,0.0,98,P-GPS,
0.339158716637108,36.910033782080795,9700,2018-04-06 07:02:04,1673.272392444722,27.000000864000004,0.0,0.776728024855296,1673.272392444722,27.000000864000004,1.151999046272,0.8067130258148162,1684,0.0,98,P-GPS,
0.339158737658692,36.910033759415896,9800,2018-04-06 07:02:04,1673.7723924607221,27.50000088,0.0,0.7741890247740479,1673.7723924607221,27.50000088,1.151999046272,0.8067130258148162,1684,0.0,98,P-GPS,
0.339158773440492,36.9100337274837,9900,2018-04-06 07:02:04,1674.2723924767222,28.000000896,0.0,0.770622024659904,1674.2723924767222,28.000000896,1.151999046272,0.8067130258148162,1684,0.0,98,P-GPS,
0.33915883513897804,36.9100336884383,10100,2018-04-06 07:02:04,1675.272392508722,29.000000928,0.0,0.7663000245216001,1675.272392508722,29.000000928,1.151999046272,0.8067130258148162,1684,0.0,98,P-GPS,
0.33915886312867305,36.910033670843795,10200,2018-04-06 07:02:04,1675.8723925279226,29.6000009472,0.0,0.7643740244599679,1675.8723925279226,29.6000009472,1.151999046272,0.8067130258148162,1684,0.0,98,P-GPS,
0.33915890421594397,36.9100336539858,10300,2018-04-06 07:02:04,1676.3723925439224,30.1000009632,0.0,0.7625660244021122,1676.3723925439224,30.1000009632,1.151999046272,0.8067130258148162,1684,0.0,98,P-GPS,
0.339158947221521,36.910033640369704,10400,2018-04-06 07:02:04,1676.8723925599224,30.6000009792,0.0,0.7611510243568321,1676.8723925599224,30.6000009792,1.151999046272,0.8067130258148162,1684,0.0,98,P-GPS,
0.33915899905000796,36.9100336428793,10500,2018-04-06 07:02:05,1677.3723925759223,31.100000995200002,0.0,0.76159002437088,1677.3723925759223,31.100000995200002,1.151999046272,0.8067130258148162,1684,0.0,98,P-GPS,
0.339159051630836,36.9100336373849,10600,2018-04-06 07:02:05,1677.8723925919223,31.6000010112,0.0,0.76118502435792,1677.8723925919223,31.6000010112,1.151999046272,0.8067130258148162,1684,0.0,98,P-GPS,
0.339159136225245,36.9100335965494,10800,2018-04-06 07:02:05,1678.8723926239222,32.6000010432,0.0,0.7570770242264641,1678.8723926239222,32.6000010432,1.151999046272,0.8067130258148162,1684,0.0,98,P-GPS,
0.339159171839315,36.910033574779504,10900,2018-04-06 07:02:05,1679.3723926399225,33.100001059200004,0.0,0.754875024156,1679.3723926399225,33.100001059200004,1.151999046272,0.8067130258148162,1684,0.0,98,P-GPS,
0.339159211978831,36.9100335458129,11000,2018-04-06 07:02:05,1679.8723926559223,33.6000010752,0.0,0.751929024061728,1679.8723926559223,33.6000010752,1.151999046272,0.8067130258148162,1684,0.0,98,P-GPS,
0.339159252960253,36.9100335320576,11100,2018-04-06 07:02:05,1680.4723926751226,34.2000010944,0.0,0.750706024022592,1680.4723926751226,34.2000010944,1.151999046272,0.8067130258148162,1684,0.0,98,P-GPS,
0.339159286592507,36.9100335024765,11200,2018-04-06 07:02:05,1680.9723926911224,34.7000011104,0.0,0.74769502392624,1680.9723926911224,34.7000011104,1.151999046272,0.8067130258148162,1684,0.0,98,P-GPS,
0.3391593041438761,36.9100334639128,11300,2018-04-06 07:02:05,1681.4723927071223,35.2000011264,0.0,0.7435680237941761,1681.4723927071223,35.2000011264,1.151999046272,0.8067130258148162,1684,0.0,98,P-GPS,
0.339159329821181,36.910033425103,11400,2018-04-06 07:02:06,1681.9723927231223,35.7000011424,0.0,0.7394940236638081,1681.9723927231223,35.7000011424,1.151999046272,0.8067130258148162,1684,0.0,98,P-GPS,
0.33915937386733397,36.9100334135596,11500,2018-04-06 07:02:06,1682.4723927391224,36.200001158400006,0.0,0.738634023636288,1682.4723927391224,36.200001158400006,1.151999046272,0.8067130258148162,1684,0.0,98,P-GPS,
0.339159424967907,36.910033390612,11600,2018-04-06 07:02:06,1682.9723927551224,36.7000011744,0.0,0.736621023571872,1682.9723927551224,36.7000011744,1.151999046272,0.8067130258148162,1684,0.0,98,P-GPS,
0.339159478323875,36.910033352480895,11700,2018-04-06 07:02:06,1683.4723927711223,37.2000011904,0.0,0.733002023456064,1683.4723927711223,37.2000011904,1.151999046272,0.8067130258148162,1684,0.0,98,P-GPS,
0.33915952937885097,36.9100333086028,11800,2018-04-06 07:02:06,1684.0723927903223,37.800001209600005,0.0,0.728774023320768,1684.0723927903223,37.800001209600005,1.151999046272,0.8067130258148162,1684,0.0,98,P-GPS,
0.33915956914708195,36.910033289644296,11900,2018-04-06 07:02:06,1684.5723928063223,38.3000012256,0.0,0.727198023270336,1684.5723928063223,38.3000012256,1.151999046272,0.8067130258148162,1684,0.0,98,P-GPS,
0.33915960650521504,36.9100332776148,12000,2018-04-06 07:02:06,1685.0723928223224,38.8000012416,0.0,0.7263810232441921,1685.0723928223224,38.8000012416,1.151999046272,0.8067130258148162,1684,0.0,98,P-GPS,
0.339159630329351,36.9100332715209,12100,2018-04-06 07:02:06,1685.5723928383225,39.3000012576,0.0,0.726048023233536,1685.5723928383225,39.3000012576,1.151999046272,0.8067130258148162,1684,0.0,98,P-GPS,
0.33915963557782597,36.9100332609989,12200,2018-04-06 07:02:06,1686.0723928543223,39.80000127360001,0.0,0.7249640231988479,1686.0723928543223,39.80000127360001,1.151999046272,0.8067130258148162,1684,0.0,98,P-GPS,
0.33915961709498704,36.9100332537315,12300,2018-04-06 07:02:06,1686.5723928703223,40.3000012896,0.0,0.723897023164704,1686.5723928703223,40.3000012896,1.151999046272,0.8067130258148162,1684,0.0,98,P-GPS,
0.33915958146951697,36.910033234606,12400,2018-04-06 07:02:06,1687.0723928863224,40.8000013056,0.0,0.7212890230812481,1687.0723928863224,40.8000013056,1.151999046272,0.8067130258148162,1684,0.0,98,P-GPS,
0.339159546252788,36.910033219709504,12500,2018-04-06 07:02:07,1687.5723929023225,41.30000132160001,0.0,0.719173023013536,1687.5723929023225,41.30000132160001,1.151999046272,0.8067130258148162,1684,0.0,98,P-GPS,
0.339159517844582,36.9100332092303,12600,2018-04-06 07:02:07,1688.0723929183223,41.80000133760001,0.0,0.717649022964768,1688.0723929183223,41.80000133760001,1.151999046272,0.8067130258148162,1684,0.0,98,P-GPS,
0.339159502180579,36.910033210151,12700,2018-04-06 07:02:07,1688.5723929343224,42.30000135360001,0.0,0.71755502296176,1688.5723929343224,42.30000135360001,1.151999046272,0.8067130258148162,1684,0.0,98,P-GPS,
0.339159500185735,36.910033214921704,12800,2018-04-06 07:02:07,1689.1723929535224,42.900001372800006,0.0,0.718058022977856,1689.1723929535224,42.900001372800006,1.151999046272,0.8067130258148162,1684,0.0,98,P-GPS,
0.33915950238087794,36.9100332236279,12900,2018-04-06 07:02:07,1689.6723929695224,43.40000138880001,0.0,0.719047023009504,1689.6723929695224,43.40000138880001,1.151999046272,0.8067130258148162,1684,0.0,98,P-GPS,
0.339159500742663,36.9100332292251,13000,2018-04-06 07:02:07,1690.1723929855225,43.9000014048,0.0,0.7196450230286401,1690.1723929855225,43.9000014048,1.151999046272,0.8067130258148162,1684,0.0,98,P-GPS,
0.33915948073234303,36.910033230424204,13100,2018-04-06 07:02:07,1690.6723930015223,44.4000014208,0.0,0.71953502302512,1690.6723930015223,44.4000014208,1.151999046272,0.8067130258148162,1684,0.0,98,P-GPS,
0.339159441949321,36.9100332212769,13200,2018-04-06 07:02:07,1691.1723930175222,44.9000014368,0.0,0.7180710229782722,1691.1723930175222,44.9000014368,1.151999046272,0.8067130258148162,1684,0.0,98,P-GPS,
0.33915937949035196,36.9100331995926,13300,2018-04-06 07:02:07,1691.6723930335224,45.400001452800005,0.0,0.7149950228798402,1691.6723930335224,45.400001452800005,1.151999046272,0.8067130258148162,1684,0.0,98,P-GPS,
0.33915932513777597,36.9100331579392,13400,2018-04-06 07:02:08,1692.1723930495223,45.9000014688,0.0,0.70984502271504,1692.1723930495223,45.9000014688,1.151999046272,0.8067130258148162,1684,0.0,98,P-GPS,
0.339159291733505,36.910033108172605,13500,2018-04-06 07:02:08,1692.6723930655223,46.4000014848,0.0,0.704022022528704,1692.6723930655223,46.4000014848,1.151999046272,0.8067130258148162,1684,0.0,98,P-GPS,
0.33915927445245697,36.9100330633909,13600,2018-04-06 07:02:08,1693.1723930815224,46.9000015008,0.0,0.6989060223649921,1693.1723930815224,46.9000015008,1.151999046272,0.8067130258148162,1684,0.0,98,P-GPS,
0.339159256787096,36.9100330452397,13700,2018-04-06 07:02:08,1693.7723931007224,47.500001520000005,0.0,0.696743022295776,1693.7723931007224,47.500001520000005,1.151999046272,0.8067130258148162,1684,0.0,98,P-GPS,
0.339159238260289,36.91003302720829,13800,2018-04-06 07:02:08,1694.2723931167225,48.000001536000006,0.0,0.69459002222688,1694.2723931167225,48.000001536000006,1.151999046272,0.8067130258148162,1684,0.0,98,P-GPS,
0.33915921789171194,36.9100330069715,13900,2018-04-06 07:02:08,1694.7723931327223,48.500001552,0.0,0.692184022149888,1694.7723931327223,48.500001552,1.151999046272,0.8067130258148162,1684,0.0,98,P-GPS,
0.33915921172642305,36.910032988968,14000,2018-04-06 07:02:08,1695.2723931487224,49.00000156800001,0.0,0.6901390220844481,1695.2723931487224,49.00000156800001,1.151999046272,0.8067130258148162,1684,0.0,98,P-GPS,
0.339159212421768,36.9100329926638,14100,2018-04-06 07:02:08,1695.7723931647224,49.500001584,0.0,0.69055502209776,1695.7723931647224,49.500001584,1.151999046272,0.8067130258148162,1684,0.0,98,P-GPS,
0.339159195274253,36.9100330122604,14200,2018-04-06 07:02:08,1696.2723931807225,50.000001600000004,0.0,0.6926000221632,1696.2723931807225,50.000001600000004,1.151999046272,0.8067130258148162,1684,0.0,98,P-GPS,
0.33915915215142695,36.910033048762,14300,2018-04-06 07:02:08,1696.7723931967223,50.500001616000006,0.0,0.696352022283264,1696.7723931967223,50.500001616000006,1.151999046272,0.8067130258148162,1684,0.0,98,P-GPS,
0.339159108145985,36.9100330893983,14400,2018-04-06 07:02:08,1697.2723932127224,51.000001632,0.0,0.700594022419008,1697.2723932127224,51.000001632,1.151999046272,0.8067130258148162,1684,0.0,98,P-GPS,
0.339159084888548,36.910033111947605,14500,2018-04-06 07:02:09,1697.7723932287224,51.50000164800001,0.0,0.7029700224950399,1697.7723932287224,51.50000164800001,1.151999046272,0.8067130258148162,1684,0.0,98,P-GPS,
0.33915904574401096,36.910033136908005,14600,2018-04-06 07:02:09,1698.2723932447225,52.000001664,0.0,0.705549022577568,1698.2723932447225,52.000001664,1.151999046272,0.8067130258148162,1684,0.0,98,P-GPS,
0.339158983814286,36.9100331715874,14700,2018-04-06 07:02:09,1698.7723932607223,52.500001680000004,0.0,0.709153022692896,1698.7723932607223,52.500001680000004,1.151999046272,0.8067130258148162,1684,0.0,98,P-GPS,
0.33915887638909303,36.9100332083074,14900,2018-04-06 07:02:09,1699.8723932959224,53.6000017152,0.0,0.712961022814752,1699.8723932959224,53.6000017152,1.151999046272,0.8067130258148162,1684,0.0,98,P-GPS,
0.339158844735398,36.9100332099519,15000,2018-04-06 07:02:09,1700.3723933119225,54.100001731199995,0.0,0.7131020228192639,1700.3723933119225,54.100001731199995,1.151999046272,0.8067130258148162,1684,0.0,98,P-GPS,
0.33915884413450204,36.910033216731,15100,2018-04-06 07:02:09,1700.8723933279225,54.6000017472,0.0,0.7138550228433601,1700.8723933279225,54.6000017472,1.151999046272,0.8067130258148162,1684,0.0,98,P-GPS,
0.339158851091215,36.9100332284286,15200,2018-04-06 07:02:09,1701.3723933439223,55.1000017632,0.0,0.715163022885216,1701.3723933439223,55.1000017632,1.151999046272,0.8067130258148162,1684,0.0,98,P-GPS,
0.3391588560140011,36.910033261870396,15300,2018-04-06 07:02:09,1701.8723933599222,55.6000017792,0.0,0.7188880230044161,1701.8723933599222,55.6000017792,1.151999046272,0.8067130258148162,1684,0.0,98,P-GPS,
0.33915884915010996,36.9100332994661,15400,2018-04-06 07:02:10,1702.3723933759225,56.10000179520001,0.0,0.7230600231379201,1702.3723933759225,56.10000179520001,1.151999046272,0.8067130258148162,1684,0.0,98,P-GPS,
0.339158826075058,36.910033341125995,15500,2018-04-06 07:02:10,1702.8723933919223,56.600001811199995,0.0,0.727672023285504,1702.8723933919223,56.600001811199995,1.151999046272,0.8067130258148162,1684,0.0,98,P-GPS,
0.339158805134897,36.9100333886485,15600,2018-04-06 07:02:10,1703.3723934079223,57.100001827199996,0.0,0.7329450234542401,1703.3723934079223,57.100001827199996,1.151999046272,0.8067130258148162,1684,0.0,98,P-GPS,
0.33915879451092795,36.910033429683104,15700,2018-04-06 07:02:10,1703.8723934239224,57.600001843200005,0.0,0.7375050236001599,1703.8723934239224,57.600001843200005,1.151999046272,0.8067130258148162,1684,0.0,98,P-GPS,
0.33915878606093197,36.9100334648143,15800,2018-04-06 07:02:10,1704.3723934399225,58.100001859200006,0.0,0.7414110237251521,1704.3723934399225,58.100001859200006,1.151999046272,0.8067130258148162,1684,0.0,98,P-GPS,
0.339158733675518,36.91003350951679,16000,2018-04-06 07:02:10,1705.3723934719226,59.1000018912,0.0,0.746403023884896,1705.3723934719226,59.1000018912,1.151999046272,0.8067130258148162,1684,0.0,98,P-GPS,
0.339158678042985,36.9100335351281,16100,2018-04-06 07:02:10,1705.9723934911224,59.700001910400005,0.0,0.749322023978304,1705.9723934911224,59.700001910400005,1.151999046272,0.8067130258148162,1684,0.0,98,P-GPS,
0.339158614050022,36.9100335593305,16200,2018-04-06 07:02:10,1706.4723935071222,60.2000019264,0.0,0.7521580240690561,1706.4723935071222,60.2000019264,1.151999046272,0.8067130258148162,1684,0.0,98,P-GPS,
0.339158560166438,36.9100335870744,16300,2018-04-06 07:02:11,1706.9723935231225,60.7000019424,0.0,0.7554160241733121,1706.9723935231225,60.7000019424,1.151999046272,0.8067130258148162,1684,0.0,98,P-GPS,
0.339158531406489,36.9100336786122,16500,2018-04-06 07:02:11,1707.9723935551224,61.7000019744,0.0,0.7657000245024,1707.9723935551224,61.7000019744,1.151999046272,0.8067130258148162,1684,0.0,98,P-GPS,
0.33915855943689505,36.9100337299568,16600,2018-04-06 07:02:11,1708.4723935711224,62.200001990400004,0.0,0.7712990246815681,1708.4723935711224,62.200001990400004,1.151999046272,0.8067130258148162,1684,0.0,98,P-GPS,
0.339158600193592,36.9100337694026,16700,2018-04-06 07:02:11,1708.9723935871225,62.7000020064,0.0,0.7755510248176322,1708.9723935871225,62.7000020064,1.151999046272,0.8067130258148162,1684,0.0,98,P-GPS,
0.33915863821287395,36.910033863841704,16900,2018-04-06 07:02:11,1709.9723936191224,63.7000020384,0.0,0.785951025150432,1709.9723936191224,63.7000020384,1.151999046272,0.8067130258148162,1684,0.0,98,P-GPS,
0.339158649336774,36.9100339145418,17000,2018-04-06 07:02:11,1710.4723936351224,64.2000020544,0.0,0.791564025330048,1710.4723936351224,64.2000020544,1.151999046272,0.8067130258148162,1684,0.0,98,P-GPS,
0.33915864997186795,36.910033951917,17100,2018-04-06 07:02:11,1710.9723936511223,64.7000020704,0.0,0.7957180254629761,1710.9723936511223,64.7000020704,1.151999046272,0.8067130258148162,1684,0.0,98,P-GPS,
0.3391586013611861,36.91003399566029,17200,2018-04-06 07:02:11,1711.4723936671226,65.2000020864,0.0,0.8007000256224001,1711.4723936671226,65.2000020864,1.151999046272,0.8067130258148162,1684,0.0,98,P-GPS,
0.33915850707427797,36.9100340377034,17300,2018-04-06 07:02:11,1711.9723936831224,65.7000021024,0.0,0.8057060257825921,1711.9723936831224,65.7000021024,1.151999046272,0.8067130258148162,1684,0.0,98,P-GPS,
0.33915839888534494,36.910034088975294,17400,2018-04-06 07:02:11,1712.5723937023222,66.3000021216,0.0,0.8119480259823361,1712.5723937023222,66.3000021216,1.151999046272,0.8119480259823361,1684,0.0,98,P-GPS,
0.33915832565910303,36.910034152901794,17500,2018-04-06 07:02:12,1713.0723937183225,66.8000021376,0.0,0.8195130262244161,1713.0723937183225,66.8000021376,1.151999046272,0.8195130262244161,1684,0.0,98,P-GPS,
0.339158279434092,36.9100342418336,17600,2018-04-06 07:02:12,1713.5723937343223,67.30000215359999,0.0,0.82971502655088,1713.5723937343223,67.30000215359999,1.151999046272,0.82971502655088,1684,0.0,98,P-GPS,
0.339158256466518,36.9100343396344,17700,2018-04-06 07:02:12,1714.0723937503224,67.8000021696,0.0,0.8407410269037121,1714.0723937503224,67.8000021696,1.151999046272,0.8407410269037121,1684,0.0,98,P-GPS,
0.339158245516861,36.91003443607129,17800,2018-04-06 07:02:12,1714.5723937663224,68.30000218560001,0.0,0.851524027248768,1714.5723937663224,68.30000218560001,1.151999046272,0.851524027248768,1684,0.0,98,P-GPS,
0.339158245958169,36.910034504130394,17900,2018-04-06 07:02:12,1715.0723937823225,68.8000022016,0.0,0.8590700274902401,1715.0723937823225,68.8000022016,1.151999046272,0.8590700274902401,1684,0.0,98,P-GPS,
0.33915824711924897,36.9100345701082,18000,2018-04-06 07:02:12,1715.5723937983223,69.30000221760001,0.0,0.866381027724192,1715.5723937983223,69.30000221760001,1.151999046272,0.866381027724192,1684,0.0,98,P-GPS,
0.339158231969835,36.910034620108206,18100,2018-04-06 07:02:12,1716.0723938143226,69.8000022336,0.0,0.8720450279054399,1716.0723938143226,69.8000022336,1.151999046272,0.8720450279054399,1684,0.0,98,P-GPS,
0.33915819347830395,36.9100346361696,18200,2018-04-06 07:02:12,1716.5723938303224,70.30000224960001,0.0,0.874138027972416,1716.5723938303224,70.30000224960001,1.151999046272,0.874138027972416,1684,0.0,98,P-GPS,
0.339158138174718,36.9100346403385,18300,2018-04-06 07:02:12,1717.0723938463223,70.80000226560001,0.0,0.875083028002656,1717.0723938463223,70.80000226560001,1.151999046272,0.875083028002656,1684,0.0,98,P-GPS,
0.339158099850917,36.9100346462483,18400,2018-04-06 07:02:13,1717.6723938655225,71.4000022848,0.0,0.876097028035104,1717.6723938655225,71.4000022848,1.151999046272,0.876097028035104,1684,0.0,98,P-GPS,
0.33915809178034806,36.910034661708,18500,2018-04-06 07:02:13,1718.1723938815223,71.9000023008,0.0,0.8778880280924161,1718.1723938815223,71.9000023008,1.151999046272,0.8778880280924161,1684,0.0,97,P-GPS,
0.339158085377306,36.910034699849795,18600,2018-04-06 07:02:13,1718.6723938975224,72.40000231680001,0.0,0.8821760282296321,1718.6723938975224,72.40000231680001,1.151999046272,0.8821760282296321,1684,0.0,97,P-GPS,
0.33915806356267103,36.9100347542222,18700,2018-04-06 07:02:13,1719.1723939135225,72.9000023328,0.0,0.888414028429248,1719.1723939135225,72.9000023328,1.151999046272,0.888414028429248,1684,0.0,97,P-GPS,
0.339158039481241,36.910034798659204,18800,2018-04-06 07:02:13,1719.6723939295223,73.4000023488,0.0,0.8935800285945601,1719.6723939295223,73.4000023488,1.151999046272,0.8935800285945601,1684,0.0,97,P-GPS,
0.33915802710018106,36.91003481298829,18900,2018-04-06 07:02:13,1720.1723939455223,73.9000023648,0.0,0.89529502864944,1720.1723939455223,73.9000023648,1.151999046272,0.89529502864944,1684,0.0,97,P-GPS,
0.339158007120802,36.9100348186626,19000,2018-04-06 07:02:13,1720.6723939615224,74.4000023808,0.0,0.89613502867632,1720.6723939615224,74.4000023808,1.151999046272,0.89613502867632,1684,0.0,97,P-GPS,
0.33915796891424893,36.9100348218509,19100,2018-04-06 07:02:13,1721.1723939775225,74.9000023968,0.0,0.8969070287010239,1721.1723939775225,74.9000023968,1.151999046272,0.8969070287010239,1684,0.0,97,P-GPS,
0.339157927872575,36.9100347934474,19200,2018-04-06 07:02:13,1721.6723939935223,75.40000241279999,0.0,0.894238028615616,1721.6723939935223,75.40000241279999,1.151999046272,0.8969070287010239,1684,0.0,97,P-GPS,
0.339157885153603,36.9100347347733,19300,2018-04-06 07:02:13,1722.1723940095223,75.90000242880001,0.0,0.888273028424736,1722.1723940095223,75.90000242880001,1.151999046272,0.8969070287010239,1684,0.0,97,P-GPS,
0.33915783346190503,36.910034602481495,19500,2018-04-06 07:02:14,1723.1723940415225,76.9000024608,0.0,0.8743320279786241,1723.1723940415225,76.9000024608,1.151999046272,0.8969070287010239,1684,0.0,97,P-GPS,
0.339157836456614,36.910034556412896,19600,2018-04-06 07:02:14,1723.6723940575223,77.40000247680001,0.0,0.869207027814624,1723.6723940575223,77.40000247680001,1.151999046272,0.8969070287010239,1684,0.0,97,P-GPS,
0.339157861280614,36.91003453724029,19700,2018-04-06 07:02:14,1724.1723940735224,77.9000024928,0.0,0.866759027736288,1724.1723940735224,77.9000024928,1.151999046272,0.8969070287010239,1671,0.0,97,P-GPS,
0.33915788826556,36.910034533929995,19800,2018-04-06 07:02:14,1724.6723940895224,78.4000025088,0.0,0.8660440277134079,1724.6723940895224,78.4000025088,1.151999046272,0.8969070287010239,1024,0.0,97,P-GPS,
0.33915790428130604,36.910034546929396,19900,2018-04-06 07:02:14,1725.1723941055222,78.9000025248,0.0,0.8672770277528641,1725.1723941055222,78.9000025248,1.151999046272,0.8969070287010239,1024,0.0,97,P-GPS,
0.33915791421155794,36.9100345693931,20000,2018-04-06 07:02:14,1725.7723941247225,79.500002544,0.0,0.869636027828352,1725.7723941247225,79.500002544,1.151999046272,0.8969070287010239,1024,0.0,97,P-GPS,
0.339157922418916,36.910034590739,20100,2018-04-06 07:02:14,1726.1723941375224,79.9000025568,0.0,0.871894027900608,1726.1723941375224,79.9000025568,1.151999046272,0.8969070287010239,1024,0.0,97,P-GPS,
0.339157938361382,36.91003461266521,20200,2018-04-06 07:02:14,1726.5723941503225,80.30000256960001,0.0,0.8741250279720001,1726.5723941503225,80.30000256960001,1.151999046272,0.8969070287010239,1024,0.0,97,P-GPS,
0.33915790914058297,36.910034675405505,20300,2018-04-06 07:02:14,1726.8723941599224,80.6000025792,0.0,0.8814150282052801,1726.8723941599224,80.6000025792,1.151999046272,0.8969070287010239,1024,0.0,97,P-GPS,
0.339157882357565,36.910034734443606,20400,2018-04-06 07:02:15,1727.0723941663223,80.80000258560001,0.0,0.8882710284246721,1727.0723941663223,80.80000258560001,1.151999046272,0.8969070287010239,1024,0.0,97,P-GPS,
0.339157880291069,36.910034774853,20500,2018-04-06 07:02:15,1727.2723941727224,81.000002592,0.0,0.8927620285683842,1727.2723941727224,81.000002592,1.151999046272,0.8969070287010239,1024,0.0,97,P-GPS,
0.3391578728979339,36.910034827580795,20600,2018-04-06 07:02:15,1727.2723941727224,81.000002592,0.0,0.8986810287577921,1727.2723941727224,81.000002592,1.151999046272,0.8986810287577921,1024,0.0,97,P-GPS,
0.339157875894271,36.9100348901691,20700,2018-04-06 07:02:15,1727.3723941759224,81.10000259520002,0.0,0.9055600289779202,1727.3723941759224,81.10000259520002,1.151999046272,0.9055600289779202,1024,0.0,97,P-GPS,
0.3391578797146,36.91003496948029,20800,2018-04-06 07:02:15,1727.3723941759224,81.10000259520002,0.0,0.9142790292569279,1727.3723941759224,81.10000259520002,1.151999046272,0.9142790292569279,1024,0.0,97,P-GPS,
0.33915790036164195,36.9100350536201,20900,2018-04-06 07:02:15,1727.3723941759224,81.10000259520002,0.0,0.9233320295466241,1727.3723941759224,81.10000259520002,1.151999046272,0.9233320295466241,1024,0.0,97,P-GPS,
0.339157926796173,36.9100351219447,21000,2018-04-06 07:02:15,1727.3723941759224,81.10000259520002,0.0,0.930582029778624,1727.3723941759224,81.10000259520002,1.151999046272,0.930582029778624,1024,0.0,97,P-GPS,
0.33915797417738,36.9100351530911,21100,2018-04-06 07:02:15,1727.3723941759224,81.10000259520002,0.0,0.9335040298721279,1727.3723941759224,81.10000259520002,1.151999046272,0.9335040298721279,1024,0.0,97,P-GPS,
0.33915803883963397,36.9100351559711,21200,2018-04-06 07:02:15,1727.3723941759224,81.10000259520002,0.0,0.933157029861024,1727.3723941759224,81.10000259520002,1.151999046272,0.9335040298721279,1024,0.0,97,P-GPS,
0.33915812977031795,36.9100351473376,21300,2018-04-06 07:02:15,1727.3723941759224,81.10000259520002,0.0,0.9313570298034239,1727.3723941759224,81.10000259520002,1.151999046272,0.9335040298721279,1024,0.0,97,P-GPS,
0.33915838597666903,36.9100350902802,21500,2018-04-06 07:02:16,1727.4723941791224,81.2000025984,0.0,0.9232290295433281,1727.4723941791224,81.2000025984,1.151999046272,0.9335040298721279,1024,0.0,97,P-GPS,
0.339158554126539,36.9100350433401,21600,2018-04-06 07:02:16,1727.4723941791224,81.2000025984,0.0,0.91730502935376,1727.4723941791224,81.2000025984,1.151999046272,0.9335040298721279,1024,0.0,97,P-GPS,
0.339158738174908,36.910034982998,21700,2018-04-06 07:02:16,1727.4723941791224,81.2000025984,0.0,0.9102530291280961,1727.4723941791224,81.2000025984,1.151999046272,0.9335040298721279,1024,0.0,97,P-GPS,
0.3391589328179339,36.9100349087357,21800,2018-04-06 07:02:16,1727.5723941823226,81.3000026016,0.0,0.902134028868288,1727.5723941823226,81.3000026016,1.151999046272,0.9335040298721279,1024,0.0,97,P-GPS,
0.339159112471133,36.910034825602295,21900,2018-04-06 07:02:16,1727.5723941823226,81.3000026016,0.0,0.89348502859152,1727.5723941823226,81.3000026016,1.151999046272,0.9335040298721279,1024,0.0,97,P-GPS,
0.33915927895347603,36.9100347287115,22000,2018-04-06 07:02:16,1727.5723941823226,81.3000026016,0.0,0.8836800282777602,1727.5723941823226,81.3000026016,1.151999046272,0.9335040298721279,1024,0.0,97,P-GPS,
0.33915941977805597,36.9100346199776,22100,2018-04-06 07:02:16,1727.5723941823226,81.3000026016,0.0,0.8727420279277441,1727.5723941823226,81.3000026016,1.151999046272,0.9335040298721279,1024,0.0,97,P-GPS,
0.339159722593731,36.9100343818531,22300,2018-04-06 07:02:16,1727.5723941823226,81.3000026016,0.0,0.8498290271945279,1727.5723941823226,81.3000026016,1.151999046272,0.9335040298721279,1024,0.0,97,P-GPS,
0.339159890172017,36.91003426151371,22400,2018-04-06 07:02:17,1727.5723941823226,81.3000026016,0.0,0.8390800268505602,1727.5723941823226,81.3000026016,1.151999046272,0.9335040298721279,1024,0.0,97,P-GPS,
0.339160043244125,36.910034156771005,22500,2018-04-06 07:02:17,1727.5723941823226,81.3000026016,0.0,0.830262026568384,1727.5723941823226,81.3000026016,1.151999046272,0.9335040298721279,1024,0.0,97,P-GPS,
0.339160201369294,36.9100340566298,22600,2018-04-06 07:02:17,1727.5723941823226,81.3000026016,0.0,0.8224770263192641,1727.5723941823226,81.3000026016,1.151999046272,0.9335040298721279,1024,0.0,97,P-GPS,
0.339160364544268,36.9100339643426,22700,2018-04-06 07:02:17,1727.5723941823226,81.3000026016,0.0,0.816122026115904,1727.5723941823226,81.3000026016,1.151999046272,0.9335040298721279,1024,0.0,97,P-GPS,
0.33916053222188897,36.9100338610709,22800,2018-04-06 07:02:17,1727.5723941823226,81.3000026016,0.0,0.809189025894048,1727.5723941823226,81.3000026016,1.151999046272,0.9335040298721279,1024,0.0,97,P-GPS,
0.339160674648858,36.9100337505341,22900,2018-04-06 07:02:17,1727.5723941823226,81.3000026016,0.0,0.8012730256407361,1727.5723941823226,81.3000026016,1.151999046272,0.9335040298721279,1024,0.0,97,P-GPS,
0.33916080935537396,36.910033643057,23000,2018-04-06 07:02:17,1727.5723941823226,81.3000026016,0.0,0.793867025403744,1727.5723941823226,81.3000026016,1.151999046272,0.9335040298721279,1024,0.0,97,P-GPS,
0.339160920947756,36.910033555934504,23100,2018-04-06 07:02:17,1727.5723941823226,81.3000026016,0.0,0.7882340252234881,1727.5723941823226,81.3000026016,1.151999046272,0.9335040298721279,1024,0.0,97,P-GPS,
0.339161036616133,36.9100334617652,23200,2018-04-06 07:02:17,1727.5723941823226,81.3000026016,0.0,0.78228002503296,1727.5723941823226,81.3000026016,1.151999046272,0.9335040298721279,1024,0.0,97,P-GPS,
0.33916114258061203,36.9100333769659,23300,2018-04-06 07:02:17,1727.5723941823226,81.3000026016,0.0,0.7772510248720321,1727.5723941823226,81.3000026016,1.151999046272,0.9335040298721279,1024,0.0,97,P-GPS,
0.33916125054644897,36.910033286017,23400,2018-04-06 07:02:17,1727.5723941823226,81.3000026016,0.0,0.7719230247015361,1727.5723941823226,81.3000026016,1.151999046272,0.9335040298721279,1024,0.0,97,P-GPS,
0.33916134627941497,36.9100332015047,23500,2018-04-06 07:02:18,1727.5723941823226,81.3000026016,0.0,0.767037024545184,1727.5723941823226,81.3000026016,1.151999046272,0.9335040298721279,1024,0.0,97,P-GPS,
0.339161439903545,36.910033122354,23600,2018-04-06 07:02:18,1727.5723941823226,81.3000026016,0.0,0.7628430244109761,1727.5723941823226,81.3000026016,1.151999046272,0.9335040298721279,1024,0.0,97,P-GPS,
0.33916149942805895,36.910033075249,23700,2018-04-06 07:02:18,1727.5723941823226,81.3000026016,0.0,0.76062002433984,1727.5723941823226,81.3000026016,1.151999046272,0.9335040298721279,1024,-0.1,97,P-GPS,
0.33916156074223197,36.9100330316599,23800,2018-04-06 07:02:18,1727.4723941791224,81.2000025984,0.0,0.7589230242855362,1727.5723941823226,81.3000026016,1.151999046272,0.9335040298721279,1024,-0.7,97,P-GPS,
0.339161605905498,36.9100329919037,23900,2018-04-06 07:02:18,1727.4723941791224,81.2000025984,0.0,0.7569560242225921,1727.5723941823226,81.3000026016,1.151999046272,0.9335040298721279,1024,-0.7,97,P-GPS,
0.339161642141634,36.9100329547597,24000,2018-04-06 07:02:18,1727.5723941823226,81.3000026016,0.0,0.754887024156384,1727.5723941823226,81.3000026016,1.151999046272,0.9335040298721279,1024,-3.2,97,P-GPS,
0.33916163940910493,36.9100329304738,24100,2018-04-06 07:02:18,1727.4723941791224,81.2000025984,0.0,0.75231002407392,1727.5723941823226,81.3000026016,1.151999046272,0.9335040298721279,1024,-6.9,97,P-GPS,
0.33916164253734604,36.9100328852531,24200,2018-04-06 07:02:18,1727.4723941791224,81.2000025984,0.0,0.7479020239328641,1727.5723941823226,81.3000026016,1.151999046272,0.9335040298721279,1024,-10.8,97,P-GPS,
0.339161652070257,36.9100328297395,24300,2018-04-06 07:02:18,1727.4723941791224,81.2000025984,0.0,0.742773023768736,1727.5723941823226,81.3000026016,1.151999046272,0.9335040298721279,1024,-14.6,97,P-GPS,
0.339161667983412,36.9100327621429,24400,2018-04-06 07:02:18,1727.4723941791224,81.2000025984,0.0,0.7367610235763521,1727.5723941823226,81.3000026016,1.151999046272,0.9335040298721279,1024,-18.4,97,P-GPS,
0.33916166240436196,36.9100327198064,24500,2018-04-06 07:02:19,1727.4723941791224,81.2000025984,0.0,0.732254023432128,1727.5723941823226,81.3000026016,1.151999046272,0.9335040298721279,1024,-22.1,97,P-GPS,
0.33916165430122497,36.9100326767934,24600,2018-04-06 07:02:19,1727.4723941791224,81.2000025984,0.0,0.7275590232818879,1727.5723941823226,81.3000026016,1.151999046272,0.9335040298721279,1024,-22.9,97,P-GPS,
0.33916163251753,36.9100326667039,24700,2018-04-06 07:02:19,1727.4723941791224,81.2000025984,0.0,0.72549002321568,1727.5723941823226,81.3000026016,1.151999046272,0.9335040298721279,1024,-22.9,97,P-GPS,
0.339161597880526,36.9100326572139,24800,2018-04-06 07:02:19,1727.4723941791224,81.2000025984,0.0,0.72286502313168,1727.5723941823226,81.3000026016,1.151999046272,0.9335040298721279,1024,-22.9,97,P-GPS,
0.339161540831247,36.9100326659009,24900,2018-04-06 07:02:19,1727.4723941791224,81.2000025984,0.0,0.72101502307248,1727.5723941823226,81.3000026016,1.151999046272,0.9335040298721279,1024,-22.9,97,P-GPS,
0.339161479738542,36.9100326785385,25000,2018-04-06 07:02:19,1727.4723941791224,81.2000025984,0.0,0.7194290230217281,1727.5723941823226,81.3000026016,1.151999046272,0.9335040298721279,1024,-22.9,97,P-GPS,
0.339161421801762,36.9100326971865,25100,2018-04-06 07:02:19,1727.4723941791224,81.2000025984,0.0,0.7186600229971201,1727.5723941823226,81.3000026016,1.151999046272,0.9335040298721279,1024,-22.9,97,P-GPS,
0.339161370057954,36.910032709220204,25200,2018-04-06 07:02:19,1727.4723941791224,81.2000025984,0.0,0.7175560229617921,1727.5723941823226,81.3000026016,1.151999046272,0.9335040298721279,1024,-22.9,97,P-GPS,
0.339161324360558,36.9100327202625,25300,2018-04-06 07:02:19,1727.4723941791224,81.2000025984,0.0,0.716663022933216,1727.5723941823226,81.3000026016,1.151999046272,0.9335040298721279,1024,-22.9,97,P-GPS,
0.339161280454451,36.9100327324354,25400,2018-04-06 07:02:20,1727.4723941791224,81.2000025984,0.0,0.715999022911968,1727.5723941823226,81.3000026016,1.151999046272,0.9335040298721279,1024,-22.9,97,P-GPS,
0.33916123606958193,36.9100327554623,25500,2018-04-06 07:02:20,1727.4723941791224,81.2000025984,0.0,0.716467022926944,1727.5723941823226,81.3000026016,1.151999046272,0.9335040298721279,1024,-22.9,97,P-GPS,
0.33916117613632896,36.9100327716329,25600,2018-04-06 07:02:20,1727.4723941791224,81.2000025984,0.0,0.7156260229000321,1727.5723941823226,81.3000026016,1.151999046272,0.9335040298721279,1024,-22.9,97,P-GPS,
0.339161090768409,36.910032784420295,25700,2018-04-06 07:02:20,1727.4723941791224,81.2000025984,0.0,0.713477022831264,1727.5723941823226,81.3000026016,1.151999046272,0.9335040298721279,1024,-22.9,97,P-GPS,
0.339160995532119,36.9100327954455,25800,2018-04-06 07:02:20,1727.4723941791224,81.2000025984,0.0,0.7108880227484161,1727.5723941823226,81.3000026016,1.151999046272,0.9335040298721279,1024,-22.9,97,P-GPS,
0.339160913746776,36.910032808976,25900,2018-04-06 07:02:20,1727.4723941791224,81.2000025984,0.0,0.7092100226947201,1727.5723941823226,81.3000026016,1.151999046272,0.9335040298721279,1024,-22.9,97,P-GPS,
0.33916082074634,36.910032826063,26000,2018-04-06 07:02:20,1727.4723941791224,81.2000025984,0.0,0.7076230226439361,1727.5723941823226,81.3000026016,1.151999046272,0.9335040298721279,1024,-22.9,97,P-GPS,
0.33916072383112295,36.910032855961,26100,2018-04-06 07:02:20,1727.4723941791224,81.2000025984,0.0,0.707412022637184,1727.5723941823226,81.3000026016,1.151999046272,0.9335040298721279,1024,-22.9,97,P-GPS,
0.33916061637987505,36.9100328808722,26200,2018-04-06 07:02:20,1727.4723941791224,81.2000025984,0.0,0.706512022608384,1727.5723941823226,81.3000026016,1.151999046272,0.9335040298721279,1024,-22.9,97,P-GPS,
0.3391605166963039,36.9100329023701,26300,2018-04-06 07:02:20,1727.3723941759224,81.10000259520002,0.0,0.7056930225821761,1727.5723941823226,81.3000026016,1.151999046272,0.9335040298721279,1024,-22.9,97,P-GPS,
0.33916037758973194,36.910032909753106,26400,2018-04-06 07:02:21,1727.3723941759224,81.10000259520002,0.35999970196000003,0.7024210224774722,1727.5723941823226,81.3000026016,1.151999046272,0.9335040298721279,1024,-22.9,97,P-GPS,
0.33916014013165696,36.9100328525287,26500,2018-04-06 07:02:21,1727.3723941759224,81.10000259520002,0.35999970196000003,0.69001502208048,1727.5723941823226,81.3000026016,1.151999046272,0.9335040298721279,1024,-22.9,97,P-GPS,
0.33915964655190994,36.9100325957905,26600,2018-04-06 07:02:21,1727.3723941759224,81.10000259520002,2.5919978541120003,0.65187502086,1727.5723941823226,81.3000026016,2.5919978541120003,0.9335040298721279,1024,-22.9,97,P-GPS,
0.339158768822224,36.9100320115925,26700,2018-04-06 07:02:21,1727.3723941759224,81.10000259520002,4.895995946656,0.579809018553888,1727.5723941823226,81.3000026016,4.895995946656,0.9335040298721279,1024,-22.9,97,P-GPS,
0.339157411235689,36.9100310562716,26800,2018-04-06 07:02:21,1727.3723941759224,81.10000259520002,6.695994456456,0.49755501592176005,1727.5723941823226,81.3000026016,6.695994456456,0.9335040298721279,1024,-22.9,97,P-GPS,
0.339155655730721,36.9100297972875,26900,2018-04-06 07:02:21,1727.3723941759224,81.10000259520002,8.495992966256003,0.48193201542182396,1727.5723941823226,81.3000026016,8.495992966256003,0.9335040298721279,1024,-22.9,97,P-GPS,
0.339153512155335,36.9100282105544,27000,2018-04-06 07:02:21,1727.3723941759224,81.10000259520002,10.295991476056,0.606906019420992,1727.5723941823226,81.3000026016,10.295991476056,0.9335040298721279,1024,-22.9,97,P-GPS,
0.33915111703990397,36.9100263761245,27100,2018-04-06 07:02:21,1727.3723941759224,81.10000259520002,11.591990403112,0.8538560273233922,1727.5723941823226,81.3000026016,11.591990403112,0.9335040298721279,1024,-22.9,97,P-GPS,
0.33914843489982,36.9100242814758,27200,2018-04-06 07:02:21,1727.4723941791224,81.2000025984,13.103989151343999,1.18437003789984,1727.5723941823226,81.3000026016,13.103989151343999,1.18437003789984,1024,-22.9,97,P-GPS,
0.339145592910044,36.9100220491722,27300,2018-04-06 07:02:21,1727.4723941791224,81.2000025984,14.111988316832003,1.55904004988928,1727.5723941823226,81.3000026016,14.111988316832003,1.55904004988928,1024,-22.9,97,P-GPS,
0.339142504613636,36.9100195377844,27400,2018-04-06 07:02:21,1727.4723941791224,81.2000025984,15.407987243888,1.9821800634297602,1727.5723941823226,81.3000026016,15.407987243888,1.9821800634297602,1024,-22.9,97,P-GPS,
0.33913923850783506,36.9100168835317,27500,2018-04-06 07:02:22,1727.4723941791224,81.2000025984,16.415986409376,2.4371600779891205,1727.5723941823226,81.3000026016,16.415986409376,2.4371600779891205,1024,-22.9,97,P-GPS,
0.339135784423823,36.9100139896348,27600,2018-04-06 07:02:22,1727.4723941791224,81.2000025984,17.423985574864,2.9274900936796797,1727.5723941823226,81.3000026016,17.423985574864,2.9274900936796797,1024,-22.9,97,P-GPS,
0.33913218217379804,36.910010989273204,27700,2018-04-06 07:02:22,1727.4723941791224,81.2000025984,18.719984501920003,3.4411701101174397,1727.5723941823226,81.3000026016,18.719984501920003,3.4411701101174397,1024,-22.9,97,P-GPS,
0.339128424383758,36.91000775608129,27800,2018-04-06 07:02:22,1727.4723941791224,81.2000025984,19.727983667407997,3.98523012752736,1727.5723941823226,81.3000026016,19.727983667407997,3.98523012752736,1024,-22.9,97,P-GPS,
0.339124482936991,36.9100043934345,27900,2018-04-06 07:02:22,1727.5723941823226,81.3000026016,20.735982832896003,4.55602014579264,1727.5723941823226,81.3000026016,20.735982832896003,4.55602014579264,1024,-22.9,97,P-GPS,
0.339120399367774,36.9100008036965,28000,2018-04-06 07:02:22,1727.5723941823226,81.3000026016,21.743981998384,5.15523016496736,1727.5723941823226,81.3000026016,21.743981998384,5.15523016496736,1024,-22.9,97,P-GPS,
0.339116128004766,36.9099970855573,28100,2018-04-06 07:02:22,1727.5723941823226,81.3000026016,22.787981134068,5.780880184988161,1727.5723941823226,81.3000026016,22.787981134068,5.780880184988161,1024,-22.9,97,P-GPS,
0.339111706579016,36.9099931546009,28200,2018-04-06 07:02:22,1727.5723941823226,81.3000026016,23.795980299556,6.434660205909121,1727.5723941823226,81.3000026016,23.795980299556,6.434660205909121,1024,-22.9,97,P-GPS,
0.33910706733422497,36.909989110781204,28300,2018-04-06 07:02:22,1727.5723941823226,81.3000026016,24.803979465044,7.116170227717442,1727.5723941823226,81.3000026016,24.803979465044,7.116170227717442,1024,-22.9,97,P-GPS,
0.339102281682548,36.909984860030605,28400,2018-04-06 07:02:23,1727.5723941823226,81.3000026016,25.595978809356,7.82497025039904,1727.5723941823226,81.3000026016,25.595978809356,7.82497025039904,1024,-22.9,97,P-GPS,
0.339097295510792,36.9099805006274,28500,2018-04-06 07:02:23,1727.5723941823226,81.3000026016,26.603977974844003,8.5593502738992,1727.5723941823226,81.3000026016,26.603977974844003,8.5593502738992,1024,-22.9,97,P-GPS,
0.33909215068299303,36.909975935867,28600,2018-04-06 07:02:23,1727.5723941823226,81.3000026016,26.603977974844003,9.3219502983024,1727.5723941823226,81.3000026016,26.603977974844003,9.3219502983024,1024,-22.9,97,P-GPS,
0.339086802648182,36.909971259345,28700,2018-04-06 07:02:23,1727.5723941823226,81.3000026016,28.115976723076,10.1104003235328,1727.5723941823226,81.3000026016,28.115976723076,10.1104003235328,1024,-22.9,97,P-GPS,
0.33908130298895,36.9099663915766,28800,2018-04-06 07:02:23,1727.5723941823226,81.3000026016,29.123975888564008,10.9254003496128,1727.5723941823226,81.3000026016,29.123975888564008,10.9254003496128,1024,-22.9,97,P-GPS,
0.339075633606771,36.909961430608895,28900,2018-04-06 07:02:23,1727.5723941823226,81.3000026016,30.131975054051995,11.761900376380801,1727.5723941823226,81.3000026016,30.131975054051995,11.761900376380801,1024,-22.9,97,P-GPS,
0.339069808643053,36.9099562769344,29000,2018-04-06 07:02:23,1727.5723941823226,81.3000026016,30.923974398364,12.625500404016002,1727.5723941823226,81.3000026016,30.923974398364,12.625500404016002,1024,-22.9,97,P-GPS,
0.339063796212862,36.9099510317908,29100,2018-04-06 07:02:23,1727.5723941823226,81.3000026016,31.679973772480004,13.5118004323776,1727.5723941823226,81.3000026016,31.679973772480004,13.5118004323776,1024,-22.9,97,P-GPS,
0.33905761716028104,36.909945610993205,29200,2018-04-06 07:02:23,1727.5723941823226,81.3000026016,32.435973146596,14.4250004616,1727.5723941823226,81.3000026016,32.435973146596,14.4250004616,1024,-22.9,97,P-GPS,
0.339051268671359,36.909940109848,29300,2018-04-06 07:02:23,1727.5723941823226,81.3000026016,33.47997228228,15.358500491472,1727.5723941823226,81.3000026016,33.47997228228,15.358500491472,1024,-22.9,97,P-GPS,
0.33904476066006295,36.9099344354085,29400,2018-04-06 07:02:24,1727.5723941823226,81.3000026016,34.235971656395996,16.318000522176,1727.5723941823226,81.3000026016,34.235971656395996,16.318000522176,1024,-22.9,97,P-GPS,
0.339038106017156,36.9099286697353,29500,2018-04-06 07:02:24,1727.5723941823226,81.3000026016,34.991971030512005,17.2967005534944,1727.5723941823226,81.3000026016,34.991971030512005,17.2967005534944,1024,-22.9,97,P-GPS,
0.33903128238084496,36.909922726896504,29600,2018-04-06 07:02:24,1727.5723941823226,81.3000026016,35.783970374824,18.3024005856768,1727.5723941823226,81.3000026016,35.783970374824,18.3024005856768,1024,-22.9,97,P-GPS,
0.33902430557960495,36.9099167001641,29700,2018-04-06 07:02:24,1727.6723941855225,81.4000026048,36.53996974894,19.3273006184736,1727.6723941855225,81.4000026048,36.53996974894,19.3273006184736,1024,-22.9,97,P-GPS,
0.339017171105903,36.9099105497285,29800,2018-04-06 07:02:24,1727.6723941855225,81.4000026048,37.043969331684,20.374500651984,1727.6723941855225,81.4000026048,37.043969331684,20.374500651984,1024,-22.9,97,P-GPS,
0.339009950702469,36.909904405194,29900,2018-04-06 07:02:24,1727.6723941855225,81.4000026048,37.583968884624,21.4286006857152,1727.6723941855225,81.4000026048,37.583968884624,21.4286006857152,1024,-22.9,97,P-GPS,
