latitude,longitude,time_millisecond,datetime_utc,altitude_m,ascent_m,speed_kph,distance_m,max_altitude_m,max_ascent_m,max_speed_kph,max_distance_m,rc_throttle,gimbal_pitch_degrees,battery_percent,flycState,message
0.307535375647923,36.8794069942605,0,2018-03-31 05:08:24,1770.5372880571988,0.0,0.0,0.0,1770.5372880571988,0.0,0.0,0.0,364,0.0,100,Motors_Started,Setting new Return-To-Home altitude to 30m (98 ft). Setting new Maximum Flight Altitude to 120m (394 ft)
0.307535361145,36.8794069955586,100,2018-03-31 05:08:24,1770.5372880571988,0.0,0.0,0.00161926005181632,1770.5372880571988,0.0,0.0,0.00161926005181632,364,0.0,100,Motors_Started,
0.307535347027205,36.8794069919105,200,2018-03-31 05:08:24,1770.5372880571988,0.0,0.0,0.0031935101021923202,1770.5372880571988,0.0,0.0,0.0031935101021923202,364,0.0,100,Motors_Started,
0.307535282474871,36.8794069323969,300,2018-03-31 05:08:24,1770.5372880571988,0.0,0.0,0.0124373003979936,1770.5372880571988,0.0,0.0,0.0124373003979936,364,0.0,100,Motors_Started,
0.307535221063805,36.879406874888,400,2018-03-31 05:08:24,1770.5372880571988,0.0,0.0,0.0217196006950272,1770.5372880571988,0.0,0.0,0.0217196006950272,364,0.0,100,Motors_Started,
0.307535181991734,36.8794068347108,500,2018-03-31 05:08:24,1770.5372880571988,0.0,0.0,0.0279032008929024,1770.5372880571988,0.0,0.0,0.0279032008929024,364,0.0,100,Motors_Started,
0.307535150490299,36.8794068022264,600,2018-03-31 05:08:24,1770.5372880571988,0.0,0.0,0.0329087010530784,1770.5372880571988,0.0,0.0,0.0329087010530784,364,0.0,100,Motors_Started,
0.307535140918305,36.8794067539416,700,2018-03-31 05:08:25,1770.5372880571988,0.0,0.0,0.0373576011954432,1770.5372880571988,0.0,0.0,0.0373576011954432,364,0.0,100,Motors_Started,
0.307535129072189,36.8794067082499,800,2018-03-31 05:08:25,1770.5372880571988,0.0,0.0,0.041994001343808,1770.5372880571988,0.0,0.0,0.041994001343808,364,0.0,100,Motors_Started,
0.307535137529513,36.8794066835588,900,2018-03-31 05:08:25,1770.5372880571988,0.0,0.0,0.0435316013930112,1770.5372880571988,0.0,0.0,0.0435316013930112,364,0.0,100,Motors_Started,
0.307535137896727,36.8794066592393,1000,2018-03-31 05:08:25,1770.5372880571988,0.0,0.0,0.045684101461891204,1770.5372880571988,0.0,0.0,0.045684101461891204,364,0.0,100,Motors_Started,
0.307535154553267,36.8794066567866,1100,2018-03-31 05:08:25,1770.5372880571988,0.0,0.0,0.0448656014356992,1770.5372880571988,0.0,0.0,0.045684101461891204,364,0.0,100,Motors_Started,
0.307535161318637,36.8794066482117,1200,2018-03-31 05:08:25,1770.5372880571988,0.0,0.0,0.0452656014484992,1770.5372880571988,0.0,0.0,0.045684101461891204,492,0.0,100,Motors_Started,
0.307535179212794,36.8794066584187,1300,2018-03-31 05:08:25,1770.5372880571988,0.0,0.0,0.04326660138453121,1770.5372880571988,0.0,0.0,0.045684101461891204,855,0.0,100,Motors_Started,
0.307535188591003,36.8794066586895,1400,2018-03-31 05:08:25,1770.5372880571988,0.0,0.0,0.0427232013671424,1770.5372880571988,0.0,0.0,0.045684101461891204,1026,0.0,100,Motors_Started,
0.307535203574317,36.879406673574,1500,2018-03-31 05:08:25,1770.5372880571988,0.0,0.0,0.0404714012950848,1770.5372880571988,0.0,0.0,0.045684101461891204,1024,0.0,100,Motors_Started,
0.307535213853055,36.8794066787567,1600,2018-03-31 05:08:26,1770.5372880571988,0.0,0.0,0.0394299012617568,1770.5372880571988,0.0,0.0,0.045684101461891204,1024,0.0,100,Assisted_Takeoff,
0.307535192083201,36.879406661085,1700,2018-03-31 05:08:26,1770.5372880571988,0.0,0.0,0.042302001353664,1770.5372880571988,0.0,0.0,0.045684101461891204,1024,0.0,100,Assisted_Takeoff,
0.307535170880046,36.8794066385678,1800,2018-03-31 05:08:26,1770.5372880571988,0.0,0.0,0.045641101460515206,1770.5372880571988,0.0,0.0,0.045684101461891204,1024,0.0,100,Assisted_Takeoff,
0.307535120713386,36.8794066278817,1900,2018-03-31 05:08:26,1770.5372880571988,0.0,0.0,0.049636001588352,1770.5372880571988,0.0,0.0,0.049636001588352,1024,0.0,99,Assisted_Takeoff,
0.307535045767508,36.879406615694,2100,2018-03-31 05:08:26,1770.5372880571988,0.0,0.0,0.0558394017868608,1770.5372880571988,0.0,0.0,0.0558394017868608,1024,0.0,99,Assisted_Takeoff,
0.307535021638039,36.8794066109315,2200,2018-03-31 05:08:26,1770.5372880571988,0.0,0.0,0.058025701856822404,1770.5372880571988,0.0,0.0,0.058025701856822404,1024,0.0,99,Assisted_Takeoff,
0.307535008941876,36.8794066159713,2300,2018-03-31 05:08:26,1770.5372880571988,0.0,0.0,0.058589001874848,1770.5372880571988,0.0,0.0,0.058589001874848,1026,0.0,99,Assisted_Takeoff,
0.307534998040257,36.8794066156764,2400,2018-03-31 05:08:26,1770.5372880571988,0.0,0.0,0.0594624019027968,1770.5372880571988,0.0,0.0,0.0594624019027968,1026,0.0,99,Assisted_Takeoff,
0.307534998181118,36.8794066237759,2500,2018-03-31 05:08:26,1770.5372880571988,0.0,0.0,0.058817001882144,1770.5372880571988,0.0,0.0,0.0594624019027968,1036,0.0,99,Assisted_Takeoff,
0.307534996336091,36.8794066257287,2600,2018-03-31 05:08:26,1770.5372880571988,0.0,0.0,0.058812101881987204,1770.5372880571988,0.0,0.0,0.0594624019027968,1040,0.0,99,Assisted_Takeoff,
0.307535003445063,36.8794066336966,2700,2018-03-31 05:08:27,1770.5372880571988,0.0,0.0,0.0576277018440864,1770.5372880571988,0.0,0.0,0.0594624019027968,1044,0.0,99,Assisted_Takeoff,
0.307535007533272,36.8794066368902,2800,2018-03-31 05:08:27,1770.5372880571988,0.0,0.0,0.0570541018257312,1770.5372880571988,0.0,0.0,0.0594624019027968,1059,0.0,99,Assisted_Takeoff,
0.307534983998185,36.8794066107699,2900,2018-03-31 05:08:27,1770.5372880571988,0.0,0.0,0.0609558019505856,1770.5372880571988,0.0,0.0,0.0609558019505856,1078,0.0,99,Assisted_Takeoff,
0.307534960325494,36.8794065830362,3000,2018-03-31 05:08:27,1770.5372880571988,0.0,0.0,0.06499550207985601,1770.5372880571988,0.0,0.0,0.06499550207985601,1100,0.0,99,Assisted_Takeoff,
0.307534943505296,36.879406562149,3100,2018-03-31 05:08:27,1770.5372880571988,0.0,0.0,0.0679598021747136,1770.5372880571988,0.0,0.0,0.0679598021747136,1122,0.0,99,Assisted_Takeoff,
0.307534930531483,36.879406544595,3200,2018-03-31 05:08:27,1770.5372880571988,0.0,0.0,0.0703612022515584,1770.5372880571988,0.0,0.0,0.0703612022515584,1135,0.0,99,Assisted_Takeoff,
0.307534892079849,36.8794065031497,3300,2018-03-31 05:08:27,1770.5372880571988,0.0,0.0,0.0766452024526464,1770.5372880571988,0.0,0.0,0.0766452024526464,1166,0.0,99,Assisted_Takeoff,
0.30753485709273,36.8794064638135,3400,2018-03-31 05:08:27,1770.5372880571988,0.0,0.0,0.08249250263976,1770.5372880571988,0.0,0.0,0.08249250263976,1189,0.0,99,Assisted_Takeoff,
0.307534795791584,36.8794064012139,3500,2018-03-31 05:08:27,1770.5372880571988,0.0,0.0,0.0922359029515488,1770.5372880571988,0.0,0.0,0.0922359029515488,1214,0.0,99,Assisted_Takeoff,
0.307534748793062,36.8794063516129,3600,2018-03-31 05:08:28,1770.5372880571988,0.0,0.0,0.0998338031946816,1770.5372880571988,0.0,0.0,0.0998338031946816,1217,0.0,99,Assisted_Takeoff,
0.307534724113179,36.8794063207954,3700,2018-03-31 05:08:28,1770.5372880571988,0.0,0.0,0.104204003334528,1770.5372880571988,0.0,0.0,0.104204003334528,1221,0.0,99,Assisted_Takeoff,
0.307534732712992,36.87940630115,3800,2018-03-31 05:08:28,1770.5372880571988,0.0,0.0,0.10513300336425602,1770.5372880571988,0.0,0.0,0.10513300336425602,1249,0.0,99,Assisted_Takeoff,
0.307534930529855,36.8794062641402,4000,2018-03-31 05:08:28,1770.5372880571988,0.0,0.35999970196000003,0.095092003042944,1770.5372880571988,0.0,0.35999970196000003,0.10513300336425602,1261,0.0,99,P-GPS,
0.307535092375204,36.8794061904488,4100,2018-03-31 05:08:28,1770.5372880571988,0.0,0.35999970196000003,0.0947759030328288,1770.5372880571988,0.0,0.35999970196000003,0.10513300336425602,1261,0.0,99,P-GPS,Home Point Recorded. RTH Altitude:  30m.
0.307535268655895,36.8794060597435,4200,2018-03-31 05:08:28,1770.5372880571988,0.0,0.7919993443119999,0.104601003347232,1770.5372880571988,0.0,0.7919993443119999,0.10513300336425602,1271,0.0,99,P-GPS,
0.307535472176383,36.8794058686831,4300,2018-03-31 05:08:28,1770.6372880603988,0.1000000032,0.7919993443119999,0.125629004020128,1770.6372880603988,0.1000000032,0.7919993443119999,0.125629004020128,1256,0.0,99,P-GPS,
0.30753569093585,36.8794056863892,4400,2018-03-31 05:08:28,1770.737288063599,0.2000000064,0.7919993443119999,0.149608004787456,1770.737288063599,0.2000000064,0.7919993443119999,0.149608004787456,1248,0.0,99,P-GPS,
0.307535950124696,36.8794055618826,4500,2018-03-31 05:08:28,1770.837288066799,0.3000000096,0.503999582744,0.171621005491872,1770.837288066799,0.3000000096,0.7919993443119999,0.171621005491872,1251,0.0,99,P-GPS,
0.30753616849985,36.8794054569797,4600,2018-03-31 05:08:28,1770.837288066799,0.3000000096,0.503999582744,0.1923500061552,1770.837288066799,0.3000000096,0.7919993443119999,0.1923500061552,1259,0.0,99,P-GPS,
0.307536373617028,36.8794054117734,4700,2018-03-31 05:08:29,1770.9372880699989,0.4000000128,0.35999970196000003,0.20805200665766402,1770.9372880699989,0.4000000128,0.7919993443119999,0.20805200665766402,1255,0.0,99,P-GPS,
0.307536562080108,36.8794053737942,4800,2018-03-31 05:08:29,1771.0372880731986,0.500000016,0.35999970196000003,0.22334000714688002,1771.0372880731986,0.500000016,0.7919993443119999,0.22334000714688002,1252,0.0,99,P-GPS,Obstacle Avoided. Revise Flight Route
0.307536793100945,36.8794053492889,4900,2018-03-31 05:08:29,1771.1372880763988,0.6000000192,0.35999970196000003,0.241474007727168,1771.1372880763988,0.6000000192,0.7919993443119999,0.241474007727168,1257,0.0,99,P-GPS,
0.30753700640431,36.8794053054043,5000,2018-03-31 05:08:29,1771.3372880827988,0.8000000256,0.35999970196000003,0.261074008354368,1771.3372880827988,0.8000000256,0.7919993443119999,0.261074008354368,1263,0.0,99,P-GPS,
0.307537262631831,36.879405291803,5100,2018-03-31 05:08:29,1771.4372880859987,0.9000000288000001,0.35999970196000003,0.282625009044,1771.4372880859987,0.9000000288000001,0.7919993443119999,0.282625009044,1265,0.0,99,P-GPS,
0.30753748542821,36.8794052843334,5200,2018-03-31 05:08:29,1771.537288089199,1.000000032,0.35999970196000003,0.30200100966403204,1771.537288089199,1.000000032,0.7919993443119999,0.30200100966403204,1267,0.0,99,P-GPS,
0.307537886540836,36.8794053211602,5400,2018-03-31 05:08:29,1771.7372880955988,1.2000000384,0.35999970196000003,0.33553601073715206,1771.7372880955988,1.2000000384,0.7919993443119999,0.33553601073715206,1269,0.0,99,P-GPS,
0.307538030628004,36.8794053326498,5500,2018-03-31 05:08:29,1771.8372880987988,1.3000000416000002,0.35999970196000003,0.348304011145728,1771.8372880987988,1.3000000416000002,0.7919993443119999,0.348304011145728,1270,0.0,99,P-GPS,
0.307538146822368,36.8794053391167,5600,2018-03-31 05:08:30,1771.937288101999,1.4000000448,0.0,0.35895301148649605,1771.937288101999,1.4000000448,0.7919993443119999,0.35895301148649605,1271,0.0,99,P-GPS,
0.307538282978199,36.8794053372447,5700,2018-03-31 05:08:30,1772.0372881051987,1.5000000480000002,0.0,0.372137011908384,1772.0372881051987,1.5000000480000002,0.7919993443119999,0.372137011908384,1274,0.0,99,P-GPS,
0.307538398022882,36.8794053367421,5800,2018-03-31 05:08:30,1772.2372881115987,1.7000000544000002,0.0,0.38333101226659205,1772.2372881115987,1.7000000544000002,0.7919993443119999,0.38333101226659205,1280,0.0,99,P-GPS,
0.307538483228772,36.8794053328275,5900,2018-03-31 05:08:30,1772.3372881147989,1.8000000576000001,0.0,0.39187101253987205,1772.3372881147989,1.8000000576000001,0.7919993443119999,0.39187101253987205,1280,0.0,99,P-GPS,
0.307538557836748,36.8794053389122,6000,2018-03-31 05:08:30,1772.4372881179988,1.9000000608000003,0.0,0.398894012764608,1772.4372881179988,1.9000000608000003,0.7919993443119999,0.398894012764608,1285,0.0,99,P-GPS,
0.307538634080496,36.8794053088179,6100,2018-03-31 05:08:30,1772.5372881211988,2.000000064,0.0,0.407961013054752,1772.5372881211988,2.000000064,0.7919993443119999,0.407961013054752,1294,0.0,99,P-GPS,
0.307538707530648,36.8794052938895,6200,2018-03-31 05:08:30,1772.6372881243988,2.1000000672000003,0.0,0.41598501331152005,1772.6372881243988,2.1000000672000003,0.7919993443119999,0.41598501331152005,1296,0.0,99,P-GPS,
0.307538757374469,36.8794052391978,6300,2018-03-31 05:08:30,1772.8372881307987,2.3000000736,0.0,0.42369701355830397,1772.8372881307987,2.3000000736,0.7919993443119999,0.42369701355830397,1296,0.0,99,P-GPS,
0.307538803444778,36.8794051946671,6400,2018-03-31 05:08:30,1772.9372881339987,2.4000000768,0.0,0.43053001377696004,1772.9372881339987,2.4000000768,0.7919993443119999,0.43053001377696004,1298,0.0,99,P-GPS,
0.30753883497756,36.8794051498474,6500,2018-03-31 05:08:30,1773.0372881371989,2.50000008,0.0,0.43596101395075204,1773.0372881371989,2.50000008,0.7919993443119999,0.43596101395075204,1298,0.0,99,P-GPS,
0.307538869218445,36.879405122558,6600,2018-03-31 05:08:30,1773.2372881435988,2.7000000864,0.0,0.44075001410400005,1773.2372881435988,2.7000000864,0.7919993443119999,0.44075001410400005,1294,0.0,99,P-GPS,
0.307538896072708,36.8794051394498,6700,2018-03-31 05:08:31,1773.3372881467988,2.8000000896,0.0,0.44250501416016,1773.3372881467988,2.8000000896,0.7919993443119999,0.44250501416016,1293,0.0,99,P-GPS,
0.307538918570069,36.8794051617122,6800,2018-03-31 05:08:31,1773.437288149999,2.9000000928,0.0,0.44357801419449605,1773.437288149999,2.9000000928,0.7919993443119999,0.44357801419449605,1294,0.0,99,P-GPS,
0.307538977646353,36.8794051824437,6900,2018-03-31 05:08:31,1773.6372881563989,3.1000000992000003,0.0,0.448382014348224,1773.6372881563989,3.1000000992000003,0.7919993443119999,0.448382014348224,1289,0.0,99,P-GPS,
0.307539036540252,36.879405180424,7000,2018-03-31 05:08:31,1773.7372881595986,3.2000001024,0.0,0.454342014538944,1773.7372881595986,3.2000001024,0.7919993443119999,0.454342014538944,1287,0.0,99,P-GPS,
0.307539068506607,36.8794051315124,7100,2018-03-31 05:08:31,1773.8372881627988,3.3000001056,0.0,0.45995401471852804,1773.8372881627988,3.3000001056,0.7919993443119999,0.45995401471852804,1290,0.0,99,P-GPS,
0.307539093800821,36.8794050885303,7200,2018-03-31 05:08:31,1774.0372881691987,3.500000112,0.0,0.464628014868096,1774.0372881691987,3.500000112,0.7919993443119999,0.464628014868096,1284,0.0,99,P-GPS,
0.30753912690383,36.8794050603588,7300,2018-03-31 05:08:31,1774.1372881723987,3.6000001152000003,0.0,0.46933401501868804,1774.1372881723987,3.6000001152000003,0.7919993443119999,0.46933401501868804,1291,0.0,99,P-GPS,
0.307539162001684,36.8794050374717,7400,2018-03-31 05:08:31,1774.237288175599,3.7000001184,0.0,0.47397001516704007,1774.237288175599,3.7000001184,0.7919993443119999,0.47397001516704007,1293,0.0,99,P-GPS,
0.307539205266998,36.8794050051639,7500,2018-03-31 05:08:31,1774.4372881819988,3.9000001248,0.0,0.47989501535664003,1774.4372881819988,3.9000001248,0.7919993443119999,0.47989501535664003,1287,0.0,99,P-GPS,
0.307539243777663,36.8794049887271,7600,2018-03-31 05:08:32,1774.5372881851986,4.000000128,0.0,0.484538015505216,1774.5372881851986,4.000000128,0.7919993443119999,0.484538015505216,1293,0.0,99,P-GPS,
0.307539294788264,36.8794050147751,7700,2018-03-31 05:08:32,1774.637288188399,4.100000131200001,0.0,0.488268015624576,1774.637288188399,4.100000131200001,0.7919993443119999,0.488268015624576,1300,0.0,99,P-GPS,
0.307539349509682,36.8794050293314,7800,2018-03-31 05:08:32,1774.8372881947987,4.3000001376,0.0,0.492988015775616,1774.8372881947987,4.3000001376,0.7919993443119999,0.492988015775616,1293,0.0,99,P-GPS,
0.307539419688697,36.8794050015507,7900,2018-03-31 05:08:32,1774.9372881979987,4.4000001408000005,0.0,0.5013540160433281,1774.9372881979987,4.4000001408000005,0.7919993443119999,0.5013540160433281,1300,0.0,99,P-GPS,
0.307539489850614,36.8794049595567,8000,2018-03-31 05:08:32,1775.0372882011989,4.500000144,0.0,0.510417016333344,1775.0372882011989,4.500000144,0.7919993443119999,0.510417016333344,1300,0.0,99,P-GPS,
0.307539531565243,36.8794049588796,8100,2018-03-31 05:08:32,1775.2372882075988,4.7000001504,0.0,0.514613016467616,1775.2372882075988,4.7000001504,0.7919993443119999,0.514613016467616,1300,0.0,99,P-GPS,
0.307539568640027,36.8794049599143,8200,2018-03-31 05:08:32,1775.337288210799,4.8000001536,0.0,0.518268016584576,1775.337288210799,4.8000001536,0.7919993443119999,0.518268016584576,1300,0.0,99,P-GPS,
0.307539601018786,36.8794049739765,8300,2018-03-31 05:08:32,1775.5372882171987,5.00000016,0.0,0.520834016666688,1775.5372882171987,5.00000016,0.7919993443119999,0.520834016666688,1300,0.0,99,P-GPS,
0.307539634353849,36.8794049785683,8400,2018-03-31 05:08:32,1775.6372882203987,5.1000001632,0.0,0.523962016766784,1775.6372882203987,5.1000001632,0.7919993443119999,0.523962016766784,1308,0.0,99,P-GPS,
0.307539662291434,36.8794049638519,8500,2018-03-31 05:08:32,1775.7372882235989,5.200000166400001,0.0,0.52747001687904,1775.7372882235989,5.200000166400001,0.7919993443119999,0.52747001687904,1314,0.0,99,P-GPS,
0.307539692022343,36.8794049447087,8600,2018-03-31 05:08:32,1775.9372882299988,5.4000001728,0.0,0.53137001700384,1775.9372882299988,5.4000001728,0.7919993443119999,0.53137001700384,1314,0.0,99,P-GPS,
0.307539766997126,36.879404907261,8700,2018-03-31 05:08:33,1776.0372882331988,5.5000001759999995,0.0,0.540688017302016,1776.0372882331988,5.5000001759999995,0.7919993443119999,0.540688017302016,1315,0.0,99,P-GPS,
0.30753984140114,36.8794048752139,8800,2018-03-31 05:08:33,1776.237288239599,5.7000001824,0.0,0.5496910175901121,1776.237288239599,5.7000001824,0.7919993443119999,0.5496910175901121,1322,0.0,99,P-GPS,
0.307539889560742,36.8794048298862,8900,2018-03-31 05:08:33,1776.3372882427989,5.8000001856,0.0,0.55669501781424,1776.3372882427989,5.8000001856,0.7919993443119999,0.55669501781424,1327,0.0,99,P-GPS,
0.307539935412433,36.8794047997608,9000,2018-03-31 05:08:33,1776.5372882491988,6.000000192000001,0.0,0.562742018007744,1776.5372882491988,6.000000192000001,0.7919993443119999,0.562742018007744,1332,0.0,99,P-GPS,
0.307539961220013,36.8794048130152,9100,2018-03-31 05:08:33,1776.6372882523988,6.100000195200001,0.0,0.56469501807024,1776.6372882523988,6.100000195200001,0.7919993443119999,0.56469501807024,1337,0.0,99,P-GPS,
0.307540000653599,36.8794048286924,9200,2018-03-31 05:08:33,1776.8372882587987,6.3000002016,0.0,0.567916018173312,1776.8372882587987,6.3000002016,0.7919993443119999,0.567916018173312,1339,0.0,99,P-GPS,
0.307540050233205,36.8794048441266,9300,2018-03-31 05:08:33,1777.0372882651989,6.500000208,0.0,0.57219501831024,1777.0372882651989,6.500000208,0.7919993443119999,0.57219501831024,1335,0.0,99,P-GPS,
0.307540116275973,36.8794048469171,9400,2018-03-31 05:08:33,1777.1372882683988,6.6000002112,0.0,0.578747018519904,1777.1372882683988,6.6000002112,0.7919993443119999,0.578747018519904,1340,0.0,99,P-GPS,
0.307540204128491,36.8794048485257,9500,2018-03-31 05:08:33,1777.3372882747988,6.800000217600001,0.0,0.5875880188028161,1777.3372882747988,6.800000217600001,0.7919993443119999,0.5875880188028161,1345,0.0,99,P-GPS,
0.307540287534135,36.8794048433306,9600,2018-03-31 05:08:34,1777.5372882811987,7.000000224,0.0,0.596307019081824,1777.5372882811987,7.000000224,0.7919993443119999,0.596307019081824,1347,0.0,99,P-GPS,
0.307540378979001,36.8794048746358,9700,2018-03-31 05:08:34,1777.637288284399,7.1000002272,0.0,0.60427001933664,1777.637288284399,7.1000002272,0.7919993443119999,0.60427001933664,1349,0.0,99,P-GPS,
0.307540469332809,36.8794048974201,9800,2018-03-31 05:08:34,1777.8372882907988,7.3000002336000005,0.0,0.6125650196020801,1777.8372882907988,7.3000002336000005,0.7919993443119999,0.6125650196020801,1360,0.0,99,P-GPS,
0.307540543335818,36.8794048888902,9900,2018-03-31 05:08:34,1778.037288297199,7.50000024,0.0,0.62054001985728,1778.037288297199,7.50000024,0.7919993443119999,0.62054001985728,1362,0.0,99,P-GPS,
0.307540608843642,36.8794048674457,10000,2018-03-31 05:08:34,1778.2372883035987,7.7000002464,0.0,0.628187020101984,1778.2372883035987,7.7000002464,0.7919993443119999,0.628187020101984,1361,0.0,99,P-GPS,
0.307540653330289,36.879404812253,10100,2018-03-31 05:08:34,1778.3372883067987,7.8000002496,0.0,0.6350920203229441,1778.3372883067987,7.8000002496,0.7919993443119999,0.6350920203229441,1361,0.0,99,P-GPS,
0.307540695038811,36.8794047568729,10200,2018-03-31 05:08:34,1778.5372883131988,8.000000256,0.0,0.641744020535808,1778.5372883131988,8.000000256,0.7919993443119999,0.641744020535808,1366,0.0,99,P-GPS,
0.307540721188772,36.8794047207843,10300,2018-03-31 05:08:34,1778.7372883195987,8.200000262400001,0.0,0.64598502067152,1778.7372883195987,8.200000262400001,0.7919993443119999,0.64598502067152,1379,0.0,99,P-GPS,
0.307540754462768,36.8794046877818,10400,2018-03-31 05:08:34,1778.937288325999,8.400000268800001,0.0,0.65083002082656,1778.937288325999,8.400000268800001,0.7919993443119999,0.65083002082656,1381,0.0,99,P-GPS,
0.307540788316897,36.8794046371166,10500,2018-03-31 05:08:34,1779.1372883323986,8.6000002752,0.0,0.6565210210086719,1779.1372883323986,8.6000002752,0.7919993443119999,0.6565210210086719,1376,0.0,99,P-GPS,
0.307540832123669,36.8794045741925,10600,2018-03-31 05:08:34,1779.3372883387988,8.800000281600001,0.0,0.663796021241472,1779.3372883387988,8.800000281600001,0.7919993443119999,0.663796021241472,1377,0.0,99,P-GPS,
0.307540848350299,36.8794044909776,10700,2018-03-31 05:08:35,1779.537288345199,9.000000288,0.0,0.6692420214157441,1779.537288345199,9.000000288,0.7919993443119999,0.6692420214157441,1387,0.0,99,P-GPS,
0.307540868057729,36.8794044107518,10800,2018-03-31 05:08:35,1779.7372883515989,9.2000002944,0.0,0.674984021599488,1779.7372883515989,9.2000002944,0.7919993443119999,0.674984021599488,1383,0.0,99,P-GPS,
0.307540895107812,36.8794043002892,10900,2018-03-31 05:08:35,1779.937288357999,9.4000003008,0.0,0.6830060218561921,1779.937288357999,9.4000003008,0.7919993443119999,0.6830060218561921,1391,0.0,99,P-GPS,
0.307540941735863,36.8794041904091,11000,2018-03-31 05:08:35,1780.1372883643987,9.6000003072,0.0,0.69308002217856,1780.1372883643987,9.6000003072,0.7919993443119999,0.69308002217856,1388,0.0,99,P-GPS,
0.307540965036454,36.8794040928408,11100,2018-03-31 05:08:35,1780.337288370799,9.8000003136,0.0,0.700327022410464,1780.337288370799,9.8000003136,0.7919993443119999,0.700327022410464,1389,0.0,99,P-GPS,
0.30754099601353,36.8794040080992,11200,2018-03-31 05:08:35,1780.5372883771988,10.00000032,0.0,0.707759022648288,1780.5372883771988,10.00000032,0.7919993443119999,0.707759022648288,1387,0.0,99,P-GPS,
0.307541025321451,36.879403957503,11300,2018-03-31 05:08:35,1780.737288383599,10.2000003264,0.0,0.7132850228251201,1780.737288383599,10.2000003264,0.7919993443119999,0.7132850228251201,1385,0.0,99,P-GPS,
0.307541061016943,36.879403921317,11400,2018-03-31 05:08:35,1781.0372883931987,10.500000336,0.0,0.718689022998048,1781.0372883931987,10.500000336,0.7919993443119999,0.718689022998048,1389,0.0,99,P-GPS,
0.307541122390962,36.8794038851097,11500,2018-03-31 05:08:35,1781.2372883995988,10.700000342400001,0.0,0.726607023251424,1781.2372883995988,10.700000342400001,0.7919993443119999,0.726607023251424,1389,0.0,99,P-GPS,
0.307541183103832,36.8794038556138,11600,2018-03-31 05:08:36,1781.4372884059987,10.9000003488,0.0,0.7341060234913921,1781.4372884059987,10.9000003488,0.7919993443119999,0.7341060234913921,1389,0.0,99,P-GPS,
0.307541241452609,36.8794038011817,11700,2018-03-31 05:08:36,1781.637288412399,11.1000003552,0.0,0.7426960237662721,1781.637288412399,11.1000003552,0.7919993443119999,0.7426960237662721,1391,0.0,99,P-GPS,
0.307541291286659,36.8794037551259,11800,2018-03-31 05:08:36,1781.8372884187988,11.3000003616,0.0,0.75001502400048,1781.8372884187988,11.3000003616,0.7919993443119999,0.75001502400048,1404,0.0,99,P-GPS,
0.307541301943197,36.8794037321436,11900,2018-03-31 05:08:36,1782.0372884251988,11.500000368000002,0.0,0.752283024073056,1782.0372884251988,11.500000368000002,0.7919993443119999,0.752283024073056,1412,0.0,99,P-GPS,
0.307541307029235,36.8794037249288,12000,2018-03-31 05:08:36,1782.237288431599,11.7000003744,0.0,0.753166024101312,1782.237288431599,11.7000003744,0.7919993443119999,0.753166024101312,1412,0.0,99,P-GPS,
0.307541285043205,36.8794037087072,12100,2018-03-31 05:08:36,1782.5372884411988,12.000000384000002,0.0,0.7519000240608,1782.5372884411988,12.000000384000002,0.7919993443119999,0.753166024101312,1417,0.0,99,P-GPS,
0.307541278067765,36.879403697117,12200,2018-03-31 05:08:36,1782.7372884475988,12.200000390400001,0.0,0.7518500240592,1782.7372884475988,12.200000390400001,0.7919993443119999,0.753166024101312,1420,0.0,99,P-GPS,
0.307541300724307,36.8794036972262,12300,2018-03-31 05:08:36,1782.9372884539987,12.400000396800001,0.0,0.75404502412944,1782.9372884539987,12.400000396800001,0.7919993443119999,0.75404502412944,1420,0.0,99,P-GPS,
0.307541336396594,36.8794037002442,12400,2018-03-31 05:08:36,1783.2372884635988,12.700000406400001,0.0,0.757352024235264,1783.2372884635988,12.700000406400001,0.7919993443119999,0.757352024235264,1421,0.0,99,P-GPS,
0.307541356205801,36.8794036984231,12500,2018-03-31 05:08:36,1783.437288469999,12.9000004128,0.0,0.759378024300096,1783.437288469999,12.9000004128,0.7919993443119999,0.759378024300096,1421,0.0,99,P-GPS,
0.307541373706281,36.8794036932233,12600,2018-03-31 05:08:36,1783.7372884795986,13.2000004224,0.0,0.7613620243635841,1783.7372884795986,13.2000004224,0.7919993443119999,0.7613620243635841,1424,0.0,99,P-GPS,
0.307541370684296,36.8794036861531,12700,2018-03-31 05:08:37,1783.9372884859988,13.4000004288,0.0,0.7614470243663041,1783.9372884859988,13.4000004288,0.7919993443119999,0.7614470243663041,1427,0.0,99,P-GPS,
0.307541377327126,36.8794036787831,12800,2018-03-31 05:08:37,1784.237288495599,13.7000004384,0.0,0.7624900243996799,1784.237288495599,13.7000004384,0.7919993443119999,0.7624900243996799,1429,0.0,99,P-GPS,
0.307541369207705,36.8794037079321,12900,2018-03-31 05:08:37,1784.4372885019986,13.9000004448,0.0,0.760136024324352,1784.4372885019986,13.9000004448,0.7919993443119999,0.7624900243996799,1434,0.0,99,P-GPS,
0.307541370475448,36.8794037276267,13000,2018-03-31 05:08:37,1784.7372885115988,14.2000004544,0.0,0.7592090242946881,1784.7372885115988,14.2000004544,0.7919993443119999,0.7624900243996799,1434,0.0,99,P-GPS,
0.307541324565134,36.8794037100241,13100,2018-03-31 05:08:37,1784.937288517999,14.400000460800001,0.0,0.755674024181568,1784.937288517999,14.400000460800001,0.7919993443119999,0.7624900243996799,1437,0.0,99,P-GPS,
0.307541288845215,36.8794036847132,13200,2018-03-31 05:08:37,1785.2372885275986,14.7000004704,0.0,0.75357002411424,1785.2372885275986,14.7000004704,0.7919993443119999,0.7624900243996799,1435,0.0,99,P-GPS,
0.307541280053246,36.8794036640539,13300,2018-03-31 05:08:37,1785.5372885371987,15.00000048,0.0,0.7538420241229441,1785.5372885371987,15.00000048,0.7919993443119999,0.7624900243996799,1435,0.0,99,P-GPS,
0.307541285017964,36.8794036489147,13400,2018-03-31 05:08:37,1785.7372885435989,15.200000486400002,0.0,0.755151024164832,1785.7372885435989,15.200000486400002,0.7919993443119999,0.7624900243996799,1434,0.0,99,P-GPS,
0.307541282327775,36.8794036130895,13500,2018-03-31 05:08:37,1786.0372885531988,15.500000496,0.0,0.756862024219584,1786.0372885531988,15.500000496,0.7919993443119999,0.7624900243996799,1433,0.0,99,P-GPS,
0.307541277791744,36.8794035815178,13600,2018-03-31 05:08:38,1786.3372885627987,15.8000005056,0.0,0.758176024261632,1786.3372885627987,15.8000005056,0.7919993443119999,0.7624900243996799,1435,0.0,99,P-GPS,
0.307541266500113,36.8794035633969,13700,2018-03-31 05:08:38,1786.5372885691988,16.000000512,0.0,0.7581010242592321,1786.5372885691988,16.000000512,0.7919993443119999,0.7624900243996799,1444,0.0,99,P-GPS,
0.307541255067215,36.8794035543526,13800,2018-03-31 05:08:38,1786.837288578799,16.3000005216,0.0,0.75751002424032,1786.837288578799,16.3000005216,0.7919993443119999,0.7624900243996799,1450,0.0,99,P-GPS,
0.307541240349338,36.8794035550474,13900,2018-03-31 05:08:38,1787.1372885883986,16.600000531200003,0.0,0.756059024193888,1787.1372885883986,16.600000531200003,0.7919993443119999,0.7624900243996799,1467,0.0,99,P-GPS,
0.307541226761602,36.8794035526129,14000,2018-03-31 05:08:38,1787.3372885947988,16.800000537600003,0.0,0.754893024156576,1787.3372885947988,16.800000537600003,0.7919993443119999,0.7624900243996799,1491,0.0,99,P-GPS,
0.307541219384343,36.8794035551812,14100,2018-03-31 05:08:38,1787.637288604399,17.1000005472,0.0,0.7540410241293121,1787.637288604399,17.1000005472,0.7919993443119999,0.7624900243996799,1503,0.0,99,P-GPS,
0.307541212509867,36.879403553904,14200,2018-03-31 05:08:38,1787.9372886139986,17.400000556800002,0.0,0.7534550241105601,1787.9372886139986,17.400000556800002,0.7919993443119999,0.7624900243996799,1510,0.0,99,P-GPS,
0.30754120876811,36.8794035252314,14300,2018-03-31 05:08:38,1788.3372886267987,17.8000005696,0.0,0.754721024151072,1788.3372886267987,17.8000005696,0.7919993443119999,0.7624900243996799,1511,0.0,99,P-GPS,
0.307541201306172,36.8794035017298,14400,2018-03-31 05:08:38,1788.6372886363988,18.1000005792,0.0,0.7553480241711361,1788.6372886363988,18.1000005792,0.7919993443119999,0.7624900243996799,1511,0.0,99,P-GPS,
0.307541197693876,36.8794034929992,14500,2018-03-31 05:08:38,1788.9372886459987,18.4000005888,0.0,0.755504024176128,1788.9372886459987,18.4000005888,0.7919993443119999,0.7624900243996799,1520,0.0,99,P-GPS,
0.307541192323675,36.8794034861324,14600,2018-03-31 05:08:38,1789.2372886555988,18.700000598400003,0.0,0.7553860241723521,1789.2372886555988,18.700000598400003,0.7919993443119999,0.7624900243996799,1525,0.0,99,P-GPS,
0.307541163843411,36.8794034764264,14700,2018-03-31 05:08:39,1789.537288665199,19.000000608,0.0,0.7532360241035521,1789.537288665199,19.000000608,0.7919993443119999,0.7624900243996799,1535,0.0,99,P-GPS,
0.307541131853036,36.8794034656199,14800,2018-03-31 05:08:39,1789.9372886779988,19.4000006208,0.0,0.7508250240264001,1789.9372886779988,19.4000006208,0.7919993443119999,0.7624900243996799,1539,0.0,99,P-GPS,
0.30754107626325,36.8794034670373,14900,2018-03-31 05:08:39,1790.2372886875987,19.7000006304,0.0,0.7454790238553279,1790.2372886875987,19.7000006304,0.7919993443119999,0.7624900243996799,1547,0.0,99,P-GPS,
0.307541028441549,36.8794034777786,15000,2018-03-31 05:08:39,1790.6372887003986,20.1000006432,0.0,0.74033002369056,1790.6372887003986,20.1000006432,0.7919993443119999,0.7624900243996799,1549,0.0,99,P-GPS,
0.307540966517117,36.879403461406,15100,2018-03-31 05:08:39,1790.9372887099987,20.4000006528,0.0,0.7354630235348161,1790.9372887099987,20.4000006528,0.7919993443119999,0.7624900243996799,1555,0.0,99,P-GPS,
0.307540919043496,36.8794034460323,15200,2018-03-31 05:08:39,1791.3372887227988,20.800000665600002,0.0,0.7319250234216,1791.3372887227988,20.800000665600002,0.7919993443119999,0.7624900243996799,1569,0.0,99,P-GPS,
0.307540855710052,36.8794034370104,15300,2018-03-31 05:08:39,1791.6372887323987,21.1000006752,0.0,0.726549023249568,1791.6372887323987,21.1000006752,0.7919993443119999,0.7624900243996799,1571,0.0,99,P-GPS,
0.307540799413115,36.8794034428676,15400,2018-03-31 05:08:39,1792.0372887451988,21.500000688,0.0,0.720949023070368,1792.0372887451988,21.500000688,0.7919993443119999,0.7624900243996799,1571,0.0,99,P-GPS,
0.307540761161779,36.8794034533027,15500,2018-03-31 05:08:39,1792.4372887579987,21.900000700800003,0.0,0.7167560229361921,1792.4372887579987,21.900000700800003,0.7919993443119999,0.7624900243996799,1572,0.0,99,P-GPS,
0.307540733659803,36.8794034683188,15600,2018-03-31 05:08:40,1792.8372887707988,22.300000713600003,0.0,0.7132830228250561,1792.8372887707988,22.300000713600003,0.7919993443119999,0.7624900243996799,1571,0.0,99,P-GPS,
0.307540666467354,36.8794034672621,15700,2018-03-31 05:08:40,1793.2372887835988,22.7000007264,0.0,0.707118022627776,1793.2372887835988,22.7000007264,0.7919993443119999,0.7624900243996799,1572,0.0,99,P-GPS,
0.30754060669776,36.8794034616918,15800,2018-03-31 05:08:40,1793.6372887963987,23.1000007392,0.0,0.7019440224622081,1793.6372887963987,23.1000007392,0.7919993443119999,0.7624900243996799,1572,0.0,99,P-GPS,
0.307540515504082,36.8794034407821,15900,2018-03-31 05:08:40,1794.0372888091988,23.500000752000002,0.0,0.6948820222362241,1794.0372888091988,23.500000752000002,0.7919993443119999,0.7624900243996799,1571,0.0,99,P-GPS,
0.30754044651668,36.8794034236677,16000,2018-03-31 05:08:40,1794.4372888219987,23.9000007648,0.0,0.6896790220697281,1794.4372888219987,23.9000007648,0.7919993443119999,0.7624900243996799,1572,0.0,99,P-GPS,
0.307540372221772,36.8794033728499,16100,2018-03-31 05:08:40,1794.8372888347988,24.3000007776,0.0,0.686242021959744,1794.8372888347988,24.3000007776,0.7919993443119999,0.7624900243996799,1572,0.0,99,P-GPS,
0.307540315305212,36.8794033288315,16200,2018-03-31 05:08:40,1795.2372888475988,24.7000007904,0.0,0.684032021889024,1795.2372888475988,24.7000007904,0.7919993443119999,0.7624900243996799,1572,0.0,99,P-GPS,
0.307540247298541,36.8794032888192,16300,2018-03-31 05:08:40,1795.637288860399,25.100000803200004,0.0,0.680658021781056,1795.637288860399,25.100000803200004,0.7919993443119999,0.7624900243996799,1572,0.0,99,P-GPS,
0.307540189670351,36.8794032604314,16400,2018-03-31 05:08:40,1796.037288873199,25.500000816000004,0.0,0.6774990216799681,1796.037288873199,25.500000816000004,0.7919993443119999,0.7624900243996799,1571,0.0,99,P-GPS,
0.307540084965066,36.8794032501162,16500,2018-03-31 05:08:40,1796.437288885999,25.9000008288,0.0,0.669049021409568,1796.437288885999,25.9000008288,0.7919993443119999,0.7624900243996799,1571,0.0,99,P-GPS,
0.30753999549591,36.8794032478894,16600,2018-03-31 05:08:40,1796.7372888955988,26.200000838400005,0.0,0.661446021166272,1796.7372888955988,26.200000838400005,0.7919993443119999,0.7624900243996799,1571,0.0,99,P-GPS,
0.307539910737842,36.879403225377,16700,2018-03-31 05:08:41,1797.1372889083987,26.6000008512,0.0,0.655749020983968,1797.1372889083987,26.6000008512,0.7919993443119999,0.7624900243996799,1572,0.0,99,P-GPS,
0.307539850018458,36.8794032028379,16800,2018-03-31 05:08:41,1797.637288924399,27.100000867200002,0.0,0.652188020870016,1797.637288924399,27.100000867200002,0.7919993443119999,0.7624900243996799,1572,0.0,99,P-GPS,
0.307539774743634,36.879403187978,16900,2018-03-31 05:08:41,1798.0372889371988,27.50000088,0.0,0.646904020700928,1798.0372889371988,27.50000088,0.7919993443119999,0.7624900243996799,1572,0.0,99,P-GPS,
0.307539728109884,36.8794031827236,17000,2018-03-31 05:08:41,1798.337288946799,27.8000008896,0.0,0.643376020588032,1798.337288946799,27.8000008896,0.7919993443119999,0.7624900243996799,1572,0.0,99,P-GPS,
0.307539689785676,36.8794031544439,17100,2018-03-31 05:08:41,1798.8372889627988,28.300000905600005,0.0,0.642263020552416,1798.8372889627988,28.300000905600005,0.7919993443119999,0.7624900243996799,1573,0.0,99,P-GPS,
0.307539669018536,36.8794031307314,17200,2018-03-31 05:08:41,1799.2372889755989,28.7000009184,0.0,0.6423000205536,1799.2372889755989,28.7000009184,0.7919993443119999,0.7624900243996799,1576,0.0,99,P-GPS,
0.307539631517914,36.8794031108794,17300,2018-03-31 05:08:41,1799.6372889883987,29.1000009312,0.0,0.640692020502144,1799.6372889883987,29.1000009312,0.7919993443119999,0.7624900243996799,1582,0.0,99,P-GPS,
0.30753960443974,36.8794030998812,17400,2018-03-31 05:08:41,1800.0372890011988,29.500000944,0.0,0.639299020457568,1800.0372890011988,29.500000944,0.7919993443119999,0.7624900243996799,1582,0.0,99,P-GPS,
0.307539546548963,36.8794030974285,17500,2018-03-31 05:08:41,1800.4372890139987,29.900000956800003,0.0,0.6347650203124799,1800.4372890139987,29.900000956800003,0.7919993443119999,0.7624900243996799,1583,0.0,99,P-GPS,
0.307539492312414,36.8794031013565,17600,2018-03-31 05:08:42,1800.8372890267988,30.300000969600003,0.0,0.6300710201622721,1800.8372890267988,30.300000969600003,0.7919993443119999,0.7624900243996799,1583,0.0,99,P-GPS,
0.307539408535484,36.8794031095155,17700,2018-03-31 05:08:42,1801.137289036399,30.6000009792,0.0,0.6227040199265281,1801.137289036399,30.6000009792,0.7919993443119999,0.7624900243996799,1587,0.0,99,P-GPS,
0.307539344254286,36.87940312751,17800,2018-03-31 05:08:42,1801.5372890491988,31.000000992,0.0,0.616178019717696,1801.5372890491988,31.000000992,0.7919993443119999,0.7624900243996799,1600,0.0,99,P-GPS,
0.30753927468838,36.8794031455933,17900,2018-03-31 05:08:42,1801.9372890619989,31.400001004800004,0.0,0.6092460194958721,1801.9372890619989,31.400001004800004,0.7919993443119999,0.7624900243996799,1617,0.0,99,P-GPS,
0.307539229411123,36.8794031566697,18000,2018-03-31 05:08:42,1802.3372890747987,31.800001017600003,0.0,0.6048030193536961,1802.3372890747987,31.800001017600003,0.7919993443119999,0.7624900243996799,1619,0.0,99,P-GPS,
0.307539183656732,36.8794031482045,18100,2018-03-31 05:08:42,1802.8372890907988,32.3000010336,0.0,0.601877019260064,1802.8372890907988,32.3000010336,0.7919993443119999,0.7624900243996799,1621,0.0,99,P-GPS,
0.307539159521564,36.8794031321467,18200,2018-03-31 05:08:42,1803.2372891035986,32.700001046400004,0.0,0.601266019240512,1803.2372891035986,32.700001046400004,0.7919993443119999,0.7624900243996799,1624,0.0,99,P-GPS,
0.307539136132222,36.8794031009368,18300,2018-03-31 05:08:42,1803.6372891163987,33.100001059200004,0.0,0.6019400192620801,1803.6372891163987,33.100001059200004,0.7919993443119999,0.7624900243996799,1624,0.0,99,P-GPS,
0.307539132792691,36.8794030705674,18400,2018-03-31 05:08:42,1804.1372891323988,33.600001075200005,0.0,0.604117019331744,1804.1372891323988,33.600001075200005,0.7919993443119999,0.7624900243996799,1626,0.0,99,P-GPS,
0.307539133240106,36.8794030449267,18500,2018-03-31 05:08:42,1804.5372891451989,34.000001088,0.0,0.606214019398848,1804.5372891451989,34.000001088,0.7919993443119999,0.7624900243996799,1626,0.0,99,P-GPS,
0.307539131666622,36.8794030214347,18600,2018-03-31 05:08:43,1805.0372891611987,34.500001104,0.0,0.6079890194556481,1805.0372891611987,34.500001104,0.7919993443119999,0.7624900243996799,1625,0.0,99,P-GPS,
0.307539074002606,36.8794029767183,18700,2018-03-31 05:08:43,1805.4372891739988,34.900001116800006,0.0,0.607251019432032,1805.4372891739988,34.900001116800006,0.7919993443119999,0.7624900243996799,1634,0.0,99,P-GPS,
0.307539021009374,36.8794029446958,18800,2018-03-31 05:08:43,1805.9372891899986,35.4000011328,0.0,0.6059170193893441,1805.9372891899986,35.4000011328,0.7919993443119999,0.7624900243996799,1639,0.0,99,P-GPS,
0.3075389416268,36.8794028786596,18900,2018-03-31 05:08:43,1806.337289202799,35.8000011456,0.0,0.6055770193784641,1806.337289202799,35.8000011456,0.7919993443119999,0.7624900243996799,1649,0.0,99,P-GPS,
0.307538885509806,36.8794028334785,19000,2018-03-31 05:08:43,1806.8372892187988,36.3000011616,0.0,0.6053410193709121,1806.8372892187988,36.3000011616,0.7919993443119999,0.7624900243996799,1652,0.0,99,P-GPS,
0.307538817791777,36.8794028062223,19100,2018-03-31 05:08:43,1807.2372892315989,36.7000011744,0.0,0.6028510192912321,1807.2372892315989,36.7000011744,0.7919993443119999,0.7624900243996799,1657,0.0,99,P-GPS,
0.307538773417899,36.8794027924823,19200,2018-03-31 05:08:43,1807.7372892475987,37.2000011904,0.0,0.600917019229344,1807.7372892475987,37.2000011904,0.7919993443119999,0.7624900243996799,1659,0.0,99,P-GPS,
0.307538727482344,36.8794027575361,19300,2018-03-31 05:08:43,1808.2372892635988,37.7000012064,0.0,0.6007610192243521,1808.2372892635988,37.7000012064,0.7919993443119999,0.7624900243996799,1659,0.0,99,P-GPS,
0.307538686714248,36.8794027235577,19400,2018-03-31 05:08:43,1808.6372892763989,38.1000012192,0.0,0.60094001923008,1808.6372892763989,38.1000012192,0.7919993443119999,0.7624900243996799,1659,0.0,99,P-GPS,
0.307538620396681,36.8794026932589,19500,2018-03-31 05:08:43,1809.137289292399,38.600001235200004,0.0,0.599136019172352,1809.137289292399,38.600001235200004,0.7919993443119999,0.7624900243996799,1660,0.0,99,P-GPS,
0.307538566880718,36.8794026774398,19600,2018-03-31 05:08:44,1809.6372893083987,39.100001251200005,0.0,0.59698501910352,1809.6372893083987,39.100001251200005,0.7919993443119999,0.7624900243996799,1659,0.0,99,P-GPS,
0.307538523879212,36.8794026704488,19700,2018-03-31 05:08:44,1810.0372893211988,39.500001264,0.0,0.594783019033056,1810.0372893211988,39.500001264,0.7919993443119999,0.7624900243996799,1660,0.0,99,P-GPS,
0.307538490736306,36.8794026683526,19800,2018-03-31 05:08:44,1810.5372893371987,40.00000128,0.0,0.59281001896992,1810.5372893371987,40.00000128,0.7919993443119999,0.7624900243996799,1662,0.0,99,P-GPS,
0.307538441746603,36.8794026767161,19900,2018-03-31 05:08:44,1811.037289353199,40.500001296,0.0,0.5888840188442881,1811.037289353199,40.500001296,0.7919993443119999,0.7624900243996799,1664,0.0,99,P-GPS,
0.307538396477896,36.8794026861662,20000,2018-03-31 05:08:44,1811.5372893691988,41.000001312,0.0,0.585123018723936,1811.5372893691988,41.000001312,0.7919993443119999,0.7624900243996799,1665,0.0,99,P-GPS,
0.307538346592143,36.87940269916,20100,2018-03-31 05:08:44,1812.0372893851986,41.500001328,0.0,0.580767018584544,1812.0372893851986,41.500001328,0.7919993443119999,0.7624900243996799,1666,0.0,99,P-GPS,
0.307538310687395,36.8794027059764,20200,2018-03-31 05:08:44,1812.537289401199,42.000001344,0.0,0.577879018492128,1812.537289401199,42.000001344,0.7919993443119999,0.7624900243996799,1667,0.0,99,P-GPS,
0.30753826586366,36.879402704681,20300,2018-03-31 05:08:44,1812.937289413999,42.400001356800004,0.0,0.575198018406336,1812.937289413999,42.400001356800004,0.7919993443119999,0.7624900243996799,1668,0.0,99,P-GPS,
0.307538234816154,36.8794027001203,20400,2018-03-31 05:08:44,1813.4372894299988,42.900001372800006,0.0,0.573698018358336,1813.4372894299988,42.900001372800006,0.7919993443119999,0.7624900243996799,1667,0.0,99,P-GPS,
0.307538192063799,36.879402690607,20500,2018-03-31 05:08:44,1813.9372894459987,43.4000013888,0.0,0.571962018302784,1813.9372894459987,43.4000013888,0.7919993443119999,0.7624900243996799,1680,0.0,99,P-GPS,
0.307538157968253,36.8794026778263,20600,2018-03-31 05:08:44,1814.437289461999,43.9000014048,0.0,0.571088018274816,1814.437289461999,43.9000014048,0.7919993443119999,0.7624900243996799,1684,0.0,99,P-GPS,
0.307538098813396,36.8794026683644,20700,2018-03-31 05:08:45,1814.9372894779988,44.4000014208,0.0,0.5684410181901121,1814.9372894779988,44.4000014208,0.7919993443119999,0.7624900243996799,1684,0.0,99,P-GPS,
0.307538046248853,36.8794026587633,20800,2018-03-31 05:08:45,1815.4372894939988,44.900001436800004,0.0,0.566258018120256,1815.4372894939988,44.900001436800004,0.7919993443119999,0.7624900243996799,1684,0.0,99,P-GPS,
0.307537981025599,36.8794026418351,20900,2018-03-31 05:08:45,1815.937289509999,45.4000014528,0.0,0.564102018051264,1815.937289509999,45.4000014528,0.7919993443119999,0.7624900243996799,1684,0.0,99,P-GPS,
0.307537936574778,36.8794026201942,21000,2018-03-31 05:08:45,1816.437289525999,45.9000014688,0.0,0.563654018036928,1816.437289525999,45.9000014688,0.7919993443119999,0.7624900243996799,1684,0.0,99,P-GPS,
0.307537885593896,36.8794026122911,21100,2018-03-31 05:08:45,1816.9372895419988,46.4000014848,0.0,0.5615740179703681,1816.9372895419988,46.4000014848,0.7919993443119999,0.7624900243996799,1684,0.0,99,P-GPS,
0.307537847646265,36.8794026095643,21200,2018-03-31 05:08:45,1817.4372895579986,46.9000015008,0.0,0.5597520179120641,1817.4372895579986,46.9000015008,0.7919993443119999,0.7624900243996799,1684,0.0,99,P-GPS,
0.307537793201683,36.8794025952612,21300,2018-03-31 05:08:45,1817.937289573999,47.4000015168,0.0,0.558197017862304,1817.937289573999,47.4000015168,0.7919993443119999,0.7624900243996799,1684,0.0,99,P-GPS,
0.307537748519622,36.8794025817782,21400,2018-03-31 05:08:45,1818.4372895899987,47.9000015328,0.0,0.557141017828512,1818.4372895899987,47.9000015328,0.7919993443119999,0.7624900243996799,1684,0.0,99,P-GPS,
0.307537690447681,36.8794025740517,21500,2018-03-31 05:08:45,1818.9372896059988,48.4000015488,0.0,0.554873017755936,1818.9372896059988,48.4000015488,0.7919993443119999,0.7624900243996799,1684,0.0,99,P-GPS,
0.307537652701163,36.8794025661058,21600,2018-03-31 05:08:46,1819.4372896219988,48.9000015648,0.0,0.553723017719136,1819.4372896219988,48.9000015648,0.7919993443119999,0.7624900243996799,1684,0.0,99,P-GPS,
0.307537603353611,36.8794025625482,21700,2018-03-31 05:08:46,1819.937289637999,49.4000015808,0.0,0.551589017650848,1819.937289637999,49.4000015808,0.7919993443119999,0.7624900243996799,1684,0.0,99,P-GPS,
0.307537555435832,36.8794025684054,21800,2018-03-31 05:08:46,1820.4372896539987,49.9000015968,0.0,0.548632017556224,1820.4372896539987,49.9000015968,0.7919993443119999,0.7624900243996799,1684,0.0,99,P-GPS,
0.307537523431208,36.8794025922796,21900,2018-03-31 05:08:46,1820.937289669999,50.4000016128,0.0,0.544681017429792,1820.937289669999,50.4000016128,0.7919993443119999,0.7624900243996799,1684,0.0,99,P-GPS,
0.307537519361726,36.8794026261413,22000,2018-03-31 05:08:46,1821.4372896859988,50.9000016288,0.0,0.5411000173152,1821.4372896859988,50.9000016288,0.7919993443119999,0.7624900243996799,1684,0.0,99,P-GPS,
0.307537487405956,36.8794026671429,22100,2018-03-31 05:08:46,1822.0372897051989,51.500001648,0.0,0.5354420171341441,1822.0372897051989,51.500001648,0.7919993443119999,0.7624900243996799,1684,0.0,99,P-GPS,
0.307537478117311,36.8794027076883,22200,2018-03-31 05:08:46,1822.537289721199,52.000001664,0.0,0.530938016990016,1822.537289721199,52.000001664,0.7919993443119999,0.7624900243996799,1684,0.0,99,P-GPS,
0.307537480480997,36.8794027273037,22300,2018-03-31 05:08:46,1823.0372897371988,52.500001680000004,0.0,0.529097016931104,1823.0372897371988,52.500001680000004,0.7919993443119999,0.7624900243996799,1684,0.0,99,P-GPS,
0.30753750442401,36.8794027498867,22400,2018-03-31 05:08:46,1823.5372897531986,53.000001696000005,0.0,0.5280340168970881,1823.5372897531986,53.000001696000005,0.7919993443119999,0.7624900243996799,1684,0.0,99,P-GPS,
0.307537528779018,36.8794027773099,22500,2018-03-31 05:08:46,1824.0372897691989,53.500001712,0.0,0.526536016849152,1824.0372897691989,53.500001712,0.7919993443119999,0.7624900243996799,1684,0.0,99,P-GPS,
0.307537573706974,36.879402801152,22600,2018-03-31 05:08:46,1824.5372897851987,54.000001728,0.0,0.526477016847264,1824.5372897851987,54.000001728,0.7919993443119999,0.7624900243996799,1684,0.0,99,P-GPS,
0.307537573887731,36.8794027942841,22700,2018-03-31 05:08:47,1825.137289804399,54.6000017472,0.0,0.527163016869216,1825.137289804399,54.6000017472,0.7919993443119999,0.7624900243996799,1684,0.0,99,P-GPS,
0.307537592447107,36.879402783029,22800,2018-03-31 05:08:47,1825.6372898203988,55.1000017632,0.0,0.529231016935392,1825.6372898203988,55.1000017632,0.7919993443119999,0.7624900243996799,1684,0.0,99,P-GPS,
0.307537607327828,36.8794027906655,22900,2018-03-31 05:08:47,1826.1372898363988,55.6000017792,0.0,0.529253016936096,1826.1372898363988,55.6000017792,0.7919993443119999,0.7624900243996799,1684,0.0,99,P-GPS,
0.307537643866041,36.8794028027879,23000,2018-03-31 05:08:47,1826.637289852399,56.10000179520001,0.0,0.52998501695952,1826.637289852399,56.10000179520001,0.7919993443119999,0.7624900243996799,1684,0.0,99,P-GPS,
0.307537646494349,36.8794028086065,23100,2018-03-31 05:08:47,1827.137289868399,56.60000181120001,0.0,0.52955501694576,1827.137289868399,56.60000181120001,0.7919993443119999,0.7624900243996799,1684,0.0,99,P-GPS,
0.307537669867406,36.8794028067137,23200,2018-03-31 05:08:47,1827.6372898843988,57.100001827199996,0.0,0.530984016991488,1827.6372898843988,57.100001827199996,0.7919993443119999,0.7624900243996799,1684,0.0,99,P-GPS,
0.307537698729947,36.8794027966544,23300,2018-03-31 05:08:47,1828.1372899003986,57.600001843200005,0.0,0.533512017072384,1828.1372899003986,57.600001843200005,0.7919993443119999,0.7624900243996799,1684,0.0,99,P-GPS,
0.307537746307381,36.8794027800228,23400,2018-03-31 05:08:47,1828.637289916399,58.100001859200006,0.0,0.53770501720656,1828.637289916399,58.100001859200006,0.7919993443119999,0.7624900243996799,1684,0.0,99,P-GPS,
0.307537752116041,36.8794027557621,23500,2018-03-31 05:08:47,1829.1372899323987,58.60000187520001,0.0,0.5403740172919681,1829.1372899323987,58.60000187520001,0.7919993443119999,0.7624900243996799,1684,0.0,99,P-GPS,
0.307537764970164,36.8794027247268,23600,2018-03-31 05:08:48,1829.6372899483988,59.10000189120001,0.0,0.544084017410688,1829.6372899483988,59.10000189120001,0.7919993443119999,0.7624900243996799,1684,0.0,99,P-GPS,
0.307537767762945,36.8794026522467,23700,2018-03-31 05:08:48,1830.1372899643989,59.6000019072,0.0,0.551281017640992,1830.1372899643989,59.6000019072,0.7919993443119999,0.7624900243996799,1684,0.0,99,P-GPS,
0.307537786008032,36.8794025651776,23800,2018-03-31 05:08:48,1830.7372899835987,60.2000019264,0.0,0.560748017943936,1830.7372899835987,60.2000019264,0.7919993443119999,0.7624900243996799,1684,0.0,99,P-GPS,
0.307537801511633,36.879402497907,23900,2018-03-31 05:08:48,1831.237289999599,60.7000019424,0.0,0.568147018180704,1831.237289999599,60.7000019424,0.7919993443119999,0.7624900243996799,1684,0.0,99,P-GPS,
0.307537821317583,36.8794024412813,24000,2018-03-31 05:08:48,1831.7372900155988,61.2000019584,0.0,0.574736018391552,1831.7372900155988,61.2000019584,0.7919993443119999,0.7624900243996799,1684,0.0,98,P-GPS,
0.307537840383405,36.8794023719391,24100,2018-03-31 05:08:48,1832.2372900315988,61.7000019744,0.0,0.58253501864112,1832.2372900315988,61.7000019744,0.7919993443119999,0.7624900243996799,1684,0.0,98,P-GPS,
0.30753785463229,36.8794023086853,24200,2018-03-31 05:08:48,1832.7372900475987,62.200001990400004,0.0,0.58949001886368,1832.7372900475987,62.200001990400004,0.7919993443119999,0.7624900243996799,1684,0.0,98,P-GPS,
0.307537889300234,36.8794022637141,24300,2018-03-31 05:08:48,1833.237290063599,62.7000020064,0.0,0.59571501906288,1833.237290063599,62.7000020064,0.7919993443119999,0.7624900243996799,1684,0.0,98,P-GPS,
0.307537932948233,36.8794022267862,24400,2018-03-31 05:08:48,1833.7372900795988,63.2000020224,0.0,0.6016230192519361,1833.7372900795988,63.2000020224,0.7919993443119999,0.7624900243996799,1684,0.0,98,P-GPS,
0.30753794457858,36.879402199637,24500,2018-03-31 05:08:48,1834.3372900987988,63.8000020416,0.0,0.60489501935664,1834.3372900987988,63.8000020416,0.7919993443119999,0.7624900243996799,1684,0.0,98,P-GPS,
0.30753795885352,36.8794021784115,24600,2018-03-31 05:08:48,1834.8372901147989,64.3000020576,0.0,0.607726019447232,1834.8372901147989,64.3000020576,0.7919993443119999,0.7624900243996799,1684,0.0,98,P-GPS,
0.307537948863831,36.8794021222675,24700,2018-03-31 05:08:49,1835.3372901307987,64.8000020736,0.0,0.61271501960688,1835.3372901307987,64.8000020736,0.7919993443119999,0.7624900243996799,1684,0.0,98,P-GPS,
0.307537944720255,36.8794020727366,24800,2018-03-31 05:08:49,1835.837290146799,65.3000020896,0.0,0.6173770197560641,1835.837290146799,65.3000020896,0.7919993443119999,0.7624900243996799,1684,0.0,98,P-GPS,
0.307537910365786,36.8794020051994,24900,2018-03-31 05:08:49,1836.3372901627988,65.8000021056,0.0,0.6223050199137601,1836.3372901627988,65.8000021056,0.7919993443119999,0.7624900243996799,1684,0.0,98,P-GPS,
0.307537886164665,36.8794019399255,25000,2018-03-31 05:08:49,1836.8372901787989,66.3000021216,0.0,0.6275830200826561,1836.8372901787989,66.3000021216,0.7919993443119999,0.7624900243996799,1684,0.0,98,P-GPS,
0.307537858822277,36.8794018885939,25100,2018-03-31 05:08:49,1837.3372901947987,66.8000021376,0.0,0.6313650202036801,1837.3372901947987,66.8000021376,0.7919993443119999,0.7624900243996799,1684,0.0,98,P-GPS,
0.3075378492169,36.879401851818,25200,2018-03-31 05:08:49,1837.837290210799,67.3000021536,0.0,0.634582020306624,1837.837290210799,67.3000021536,0.7919993443119999,0.7624900243996799,1684,0.0,98,P-GPS,
0.307537775399533,36.8794017985646,25400,2018-03-31 05:08:49,1838.8372902427986,68.3000021856,0.0,0.636438020366016,1838.8372902427986,68.3000021856,0.7919993443119999,0.7624900243996799,1684,0.0,98,P-GPS,
0.307537752211305,36.8794017519693,25500,2018-03-31 05:08:49,1839.337290258799,68.8000022016,0.0,0.6400770204824641,1839.337290258799,68.8000022016,0.7919993443119999,0.7624900243996799,1684,0.0,98,P-GPS,
0.307537742872179,36.879401702767,25600,2018-03-31 05:08:50,1839.8372902747988,69.30000221760001,0.0,0.644639020628448,1839.8372902747988,69.30000221760001,0.7919993443119999,0.7624900243996799,1684,0.0,98,P-GPS,
0.307537721759402,36.8794016390829,25700,2018-03-31 05:08:50,1840.3372902907988,69.80000223360001,0.0,0.650164020805248,1840.3372902907988,69.80000223360001,0.7919993443119999,0.7624900243996799,1684,0.0,98,P-GPS,
0.307537698589901,36.8794015903057,25800,2018-03-31 05:08:50,1840.8372903067989,70.30000224960001,0.0,0.654114020931648,1840.8372903067989,70.30000224960001,0.7919993443119999,0.7624900243996799,1684,0.0,98,P-GPS,
0.307537637846497,36.8794015501157,25900,2018-03-31 05:08:50,1841.337290322799,70.8000022656,0.0,0.655601020979232,1841.337290322799,70.8000022656,0.7919993443119999,0.7624900243996799,1684,0.0,98,P-GPS,
0.307537586969022,36.879401527856,26000,2018-03-31 05:08:50,1841.8372903387988,71.3000022816,0.0,0.65574502098384,1841.8372903387988,71.3000022816,0.7919993443119999,0.7624900243996799,1684,0.0,98,P-GPS,
0.307537515536511,36.879401533665,26100,2018-03-31 05:08:50,1842.337290354799,71.8000022976,0.0,0.6522060208705921,1842.337290354799,71.8000022976,0.7919993443119999,0.7624900243996799,1684,0.0,98,P-GPS,
0.307537460390884,36.8794015444555,26200,2018-03-31 05:08:50,1842.8372903707989,72.3000023136,0.0,0.648873020763936,1842.8372903707989,72.3000023136,0.7919993443119999,0.7624900243996799,1684,0.0,98,P-GPS,
0.307537396798517,36.8794015331201,26300,2018-03-31 05:08:50,1843.3372903867987,72.8000023296,0.0,0.647562020721984,1843.3372903867987,72.8000023296,0.7919993443119999,0.7624900243996799,1684,0.0,98,P-GPS,
0.307537353981839,36.8794015257844,26400,2018-03-31 05:08:50,1843.8372904027988,73.3000023456,0.0,0.646692020694144,1843.8372904027988,73.3000023456,0.7919993443119999,0.7624900243996799,1684,0.0,98,P-GPS,
0.307537268481201,36.8794015290893,26500,2018-03-31 05:08:50,1844.3372904187988,73.80000236160001,0.0,0.643172020581504,1844.3372904187988,73.80000236160001,0.7919993443119999,0.7624900243996799,1684,0.0,98,P-GPS,
0.307537200983826,36.8794015473397,26600,2018-03-31 05:08:51,1844.737290431599,74.20000237440001,0.0,0.63883002044256,1844.737290431599,74.20000237440001,0.7919993443119999,0.7624900243996799,1684,0.0,98,P-GPS,
0.307537121324417,36.8794015702268,26700,2018-03-31 05:08:51,1845.3372904507987,74.80000239360001,0.0,0.633647020276704,1845.3372904507987,74.80000239360001,0.7919993443119999,0.7624900243996799,1684,0.0,98,P-GPS,
0.307537060418983,36.8794016003682,26800,2018-03-31 05:08:51,1845.837290466799,75.3000024096,0.0,0.62840502010896,1845.837290466799,75.3000024096,0.7919993443119999,0.7624900243996799,1684,0.0,98,P-GPS,
0.30753698970136,36.8794016171433,26900,2018-03-31 05:08:51,1846.3372904827988,75.8000024256,0.0,0.624318019978176,1846.3372904827988,75.8000024256,0.7919993443119999,0.7624900243996799,1684,0.0,98,P-GPS,
0.30753694311402,36.8794016387285,27000,2018-03-31 05:08:51,1846.8372904987987,76.3000024416,0.0,0.620544019857408,1846.8372904987987,76.3000024416,0.7919993443119999,0.7624900243996799,1684,0.0,98,P-GPS,
0.307536896442815,36.8794016734264,27100,2018-03-31 05:08:51,1847.337290514799,76.8000024576,0.0,0.6153960196926721,1847.337290514799,76.8000024576,0.7919993443119999,0.7624900243996799,1552,0.0,98,P-GPS,
0.307536862784506,36.8794017127225,27200,2018-03-31 05:08:51,1847.8372905307988,77.3000024736,0.0,0.61017001952544,1847.8372905307988,77.3000024736,0.7919993443119999,0.7624900243996799,1179,0.0,98,P-GPS,
0.307536820474274,36.8794017302042,27300,2018-03-31 05:08:51,1848.3372905467988,77.8000024896,0.0,0.607037019425184,1848.3372905467988,77.8000024896,0.7919993443119999,0.7624900243996799,1024,0.0,98,P-GPS,
0.307536815707004,36.8794017385462,27400,2018-03-31 05:08:51,1848.837290562799,78.3000025056,0.0,0.606002019392064,1848.837290562799,78.3000025056,0.7919993443119999,0.7624900243996799,1024,0.0,98,P-GPS,
0.307536780920998,36.8794017616517,27500,2018-03-31 05:08:51,1849.237290575599,78.70000251840001,0.0,0.6025090192802881,1849.237290575599,78.70000251840001,0.7919993443119999,0.7624900243996799,1024,0.0,98,P-GPS,
0.307536776469646,36.8794017982445,27600,2018-03-31 05:08:51,1849.5372905851987,79.000002528,0.0,0.5984510191504321,1849.5372905851987,79.000002528,0.7919993443119999,0.7624900243996799,1024,0.0,98,P-GPS,
0.307536789551751,36.8794018044572,27700,2018-03-31 05:08:52,1849.7372905915988,79.20000253440001,0.0,0.5981650191412801,1849.7372905915988,79.20000253440001,0.7919993443119999,0.7624900243996799,1024,0.0,98,P-GPS,
0.307536839933365,36.8794018034219,27800,2018-03-31 05:08:52,1849.9372905979988,79.4000025408,0.0,0.5997730191927361,1849.9372905979988,79.4000025408,0.7919993443119999,0.7624900243996799,1024,0.0,98,P-GPS,
0.307536839730624,36.8794018130915,27900,2018-03-31 05:08:52,1850.037290601199,79.500002544,0.0,0.5987320191594241,1850.037290601199,79.500002544,0.7919993443119999,0.7624900243996799,1024,0.0,98,P-GPS,
0.307536864107617,36.8794018129641,28000,2018-03-31 05:08:52,1850.037290601199,79.500002544,0.0,0.599488019183616,1850.037290601199,79.500002544,0.7919993443119999,0.7624900243996799,1024,0.0,98,P-GPS,
0.307536889189725,36.8794018208597,28100,2018-03-31 05:08:52,1850.137290604399,79.60000254719999,0.0,0.5994220191815041,1850.137290604399,79.60000254719999,0.7919993443119999,0.7624900243996799,1024,0.0,98,P-GPS,
0.307536941975737,36.8794018133174,28200,2018-03-31 05:08:52,1850.137290604399,79.60000254719999,0.0,0.601899019260768,1850.137290604399,79.60000254719999,0.7919993443119999,0.7624900243996799,959,0.0,98,P-GPS,
0.307536984099513,36.8794017963667,28300,2018-03-31 05:08:52,1850.137290604399,79.60000254719999,0.0,0.605072019362304,1850.137290604399,79.60000254719999,0.7919993443119999,0.7624900243996799,868,0.0,98,P-GPS,
0.30753704892624,36.8794017729325,28400,2018-03-31 05:08:52,1850.137290604399,79.60000254719999,0.0,0.609723019511136,1850.137290604399,79.60000254719999,0.7919993443119999,0.7624900243996799,818,0.0,98,P-GPS,
0.307537096364442,36.8794017231061,28500,2018-03-31 05:08:52,1850.137290604399,79.60000254719999,0.0,0.6166190197318081,1850.137290604399,79.60000254719999,0.7919993443119999,0.7624900243996799,791,0.0,98,P-GPS,
0.307537158031173,36.8794016591244,28600,2018-03-31 05:08:53,1850.137290604399,79.60000254719999,0.0,0.6255260200168321,1850.137290604399,79.60000254719999,0.7919993443119999,0.7624900243996799,770,0.0,98,P-GPS,
0.307537191621088,36.8794016238559,28700,2018-03-31 05:08:53,1850.137290604399,79.60000254719999,0.0,0.6304330201738559,1850.137290604399,79.60000254719999,0.7919993443119999,0.7624900243996799,732,0.0,98,P-GPS,
0.307537244610655,36.8794015935507,28800,2018-03-31 05:08:53,1850.137290604399,79.60000254719999,0.0,0.635529020336928,1850.137290604399,79.60000254719999,0.7919993443119999,0.7624900243996799,721,0.0,98,P-GPS,
0.307537252223631,36.8794015349904,28900,2018-03-31 05:08:53,1850.137290604399,79.60000254719999,0.0,0.641962020542784,1850.137290604399,79.60000254719999,0.7919993443119999,0.7624900243996799,707,0.0,98,P-GPS,
0.307537292664409,36.8794014803164,29000,2018-03-31 05:08:53,1850.037290601199,79.500002544,0.0,0.649177020773664,1850.137290604399,79.60000254719999,0.7919993443119999,0.7624900243996799,677,0.0,98,P-GPS,
0.307537297065279,36.8794014620564,29100,2018-03-31 05:08:53,1849.9372905979988,79.4000025408,0.0,0.651256020840192,1850.137290604399,79.60000254719999,0.7919993443119999,0.7624900243996799,663,0.0,98,P-GPS,
0.307537348154452,36.8794014568415,29200,2018-03-31 05:08:53,1849.9372905979988,79.4000025408,0.0,0.653689020918048,1850.137290604399,79.60000254719999,0.7919993443119999,0.7624900243996799,644,0.0,98,P-GPS,
0.307537467998974,36.8794015177806,29300,2018-03-31 05:08:53,1849.8372905947988,79.30000253760001,0.0,0.651946020862272,1850.137290604399,79.60000254719999,0.7919993443119999,0.7624900243996799,636,0.0,98,P-GPS,
0.307537627220086,36.8794015815418,29400,2018-03-31 05:08:53,1849.7372905915988,79.20000253440001,0.0,0.651921020861472,1850.137290604399,79.60000254719999,0.7919993443119999,0.7624900243996799,636,0.0,98,P-GPS,
