latitude,longitude,time_millisecond,datetime_utc,altitude_m,ascent_m,speed_kph,distance_m,max_altitude_m,max_ascent_m,max_speed_kph,max_distance_m,rc_throttle,gimbal_pitch_degrees,battery_percent,flycState,message
0.289297467526587,36.8890189209124,3800,2018-04-14 13:03:17,1714.1130919516283,0.0,0.0,0.0,1714.1130919516283,0.0,0.0,0.0,364,0.0,99,Motors_Started,
0.289297558746168,36.8890188189491,3900,2018-04-14 13:03:17,1714.1130919516283,0.0,0.0,0.0152142004868544,1714.1130919516283,0.0,0.0,0.0152142004868544,364,0.0,99,Motors_Started,
0.289297663857139,36.8890187439291,4000,2018-04-14 13:03:17,1714.1130919516283,0.0,0.0,0.0293946009406272,1714.1130919516283,0.0,0.0,0.0293946009406272,364,0.0,99,Motors_Started,
0.28929774497487,36.8890186874196,4100,2018-04-14 13:03:17,1714.1130919516283,0.0,0.0,0.0403258012904256,1714.1130919516283,0.0,0.0,0.0403258012904256,364,0.0,99,Motors_Started,
0.289297832781436,36.8890186908702,4200,2018-04-14 13:03:17,1714.1130919516283,0.0,0.0,0.0480031015360992,1714.1130919516283,0.0,0.0,0.0480031015360992,364,0.0,99,Motors_Started,
0.289297904727058,36.8890186959304,4300,2018-04-14 13:03:17,1714.1130919516283,0.0,0.0,0.054679001749728,1714.1130919516283,0.0,0.0,0.054679001749728,364,0.0,99,Motors_Started,
0.289297978954615,36.8890187059651,4400,2018-04-14 13:03:17,1714.1130919516283,0.0,0.0,0.061692801974169605,1714.1130919516283,0.0,0.0,0.061692801974169605,364,0.0,99,Motors_Started,Setting new Return-To-Home altitude to 30m (98 ft). Setting new Maximum Flight Altitude to 150m (492 ft)
0.289298043365554,36.8890186899537,4500,2018-04-14 13:03:17,1714.1130919516283,0.0,0.0,0.0689954022078528,1714.1130919516283,0.0,0.0,0.0689954022078528,364,0.0,99,Motors_Started,
0.289298134014212,36.8890187265966,4600,2018-04-14 13:03:17,1714.1130919516283,0.0,0.0,0.0772033024705056,1714.1130919516283,0.0,0.0,0.0772033024705056,364,0.0,99,Motors_Started,
0.289298221636706,36.8890187532079,4700,2018-04-14 13:03:17,1714.1130919516283,0.0,0.0,0.0859103027491296,1714.1130919516283,0.0,0.0,0.0859103027491296,366,0.0,99,Motors_Started,
0.289298333016188,36.8890188012388,4800,2018-04-14 13:03:18,1714.1130919516283,0.0,0.0,0.0971634031092288,1714.1130919516283,0.0,0.0,0.0971634031092288,496,0.0,99,Motors_Started,
0.289298434165053,36.8890188238246,4900,2018-04-14 13:03:18,1714.1130919516283,0.0,0.0,0.108037003457184,1714.1130919516283,0.0,0.0,0.108037003457184,661,0.0,99,Motors_Started,
0.289298531856185,36.8890188663199,5000,2018-04-14 13:03:18,1714.1130919516283,0.0,0.0,0.11851600379251201,1714.1130919516283,0.0,0.0,0.11851600379251201,847,0.0,99,Motors_Started,
0.289298609280733,36.8890188831744,5100,2018-04-14 13:03:18,1714.1130919516283,0.0,0.0,0.127039004065248,1714.1130919516283,0.0,0.0,0.127039004065248,1024,0.0,99,Motors_Started,
0.289298703974522,36.8890189390034,5200,2018-04-14 13:03:18,1714.1130919516283,0.0,0.0,0.13751500440048,1714.1130919516283,0.0,0.0,0.13751500440048,1024,0.0,99,Motors_Started,
0.289298793597591,36.889018979312,5300,2018-04-14 13:03:18,1714.1130919516283,0.0,0.0,0.14761000472352,1714.1130919516283,0.0,0.0,0.14761000472352,1024,0.0,99,Assisted_Takeoff,
0.289298890195566,36.8890190580556,5500,2018-04-14 13:03:18,1714.1130919516283,0.0,0.0,0.158943005086176,1714.1130919516283,0.0,0.0,0.158943005086176,1024,0.0,99,Assisted_Takeoff,
0.289298920854892,36.8890190850529,5600,2018-04-14 13:03:18,1714.1130919516283,0.0,0.0,0.162646005204672,1714.1130919516283,0.0,0.0,0.162646005204672,1024,0.0,99,Assisted_Takeoff,
0.289298956324132,36.8890190993711,5700,2018-04-14 13:03:19,1714.1130919516283,0.0,0.0,0.166749005335968,1714.1130919516283,0.0,0.0,0.166749005335968,1024,0.0,99,Assisted_Takeoff,
0.289298983125827,36.8890191392044,5800,2018-04-14 13:03:19,1714.1130919516283,0.0,0.0,0.17028300544905603,1714.1130919516283,0.0,0.0,0.17028300544905603,1024,0.0,99,Assisted_Takeoff,
0.289299020847969,36.88901917203,5900,2018-04-14 13:03:19,1714.1130919516283,0.0,0.0,0.174982005599424,1714.1130919516283,0.0,0.0,0.174982005599424,1024,0.0,99,Assisted_Takeoff,
0.289299026295368,36.8890192057801,6000,2018-04-14 13:03:19,1714.1130919516283,0.0,0.0,0.17621500563888,1714.1130919516283,0.0,0.0,0.17621500563888,1024,0.0,99,Assisted_Takeoff,
0.289299048171936,36.8890192634608,6200,2018-04-14 13:03:19,1714.1130919516283,0.0,0.0,0.179858005755456,1714.1130919516283,0.0,0.0,0.179858005755456,1024,0.0,99,Assisted_Takeoff,
0.289299067693214,36.8890192996663,6300,2018-04-14 13:03:19,1714.1130919516283,0.0,0.0,0.18286500585168,1714.1130919516283,0.0,0.0,0.18286500585168,1026,0.0,99,Assisted_Takeoff,
0.289299092472126,36.8890193596899,6400,2018-04-14 13:03:19,1714.1130919516283,0.0,0.0,0.187176005989632,1714.1130919516283,0.0,0.0,0.187176005989632,1035,0.0,99,Assisted_Takeoff,
0.289299124029387,36.8890194069419,6500,2018-04-14 13:03:19,1714.1130919516283,0.0,0.0,0.191979006143328,1714.1130919516283,0.0,0.0,0.191979006143328,1101,0.0,99,Assisted_Takeoff,
0.289299135196543,36.8890194446762,6600,2018-04-14 13:03:19,1714.1130919516283,0.0,0.0,0.194386006220352,1714.1130919516283,0.0,0.0,0.194386006220352,1182,0.0,99,Assisted_Takeoff,
0.289299144882935,36.8890194677797,6700,2018-04-14 13:03:19,1714.1130919516283,0.0,0.0,0.19619500627824002,1714.1130919516283,0.0,0.0,0.19619500627824002,1282,0.0,99,Assisted_Takeoff,
0.289299163018712,36.8890194787443,6800,2018-04-14 13:03:20,1714.1130919516283,0.0,0.0,0.198492006351744,1714.1130919516283,0.0,0.0,0.198492006351744,1365,0.0,99,Assisted_Takeoff,
0.289299187662159,36.8890194844971,6900,2018-04-14 13:03:20,1714.1130919516283,0.0,0.0,0.20129500644144,1714.1130919516283,0.0,0.0,0.20129500644144,1433,0.0,99,Assisted_Takeoff,
0.289299197381221,36.889019478573,7000,2018-04-14 13:03:20,1714.1130919516283,0.0,0.0,0.202119006467808,1714.1130919516283,0.0,0.0,0.202119006467808,1459,0.0,99,Assisted_Takeoff,
0.289299208211799,36.8890194586309,7100,2018-04-14 13:03:20,1714.1130919516283,0.0,0.0,0.2026000064832,1714.1130919516283,0.0,0.0,0.2026000064832,1458,0.0,99,Assisted_Takeoff,
0.289299231440535,36.889019435377,7200,2018-04-14 13:03:20,1714.1130919516283,0.0,0.0,0.204331006538592,1714.1130919516283,0.0,0.0,0.204331006538592,1446,0.0,99,Assisted_Takeoff,
0.289299267901294,36.8890194656878,7300,2018-04-14 13:03:20,1714.1130919516283,0.0,0.0,0.20917800669369602,1714.1130919516283,0.0,0.0,0.20917800669369602,1446,0.0,99,P-GPS,Obstacle Avoided. Revise Flight Route
0.289299322162575,36.8890195352965,7400,2018-04-14 13:03:20,1714.1130919516283,0.0,0.35999970196000003,0.217269006952608,1714.1130919516283,0.0,0.35999970196000003,0.217269006952608,1447,0.0,99,P-GPS,
0.289299346354332,36.8890196085592,7500,2018-04-14 13:03:20,1714.213091954828,0.1000000032,0.0,0.222491007119712,1714.213091954828,0.1000000032,0.35999970196000003,0.222491007119712,1447,0.0,99,P-GPS,Home Point Recorded. RTH Altitude:  30m.
0.289299301618023,36.8890196725666,7600,2018-04-14 13:03:20,1714.3130919580283,0.2000000064,0.0,0.22042600705363202,1714.3130919580283,0.2000000064,0.35999970196000003,0.222491007119712,1449,0.0,99,P-GPS,
0.289299202159992,36.8890197179407,7700,2018-04-14 13:03:20,1714.5130919644282,0.4000000128,0.35999970196000003,0.21229000679328003,1714.5130919644282,0.4000000128,0.35999970196000003,0.222491007119712,1449,0.0,99,P-GPS,
0.28929904251233,36.8890197216396,7800,2018-04-14 13:03:21,1714.6130919676282,0.500000016,0.35999970196000003,0.19648400628748802,1714.6130919676282,0.500000016,0.35999970196000003,0.222491007119712,1453,0.0,99,P-GPS,
0.289298881087068,36.8890197036611,7900,2018-04-14 13:03:21,1714.8130919740283,0.7000000224,0.35999970196000003,0.179688005750016,1714.8130919740283,0.7000000224,0.35999970196000003,0.222491007119712,1461,0.0,99,P-GPS,
0.289298730470553,36.8890196347065,8000,2018-04-14 13:03:21,1715.1130919836282,1.000000032,0.35999970196000003,0.16132600516243203,1715.1130919836282,1.000000032,0.35999970196000003,0.222491007119712,1470,0.0,99,P-GPS,
0.289298610288943,36.8890195320981,8100,2018-04-14 13:03:21,1715.3130919900282,1.2000000384,0.503999582744,0.144116004611712,1715.3130919900282,1.2000000384,0.503999582744,0.222491007119712,1467,0.0,99,P-GPS,
0.289298508838052,36.889019374901,8200,2018-04-14 13:03:21,1715.6130919996283,1.5000000480000002,0.503999582744,0.12632700404246403,1715.6130919996283,1.5000000480000002,0.503999582744,0.222491007119712,1442,0.0,99,P-GPS,
0.289298409540028,36.889019207978,8300,2018-04-14 13:03:21,1715.9130920092284,1.8000000576000001,0.503999582744,0.109514003504448,1715.9130920092284,1.8000000576000001,0.503999582744,0.222491007119712,1435,0.0,99,P-GPS,
0.289298308838403,36.8890190547694,8400,2018-04-14 13:03:21,1716.2130920188283,2.1000000672000003,0.503999582744,0.0947358030315456,1716.2130920188283,2.1000000672000003,0.503999582744,0.222491007119712,1446,0.0,99,P-GPS,
0.289298213396691,36.8890189085331,8500,2018-04-14 13:03:21,1716.5130920284282,2.4000000768,0.503999582744,0.0829567026546144,1716.5130920284282,2.4000000768,0.503999582744,0.222491007119712,1450,0.0,99,P-GPS,
0.289298155154481,36.8890187246224,8600,2018-04-14 13:03:21,1716.8130920380281,2.7000000864,0.35999970196000003,0.0795229025447328,1716.8130920380281,2.7000000864,0.503999582744,0.222491007119712,1487,0.0,99,P-GPS,
0.289298119343535,36.8890185422839,8700,2018-04-14 13:03:21,1717.0130920444283,2.9000000928,0.35999970196000003,0.08382770268248642,1717.0130920444283,2.9000000928,0.503999582744,0.222491007119712,1471,0.0,99,P-GPS,
0.289298087278773,36.8890183892948,8800,2018-04-14 13:03:22,1717.3130920540282,3.2000001024,0.35999970196000003,0.09080190290566081,1717.3130920540282,3.2000001024,0.503999582744,0.222491007119712,1435,0.0,99,P-GPS,
0.289298046557457,36.889018266959,8900,2018-04-14 13:03:22,1717.6130920636283,3.500000112,0.0,0.0971333031082656,1717.6130920636283,3.500000112,0.503999582744,0.222491007119712,1468,0.0,99,P-GPS,
0.289298002322023,36.889018154908,9000,2018-04-14 13:03:22,1717.9130920732282,3.8000001216000006,0.0,0.10389000332448,1717.9130920732282,3.8000001216000006,0.503999582744,0.222491007119712,1464,0.0,99,P-GPS,
0.289297953846451,36.8890180475623,9100,2018-04-14 13:03:22,1718.1130920796281,4.000000128,0.0,0.111163003557216,1718.1130920796281,4.000000128,0.503999582744,0.222491007119712,1459,0.0,99,P-GPS,
0.289297897401503,36.8890179774423,9200,2018-04-14 13:03:22,1718.4130920892283,4.3000001376,0.0,0.11529600368947202,1718.4130920892283,4.3000001376,0.503999582744,0.222491007119712,1451,0.0,99,P-GPS,
0.289297841546586,36.8890179224446,9300,2018-04-14 13:03:22,1718.7130920988282,4.6000001472,0.0,0.11856900379420801,1718.7130920988282,4.6000001472,0.503999582744,0.222491007119712,1446,0.0,99,P-GPS,
0.289297782089959,36.8890178935421,9400,2018-04-14 13:03:22,1718.9130921052283,4.8000001536,0.0,0.119484003823488,1718.9130921052283,4.8000001536,0.503999582744,0.222491007119712,1442,0.0,99,P-GPS,
0.289297720301705,36.8890178538438,9500,2018-04-14 13:03:22,1719.2130921148282,5.1000001632,0.0,0.121947003902304,1719.2130921148282,5.1000001632,0.503999582744,0.222491007119712,1491,0.0,99,P-GPS,
0.289297657363108,36.889017811167,9600,2018-04-14 13:03:22,1719.513092124428,5.4000001728,0.0,0.125202004006464,1719.513092124428,5.4000001728,0.503999582744,0.222491007119712,1458,0.0,99,P-GPS,
0.289297589105249,36.8890177658272,9700,2018-04-14 13:03:23,1719.7130921308283,5.6000001792,0.0,0.12916000413312,1719.7130921308283,5.6000001792,0.503999582744,0.222491007119712,1467,0.0,99,P-GPS,
0.289297533674288,36.8890177419882,9800,2018-04-14 13:03:23,1720.0130921404282,5.9000001888,0.0,0.131308004201856,1720.0130921404282,5.9000001888,0.503999582744,0.222491007119712,1468,0.0,99,P-GPS,
0.289297501699281,36.8890177115082,9900,2018-04-14 13:03:23,1720.3130921500283,6.200000198400001,0.0,0.13454500430544,1720.3130921500283,6.200000198400001,0.503999582744,0.222491007119712,1509,0.0,99,P-GPS,
0.289297474383609,36.8890176667122,10000,2018-04-14 13:03:23,1720.6130921596282,6.500000208,0.0,0.1394750044632,1720.6130921596282,6.500000208,0.503999582744,0.222491007119712,1540,0.0,99,P-GPS,
0.289297456528382,36.8890176057475,10100,2018-04-14 13:03:23,1720.9130921692283,6.800000217600001,0.0,0.146258004680256,1720.9130921692283,6.800000217600001,0.503999582744,0.222491007119712,1556,0.0,99,P-GPS,
0.289297452482716,36.8890175674634,10200,2018-04-14 13:03:23,1721.1130921756283,7.000000224,0.0,0.150519004816608,1721.1130921756283,7.000000224,0.503999582744,0.222491007119712,1528,0.0,99,P-GPS,
0.289297445084033,36.8890175285487,10300,2018-04-14 13:03:23,1721.5130921884281,7.4000002368,0.0,0.15485700495542398,1721.5130921884281,7.4000002368,0.503999582744,0.222491007119712,1511,0.0,99,P-GPS,
0.289297406844759,36.8890174661537,10400,2018-04-14 13:03:23,1721.8130921980282,7.7000002464,0.0,0.161917005181344,1721.8130921980282,7.7000002464,0.503999582744,0.222491007119712,1525,0.0,99,P-GPS,
0.289297369262205,36.8890173837451,10500,2018-04-14 13:03:23,1722.1130922076284,8.000000256,0.0,0.171289005481248,1722.1130922076284,8.000000256,0.503999582744,0.222491007119712,1520,0.0,99,P-GPS,
0.289297321203769,36.8890173255557,10600,2018-04-14 13:03:23,1722.5130922204282,8.400000268800001,0.0,0.17815600570099202,1722.5130922204282,8.400000268800001,0.503999582744,0.222491007119712,1520,0.0,99,P-GPS,
0.289297281001355,36.8890172664798,10700,2018-04-14 13:03:23,1722.8130922300284,8.700000278400001,0.0,0.185146005924672,1722.8130922300284,8.700000278400001,0.503999582744,0.222491007119712,1575,0.0,99,P-GPS,
0.289297243500732,36.889017195847,10800,2018-04-14 13:03:24,1723.2130922428282,9.1000002912,0.0,0.193446006190272,1723.2130922428282,9.1000002912,0.503999582744,0.222491007119712,1575,0.0,99,P-GPS,
0.289297229789844,36.8890171123397,10900,2018-04-14 13:03:24,1723.5130922524284,9.4000003008,0.0,0.20285200649126403,1723.5130922524284,9.4000003008,0.503999582744,0.222491007119712,1584,0.0,99,P-GPS,
0.289297241175721,36.8890170502455,11000,2018-04-14 13:03:24,1723.9130922652284,9.8000003136,0.0,0.20954400670540801,1723.9130922652284,9.8000003136,0.503999582744,0.222491007119712,1596,0.0,99,P-GPS,
0.289297265992699,36.8890169873671,11100,2018-04-14 13:03:24,1724.213092274828,10.100000323200002,0.0,0.216184006917888,1724.213092274828,10.100000323200002,0.503999582744,0.222491007119712,1596,0.0,99,P-GPS,
0.289297285963733,36.8890169096087,11200,2018-04-14 13:03:24,1724.6130922876282,10.500000336,0.0,0.224576007186432,1724.6130922876282,10.500000336,0.503999582744,0.224576007186432,1615,0.0,99,P-GPS,
0.289297300762014,36.8890168249966,11300,2018-04-14 13:03:24,1725.013092300428,10.9000003488,0.0,0.233812007481984,1725.013092300428,10.9000003488,0.503999582744,0.233812007481984,1633,0.0,99,P-GPS,
0.289297328553955,36.8890167609601,11400,2018-04-14 13:03:24,1725.4130923132284,11.3000003616,0.0,0.240693007702176,1725.4130923132284,11.3000003616,0.503999582744,0.240693007702176,1636,0.0,99,P-GPS,
0.289297364311125,36.8890166971906,11500,2018-04-14 13:03:24,1725.8130923260283,11.7000003744,0.0,0.24755500792176002,1725.8130923260283,11.7000003744,0.503999582744,0.24755500792176002,1622,0.0,99,P-GPS,
0.289297388494943,36.8890166556886,11600,2018-04-14 13:03:24,1726.3130923420283,12.200000390400001,0.0,0.25205700806582404,1726.3130923420283,12.200000390400001,0.503999582744,0.25205700806582404,1629,0.0,99,P-GPS,
0.289297399858123,36.8890166246886,11700,2018-04-14 13:03:24,1726.7130923548282,12.6000004032,0.0,0.255462008174784,1726.7130923548282,12.6000004032,0.503999582744,0.255462008174784,1629,0.0,99,P-GPS,
0.289297404662542,36.8890166210076,11800,2018-04-14 13:03:25,1727.1130923676283,13.000000416,0.0,0.255856008187392,1727.1130923676283,13.000000416,0.503999582744,0.255856008187392,1629,0.0,99,P-GPS,
0.289297405810595,36.8890166239619,11900,2018-04-14 13:03:25,1727.613092383628,13.500000432,0.0,0.255524008176768,1727.613092383628,13.500000432,0.503999582744,0.255856008187392,1627,0.0,99,P-GPS,
0.289297411817111,36.8890166554707,12000,2018-04-14 13:03:25,1728.0130923964282,13.9000004448,0.0,0.25200400806412804,1728.0130923964282,13.9000004448,0.503999582744,0.255856008187392,1628,-1.3,99,P-GPS,
0.289297425331008,36.8890166755485,12100,2018-04-14 13:03:25,1728.5130924124283,14.400000460800001,0.0,0.24973900799164803,1728.5130924124283,14.400000460800001,0.503999582744,0.255856008187392,1628,-1.3,99,P-GPS,
0.289297411918481,36.8890166927701,12200,2018-04-14 13:03:25,1728.9130924252283,14.8000004736,0.0,0.247857007931424,1728.9130924252283,14.8000004736,0.503999582744,0.255856008187392,1635,-3.9,99,P-GPS,
0.289297398122304,36.889016693393,12300,2018-04-14 13:03:25,1729.4130924412282,15.3000004896,0.0,0.247831007930592,1729.4130924412282,15.3000004896,0.503999582744,0.255856008187392,1637,-7.8,99,P-GPS,
0.289297380761361,36.8890166970825,12400,2018-04-14 13:03:25,1729.8130924540283,15.700000502400002,0.0,0.247488007919616,1729.8130924540283,15.700000502400002,0.503999582744,0.255856008187392,1633,-11.7,99,P-GPS,
0.289297387034941,36.8890166922097,12500,2018-04-14 13:03:25,1730.313092470028,16.2000005184,0.0,0.248004007936128,1730.313092470028,16.2000005184,0.503999582744,0.255856008187392,1632,-13.3,99,P-GPS,
0.289297393970993,36.8890167239995,12600,2018-04-14 13:03:25,1730.7130924828282,16.600000531200003,0.0,0.24444400782220801,1730.7130924828282,16.600000531200003,0.503999582744,0.255856008187392,1638,-13.3,99,P-GPS,
0.289297404976323,36.8890167544639,12700,2018-04-14 13:03:25,1731.2130924988282,17.1000005472,0.0,0.24102000771264004,1731.2130924988282,17.1000005472,0.503999582744,0.255856008187392,1639,-13.3,99,P-GPS,
0.289297399151786,36.8890167931093,12800,2018-04-14 13:03:26,1731.6130925116283,17.50000056,0.0,0.23674400757580802,1731.6130925116283,17.50000056,0.503999582744,0.255856008187392,1641,-13.3,99,P-GPS,
0.289297396039524,36.889016821284,12900,2018-04-14 13:03:26,1732.1130925276282,18.000000576,0.0,0.23362400747596798,1732.1130925276282,18.000000576,0.503999582744,0.255856008187392,1649,-13.3,99,P-GPS,
0.289297400241927,36.8890168491592,13000,2018-04-14 13:03:26,1732.6130925436282,18.500000592000003,0.0,0.23051000737632002,1732.6130925436282,18.500000592000003,0.503999582744,0.255856008187392,1652,-13.3,99,P-GPS,
0.289297404056557,36.8890168621161,13100,2018-04-14 13:03:26,1733.013092556428,18.900000604800002,0.0,0.22905700732982404,1733.013092556428,18.900000604800002,0.503999582744,0.255856008187392,1650,-13.3,99,P-GPS,
0.289297401484023,36.8890169001098,13200,2018-04-14 13:03:26,1733.5130925724284,19.4000006208,0.0,0.22484300719497602,1733.5130925724284,19.4000006208,0.503999582744,0.255856008187392,1649,-13.3,99,P-GPS,
0.289297393824026,36.8890169389244,13300,2018-04-14 13:03:26,1734.0130925884282,19.900000636799998,0.0,0.22055900705788803,1734.0130925884282,19.900000636799998,0.503999582744,0.255856008187392,1649,-13.4,99,P-GPS,
0.289297346148275,36.889017008327,13400,2018-04-14 13:03:26,1734.5130926044283,20.4000006528,0.0,0.21311600681971202,1734.5130926044283,20.4000006528,0.503999582744,0.255856008187392,1644,-13.4,99,P-GPS,
0.289297285389706,36.8890170766912,13500,2018-04-14 13:03:26,1735.0130926204283,20.900000668800004,0.0,0.20608400659468804,1735.0130926204283,20.900000668800004,0.503999582744,0.255856008187392,1640,-13.7,99,P-GPS,
0.289297239024547,36.889017167702,13600,2018-04-14 13:03:26,1735.4130926332284,21.3000006816,0.0,0.19661400629164802,1735.4130926332284,21.3000006816,0.503999582744,0.255856008187392,1637,-14.1,99,P-GPS,
0.28929721785681,36.8890172463755,13700,2018-04-14 13:03:26,1735.9130926492282,21.8000006976,0.0,0.1882750060248,1735.9130926492282,21.8000006976,0.503999582744,0.255856008187392,1637,-14.6,99,P-GPS,
0.289297198016765,36.8890173563862,13800,2018-04-14 13:03:27,1736.413092665228,22.300000713600003,0.0,0.17654500564944003,1736.413092665228,22.300000713600003,0.503999582744,0.255856008187392,1635,-15.2,99,P-GPS,
0.289297190499765,36.8890174557287,13900,2018-04-14 13:03:27,1736.9130926812284,22.8000007296,0.0,0.165822005306304,1736.9130926812284,22.8000007296,0.503999582744,0.255856008187392,1629,-15.7,99,P-GPS,
0.289297202955326,36.8890175534321,14000,2018-04-14 13:03:27,1737.3130926940285,23.2000007424,0.0,0.15489000495648,1737.3130926940285,23.2000007424,0.503999582744,0.255856008187392,1620,-16.3,99,P-GPS,
0.289297228463375,36.8890176301818,14100,2018-04-14 13:03:27,1737.8130927100283,23.7000007584,0.0,0.145977004671264,1737.8130927100283,23.7000007584,0.503999582744,0.255856008187392,1621,-16.6,99,P-GPS,
0.28929725376166,36.8890177493009,14200,2018-04-14 13:03:27,1738.2130927228282,24.100000771200005,0.0,0.13244000423808,1738.2130927228282,24.100000771200005,0.503999582744,0.255856008187392,1619,-16.6,99,P-GPS,
0.289297271911686,36.8890178598557,14300,2018-04-14 13:03:27,1738.7130927388282,24.600000787200003,0.0,0.119983003839456,1738.7130927388282,24.600000787200003,0.503999582744,0.255856008187392,1615,-16.6,99,P-GPS,
0.289297273618397,36.8890179604048,14400,2018-04-14 13:03:27,1739.113092751628,25.000000800000002,0.0,0.10896800348697601,1739.113092751628,25.000000800000002,0.503999582744,0.255856008187392,1609,-16.7,99,P-GPS,
0.289297268628946,36.8890180344983,14500,2018-04-14 13:03:27,1739.6130927676284,25.500000816000004,0.0,0.1010250032328,1739.6130927676284,25.500000816000004,0.503999582744,0.255856008187392,1604,-17.4,99,P-GPS,
0.289297254858111,36.8890181242921,14600,2018-04-14 13:03:27,1740.0130927804285,25.9000008288,0.0,0.091690502934096,1740.0130927804285,25.9000008288,0.503999582744,0.255856008187392,1603,-18.7,99,P-GPS,
0.289297260148417,36.8890181986077,14700,2018-04-14 13:03:28,1740.5130927964283,26.4000008448,0.0,0.08356870267419841,1740.5130927964283,26.4000008448,0.503999582744,0.255856008187392,1604,-20.8,99,P-GPS,
0.289297298738367,36.8890183081498,14800,2018-04-14 13:03:28,1740.9130928092281,26.8000008576,0.0,0.07068000226176001,1740.9130928092281,26.8000008576,0.503999582744,0.255856008187392,1597,-22.9,99,P-GPS,
0.289297357068722,36.8890184141664,14900,2018-04-14 13:03:28,1741.4130928252282,27.3000008736,0.0,0.0576758018456256,1741.4130928252282,27.3000008736,0.503999582744,0.255856008187392,1594,-22.9,99,P-GPS,
0.289297405505873,36.8890185299522,15000,2018-04-14 13:03:28,1741.813092838028,27.7000008864,0.0,0.0440203014086496,1741.813092838028,27.7000008864,0.503999582744,0.255856008187392,1586,-25.1,99,P-GPS,
0.289297436807162,36.8890186165412,15100,2018-04-14 13:03:28,1742.2130928508282,28.1000008992,0.0,0.034019501088624005,1742.2130928508282,28.1000008992,0.503999582744,0.255856008187392,1584,-26.2,99,P-GPS,
0.289297431958622,36.8890187038228,15200,2018-04-14 13:03:28,1742.613092863628,28.500000912,0.0,0.024463300782825603,1742.613092863628,28.500000912,0.503999582744,0.255856008187392,1584,-26.2,99,P-GPS,
0.289297421289973,36.8890187677044,15300,2018-04-14 13:03:28,1743.1130928796283,29.000000928000002,0.0,0.0177964005694848,1743.1130928796283,29.000000928000002,0.503999582744,0.255856008187392,1584,-26.2,99,P-GPS,
0.289297424958247,36.8890188570865,15400,2018-04-14 13:03:28,1743.5130928924284,29.4000009408,0.0,0.0085315502730096,1743.5130928924284,29.4000009408,0.503999582744,0.255856008187392,1584,-26.2,98,P-GPS,
0.289297444248387,36.8890189343404,15500,2018-04-14 13:03:28,1743.9130929052283,29.8000009536,0.0,0.00298849009563168,1743.9130929052283,29.8000009536,0.503999582744,0.255856008187392,1585,-26.2,98,P-GPS,
0.289297465074659,36.8890190107721,15600,2018-04-14 13:03:28,1744.3130929180284,30.2000009664,0.0,0.009996530319888959,1744.3130929180284,30.2000009664,0.503999582744,0.255856008187392,1584,-26.2,98,P-GPS,
0.289297485445934,36.8890190618172,15700,2018-04-14 13:03:28,1744.7130929308282,30.6000009792,0.0,0.015795500505456,1744.7130929308282,30.6000009792,0.503999582744,0.255856008187392,1579,-26.2,98,P-GPS,
0.289297484658785,36.8890191366017,15800,2018-04-14 13:03:29,1745.2130929468283,31.100000995200002,0.0,0.024061200769958404,1745.2130929468283,31.100000995200002,0.503999582744,0.255856008187392,1580,-26.2,98,P-GPS,
0.289297488467614,36.8890191974535,15900,2018-04-14 13:03:29,1745.6130929596281,31.500001007999998,0.0,0.0308407009869024,1745.6130929596281,31.500001007999998,0.503999582744,0.255856008187392,1579,-26.2,98,P-GPS,
0.28929748783018,36.8890192623516,16000,2018-04-14 13:03:29,1746.0130929724282,31.9000010208,0.0,0.0380367012171744,1746.0130929724282,31.9000010208,0.503999582744,0.255856008187392,1575,-26.2,98,P-GPS,
0.289297493547952,36.8890193090982,16100,2018-04-14 13:03:29,1746.413092985228,32.3000010336,0.0,0.04326500138448,1746.413092985228,32.3000010336,0.503999582744,0.255856008187392,1575,-26.2,98,P-GPS,
0.289297519291616,36.8890193910649,16200,2018-04-14 13:03:29,1746.8130929980282,32.700001046400004,0.0,0.0525991016831712,1746.8130929980282,32.700001046400004,0.503999582744,0.255856008187392,1578,-26.2,98,P-GPS,
0.289297557523919,36.8890194564046,16300,2018-04-14 13:03:29,1747.213093010828,33.100001059200004,0.0,0.0603844019323008,1747.213093010828,33.100001059200004,0.503999582744,0.255856008187392,1581,-26.2,98,P-GPS,
0.289297581915363,36.88901952694,16400,2018-04-14 13:03:29,1747.6130930236284,33.500001072,0.0,0.06858310219465921,1747.6130930236284,33.500001072,0.503999582744,0.255856008187392,1582,-26.2,98,P-GPS,
0.289297605676804,36.889019565436,16500,2018-04-14 13:03:29,1748.0130930364285,33.9000010848,0.0,0.0733021023456672,1748.0130930364285,33.9000010848,0.503999582744,0.255856008187392,1582,-26.2,98,P-GPS,
0.289297643747128,36.8890196115125,16600,2018-04-14 13:03:29,1748.4130930492283,34.3000010976,0.0,0.0792588025362816,1748.4130930492283,34.3000010976,0.503999582744,0.255856008187392,1579,-26.2,98,P-GPS,
0.289297685699407,36.8890196469172,16700,2018-04-14 13:03:30,1748.8130930620284,34.7000011104,0.0,0.0843019026976608,1748.8130930620284,34.7000011104,0.503999582744,0.255856008187392,1582,-26.2,98,P-GPS,
0.289297737370393,36.8890197024615,16800,2018-04-14 13:03:30,1749.2130930748283,35.1000011232,0.0,0.0919466029422912,1749.2130930748283,35.1000011232,0.503999582744,0.255856008187392,1581,-26.2,98,P-GPS,
0.28929778742866,36.8890197389159,16900,2018-04-14 13:03:30,1749.6130930876284,35.500001136,0.0,0.0976748031255936,1749.6130930876284,35.500001136,0.503999582744,0.255856008187392,1581,-26.2,98,P-GPS,
0.289297842176998,36.8890197845475,17000,2018-04-14 13:03:30,1750.0130931004283,35.9000011488,0.0,0.104688003350016,1750.0130931004283,35.9000011488,0.503999582744,0.255856008187392,1580,-26.2,98,P-GPS,
0.289297893916455,36.8890198025014,17100,2018-04-14 13:03:30,1750.4130931132283,36.3000011616,0.0,0.10890200348486401,1750.4130931132283,36.3000011616,0.503999582744,0.255856008187392,1577,-26.2,98,P-GPS,
0.289297942703492,36.8890198347987,17200,2018-04-14 13:03:30,1750.8130931260282,36.7000011744,0.0,0.114546003665472,1750.8130931260282,36.7000011744,0.503999582744,0.255856008187392,1576,-26.2,98,P-GPS,
0.289297976431061,36.8890198511329,17300,2018-04-14 13:03:30,1751.2130931388283,37.10000118720001,0.0,0.11791400377324801,1751.2130931388283,37.10000118720001,0.503999582744,0.255856008187392,1576,-26.2,98,P-GPS,
0.289298038327377,36.8890198773791,17400,2018-04-14 13:03:30,1751.6130931516282,37.5000012,0.0,0.12386500396368001,1751.6130931516282,37.5000012,0.503999582744,0.255856008187392,1576,-26.2,98,P-GPS,
0.289298140693123,36.8890198760874,17500,2018-04-14 13:03:30,1752.0130931644283,37.9000012128,0.35999970196000003,0.129949004158368,1752.0130931644283,37.9000012128,0.503999582744,0.255856008187392,1573,-26.2,98,P-GPS,
0.289298303917537,36.8890198651882,17600,2018-04-14 13:03:30,1752.3130931740284,38.2000012224,0.7199994039200001,0.14027800448889602,1752.3130931740284,38.2000012224,0.7199994039200001,0.255856008187392,1572,-26.2,98,P-GPS,
0.289298552854868,36.8890198269272,17700,2018-04-14 13:03:30,1752.7130931868282,38.600001235200004,1.07999910588,0.157221005031072,1752.7130931868282,38.600001235200004,1.07999910588,0.255856008187392,1569,-26.2,98,P-GPS,
0.289298929257917,36.8890197791784,17800,2018-04-14 13:03:31,1753.1130931996283,39.000001248000004,1.4399988078400001,0.18850200603206402,1753.1130931996283,39.000001248000004,1.4399988078400001,0.255856008187392,1569,-26.2,98,P-GPS,
0.289299452223954,36.8890197125668,17900,2018-04-14 13:03:31,1753.5130932124282,39.4000012608,2.15999821176,0.23762000760384003,1753.5130932124282,39.4000012608,2.15999821176,0.255856008187392,1558,-26.2,98,P-GPS,
0.289300212979353,36.8890196689174,18000,2018-04-14 13:03:31,1753.9130932252283,39.800001273599996,2.9159975858759997,0.31644001012608,1753.9130932252283,39.800001273599996,2.9159975858759997,0.31644001012608,1570,-26.2,98,P-GPS,
0.289301101559971,36.8890195977253,18100,2018-04-14 13:03:31,1754.3130932380282,40.2000012864,3.275997287836,0.41107601315443204,1754.3130932380282,40.2000012864,3.275997287836,0.41107601315443204,1562,-26.2,98,P-GPS,
0.289302061503281,36.8890195403556,18200,2018-04-14 13:03:31,1754.7130932508283,40.6000012992,3.275997287836,0.5155010164960321,1754.7130932508283,40.6000012992,3.275997287836,0.5155010164960321,1500,-26.2,98,P-GPS,
0.28930292423744,36.8890194762343,18300,2018-04-14 13:03:31,1755.1130932636281,41.000001312,2.8799976156800002,0.609954019518528,1755.1130932636281,41.000001312,3.275997287836,0.609954019518528,1499,-26.2,98,P-GPS,
0.289303639851862,36.8890194877651,18400,2018-04-14 13:03:31,1755.5130932764282,41.4000013248,2.15999821176,0.689289022057248,1755.5130932764282,41.4000013248,3.275997287836,0.689289022057248,1514,-26.2,98,P-GPS,
0.289304213084912,36.8890194999234,18500,2018-04-14 13:03:31,1755.9130932892283,41.80000133760001,1.7999985098000002,0.752906024092992,1755.9130932892283,41.80000133760001,3.275997287836,0.752906024092992,1517,-26.2,98,P-GPS,
0.289304601159401,36.8890195376738,18600,2018-04-14 13:03:31,1756.3130933020282,42.2000013504,1.07999910588,0.796263025480416,1756.3130933020282,42.2000013504,3.275997287836,0.796263025480416,1501,-26.2,98,P-GPS,
0.289304833148347,36.8890195709673,18700,2018-04-14 13:03:31,1756.6130933116283,42.50000136,0.7199994039200001,0.8222860263131521,1756.6130933116283,42.50000136,3.275997287836,0.8222860263131521,1505,-26.2,98,P-GPS,
0.28930494938383,36.8890196438917,18800,2018-04-14 13:03:32,1757.0130933244282,42.900001372800006,0.35999970196000003,0.835904026748928,1757.0130933244282,42.900001372800006,3.275997287836,0.835904026748928,1514,-26.2,98,P-GPS,
0.289305014745093,36.8890196927988,18900,2018-04-14 13:03:32,1757.3130933340283,43.2000013824,0.0,0.8436750269976,1757.3130933340283,43.2000013824,3.275997287836,0.8436750269976,1519,-26.2,98,P-GPS,
0.289305067576295,36.8890197500415,19000,2018-04-14 13:03:32,1757.7130933468284,43.6000013952,0.0,0.850186027205952,1757.7130933468284,43.6000013952,3.275997287836,0.850186027205952,1509,-26.2,98,P-GPS,
0.28930509622836,36.8890197992639,19100,2018-04-14 13:03:32,1758.0130933564283,43.9000014048,0.0,0.8539630273268161,1758.0130933564283,43.9000014048,3.275997287836,0.8539630273268161,1501,-26.2,98,P-GPS,
0.289305148912187,36.8890198446916,19200,2018-04-14 13:03:32,1758.3130933660282,44.2000014144,0.0,0.8603720275319041,1758.3130933660282,44.2000014144,3.275997287836,0.8603720275319041,1503,-26.2,98,P-GPS,
0.289305189847198,36.8890198824259,19300,2018-04-14 13:03:32,1758.613093375628,44.500001424,0.0,0.8654000276928001,1758.613093375628,44.500001424,3.275997287836,0.8654000276928001,1501,-26.2,98,P-GPS,
0.289305284190287,36.8890199010105,19400,2018-04-14 13:03:32,1758.9130933852282,44.8000014336,0.0,0.8760670280341442,1758.9130933852282,44.8000014336,3.275997287836,0.8760670280341442,1513,-26.2,98,P-GPS,
0.289305342631885,36.8890199103579,19500,2018-04-14 13:03:32,1759.2130933948283,45.1000014432,0.0,0.8826450282446401,1759.2130933948283,45.1000014432,3.275997287836,0.8826450282446401,1521,-26.2,98,P-GPS,
0.289305455843754,36.8890199257365,19600,2018-04-14 13:03:32,1759.5130934044284,45.4000014528,0.0,0.8953500286512,1759.5130934044284,45.4000014528,3.275997287836,0.8953500286512,1516,-26.2,98,P-GPS,
0.289305538984777,36.889019946148,19700,2018-04-14 13:03:32,1759.8130934140281,45.7000014624,0.0,0.9048070289538241,1759.8130934140281,45.7000014624,3.275997287836,0.9048070289538241,1516,-26.2,98,P-GPS,
0.289305660142639,36.8890199432665,19800,2018-04-14 13:03:33,1760.2130934268282,46.1000014752,0.0,0.9181350293803201,1760.2130934268282,46.1000014752,3.275997287836,0.9181350293803201,1509,-26.2,98,P-GPS,
0.289305716735139,36.8890199244758,19900,2018-04-14 13:03:33,1760.513093436428,46.4000014848,0.0,0.924126029572032,1760.513093436428,46.4000014848,3.275997287836,0.924126029572032,1511,-26.2,98,P-GPS,
0.289305815354521,36.8890198910089,20000,2018-04-14 13:03:33,1760.8130934460282,46.7000014944,0.0,0.9345770299064641,1760.8130934460282,46.7000014944,3.275997287836,0.9345770299064641,1522,-26.2,98,P-GPS,
0.289305875058978,36.8890198412186,20100,2018-04-14 13:03:33,1761.2130934588283,47.100001507200005,0.0,0.9405530300976961,1761.2130934588283,47.100001507200005,3.275997287836,0.9405530300976961,1534,-26.2,98,P-GPS,
0.289305986382666,36.8890198190379,20200,2018-04-14 13:03:33,1761.5130934684282,47.4000015168,0.0,0.9525990304831681,1761.5130934684282,47.4000015168,3.275997287836,0.9525990304831681,1548,-26.2,98,P-GPS,
0.289306046171802,36.8890198105261,20300,2018-04-14 13:03:33,1761.8130934780283,47.70000152640001,0.0,0.959113030691616,1761.8130934780283,47.70000152640001,3.275997287836,0.959113030691616,1554,-26.2,98,P-GPS,
0.289306114626702,36.889019837623,20400,2018-04-14 13:03:33,1762.2130934908284,48.1000015392,0.0,0.9669990309439681,1762.2130934908284,48.1000015392,3.275997287836,0.9669990309439681,1561,-26.2,98,P-GPS,
0.289306131598346,36.8890198658129,20500,2018-04-14 13:03:33,1762.513093500428,48.4000015488,0.0,0.96921003101472,1762.513093500428,48.4000015488,3.275997287836,0.96921003101472,1571,-26.2,98,P-GPS,
0.289306148214174,36.8890199015302,20600,2018-04-14 13:03:33,1762.9130935132282,48.800001561600006,0.35999970196000003,0.9714850310875199,1762.9130935132282,48.800001561600006,3.275997287836,0.9714850310875199,1577,-26.2,98,P-GPS,
0.289306128207111,36.889019926147,20700,2018-04-14 13:03:33,1763.213093522828,49.1000015712,0.0,0.969586031026752,1763.213093522828,49.1000015712,3.275997287836,0.9714850310875199,1590,-26.2,98,P-GPS,
0.28930611873201,36.8890199433457,20800,2018-04-14 13:03:34,1763.6130935356282,49.500001584,0.0,0.968762031000384,1763.6130935356282,49.500001584,3.275997287836,0.9714850310875199,1618,-26.2,98,P-GPS,
0.289306099487058,36.8890199266063,20900,2018-04-14 13:03:34,1764.013093548428,49.9000015968,0.0,0.96642003092544,1764.013093548428,49.9000015968,3.275997287836,0.9714850310875199,1684,-26.2,98,P-GPS,
0.28930611153103,36.889019890639,21000,2018-04-14 13:03:34,1764.3130935580282,50.20000160640001,0.0,0.967296030953472,1764.3130935580282,50.20000160640001,3.275997287836,0.9714850310875199,1684,-26.2,98,P-GPS,
0.289306110325982,36.8890198503952,21100,2018-04-14 13:03:34,1764.7130935708283,50.6000016192,0.0,0.9666740309335681,1764.7130935708283,50.6000016192,3.275997287836,0.9714850310875199,1684,-26.2,98,P-GPS,
0.28930612842288,36.8890198376669,21200,2018-04-14 13:03:34,1765.213093586828,51.1000016352,0.0,0.9685250309928,1765.213093586828,51.1000016352,3.275997287836,0.9714850310875199,1684,-26.2,98,P-GPS,
0.289306126760238,36.8890198246853,21300,2018-04-14 13:03:34,1765.6130935996284,51.500001648,0.0,0.96819003098208,1765.6130935996284,51.500001648,3.275997287836,0.9714850310875199,1684,-26.2,98,P-GPS,
0.289306120125143,36.8890198392728,21400,2018-04-14 13:03:34,1766.1130936156283,52.000001664,0.0,0.967626030964032,1766.1130936156283,52.000001664,3.275997287836,0.9714850310875199,1684,-26.2,98,P-GPS,
0.289306096812339,36.8890198634485,21500,2018-04-14 13:03:34,1766.6130936316283,52.500001680000004,0.0,0.965336030890752,1766.6130936316283,52.500001680000004,3.275997287836,0.9714850310875199,1684,-26.2,98,P-GPS,
0.289306082044795,36.889019901261,21600,2018-04-14 13:03:34,1767.2130936508283,53.1000016992,0.0,0.96417003085344,1767.2130936508283,53.1000016992,3.275997287836,0.9714850310875199,1684,-26.2,98,P-GPS,
0.289306052680693,36.8890199039953,21700,2018-04-14 13:03:34,1767.7130936668282,53.6000017152,0.0,0.9609600307507201,1767.7130936668282,53.6000017152,3.275997287836,0.9714850310875199,1684,-26.2,98,P-GPS,
0.289306022354994,36.8890199064957,21800,2018-04-14 13:03:35,1768.2130936828282,54.1000017312,0.0,0.9576420306445441,1768.2130936828282,54.1000017312,3.275997287836,0.9714850310875199,1684,-26.2,98,P-GPS,
0.289305992397324,36.8890198885096,21900,2018-04-14 13:03:35,1768.7130936988283,54.6000017472,0.0,0.9541040305313281,1768.7130936988283,54.6000017472,3.275997287836,0.9714850310875199,1684,-26.2,98,P-GPS,
0.289305984742009,36.8890199017925,22000,2018-04-14 13:03:35,1769.2130937148283,55.1000017632,0.0,0.953426030509632,1769.2130937148283,55.1000017632,3.275997287836,0.9714850310875199,1684,-26.2,98,P-GPS,
0.289305948125632,36.8890199217041,22100,2018-04-14 13:03:35,1769.6130937276282,55.500001776000005,0.0,0.9496380303884161,1769.6130937276282,55.500001776000005,3.275997287836,0.9714850310875199,1684,-26.2,98,P-GPS,
0.289305898551725,36.8890199699913,22200,2018-04-14 13:03:35,1770.1130937436283,56.000001792,0.0,0.9448120302339841,1770.1130937436283,56.000001792,3.275997287836,0.9714850310875199,1684,-26.2,98,P-GPS,
0.289305825855542,36.8890200024743,22300,2018-04-14 13:03:35,1770.6130937596283,56.500001808,0.0,0.937246029991872,1770.6130937596283,56.500001808,3.275997287836,0.9714850310875199,1684,-26.2,98,P-GPS,
0.289305752578005,36.8890200265371,22400,2018-04-14 13:03:35,1771.1130937756284,57.000001824,0.0,0.9295160297445121,1771.1130937756284,57.000001824,3.275997287836,0.9714850310875199,1684,-26.2,98,P-GPS,
0.28930564196269,36.8890200190263,22500,2018-04-14 13:03:35,1771.6130937916282,57.50000184,0.35999970196000003,0.9172130293508161,1771.6130937916282,57.50000184,3.275997287836,0.9714850310875199,1684,-26.2,98,P-GPS,
0.289305487371244,36.889020040039,22600,2018-04-14 13:03:35,1772.1130938076283,58.000001856000004,0.35999970196000003,0.9004970288159041,1772.1130938076283,58.000001856000004,3.275997287836,0.9714850310875199,1684,-26.2,98,P-GPS,
0.289305310458717,36.8890200603456,22700,2018-04-14 13:03:35,1772.6130938236283,58.500001872,0.35999970196000003,0.881338028202816,1772.6130938236283,58.500001872,3.275997287836,0.9714850310875199,1684,-26.2,98,P-GPS,
0.28930516932799,36.8890200735428,22800,2018-04-14 13:03:36,1773.1130938396282,59.000001888,0.35999970196000003,0.8660250277128001,1773.1130938396282,59.000001888,3.275997287836,0.9714850310875199,1684,-26.2,98,P-GPS,
0.289305041603834,36.8890200459369,22900,2018-04-14 13:03:36,1773.6130938556282,59.500001904,0.35999970196000003,0.8515240272487681,1773.6130938556282,59.500001904,3.275997287836,0.9714850310875199,1684,-26.2,98,P-GPS,
0.289304937225867,36.8890199992748,23000,2018-04-14 13:03:36,1774.1130938716283,60.00000192,0.35999970196000003,0.839287026857184,1774.1130938716283,60.00000192,3.275997287836,0.9714850310875199,1684,-26.2,98,P-GPS,
0.289304837167754,36.8890199328378,23100,2018-04-14 13:03:36,1774.6130938876283,60.500001936000004,0.0,0.827239026471648,1774.6130938876283,60.500001936000004,3.275997287836,0.9714850310875199,1684,-26.2,98,P-GPS,
0.2893047425633,36.8890199041323,23200,2018-04-14 13:03:36,1775.1130939036282,61.000001952,0.0,0.8163830261242561,1775.1130939036282,61.000001952,3.275997287836,0.9714850310875199,1684,-26.2,98,P-GPS,
0.289304648405854,36.8890198783132,23300,2018-04-14 13:03:36,1775.6130939196285,61.500001968,0.0,0.8056240257799681,1775.6130939196285,61.500001968,3.275997287836,0.9714850310875199,1671,-26.2,98,P-GPS,
0.289304571532305,36.8890198975969,23400,2018-04-14 13:03:36,1776.1130939356283,62.000001984,0.0,0.7974400255180801,1776.1130939356283,62.000001984,3.275997287836,0.9714850310875199,1669,-26.2,98,P-GPS,
0.289304480492922,36.8890199170534,23500,2018-04-14 13:03:36,1776.6130939516281,62.50000200000001,0.0,0.7877130252068161,1776.6130939516281,62.50000200000001,3.275997287836,0.9714850310875199,1667,-26.2,98,P-GPS,
0.289304379258665,36.8890199693232,23600,2018-04-14 13:03:36,1777.1130939676284,63.000002015999996,0.35999970196000003,0.777419024877408,1777.1130939676284,63.000002015999996,3.275997287836,0.9714850310875199,1664,-26.2,98,P-GPS,
0.289304268938098,36.8890200092068,23700,2018-04-14 13:03:37,1777.6130939836282,63.500002032,0.35999970196000003,0.76598002451136,1777.6130939836282,63.500002032,3.275997287836,0.9714850310875199,1661,-26.2,98,P-GPS,
0.289304136540309,36.8890200873241,23800,2018-04-14 13:03:37,1778.1130939996283,64.000002048,0.35999970196000003,0.7528930240925761,1778.1130939996283,64.000002048,3.275997287836,0.9714850310875199,1662,-26.2,98,P-GPS,
0.289304002902459,36.8890201411769,23900,2018-04-14 13:03:37,1778.6130940156281,64.500002064,0.35999970196000003,0.739334023658688,1778.6130940156281,64.500002064,3.275997287836,0.9714850310875199,1662,-26.2,98,P-GPS,
0.289303861361771,36.8890202190694,24000,2018-04-14 13:03:37,1779.0130940284284,64.9000020768,0.0,0.7255400232172801,1779.0130940284284,64.9000020768,3.275997287836,0.9714850310875199,1665,-26.2,98,P-GPS,
0.289303742824076,36.8890202729815,24100,2018-04-14 13:03:37,1779.5130940444283,65.40000209280001,0.0,0.71386502284368,1779.5130940444283,65.40000209280001,3.275997287836,0.9714850310875199,1669,-26.2,98,P-GPS,
0.289303643239026,36.8890203317761,24200,2018-04-14 13:03:37,1780.013094060428,65.90000210880001,0.0,0.70447002254304,1780.013094060428,65.90000210880001,3.275997287836,0.9714850310875199,1671,-26.2,98,P-GPS,
0.289303566674882,36.8890203634953,24300,2018-04-14 13:03:37,1780.5130940764282,66.40000212480001,0.0,0.696976022303232,1780.5130940764282,66.40000212480001,3.275997287836,0.9714850310875199,1669,-26.2,98,P-GPS,
0.289303504756963,36.8890204060179,24400,2018-04-14 13:03:37,1781.0130940924282,66.9000021408,0.0,0.691391022124512,1781.0130940924282,66.9000021408,3.275997287836,0.9714850310875199,1670,-26.2,98,P-GPS,
0.28930345922974,36.8890204329932,24500,2018-04-14 13:03:37,1781.5130941084283,67.4000021568,0.0,0.687204021990528,1781.5130941084283,67.4000021568,3.275997287836,0.9714850310875199,1671,-26.2,98,P-GPS,
0.289303412262158,36.889020470462,24600,2018-04-14 13:03:37,1782.013094124428,67.9000021728,0.0,0.6831800218617601,1782.013094124428,67.9000021728,3.275997287836,0.9714850310875199,1668,-26.2,98,P-GPS,
0.289303377704541,36.8890204876419,24700,2018-04-14 13:03:37,1782.5130941404284,68.4000021888,0.0,0.679949021758368,1782.5130941404284,68.4000021888,3.275997287836,0.9714850310875199,1669,-26.2,98,P-GPS,
0.289303344470848,36.8890205257628,24800,2018-04-14 13:03:38,1782.9130941532283,68.8000022016,0.0,0.677481021679392,1782.9130941532283,68.8000022016,3.275997287836,0.9714850310875199,1669,-26.2,98,P-GPS,
0.289303314401223,36.8890205456224,24900,2018-04-14 13:03:38,1783.4130941692283,69.30000221760001,0.0,0.6748440215950081,1783.4130941692283,69.30000221760001,3.275997287836,0.9714850310875199,1667,-26.2,98,P-GPS,
0.289303292211231,36.8890205710395,25000,2018-04-14 13:03:38,1783.9130941852281,69.80000223360001,0.0,0.673231021543392,1783.9130941852281,69.80000223360001,3.275997287836,0.9714850310875199,1665,-26.2,98,P-GPS,
0.289303287293737,36.8890205671789,25100,2018-04-14 13:03:38,1784.4130942012284,70.30000224960001,0.0,0.672588021522816,1784.4130942012284,70.30000224960001,3.275997287836,0.9714850310875199,1665,-26.2,98,P-GPS,
0.28930327876924,36.8890205794972,25200,2018-04-14 13:03:38,1784.8130942140283,70.7000022624,0.0,0.6720510215056321,1784.8130942140283,70.7000022624,3.275997287836,0.9714850310875199,1665,-26.2,98,P-GPS,
0.289303273165764,36.8890205804297,25300,2018-04-14 13:03:38,1785.3130942300284,71.2000022784,0.0,0.67148002148736,1785.3130942300284,71.2000022784,3.275997287836,0.9714850310875199,1664,-26.2,98,P-GPS,
0.289303270695822,36.8890206250298,25400,2018-04-14 13:03:38,1785.8130942460282,71.70000229440001,0.0,0.6725970215231041,1785.8130942460282,71.70000229440001,3.275997287836,0.9714850310875199,1663,-26.2,98,P-GPS,
0.289303283132248,36.8890206571215,25500,2018-04-14 13:03:38,1786.3130942620285,72.2000023104,0.0,0.6749360215979521,1786.3130942620285,72.2000023104,3.275997287836,0.9714850310875199,1663,-26.2,98,P-GPS,
0.289303334708327,36.8890207019887,25600,2018-04-14 13:03:38,1786.7130942748283,72.6000023232,0.0,0.681866021819712,1786.7130942748283,72.6000023232,3.275997287836,0.9714850310875199,1661,-26.2,98,P-GPS,
0.289303402257812,36.8890207201016,25700,2018-04-14 13:03:39,1787.2130942908282,73.1000023392,0.0,0.6896400220684801,1787.2130942908282,73.1000023392,3.275997287836,0.9714850310875199,1662,-26.2,98,P-GPS,
0.289303481508075,36.8890207709567,25800,2018-04-14 13:03:39,1787.7130943068282,73.6000023552,0.0,0.6997200223910401,1787.7130943068282,73.6000023552,3.275997287836,0.9714850310875199,1664,-26.2,98,P-GPS,
0.28930354746942,36.8890207976617,25900,2018-04-14 13:03:39,1788.2130943228283,74.1000023712,0.0,0.70760502264336,1788.2130943228283,74.1000023712,3.275997287836,0.9714850310875199,1662,-26.2,98,P-GPS,
0.289303609890528,36.8890208261155,26000,2018-04-14 13:03:39,1788.6130943356284,74.50000238400001,0.0,0.7151710228854721,1788.6130943356284,74.50000238400001,3.275997287836,0.9714850310875199,1660,-26.2,98,P-GPS,
0.28930366450569,36.8890208227485,26100,2018-04-14 13:03:39,1789.1130943516282,75.0000024,0.0,0.7208650230676801,1789.1130943516282,75.0000024,3.275997287836,0.9714850310875199,1660,-26.2,98,P-GPS,
0.289303724074986,36.8890208191208,26200,2018-04-14 13:03:39,1789.5130943644283,75.4000024128,0.0,0.7270830232666561,1789.5130943644283,75.4000024128,3.275997287836,0.9714850310875199,1660,-26.2,98,P-GPS,
0.289303768950424,36.8890207948487,26300,2018-04-14 13:03:39,1790.0130943804281,75.90000242880001,0.0,0.731086023394752,1790.0130943804281,75.90000242880001,3.275997287836,0.9714850310875199,1656,-26.2,98,P-GPS,
0.289303806826403,36.8890207855688,26400,2018-04-14 13:03:39,1790.5130943964284,76.4000024448,0.0,0.734832023514624,1790.5130943964284,76.4000024448,3.275997287836,0.9714850310875199,1655,-26.2,98,P-GPS,
0.289303833927375,36.8890207591458,26500,2018-04-14 13:03:39,1791.0130944124282,76.9000024608,0.0,0.736904023580928,1791.0130944124282,76.9000024608,3.275997287836,0.9714850310875199,1650,-26.2,98,P-GPS,
0.289303861658555,36.8890207487032,26600,2018-04-14 13:03:39,1791.5130944284283,77.4000024768,0.0,0.7395470236655041,1791.5130944284283,77.4000024768,3.275997287836,0.9714850310875199,1650,-26.2,98,P-GPS,
0.289303882105705,36.8890207183806,26700,2018-04-14 13:03:39,1791.9130944412282,77.8000024896,0.0,0.740817023706144,1791.9130944412282,77.8000024896,3.275997287836,0.9714850310875199,1648,-26.2,98,P-GPS,
0.289303917932694,36.889020713094,26800,2018-04-14 13:03:40,1792.4130944572285,78.3000025056,0.0,0.744496023823872,1792.4130944572285,78.3000025056,3.275997287836,0.9714850310875199,1644,-26.2,98,P-GPS,
0.289303949931212,36.8890206883942,26900,2018-04-14 13:03:40,1792.9130944732283,78.8000025216,0.0,0.747198023910336,1792.9130944732283,78.8000025216,3.275997287836,0.9714850310875199,1640,-26.2,98,P-GPS,
0.289303993499417,36.8890207041251,27000,2018-04-14 13:03:40,1793.4130944892281,79.30000253760001,0.0,0.752333024074656,1793.4130944892281,79.30000253760001,3.275997287836,0.9714850310875199,1637,-26.2,98,P-GPS,
0.289304023355716,36.8890207213328,27100,2018-04-14 13:03:40,1793.9130945052282,79.80000255360001,0.0,0.756041024193312,1793.9130945052282,79.80000255360001,3.275997287836,0.9714850310875199,1618,-26.2,98,P-GPS,
0.28930406860244,36.8890207694225,27200,2018-04-14 13:03:40,1794.4130945212282,80.30000256960001,0.0,0.7623180243941761,1794.4130945212282,80.30000256960001,3.275997287836,0.9714850310875199,1615,-26.2,98,P-GPS,
0.289304105720785,36.8890207877415,27300,2018-04-14 13:03:40,1794.8130945340283,80.7000025824,0.0,0.766843024538976,1794.8130945340283,80.7000025824,3.275997287836,0.9714850310875199,1604,-26.2,98,P-GPS,
0.289304137267816,36.8890208284404,27400,2018-04-14 13:03:40,1795.2130945468282,81.1000025952,0.0,0.771453024686496,1795.2130945468282,81.1000025952,3.275997287836,0.9714850310875199,1568,-26.2,97,P-GPS,
0.289304158277594,36.8890208477315,27500,2018-04-14 13:03:40,1795.7130945628282,81.6000026112,0.0,0.774291024777312,1795.7130945628282,81.6000026112,3.275997287836,0.9714850310875199,1071,-26.2,97,P-GPS,
0.289304188842673,36.8890208819376,27600,2018-04-14 13:03:40,1796.113094575628,82.000002624,0.0,0.7786140249156481,1796.113094575628,82.000002624,3.275997287836,0.9714850310875199,1024,-26.2,97,P-GPS,
0.289304204483878,36.8890208824692,27700,2018-04-14 13:03:41,1796.5130945884282,82.4000026368,0.0,0.780301024969632,1796.5130945884282,82.4000026368,3.275997287836,0.9714850310875199,1024,-26.2,97,P-GPS,
0.289304203483606,36.8890208859492,27800,2018-04-14 13:03:41,1796.8130945980283,82.70000264640001,0.0,0.780302024969664,1796.8130945980283,82.70000264640001,3.275997287836,0.9714850310875199,1024,-26.2,97,P-GPS,
0.289304190345727,36.8890208612371,27900,2018-04-14 13:03:41,1797.1130946076282,83.000002656,0.0,0.778133024900256,1797.1130946076282,83.000002656,3.275997287836,0.9714850310875199,976,-26.2,97,P-GPS,
0.289304174408146,36.8890208767549,28000,2018-04-14 13:03:41,1797.2130946108282,83.10000265920002,0.0,0.7769120248611839,1797.2130946108282,83.10000265920002,3.275997287836,0.9714850310875199,863,-26.2,97,P-GPS,
0.289304147487524,36.8890208793703,28100,2018-04-14 13:03:41,1797.4130946172284,83.3000026656,0.0,0.77412002477184,1797.4130946172284,83.3000026656,3.275997287836,0.9714850310875199,765,-26.2,97,P-GPS,
0.28930413134598,36.8890208822556,28200,2018-04-14 13:03:41,1797.4130946172284,83.3000026656,0.0,0.7724880247196161,1797.4130946172284,83.3000026656,3.275997287836,0.9714850310875199,661,-26.2,97,P-GPS,
0.28930410505638,36.8890208560912,28300,2018-04-14 13:03:41,1797.5130946204283,83.4000026688,0.0,0.76886502460368,1797.5130946204283,83.4000026688,3.275997287836,0.9714850310875199,597,-26.2,97,P-GPS,
0.289304088205648,36.8890208499787,28400,2018-04-14 13:03:41,1797.5130946204283,83.4000026688,0.0,0.76687502454,1797.5130946204283,83.4000026688,3.275997287836,0.9714850310875199,602,-26.2,97,P-GPS,
0.289304070666492,36.8890208280598,28500,2018-04-14 13:03:41,1797.4130946172284,83.3000026656,0.0,0.764323024458336,1797.5130946204283,83.4000026688,3.275997287836,0.9714850310875199,615,-26.2,97,P-GPS,
0.289304056005611,36.8890208112064,28600,2018-04-14 13:03:41,1797.2130946108282,83.10000265920002,0.0,0.762238024391616,1797.5130946204283,83.4000026688,3.275997287836,0.9714850310875199,615,-26.2,97,P-GPS,
0.289304031607042,36.8890207926577,28700,2018-04-14 13:03:41,1797.1130946076282,83.000002656,0.35999970196000003,0.759062024289984,1797.5130946204283,83.4000026688,3.275997287836,0.9714850310875199,627,-26.2,97,P-GPS,
0.289303986841931,36.8890208016657,28800,2018-04-14 13:03:42,1796.913094601228,82.8000026496,0.35999970196000003,0.7545530241456961,1797.5130946204283,83.4000026688,3.275997287836,0.9714850310875199,633,-26.2,97,P-GPS,
0.289303930916685,36.8890208030565,28900,2018-04-14 13:03:42,1796.8130945980283,82.70000264640001,0.35999970196000003,0.748623023955936,1797.5130946204283,83.4000026688,3.275997287836,0.9714850310875199,675,-26.2,97,P-GPS,
0.289303881415652,36.8890208509781,29000,2018-04-14 13:03:42,1796.7130945948284,82.60000264320001,0.35999970196000003,0.7448570238354241,1797.5130946204283,83.4000026688,3.275997287836,0.9714850310875199,713,-26.2,97,P-GPS,
0.289303866032149,36.889020886545,29100,2018-04-14 13:03:42,1796.6130945916282,82.50000264,0.35999970196000003,0.744371023819872,1797.5130946204283,83.4000026688,3.275997287836,0.9714850310875199,769,-26.2,97,P-GPS,
0.289303901165828,36.8890209246615,29200,2018-04-14 13:03:42,1796.5130945884282,82.4000026368,0.35999970196000003,0.749356023979392,1797.5130946204283,83.4000026688,3.275997287836,0.9714850310875199,796,-26.2,97,P-GPS,
0.28930398005824,36.8890209248911,29300,2018-04-14 13:03:42,1796.5130945884282,82.4000026368,0.0,0.757744024247808,1797.5130946204283,83.4000026688,3.275997287836,0.9714850310875199,809,-26.2,97,P-GPS,
0.289304147657696,36.8890209328328,29400,2018-04-14 13:03:42,1796.4130945852282,82.3000026336,0.0,0.7758320248266241,1797.5130946204283,83.4000026688,3.275997287836,0.9714850310875199,791,-26.2,97,P-GPS,
0.289304363774606,36.8890208913279,29500,2018-04-14 13:03:42,1796.4130945852282,82.3000026336,0.0,0.7975940255230081,1797.5130946204283,83.4000026688,3.275997287836,0.9714850310875199,675,-26.2,97,P-GPS,
0.289304639915147,36.8890208411783,29600,2018-04-14 13:03:42,1796.4130945852282,82.3000026336,0.35999970196000003,0.825704026422528,1797.5130946204283,83.4000026688,3.275997287836,0.9714850310875199,668,-26.2,97,P-GPS,
0.289304923808709,36.8890207852642,29700,2018-04-14 13:03:43,1796.3130945820283,82.20000263040001,0.35999970196000003,0.85471002735072,1797.5130946204283,83.4000026688,3.275997287836,0.9714850310875199,648,-26.2,97,P-GPS,
0.289305272038024,36.8890208262012,29800,2018-04-14 13:03:43,1796.113094575628,82.000002624,0.35999970196000003,0.8933970285887041,1797.5130946204283,83.4000026688,3.275997287836,0.9714850310875199,630,-26.2,97,P-GPS,
0.289305629130551,36.8890208536599,29900,2018-04-14 13:03:43,1796.0130945724284,81.90000262080001,0.7199994039200001,0.9327210298470721,1797.5130946204283,83.4000026688,3.275997287836,0.9714850310875199,602,-26.2,97,P-GPS,
0.289305999647157,36.8890209382667,30000,2018-04-14 13:03:43,1795.8130945660282,81.7000026144,0.7199994039200001,0.9749840311994881,1797.5130946204283,83.4000026688,3.275997287836,0.9749840311994881,584,-26.2,97,P-GPS,
0.289306329877687,36.8890210067213,30100,2018-04-14 13:03:43,1795.5130945564283,81.40000260480001,0.35999970196000003,1.01247003239904,1797.5130946204283,83.4000026688,3.275997287836,1.01247003239904,593,-26.2,97,P-GPS,
0.289306643823776,36.889021138648,30200,2018-04-14 13:03:43,1795.3130945500282,81.2000025984,0.35999970196000003,1.04984003359488,1797.5130946204283,83.4000026688,3.275997287836,1.04984003359488,592,-26.2,97,P-GPS,
0.289306936289876,36.8890212392222,30300,2018-04-14 13:03:43,1795.1130945436284,81.000002592,0.35999970196000003,1.0840800346905601,1797.5130946204283,83.4000026688,3.275997287836,1.0840800346905601,611,-26.2,97,P-GPS,
0.289307197844037,36.8890213905005,30400,2018-04-14 13:03:43,1794.9130945372283,80.80000258560001,0.35999970196000003,1.1163800357241602,1797.5130946204283,83.4000026688,3.275997287836,1.1163800357241602,648,-26.2,97,P-GPS,
0.289307412533208,36.889021501141,30500,2018-04-14 13:03:43,1794.6130945276282,80.500002576,0.35999970196000003,1.14256003656192,1797.5130946204283,83.4000026688,3.275997287836,1.14256003656192,709,-26.2,97,P-GPS,
0.289307589399324,36.8890216595843,30600,2018-04-14 13:03:43,1794.4130945212282,80.30000256960001,0.0,1.1660900373148801,1797.5130946204283,83.4000026688,3.275997287836,1.1660900373148801,740,-26.2,97,P-GPS,
0.289307726040432,36.8890217400687,30700,2018-04-14 13:03:43,1794.313094518028,80.20000256640002,0.0,1.1831000378592,1797.5130946204283,83.4000026688,3.275997287836,1.1831000378592,762,-26.2,97,P-GPS,
0.289307859155958,36.8890218047318,30800,2018-04-14 13:03:44,1794.2130945148283,80.1000025632,0.0,1.19929003837728,1797.5130946204283,83.4000026688,3.275997287836,1.19929003837728,805,-26.2,97,P-GPS,
0.289308003383172,36.889021790525,30900,2018-04-14 13:03:44,1794.1130945116283,80.00000256,0.35999970196000003,1.21433003885856,1797.5130946204283,83.4000026688,3.275997287836,1.21433003885856,876,-26.2,97,P-GPS,
0.289308158456636,36.8890217845891,31000,2018-04-14 13:03:44,1794.1130945116283,80.00000256,0.35999970196000003,1.23081003938592,1797.5130946204283,83.4000026688,3.275997287836,1.23081003938592,1024,-26.2,97,P-GPS,
0.289308307537428,36.8890217147651,31100,2018-04-14 13:03:44,1794.0130945084284,79.9000025568,0.35999970196000003,1.24487003983584,1797.5130946204283,83.4000026688,3.275997287836,1.24487003983584,1024,-26.2,97,P-GPS,
0.289308468578325,36.8890216964194,31200,2018-04-14 13:03:44,1794.1130945116283,80.00000256,0.35999970196000003,1.26172004037504,1797.5130946204283,83.4000026688,3.275997287836,1.26172004037504,1024,-26.2,97,P-GPS,
0.289308603204233,36.8890216393827,31300,2018-04-14 13:03:44,1794.1130945116283,80.00000256,0.35999970196000003,1.2747200407910402,1797.5130946204283,83.4000026688,3.275997287836,1.2747200407910402,1024,-26.2,97,P-GPS,
0.289308732987149,36.8890216614654,31400,2018-04-14 13:03:44,1794.1130945116283,80.00000256,0.35999970196000003,1.2893200412582402,1797.5130946204283,83.4000026688,3.275997287836,1.2893200412582402,1024,-26.2,97,P-GPS,
0.289308846506794,36.8890216573366,31500,2018-04-14 13:03:44,1794.1130945116283,80.00000256,0.35999970196000003,1.3014900416476802,1797.5130946204283,83.4000026688,3.275997287836,1.3014900416476802,1024,-26.2,97,P-GPS,
0.289308979869029,36.8890217321115,31600,2018-04-14 13:03:44,1794.2130945148283,80.1000025632,0.0,1.31786004217152,1797.5130946204283,83.4000026688,3.275997287836,1.31786004217152,1024,-26.2,97,P-GPS,
0.289309074704723,36.8890217838236,31700,2018-04-14 13:03:45,1794.2130945148283,80.1000025632,0.0,1.3294700425430401,1797.5130946204283,83.4000026688,3.275997287836,1.3294700425430401,1024,-26.2,97,P-GPS,
0.289309138224623,36.889021917589,31800,2018-04-14 13:03:45,1794.2130945148283,80.1000025632,0.0,1.3399500428784001,1797.5130946204283,83.4000026688,3.275997287836,1.3399500428784001,1024,-26.2,97,P-GPS,
0.2893091580607,36.8890220061832,31900,2018-04-14 13:03:45,1794.2130945148283,80.1000025632,0.0,1.3445700430262402,1797.5130946204283,83.4000026688,3.275997287836,1.3445700430262402,1024,-26.2,97,P-GPS,
0.289309154232228,36.8890221807947,32000,2018-04-14 13:03:45,1794.2130945148283,80.1000025632,0.0,1.349250043176,1797.5130946204283,83.4000026688,3.275997287836,1.349250043176,1024,-26.2,97,P-GPS,
0.289309116874094,36.8890222810424,32100,2018-04-14 13:03:45,1794.2130945148283,80.1000025632,0.0,1.3482900431452802,1797.5130946204283,83.4000026688,3.275997287836,1.349250043176,1024,-26.2,97,P-GPS,
0.28930905881518,36.8890223919083,32200,2018-04-14 13:03:45,1794.2130945148283,80.1000025632,0.0,1.34557004305824,1797.5130946204283,83.4000026688,3.275997287836,1.349250043176,1024,-26.2,97,P-GPS,
0.28930897627831,36.8890224505289,32300,2018-04-14 13:03:45,1794.2130945148283,80.1000025632,0.35999970196000003,1.33868004283776,1797.5130946204283,83.4000026688,3.275997287836,1.349250043176,1024,-26.2,97,P-GPS,
0.289308900683497,36.8890226015155,32400,2018-04-14 13:03:45,1794.1130945116283,80.00000256,0.35999970196000003,1.3356900427420801,1797.5130946204283,83.4000026688,3.275997287836,1.349250043176,1024,-26.2,97,P-GPS,
0.28930879735384,36.8890227286609,32500,2018-04-14 13:03:45,1794.1130945116283,80.00000256,0.35999970196000003,1.3292000425344,1797.5130946204283,83.4000026688,3.275997287836,1.349250043176,1024,-26.2,97,P-GPS,
0.289308694483405,36.8890229177094,32600,2018-04-14 13:03:45,1794.1130945116283,80.00000256,0.35999970196000003,1.32526004240832,1797.5130946204283,83.4000026688,3.275997287836,1.349250043176,1024,-26.2,97,P-GPS,
0.289308559595317,36.8890230535534,32700,2018-04-14 13:03:45,1794.1130945116283,80.00000256,0.35999970196000003,1.3163400421228801,1797.5130946204283,83.4000026688,3.275997287836,1.349250043176,1024,-26.2,97,P-GPS,
0.289308394936831,36.8890232742146,32800,2018-04-14 13:03:46,1794.1130945116283,80.00000256,0.7199994039200001,1.30807004185824,1797.5130946204283,83.4000026688,3.275997287836,1.349250043176,1024,-26.2,97,P-GPS,
0.2893082118582,36.8890234464311,32900,2018-04-14 13:03:46,1794.1130945116283,80.00000256,0.7199994039200001,1.296500041488,1797.5130946204283,83.4000026688,3.275997287836,1.349250043176,1024,-26.2,97,P-GPS,
0.289308024543173,36.8890236864369,33000,2018-04-14 13:03:46,1794.1130945116283,80.00000256,0.35999970196000003,1.2880700412182402,1797.5130946204283,83.4000026688,3.275997287836,1.349250043176,1024,-26.2,97,P-GPS,
