latitude,longitude,time_millisecond,datetime_utc,altitude_m,ascent_m,speed_kph,distance_m,max_altitude_m,max_ascent_m,max_speed_kph,max_distance_m,rc_throttle,gimbal_pitch_degrees,battery_percent,flycState,message
0.35665334651076,36.8955209043055,0,2017-11-13 13:11:34,1770.58599415875,0.0,0.0,0.0,1770.58599415875,0.0,0.0,0.0,1024,0.0,99,Motors_Started,
0.356653375796696,36.895520828851,100,2017-11-13 13:11:34,1770.58599415875,0.0,0.0,0.00900071028802272,1770.58599415875,0.0,0.0,0.00900071028802272,1024,0.0,99,Motors_Started,
0.356653383305452,36.8955207717058,200,2017-11-13 13:11:35,1770.58599415875,0.0,0.0,0.015302800489689601,1770.58599415875,0.0,0.0,0.015302800489689601,1024,0.0,99,Motors_Started,
0.356653391168394,36.8955207139514,300,2017-11-13 13:11:35,1770.58599415875,0.0,0.0,0.021742900695772803,1770.58599415875,0.0,0.0,0.021742900695772803,1024,0.0,99,Motors_Started,
0.35665340777608,36.8955206452994,400,2017-11-13 13:11:35,1770.58599415875,0.0,0.0,0.0295973009471136,1770.58599415875,0.0,0.0,0.0295973009471136,1024,0.0,99,Motors_Started,
0.356653432933097,36.8955205690922,500,2017-11-13 13:11:35,1770.58599415875,0.0,0.0,0.038496001231871996,1770.58599415875,0.0,0.0,0.038496001231871996,1024,0.0,99,Motors_Started,Setting new Return-To-Home altitude to 30m (98 ft). Setting new Maximum Flight Altitude to 120m (394 ft)
0.356653441607818,36.8955205031767,600,2017-11-13 13:11:35,1770.58599415875,0.0,0.0,0.045843601466995204,1770.58599415875,0.0,0.0,0.045843601466995204,1024,0.0,99,Motors_Started,
0.356653449195553,36.89552043823,700,2017-11-13 13:11:35,1770.58599415875,0.0,0.0,0.05307250169832001,1770.58599415875,0.0,0.0,0.05307250169832001,1024,0.0,99,Motors_Started,
0.356653470483387,36.8955203627873,800,2017-11-13 13:11:35,1770.58599415875,0.0,0.0,0.0617769019768608,1770.58599415875,0.0,0.0,0.0617769019768608,1024,0.0,99,Motors_Started,
0.356653497265591,36.8955202832762,900,2017-11-13 13:11:35,1770.58599415875,0.0,0.0,0.07106660227413121,1770.58599415875,0.0,0.0,0.07106660227413121,1024,0.0,99,Motors_Started,
0.356653512288801,36.8955202152077,1000,2017-11-13 13:11:35,1770.58599415875,0.0,0.0,0.0788168025221376,1770.58599415875,0.0,0.0,0.0788168025221376,1024,0.0,99,Motors_Started,
0.356653521637698,36.8955201508413,1100,2017-11-13 13:11:35,1770.58599415875,0.0,0.0,0.08602180275269761,1770.58599415875,0.0,0.0,0.08602180275269761,1024,0.0,99,Motors_Started,
0.356653548555063,36.8955200981691,1200,2017-11-13 13:11:36,1770.58599415875,0.0,0.0,0.0924184029573888,1770.58599415875,0.0,0.0,0.0924184029573888,536,0.0,99,Motors_Started,
0.356653577571493,36.8955200490844,1300,2017-11-13 13:11:36,1770.58599415875,0.0,0.0,0.098514003152448,1770.58599415875,0.0,0.0,0.098514003152448,913,0.0,99,Motors_Started,
0.35665359852631,36.8955199823317,1400,2017-11-13 13:11:36,1770.58599415875,0.0,0.0,0.10628900340124801,1770.58599415875,0.0,0.0,0.10628900340124801,1024,0.0,99,Motors_Started,
0.356653610781165,36.895519903599,1500,2017-11-13 13:11:36,1770.58599415875,0.0,0.0,0.11509800368313601,1770.58599415875,0.0,0.0,0.11509800368313601,1024,0.0,99,Motors_Started,
0.356653636249215,36.8955198305629,1600,2017-11-13 13:11:36,1770.58599415875,0.0,0.0,0.1236750039576,1770.58599415875,0.0,0.0,0.1236750039576,1024,0.0,99,Assisted_Takeoff,
0.356653672704377,36.8955197756927,1700,2017-11-13 13:11:36,1770.58599415875,0.0,0.0,0.130643004180576,1770.58599415875,0.0,0.0,0.130643004180576,1024,0.0,99,Assisted_Takeoff,
0.356653696143385,36.8955197027176,1800,2017-11-13 13:11:36,1770.58599415875,0.0,0.0,0.13916300445321603,1770.58599415875,0.0,0.0,0.13916300445321603,1024,0.0,99,Assisted_Takeoff,
0.356653708293206,36.8955196163098,1900,2017-11-13 13:11:36,1770.58599415875,0.0,0.0,0.14877300476073602,1770.58599415875,0.0,0.0,0.14877300476073602,1024,0.0,99,Assisted_Takeoff,
0.356653740310858,36.8955195459363,2000,2017-11-13 13:11:36,1770.58599415875,0.0,0.0,0.157276005032832,1770.58599415875,0.0,0.0,0.157276005032832,1024,0.0,99,Assisted_Takeoff,
0.356653772119254,36.8955194806021,2100,2017-11-13 13:11:36,1770.58599415875,0.0,0.0,0.16524500528784,1770.58599415875,0.0,0.0,0.16524500528784,1024,0.0,99,Assisted_Takeoff,
0.356653790270705,36.8955193895982,2200,2017-11-13 13:11:37,1770.58599415875,0.0,0.0,0.175522005616704,1770.58599415875,0.0,0.0,0.175522005616704,1024,0.0,99,Assisted_Takeoff,
0.356653805753951,36.8955193062652,2300,2017-11-13 13:11:37,1770.58599415875,0.0,0.0,0.184901005916832,1770.58599415875,0.0,0.0,0.184901005916832,1024,0.0,99,Assisted_Takeoff,
0.356653810715005,36.895519109602,2500,2017-11-13 13:11:37,1770.58599415875,0.0,0.0,0.206146006596672,1770.58599415875,0.0,0.0,0.206146006596672,1024,0.0,99,Assisted_Takeoff,
0.356653829296366,36.8955190239586,2600,2017-11-13 13:11:37,1770.58599415875,0.0,0.0,0.21588500690832002,1770.58599415875,0.0,0.0,0.21588500690832002,1073,0.0,99,Assisted_Takeoff,
0.356653854909347,36.8955189532093,2700,2017-11-13 13:11:37,1770.58599415875,0.0,0.0,0.22421500717488,1770.58599415875,0.0,0.0,0.22421500717488,1073,0.0,99,Assisted_Takeoff,
0.356653872122,36.8955188936714,2800,2017-11-13 13:11:37,1770.58599415875,0.0,0.0,0.23110400739532802,1770.58599415875,0.0,0.0,0.23110400739532802,1129,0.0,99,Assisted_Takeoff,
0.356653882172756,36.8955188361182,2900,2017-11-13 13:11:37,1770.58599415875,0.0,0.0,0.23758000760256004,1770.58599415875,0.0,0.0,0.23758000760256004,1153,0.0,99,Assisted_Takeoff,
0.356653885226903,36.8955187664717,3000,2017-11-13 13:11:37,1770.58599415875,0.0,0.0,0.245168007845376,1770.58599415875,0.0,0.0,0.245168007845376,1158,0.0,99,Assisted_Takeoff,
0.356653885153623,36.8955186867915,3100,2017-11-13 13:11:37,1770.58599415875,0.0,0.0,0.253767008120544,1770.58599415875,0.0,0.0,0.253767008120544,1164,0.0,99,Assisted_Takeoff,
0.356653904975043,36.8955186205087,3200,2017-11-13 13:11:38,1770.58599415875,0.0,0.0,0.26145000836640003,1770.58599415875,0.0,0.0,0.26145000836640003,1173,0.0,99,Assisted_Takeoff,
0.356653930052267,36.8955185621313,3300,2017-11-13 13:11:38,1770.58599415875,0.0,0.0,0.268421008589472,1770.58599415875,0.0,0.0,0.268421008589472,1180,0.0,99,Assisted_Takeoff,
0.356653949667689,36.8955185141557,3400,2017-11-13 13:11:38,1770.58599415875,0.0,0.0,0.27412700877206403,1770.58599415875,0.0,0.0,0.27412700877206403,1199,0.0,99,Assisted_Takeoff,
0.356653959404156,36.8955184600221,3500,2017-11-13 13:11:38,1770.58599415875,0.0,0.0,0.280229008967328,1770.58599415875,0.0,0.0,0.280229008967328,1236,0.0,99,Assisted_Takeoff,
0.356653964537825,36.8955183671008,3700,2017-11-13 13:11:38,1770.58599415875,0.0,0.0,0.290397009292704,1770.58599415875,0.0,0.0,0.290397009292704,1256,0.0,99,Assisted_Takeoff,
0.356653971360191,36.8955182569322,3800,2017-11-13 13:11:38,1770.58599415875,0.0,0.0,0.30248800967961603,1770.58599415875,0.0,0.0,0.30248800967961603,1270,0.0,99,GPS_Atti,Obstacle Avoided. Revise Flight Route
0.356653940680306,36.8955180699204,3900,2017-11-13 13:11:38,1770.58599415875,0.0,0.35999970196000003,0.322046010305472,1770.58599415875,0.0,0.35999970196000003,0.322046010305472,1286,0.0,99,GPS_Atti,
0.35665391518783,36.8955178332994,4000,2017-11-13 13:11:38,1770.58599415875,0.0,0.35999970196000003,0.347314011114048,1770.58599415875,0.0,0.35999970196000003,0.347314011114048,1295,0.0,99,GPS_Atti,
0.356653891428018,36.8955175836428,4100,2017-11-13 13:11:38,1770.6859941619502,0.1000000032,0.35999970196000003,0.37421001197472004,1770.6859941619502,0.1000000032,0.35999970196000003,0.37421001197472004,1302,0.0,99,GPS_Atti,
0.356653868695754,36.8955173248861,4200,2017-11-13 13:11:39,1770.7859941651502,0.2000000064,0.35999970196000003,0.402259012872288,1770.7859941651502,0.2000000064,0.35999970196000003,0.402259012872288,1343,0.0,99,GPS_Atti,
0.3566538562349,36.8955170728357,4300,2017-11-13 13:11:39,1770.8859941683502,0.3000000096,0.35999970196000003,0.42982901375452803,1770.8859941683502,0.3000000096,0.35999970196000003,0.42982901375452803,1408,0.0,99,GPS_Atti,
0.356653844997008,36.8955168110492,4400,2017-11-13 13:11:39,1770.98599417155,0.4000000128,0.35999970196000003,0.45854901467356807,1770.98599417155,0.4000000128,0.35999970196000003,0.45854901467356807,1452,0.0,99,GPS_Atti,
0.35665380460834,36.8955165771754,4500,2017-11-13 13:11:39,1771.08599417475,0.500000016,0.35999970196000003,0.483883015484256,1771.08599417475,0.500000016,0.35999970196000003,0.483883015484256,1484,0.0,99,GPS_Atti,
0.356653776378449,36.8955163691286,4600,2017-11-13 13:11:39,1771.18599417795,0.6000000192,0.35999970196000003,0.5065900162108801,1771.18599417795,0.6000000192,0.35999970196000003,0.5065900162108801,1536,0.0,99,GPS_Atti,Home Point Recorded. RTH Altitude:  30m.
0.356653733948527,36.8955162373061,4700,2017-11-13 13:11:39,1771.38599418435,0.8000000256,0.35999970196000003,0.520774016664768,1771.38599418435,0.8000000256,0.35999970196000003,0.520774016664768,1559,0.0,99,GPS_Atti,
0.356653674177304,36.8955160796543,4800,2017-11-13 13:11:39,1771.6859941939501,1.1000000352000001,0.35999970196000003,0.5377560172081921,1771.6859941939501,1.1000000352000001,0.35999970196000003,0.5377560172081921,1595,0.0,99,GPS_Atti,
0.356653649406228,36.8955158956788,4900,2017-11-13 13:11:39,1771.8859942003503,1.3000000416000002,0.0,0.557997017855904,1771.8859942003503,1.3000000416000002,0.35999970196000003,0.557997017855904,1650,0.0,99,GPS_Atti,
0.356653692862071,36.8955156733331,5000,2017-11-13 13:11:39,1772.18599420995,1.6000000512,0.35999970196000003,0.5829780186552961,1772.18599420995,1.6000000512,0.35999970196000003,0.5829780186552961,1684,0.0,99,GPS_Atti,
0.356653685784039,36.8955154078253,5100,2017-11-13 13:11:39,1772.58599422275,2.000000064,0.8063993323904,0.6123940195966081,1772.58599422275,2.000000064,0.8063993323904,0.6123940195966081,1684,0.0,99,GPS_Atti,
0.356653573859454,36.8955151256183,5200,2017-11-13 13:11:40,1772.9859942355502,2.4000000768,1.0187991565468,0.64311002057952,1772.9859942355502,2.4000000768,1.0187991565468,0.64311002057952,1684,0.0,99,GPS_Atti,
0.356653389384433,36.8955148334762,5300,2017-11-13 13:11:40,1773.3859942483502,2.8000000896,1.0187991565468,0.675117021603744,1773.3859942483502,2.8000000896,1.0187991565468,0.675117021603744,1684,0.0,99,GPS_Atti,
0.356653220478151,36.8955145805757,5400,2017-11-13 13:11:40,1773.88599426435,3.3000001056,0.5075995797636,0.7033630225076161,1773.88599426435,3.3000001056,1.0187991565468,0.7033630225076161,1684,0.0,99,GPS_Atti,
0.356653111970042,36.8955143788282,5500,2017-11-13 13:11:40,1774.3859942803501,3.8000001216000006,0.5075995797636,0.726127023236064,1774.3859942803501,3.8000001216000006,1.0187991565468,0.726127023236064,1684,0.0,99,GPS_Atti,
0.356653081474985,36.8955142505944,5600,2017-11-13 13:11:40,1774.78599429315,4.200000134400001,0.5075995797636,0.7405060236961921,1774.78599429315,4.200000134400001,1.0187991565468,0.7405060236961921,1684,0.0,99,GPS_Atti,
0.356653069823469,36.8955141412672,5700,2017-11-13 13:11:40,1775.2859943091503,4.7000001504,0.0,0.752706024086592,1775.2859943091503,4.7000001504,1.0187991565468,0.752706024086592,1684,0.0,99,GPS_Atti,
0.356653083367237,36.8955140424319,5800,2017-11-13 13:11:40,1775.78599432515,5.200000166400001,0.0,0.763628024436096,1775.78599432515,5.200000166400001,1.0187991565468,0.763628024436096,1684,0.0,99,GPS_Atti,
0.356653090227872,36.8955139536817,5900,2017-11-13 13:11:40,1776.28599434115,5.7000001824,0.0,0.7734620247507841,1776.28599434115,5.7000001824,1.0187991565468,0.7734620247507841,1684,0.0,99,GPS_Atti,
0.356653113737718,36.8955138687084,6000,2017-11-13 13:11:40,1776.78599435715,6.200000198400001,0.0,0.7828140250500479,1776.78599435715,6.200000198400001,1.0187991565468,0.7828140250500479,1684,0.0,99,GPS_Atti,
0.356653124019713,36.8955137964989,6100,2017-11-13 13:11:40,1777.28599437315,6.7000002144,0.0,0.790803025305696,1777.28599437315,6.7000002144,1.0187991565468,0.790803025305696,1684,0.0,99,GPS_Atti,
0.356653129750208,36.8955137170349,6200,2017-11-13 13:11:41,1777.7859943891501,7.200000230400001,0.35999970196000003,0.7996160255877119,1777.7859943891501,7.200000230400001,1.0187991565468,0.7996160255877119,1684,0.0,99,GPS_Atti,
0.3566531170744,36.8955136601306,6300,2017-11-13 13:11:41,1778.18599440195,7.600000243200001,0.35999970196000003,0.8059850257915201,1778.18599440195,7.600000243200001,1.0187991565468,0.8059850257915201,1684,0.0,99,GPS_Atti,
0.356653090500636,36.8955136205764,6400,2017-11-13 13:11:41,1778.68599441795,8.1000002592,0.0,0.8104800259353601,1778.68599441795,8.1000002592,1.0187991565468,0.8104800259353601,1684,0.0,99,GPS_Atti,
0.356653067826996,36.8955135901907,6500,2017-11-13 13:11:41,1779.18599443395,8.6000002752,0.0,0.813949026046368,1779.18599443395,8.6000002752,1.0187991565468,0.813949026046368,1684,0.0,99,GPS_Atti,
0.35665307232313,36.8955135494888,6600,2017-11-13 13:11:41,1779.6859944499502,9.1000002912,0.0,0.818453026190496,1779.6859944499502,9.1000002912,1.0187991565468,0.818453026190496,1684,0.0,99,GPS_Atti,
0.356653089717355,36.8955135109323,6700,2017-11-13 13:11:41,1780.08599446275,9.500000304,0.0,0.8226680263253761,1780.08599446275,9.500000304,1.0187991565468,0.8226680263253761,1684,0.0,99,GPS_Atti,
0.356653115779787,36.8955134601604,6800,2017-11-13 13:11:41,1780.58599447875,10.00000032,0.0,0.828216026502912,1780.58599447875,10.00000032,1.0187991565468,0.828216026502912,1684,0.0,99,GPS_Atti,
0.356653143567555,36.8955134062366,6900,2017-11-13 13:11:41,1781.0859944947501,10.500000336,0.0,0.83412002669184,1781.0859944947501,10.500000336,1.0187991565468,0.83412002669184,1684,0.0,99,GPS_Atti,
0.356653166580725,36.8955133483174,7000,2017-11-13 13:11:41,1781.4859945075502,10.9000003488,0.0,0.8404940268958081,1781.4859945075502,10.9000003488,1.0187991565468,0.8404940268958081,1684,0.0,99,GPS_Atti,
0.356653190103599,36.8955132940574,7100,2017-11-13 13:11:41,1781.98599452355,11.4000003648,0.0,0.846468027086976,1781.98599452355,11.4000003648,1.0187991565468,0.846468027086976,1684,0.0,99,GPS_Atti,
0.356653237541801,36.8955132345708,7200,2017-11-13 13:11:42,1782.48599453955,11.9000003808,0.0,0.852991027295712,1782.48599453955,11.9000003808,1.0187991565468,0.852991027295712,1684,0.0,99,GPS_Atti,
0.356653292476545,36.895513187775,7300,2017-11-13 13:11:42,1782.9859945555502,12.400000396800001,0.0,0.8581300274601601,1782.9859945555502,12.400000396800001,1.0187991565468,0.8581300274601601,1684,0.0,99,GPS_Atti,
0.356653365383611,36.8955131663631,7400,2017-11-13 13:11:42,1783.3859945683503,12.8000004096,0.0,0.8604920275357439,1783.3859945683503,12.8000004096,1.0187991565468,0.8604920275357439,1684,0.0,99,GPS_Atti,
0.356653440252952,36.8955131564558,7500,2017-11-13 13:11:42,1783.88599458435,13.3000004256,0.0,0.8616550275729601,1783.88599458435,13.3000004256,1.0187991565468,0.8616550275729601,1684,0.0,99,GPS_Atti,
0.356653527867311,36.8955131371423,7600,2017-11-13 13:11:42,1784.38599460035,13.800000441600002,0.0,0.8639750276472,1784.38599460035,13.800000441600002,1.0187991565468,0.8639750276472,1684,0.0,99,GPS_Atti,
0.356653617720779,36.8955131076795,7700,2017-11-13 13:11:42,1784.8859946163502,14.300000457600001,0.0,0.86754002776128,1784.8859946163502,14.300000457600001,1.0187991565468,0.86754002776128,1684,0.0,99,GPS_Atti,
0.35665375865935,36.8955130708638,7800,2017-11-13 13:11:42,1785.28599462915,14.7000004704,0.0,0.87231502791408,1785.28599462915,14.7000004704,1.0187991565468,0.87231502791408,1684,0.0,99,GPS_Atti,
0.356653900279425,36.8955130436749,7900,2017-11-13 13:11:42,1785.7859946451501,15.200000486400002,0.0,0.8763000280416,1785.7859946451501,15.200000486400002,1.0187991565468,0.8763000280416,1684,0.0,99,GPS_Atti,
0.356654028678977,36.8955130333201,8000,2017-11-13 13:11:42,1786.3859946643502,15.8000005056,0.0,0.8785660281141121,1786.3859946643502,15.8000005056,1.0187991565468,0.8785660281141121,1684,0.0,99,GPS_Atti,
0.356654147221558,36.8955130232844,8100,2017-11-13 13:11:42,1786.8859946803502,16.3000005216,0.0,0.880913028189216,1786.8859946803502,16.3000005216,1.0187991565468,0.880913028189216,1684,0.0,99,GPS_Atti,
0.356654293894695,36.8955130094137,8200,2017-11-13 13:11:43,1787.38599469635,16.800000537600003,0.0,0.884242028295744,1787.38599469635,16.800000537600003,1.0187991565468,0.884242028295744,1684,0.0,99,GPS_Atti,
0.356654439275661,36.8955129868199,8300,2017-11-13 13:11:43,1787.8859947123499,17.3000005536,0.0,0.888802028441664,1787.8859947123499,17.3000005536,1.0187991565468,0.888802028441664,1684,0.0,99,GPS_Atti,
0.356654597758273,36.8955129707481,8400,2017-11-13 13:11:43,1788.3859947283502,17.8000005696,0.0,0.893148028580736,1788.3859947283502,17.8000005696,1.0187991565468,0.893148028580736,1684,0.0,99,GPS_Atti,
0.35665473678098,36.8955129526721,8500,2017-11-13 13:11:43,1788.88599474435,18.3000005856,0.0,0.897667028725344,1788.88599474435,18.3000005856,1.0187991565468,0.897667028725344,1684,0.0,99,GPS_Atti,
0.356654883357224,36.8955129544343,8600,2017-11-13 13:11:43,1789.4859947635503,18.900000604800002,0.0,0.9004250288136001,1789.4859947635503,18.900000604800002,1.0187991565468,0.9004250288136001,1684,0.0,99,GPS_Atti,
0.356655018932515,36.8955129542609,8700,2017-11-13 13:11:43,1789.98599477955,19.4000006208,0.0,0.9034270289096641,1789.98599477955,19.4000006208,1.0187991565468,0.9034270289096641,1684,0.0,99,GPS_Atti,
0.356655166759404,36.8955129375746,8800,2017-11-13 13:11:43,1790.5859947987499,20.00000064,0.0,0.9087630290804161,1790.5859947987499,20.00000064,1.0187991565468,0.9087630290804161,1684,0.0,99,GPS_Atti,
0.356655294455469,36.8955129019666,8900,2017-11-13 13:11:43,1791.0859948147502,20.500000656,0.0,0.9158780293080961,1791.0859948147502,20.500000656,1.0187991565468,0.9158780293080961,1684,0.0,99,GPS_Atti,
0.35665540226009,36.8955128689065,9000,2017-11-13 13:11:43,1791.68599483395,21.1000006752,0.0,0.9223490295151681,1791.68599483395,21.1000006752,1.0187991565468,0.9223490295151681,1684,0.0,99,GPS_Atti,
0.356655482405589,36.8955128309775,9100,2017-11-13 13:11:43,1792.2859948531502,21.7000006944,0.0,0.9286750297176001,1792.2859948531502,21.7000006944,1.0187991565468,0.9286750297176001,1684,0.0,99,GPS_Atti,
0.35665558089144,36.8955127816208,9200,2017-11-13 13:11:44,1792.88599487235,22.300000713600003,0.0,0.9368270299784641,1792.88599487235,22.300000713600003,1.0187991565468,0.9368270299784641,1684,0.0,99,GPS_Atti,
0.35665566748802,36.895512723207,9300,2017-11-13 13:11:44,1793.38599488835,22.8000007296,0.0,0.9456750302616002,1793.38599488835,22.8000007296,1.0187991565468,0.9456750302616002,1684,0.0,99,GPS_Atti,
0.356655749110519,36.8955126621295,9400,2017-11-13 13:11:44,1793.98599490755,23.4000007488,0.0,0.954711030550752,1793.98599490755,23.4000007488,1.0187991565468,0.954711030550752,1684,0.0,99,GPS_Atti,
0.3566558035665,36.89551260263,9500,2017-11-13 13:11:44,1794.5859949267501,24.000000768000003,0.0,0.9627670308085441,1794.5859949267501,24.000000768000003,1.0187991565468,0.9627670308085441,1684,0.0,99,GPS_Atti,
0.356655866391055,36.8955125222025,9600,2017-11-13 13:11:44,1795.1859949459501,24.600000787200003,0.0,0.973334031146688,1795.1859949459501,24.600000787200003,1.0187991565468,0.973334031146688,1684,0.0,99,GPS_Atti,
0.356655904436393,36.8955124415995,9700,2017-11-13 13:11:44,1795.7859949651502,25.2000008064,0.0,0.983137031460384,1795.7859949651502,25.2000008064,1.0187991565468,0.983137031460384,1684,0.0,99,GPS_Atti,
0.35665596412375,36.8955123416529,9800,2017-11-13 13:11:44,1796.3859949843502,25.8000008256,0.0,0.9957020318624641,1796.3859949843502,25.8000008256,1.0187991565468,0.9957020318624641,1684,0.0,99,GPS_Atti,
0.356655999636857,36.8955122500035,9900,2017-11-13 13:11:44,1796.98599500355,26.4000008448,0.0,1.0066000322112,1796.98599500355,26.4000008448,1.0187991565468,1.0066000322112,1684,0.0,99,GPS_Atti,
0.356656045836628,36.8955121385073,10000,2017-11-13 13:11:44,1797.5859950227502,27.000000864,0.0,1.0199600326387201,1797.5859950227502,27.000000864,1.0187991565468,1.0199600326387201,1684,0.0,99,GPS_Atti,
0.356656064163136,36.895512039839,10100,2017-11-13 13:11:44,1798.18599504195,27.600000883200003,0.0,1.0310500329936,1798.18599504195,27.600000883200003,1.0187991565468,1.0310500329936,1684,0.0,99,GPS_Atti,
0.356656079549489,36.8955119492794,10200,2017-11-13 13:11:45,1798.78599506115,28.200000902400003,0.0,1.04118003331776,1798.78599506115,28.200000902400003,1.0187991565468,1.04118003331776,1684,0.0,99,GPS_Atti,
0.35665606922434,36.8955118716441,10300,2017-11-13 13:11:45,1799.3859950803499,28.800000921600002,0.0,1.04911003357152,1799.3859950803499,28.800000921600002,1.0187991565468,1.04911003357152,1684,0.0,99,GPS_Atti,
0.356656058566988,36.8955117537757,10400,2017-11-13 13:11:45,1799.98599509955,29.4000009408,0.0,1.06133003396256,1799.98599509955,29.4000009408,1.0187991565468,1.06133003396256,1684,0.0,99,GPS_Atti,
0.356656022925235,36.8955116415858,10500,2017-11-13 13:11:45,1800.5859951187501,30.00000096,0.0,1.07219003431008,1800.5859951187501,30.00000096,1.0187991565468,1.07219003431008,1684,0.0,99,GPS_Atti,
0.356656003080202,36.8955115378194,10600,2017-11-13 13:11:45,1801.18599513795,30.6000009792,0.0,1.0826800346457601,1801.18599513795,30.6000009792,1.0187991565468,1.0826800346457601,1684,0.0,99,GPS_Atti,
0.35665597935133,36.8955114532423,10700,2017-11-13 13:11:45,1801.7859951571502,31.2000009984,0.0,1.0910200349126402,1801.7859951571502,31.2000009984,1.0187991565468,1.0910200349126402,1684,0.0,99,GPS_Atti,
0.356655985094852,36.8955113843109,10800,2017-11-13 13:11:45,1802.28599517315,31.7000010144,0.0,1.09857003515424,1802.28599517315,31.7000010144,1.0187991565468,1.09857003515424,1684,0.0,99,GPS_Atti,
0.356655982946935,36.8955113241519,10900,2017-11-13 13:11:45,1802.8859951923503,32.3000010336,0.0,1.1049600353587201,1802.8859951923503,32.3000010336,1.0187991565468,1.1049600353587201,1684,0.0,99,GPS_Atti,
0.356655986260818,36.8955112433005,11000,2017-11-13 13:11:45,1803.48599521155,32.9000010528,0.0,1.11373003563936,1803.48599521155,32.9000010528,1.0187991565468,1.11373003563936,1684,0.0,99,GPS_Atti,
0.356655972657611,36.8955111863641,11100,2017-11-13 13:11:45,1804.08599523075,33.500001072,0.0,1.1194400358220802,1804.08599523075,33.500001072,1.0187991565468,1.1194400358220802,1684,0.0,99,GPS_Atti,
0.356655975701173,36.8955111637616,11200,2017-11-13 13:11:46,1804.68599524995,34.1000010912,0.0,1.1219500359024002,1804.68599524995,34.1000010912,1.0187991565468,1.1219500359024002,1684,0.0,99,GPS_Atti,
0.356655974350379,36.8955111674102,11300,2017-11-13 13:11:46,1805.2859952691501,34.7000011104,0.0,1.12152003588864,1805.2859952691501,34.7000011104,1.0187991565468,1.1219500359024002,1684,0.0,99,GPS_Atti,
0.356655951399089,36.8955111448806,11400,2017-11-13 13:11:46,1805.88599528835,35.300001129600005,0.0,1.12328003594496,1805.88599528835,35.300001129600005,1.0187991565468,1.12328003594496,1684,0.0,99,GPS_Atti,
0.356655887445208,36.8955111329863,11500,2017-11-13 13:11:46,1806.4859953075502,35.9000011488,0.0,1.122750035928,1806.4859953075502,35.9000011488,1.0187991565468,1.12328003594496,1684,0.0,99,GPS_Atti,
0.356655745763252,36.8955111781033,11600,2017-11-13 13:11:46,1807.0859953267502,36.500001168000004,0.5075995797636,1.11402003564864,1807.0859953267502,36.500001168000004,1.0187991565468,1.12328003594496,1684,0.0,99,GPS_Atti,
0.356655565042609,36.8955112583595,11700,2017-11-13 13:11:46,1807.58599534275,37.000001184000006,0.5075995797636,1.10067003522144,1807.58599534275,37.000001184000006,1.0187991565468,1.12328003594496,1684,0.0,99,GPS_Atti,
0.356655336969256,36.8955113592504,11800,2017-11-13 13:11:46,1808.18599536195,37.6000012032,0.5075995797636,1.08428003469696,1808.18599536195,37.6000012032,1.0187991565468,1.12328003594496,1684,0.0,99,GPS_Atti,
0.356655123117919,36.8955114659888,11900,2017-11-13 13:11:46,1808.78599538115,38.2000012224,0.5075995797636,1.0680100341763201,1808.78599538115,38.2000012224,1.0187991565468,1.12328003594496,1684,0.0,99,GPS_Atti,
0.356654948764492,36.8955115451701,12000,2017-11-13 13:11:46,1809.38599540035,38.8000012416,0.5075995797636,1.05591003378912,1809.38599540035,38.8000012416,1.0187991565468,1.12328003594496,1684,0.0,99,GPS_Atti,
0.356654809394112,36.8955116073632,12100,2017-11-13 13:11:46,1809.8859954163502,39.3000012576,0.5075995797636,1.04658003349056,1809.8859954163502,39.3000012576,1.0187991565468,1.12328003594496,1684,0.0,99,GPS_Atti,
0.356654703337626,36.8955116213237,12200,2017-11-13 13:11:47,1810.48599543555,39.900001276800005,0.0,1.04327003338464,1810.48599543555,39.900001276800005,1.0187991565468,1.12328003594496,1684,0.0,99,GPS_Atti,
0.356654627863318,36.8955116077443,12300,2017-11-13 13:11:47,1811.08599545475,40.500001296,0.0,1.04359003339488,1811.08599545475,40.500001296,1.0187991565468,1.12328003594496,1684,0.0,99,GPS_Atti,
0.356654586877011,36.8955115289227,12400,2017-11-13 13:11:47,1811.58599547075,41.000001312,0.0,1.05166003365312,1811.58599547075,41.000001312,1.0187991565468,1.12328003594496,1684,0.0,99,GPS_Atti,
0.356654568722303,36.8955114215569,12500,2017-11-13 13:11:47,1812.18599548995,41.600001331200005,0.0,1.06324003402368,1812.18599548995,41.600001331200005,1.0187991565468,1.12328003594496,1684,0.0,99,GPS_Atti,
0.356654552220466,36.895511280902,12600,2017-11-13 13:11:47,1812.7859955091499,42.2000013504,0.0,1.07853003451296,1812.7859955091499,42.2000013504,1.0187991565468,1.12328003594496,1684,0.0,99,GPS_Atti,
0.356654541418996,36.8955111397803,12700,2017-11-13 13:11:47,1813.2859955251502,42.7000013664,0.0,1.0939500350064,1813.2859955251502,42.7000013664,1.0187991565468,1.12328003594496,1684,0.0,99,GPS_Atti,
0.356654555375576,36.8955109765701,12800,2017-11-13 13:11:47,1813.88599554435,43.300001385600005,0.0,1.1121600355891201,1813.88599554435,43.300001385600005,1.0187991565468,1.12328003594496,1684,0.0,99,GPS_Atti,
0.356654579849461,36.8955108249265,12900,2017-11-13 13:11:47,1814.3859955603502,43.80000140160001,0.0,1.12923003613536,1814.3859955603502,43.80000140160001,1.0187991565468,1.12923003613536,1684,0.0,99,GPS_Atti,
0.356654619398666,36.8955106858775,13000,2017-11-13 13:11:47,1814.98599557955,44.4000014208,0.0,1.14511003664352,1814.98599557955,44.4000014208,1.0187991565468,1.14511003664352,1684,0.0,99,GPS_Atti,
0.356654668933489,36.895510562851,13100,2017-11-13 13:11:47,1815.4859955955503,44.900001436800004,0.0,1.1593800371001601,1815.4859955955503,44.900001436800004,1.0187991565468,1.1593800371001601,1684,0.0,99,GPS_Atti,
0.356654737420144,36.8955104699254,13200,2017-11-13 13:11:48,1815.9859956115502,45.4000014528,0.0,1.17061003745952,1815.9859956115502,45.4000014528,1.0187991565468,1.17061003745952,1684,0.0,99,GPS_Atti,
0.356654797809362,36.8955103835583,13300,2017-11-13 13:11:48,1816.48599562755,45.9000014688,0.0,1.1810300377929601,1816.48599562755,45.9000014688,1.0187991565468,1.1810300377929601,1684,0.0,99,GPS_Atti,
0.356654853949968,36.8955103439205,13400,2017-11-13 13:11:48,1817.0859956467502,46.500001487999995,0.0,1.18626003796032,1817.0859956467502,46.500001487999995,1.0187991565468,1.18626003796032,1684,0.0,99,GPS_Atti,
0.35665487176026,36.8955103165775,13500,2017-11-13 13:11:48,1817.58599566275,47.000001504000004,0.0,1.1895500380656001,1817.58599566275,47.000001504000004,1.0187991565468,1.1895500380656001,1684,0.0,99,GPS_Atti,
0.356654872762568,36.8955102990754,13600,2017-11-13 13:11:48,1818.1859956819503,47.6000015232,0.0,1.19149003812768,1818.1859956819503,47.6000015232,1.0187991565468,1.19149003812768,1684,0.0,99,GPS_Atti,
0.356654860313928,36.8955102818902,13700,2017-11-13 13:11:48,1818.6859956979501,48.1000015392,0.0,1.1931900381820801,1818.6859956979501,48.1000015392,1.0187991565468,1.1931900381820801,1684,0.0,99,GPS_Atti,
0.356654853048625,36.8955102550032,13800,2017-11-13 13:11:48,1819.28599571715,48.7000015584,0.0,1.19604003827328,1819.28599571715,48.7000015584,1.0187991565468,1.19604003827328,1684,0.0,99,GPS_Atti,
0.356654821907076,36.8955101343877,14000,2017-11-13 13:11:48,1820.38599575235,49.8000015936,0.0,1.2088400386828801,1820.38599575235,49.8000015936,1.0187991565468,1.2088400386828801,1684,0.0,99,GPS_Atti,
0.356654810676512,36.895510065163,14100,2017-11-13 13:11:49,1820.88599576835,50.3000016096,0.0,1.2163000389216,1820.88599576835,50.3000016096,1.0187991565468,1.2163000389216,1684,0.0,99,GPS_Atti,
0.356654847216352,36.895509956142,14300,2017-11-13 13:11:49,1821.88599580035,51.300001641600005,0.0,1.22886003932352,1821.88599580035,51.300001641600005,1.0187991565468,1.22886003932352,1684,0.0,99,GPS_Atti,
0.356654853179714,36.8955098914438,14400,2017-11-13 13:11:49,1822.4859958195502,51.90000166080001,0.0,1.2360800395545601,1822.4859958195502,51.90000166080001,1.0187991565468,1.2360800395545601,1684,0.0,99,GPS_Atti,
0.356654835664985,36.8955098276148,14500,2017-11-13 13:11:49,1822.98599583555,52.40000167680001,0.0,1.2428500397712,1822.98599583555,52.40000167680001,1.0187991565468,1.2428500397712,1684,0.0,99,GPS_Atti,
0.35665484746469,36.8955097517866,14600,2017-11-13 13:11:49,1823.48599585155,52.9000016928,0.0,1.25139004004448,1823.48599585155,52.9000016928,1.0187991565468,1.25139004004448,1684,0.0,99,GPS_Atti,
0.356654919146352,36.8955096968479,14700,2017-11-13 13:11:49,1823.9859958675502,53.400001708800005,0.0,1.2585200402726402,1823.9859958675502,53.400001708800005,1.0187991565468,1.2585200402726402,1684,0.0,99,GPS_Atti,
0.356655083213713,36.895509649382,14800,2017-11-13 13:11:49,1824.48599588355,53.900001724800006,0.35999970196000003,1.2664100405251202,1824.48599588355,53.900001724800006,1.0187991565468,1.2664100405251202,1684,0.0,99,GPS_Atti,
0.35665524936304,36.895509619037,14900,2017-11-13 13:11:49,1824.98599589955,54.40000174080001,0.35999970196000003,1.2726800407257601,1824.98599589955,54.40000174080001,1.0187991565468,1.2726800407257601,1684,0.0,99,GPS_Atti,
0.356655428262269,36.8955095741512,15000,2017-11-13 13:11:49,1825.4859959155501,54.9000017568,0.35999970196000003,1.2810500409936,1825.4859959155501,54.9000017568,1.0187991565468,1.2810500409936,1684,0.0,99,GPS_Atti,
0.356655575305877,36.8955095341623,15100,2017-11-13 13:11:49,1825.9859959315502,55.4000017728,0.0,1.2884700412310401,1825.9859959315502,55.4000017728,1.0187991565468,1.2884700412310401,1684,0.0,99,GPS_Atti,
0.356655713849007,36.895509471299,15200,2017-11-13 13:11:50,1826.48599594755,55.900001788800004,0.0,1.29837004154784,1826.48599594755,55.900001788800004,1.0187991565468,1.29837004154784,1684,0.0,99,GPS_Atti,
0.356655826687962,36.8955093979161,15300,2017-11-13 13:11:50,1826.9859959635503,56.400001804800006,0.0,1.3089400418860802,1826.9859959635503,56.400001804800006,1.0187991565468,1.3089400418860802,1684,0.0,99,GPS_Atti,
0.356655964990083,36.8955093162681,15400,2017-11-13 13:11:50,1827.4859959795501,56.90000182080001,0.0,1.32113004227616,1827.4859959795501,56.90000182080001,1.0187991565468,1.32113004227616,1684,0.0,99,GPS_Atti,
0.356656094233169,36.895509257259,15500,2017-11-13 13:11:50,1827.98599599555,57.4000018368,0.0,1.3307500425840002,1827.98599599555,57.4000018368,1.0187991565468,1.3307500425840002,1684,0.0,99,GPS_Atti,
0.356656227692297,36.8955092190858,15600,2017-11-13 13:11:50,1828.48599601155,57.9000018528,0.0,1.3383600428275202,1828.48599601155,57.9000018528,1.0187991565468,1.3383600428275202,1684,0.0,99,GPS_Atti,
0.356656333376684,36.8955092016737,15700,2017-11-13 13:11:50,1828.98599602755,58.400001868800004,0.0,1.3431000429792,1828.98599602755,58.400001868800004,1.0187991565468,1.3431000429792,1684,0.0,99,GPS_Atti,
0.356656449033662,36.8955091836662,15800,2017-11-13 13:11:50,1829.58599604675,59.000001888,0.0,1.34827004314464,1829.58599604675,59.000001888,1.0187991565468,1.34827004314464,1684,0.0,99,GPS_Atti,
0.356656540522088,36.8955091654233,15900,2017-11-13 13:11:50,1830.0859960627502,59.500001904,0.0,1.3528700432918401,1830.0859960627502,59.500001904,1.0187991565468,1.3528700432918401,1684,0.0,99,GPS_Atti,
0.356656634695819,36.8955091298688,16000,2017-11-13 13:11:50,1830.5859960787502,60.00000192,0.0,1.35947004350304,1830.5859960787502,60.00000192,1.0187991565468,1.35947004350304,1684,0.0,99,GPS_Atti,
0.356656705962227,36.8955091136942,16100,2017-11-13 13:11:50,1831.08599609475,60.500001936000004,0.0,1.3633500436272001,1831.08599609475,60.500001936000004,1.0187991565468,1.3633500436272001,1684,0.0,99,GPS_Atti,
0.356656813222948,36.8955091092555,16200,2017-11-13 13:11:51,1831.58599611075,61.000001952,0.0,1.36714004374848,1831.58599611075,61.000001952,1.0187991565468,1.36714004374848,1684,0.0,99,GPS_Atti,
0.356656894435079,36.8955091087481,16300,2017-11-13 13:11:51,1832.1859961299501,61.6000019712,0.0,1.3697700438326401,1832.1859961299501,61.6000019712,1.0187991565468,1.3697700438326401,1684,0.0,99,GPS_Atti,
0.356656969623595,36.895509099451,16400,2017-11-13 13:11:51,1832.68599614595,62.1000019872,0.0,1.37319004394208,1832.68599614595,62.1000019872,1.0187991565468,1.37319004394208,1684,0.0,99,GPS_Atti,
0.356657013260194,36.8955090781997,16500,2017-11-13 13:11:51,1833.1859961619502,62.600002003200004,0.0,1.37688004406016,1833.1859961619502,62.600002003200004,1.0187991565468,1.37688004406016,1684,0.0,99,GPS_Atti,
0.35665707986274,36.8955090555266,16600,2017-11-13 13:11:51,1833.68599617795,63.100002019200005,0.0,1.38149004420768,1833.68599617795,63.100002019200005,1.0187991565468,1.38149004420768,1684,0.0,99,GPS_Atti,
0.356657120932097,36.8955090545031,16700,2017-11-13 13:11:51,1834.18599619395,63.600002035200006,0.0,1.3829800442553601,1834.18599619395,63.600002035200006,1.0187991565468,1.3829800442553601,1684,0.0,99,GPS_Atti,
0.356657189665462,36.8955090408166,16800,2017-11-13 13:11:51,1834.6859962099502,64.1000020512,0.0,1.38677004437664,1834.6859962099502,64.1000020512,1.0187991565468,1.38677004437664,1684,0.0,99,GPS_Atti,
0.35665723302604,36.8955090229462,16900,2017-11-13 13:11:51,1835.18599622595,64.6000020672,0.0,1.3901500444848,1835.18599622595,64.6000020672,1.0187991565468,1.3901500444848,1684,0.0,99,GPS_Atti,
0.356657300220525,36.8955089782467,17000,2017-11-13 13:11:51,1835.68599624195,65.10000208320001,0.0,1.3972100447107199,1835.68599624195,65.10000208320001,1.0187991565468,1.3972100447107199,1684,0.0,99,GPS_Atti,
0.35665733291398,36.8955089411141,17100,2017-11-13 13:11:52,1836.28599626115,65.7000021024,0.0,1.40227004487264,1836.28599626115,65.7000021024,1.0187991565468,1.40227004487264,1684,0.0,99,GPS_Atti,
0.356657388718314,36.895508900879,17200,2017-11-13 13:11:52,1836.7859962771502,66.20000211840001,0.0,1.4084900450716802,1836.7859962771502,66.20000211840001,1.0187991565468,1.4084900450716802,1684,0.0,99,GPS_Atti,
0.356657416300898,36.8955088754844,17300,2017-11-13 13:11:52,1837.28599629315,66.70000213440001,0.0,1.41214004518848,1837.28599629315,66.70000213440001,1.0187991565468,1.41214004518848,1684,0.0,99,GPS_Atti,
0.356657439253002,36.8955088452294,17400,2017-11-13 13:11:52,1837.88599631235,67.3000021536,0.0,1.4161500453168,1837.88599631235,67.3000021536,1.0187991565468,1.4161500453168,1684,0.0,99,GPS_Atti,
0.356657432329672,36.8955088360437,17500,2017-11-13 13:11:52,1838.38599632835,67.8000021696,0.0,1.41687004533984,1838.38599632835,67.8000021696,1.0187991565468,1.41687004533984,1684,0.0,99,GPS_Atti,
0.356657454962601,36.8955088124156,17600,2017-11-13 13:11:52,1838.8859963443501,68.3000021856,0.0,1.4201700454454402,1838.8859963443501,68.3000021856,1.0187991565468,1.4201700454454402,1684,0.0,99,GPS_Atti,
0.356657451100746,36.895508800896,17700,2017-11-13 13:11:52,1839.3859963603502,68.8000022016,0.0,1.42124004547968,1839.3859963603502,68.8000022016,1.0187991565468,1.42124004547968,1684,0.0,99,GPS_Atti,
0.35665744706709,36.895508773493,17800,2017-11-13 13:11:52,1839.88599637635,69.30000221760001,0.0,1.42398004556736,1839.88599637635,69.30000221760001,1.0187991565468,1.42398004556736,1684,0.0,99,GPS_Atti,
0.35665741346822,36.8955087530682,17900,2017-11-13 13:11:52,1840.48599639555,69.9000022368,0.0,1.42494004559808,1840.48599639555,69.9000022368,1.0187991565468,1.42494004559808,1684,0.0,99,GPS_Atti,
0.356657373215527,36.8955086995255,18000,2017-11-13 13:11:52,1840.98599641155,70.40000225280001,0.0,1.42918004573376,1840.98599641155,70.40000225280001,1.0187991565468,1.42918004573376,1684,0.0,99,GPS_Atti,
0.356657315827532,36.8955086561557,18100,2017-11-13 13:11:52,1841.48599642755,70.90000226880001,0.0,1.43178004581696,1841.48599642755,70.90000226880001,1.0187991565468,1.43178004581696,1684,0.0,99,GPS_Atti,
0.35665730438527,36.8955085910206,18200,2017-11-13 13:11:53,1841.9859964435502,71.40000228480001,0.0,1.4382900460252799,1841.9859964435502,71.40000228480001,1.0187991565468,1.4382900460252799,1684,0.0,99,GPS_Atti,
0.356657294240064,36.895508536007,18300,2017-11-13 13:11:53,1842.48599645955,71.9000023008,0.0,1.4437700462006402,1842.48599645955,71.9000023008,1.0187991565468,1.4437700462006402,1684,0.0,99,GPS_Atti,
0.356657272018317,36.8955084872927,18400,2017-11-13 13:11:53,1842.9859964755499,72.4000023168,0.0,1.4481800463417602,1842.9859964755499,72.4000023168,1.0187991565468,1.4481800463417602,1684,0.0,99,GPS_Atti,
0.356657220817595,36.895508465459,18500,2017-11-13 13:11:53,1843.4859964915502,72.9000023328,0.0,1.4487900463612802,1843.4859964915502,72.9000023328,1.0187991565468,1.4487900463612802,1684,0.0,99,GPS_Atti,
0.356657204416722,36.8955084666109,18600,2017-11-13 13:11:53,1843.98599650755,73.4000023488,0.0,1.4481300463401598,1843.98599650755,73.4000023488,1.0187991565468,1.4487900463612802,1684,0.0,99,GPS_Atti,
0.356657191453493,36.8955084898257,18700,2017-11-13 13:11:53,1844.48599652355,73.9000023648,0.0,1.44524004624768,1844.48599652355,73.9000023648,1.0187991565468,1.4487900463612802,1684,0.0,99,GPS_Atti,
0.356657187086006,36.8955084967139,18800,2017-11-13 13:11:53,1844.9859965395501,74.4000023808,0.0,1.44436004621952,1844.9859965395501,74.4000023808,1.0187991565468,1.4487900463612802,1684,0.0,99,GPS_Atti,
0.356657166323345,36.895508504919,18900,2017-11-13 13:11:53,1845.4859965555502,74.9000023968,0.0,1.4428100461699203,1845.4859965555502,74.9000023968,1.0187991565468,1.4487900463612802,1684,0.0,99,GPS_Atti,
0.356657150878368,36.8955085320201,19000,2017-11-13 13:11:53,1845.88599656835,75.3000024096,0.0,1.43942004606144,1845.88599656835,75.3000024096,1.0187991565468,1.4487900463612802,1684,0.0,99,GPS_Atti,
0.356657129976475,36.8955085781863,19100,2017-11-13 13:11:53,1846.38599658435,75.8000024256,0.35999970196000003,1.4338300458825601,1846.38599658435,75.8000024256,1.0187991565468,1.4487900463612802,1684,0.0,99,GPS_Atti,
0.35665713100728,36.8955086110493,19200,2017-11-13 13:11:54,1846.8859966003502,76.3000024416,0.0,1.43037004577184,1846.8859966003502,76.3000024416,1.0187991565468,1.4487900463612802,1684,0.0,99,GPS_Atti,
0.35665713161469,36.8955086428075,19300,2017-11-13 13:11:54,1847.3859966163502,76.8000024576,0.0,1.4270200456646402,1847.3859966163502,76.8000024576,1.0187991565468,1.4487900463612802,1684,0.0,99,GPS_Atti,
0.356657144475326,36.8955086504965,19400,2017-11-13 13:11:54,1847.88599663235,77.3000024736,0.0,1.4266300456521601,1847.88599663235,77.3000024736,1.0187991565468,1.4487900463612802,1684,0.0,99,GPS_Atti,
0.35665714363912,36.8955086578579,19500,2017-11-13 13:11:54,1848.3859966483499,77.8000024896,0.0,1.42582004562624,1848.3859966483499,77.8000024896,1.0187991565468,1.4487900463612802,1684,0.0,98,GPS_Atti,
0.356657135346269,36.8955086678573,19600,2017-11-13 13:11:54,1848.78599666115,78.20000250240001,0.0,1.42448004558336,1848.78599666115,78.20000250240001,1.0187991565468,1.4487900463612802,1684,0.0,98,GPS_Atti,
0.356657121706422,36.8955086793191,19700,2017-11-13 13:11:54,1849.38599668035,78.8000025216,0.0,1.4228100455299202,1849.38599668035,78.8000025216,1.0187991565468,1.4487900463612802,1684,0.0,98,GPS_Atti,
0.356657127773191,36.8955086666796,19800,2017-11-13 13:11:54,1849.88599669635,79.30000253760001,0.0,1.42436004557952,1849.88599669635,79.30000253760001,1.0187991565468,1.4487900463612802,1684,0.0,98,GPS_Atti,
0.356657126986652,36.8955086514108,19900,2017-11-13 13:11:54,1850.38599671235,79.80000255360001,0.0,1.4259500456304,1850.38599671235,79.80000255360001,1.0187991565468,1.4487900463612802,1684,0.0,98,GPS_Atti,
0.356657133757722,36.8955086490127,20000,2017-11-13 13:11:54,1850.8859967283502,80.30000256960001,0.0,1.4264300456457601,1850.8859967283502,80.30000256960001,1.0187991565468,1.4487900463612802,1684,0.0,98,GPS_Atti,
0.356657131122086,36.895508654128,20100,2017-11-13 13:11:54,1851.38599674435,80.80000258560001,0.0,1.4258000456256001,1851.38599674435,80.80000258560001,1.0187991565468,1.4487900463612802,1684,0.0,98,GPS_Atti,
0.356657137562582,36.8955086571428,20200,2017-11-13 13:11:55,1851.8859967603503,81.3000026016,0.0,1.42569004562208,1851.8859967603503,81.3000026016,1.0187991565468,1.4487900463612802,1684,0.0,98,GPS_Atti,
0.356657133552538,36.8955086744458,20300,2017-11-13 13:11:55,1852.38599677635,81.8000026176,0.0,1.42372004555904,1852.38599677635,81.8000026176,1.0187991565468,1.4487900463612802,1684,0.0,98,GPS_Atti,
0.356657138544533,36.8955087166379,20400,2017-11-13 13:11:55,1852.98599679555,82.4000026368,0.0,1.41941004542112,1852.98599679555,82.4000026368,1.0187991565468,1.4487900463612802,1684,0.0,98,GPS_Atti,
0.356657130645766,36.8955087553657,20500,2017-11-13 13:11:55,1853.3859968083502,82.8000026496,0.0,1.41503004528096,1853.3859968083502,82.8000026496,1.0187991565468,1.4487900463612802,1684,0.0,98,GPS_Atti,
0.356657144360521,36.895508778831,20600,2017-11-13 13:11:55,1853.98599682755,83.4000026688,0.0,1.413000045216,1853.98599682755,83.4000026688,1.0187991565468,1.4487900463612802,1684,0.0,98,GPS_Atti,
0.356657157001318,36.8955087976949,20700,2017-11-13 13:11:55,1854.48599684355,83.9000026848,0.0,1.4114200451654402,1854.48599684355,83.9000026848,1.0187991565468,1.4487900463612802,1684,0.0,98,GPS_Atti,
0.356657207001876,36.8955087961661,20800,2017-11-13 13:11:55,1854.9859968595501,84.4000027008,0.0,1.4132600452243202,1854.9859968595501,84.4000027008,1.0187991565468,1.4487900463612802,1474,0.0,98,GPS_Atti,
0.356657241173145,36.8955087896248,20900,2017-11-13 13:11:55,1855.4859968755502,84.9000027168,0.0,1.4151100452835201,1855.4859968755502,84.9000027168,1.0187991565468,1.4487900463612802,962,0.0,98,GPS_Atti,
0.356657269596821,36.8955087518777,21000,2017-11-13 13:11:55,1855.88599688835,85.30000272960001,0.0,1.4200700454422401,1855.88599688835,85.30000272960001,1.0187991565468,1.4487900463612802,1024,0.0,98,GPS_Atti,
0.356657268107609,36.8955087122549,21100,2017-11-13 13:11:55,1856.2859969011502,85.7000027424,0.0,1.42422004557504,1856.2859969011502,85.7000027424,1.0187991565468,1.4487900463612802,1024,0.0,98,GPS_Atti,
0.356657300959838,36.895508675041,21200,2017-11-13 13:11:56,1856.68599691395,86.10000275520001,0.0,1.42928004573696,1856.68599691395,86.10000275520001,1.0187991565468,1.4487900463612802,1024,0.0,98,GPS_Atti,
0.356657313261104,36.8955086373496,21300,2017-11-13 13:11:56,1856.8859969203502,86.3000027616,0.0,1.4336900458780801,1856.8859969203502,86.3000027616,1.0187991565468,1.4487900463612802,1024,0.0,98,GPS_Atti,
0.356657316563589,36.8955085677287,21400,2017-11-13 13:11:56,1857.08599692675,86.500002768,0.0,1.44117004611744,1857.08599692675,86.500002768,1.0187991565468,1.4487900463612802,1024,0.0,98,GPS_Atti,
0.356657291958614,36.8955084866846,21500,2017-11-13 13:11:56,1857.18599692995,86.60000277120001,0.0,1.44892004636544,1857.18599692995,86.60000277120001,1.0187991565468,1.44892004636544,1024,0.0,98,GPS_Atti,
0.356657258383356,36.8955083896907,21600,2017-11-13 13:11:56,1857.18599692995,86.60000277120001,0.0,1.4580800466585602,1857.18599692995,86.60000277120001,1.0187991565468,1.4580800466585602,1024,0.0,98,GPS_Atti,
0.356657194747021,36.8955083056554,21700,2017-11-13 13:11:56,1857.2859969331503,86.7000027744,0.0,1.46492004687744,1857.2859969331503,86.7000027744,1.0187991565468,1.46492004687744,1024,0.0,98,GPS_Atti,
0.35665712133188,36.8955081833205,21800,2017-11-13 13:11:56,1857.2859969331503,86.7000027744,0.0,1.47559004721888,1857.2859969331503,86.7000027744,1.0187991565468,1.47559004721888,1024,0.0,98,GPS_Atti,
0.356657040557801,36.8955080698094,21900,2017-11-13 13:11:56,1857.2859969331503,86.7000027744,0.0,1.4851900475260802,1857.2859969331503,86.7000027744,1.0187991565468,1.4851900475260802,1024,0.0,98,GPS_Atti,
0.356656965153516,36.8955079822711,22000,2017-11-13 13:11:56,1857.38599693635,86.8000027776,0.0,1.49226004775232,1857.38599693635,86.8000027776,1.0187991565468,1.49226004775232,1024,0.0,98,GPS_Atti,
0.356656869341571,36.8955079293194,22100,2017-11-13 13:11:56,1857.38599693635,86.8000027776,0.0,1.49511004784352,1857.38599693635,86.8000027776,1.0187991565468,1.49511004784352,1024,0.0,98,GPS_Atti,
0.356656775982062,36.895507869441,22200,2017-11-13 13:11:57,1857.38599693635,86.8000027776,0.0,1.4988600479635201,1857.38599693635,86.8000027776,1.0187991565468,1.4988600479635201,1024,0.0,98,GPS_Atti,
0.356656666138629,36.8955078352911,22300,2017-11-13 13:11:57,1857.48599693955,86.90000278080001,0.0,1.49948004798336,1857.48599693955,86.90000278080001,1.0187991565468,1.49948004798336,1024,0.0,98,GPS_Atti,
0.356656545915495,36.8955078255465,22400,2017-11-13 13:11:57,1857.48599693955,86.90000278080001,0.0,1.4973000479136,1857.48599693955,86.90000278080001,1.0187991565468,1.49948004798336,1024,0.0,98,GPS_Atti,
0.356656410775813,36.895507846179,22500,2017-11-13 13:11:57,1857.48599693955,86.90000278080001,0.0,1.4915600477299202,1857.48599693955,86.90000278080001,1.0187991565468,1.49948004798336,950,0.0,98,GPS_Atti,
0.356656271784861,36.8955078627283,22600,2017-11-13 13:11:57,1857.48599693955,86.90000278080001,0.0,1.48631004756192,1857.48599693955,86.90000278080001,1.0187991565468,1.49948004798336,907,0.0,98,GPS_Atti,
0.356656130293433,36.8955078948591,22700,2017-11-13 13:11:57,1857.48599693955,86.90000278080001,0.0,1.4794500473424002,1857.48599693955,86.90000278080001,1.0187991565468,1.49948004798336,883,0.0,98,GPS_Atti,
0.3566560100475,36.8955079396035,22800,2017-11-13 13:11:57,1857.48599693955,86.90000278080001,0.35999970196000003,1.4718400470988802,1857.48599693955,86.90000278080001,1.0187991565468,1.49948004798336,826,0.0,98,GPS_Atti,
0.356655896479001,36.8955080131064,22900,2017-11-13 13:11:57,1857.48599693955,86.90000278080001,0.35999970196000003,1.46133004676256,1857.48599693955,86.90000278080001,1.0187991565468,1.49948004798336,864,0.0,98,GPS_Atti,
0.356655809360504,36.8955080937758,23000,2017-11-13 13:11:57,1857.48599693955,86.90000278080001,0.35999970196000003,1.4506700464214402,1857.48599693955,86.90000278080001,1.0187991565468,1.49948004798336,949,0.0,98,GPS_Atti,
0.356655713223684,36.8955081878277,23100,2017-11-13 13:11:57,1857.48599693955,86.90000278080001,0.35999970196000003,1.43841004602912,1857.48599693955,86.90000278080001,1.0187991565468,1.49948004798336,1024,0.0,98,GPS_Atti,
0.35665564558952,36.8955082757001,23200,2017-11-13 13:11:58,1857.38599693635,86.8000027776,0.35999970196000003,1.42743004567776,1857.48599693955,86.90000278080001,1.0187991565468,1.49948004798336,1024,0.0,98,GPS_Atti,
0.356655486849613,36.8955083858451,23400,2017-11-13 13:11:58,1857.38599693635,86.8000027776,0.0,1.4123000451936,1857.48599693955,86.90000278080001,1.0187991565468,1.49948004798336,1024,0.0,98,GPS_Atti,
0.35665540367765,36.8955084125908,23500,2017-11-13 13:11:58,1857.38599693635,86.8000027776,0.35999970196000003,1.40784004505088,1857.48599693955,86.90000278080001,1.0187991565468,1.49948004798336,1024,0.0,98,GPS_Atti,
0.356655372784439,36.8955084382166,23600,2017-11-13 13:11:58,1857.2859969331503,86.7000027744,0.35999970196000003,1.40447004494304,1857.48599693955,86.90000278080001,1.0187991565468,1.49948004798336,1024,0.0,98,GPS_Atti,
0.356655341426307,36.8955084927956,23700,2017-11-13 13:11:58,1857.2859969331503,86.7000027744,0.35999970196000003,1.3979200447334401,1857.48599693955,86.90000278080001,1.0187991565468,1.49948004798336,898,0.0,98,GPS_Atti,
0.356655354817002,36.8955085674953,23800,2017-11-13 13:11:58,1857.2859969331503,86.7000027744,0.35999970196000003,1.3899600444787201,1857.48599693955,86.90000278080001,1.0187991565468,1.49948004798336,792,0.0,98,GPS_Atti,
0.356655354050005,36.8955086532843,23900,2017-11-13 13:11:58,1857.2859969331503,86.7000027744,0.35999970196000003,1.3805300441769601,1857.48599693955,86.90000278080001,1.0187991565468,1.49948004798336,762,0.0,98,GPS_Atti,
0.356655358891369,36.8955087301788,24000,2017-11-13 13:11:58,1857.2859969331503,86.7000027744,0.35999970196000003,1.3721800439097602,1857.48599693955,86.90000278080001,1.0187991565468,1.49948004798336,764,0.0,98,GPS_Atti,
0.356655348825143,36.8955088133856,24100,2017-11-13 13:11:58,1857.2859969331503,86.7000027744,0.35999970196000003,1.36287004361184,1857.48599693955,86.90000278080001,1.0187991565468,1.49948004798336,786,0.0,98,GPS_Atti,
0.356655389221953,36.8955089294532,24200,2017-11-13 13:11:59,1857.18599692995,86.60000277120001,0.35999970196000003,1.35089004322848,1857.48599693955,86.90000278080001,1.0187991565468,1.49948004798336,976,0.0,98,GPS_Atti,
0.356655410494317,36.8955090518245,24300,2017-11-13 13:11:59,1857.08599692675,86.500002768,0.35999970196000003,1.33788004281216,1857.48599693955,86.90000278080001,1.0187991565468,1.49948004798336,1024,0.0,98,GPS_Atti,
0.356655452581452,36.8955091426367,24400,2017-11-13 13:11:59,1856.9859969235501,86.4000027648,0.35999970196000003,1.3287500425200003,1857.48599693955,86.90000278080001,1.0187991565468,1.49948004798336,1024,0.0,98,GPS_Atti,
0.356655468075282,36.8955091794095,24500,2017-11-13 13:11:59,1856.9859969235501,86.4000027648,0.0,1.3250300424009602,1857.48599693955,86.90000278080001,1.0187991565468,1.49948004798336,1024,0.0,98,GPS_Atti,
0.356655425194281,36.8955091836127,24600,2017-11-13 13:11:59,1856.9859969235501,86.4000027648,0.35999970196000003,1.3237300423593599,1857.48599693955,86.90000278080001,1.0187991565468,1.49948004798336,1024,0.0,98,GPS_Atti,
0.356655259417868,36.8955092507648,24800,2017-11-13 13:11:59,1856.9859969235501,86.4000027648,0.5075995797636,1.3132600420243201,1857.48599693955,86.90000278080001,1.0187991565468,1.49948004798336,1024,0.0,98,GPS_Atti,
0.356655213917514,36.8955093118723,24900,2017-11-13 13:11:59,1856.9859969235501,86.4000027648,0.35999970196000003,1.30574004178368,1857.48599693955,86.90000278080001,1.0187991565468,1.49948004798336,1024,0.0,98,GPS_Atti,
0.3566552100752,36.8955093941048,25000,2017-11-13 13:11:59,1857.08599692675,86.500002768,0.35999970196000003,1.2966500414928,1857.48599693955,86.90000278080001,1.0187991565468,1.49948004798336,1024,0.0,98,GPS_Atti,
0.356655205644204,36.8955094846943,25100,2017-11-13 13:11:59,1857.08599692675,86.500002768,0.35999970196000003,1.2866300411721598,1857.48599693955,86.90000278080001,1.0187991565468,1.49948004798336,1024,0.0,98,GPS_Atti,
0.356655220879112,36.8955096115471,25200,2017-11-13 13:12:00,1857.08599692675,86.500002768,0.35999970196000003,1.2729800407353602,1857.48599693955,86.90000278080001,1.0187991565468,1.49948004798336,831,0.0,98,GPS_Atti,
0.356655218680713,36.8955097319485,25300,2017-11-13 13:12:00,1857.08599692675,86.500002768,0.35999970196000003,1.25973004031136,1857.48599693955,86.90000278080001,1.0187991565468,1.49948004798336,749,0.0,98,GPS_Atti,
0.356655223761458,36.8955098211484,25400,2017-11-13 13:12:00,1857.08599692675,86.500002768,0.0,1.2500500400016,1857.48599693955,86.90000278080001,1.0187991565468,1.49948004798336,748,0.0,98,GPS_Atti,
0.356655224312686,36.8955098873434,25500,2017-11-13 13:12:00,1856.9859969235501,86.4000027648,0.35999970196000003,1.2428000397696,1857.48599693955,86.90000278080001,1.0187991565468,1.49948004798336,746,0.0,98,GPS_Atti,
0.356655303591854,36.895510001698,25600,2017-11-13 13:12:00,1856.9859969235501,86.4000027648,0.35999970196000003,1.23179003941728,1857.48599693955,86.90000278080001,1.0187991565468,1.49948004798336,749,0.0,98,GPS_Atti,
0.356655380964928,36.8955100917073,25700,2017-11-13 13:12:00,1856.8859969203502,86.3000027616,0.0,1.2235000391520001,1857.48599693955,86.90000278080001,1.0187991565468,1.49948004798336,750,0.0,98,GPS_Atti,
0.356655481061309,36.8955101381627,25800,2017-11-13 13:12:00,1856.68599691395,86.10000275520001,0.0,1.22054003905728,1857.48599693955,86.90000278080001,1.0187991565468,1.49948004798336,744,0.0,98,GPS_Atti,
0.356655559307229,36.8955101275274,25900,2017-11-13 13:12:00,1856.58599691075,86.000002752,0.0,1.22342003914944,1857.48599693955,86.90000278080001,1.0187991565468,1.49948004798336,738,0.0,98,GPS_Atti,
0.356655664169251,36.8955101015354,26000,2017-11-13 13:12:00,1856.48599690755,85.9000027488,0.0,1.2286500393168003,1857.48599693955,86.90000278080001,1.0187991565468,1.49948004798336,746,0.0,98,GPS_Atti,
0.356655748319909,36.895510068302,26100,2017-11-13 13:12:00,1856.38599690435,85.80000274560001,0.0,1.234250039496,1857.48599693955,86.90000278080001,1.0187991565468,1.49948004798336,826,0.0,98,GPS_Atti,
0.356655841438408,36.8955100672078,26200,2017-11-13 13:12:01,1856.2859969011502,85.7000027424,0.0,1.2366500395728,1857.48599693955,86.90000278080001,1.0187991565468,1.49948004798336,956,0.0,98,GPS_Atti,
0.356655930677139,36.8955100689101,26300,2017-11-13 13:12:01,1856.1859968979502,85.60000273920001,0.0,1.23873003963936,1857.48599693955,86.90000278080001,1.0187991565468,1.49948004798336,1024,0.0,98,GPS_Atti,
0.356656084846818,36.8955100505429,26400,2017-11-13 13:12:01,1856.1859968979502,85.60000273920001,0.0,1.2448000398335999,1857.48599693955,86.90000278080001,1.0187991565468,1.49948004798336,1024,0.0,98,GPS_Atti,
0.356656198079857,36.8955099797101,26500,2017-11-13 13:12:01,1856.1859968979502,85.60000273920001,0.0,1.2555600401779201,1857.48599693955,86.90000278080001,1.0187991565468,1.49948004798336,1024,0.0,98,GPS_Atti,
0.356656302997247,36.8955099088538,26600,2017-11-13 13:12:01,1856.1859968979502,85.60000273920001,0.0,1.26617004051744,1857.48599693955,86.90000278080001,1.0187991565468,1.49948004798336,1024,0.0,98,GPS_Atti,
0.356656372499236,36.8955098639423,26700,2017-11-13 13:12:01,1856.1859968979502,85.60000273920001,0.0,1.2730100407363203,1857.48599693955,86.90000278080001,1.0187991565468,1.49948004798336,1024,0.0,98,GPS_Atti,
0.356656500253111,36.89550985041,26800,2017-11-13 13:12:01,1856.1859968979502,85.60000273920001,0.0,1.2782900409052802,1857.48599693955,86.90000278080001,1.0187991565468,1.49948004798336,1024,0.0,98,GPS_Atti,
0.3566566031667,36.8955098484593,26900,2017-11-13 13:12:01,1856.1859968979502,85.60000273920001,0.0,1.28168004101376,1857.48599693955,86.90000278080001,1.0187991565468,1.49948004798336,1024,0.0,98,GPS_Atti,
0.356656739833048,36.8955098707042,27000,2017-11-13 13:12:01,1856.1859968979502,85.60000273920001,0.0,1.2837000410784,1857.48599693955,86.90000278080001,1.0187991565468,1.49948004798336,1024,0.0,98,GPS_Atti,
0.356656841906361,36.8955099068604,27100,2017-11-13 13:12:01,1856.1859968979502,85.60000273920001,0.0,1.2832500410640002,1857.48599693955,86.90000278080001,1.0187991565468,1.49948004798336,1024,0.0,98,GPS_Atti,
0.356656982422351,36.8955099499561,27200,2017-11-13 13:12:02,1856.1859968979502,85.60000273920001,0.0,1.2835200410726402,1857.48599693955,86.90000278080001,1.0187991565468,1.49948004798336,1024,0.0,98,GPS_Atti,
0.356657073231716,36.8955099888209,27300,2017-11-13 13:12:02,1856.1859968979502,85.60000273920001,0.0,1.28264004104448,1857.48599693955,86.90000278080001,1.0187991565468,1.49948004798336,1024,0.0,98,GPS_Atti,
0.356657177023851,36.8955100218531,27400,2017-11-13 13:12:02,1856.1859968979502,85.60000273920001,0.0,1.2829500410544,1857.48599693955,86.90000278080001,1.0187991565468,1.49948004798336,1024,-0.6,98,GPS_Atti,
0.356657233201098,36.895510065846,27500,2017-11-13 13:12:02,1856.1859968979502,85.60000273920001,0.0,1.2804400409740802,1857.48599693955,86.90000278080001,1.0187991565468,1.49948004798336,1024,-5.7,98,GPS_Atti,
0.356657297775416,36.8955100952425,27600,2017-11-13 13:12:02,1856.1859968979502,85.60000273920001,0.0,1.27981004095392,1857.48599693955,86.90000278080001,1.0187991565468,1.49948004798336,1024,-11.3,98,GPS_Atti,
0.356657331769184,36.8955101177828,27700,2017-11-13 13:12:02,1856.1859968979502,85.60000273920001,0.0,1.2787600409203201,1857.48599693955,86.90000278080001,1.0187991565468,1.49948004798336,1024,-17.0,98,GPS_Atti,
0.356657387430214,36.8955100978033,27800,2017-11-13 13:12:02,1856.1859968979502,85.60000273920001,0.0,1.2830000410559999,1857.48599693955,86.90000278080001,1.0187991565468,1.49948004798336,1024,-22.6,98,GPS_Atti,
0.356657408105754,36.8955100861274,27900,2017-11-13 13:12:02,1856.1859968979502,85.60000273920001,0.0,1.28502004112064,1857.48599693955,86.90000278080001,1.0187991565468,1.49948004798336,1024,-28.3,98,GPS_Atti,
0.356657450674094,36.8955100584311,28000,2017-11-13 13:12:02,1856.1859968979502,85.60000273920001,0.0,1.28957004126624,1857.48599693955,86.90000278080001,1.0187991565468,1.49948004798336,1024,-33.9,98,GPS_Atti,
0.356657465967626,36.8955100470185,28100,2017-11-13 13:12:02,1856.1859968979502,85.60000273920001,0.0,1.29136004132352,1857.48599693955,86.90000278080001,1.0187991565468,1.49948004798336,1024,-39.5,98,GPS_Atti,
0.356657509467436,36.8955100266536,28200,2017-11-13 13:12:03,1856.1859968979502,85.60000273920001,0.0,1.2952000414464,1857.48599693955,86.90000278080001,1.0187991565468,1.49948004798336,1024,-39.5,98,GPS_Atti,
0.356657528858947,36.8955100194699,28300,2017-11-13 13:12:03,1856.1859968979502,85.60000273920001,0.0,1.2967200414950402,1857.48599693955,86.90000278080001,1.0187991565468,1.49948004798336,1024,-45.1,98,GPS_Atti,
0.356657589176513,36.8955099946086,28400,2017-11-13 13:12:03,1856.1859968979502,85.60000273920001,0.0,1.30172004165504,1857.48599693955,86.90000278080001,1.0187991565468,1.49948004798336,1024,-56.5,98,GPS_Atti,
0.356657628237185,36.895509983545,28500,2017-11-13 13:12:03,1856.1859968979502,85.60000273920001,0.0,1.30444004174208,1857.48599693955,86.90000278080001,1.0187991565468,1.49948004798336,1024,-56.5,98,GPS_Atti,
0.356657682469255,36.8955099652207,28600,2017-11-13 13:12:03,1856.1859968979502,85.60000273920001,0.0,1.3085500418736,1857.48599693955,86.90000278080001,1.0187991565468,1.49948004798336,1024,-62.1,98,GPS_Atti,
0.356657705484868,36.8955099458793,28700,2017-11-13 13:12:03,1856.1859968979502,85.60000273920001,0.0,1.31149004196768,1857.48599693955,86.90000278080001,1.0187991565468,1.49948004798336,1024,-67.8,98,GPS_Atti,
0.356657736606061,36.895509935289,28800,2017-11-13 13:12:03,1856.1859968979502,85.60000273920001,0.0,1.31387004204384,1857.48599693955,86.90000278080001,1.0187991565468,1.49948004798336,1024,-73.4,98,GPS_Atti,
0.356657742116716,36.8955099538531,28900,2017-11-13 13:12:03,1856.1859968979502,85.60000273920001,0.0,1.31218004198976,1857.48599693955,86.90000278080001,1.0187991565468,1.49948004798336,1024,-79.1,98,GPS_Atti,
0.356657768245914,36.8955100061325,29000,2017-11-13 13:12:03,1856.1859968979502,85.60000273920001,0.0,1.30788004185216,1857.48599693955,86.90000278080001,1.0187991565468,1.49948004798336,1024,-84.7,98,GPS_Atti,
0.356657782976004,36.8955100646534,29100,2017-11-13 13:12:04,1856.1859968979502,85.60000273920001,0.0,1.30247004167904,1857.48599693955,86.90000278080001,1.0187991565468,1.49948004798336,1024,-89.9,98,GPS_Atti,
0.356657804346889,36.8955101244783,29200,2017-11-13 13:12:04,1856.1859968979502,85.60000273920001,0.0,1.2972200415110402,1857.48599693955,86.90000278080001,1.0187991565468,1.49948004798336,1024,-90.0,98,GPS_Atti,
0.356657796781138,36.8955101741796,29300,2017-11-13 13:12:04,1856.1859968979502,85.60000273920001,0.0,1.2917900413372803,1857.48599693955,86.90000278080001,1.0187991565468,1.49948004798336,1024,-89.9,98,GPS_Atti,
0.356657772924434,36.8955102337498,29400,2017-11-13 13:12:04,1856.1859968979502,85.60000273920001,0.0,1.28466004110912,1857.48599693955,86.90000278080001,1.0187991565468,1.49948004798336,1024,-90.0,98,GPS_Atti,
0.356657721559239,36.8955102833847,29500,2017-11-13 13:12:04,1856.1859968979502,85.60000273920001,0.0,1.27737004087584,1857.48599693955,86.90000278080001,1.0187991565468,1.49948004798336,1024,-90.0,98,GPS_Atti,
0.356657684478755,36.8955103275939,29600,2017-11-13 13:12:04,1856.1859968979502,85.60000273920001,0.0,1.27126004068032,1857.48599693955,86.90000278080001,1.0187991565468,1.49948004798336,1024,-90.0,98,GPS_Atti,
