latitude,longitude,time_millisecond,datetime_utc,altitude_m,ascent_m,speed_kph,distance_m,max_altitude_m,max_ascent_m,max_speed_kph,max_distance_m,rc_throttle,gimbal_pitch_degrees,battery_percent,flycState,message
0.307529460022083,36.879396596544794,0,2018-03-31 05:44:40,1770.6106523595427,0.0,0.0,0.0,1770.6106523595427,0.0,0.0,0.0,364,0.0,98,Motors_Started,
0.307529457006204,36.8793965963521,100,2018-03-31 05:44:40,1770.6106523595427,0.0,0.0,0.000336068010754176,1770.6106523595427,0.0,0.0,0.000336068010754176,364,0.0,98,Motors_Started,
0.307529452870771,36.879396632956706,200,2018-03-31 05:44:40,1770.6106523595427,0.0,0.0,0.00412652013204864,1770.6106523595427,0.0,0.0,0.00412652013204864,364,0.0,98,Motors_Started,
0.30752944990374603,36.879396663184295,300,2018-03-31 05:44:40,1770.6106523595427,0.0,0.0,0.007495550239857601,1770.6106523595427,0.0,0.0,0.007495550239857601,364,0.0,98,Motors_Started,
0.307529447180173,36.8793966881154,400,2018-03-31 05:44:40,1770.6106523595427,0.0,0.0,0.010282700329046402,1770.6106523595427,0.0,0.0,0.010282700329046402,364,0.0,98,Motors_Started,
0.30752944529850607,36.8793967071706,500,2018-03-31 05:44:40,1770.6106523595427,0.0,0.0,0.0124106003971392,1770.6106523595427,0.0,0.0,0.0124106003971392,364,0.0,98,Motors_Started,
0.30752944405518895,36.879396718804706,600,2018-03-31 05:44:41,1770.6106523595427,0.0,0.0,0.013711300438761601,1770.6106523595427,0.0,0.0,0.013711300438761601,364,0.0,98,Motors_Started,
0.307529443595154,36.8793967285091,700,2018-03-31 05:44:41,1770.6106523595427,0.0,0.0,0.0147883004732256,1770.6106523595427,0.0,0.0,0.0147883004732256,383,0.0,98,Motors_Started,
0.307529481302589,36.8793967674516,800,2018-03-31 05:44:41,1770.6106523595427,0.0,0.0,0.0191524006128768,1770.6106523595427,0.0,0.0,0.0191524006128768,551,0.0,98,Motors_Started,
0.307529512210456,36.879396801313,900,2018-03-31 05:44:41,1770.6106523595427,0.0,0.0,0.023499100751971203,1770.6106523595427,0.0,0.0,0.023499100751971203,716,0.0,98,Motors_Started,
0.307529538307899,36.8793968237066,1000,2018-03-31 05:44:41,1770.6106523595427,0.0,0.0,0.026719500855024,1770.6106523595427,0.0,0.0,0.026719500855024,1024,0.0,98,Motors_Started,
0.307529558367072,36.8793968424339,1100,2018-03-31 05:44:41,1770.6106523595427,0.0,0.0,0.029450000942400006,1770.6106523595427,0.0,0.0,0.029450000942400006,1024,0.0,98,Motors_Started,
0.30752956988261404,36.87939685027779,1200,2018-03-31 05:44:41,1770.6106523595427,0.0,0.0,0.030747600983923207,1770.6106523595427,0.0,0.0,0.030747600983923207,1024,0.0,98,Motors_Started,
0.307529580912065,36.8793968588364,1300,2018-03-31 05:44:41,1770.6106523595427,0.0,0.0,0.0321171010277472,1770.6106523595427,0.0,0.0,0.0321171010277472,1024,0.0,98,Motors_Started,
0.30752958440182104,36.879396856961,1400,2018-03-31 05:44:41,1770.6106523595427,0.0,0.0,0.0320931010269792,1770.6106523595427,0.0,0.0,0.0321171010277472,1024,0.0,98,Motors_Started,
0.30752958981395395,36.8793968598816,1500,2018-03-31 05:44:41,1770.6106523595427,0.0,0.0,0.0326481010447392,1770.6106523595427,0.0,0.0,0.0326481010447392,1024,0.0,98,Motors_Started,
0.307529588683,36.879396854379,1600,2018-03-31 05:44:42,1770.6106523595427,0.0,0.0,0.032044001025408005,1770.6106523595427,0.0,0.0,0.0326481010447392,1024,0.0,98,Assisted_Takeoff,
0.307529591225815,36.879396853514,1700,2018-03-31 05:44:42,1770.6106523595427,0.0,0.0,0.032085501026736005,1770.6106523595427,0.0,0.0,0.0326481010447392,1024,0.0,98,Assisted_Takeoff,
0.30752958730208,36.8793968461777,1800,2018-03-31 05:44:42,1770.6106523595427,0.0,0.0,0.031160500997136006,1770.6106523595427,0.0,0.0,0.0326481010447392,1024,0.0,98,Assisted_Takeoff,Setting new Return-To-Home altitude to 45m (148 ft). Setting new Maximum Flight Altitude to 150m (492 ft)
0.3075295879559,36.8793968448092,1900,2018-03-31 05:44:42,1770.6106523595427,0.0,0.0,0.0310583009938656,1770.6106523595427,0.0,0.0,0.0326481010447392,1024,0.0,98,Assisted_Takeoff,
0.307529584476729,36.879396874140795,2000,2018-03-31 05:44:42,1770.6106523595427,0.0,0.0,0.033830501082576,1770.6106523595427,0.0,0.0,0.033830501082576,1024,0.0,98,Assisted_Takeoff,
0.30752958599199604,36.87939690142289,2100,2018-03-31 05:44:42,1770.6106523595427,0.0,0.0,0.0366839011738848,1770.6106523595427,0.0,0.0,0.0366839011738848,1024,0.0,98,Assisted_Takeoff,
0.30752958400448,36.879396919985105,2200,2018-03-31 05:44:42,1770.6106523595427,0.0,0.0,0.0385201012326432,1770.6106523595427,0.0,0.0,0.0385201012326432,1024,0.0,98,Assisted_Takeoff,
0.307529586382009,36.879396936338395,2300,2018-03-31 05:44:42,1770.6106523595427,0.0,0.0,0.0403148012900736,1770.6106523595427,0.0,0.0,0.0403148012900736,1024,0.0,98,Assisted_Takeoff,
0.30752958472751,36.8793969435563,2400,2018-03-31 05:44:42,1770.6106523595427,0.0,0.0,0.041005501312176,1770.6106523595427,0.0,0.0,0.041005501312176,1024,0.0,98,Assisted_Takeoff,
0.30752958723857,36.87939695234879,2500,2018-03-31 05:44:42,1770.6106523595427,0.0,0.0,0.0420201013446432,1770.6106523595427,0.0,0.0,0.0420201013446432,1024,0.0,98,Assisted_Takeoff,
0.30752958562396804,36.8793969516251,2600,2018-03-31 05:44:43,1770.6106523595427,0.0,0.0,0.041884101340291205,1770.6106523595427,0.0,0.0,0.0420201013446432,1024,0.0,98,Assisted_Takeoff,
0.307529588465603,36.879396954976,2700,2018-03-31 05:44:43,1770.6106523595427,0.0,0.0,0.04234120135491841,1770.6106523595427,0.0,0.0,0.04234120135491841,1024,0.0,98,Assisted_Takeoff,
0.30752958697232,36.8793969500631,2800,2018-03-31 05:44:43,1770.6106523595427,0.0,0.0,0.04177090133666881,1770.6106523595427,0.0,0.0,0.04234120135491841,1024,0.0,98,Assisted_Takeoff,
0.307529590018324,36.8793969504139,2900,2018-03-31 05:44:43,1770.6106523595427,0.0,0.0,0.041923201341542406,1770.6106523595427,0.0,0.0,0.04234120135491841,1024,0.0,98,Assisted_Takeoff,
0.30752962538487105,36.8793969444417,3000,2018-03-31 05:44:43,1770.6106523595427,0.0,0.0,0.0428358013707456,1770.6106523595427,0.0,0.0,0.0428358013707456,1024,0.0,98,Assisted_Takeoff,
0.30752965848706604,36.879396943729404,3100,2018-03-31 05:44:43,1770.6106523595427,0.0,0.0,0.0444716014230912,1770.6106523595427,0.0,0.0,0.0444716014230912,1024,0.0,98,Assisted_Takeoff,
0.30752968271505604,36.8793969380997,3200,2018-03-31 05:44:43,1770.6106523595427,0.0,0.0,0.0453427014509664,1770.6106523595427,0.0,0.0,0.0453427014509664,1024,0.0,98,Assisted_Takeoff,
0.30752971807346097,36.879396930320794,3400,2018-03-31 05:44:43,1770.6106523595427,0.0,0.0,0.0469171015013472,1770.6106523595427,0.0,0.0,0.0469171015013472,1024,0.0,98,Assisted_Takeoff,
0.30752973332872396,36.879396928874996,3500,2018-03-31 05:44:43,1770.6106523595427,0.0,0.0,0.047849201531174404,1770.6106523595427,0.0,0.0,0.047849201531174404,1024,0.0,98,Assisted_Takeoff,
0.30752973505243203,36.879396924114296,3600,2018-03-31 05:44:44,1770.6106523595427,0.0,0.0,0.0475646015220672,1770.6106523595427,0.0,0.0,0.047849201531174404,1024,0.0,98,Assisted_Takeoff,
0.307529743391694,36.8793969230676,3700,2018-03-31 05:44:44,1770.6106523595427,0.0,0.0,0.04807810153849921,1770.6106523595427,0.0,0.0,0.04807810153849921,1024,0.0,98,Assisted_Takeoff,
0.307529739266845,36.879396919563,3800,2018-03-31 05:44:44,1770.6106523595427,0.0,0.0,0.0474832015194624,1770.6106523595427,0.0,0.0,0.04807810153849921,1024,0.0,98,Assisted_Takeoff,
0.307529742470808,36.879396918732795,3900,2018-03-31 05:44:44,1770.6106523595427,0.0,0.0,0.047647501524720005,1770.6106523595427,0.0,0.0,0.04807810153849921,1026,0.0,98,Assisted_Takeoff,
0.30752973494006897,36.87939691553439,4000,2018-03-31 05:44:44,1770.6106523595427,0.0,0.0,0.046829701498550404,1770.6106523595427,0.0,0.0,0.04807810153849921,1035,0.0,98,Assisted_Takeoff,
0.307529736003443,36.879396914634,4100,2018-03-31 05:44:44,1770.6106523595427,0.0,0.0,0.0468313014986016,1770.6106523595427,0.0,0.0,0.04807810153849921,1058,0.0,98,Assisted_Takeoff,
0.30752972747935303,36.8793969112156,4200,2018-03-31 05:44:44,1770.6106523595427,0.0,0.0,0.045925301469609596,1770.6106523595427,0.0,0.0,0.04807810153849921,1091,0.0,98,Assisted_Takeoff,
0.3075297277912,36.879396910169895,4300,2018-03-31 05:44:44,1770.6106523595427,0.0,0.0,0.0458593014674976,1770.6106523595427,0.0,0.0,0.04807810153849921,1121,0.0,98,Assisted_Takeoff,
0.307529720579636,36.8793969076155,4400,2018-03-31 05:44:44,1770.6106523595427,0.0,0.0,0.04512450144398399,1770.6106523595427,0.0,0.0,0.04807810153849921,1134,0.0,98,Assisted_Takeoff,
0.30752972196707,36.879396907047,4500,2018-03-31 05:44:44,1770.6106523595427,0.0,0.0,0.0451754014456128,1770.6106523595427,0.0,0.0,0.04807810153849921,1133,0.0,98,Assisted_Takeoff,
0.30752971622924796,36.8793969052856,4600,2018-03-31 05:44:45,1770.6106523595427,0.0,0.0,0.0446157014277024,1770.6106523595427,0.0,0.0,0.04807810153849921,1136,0.0,98,Assisted_Takeoff,
0.307529717652508,36.8793969051164,4700,2018-03-31 05:44:45,1770.6106523595427,0.0,0.0,0.04470250143048,1770.6106523595427,0.0,0.0,0.04807810153849921,1130,0.0,98,Assisted_Takeoff,
0.307529711157459,36.879396904211795,4800,2018-03-31 05:44:45,1770.6106523595427,0.0,0.0,0.044165101413283205,1770.6106523595427,0.0,0.0,0.04807810153849921,1147,0.0,98,Assisted_Takeoff,
0.30752971238286303,36.8793969046446,4900,2018-03-31 05:44:45,1770.6106523595427,0.0,0.0,0.0442886014172352,1770.6106523595427,0.0,0.0,0.04807810153849921,1155,0.0,98,Assisted_Takeoff,
0.307529745056778,36.879396904588106,5000,2018-03-31 05:44:45,1770.6106523595427,0.0,0.0,0.04667120149347839,1770.6106523595427,0.0,0.0,0.04807810153849921,1149,0.0,98,Assisted_Takeoff,
0.307529777358593,36.8793969054917,5100,2018-03-31 05:44:45,1770.6106523595427,0.0,0.0,0.049251601576051206,1770.6106523595427,0.0,0.0,0.049251601576051206,1143,0.0,98,Assisted_Takeoff,
0.30752980207674396,36.879396907717705,5200,2018-03-31 05:44:45,1770.6106523595427,0.0,0.0,0.051423301645545594,1770.6106523595427,0.0,0.0,0.051423301645545594,1142,0.0,98,Assisted_Takeoff,
0.307529836195089,36.8793969135029,5300,2018-03-31 05:44:45,1770.6106523595427,0.0,0.0,0.054702301750473595,1770.6106523595427,0.0,0.0,0.054702301750473595,1158,0.0,98,Assisted_Takeoff,
0.30752989569680395,36.8793969284556,5400,2018-03-31 05:44:45,1770.6106523595427,0.0,0.0,0.06090750194904001,1770.6106523595427,0.0,0.0,0.06090750194904001,1175,0.0,98,Assisted_Takeoff,
0.307529993293524,36.8793969445032,5500,2018-03-31 05:44:45,1770.6106523595427,0.0,0.0,0.0708104022659328,1770.6106523595427,0.0,0.0,0.0708104022659328,1179,0.0,98,Assisted_Takeoff,
0.307530105632547,36.8793969300989,5600,2018-03-31 05:44:46,1770.6106523595427,0.0,0.35999970196000003,0.08081160258597121,1770.6106523595427,0.0,0.35999970196000003,0.08081160258597121,1189,0.0,98,P-GPS,
0.30753021817105497,36.8793968946653,5700,2018-03-31 05:44:46,1770.6106523595427,0.0,0.35999970196000003,0.0905946028990272,1770.6106523595427,0.0,0.35999970196000003,0.0905946028990272,1206,0.0,98,P-GPS,
0.307530354515785,36.879396852270496,5800,2018-03-31 05:44:46,1770.6106523595427,0.0,0.35999970196000003,0.103458003310656,1770.6106523595427,0.0,0.35999970196000003,0.103458003310656,1243,0.0,98,P-GPS,Home Point Recorded. RTH Altitude:  45m.
0.30753050083392103,36.8793968070458,5900,2018-03-31 05:44:46,1770.7106523627428,0.10000000320000002,0.35999970196000003,0.118088003778816,1770.7106523627428,0.10000000320000002,0.35999970196000003,0.118088003778816,1238,0.0,98,P-GPS,
0.307530626928411,36.8793967371303,6000,2018-03-31 05:44:46,1770.7106523627428,0.10000000320000002,0.35999970196000003,0.13070500418256,1770.7106523627428,0.10000000320000002,0.35999970196000003,0.13070500418256,1243,0.0,98,P-GPS,
0.307530916291917,36.8793966890214,6200,2018-03-31 05:44:46,1770.8106523659428,0.20000000640000004,0.35999970196000003,0.16227200519270404,1770.8106523659428,0.20000000640000004,0.35999970196000003,0.16227200519270404,1252,0.0,98,P-GPS,
0.30753108231666804,36.879396694282,6300,2018-03-31 05:44:46,1770.9106523691428,0.3000000096,0.35999970196000003,0.18073600578355198,1770.9106523691428,0.3000000096,0.35999970196000003,0.18073600578355198,1228,0.0,98,P-GPS,
0.307531241708359,36.8793966419607,6400,2018-03-31 05:44:46,1771.010652372343,0.4000000128000001,0.35999970196000003,0.19819900634236803,1771.010652372343,0.4000000128000001,0.35999970196000003,0.19819900634236803,1214,0.0,98,P-GPS,
0.307531408322607,36.8793966089715,6500,2018-03-31 05:44:46,1771.010652372343,0.4000000128000001,0.35999970196000003,0.216667006933344,1771.010652372343,0.4000000128000001,0.35999970196000003,0.216667006933344,1221,0.0,98,P-GPS,
0.30753158258158503,36.8793966000845,6600,2018-03-31 05:44:47,1771.110652375543,0.500000016,0.35999970196000003,0.236042007553344,1771.110652375543,0.500000016,0.35999970196000003,0.236042007553344,1221,0.0,98,P-GPS,
0.307531754738648,36.879396581221705,6700,2018-03-31 05:44:47,1771.210652378743,0.6000000192,0.35999970196000003,0.255192008166144,1771.210652378743,0.6000000192,0.35999970196000003,0.255192008166144,1208,0.0,98,P-GPS,
0.30753189250948904,36.8793965676796,6800,2018-03-31 05:44:47,1771.3106523819429,0.7000000224000001,0.0,0.270526008656832,1771.3106523819429,0.7000000224000001,0.35999970196000003,0.270526008656832,1195,0.0,98,P-GPS,
0.30753200474062803,36.8793965436084,6900,2018-03-31 05:44:47,1771.410652385143,0.8000000256000002,0.0,0.28304900905756797,1771.410652385143,0.8000000256000002,0.35999970196000003,0.28304900905756797,1195,0.0,98,P-GPS,
0.30753208233802004,36.8793964997131,7000,2018-03-31 05:44:47,1771.5106523883428,0.9000000288000001,0.0,0.291816009338112,1771.5106523883428,0.9000000288000001,0.35999970196000003,0.291816009338112,1225,0.0,98,P-GPS,
0.307532157344964,36.8793964657909,7100,2018-03-31 05:44:47,1771.6106523915428,1.000000032,0.0,0.300311009609952,1771.6106523915428,1.000000032,0.35999970196000003,0.300311009609952,1270,0.0,98,P-GPS,
0.30753225250349603,36.879396410349,7200,2018-03-31 05:44:47,1771.7106523947427,1.1000000352,0.0,0.31123000995936,1771.7106523947427,1.1000000352,0.35999970196000003,0.31123000995936,1271,0.0,98,P-GPS,
0.30753235125111894,36.8793963702634,7300,2018-03-31 05:44:47,1771.7106523947427,1.1000000352,0.0,0.32250501032016005,1771.7106523947427,1.1000000352,0.35999970196000003,0.32250501032016005,1256,0.0,98,P-GPS,
0.307532451052752,36.8793963624928,7400,2018-03-31 05:44:47,1771.810652397943,1.2000000384,0.0,0.3336380106764161,1771.810652397943,1.2000000384,0.35999970196000003,0.3336380106764161,1277,0.0,98,P-GPS,
0.307532536905948,36.879396370546296,7500,2018-03-31 05:44:47,1771.910652401143,1.3000000416000002,0.0,0.34309001097888003,1771.910652401143,1.3000000416000002,0.35999970196000003,0.34309001097888003,1298,0.0,98,P-GPS,
0.30753257760768393,36.8793963914641,7600,2018-03-31 05:44:47,1772.1106524075428,1.5000000480000002,0.0,0.34744401111820805,1772.1106524075428,1.5000000480000002,0.35999970196000003,0.34744401111820805,1301,0.0,98,P-GPS,
0.307532616505919,36.8793963986525,7700,2018-03-31 05:44:48,1772.210652410743,1.6000000512000003,0.0,0.35170901125468806,1772.210652410743,1.6000000512000003,0.35999970196000003,0.35170901125468806,1300,0.0,98,P-GPS,
0.307532682746136,36.879396392988,7800,2018-03-31 05:44:48,1772.3106524139428,1.7000000544000002,0.0,0.359101011491232,1772.3106524139428,1.7000000544000002,0.35999970196000003,0.359101011491232,1289,0.0,98,P-GPS,
0.307532772117585,36.87939639110861,7900,2018-03-31 05:44:48,1772.4106524171427,1.8000000576000001,0.0,0.369033011809056,1772.4106524171427,1.8000000576000001,0.35999970196000003,0.369033011809056,1289,0.0,98,P-GPS,
0.307532875388211,36.8793964094545,8000,2018-03-31 05:44:48,1772.610652423543,2.000000064,0.0,0.3803790121721281,1772.610652423543,2.000000064,0.35999970196000003,0.3803790121721281,1284,0.0,98,P-GPS,
0.307532978202465,36.8793964440084,8100,2018-03-31 05:44:48,1772.7106524267429,2.1000000672,0.0,0.39161101253155206,1772.7106524267429,2.1000000672,0.35999970196000003,0.39161101253155206,1274,0.0,98,P-GPS,
0.307533078223124,36.879396473452296,8200,2018-03-31 05:44:48,1772.910652433143,2.3000000736,0.0,0.4025990128831681,1772.910652433143,2.3000000736,0.35999970196000003,0.4025990128831681,1275,0.0,98,P-GPS,
0.30753316570394895,36.879396491261296,8300,2018-03-31 05:44:48,1773.010652436343,2.4000000768,0.0,0.412261013192352,1773.010652436343,2.4000000768,0.35999970196000003,0.412261013192352,1279,0.0,98,P-GPS,
0.307533244976603,36.879396479438796,8400,2018-03-31 05:44:48,1773.110652439543,2.50000008,0.0,0.421111013475552,1773.110652439543,2.50000008,0.35999970196000003,0.421111013475552,1273,0.0,98,P-GPS,
0.30753331464713696,36.8793964592263,8500,2018-03-31 05:44:48,1773.2106524427427,2.6000000832000003,0.0,0.42893001372576,1773.2106524427427,2.6000000832000003,0.35999970196000003,0.42893001372576,1283,0.0,98,P-GPS,
0.30753339293580295,36.879396417502704,8600,2018-03-31 05:44:49,1773.4106524491428,2.8000000896000006,0.0,0.437817014010144,1773.4106524491428,2.8000000896000006,0.35999970196000003,0.437817014010144,1300,0.0,98,P-GPS,
0.307533468706081,36.8793963954574,8700,2018-03-31 05:44:49,1773.5106524523428,2.9000000928,0.0,0.446351014283232,1773.5106524523428,2.9000000928,0.35999970196000003,0.446351014283232,1295,0.0,98,P-GPS,
0.30753352736507694,36.879396396749,8800,2018-03-31 05:44:49,1773.6106524555428,3.0000000960000004,0.0,0.452859014491488,1773.6106524555428,3.0000000960000004,0.35999970196000003,0.452859014491488,1282,0.0,98,P-GPS,
0.307533585141048,36.8793964085435,8900,2018-03-31 05:44:49,1773.710652458743,3.1000000992,0.0,0.4592150146948801,1773.710652458743,3.1000000992,0.35999970196000003,0.4592150146948801,1289,0.0,98,P-GPS,
0.307533627546137,36.879396380696605,9000,2018-03-31 05:44:49,1773.910652465143,3.3000001056,0.0,0.46407501485040004,1773.910652465143,3.3000001056,0.35999970196000003,0.46407501485040004,1296,0.0,98,P-GPS,
0.307533663079192,36.8793963589593,9100,2018-03-31 05:44:49,1774.0106524683426,3.4000001088000005,0.0,0.46815201498086406,1774.0106524683426,3.4000001088000005,0.35999970196000003,0.46815201498086406,1290,0.0,98,P-GPS,
0.30753368437598305,36.87939635696689,9200,2018-03-31 05:44:49,1774.110652471543,3.500000112,0.0,0.470529015056928,1774.110652471543,3.500000112,0.35999970196000003,0.470529015056928,1294,0.0,98,P-GPS,
0.307533711871853,36.8793963334059,9300,2018-03-31 05:44:49,1774.2106524747428,3.6000001152000003,0.0,0.473736015159552,1774.2106524747428,3.6000001152000003,0.35999970196000003,0.473736015159552,1295,0.0,98,P-GPS,
0.307533741052755,36.8793962645169,9400,2018-03-31 05:44:49,1774.4106524811427,3.8000001215999997,0.0,0.47750601528019204,1774.4106524811427,3.8000001215999997,0.35999970196000003,0.47750601528019204,1301,0.0,98,P-GPS,
0.30753378178421004,36.879396207717704,9500,2018-03-31 05:44:49,1774.510652484343,3.9000001248,0.0,0.48254701544150397,1774.510652484343,3.9000001248,0.35999970196000003,0.48254701544150397,1325,0.0,98,P-GPS,
0.307533848738092,36.8793961636795,9600,2018-03-31 05:44:49,1774.610652487543,4.000000128,0.0,0.49042001569344,1774.610652487543,4.000000128,0.35999970196000003,0.49042001569344,1346,0.0,98,P-GPS,
0.307533941295185,36.8793961444854,9700,2018-03-31 05:44:50,1774.8106524939428,4.2000001344,0.0,0.500874016027968,1774.8106524939428,4.2000001344,0.35999970196000003,0.500874016027968,1340,0.0,98,P-GPS,
0.307534045099126,36.8793961105308,9800,2018-03-31 05:44:50,1774.910652497143,4.3000001376,0.0,0.5127450164078401,1774.910652497143,4.3000001376,0.35999970196000003,0.5127450164078401,1343,0.0,98,P-GPS,
0.307534138243273,36.879396086617,9900,2018-03-31 05:44:50,1775.1106525035427,4.5000001439999995,0.0,0.5233280167464961,1775.1106525035427,4.5000001439999995,0.35999970196000003,0.5233280167464961,1355,0.0,98,P-GPS,
0.30753421068725106,36.8793961003273,10000,2018-03-31 05:44:50,1775.3106525099429,4.700000150400001,0.0,0.5311770169976641,1775.3106525099429,4.700000150400001,0.35999970196000003,0.5311770169976641,1355,0.0,98,P-GPS,
0.307534286836345,36.879396143883206,10100,2018-03-31 05:44:50,1775.4106525131428,4.8000001536,0.0,0.5391260172520321,1775.4106525131428,4.8000001536,0.35999970196000003,0.5391260172520321,1359,0.0,98,P-GPS,
0.307534334529399,36.8793962003143,10200,2018-03-31 05:44:50,1775.610652519543,5.00000016,0.0,0.5438630174036161,1775.610652519543,5.00000016,0.35999970196000003,0.5438630174036161,1345,0.0,98,P-GPS,
0.307534386640217,36.8793962578441,10300,2018-03-31 05:44:50,1775.810652525943,5.200000166400001,0.0,0.5491630175732161,1775.810652525943,5.200000166400001,0.35999970196000003,0.5491630175732161,1344,0.0,98,P-GPS,
0.307534401532541,36.8793963231882,10400,2018-03-31 05:44:50,1776.0106525323429,5.4000001727999996,0.0,0.5503660176117121,1776.0106525323429,5.4000001727999996,0.35999970196000003,0.5503660176117121,1339,0.0,98,P-GPS,
0.307534414977789,36.879396388370296,10500,2018-03-31 05:44:50,1776.2106525387428,5.600000179200001,0.0,0.551507017648224,1776.2106525387428,5.600000179200001,0.35999970196000003,0.551507017648224,1340,0.0,98,P-GPS,
0.307534407366035,36.8793964851766,10600,2018-03-31 05:44:51,1776.3106525419428,5.7000001824,0.0,0.5503140176100481,1776.3106525419428,5.7000001824,0.35999970196000003,0.551507017648224,1366,0.0,98,P-GPS,
0.307534413544148,36.87939656340279,10700,2018-03-31 05:44:51,1776.510652548343,5.9000001888,0.0,0.550874017627968,1776.510652548343,5.9000001888,0.35999970196000003,0.551507017648224,1400,0.0,98,P-GPS,
0.307534398102835,36.8793965868579,10800,2018-03-31 05:44:51,1776.7106525547426,6.1000001952,0.0,0.5491460175726721,1776.7106525547426,6.1000001952,0.35999970196000003,0.551507017648224,1410,0.0,98,P-GPS,
0.30753439665860804,36.8793966109151,10900,2018-03-31 05:44:51,1776.9106525611428,6.300000201600001,0.0,0.548986017567552,1776.9106525611428,6.300000201600001,0.35999970196000003,0.551507017648224,1413,0.0,98,P-GPS,
0.30753438602059496,36.87939660185071,11000,2018-03-31 05:44:51,1777.0106525643428,6.400000204800001,0.0,0.5478010175296321,1777.0106525643428,6.400000204800001,0.35999970196000003,0.551507017648224,1421,0.0,98,P-GPS,
0.307534392226595,36.879396608793705,11100,2018-03-31 05:44:51,1777.210652570743,6.6000002112,0.0,0.548493017551776,1777.210652570743,6.6000002112,0.35999970196000003,0.551507017648224,1406,0.0,98,P-GPS,
0.30753437503063297,36.879396619084,11200,2018-03-31 05:44:51,1777.510652580343,6.9000002208,0.0,0.54658501749072,1777.510652580343,6.9000002208,0.35999970196000003,0.551507017648224,1369,0.0,98,P-GPS,
0.307534356732622,36.879396630040205,11300,2018-03-31 05:44:51,1777.7106525867428,7.100000227200002,0.0,0.5445570174258241,1777.7106525867428,7.100000227200002,0.35999970196000003,0.551507017648224,1334,0.0,98,P-GPS,
0.307534356954701,36.8793966138911,11400,2018-03-31 05:44:51,1777.910652593143,7.3000002336000005,0.0,0.544572017426304,1777.910652593143,7.3000002336000005,0.35999970196000003,0.551507017648224,1346,0.0,98,P-GPS,
0.30753436400566,36.8793966014872,11500,2018-03-31 05:44:51,1778.1106525995428,7.50000024,0.0,0.545353017451296,1778.1106525995428,7.50000024,0.35999970196000003,0.551507017648224,1383,0.0,98,P-GPS,
0.307534356383932,36.879396572950604,11600,2018-03-31 05:44:52,1778.310652605943,7.7000002464,0.0,0.544512017424384,1778.310652605943,7.7000002464,0.35999970196000003,0.551507017648224,1383,0.0,98,P-GPS,
0.30753434404073304,36.8793965499067,11700,2018-03-31 05:44:52,1778.5106526123427,7.9000002528,0.0,0.5431570173810241,1778.5106526123427,7.9000002528,0.35999970196000003,0.551507017648224,1421,0.0,98,P-GPS,
0.307534311138633,36.8793965200059,11800,2018-03-31 05:44:52,1778.7106526187429,8.1000002592,0.0,0.539541017265312,1778.7106526187429,8.1000002592,0.35999970196000003,0.551507017648224,1425,0.0,98,P-GPS,
0.307534308930463,36.8793964999698,11900,2018-03-31 05:44:52,1778.9106526251428,8.3000002656,0.0,0.53933501725872,1778.9106526251428,8.3000002656,0.35999970196000003,0.551507017648224,1446,0.0,98,P-GPS,
0.307534327685252,36.8793964551476,12000,2018-03-31 05:44:52,1779.210652634743,8.6000002752,0.0,0.541542017329344,1779.210652634743,8.6000002752,0.35999970196000003,0.551507017648224,1454,0.0,98,P-GPS,
0.30753434960125897,36.8793964212757,12100,2018-03-31 05:44:52,1779.4106526411426,8.8000002816,0.0,0.5441000174112001,1779.4106526411426,8.8000002816,0.35999970196000003,0.551507017648224,1454,0.0,98,P-GPS,
0.307534310762055,36.8793963963952,12200,2018-03-31 05:44:52,1779.6106526475428,9.000000287999999,0.0,0.5398910172765121,1779.6106526475428,9.000000287999999,0.35999970196000003,0.551507017648224,1456,0.0,98,P-GPS,
0.30753427996940097,36.8793963837215,12300,2018-03-31 05:44:52,1779.910652657143,9.3000002976,0.0,0.53653001716896,1779.910652657143,9.3000002976,0.35999970196000003,0.551507017648224,1457,0.0,98,P-GPS,
0.30753427733905603,36.879396381307394,12400,2018-03-31 05:44:52,1780.210652666743,9.6000003072,0.0,0.536249017159968,1780.210652666743,9.6000003072,0.35999970196000003,0.551507017648224,1466,0.0,98,P-GPS,
0.307534294892461,36.87939637780121,12500,2018-03-31 05:44:52,1780.4106526731427,9.8000003136,0.0,0.538217017222944,1780.4106526731427,9.8000003136,0.35999970196000003,0.551507017648224,1502,0.0,98,P-GPS,
0.307534278407926,36.879396373431,12600,2018-03-31 05:44:53,1780.7106526827429,10.100000323200002,0.0,0.536408017165056,1780.7106526827429,10.100000323200002,0.35999970196000003,0.551507017648224,1517,0.0,98,P-GPS,
0.30753427317125803,36.879396369931506,12700,2018-03-31 05:44:53,1781.010652692343,10.400000332800001,0.0,0.535844017147008,1781.010652692343,10.400000332800001,0.35999970196000003,0.551507017648224,1513,0.0,98,P-GPS,
0.307534264200974,36.879396336831796,12800,2018-03-31 05:44:53,1781.3106527019427,10.700000342400001,0.0,0.5350340171210879,1781.3106527019427,10.700000342400001,0.35999970196000003,0.551507017648224,1518,0.0,98,P-GPS,
0.307534280841432,36.879396308208705,12900,2018-03-31 05:44:53,1781.6106527115428,11.000000352000002,0.0,0.537063017186016,1781.6106527115428,11.000000352000002,0.35999970196000003,0.551507017648224,1518,0.0,98,P-GPS,
0.30753427759044705,36.8793962925538,13000,2018-03-31 05:44:53,1782.010652724343,11.4000003648,0.0,0.5368080171778561,1782.010652724343,11.4000003648,0.35999970196000003,0.551507017648224,1516,0.0,98,P-GPS,
0.307534268561133,36.87939628378479,13100,2018-03-31 05:44:53,1782.3106527339428,11.700000374400002,0.0,0.535869017147808,1782.3106527339428,11.700000374400002,0.35999970196000003,0.551507017648224,1516,0.0,98,P-GPS,
0.30753426764411496,36.8793962755573,13200,2018-03-31 05:44:53,1782.610652743543,12.000000384000002,0.0,0.5358270171464641,1782.610652743543,12.000000384000002,0.35999970196000003,0.551507017648224,1515,-0.1,98,P-GPS,
0.307534268865448,36.8793962657454,13300,2018-03-31 05:44:53,1783.0106527563428,12.4000003968,0.0,0.5360360171531521,1783.0106527563428,12.4000003968,0.35999970196000003,0.551507017648224,1516,-0.3,98,P-GPS,
0.30753430047741404,36.8793962988229,13400,2018-03-31 05:44:53,1783.310652765943,12.700000406400001,0.0,0.53930501725776,1783.310652765943,12.700000406400001,0.35999970196000003,0.551507017648224,1513,-0.5,98,P-GPS,
0.30753433385847995,36.8793963281517,13500,2018-03-31 05:44:53,1783.710652778743,13.100000419199999,0.0,0.542821017370272,1783.710652778743,13.100000419199999,0.35999970196000003,0.551507017648224,1516,-1.1,98,P-GPS,
0.30753436562698,36.8793963561113,13600,2018-03-31 05:44:54,1784.0106527883427,13.4000004288,0.0,0.546188017478016,1784.0106527883427,13.4000004288,0.35999970196000003,0.551507017648224,1517,-1.8,98,P-GPS,
0.307534391228562,36.8793963714767,13700,2018-03-31 05:44:54,1784.410652801143,13.8000004416,0.0,0.548951017566432,1784.410652801143,13.8000004416,0.35999970196000003,0.551507017648224,1513,-2.7,98,P-GPS,
0.30753439896692797,36.8793964198936,13800,2018-03-31 05:44:54,1784.7106528107427,14.100000451200001,0.0,0.549592017586944,1784.7106528107427,14.100000451200001,0.35999970196000003,0.551507017648224,1496,-3.7,98,P-GPS,
0.30753439899623997,36.8793964611475,13900,2018-03-31 05:44:54,1785.1106528235428,14.500000464,0.0,0.5494500175824001,1785.1106528235428,14.500000464,0.35999970196000003,0.551507017648224,1496,-4.8,98,P-GPS,
0.307534383186898,36.8793964571994,14000,2018-03-31 05:44:54,1785.4106528331429,14.8000004736,0.0,0.54770501752656,1785.4106528331429,14.8000004736,0.35999970196000003,0.551507017648224,1485,-6.0,98,P-GPS,
0.30753437924606397,36.879396444239894,14100,2018-03-31 05:44:54,1785.8106528459427,15.200000486399999,0.0,0.5473100175139199,1785.8106528459427,15.200000486399999,0.35999970196000003,0.551507017648224,1486,-6.0,98,P-GPS,
0.307534380963055,36.8793964573019,14200,2018-03-31 05:44:54,1786.1106528555429,15.500000496,0.0,0.5474580175186561,1786.1106528555429,15.500000496,0.35999970196000003,0.551507017648224,1482,-7.1,98,P-GPS,
0.30753438114605103,36.8793964731721,14300,2018-03-31 05:44:54,1786.410652865143,15.8000005056,0.0,0.5474310175177921,1786.410652865143,15.8000005056,0.35999970196000003,0.551507017648224,1481,-8.1,98,P-GPS,
0.307534374649984,36.8793964915804,14400,2018-03-31 05:44:54,1786.710652874743,16.1000005152,0.0,0.5466610174931521,1786.710652874743,16.1000005152,0.35999970196000003,0.551507017648224,1479,-9.9,98,P-GPS,
0.30753432614922305,36.879396496133104,14600,2018-03-31 05:44:55,1787.310652893943,16.7000005344,0.0,0.541258017320256,1787.310652893943,16.7000005344,0.35999970196000003,0.551507017648224,1477,-10.8,98,P-GPS,
0.307534288666309,36.8793964885022,14700,2018-03-31 05:44:55,1787.6106529035428,17.000000544000002,0.0,0.537109017187488,1787.6106529035428,17.000000544000002,0.35999970196000003,0.551507017648224,1464,-11.5,98,P-GPS,
0.30753425828443,36.8793964683274,14800,2018-03-31 05:44:55,1787.910652913143,17.3000005536,0.0,0.533786017081152,1787.910652913143,17.3000005536,0.35999970196000003,0.551507017648224,1465,-11.5,98,P-GPS,
0.307534250132846,36.879396454755,14900,2018-03-31 05:44:55,1788.2106529227428,17.6000005632,0.0,0.5329230170535361,1788.2106529227428,17.6000005632,0.35999970196000003,0.551507017648224,1467,-11.5,98,P-GPS,
0.30753425576828003,36.8793964403191,15000,2018-03-31 05:44:55,1788.5106529323427,17.9000005728,0.0,0.533599017075168,1788.5106529323427,17.9000005728,0.35999970196000003,0.551507017648224,1477,-11.5,98,P-GPS,
0.30753426872357,36.879396433473204,15100,2018-03-31 05:44:55,1788.8106529419429,18.2000005824,0.0,0.535064017122048,1788.8106529419429,18.2000005824,0.35999970196000003,0.551507017648224,1478,-11.5,98,P-GPS,
0.30753424851519107,36.8793964236511,15200,2018-03-31 05:44:55,1789.110652951543,18.500000592000003,0.0,0.532857017051424,1789.110652951543,18.500000592000003,0.35999970196000003,0.551507017648224,1474,-11.6,98,P-GPS,
0.307534235678167,36.879396422790606,15300,2018-03-31 05:44:55,1789.410652961143,18.800000601600004,0.0,0.531433017005856,1789.410652961143,18.800000601600004,0.35999970196000003,0.551507017648224,1468,-11.8,98,P-GPS,
0.307534221668866,36.8793964307893,15400,2018-03-31 05:44:55,1789.7106529707428,19.1000006112,0.0,0.5298450169550399,1789.7106529707428,19.1000006112,0.35999970196000003,0.551507017648224,1475,-12.0,98,P-GPS,
0.30753422465299,36.8793964479674,15500,2018-03-31 05:44:55,1790.010652980343,19.4000006208,0.0,0.5301140169636479,1790.010652980343,19.4000006208,0.35999970196000003,0.551507017648224,1478,-12.2,98,P-GPS,
0.307534228441361,36.879396424862705,15600,2018-03-31 05:44:56,1790.3106529899428,19.7000006304,0.0,0.5306210169798721,1790.3106529899428,19.7000006304,0.35999970196000003,0.551507017648224,1478,-12.6,98,P-GPS,
0.307534241628297,36.8793964135736,15700,2018-03-31 05:44:56,1790.610652999543,20.00000064,0.0,0.5321330170282561,1790.610652999543,20.00000064,0.35999970196000003,0.551507017648224,1473,-12.6,98,P-GPS,
0.30753421708215,36.8793964040218,15800,2018-03-31 05:44:56,1790.910653009143,20.3000006496,0.0,0.529447016942304,1790.910653009143,20.3000006496,0.35999970196000003,0.551507017648224,1469,-13.2,98,P-GPS,
0.30753421112001,36.8793964081152,15900,2018-03-31 05:44:56,1791.2106530187427,20.600000659200003,0.0,0.5287660169205121,1791.2106530187427,20.600000659200003,0.35999970196000003,0.551507017648224,1466,-13.9,98,P-GPS,
0.307534201483692,36.8793964325691,16000,2018-03-31 05:44:56,1791.5106530283429,20.900000668800004,0.0,0.52759501688304,1791.5106530283429,20.900000668800004,0.35999970196000003,0.551507017648224,1466,-14.6,98,P-GPS,
0.307534215112954,36.8793964620586,16100,2018-03-31 05:44:56,1791.810653037943,21.2000006784,0.0,0.529007016928224,1791.810653037943,21.2000006784,0.35999970196000003,0.551507017648224,1466,-15.3,98,P-GPS,
0.30753421417537796,36.879396520565294,16200,2018-03-31 05:44:56,1792.1106530475429,21.500000688,0.0,0.528758016920256,1792.1106530475429,21.500000688,0.35999970196000003,0.551507017648224,1463,-16.1,98,P-GPS,
0.30753422566344,36.87939657708179,16300,2018-03-31 05:44:56,1792.3106530539428,21.700000694400003,0.0,0.529973016959136,1792.3106530539428,21.700000694400003,0.35999970196000003,0.551507017648224,1462,-17.0,98,P-GPS,
0.307534214768742,36.8793966422778,16400,2018-03-31 05:44:56,1792.610653063543,22.000000704000005,0.0,0.528781016920992,1792.610653063543,22.000000704000005,0.35999970196000003,0.551507017648224,1460,-17.8,98,P-GPS,
0.307534215743976,36.8793966936761,16500,2018-03-31 05:44:57,1792.9106530731428,22.3000007136,0.0,0.5289760169272322,1792.9106530731428,22.3000007136,0.35999970196000003,0.551507017648224,1459,-18.6,98,P-GPS,
0.30753422689596804,36.879396709739204,16600,2018-03-31 05:44:57,1793.210653082743,22.6000007232,0.0,0.53025501696816,1793.210653082743,22.6000007232,0.35999970196000003,0.551507017648224,1460,-19.4,98,P-GPS,
0.30753424299944704,36.8793967247746,16700,2018-03-31 05:44:57,1793.5106530923429,22.900000732800002,0.0,0.532087017026784,1793.5106530923429,22.900000732800002,0.35999970196000003,0.551507017648224,1459,-21.0,98,P-GPS,
0.307534245431325,36.879396816013,16900,2018-03-31 05:44:57,1794.010653108343,23.400000748800004,0.0,0.5327260170472321,1794.010653108343,23.400000748800004,0.35999970196000003,0.551507017648224,1458,-21.7,98,P-GPS,
0.307534234883486,36.879396876223105,17000,2018-03-31 05:44:57,1794.3106531179428,23.700000758399998,0.0,0.5319040170209279,1794.3106531179428,23.700000758399998,0.35999970196000003,0.551507017648224,1455,-22.4,98,P-GPS,
0.307534234030995,36.879396936845005,17100,2018-03-31 05:44:57,1794.6106531275427,24.000000768000003,0.0,0.532246017031872,1794.6106531275427,24.000000768000003,0.35999970196000003,0.551507017648224,1456,-22.8,98,P-GPS,
0.30753423103404803,36.87939703158371,17200,2018-03-31 05:44:57,1794.9106531371428,24.3000007776,0.0,0.532767017048544,1794.9106531371428,24.3000007776,0.35999970196000003,0.551507017648224,1456,-22.8,98,P-GPS,
0.307534245265427,36.879397107933706,17300,2018-03-31 05:44:57,1795.1106531435428,24.500000784000004,0.0,0.5351780171256961,1795.1106531435428,24.500000784000004,0.35999970196000003,0.551507017648224,1455,-22.8,98,P-GPS,
0.30753425492271097,36.8793971780264,17400,2018-03-31 05:44:57,1795.4106531531427,24.8000007936,0.0,0.537129017188128,1795.4106531531427,24.8000007936,0.35999970196000003,0.551507017648224,1456,-22.8,98,P-GPS,
0.307534270017979,36.8793972438677,17500,2018-03-31 05:44:57,1795.7106531627428,25.100000803199997,0.0,0.539723017271136,1795.7106531627428,25.100000803199997,0.35999970196000003,0.551507017648224,1456,-22.8,98,P-GPS,
0.307534300436906,36.8793973097358,17600,2018-03-31 05:44:58,1796.010653172343,25.400000812800002,0.0,0.5440950174110399,1796.010653172343,25.400000812800002,0.35999970196000003,0.551507017648224,1481,-22.8,98,P-GPS,
0.30753433438976,36.87939737182221,17700,2018-03-31 05:44:58,1796.310653181943,25.7000008224,0.0,0.5488730175639361,1796.310653181943,25.7000008224,0.35999970196000003,0.551507017648224,1479,-22.8,98,P-GPS,
0.307534350963045,36.8793974639318,17800,2018-03-31 05:44:58,1796.6106531915427,26.000000832,0.0,0.552389017676448,1796.6106531915427,26.000000832,0.35999970196000003,0.552389017676448,1484,-22.8,98,P-GPS,
0.30753436891664004,36.8793975495501,17900,2018-03-31 05:44:58,1796.9106532011428,26.300000841600003,0.0,0.5560910177949121,1796.9106532011428,26.300000841600003,0.35999970196000003,0.5560910177949121,1501,-22.8,98,P-GPS,
0.307534366495551,36.8793976258564,18000,2018-03-31 05:44:58,1797.210653210743,26.6000008512,0.0,0.557507017840224,1797.210653210743,26.6000008512,0.35999970196000003,0.557507017840224,1510,-22.8,98,P-GPS,
0.307534385202709,36.879397729386504,18200,2018-03-31 05:44:58,1797.7106532267428,27.100000867200002,0.0,0.5620110179843522,1797.7106532267428,27.100000867200002,0.35999970196000003,0.5620110179843522,1516,-22.8,98,P-GPS,
0.30753440513588104,36.87939776498,18300,2018-03-31 05:44:58,1798.1106532395427,27.50000088,0.0,0.565069018082208,1798.1106532395427,27.50000088,0.35999970196000003,0.565069018082208,1526,-22.8,98,P-GPS,
0.307534410140089,36.879397832612206,18400,2018-03-31 05:44:58,1798.4106532491428,27.8000008896,0.0,0.56738501815632,1798.4106532491428,27.8000008896,0.35999970196000003,0.56738501815632,1521,-22.8,98,P-GPS,
0.307534416731216,36.8793979035303,18500,2018-03-31 05:44:58,1798.710653258743,28.1000008992,0.0,0.5700560182417921,1798.710653258743,28.1000008992,0.35999970196000003,0.5700560182417921,1521,-22.8,98,P-GPS,
0.307534416165943,36.879397987396494,18600,2018-03-31 05:44:59,1799.1106532715428,28.500000912,0.0,0.572444018318208,1799.1106532715428,28.500000912,0.35999970196000003,0.572444018318208,1522,-22.8,98,P-GPS,
0.307534420588389,36.8793980590367,18700,2018-03-31 05:44:59,1799.410653281143,28.800000921600002,0.0,0.5751200184038401,1799.410653281143,28.800000921600002,0.35999970196000003,0.5751200184038401,1518,-22.8,98,P-GPS,
0.30753441399176595,36.8793981150682,18800,2018-03-31 05:44:59,1799.810653293943,29.200000934400002,0.0,0.576211018438752,1799.810653293943,29.200000934400002,0.35999970196000003,0.576211018438752,1516,-22.8,98,P-GPS,
0.307534411844867,36.8793981580778,18900,2018-03-31 05:44:59,1800.110653303543,29.500000944,0.0,0.577403018476896,1800.110653303543,29.500000944,0.35999970196000003,0.577403018476896,1516,-22.8,98,P-GPS,
0.30753443620923904,36.879398191306294,19000,2018-03-31 05:44:59,1800.510653316343,29.900000956800003,0.0,0.58110501859536,1800.510653316343,29.900000956800003,0.35999970196000003,0.58110501859536,1536,-22.8,98,P-GPS,
0.30753448374759,36.879398293433,19200,2018-03-31 05:44:59,1801.2106533387428,30.6000009792,0.0,0.589677018869664,1801.2106533387428,30.6000009792,0.35999970196000003,0.589677018869664,1537,-22.8,98,P-GPS,
0.307534493813206,36.8793983653549,19300,2018-03-31 05:44:59,1801.5106533483429,30.900000988800006,0.0,0.593341018986912,1801.5106533483429,30.900000988800006,0.35999970196000003,0.593341018986912,1540,-22.8,98,P-GPS,
0.307534487046003,36.879398418399404,19400,2018-03-31 05:44:59,1801.9106533611427,31.300001001600002,0.0,0.59461501902768,1801.9106533611427,31.300001001600002,0.35999970196000003,0.59461501902768,1543,-22.8,98,P-GPS,
0.30753448200576505,36.8793984735645,19500,2018-03-31 05:44:59,1802.2106533707429,31.6000010112,0.0,0.5962080190786561,1802.2106533707429,31.6000010112,0.35999970196000003,0.5962080190786561,1544,-22.8,98,P-GPS,
0.307534470030595,36.8793985647641,19600,2018-03-31 05:45:00,1802.6106533835427,32.000001024,0.0,0.598594019155008,1802.6106533835427,32.000001024,0.35999970196000003,0.598594019155008,1545,-22.8,98,P-GPS,
0.30753445981149896,36.8793986484044,19700,2018-03-31 05:45:00,1802.9106533931429,32.300001033600005,0.0,0.601006019232192,1802.9106533931429,32.300001033600005,0.35999970196000003,0.601006019232192,1545,-22.9,98,P-GPS,
0.30753444769953897,36.879398716874206,19800,2018-03-31 05:45:00,1803.310653405943,32.700001046400004,0.0,0.602698019286336,1803.310653405943,32.700001046400004,0.35999970196000003,0.602698019286336,1545,-23.3,98,P-GPS,
0.307534437778448,36.8793987691575,19900,2018-03-31 05:45:00,1803.7106534187428,33.100001059200004,0.0,0.60398501932752,1803.7106534187428,33.100001059200004,0.35999970196000003,0.60398501932752,1545,-24.6,98,P-GPS,
0.307534429913674,36.879398808965895,20000,2018-03-31 05:45:00,1804.010653428343,33.4000010688,0.0,0.60497001935904,1804.010653428343,33.4000010688,0.35999970196000003,0.60497001935904,1544,-26.2,98,P-GPS,
0.307534429536893,36.879398840156,20100,2018-03-31 05:45:00,1804.4106534411428,33.800001081599994,0.0,0.6063510194032321,1804.4106534411428,33.800001081599994,0.35999970196000003,0.6063510194032321,1540,-28.1,98,P-GPS,
0.30753444918244105,36.879398825363005,20200,2018-03-31 05:45:00,1804.810653453943,34.2000010944,0.0,0.6076700194454401,1804.810653453943,34.2000010944,0.35999970196000003,0.6076700194454401,1540,-30.3,98,P-GPS,
0.30753448119134,36.8793988038355,20300,2018-03-31 05:45:00,1805.210653466743,34.6000011072,0.0,0.6099540195185279,1805.210653466743,34.6000011072,0.35999970196000003,0.6099540195185279,1530,-34.7,98,P-GPS,
0.307534521907529,36.8793987402951,20500,2018-03-31 05:45:00,1805.910653489143,35.300001129600005,0.0,0.6113120195619841,1805.910653489143,35.300001129600005,0.35999970196000003,0.6113120195619841,1522,-34.7,98,P-GPS,
0.307534576445543,36.8793987275029,20600,2018-03-31 05:45:01,1806.3106535019429,35.7000011424,0.0,0.616353019723296,1806.3106535019429,35.7000011424,0.35999970196000003,0.616353019723296,1522,-35.9,98,P-GPS,
0.307534636076109,36.8793987279148,20700,2018-03-31 05:45:01,1806.610653511543,36.000001151999996,0.0,0.622497019919904,1806.610653511543,36.000001151999996,0.35999970196000003,0.622497019919904,1522,-35.9,98,P-GPS,
0.30753469872133193,36.8793987709643,20800,2018-03-31 05:45:01,1807.010653524343,36.4000011648,0.0,0.630764020184448,1807.010653524343,36.4000011648,0.35999970196000003,0.630764020184448,1526,-35.9,97,P-GPS,
0.307534760690547,36.87939881489871,20900,2018-03-31 05:45:01,1807.3106535339427,36.7000011744,0.0,0.63900502044816,1807.3106535339427,36.7000011744,0.35999970196000003,0.63900502044816,1528,-35.9,97,P-GPS,
0.307534808021271,36.8793988507824,21000,2018-03-31 05:45:01,1807.7106535467428,37.1000011872,0.0,0.645403020652896,1807.7106535467428,37.1000011872,0.35999970196000003,0.645403020652896,1534,-35.9,97,P-GPS,
0.30753484710067,36.879398885803596,21100,2018-03-31 05:45:01,1808.0106535563427,37.4000011968,0.0,0.6509230208295361,1808.0106535563427,37.4000011968,0.35999970196000003,0.6509230208295361,1534,-35.9,97,P-GPS,
0.30753486756715803,36.8793989425346,21200,2018-03-31 05:45:01,1808.4106535691428,37.800001209600005,0.0,0.655504020976128,1808.4106535691428,37.800001209600005,0.35999970196000003,0.655504020976128,1544,-35.9,97,P-GPS,
0.30753488085749997,36.8793989973408,21300,2018-03-31 05:45:01,1808.710653578743,38.1000012192,0.0,0.659304021097728,1808.710653578743,38.1000012192,0.35999970196000003,0.659304021097728,1557,-35.9,97,P-GPS,
0.307534895523674,36.8793990549125,21400,2018-03-31 05:45:01,1809.1106535915428,38.500001232,0.0,0.6634080212290561,1809.1106535915428,38.500001232,0.35999970196000003,0.6634080212290561,1558,-35.9,97,P-GPS,
0.307534909764213,36.8793990953161,21500,2018-03-31 05:45:01,1809.410653601143,38.8000012416,0.0,0.666712021334784,1809.410653601143,38.8000012416,0.35999970196000003,0.666712021334784,1556,-35.9,97,P-GPS,
0.307534910418237,36.8793991048396,21600,2018-03-31 05:45:02,1809.8106536139428,39.2000012544,0.0,0.66722002135104,1809.8106536139428,39.2000012544,0.35999970196000003,0.66722002135104,1554,-35.9,97,P-GPS,
0.30753491431306795,36.8793991171885,21700,2018-03-31 05:45:02,1810.210653626743,39.60000126719999,0.0,0.6681880213820159,1810.210653626743,39.60000126719999,0.35999970196000003,0.6681880213820159,1553,-35.9,97,P-GPS,
0.30753490441986403,36.8793991401354,21800,2018-03-31 05:45:02,1810.6106536395428,40.00000128,0.0,0.6682660213845121,1810.6106536395428,40.00000128,0.35999970196000003,0.6682660213845121,1555,-35.9,97,P-GPS,
0.307534896538195,36.879399161163896,21900,2018-03-31 05:45:02,1811.0106536523429,40.400001292800006,0.0,0.668466021390912,1811.0106536523429,40.400001292800006,0.35999970196000003,0.668466021390912,1558,-35.9,97,P-GPS,
0.30753487828069104,36.8793991622692,22000,2018-03-31 05:45:02,1811.410653665143,40.8000013056,0.0,0.666683021333856,1811.410653665143,40.8000013056,0.35999970196000003,0.668466021390912,1573,-35.9,97,P-GPS,
0.30753486313901196,36.8793991634651,22100,2018-03-31 05:45:02,1811.7106536747428,41.100001315200004,0.0,0.665218021286976,1811.7106536747428,41.100001315200004,0.35999970196000003,0.668466021390912,1601,-35.9,97,P-GPS,
0.307534850071156,36.8793991595161,22200,2018-03-31 05:45:02,1812.110653687543,41.500001328,0.0,0.6637170212389439,1812.110653687543,41.500001328,0.35999970196000003,0.668466021390912,1612,-35.9,97,P-GPS,
0.307534842410752,36.8793991639481,22300,2018-03-31 05:45:02,1812.5106537003428,41.9000013408,0.0,0.6631600212211199,1812.5106537003428,41.9000013408,0.35999970196000003,0.668466021390912,1612,-35.9,97,P-GPS,
0.30753480484824797,36.87939916213521,22400,2018-03-31 05:45:02,1812.910653713143,42.30000135360001,0.0,0.65930502109776,1812.910653713143,42.30000135360001,0.35999970196000003,0.668466021390912,1596,-35.9,97,P-GPS,
0.307534783540873,36.8793991634164,22500,2018-03-31 05:45:02,1813.3106537259428,42.7000013664,0.0,0.657232021031424,1813.3106537259428,42.7000013664,0.35999970196000003,0.668466021390912,1592,-35.9,97,P-GPS,
0.30753477193210305,36.8793991886645,22600,2018-03-31 05:45:03,1813.7106537387428,43.1000013792,0.0,0.6572960210334722,1813.7106537387428,43.1000013792,0.35999970196000003,0.668466021390912,1606,-35.9,97,P-GPS,
0.30753476015153197,36.879399220378296,22700,2018-03-31 05:45:03,1814.1106537515427,43.500001391999994,0.0,0.657676021045632,1814.1106537515427,43.500001391999994,0.35999970196000003,0.668466021390912,1616,-35.9,97,P-GPS,
0.307534706106325,36.8793992787049,22800,2018-03-31 05:45:03,1814.5106537643428,43.9000014048,0.0,0.655222020967104,1814.5106537643428,43.9000014048,0.35999970196000003,0.668466021390912,1626,-35.9,97,P-GPS,
0.307534655480444,36.8793993290002,22900,2018-03-31 05:45:03,1815.0106537803426,44.4000014208,0.0,0.652799020889568,1815.0106537803426,44.4000014208,0.35999970196000003,0.668466021390912,1637,-35.9,97,P-GPS,
0.307534618437007,36.8793993614913,23000,2018-03-31 05:45:03,1815.410653793143,44.80000143360001,0.0,0.65085502082736,1815.410653793143,44.80000143360001,0.35999970196000003,0.668466021390912,1610,-35.9,97,P-GPS,
0.307534566893294,36.8793994064965,23200,2018-03-31 05:45:03,1816.3106538219429,45.700001462399996,0.0,0.6482060207425921,1816.3106538219429,45.700001462399996,0.35999970196000003,0.668466021390912,1610,-35.9,97,P-GPS,
0.30753453865465,36.8793994199454,23300,2018-03-31 05:45:03,1816.710653834743,46.1000014752,0.0,0.6461820206778239,1816.710653834743,46.1000014752,0.35999970196000003,0.668466021390912,1604,-35.9,97,P-GPS,
0.307534482884718,36.8793994186066,23400,2018-03-31 05:45:03,1817.2106538507428,46.600001491200004,0.0,0.64069502050224,1817.2106538507428,46.600001491200004,0.35999970196000003,0.668466021390912,1605,-35.9,97,P-GPS,
0.307534428062133,36.8793994082705,23500,2018-03-31 05:45:03,1817.610653863543,47.000001504000004,0.0,0.6348200203142401,1817.610653863543,47.000001504000004,0.35999970196000003,0.668466021390912,1605,-35.9,97,P-GPS,
0.307534391739079,36.8793993977319,23600,2018-03-31 05:45:04,1818.0106538763428,47.400001516799996,0.0,0.630728020183296,1818.0106538763428,47.400001516799996,0.35999970196000003,0.668466021390912,1610,-35.9,97,P-GPS,
0.30753436787036503,36.8793993883895,23700,2018-03-31 05:45:04,1818.4106538891428,47.8000015296,0.0,0.627907020093024,1818.4106538891428,47.8000015296,0.35999970196000003,0.668466021390912,1617,-35.9,97,P-GPS,
0.30753432778540196,36.8793993833522,23800,2018-03-31 05:45:04,1818.910653905143,48.300001545600004,0.0,0.6237580199602561,1818.910653905143,48.300001545600004,0.35999970196000003,0.668466021390912,1615,-35.9,97,P-GPS,
0.30753428999654403,36.87939939009521,23900,2018-03-31 05:45:04,1819.310653917943,48.70000155840001,0.0,0.6204900198556801,1819.310653917943,48.70000155840001,0.35999970196000003,0.668466021390912,1615,-35.9,97,P-GPS,
0.307534271180281,36.8793993705546,24000,2018-03-31 05:45:04,1819.7106539307429,49.1000015712,0.0,0.6175910197629121,1819.7106539307429,49.1000015712,0.35999970196000003,0.668466021390912,1598,-35.9,97,P-GPS,
0.307534257623281,36.8793993515481,24100,2018-03-31 05:45:04,1820.210653946743,49.6000015872,0.0,0.61523001968736,1820.210653946743,49.6000015872,0.35999970196000003,0.668466021390912,1597,-35.9,97,P-GPS,
0.307534227923109,36.8793993636883,24200,2018-03-31 05:45:04,1820.6106539595428,50.000001600000004,0.0,0.6130450196174401,1820.6106539595428,50.000001600000004,0.35999970196000003,0.668466021390912,1608,-35.9,97,P-GPS,
0.30753419863249,36.8793993760196,24300,2018-03-31 05:45:04,1821.0106539723429,50.40000161280001,0.0,0.610922019549504,1821.0106539723429,50.40000161280001,0.35999970196000003,0.668466021390912,1609,-35.9,97,P-GPS,
0.307534091630082,36.87939937975379,24500,2018-03-31 05:45:04,1821.9106540011428,51.3000016416,0.0,0.600902019228864,1821.9106540011428,51.3000016416,0.35999970196000003,0.668466021390912,1604,-35.9,97,P-GPS,
0.307534062017438,36.87939939147179,24600,2018-03-31 05:45:05,1822.310654013943,51.700001654400005,0.0,0.5987570191602241,1822.310654013943,51.700001654400005,0.35999970196000003,0.668466021390912,1601,-35.9,97,P-GPS,
0.307534040883085,36.8793994079635,24700,2018-03-31 05:45:05,1822.710654026743,52.1000016672,0.0,0.5977070191266239,1822.710654026743,52.1000016672,0.35999970196000003,0.668466021390912,1610,-35.9,97,P-GPS,
0.30753393530129,36.8793994204281,24900,2018-03-31 05:45:05,1823.610654055543,53.000001696000005,0.0,0.588471018831072,1823.610654055543,53.000001696000005,0.35999970196000003,0.668466021390912,1611,-35.9,97,P-GPS,
0.307533925234249,36.879399360971,25000,2018-03-31 05:45:05,1824.0106540683428,53.400001708800005,0.0,0.584017018688544,1824.0106540683428,53.400001708800005,0.35999970196000003,0.668466021390912,1618,-35.9,97,P-GPS,
0.307533939468478,36.8793993104414,25100,2018-03-31 05:45:05,1824.5106540843428,53.900001724800006,0.0,0.582432018637824,1824.5106540843428,53.900001724800006,0.35999970196000003,0.668466021390912,1627,-35.9,97,P-GPS,
0.30753396668099897,36.879399311539295,25200,2018-03-31 05:45:05,1824.9106540971427,54.300001737600006,0.0,0.58508501872272,1824.9106540971427,54.300001737600006,0.35999970196000003,0.668466021390912,1622,-35.9,97,P-GPS,
0.30753399420536603,36.879399334549205,25300,2018-03-31 05:45:05,1825.410654113143,54.8000017536,0.0,0.589028018848896,1825.410654113143,54.8000017536,0.35999970196000003,0.668466021390912,1623,-35.9,97,P-GPS,
0.307534019341621,36.8793993221582,25400,2018-03-31 05:45:05,1825.8106541259428,55.2000017664,0.0,0.590714018902848,1825.8106541259428,55.2000017664,0.35999970196000003,0.668466021390912,1644,-35.9,97,P-GPS,
0.307534027903165,36.87939927373571,25500,2018-03-31 05:45:05,1826.210654138743,55.6000017792,0.0,0.588791018841312,1826.210654138743,55.6000017792,0.35999970196000003,0.668466021390912,1650,-35.9,97,P-GPS,
0.30753400976066997,36.8793992100594,25600,2018-03-31 05:45:06,1826.7106541547428,56.10000179520001,0.0,0.5834920186717439,1826.7106541547428,56.10000179520001,0.35999970196000003,0.668466021390912,1652,-35.9,97,P-GPS,
0.307534008415983,36.879399176479104,25700,2018-03-31 05:45:06,1827.1106541675429,56.50000180800001,0.0,0.5815110186083521,1827.1106541675429,56.50000180800001,0.35999970196000003,0.668466021390912,1648,-35.9,97,P-GPS,
0.30753401247080797,36.8793992044268,25800,2018-03-31 05:45:06,1827.6106541835427,57.000001824,0.0,0.5834410186701121,1827.6106541835427,57.000001824,0.35999970196000003,0.668466021390912,1649,-35.9,97,P-GPS,
0.30753401931841495,36.8793992478835,25900,2018-03-31 05:45:06,1828.110654199543,57.50000184,0.0,0.586517018768544,1828.110654199543,57.50000184,0.35999970196000003,0.668466021390912,1661,-35.9,97,P-GPS,
0.307534014635418,36.879399310755296,26000,2018-03-31 05:45:06,1828.6106542155428,58.000001856,0.0,0.5896150188676801,1828.6106542155428,58.000001856,0.35999970196000003,0.668466021390912,1676,-35.9,97,P-GPS,
0.307534013868013,36.879399361904895,26100,2018-03-31 05:45:06,1829.010654228343,58.400001868800004,0.0,0.5924740189591681,1829.010654228343,58.400001868800004,0.35999970196000003,0.668466021390912,1677,-35.9,97,P-GPS,
0.30753400471575104,36.879399424560496,26200,2018-03-31 05:45:06,1829.5106542443427,58.900001884800005,0.0,0.595256019048192,1829.5106542443427,58.900001884800005,0.35999970196000003,0.668466021390912,1679,-35.9,97,P-GPS,
0.30753400580762297,36.8793994734598,26300,2018-03-31 05:45:06,1830.010654260343,59.4000019008,0.0,0.598249019143968,1830.010654260343,59.4000019008,0.35999970196000003,0.668466021390912,1681,-35.9,97,P-GPS,
0.30753397308200503,36.8793994745,26400,2018-03-31 05:45:06,1830.5106542763428,59.9000019168,0.0,0.595239019047648,1830.5106542763428,59.9000019168,0.35999970196000003,0.668466021390912,1684,-35.9,97,P-GPS,
0.307533939630101,36.879399463583496,26500,2018-03-31 05:45:06,1831.0106542923427,60.40000193280001,0.0,0.591451018926432,1831.0106542923427,60.40000193280001,0.35999970196000003,0.668466021390912,1684,-35.9,97,P-GPS,
0.307533919198014,36.8793994911097,26600,2018-03-31 05:45:07,1831.510654308343,60.9000019488,0.0,0.591199018918368,1831.510654308343,60.9000019488,0.35999970196000003,0.668466021390912,1682,-35.9,97,P-GPS,
0.307533839778394,36.879399625495,26800,2018-03-31 05:45:07,1832.5106543403429,61.9000019808,0.0,0.592182018949824,1832.5106543403429,61.9000019808,0.35999970196000003,0.668466021390912,1684,-35.9,97,P-GPS,
0.30753378852719,36.8793997043361,26900,2018-03-31 05:45:07,1833.0106543563427,62.4000019968,0.0,0.592574018962368,1833.0106543563427,62.4000019968,0.35999970196000003,0.668466021390912,1672,-35.9,97,P-GPS,
0.30753375331046,36.8793997524911,27000,2018-03-31 05:45:07,1833.510654372343,62.9000020128,0.0,0.5925530189616961,1833.510654372343,62.9000020128,0.35999970196000003,0.668466021390912,1664,-35.9,97,P-GPS,
0.30753371892423703,36.8793997885122,27100,2018-03-31 05:45:07,1834.0106543883428,63.4000020288,0.0,0.591869018939808,1834.0106543883428,63.4000020288,0.35999970196000003,0.668466021390912,1663,-35.9,97,P-GPS,
0.30753368193779496,36.8793998497456,27200,2018-03-31 05:45:07,1834.5106544043429,63.900002044800004,0.0,0.5927150189668801,1834.5106544043429,63.900002044800004,0.35999970196000003,0.668466021390912,1664,-36.0,97,P-GPS,
0.30753364465294103,36.8793999075051,27300,2018-03-31 05:45:07,1835.010654420343,64.4000020608,0.0,0.5934000189888,1835.010654420343,64.4000020608,0.35999970196000003,0.668466021390912,1664,-36.0,97,P-GPS,
0.30753362669934603,36.8793999638935,27400,2018-03-31 05:45:07,1835.5106544363427,64.9000020768,0.0,0.5957570190642241,1835.5106544363427,64.9000020768,0.35999970196000003,0.668466021390912,1656,-36.1,97,P-GPS,
0.307533608489678,36.8794000144136,27500,2018-03-31 05:45:07,1836.0106544523428,65.40000209280001,0.0,0.5977390191276479,1836.0106544523428,65.40000209280001,0.35999970196000003,0.668466021390912,1659,-36.2,97,P-GPS,
0.307533583383957,36.879400059829,27600,2018-03-31 05:45:08,1836.5106544683429,65.90000210880001,0.0,0.598823019162336,1836.5106544683429,65.90000210880001,0.35999970196000003,0.668466021390912,1660,-36.3,97,P-GPS,
0.30753355894142,36.879400126121,27800,2018-03-31 05:45:08,1837.4106544971428,66.8000021376,0.0,0.601528019248896,1837.4106544971428,66.8000021376,0.35999970196000003,0.668466021390912,1657,-36.3,97,P-GPS,
0.307533564073868,36.87940015247229,27900,2018-03-31 05:45:08,1837.9106545131428,67.30000215359999,0.0,0.6038760193240321,1837.9106545131428,67.30000215359999,0.35999970196000003,0.668466021390912,1645,-36.3,97,P-GPS,
0.307533553444607,36.879400189699105,28000,2018-03-31 05:45:08,1838.3106545259427,67.70000216640001,0.0,0.605706019382592,1838.3106545259427,67.70000216640001,0.35999970196000003,0.668466021390912,1607,-36.3,97,P-GPS,
0.307533546035187,36.8794002117414,28100,2018-03-31 05:45:08,1838.810654541943,68.2000021824,0.0,0.606708019414656,1838.810654541943,68.2000021824,0.35999970196000003,0.668466021390912,1572,-36.3,97,P-GPS,
0.30753354671058397,36.879400218772794,28200,2018-03-31 05:45:08,1839.3106545579428,68.7000021984,0.0,0.6072830194330561,1839.3106545579428,68.7000021984,0.35999970196000003,0.668466021390912,1544,-36.3,97,P-GPS,
0.3075335505244,36.879400224448105,28300,2018-03-31 05:45:08,1839.8106545739429,69.2000022144,0.0,0.608019019456608,1839.8106545739429,69.2000022144,0.35999970196000003,0.668466021390912,1504,-36.3,97,P-GPS,
0.30753354646794606,36.879400261218706,28400,2018-03-31 05:45:08,1840.2106545867427,69.60000222720001,0.0,0.610404019532928,1840.2106545867427,69.60000222720001,0.35999970196000003,0.668466021390912,1482,-36.3,97,P-GPS,
0.307533531023783,36.8794002876937,28500,2018-03-31 05:45:08,1840.6106545995428,70.00000224,0.0,0.6111000195552001,1840.6106545995428,70.00000224,0.35999970196000003,0.668466021390912,1480,-36.3,97,P-GPS,
0.307533518321513,36.8794003031471,28600,2018-03-31 05:45:08,1840.9106546091427,70.30000224960001,0.0,0.6112120195587841,1840.9106546091427,70.30000224960001,0.35999970196000003,0.668466021390912,1477,-36.3,97,P-GPS,
0.307533511231268,36.8794003133794,28700,2018-03-31 05:45:09,1841.3106546219428,70.7000022624,0.0,0.6113990195647679,1841.3106546219428,70.7000022624,0.35999970196000003,0.668466021390912,1433,-36.3,97,P-GPS,
0.30753348719136303,36.8794003502618,28800,2018-03-31 05:45:09,1841.610654631543,71.000002272,0.0,0.61222001959104,1841.610654631543,71.000002272,0.35999970196000003,0.668466021390912,1405,-36.3,97,P-GPS,
0.30753349442084005,36.8794003749461,28900,2018-03-31 05:45:09,1841.9106546411429,71.3000022816,0.0,0.6146820196698239,1841.9106546411429,71.3000022816,0.35999970196000003,0.668466021390912,1405,-36.3,97,P-GPS,
0.30753353354949997,36.879400346752206,29000,2018-03-31 05:45:09,1842.210654650743,71.6000022912,0.0,0.6157370197035841,1842.210654650743,71.6000022912,0.35999970196000003,0.668466021390912,1386,-36.3,97,P-GPS,
0.307533576324653,36.879400316108295,29100,2018-03-31 05:45:09,1842.410654657143,71.8000022976,0.0,0.61695501974256,1842.410654657143,71.8000022976,0.35999970196000003,0.668466021390912,1331,-36.3,97,P-GPS,
0.307533600011999,36.8794003228589,29200,2018-03-31 05:45:09,1842.7106546667428,72.1000023072,0.0,0.619414019821248,1842.7106546667428,72.1000023072,0.35999970196000003,0.668466021390912,1292,-36.3,97,P-GPS,
0.307533642891779,36.8794003294664,29300,2018-03-31 05:45:09,1842.9106546731427,72.3000023136,0.0,0.6234560199505921,1842.9106546731427,72.3000023136,0.35999970196000003,0.668466021390912,1180,-36.3,97,P-GPS,
0.30753368786981,36.879400343353296,29400,2018-03-31 05:45:09,1843.110654679543,72.50000232,0.0,0.62822002010304,1843.110654679543,72.50000232,0.35999970196000003,0.668466021390912,1119,-36.3,97,P-GPS,
0.307533741966312,36.879400349575,29500,2018-03-31 05:45:10,1843.2106546827429,72.6000023232,0.0,0.63319002026208,1843.2106546827429,72.6000023232,0.35999970196000003,0.668466021390912,1087,-36.3,97,P-GPS,
0.307533805094979,36.879400356283604,29600,2018-03-31 05:45:10,1843.3106546859428,72.70000232640001,0.0,0.6389740204471679,1843.3106546859428,72.70000232640001,0.35999970196000003,0.668466021390912,1032,-36.3,97,P-GPS,
0.307533871651114,36.8794003620424,29700,2018-03-31 05:45:10,1843.410654689143,72.8000023296,0.0,0.6450050206401601,1843.410654689143,72.8000023296,0.35999970196000003,0.668466021390912,1024,-36.3,97,P-GPS,
0.307533952082812,36.8794003747255,29800,2018-03-31 05:45:10,1843.410654689143,72.8000023296,0.0,0.652741020887712,1843.410654689143,72.8000023296,0.35999970196000003,0.668466021390912,1024,-36.3,97,P-GPS,
0.307534051956911,36.8794003869681,29900,2018-03-31 05:45:10,1843.410654689143,72.8000023296,0.0,0.6621460211886722,1843.410654689143,72.8000023296,0.35999970196000003,0.668466021390912,1024,-36.3,97,P-GPS,
0.30753415580807697,36.87940039448,30000,2018-03-31 05:45:10,1843.410654689143,72.8000023296,0.0,0.6716180214917761,1843.410654689143,72.8000023296,0.35999970196000003,0.6716180214917761,1024,-36.3,97,P-GPS,
