latitude,longitude,time_millisecond,datetime_utc,altitude_m,ascent_m,speed_kph,distance_m,max_altitude_m,max_ascent_m,max_speed_kph,max_distance_m,rc_throttle,gimbal_pitch_degrees,battery_percent,flycState,message
0.357680384798382,36.893834580702794,100,2017-11-07 07:28:56,1771.0902666748868,0.0,0.0,0.0,1771.0902666748868,0.0,0.0,0.0,1024,0.0,99,Motors_Started,
0.357680425783315,36.8938345047596,200,2017-11-07 07:28:56,1771.0902666748868,0.0,0.0,0.00959659030709088,1771.0902666748868,0.0,0.0,0.00959659030709088,1024,0.0,99,Motors_Started,
0.35768044960933393,36.8938344414804,300,2017-11-07 07:28:56,1771.0902666748868,0.0,0.0,0.017077500546480003,1771.0902666748868,0.0,0.0,0.017077500546480003,1024,0.0,99,Motors_Started,
0.357680463029086,36.893834380333296,400,2017-11-07 07:28:57,1771.0902666748868,0.0,0.0,0.02392000076544,1771.0902666748868,0.0,0.0,0.02392000076544,1024,0.0,99,Motors_Started,
0.35768047134555,36.8938343273164,500,2017-11-07 07:28:57,1771.0902666748868,0.0,0.0,0.029776000952832,1771.0902666748868,0.0,0.0,0.029776000952832,1024,0.0,99,Motors_Started,
0.35768049070622204,36.893834279332296,600,2017-11-07 07:28:57,1771.0902666748868,0.0,0.0,0.0355228011367296,1771.0902666748868,0.0,0.0,0.0355228011367296,1024,0.0,99,Motors_Started,
0.357680521926445,36.893834227455,700,2017-11-07 07:28:57,1771.0902666748868,0.0,0.0,0.042138601348435195,1771.0902666748868,0.0,0.0,0.042138601348435195,1024,0.0,99,Motors_Started,Setting new Return-To-Home altitude to 30m (98 ft). Setting new Maximum Flight Altitude to 100m (328 ft)
0.357680562482334,36.8938341686975,800,2017-11-07 07:28:57,1771.0902666748868,0.0,0.0,0.049895901596668804,1771.0902666748868,0.0,0.0,0.049895901596668804,1024,0.0,99,Motors_Started,
0.357680603998089,36.8938340936718,900,2017-11-07 07:28:57,1771.0902666748868,0.0,0.0,0.05939260190056321,1771.0902666748868,0.0,0.0,0.05939260190056321,511,0.0,99,Motors_Started,
0.35768065788839004,36.8938340389948,1000,2017-11-07 07:28:57,1771.0902666748868,0.0,0.0,0.06746230215879359,1771.0902666748868,0.0,0.0,0.06746230215879359,873,0.0,99,Motors_Started,
0.35768070802187,36.893834008727005,1100,2017-11-07 07:28:57,1771.0902666748868,0.0,0.0,0.0730597023379104,1771.0902666748868,0.0,0.0,0.0730597023379104,1024,0.0,99,Motors_Started,
0.35768077501554707,36.8938339837767,1200,2017-11-07 07:28:57,1771.0902666748868,0.0,0.0,0.0793061025377952,1771.0902666748868,0.0,0.0,0.0793061025377952,1024,0.0,99,Motors_Started,
0.35768083128551403,36.8938339544504,1300,2017-11-07 07:28:57,1771.0902666748868,0.0,0.0,0.085529502736944,1771.0902666748868,0.0,0.0,0.085529502736944,1024,0.0,99,Motors_Started,
0.35768087475356897,36.8938339194173,1400,2017-11-07 07:28:58,1771.0902666748868,0.0,0.0,0.0915232029287424,1771.0902666748868,0.0,0.0,0.0915232029287424,1024,0.0,99,Motors_Started,
0.35768090219977106,36.8938338845829,1500,2017-11-07 07:28:58,1771.0902666748868,0.0,0.0,0.0964528030864896,1771.0902666748868,0.0,0.0,0.0964528030864896,1024,0.0,99,Motors_Started,
0.357680934784325,36.8938338446309,1600,2017-11-07 07:28:58,1771.0902666748868,0.0,0.0,0.10218100326979201,1771.0902666748868,0.0,0.0,0.10218100326979201,1024,0.0,99,Assisted_Takeoff,
0.35768097506348,36.8938338110303,1700,2017-11-07 07:28:58,1771.0902666748868,0.0,0.0,0.10786300345161601,1771.0902666748868,0.0,0.0,0.10786300345161601,1024,0.0,99,Assisted_Takeoff,
0.357681023631415,36.8938337923398,1800,2017-11-07 07:28:58,1771.0902666748868,0.0,0.0,0.11284000361088001,1771.0902666748868,0.0,0.0,0.11284000361088001,1024,0.0,99,Assisted_Takeoff,
0.35768106997672794,36.8938337819861,1900,2017-11-07 07:28:58,1771.0902666748868,0.0,0.0,0.11702500374480002,1771.0902666748868,0.0,0.0,0.11702500374480002,1024,0.0,99,Assisted_Takeoff,
0.357681100571628,36.8938337616533,2000,2017-11-07 07:28:58,1771.0902666748868,0.0,0.0,0.120962003870784,1771.0902666748868,0.0,0.0,0.120962003870784,1024,0.0,99,Assisted_Takeoff,
0.35768111866750896,36.893833729886104,2100,2017-11-07 07:28:58,1771.0902666748868,0.0,0.0,0.12494900399836799,1771.0902666748868,0.0,0.0,0.12494900399836799,1024,0.0,99,Assisted_Takeoff,
0.357681145037208,36.893833695214795,2200,2017-11-07 07:28:58,1771.0902666748868,0.0,0.0,0.129784004153088,1771.0902666748868,0.0,0.0,0.129784004153088,1024,0.0,99,Assisted_Takeoff,
0.357681178709359,36.893833658641704,2300,2017-11-07 07:28:58,1771.0902666748868,0.0,0.0,0.13530900432988802,1771.0902666748868,0.0,0.0,0.13530900432988802,1024,0.0,99,Assisted_Takeoff,
0.35768119837149703,36.8938336110104,2400,2017-11-07 07:28:59,1771.0902666748868,0.0,0.0,0.140761004504352,1771.0902666748868,0.0,0.0,0.140761004504352,1024,0.0,99,Assisted_Takeoff,
0.35768121243382295,36.893833570575,2500,2017-11-07 07:28:59,1771.0902666748868,0.0,0.0,0.145221004647072,1771.0902666748868,0.0,0.0,0.145221004647072,1024,0.0,99,Assisted_Takeoff,
0.35768123387615597,36.8938335399721,2600,2017-11-07 07:28:59,1771.0902666748868,0.0,0.0,0.14936500477967998,1771.0902666748868,0.0,0.0,0.14936500477967998,1024,0.0,99,Assisted_Takeoff,
0.35768126526634797,36.893833525909294,2700,2017-11-07 07:28:59,1771.0902666748868,0.0,0.0,0.152793004889376,1771.0902666748868,0.0,0.0,0.152793004889376,1025,0.0,99,Assisted_Takeoff,
0.357681307077767,36.8938335238361,2800,2017-11-07 07:28:59,1771.0902666748868,0.0,0.0,0.155987004991584,1771.0902666748868,0.0,0.0,0.155987004991584,1053,0.0,99,Assisted_Takeoff,
0.357681350269394,36.8938335248494,2900,2017-11-07 07:28:59,1771.0902666748868,0.0,0.0,0.159103005091296,1771.0902666748868,0.0,0.0,0.159103005091296,1130,0.0,99,Assisted_Takeoff,
0.3576813814269221,36.8938335144678,3000,2017-11-07 07:28:59,1771.0902666748868,0.0,0.0,0.162303005193696,1771.0902666748868,0.0,0.0,0.162303005193696,1267,0.0,99,Assisted_Takeoff,
0.35768140167194107,36.8938334942919,3100,2017-11-07 07:28:59,1771.0902666748868,0.0,0.0,0.16548000529536003,1771.0902666748868,0.0,0.0,0.16548000529536003,1379,0.0,99,Assisted_Takeoff,
0.357681407105041,36.8938334795755,3200,2017-11-07 07:28:59,1771.0902666748868,0.0,0.0,0.167089005346848,1771.0902666748868,0.0,0.0,0.167089005346848,1464,0.0,99,Assisted_Takeoff,
0.35768141091916206,36.893833473198,3300,2017-11-07 07:28:59,1771.0902666748868,0.0,0.0,0.16789700537270405,1771.0902666748868,0.0,0.0,0.16789700537270405,1528,0.0,99,Assisted_Takeoff,
0.35768142398905395,36.8938334514617,3400,2017-11-07 07:29:00,1771.0902666748868,0.0,0.0,0.17065900546108803,1771.0902666748868,0.0,0.0,0.17065900546108803,1528,0.0,99,Assisted_Takeoff,
0.35768145013901503,36.8938334242535,3500,2017-11-07 07:29:00,1771.0902666748868,0.0,0.0,0.17485500559536,1771.0902666748868,0.0,0.0,0.17485500559536,1639,0.0,99,Assisted_Takeoff,
0.3576814662536889,36.893833385128104,3600,2017-11-07 07:29:00,1771.0902666748868,0.0,0.0,0.179276005736832,1771.0902666748868,0.0,0.0,0.179276005736832,1666,0.0,99,Assisted_Takeoff,
0.35768147923564503,36.8938333131857,3700,2017-11-07 07:29:00,1771.0902666748868,0.0,0.0,0.186227005959264,1771.0902666748868,0.0,0.0,0.186227005959264,1684,0.0,99,GPS_Atti,
0.35768149598378396,36.8938331566785,3800,2017-11-07 07:29:00,1771.0902666748868,0.0,0.35999970196000003,0.20086500642768002,1771.0902666748868,0.0,0.35999970196000003,0.20086500642768002,1684,0.0,99,GPS_Atti,Home Point Recorded. RTH Altitude:  30m.
0.357681524984743,36.8938329441145,3900,2017-11-07 07:29:00,1771.190266678087,0.10000000320000002,0.35999970196000003,0.221809007097888,1771.190266678087,0.10000000320000002,0.35999970196000003,0.221809007097888,1684,0.0,99,GPS_Atti,
0.35768154635237104,36.8938327166086,4000,2017-11-07 07:29:00,1771.290266681287,0.20000000640000004,0.35999970196000003,0.244247007815904,1771.290266681287,0.20000000640000004,0.35999970196000003,0.244247007815904,1684,0.0,99,GPS_Atti,
0.357681547820617,36.8938324879685,4100,2017-11-07 07:29:00,1771.3902666844867,0.3000000096,0.35999970196000003,0.26624500851984,1771.3902666844867,0.3000000096,0.35999970196000003,0.26624500851984,1684,0.0,99,GPS_Atti,
0.35768151135487103,36.8938322337305,4200,2017-11-07 07:29:00,1771.590266690887,0.500000016,0.8063993323904,0.289503009264096,1771.590266690887,0.500000016,0.8063993323904,0.289503009264096,1684,0.0,99,GPS_Atti,
0.35768137992010207,36.893831710388,4400,2017-11-07 07:29:01,1772.1902667100867,1.1000000352,0.35999970196000003,0.33783001081056,1772.1902667100867,1.1000000352,0.8063993323904,0.33783001081056,1684,0.0,99,GPS_Atti,
0.357681437866043,36.893831499917496,4500,2017-11-07 07:29:01,1772.4902667196868,1.4000000448000003,0.7199994039200001,0.36205801158585604,1772.4902667196868,1.4000000448000003,0.8063993323904,0.36205801158585604,1684,0.0,99,GPS_Atti,
0.357681552588905,36.893831296409104,4600,2017-11-07 07:29:01,1772.890266732487,1.8000000576000001,0.7199994039200001,0.38762801240409606,1772.890266732487,1.8000000576000001,0.8063993323904,0.38762801240409606,1684,0.0,99,GPS_Atti,
0.357681653102778,36.8938310949573,4700,2017-11-07 07:29:01,1773.2902667452868,2.2000000704,0.7199994039200001,0.412491013199712,1773.2902667452868,2.2000000704,0.8063993323904,0.412491013199712,1684,0.0,99,GPS_Atti,
0.35768177594526596,36.893830944175704,4800,2017-11-07 07:29:01,1773.7902667612868,2.7000000863999998,0.7199994039200001,0.43297801385529605,1773.7902667612868,2.7000000863999998,0.8063993323904,0.43297801385529605,1684,0.0,99,GPS_Atti,
0.357681909408668,36.893830838044295,4900,2017-11-07 07:29:01,1774.290266777287,3.2000001024000007,0.7199994039200001,0.44940701438102404,1774.290266777287,3.2000001024000007,0.8063993323904,0.44940701438102404,1684,0.0,99,GPS_Atti,
0.35768204831514394,36.893830750378605,5000,2017-11-07 07:29:01,1774.790266793287,3.7000001184,0.35999970196000003,0.46438501486032,1774.790266793287,3.7000001184,0.8063993323904,0.46438501486032,1684,0.0,99,GPS_Atti,
0.357682126873115,36.8938306555721,5100,2017-11-07 07:29:01,1775.2902668092868,4.2000001344,0.35999970196000003,0.477551015281632,1775.2902668092868,4.2000001344,0.8063993323904,0.477551015281632,1684,0.0,99,GPS_Atti,
0.357682172274948,36.8938306046342,5200,2017-11-07 07:29:01,1775.790266825287,4.700000150400001,0.0,0.484782015513024,1775.790266825287,4.700000150400001,0.8063993323904,0.484782015513024,1684,0.0,99,GPS_Atti,
0.35768218209120795,36.8938305439325,5300,2017-11-07 07:29:01,1776.3902668444869,5.3000001696,0.35999970196000003,0.49138901572444804,1776.3902668444869,5.3000001696,0.8063993323904,0.49138901572444804,1684,0.0,99,GPS_Atti,
0.35768222289451895,36.893830478781396,5400,2017-11-07 07:29:02,1776.8902668604867,5.8000001856,0.35999970196000003,0.49985501599536003,1776.8902668604867,5.8000001856,0.8063993323904,0.49985501599536003,1684,0.0,99,GPS_Atti,
0.35768227956844106,36.8938304234359,5500,2017-11-07 07:29:02,1777.390266876487,6.300000201600001,0.35999970196000003,0.5080590162578881,1777.390266876487,6.300000201600001,0.8063993323904,0.5080590162578881,1684,0.0,99,GPS_Atti,
0.357682355732599,36.893830367449105,5600,2017-11-07 07:29:02,1777.8902668924868,6.800000217600001,0.35999970196000003,0.517263016552416,1777.8902668924868,6.800000217600001,0.8063993323904,0.517263016552416,1684,0.0,99,GPS_Atti,
0.357682466830137,36.8938303653796,5700,2017-11-07 07:29:02,1778.3902669084866,7.3000002336000005,0.0,0.5228240167303679,1778.3902669084866,7.3000002336000005,0.8063993323904,0.5228240167303679,1684,0.0,99,GPS_Atti,
0.35768256767539897,36.893830364854004,5800,2017-11-07 07:29:02,1778.890266924487,7.8000002496,0.0,0.527938016894016,1778.890266924487,7.8000002496,0.8063993323904,0.527938016894016,1684,0.0,99,GPS_Atti,
0.357682678074335,36.8938304190614,5900,2017-11-07 07:29:02,1779.3902669404868,8.3000002656,0.0,0.528407016909024,1779.3902669404868,8.3000002656,0.8063993323904,0.528407016909024,1684,0.0,99,GPS_Atti,
0.35768281913890704,36.8938304783403,6000,2017-11-07 07:29:02,1779.8902669564868,8.8000002816,0.0,0.5304740169751679,1779.8902669564868,8.8000002816,0.8063993323904,0.5304740169751679,1684,0.0,99,GPS_Atti,
0.357683012604975,36.8938305821763,6100,2017-11-07 07:29:02,1780.3902669724869,9.3000002976,0.0,0.5320830170266561,1780.3902669724869,9.3000002976,0.8063993323904,0.5320830170266561,1684,0.0,99,GPS_Atti,
0.35768320225804096,36.8938306949785,6200,2017-11-07 07:29:02,1780.890266988487,9.8000003136,0.0,0.533747017079904,1780.890266988487,9.8000003136,0.8063993323904,0.533747017079904,1684,0.0,99,GPS_Atti,
0.35768332286345295,36.8938307797301,6300,2017-11-07 07:29:02,1781.3902670044868,10.300000329600001,0.0,0.5342410170957121,1781.3902670044868,10.300000329600001,0.8063993323904,0.5342410170957121,1684,0.0,99,GPS_Atti,
0.357683439091608,36.893830868925704,6400,2017-11-07 07:29:03,1781.890267020487,10.800000345599999,0.0,0.534547017105504,1781.890267020487,10.800000345599999,0.8063993323904,0.534547017105504,1684,0.0,99,GPS_Atti,
0.35768358384806603,36.893830988372,6500,2017-11-07 07:29:03,1782.3902670364869,11.3000003616,0.0,0.5349260171176321,1782.3902670364869,11.3000003616,0.8063993323904,0.5349260171176321,1684,0.0,99,GPS_Atti,
0.35768372860493103,36.893831097269796,6600,2017-11-07 07:29:03,1782.8902670524867,11.8000003776,0.35999970196000003,0.536964017182848,1782.8902670524867,11.8000003776,0.8063993323904,0.536964017182848,1684,0.0,99,GPS_Atti,
0.357683861206683,36.8938312309486,6700,2017-11-07 07:29:03,1783.3902670684868,12.300000393600001,0.35999970196000003,0.53686001717952,1783.3902670684868,12.300000393600001,0.8063993323904,0.536964017182848,1684,0.0,99,GPS_Atti,
0.35768397822504,36.8938313681979,6800,2017-11-07 07:29:03,1783.8902670844868,12.800000409600003,0.0,0.53601501715248,1783.8902670844868,12.800000409600003,0.8063993323904,0.536964017182848,1684,0.0,99,GPS_Atti,
0.35768409299247994,36.893831538670995,6900,2017-11-07 07:29:03,1784.3902671004869,13.3000004256,0.35999970196000003,0.5333760170680321,1784.3902671004869,13.3000004256,0.8063993323904,0.536964017182848,1684,0.0,99,GPS_Atti,
0.35768418540382707,36.893831734245204,7000,2017-11-07 07:29:03,1784.8902671164867,13.8000004416,0.35999970196000003,0.5280430168973761,1784.8902671164867,13.8000004416,0.8063993323904,0.536964017182848,1684,0.0,99,GPS_Atti,
0.357684314957946,36.8938321277586,7200,2017-11-07 07:29:03,1785.8902671484868,14.8000004736,0.35999970196000003,0.515196016486272,1785.8902671484868,14.8000004736,0.8063993323904,0.536964017182848,1684,0.0,99,GPS_Atti,
0.357684315425717,36.8938323134342,7300,2017-11-07 07:29:03,1786.3902671644869,15.3000004896,0.35999970196000003,0.5046130161476161,1786.3902671644869,15.3000004896,0.8063993323904,0.536964017182848,1684,0.0,99,GPS_Atti,
0.357684274521239,36.893832481301395,7400,2017-11-07 07:29:04,1786.890267180487,15.8000005056,0.0,0.491542015729344,1786.890267180487,15.8000005056,0.8063993323904,0.536964017182848,1684,0.0,99,GPS_Atti,
0.35768422870863104,36.8938326153469,7500,2017-11-07 07:29:04,1787.4902671996867,16.400000524800003,0.0,0.480098015363136,1787.4902671996867,16.400000524800003,0.8063993323904,0.536964017182848,1684,0.0,99,GPS_Atti,
0.35768419234507004,36.8938327432194,7600,2017-11-07 07:29:04,1787.9902672156868,16.900000540799997,0.0,0.470148015044736,1787.9902672156868,16.900000540799997,0.8063993323904,0.536964017182848,1684,0.0,99,GPS_Atti,
0.357684145980012,36.893832877809295,7700,2017-11-07 07:29:04,1788.4902672316869,17.400000556800002,0.0,0.459137014692384,1788.4902672316869,17.400000556800002,0.8063993323904,0.536964017182848,1684,0.0,99,GPS_Atti,
0.35768407418110204,36.8938330210866,7800,2017-11-07 07:29:04,1788.990267247687,17.9000005728,0.35999970196000003,0.44543401425388807,1788.990267247687,17.9000005728,0.8063993323904,0.536964017182848,1684,0.0,99,GPS_Atti,
0.3576839997286429,36.8938331330575,7900,2017-11-07 07:29:04,1789.4902672636867,18.4000005888,0.35999970196000003,0.433038013857216,1789.4902672636867,18.4000005888,0.8063993323904,0.536964017182848,1684,0.0,99,GPS_Atti,
0.35768393174029206,36.893833254929795,8000,2017-11-07 07:29:04,1789.990267279687,18.900000604800002,0.0,0.421094013475008,1789.990267279687,18.900000604800002,0.8063993323904,0.536964017182848,1684,0.0,99,GPS_Atti,
0.35768389259046296,36.8938333803639,8100,2017-11-07 07:29:04,1790.4902672956869,19.4000006208,0.0,0.412294013193408,1790.4902672956869,19.4000006208,0.8063993323904,0.536964017182848,1684,0.0,99,GPS_Atti,
0.35768386224237303,36.893833495912205,8200,2017-11-07 07:29:04,1791.090267314887,20.00000064,0.0,0.40509201296294395,1791.090267314887,20.00000064,0.8063993323904,0.536964017182848,1684,0.0,99,GPS_Atti,
0.357683835290404,36.893833566286204,8300,2017-11-07 07:29:04,1791.590267330887,20.500000655999997,0.0,0.39995401279852805,1791.590267330887,20.500000655999997,0.8063993323904,0.536964017182848,1684,0.0,99,GPS_Atti,
0.35768381171134894,36.8938336289064,8400,2017-11-07 07:29:05,1792.0902673468868,21.000000672,0.0,0.395519012656608,1792.0902673468868,21.000000672,0.8063993323904,0.536964017182848,1684,0.0,99,GPS_Atti,
0.357683796016405,36.8938336731879,8500,2017-11-07 07:29:05,1792.5902673628868,21.500000688,0.0,0.3925430125613761,1792.5902673628868,21.500000688,0.8063993323904,0.536964017182848,1684,0.0,99,GPS_Atti,
0.3576837650548,36.8938336981231,8600,2017-11-07 07:29:05,1793.090267378887,22.000000704000005,0.0,0.388507012432224,1793.090267378887,22.000000704000005,0.8063993323904,0.536964017182848,1684,0.0,99,GPS_Atti,
0.357683731177872,36.8938337017535,8700,2017-11-07 07:29:05,1793.5902673948867,22.50000072,0.0,0.38476001231232004,1793.5902673948867,22.50000072,0.8063993323904,0.536964017182848,1684,0.0,99,GPS_Atti,
0.35768368023444397,36.893833692520204,8800,2017-11-07 07:29:05,1794.0902674108868,23.000000735999997,0.0,0.37954901214556797,1794.0902674108868,23.000000735999997,0.8063993323904,0.536964017182848,1684,0.0,99,GPS_Atti,
0.35768364335792296,36.8938336755234,8900,2017-11-07 07:29:05,1794.5902674268868,23.500000752000002,0.0,0.376093012034976,1794.5902674268868,23.500000752000002,0.8063993323904,0.536964017182848,1684,0.0,99,GPS_Atti,
0.357683591745205,36.8938336402499,9000,2017-11-07 07:29:05,1795.1902674460869,24.100000771199998,0.0,0.3716500118928,1795.1902674460869,24.100000771199998,0.8063993323904,0.536964017182848,1684,0.0,99,GPS_Atti,
0.3576835456928089,36.89383358648939,9100,2017-11-07 07:29:05,1795.690267462087,24.600000787200003,0.0,0.36848801179161605,1795.690267462087,24.600000787200003,0.8063993323904,0.536964017182848,1684,0.0,99,GPS_Atti,
0.35768347696229397,36.8938334879716,9200,2017-11-07 07:29:05,1796.190267478087,25.100000803199997,0.0,0.364707011670624,1796.190267478087,25.100000803199997,0.8063993323904,0.536964017182848,1684,0.0,99,GPS_Atti,
0.357683427289053,36.893833378264496,9300,2017-11-07 07:29:05,1796.6902674940868,25.600000819200005,0.0,0.36380801164185606,1796.6902674940868,25.600000819200005,0.8063993323904,0.536964017182848,1684,0.0,99,GPS_Atti,
0.3576833801867171,36.893833264180294,9400,2017-11-07 07:29:06,1797.1902675100866,26.100000835200003,0.0,0.36385801164345605,1797.1902675100866,26.100000835200003,0.8063993323904,0.536964017182848,1684,0.0,99,GPS_Atti,
0.35768336129717404,36.8938331897958,9500,2017-11-07 07:29:06,1797.790267529287,26.700000854400002,0.0,0.36536101169155205,1797.790267529287,26.700000854400002,0.8063993323904,0.536964017182848,1684,0.0,99,GPS_Atti,
0.35768334338306895,36.8938331196215,9600,2017-11-07 07:29:06,1798.2902675452867,27.200000870400004,0.0,0.36694501174224,1798.2902675452867,27.200000870400004,0.8063993323904,0.536964017182848,1684,0.0,99,GPS_Atti,
0.35768333528156,36.893833071381,9700,2017-11-07 07:29:06,1798.790267561287,27.700000886400005,0.0,0.368549011793568,1798.790267561287,27.700000886400005,0.8063993323904,0.536964017182848,1684,0.0,99,GPS_Atti,
0.35768327757968205,36.893833029783,9800,2017-11-07 07:29:06,1799.2902675772868,28.200000902400003,0.0,0.365011011680352,1799.2902675772868,28.200000902400003,0.8063993323904,0.536964017182848,1684,0.0,99,GPS_Atti,
0.35768321603712,36.8938330191033,9900,2017-11-07 07:29:06,1799.7902675932867,28.7000009184,0.0,0.359566011506112,1799.7902675932867,28.7000009184,0.8063993323904,0.536964017182848,1684,0.0,99,GPS_Atti,
0.35768313411783703,36.8938329950636,10000,2017-11-07 07:29:06,1800.390267612487,29.300000937600004,0.0,0.352944011294208,1800.390267612487,29.300000937600004,0.8063993323904,0.536964017182848,1684,0.0,99,GPS_Atti,
0.357683058990591,36.8938329652266,10100,2017-11-07 07:29:06,1800.8902676284868,29.8000009536,0.0,0.347436011117952,1800.8902676284868,29.8000009536,0.8063993323904,0.536964017182848,1684,0.0,99,GPS_Atti,
0.357683005670246,36.8938329468167,10200,2017-11-07 07:29:06,1801.3902676444868,30.300000969600003,0.0,0.343453010990496,1801.3902676444868,30.300000969600003,0.8063993323904,0.536964017182848,1684,0.0,99,GPS_Atti,
0.357682958557733,36.8938329029774,10300,2017-11-07 07:29:06,1801.8902676604869,30.8000009856,0.0,0.341656010932992,1801.8902676604869,30.8000009856,0.8063993323904,0.536964017182848,1684,0.0,99,GPS_Atti,
0.35768291976127603,36.89383285824471,10400,2017-11-07 07:29:07,1802.390267676487,31.300001001600002,0.0,0.34082101090627204,1802.390267676487,31.300001001600002,0.8063993323904,0.536964017182848,1684,0.0,99,GPS_Atti,
0.35768290681657106,36.8938328367819,10500,2017-11-07 07:29:07,1802.8902676924868,31.800001017600003,0.0,0.34098301091145605,1802.8902676924868,31.800001017600003,0.8063993323904,0.536964017182848,1684,0.0,99,GPS_Atti,
0.35768288746882393,36.8938327933339,10600,2017-11-07 07:29:07,1803.4902677116868,32.4000010368,0.0,0.34200001094400007,1803.4902677116868,32.4000010368,0.8063993323904,0.536964017182848,1684,0.0,99,GPS_Atti,
0.357682879818394,36.8938327589941,10700,2017-11-07 07:29:07,1803.9902677276868,32.9000010528,0.0,0.343546010993472,1803.9902677276868,32.9000010528,0.8063993323904,0.536964017182848,1684,0.0,99,GPS_Atti,
0.35768284278004603,36.8938327025576,10800,2017-11-07 07:29:07,1804.3902677404867,33.3000010656,0.0,0.34400201100806405,1804.3902677404867,33.3000010656,0.8063993323904,0.536964017182848,1684,0.0,99,GPS_Atti,
0.357682800442131,36.89383266616271,10900,2017-11-07 07:29:07,1804.890267756487,33.800001081599994,0.0,0.34277201096870397,1804.890267756487,33.800001081599994,0.8063993323904,0.536964017182848,1684,0.0,99,GPS_Atti,
0.357682755989477,36.8938326157896,11000,2017-11-07 07:29:07,1805.4902677756868,34.4000011008,0.0,0.342458010958656,1805.4902677756868,34.4000011008,0.8063993323904,0.536964017182848,1684,0.0,99,GPS_Atti,
0.35768273996904904,36.8938325962775,11100,2017-11-07 07:29:07,1805.9902677916866,34.9000011168,0.0,0.34248301095945605,1805.9902677916866,34.9000011168,0.8063993323904,0.536964017182848,1684,0.0,99,GPS_Atti,
0.357682711735901,36.8938325674576,11200,2017-11-07 07:29:07,1806.490267807687,35.40000113280001,0.0,0.342176010949632,1806.490267807687,35.40000113280001,0.8063993323904,0.536964017182848,1684,0.0,99,GPS_Atti,
0.35768269266865405,36.8938325726275,11300,2017-11-07 07:29:07,1806.9902678236867,35.9000011488,0.0,0.34019801088633606,1806.9902678236867,35.9000011488,0.8063993323904,0.536964017182848,1684,0.0,99,GPS_Atti,
0.35768268165406203,36.8938325593435,11400,2017-11-07 07:29:08,1807.4902678396868,36.4000011648,0.0,0.34024801088793605,1807.4902678396868,36.4000011648,0.8063993323904,0.536964017182848,1684,0.0,99,GPS_Atti,
0.35768269540199704,36.8938325459188,11500,2017-11-07 07:29:08,1807.9902678556869,36.900001180800004,0.0,0.342382010956224,1807.9902678556869,36.900001180800004,0.8063993323904,0.536964017182848,1684,0.0,99,GPS_Atti,
0.357682705270164,36.893832529582,11600,2017-11-07 07:29:08,1808.490267871687,37.4000011968,0.0,0.344407011021024,1808.490267871687,37.4000011968,0.8063993323904,0.536964017182848,1684,0.0,99,GPS_Atti,
0.357682688495766,36.8938324720242,11700,2017-11-07 07:29:08,1808.9902678876867,37.90000121280001,0.0,0.34730101111363204,1808.9902678876867,37.90000121280001,0.8063993323904,0.536964017182848,1684,0.0,99,GPS_Atti,
0.35768267968934403,36.893832461558496,11800,2017-11-07 07:29:08,1809.590267906887,38.500001232,0.0,0.34736801111577603,1809.590267906887,38.500001232,0.8063993323904,0.536964017182848,1684,0.0,99,GPS_Atti,
0.357682659660094,36.893832441265396,11900,2017-11-07 07:29:08,1810.0902679228868,39.000001248000004,0.0,0.34727701111286396,1810.0902679228868,39.000001248000004,0.8063993323904,0.536964017182848,1684,0.0,99,GPS_Atti,
0.35768265753538103,36.8938324258151,12000,2017-11-07 07:29:08,1810.5902679388867,39.500001264000005,0.0,0.34828501114512006,1810.5902679388867,39.500001264000005,0.8063993323904,0.536964017182848,1684,0.0,99,GPS_Atti,
0.357682674372271,36.8938324232366,12100,2017-11-07 07:29:08,1811.090267954887,40.00000128,0.0,0.349842011194944,1811.090267954887,40.00000128,0.8063993323904,0.536964017182848,1684,0.0,99,GPS_Atti,
0.357682689141037,36.8938324216981,12200,2017-11-07 07:29:08,1811.5902679708868,40.500001296,0.0,0.351156011236992,1811.5902679708868,40.500001296,0.8063993323904,0.536964017182848,1684,0.0,99,GPS_Atti,
0.35768272807184004,36.8938323876195,12300,2017-11-07 07:29:08,1812.190267990087,41.100001315200004,0.0,0.35690701142102405,1812.190267990087,41.100001315200004,0.8063993323904,0.536964017182848,1684,0.0,99,GPS_Atti,
0.357682776175262,36.893832350447894,12400,2017-11-07 07:29:09,1812.6902680060869,41.600001331200005,0.0,0.363638011636416,1812.6902680060869,41.600001331200005,0.8063993323904,0.536964017182848,1684,0.0,99,GPS_Atti,
0.357682825591209,36.8938323427128,12500,2017-11-07 07:29:09,1813.1902680220867,42.1000013472,0.0,0.368256011784192,1813.1902680220867,42.1000013472,0.8063993323904,0.536964017182848,1684,0.0,99,GPS_Atti,
0.357682887117487,36.8938323146396,12600,2017-11-07 07:29:09,1813.690268038087,42.60000136320001,0.0,0.37541601201331204,1813.690268038087,42.60000136320001,0.8063993323904,0.536964017182848,1684,0.0,99,GPS_Atti,
0.357682948579645,36.8938322980026,12700,2017-11-07 07:29:09,1814.1902680540868,43.1000013792,0.0,0.3817380122156161,1814.1902680540868,43.1000013792,0.8063993323904,0.536964017182848,1684,0.0,98,GPS_Atti,
0.357683005174385,36.8938322892607,12800,2017-11-07 07:29:09,1814.6902680700869,43.6000013952,0.0,0.387101012387232,1814.6902680700869,43.6000013952,0.8063993323904,0.536964017182848,1684,0.0,98,GPS_Atti,
0.357683049013725,36.893832314432004,12900,2017-11-07 07:29:09,1815.190268086087,44.100001411200004,0.0,0.3889640124468481,1815.190268086087,44.100001411200004,0.8063993323904,0.536964017182848,1684,0.0,98,GPS_Atti,
0.357683095127188,36.8938323514178,13000,2017-11-07 07:29:09,1815.690268102087,44.6000014272,0.0,0.39025901248828804,1815.690268102087,44.6000014272,0.8063993323904,0.536964017182848,1684,0.0,98,GPS_Atti,
0.35768314568996706,36.8938324080764,13100,2017-11-07 07:29:09,1816.1902681180868,45.10000144320001,0.0,0.39069001250208,1816.1902681180868,45.10000144320001,0.8063993323904,0.536964017182848,1684,0.0,98,GPS_Atti,
0.35768319000929205,36.8938324722784,13200,2017-11-07 07:29:09,1816.6902681340866,45.6000014592,0.0,0.39024401248780805,1816.6902681340866,45.6000014592,0.8063993323904,0.536964017182848,1684,0.0,98,GPS_Atti,
0.357683236302291,36.893832548834,13300,2017-11-07 07:29:09,1817.290268153287,46.20000147840001,0.0,0.389371012459872,1817.290268153287,46.20000147840001,0.8063993323904,0.536964017182848,1684,0.0,98,GPS_Atti,
0.3576832972679771,36.8938325975713,13400,2017-11-07 07:29:10,1817.7902681692867,46.7000014944,0.0,0.391836012538752,1817.7902681692867,46.7000014944,0.8063993323904,0.536964017182848,1684,0.0,98,GPS_Atti,
0.35768336077159396,36.893832625843004,13500,2017-11-07 07:29:10,1818.290268185287,47.2000015104,0.0,0.395958012670656,1818.290268185287,47.2000015104,0.8063993323904,0.536964017182848,1684,0.0,98,GPS_Atti,
0.357683406644454,36.893832619282996,13600,2017-11-07 07:29:10,1818.8902682044868,47.8000015296,0.0,0.400629012820128,1818.8902682044868,47.8000015296,0.8063993323904,0.536964017182848,1684,0.0,98,GPS_Atti,
0.35768344060198903,36.8938326185951,13700,2017-11-07 07:29:10,1819.3902682204866,48.300001545600004,0.0,0.40384301292297603,1819.3902682204866,48.300001545600004,0.8063993323904,0.536964017182848,1684,0.0,98,GPS_Atti,
0.35768349368478497,36.893832610089795,13800,2017-11-07 07:29:10,1819.890268236487,48.8000015616,0.0,0.4093280130984961,1819.890268236487,48.8000015616,0.8063993323904,0.536964017182848,1684,0.0,98,GPS_Atti,
0.357683542769344,36.8938326250508,13900,2017-11-07 07:29:10,1820.3902682524867,49.30000157760001,0.0,0.41307001321824,1820.3902682524867,49.30000157760001,0.8063993323904,0.536964017182848,1684,0.0,98,GPS_Atti,
0.357683580462531,36.893832633857,14000,2017-11-07 07:29:10,1820.8902682684868,49.8000015936,0.0,0.41613001331615995,1820.8902682684868,49.8000015936,0.8063993323904,0.536964017182848,1684,0.0,98,GPS_Atti,
0.357683600238354,36.893832673866704,14100,2017-11-07 07:29:10,1821.3902682844869,50.3000016096,0.0,0.415722013303104,1821.3902682844869,50.3000016096,0.8063993323904,0.536964017182848,1684,0.0,98,GPS_Atti,
0.357683624121928,36.8938326741365,14200,2017-11-07 07:29:10,1821.890268300487,50.800001625600004,0.0,0.417994013375808,1821.890268300487,50.800001625600004,0.8063993323904,0.536964017182848,1684,0.0,98,GPS_Atti,
0.35768365323525,36.893832648903704,14300,2017-11-07 07:29:10,1822.3902683164868,51.3000016416,0.0,0.422208013510656,1822.3902683164868,51.3000016416,0.8063993323904,0.536964017182848,1684,0.0,98,GPS_Atti,
0.3576837100826021,36.893832590849,14400,2017-11-07 07:29:11,1822.890268332487,51.800001657600006,0.0,0.430942013790144,1822.890268332487,51.800001657600006,0.8063993323904,0.536964017182848,1684,0.0,98,GPS_Atti,
0.35768378303770704,36.89383255667239,14500,2017-11-07 07:29:11,1823.4902683516868,52.400001676799995,0.0,0.439856014075392,1823.4902683516868,52.400001676799995,0.8063993323904,0.536964017182848,1684,0.0,98,GPS_Atti,
0.357683875653831,36.893832515819,14600,2017-11-07 07:29:11,1823.9902683676867,52.90000169280001,0.0,0.451032014433024,1823.9902683676867,52.90000169280001,0.8063993323904,0.536964017182848,1684,0.0,98,GPS_Atti,
0.35768395819762105,36.893832503558,14700,2017-11-07 07:29:11,1824.490268383687,53.400001708800005,0.0,0.45964001470848,1824.490268383687,53.400001708800005,0.8063993323904,0.536964017182848,1684,0.0,98,GPS_Atti,
0.3576840413838329,36.8938324772005,14800,2017-11-07 07:29:11,1824.9902683996868,53.900001724800006,0.0,0.46911501501168,1824.9902683996868,53.900001724800006,0.8063993323904,0.536964017182848,1684,0.0,98,GPS_Atti,
0.35768410684443197,36.89383246332879,14900,2017-11-07 07:29:11,1825.4902684156868,54.40000174080001,0.0,0.47620001523840005,1825.4902684156868,54.40000174080001,0.8063993323904,0.536964017182848,1684,0.0,98,GPS_Atti,
0.35768419303634397,36.893832439455,15000,2017-11-07 07:29:11,1825.990268431687,54.9000017568,0.0,0.48585001554720003,1825.990268431687,54.9000017568,0.8063993323904,0.536964017182848,1684,0.0,98,GPS_Atti,
0.357684278089974,36.8938324479374,15100,2017-11-07 07:29:11,1826.490268447687,55.40000177280001,0.0,0.49366301579721605,1826.490268447687,55.40000177280001,0.8063993323904,0.536964017182848,1684,0.0,98,GPS_Atti,
0.357684344826459,36.893832453730894,15200,2017-11-07 07:29:11,1826.9902684636868,55.900001788800004,0.0,0.499879015996128,1826.9902684636868,55.900001788800004,0.8063993323904,0.536964017182848,1684,0.0,98,GPS_Atti,
0.35768438689568105,36.8938324763306,15300,2017-11-07 07:29:11,1827.4902684796868,56.400001804800006,0.0,0.502831016090592,1827.4902684796868,56.400001804800006,0.8063993323904,0.536964017182848,1684,0.0,98,GPS_Atti,
0.35768442101809705,36.8938324947079,15400,2017-11-07 07:29:12,1827.990268495687,56.90000182080001,0.0,0.505251016168032,1827.990268495687,56.90000182080001,0.8063993323904,0.536964017182848,1684,0.0,98,GPS_Atti,
0.35768444739034005,36.893832529271,15500,2017-11-07 07:29:12,1828.4902685116867,57.4000018368,0.0,0.506114016195648,1828.4902685116867,57.4000018368,0.8063993323904,0.536964017182848,1684,0.0,98,GPS_Atti,
0.357684474882546,36.8938325608868,15600,2017-11-07 07:29:12,1828.8902685244868,57.8000018496,0.0,0.507279016232928,1828.8902685244868,57.8000018496,0.8063993323904,0.536964017182848,1684,0.0,98,GPS_Atti,
0.35768449839157795,36.893832616253704,15700,2017-11-07 07:29:12,1829.4902685436869,58.400001868800004,0.0,0.506941016222112,1829.4902685436869,58.400001868800004,0.8063993323904,0.536964017182848,1684,0.0,98,GPS_Atti,
0.357684493087736,36.89383264967721,15800,2017-11-07 07:29:12,1829.990268559687,58.900001884800005,0.0,0.504816016154112,1829.990268559687,58.900001884800005,0.8063993323904,0.536964017182848,1684,0.0,98,GPS_Atti,
0.357684450901673,36.8938326696304,15900,2017-11-07 07:29:12,1830.4902685756867,59.4000019008,0.0,0.49962701598806397,1830.4902685756867,59.4000019008,0.8063993323904,0.536964017182848,1684,0.0,98,GPS_Atti,
0.357684402332516,36.893832675559295,16000,2017-11-07 07:29:12,1830.990268591687,59.9000019168,0.0,0.49446101582275204,1830.990268591687,59.9000019168,0.8063993323904,0.536964017182848,1684,0.0,98,GPS_Atti,
0.357684362992159,36.8938326987891,16100,2017-11-07 07:29:12,1831.4902686076869,60.40000193280001,0.0,0.48940101566083194,1831.4902686076869,60.40000193280001,0.8063993323904,0.536964017182848,1684,0.0,98,GPS_Atti,
0.3576843437529071,36.893832733882704,16200,2017-11-07 07:29:12,1831.9902686236867,60.9000019488,0.0,0.485806015545792,1831.9902686236867,60.9000019488,0.8063993323904,0.536964017182848,1684,0.0,98,GPS_Atti,
0.35768432951460705,36.8938327229048,16300,2017-11-07 07:29:12,1832.490268639687,61.400001964800005,0.0,0.48489001551648003,1832.490268639687,61.400001964800005,0.8063993323904,0.536964017182848,1684,0.0,98,GPS_Atti,
0.357684311848433,36.893832715584104,16400,2017-11-07 07:29:13,1832.9902686556868,61.9000019808,0.0,0.48346201547078405,1832.9902686556868,61.9000019808,0.8063993323904,0.536964017182848,1684,0.0,98,GPS_Atti,
0.35768428057538704,36.8938327624601,16500,2017-11-07 07:29:13,1833.4902686716869,62.4000019968,0.0,0.47809501529904,1833.4902686716869,62.4000019968,0.8063993323904,0.536964017182848,1684,0.0,98,GPS_Atti,
0.357684233118865,36.893832818896605,16600,2017-11-07 07:29:13,1833.990268687687,62.9000020128,0.0,0.47067101506147196,1833.990268687687,62.9000020128,0.8063993323904,0.536964017182848,1684,0.0,98,GPS_Atti,
0.357684190606706,36.893832900898296,16700,2017-11-07 07:29:13,1834.490268703687,63.4000020288,0.0,0.4626200148038401,1834.490268703687,63.4000020288,0.8063993323904,0.536964017182848,1684,0.0,98,GPS_Atti,
0.357684147049493,36.8938329675182,16800,2017-11-07 07:29:13,1835.0902687228868,64.000002048,0.0,0.455223014567136,1835.0902687228868,64.000002048,0.8063993323904,0.536964017182848,1684,0.0,98,GPS_Atti,
0.357684111708594,36.8938330121958,16900,2017-11-07 07:29:13,1835.5902687388868,64.500002064,0.0,0.449663014389216,1835.5902687388868,64.500002064,0.8063993323904,0.536964017182848,1684,0.0,98,GPS_Atti,
0.357684076754451,36.8938330369239,17000,2017-11-07 07:29:13,1836.090268754887,65.00000208,0.0,0.44501501424048,1836.090268754887,65.00000208,0.8063993323904,0.536964017182848,1684,0.0,98,GPS_Atti,
0.357684042974009,36.893833071741206,17100,2017-11-07 07:29:13,1836.5902687708867,65.500002096,0.0,0.44006001408191997,1836.5902687708867,65.500002096,0.8063993323904,0.536964017182848,1684,0.0,98,GPS_Atti,
0.35768399629995395,36.8938331129945,17200,2017-11-07 07:29:13,1837.090268786887,66.000002112,0.0,0.43351901387260805,1837.090268786887,66.000002112,0.8063993323904,0.536964017182848,1684,0.0,98,GPS_Atti,
0.35768394454149,36.8938331938148,17300,2017-11-07 07:29:13,1837.5902688028868,66.500002128,0.0,0.424847013595104,1837.5902688028868,66.500002128,0.8063993323904,0.536964017182848,1684,0.0,98,GPS_Atti,
0.35768387507532595,36.8938332624534,17400,2017-11-07 07:29:14,1838.0902688188867,67.00000214399999,0.0,0.414901013276832,1838.0902688188867,67.00000214399999,0.8063993323904,0.536964017182848,1684,0.0,98,GPS_Atti,
0.357683802912866,36.8938333101714,17500,2017-11-07 07:29:14,1838.590268834887,67.50000216000001,0.0,0.40552401297676804,1838.590268834887,67.50000216000001,0.8063993323904,0.536964017182848,1684,0.0,98,GPS_Atti,
0.35768372488393607,36.893833352871106,17600,2017-11-07 07:29:14,1839.0902688508868,68.00000217600001,0.0,0.395739012663648,1839.0902688508868,68.00000217600001,0.8063993323904,0.536964017182848,1684,0.0,98,GPS_Atti,
0.35768365910986205,36.8938334195766,17700,2017-11-07 07:29:14,1839.5902688668868,68.500002192,0.0,0.38634001236288,1839.5902688668868,68.500002192,0.8063993323904,0.536964017182848,1684,0.0,98,GPS_Atti,
0.35768357563012304,36.8938334631874,17800,2017-11-07 07:29:14,1840.1902688860869,69.1000022112,0.0,0.3759720120311039,1840.1902688860869,69.1000022112,0.8063993323904,0.536964017182848,1684,0.0,98,GPS_Atti,
0.357683488892275,36.8938334909169,17900,2017-11-07 07:29:14,1840.690268902087,69.60000222720001,0.0,0.365849011707168,1840.690268902087,69.60000222720001,0.8063993323904,0.536964017182848,1684,0.0,98,GPS_Atti,
0.35768340799199105,36.893833508979895,18000,2017-11-07 07:29:14,1841.1902689180868,70.1000022432,0.0,0.356697011414304,1841.1902689180868,70.1000022432,0.8063993323904,0.536964017182848,1684,0.0,98,GPS_Atti,
0.357683350940677,36.8938335470519,18100,2017-11-07 07:29:14,1841.690268934087,70.60000225920001,0.0,0.3493070111778239,1841.690268934087,70.60000225920001,0.8063993323904,0.536964017182848,1684,0.0,98,GPS_Atti,
0.35768329848931,36.8938335857946,18200,2017-11-07 07:29:14,1842.1902689500869,71.10000227520001,0.0,0.342388010956416,1842.1902689500869,71.10000227520001,0.8063993323904,0.536964017182848,1684,0.0,98,GPS_Atti,
0.357683222319249,36.893833553155396,18300,2017-11-07 07:29:14,1842.6902689660867,71.6000022912,0.0,0.335602010739264,1842.6902689660867,71.6000022912,0.8063993323904,0.536964017182848,1684,0.0,98,GPS_Atti,
0.3576831636382701,36.8938335209524,18400,2017-11-07 07:29:15,1843.190268982087,72.1000023072,0.0,0.33073301058345606,1843.190268982087,72.1000023072,0.8063993323904,0.536964017182848,1684,0.0,98,GPS_Atti,
0.357683124652914,36.8938335235786,18500,2017-11-07 07:29:15,1843.6902689980868,72.6000023232,0.0,0.32658001045056,1843.6902689980868,72.6000023232,0.8063993323904,0.536964017182848,1684,0.0,98,GPS_Atti,
0.357683082339628,36.8938335377865,18600,2017-11-07 07:29:15,1844.1902690140869,73.1000023392,0.0,0.321621010291872,1844.1902690140869,73.1000023392,0.8063993323904,0.536964017182848,1684,0.0,98,GPS_Atti,
0.357683045364993,36.8938335792153,18700,2017-11-07 07:29:15,1844.690269030087,73.6000023552,0.0,0.316137010116384,1844.690269030087,73.6000023552,0.8063993323904,0.536964017182848,1684,0.0,98,GPS_Atti,
0.35768299985059404,36.893833609659296,18800,2017-11-07 07:29:15,1845.190269046087,74.1000023712,0.0,0.310211009926752,1845.190269046087,74.1000023712,0.8063993323904,0.536964017182848,1684,0.0,98,GPS_Atti,
0.35768295949225604,36.8938336296398,18900,2017-11-07 07:29:15,1845.6902690620868,74.6000023872,0.0,0.305231009767392,1845.6902690620868,74.6000023872,0.8063993323904,0.536964017182848,1684,0.0,98,GPS_Atti,
0.357682913060636,36.893833635993204,19000,2017-11-07 07:29:15,1846.1902690780867,75.1000024032,0.0,0.300144009604608,1846.1902690780867,75.1000024032,0.8063993323904,0.536964017182848,1684,0.0,98,GPS_Atti,
0.357682877786503,36.8938336446742,19100,2017-11-07 07:29:15,1846.690269094087,75.60000241920001,0.0,0.29613200947622403,1846.690269094087,75.60000241920001,0.8063993323904,0.536964017182848,1684,0.0,98,GPS_Atti,
0.35768282976531796,36.893833647125795,19200,2017-11-07 07:29:15,1847.1902691100868,76.10000243520001,0.0,0.291041009313312,1847.1902691100868,76.10000243520001,0.8063993323904,0.536964017182848,1684,0.0,98,GPS_Atti,
0.357682787738435,36.8938336630253,19300,2017-11-07 07:29:15,1847.6902691260868,76.6000024512,0.0,0.28604400915340805,1847.6902691260868,76.6000024512,0.8063993323904,0.536964017182848,1684,0.0,98,GPS_Atti,
0.35768274906736897,36.8938336481113,19400,2017-11-07 07:29:16,1848.190269142087,77.1000024672,0.0,0.282636009044352,1848.190269142087,77.1000024672,0.8063993323904,0.536964017182848,1684,0.0,98,GPS_Atti,
0.35768272330925205,36.8938336198535,19500,2017-11-07 07:29:16,1848.690269158087,77.6000024832,0.0,0.281152008996864,1848.690269158087,77.6000024832,0.8063993323904,0.536964017182848,1684,0.0,98,GPS_Atti,
0.357682670988364,36.8938335686619,19600,2017-11-07 07:29:16,1849.1902691740868,78.1000024992,0.0,0.278034008897088,1849.1902691740868,78.1000024992,0.8063993323904,0.536964017182848,1684,0.0,98,GPS_Atti,
0.357682614937933,36.89383353527379,19700,2017-11-07 07:29:16,1849.690269190087,78.6000025152,0.0,0.27390100876483203,1849.690269190087,78.6000025152,0.8063993323904,0.536964017182848,1684,0.0,98,GPS_Atti,
0.357682557522865,36.8938334846073,19800,2017-11-07 07:29:16,1850.190269206087,79.10000253119999,0.0,0.27062400865996805,1850.190269206087,79.10000253119999,0.8063993323904,0.536964017182848,1684,0.0,98,GPS_Atti,
0.35768252459369204,36.8938334561509,19900,2017-11-07 07:29:16,1850.7902692252867,79.70000255040001,0.0,0.26881700860214397,1850.7902692252867,79.70000255040001,0.8063993323904,0.536964017182848,1684,0.0,98,GPS_Atti,
0.35768248926989205,36.893833413311,20000,2017-11-07 07:29:16,1851.290269241287,80.20000256640002,0.0,0.267625008564,1851.290269241287,80.20000256640002,0.8063993323904,0.536964017182848,1684,0.0,98,GPS_Atti,
0.35768246618466293,36.893833380403,20100,2017-11-07 07:29:16,1851.7902692572868,80.7000025824,0.0,0.26719200855014397,1851.7902692572868,80.7000025824,0.8063993323904,0.536964017182848,1684,0.0,98,GPS_Atti,
0.357682446456471,36.8938333287463,20200,2017-11-07 07:29:16,1852.2902692732866,81.2000025984,0.0,0.26823000858336,1852.2902692732866,81.2000025984,0.8063993323904,0.536964017182848,1684,0.0,98,GPS_Atti,
0.357682430833993,36.8938332930451,20300,2017-11-07 07:29:16,1852.790269289287,81.7000026144,0.0,0.26884000860288004,1852.790269289287,81.7000026144,0.8063993323904,0.536964017182848,1684,0.0,98,GPS_Atti,
0.357682417771226,36.8938332501003,20400,2017-11-07 07:29:17,1853.2902693052868,82.20000263040001,0.0,0.27019700864630397,1853.2902693052868,82.20000263040001,0.8063993323904,0.536964017182848,1684,0.0,98,GPS_Atti,
0.35768241609026497,36.8938332200342,20500,2017-11-07 07:29:17,1853.890269324487,82.8000026496,0.0,0.27188700870038396,1853.890269324487,82.8000026496,0.8063993323904,0.536964017182848,1684,0.0,98,GPS_Atti,
0.35768239674129704,36.893833170746205,20600,2017-11-07 07:29:17,1854.2902693372869,83.20000266240001,0.0,0.27321000874272,1854.2902693372869,83.20000266240001,0.8063993323904,0.536964017182848,1684,0.0,98,GPS_Atti,
0.35768237576734496,36.8938331379768,20700,2017-11-07 07:29:17,1854.790269353287,83.70000267840001,0.0,0.2734250087496,1854.790269353287,83.70000267840001,0.8063993323904,0.536964017182848,1684,0.0,98,GPS_Atti,
0.357682347574094,36.893833070194795,20800,2017-11-07 07:29:17,1855.2902693692868,84.2000026944,0.0,0.27542400881356804,1855.2902693692868,84.2000026944,0.8063993323904,0.536964017182848,1684,0.0,98,GPS_Atti,
0.35768232790534005,36.8938330108763,20900,2017-11-07 07:29:17,1855.890269388487,84.8000027136,0.0,0.27779100888931196,1855.890269388487,84.8000027136,0.8063993323904,0.536964017182848,1684,0.0,98,GPS_Atti,
0.357682291516742,36.893832935355896,21000,2017-11-07 07:29:17,1856.3902694044868,85.30000272960001,0.0,0.28006800896217604,1856.3902694044868,85.30000272960001,0.8063993323904,0.536964017182848,1684,0.0,98,GPS_Atti,
0.3576822561837821,36.893832895340296,21100,2017-11-07 07:29:17,1856.8902694204867,85.80000274560001,0.0,0.280063008962016,1856.8902694204867,85.80000274560001,0.8063993323904,0.536964017182848,1684,0.0,98,GPS_Atti,
0.357682209752161,36.8938328569718,21200,2017-11-07 07:29:17,1857.390269436487,86.3000027616,0.0,0.27916000893312,1857.390269436487,86.3000027616,0.8063993323904,0.536964017182848,1684,0.0,98,GPS_Atti,
0.35768217225357396,36.8938328462749,21300,2017-11-07 07:29:17,1857.8902694524868,86.80000277760001,0.0,0.276971008863072,1857.8902694524868,86.80000277760001,0.8063993323904,0.536964017182848,1684,0.0,98,GPS_Atti,
0.357682146424824,36.8938328238663,21400,2017-11-07 07:29:18,1858.3902694684868,87.3000027936,0.0,0.27667000885344,1858.3902694684868,87.3000027936,0.8063993323904,0.536964017182848,1684,0.0,98,GPS_Atti,
0.357682149956309,36.8938328198108,21500,2017-11-07 07:29:18,1858.890269484487,87.8000028096,0.0,0.277267008872544,1858.890269484487,87.8000028096,0.8063993323904,0.536964017182848,1684,0.0,98,GPS_Atti,
0.35768216300849104,36.893832806521004,21600,2017-11-07 07:29:18,1859.390269500487,88.3000028256,0.0,0.27933800893881605,1859.390269500487,88.3000028256,0.8063993323904,0.536964017182848,1684,0.0,98,GPS_Atti,
0.35768218527563,36.893832812068794,21700,2017-11-07 07:29:18,1859.8902695164868,88.8000028416,0.0,0.28066400898124805,1859.8902695164868,88.8000028416,0.8063993323904,0.536964017182848,1684,0.0,98,GPS_Atti,
0.357682191750527,36.893832822114796,21800,2017-11-07 07:29:18,1860.390269532487,89.3000028576,0.0,0.28039800897273603,1860.390269532487,89.3000028576,0.8063993323904,0.536964017182848,1684,0.0,98,GPS_Atti,
0.357682189879445,36.893832844509504,21900,2017-11-07 07:29:18,1860.890269548487,89.8000028736,0.0,0.278517008912544,1860.890269548487,89.8000028736,0.8063993323904,0.536964017182848,1684,0.0,98,GPS_Atti,
0.35768219312086297,36.893832859467295,22000,2017-11-07 07:29:18,1861.3902695644867,90.30000288960001,0.0,0.277627008884064,1861.3902695644867,90.30000288960001,0.8063993323904,0.536964017182848,1684,0.0,98,GPS_Atti,
0.357682213804951,36.893832879556,22100,2017-11-07 07:29:18,1861.8902695804868,90.80000290560001,0.0,0.277772008888704,1861.8902695804868,90.80000290560001,0.8063993323904,0.536964017182848,1684,0.0,98,GPS_Atti,
0.357682230614565,36.893832906381895,22200,2017-11-07 07:29:18,1862.3902695964869,91.3000029216,0.0,0.27713000886816,1862.3902695964869,91.3000029216,0.8063993323904,0.536964017182848,1684,0.0,98,GPS_Atti,
0.35768223305377,36.89383290286921,22300,2017-11-07 07:29:18,1862.890269612487,91.8000029376,0.0,0.277594008883008,1862.890269612487,91.8000029376,0.8063993323904,0.536964017182848,1684,0.0,98,GPS_Atti,
0.35768224195708404,36.893832919753606,22400,2017-11-07 07:29:19,1863.2902696252868,92.2000029504,0.0,0.277072008866304,1863.2902696252868,92.2000029504,0.8063993323904,0.536964017182848,1684,0.0,98,GPS_Atti,
0.3576822460481429,36.8938329096852,22500,2017-11-07 07:29:19,1863.7902696412868,92.7000029664,0.0,0.2781580089010561,1863.7902696412868,92.7000029664,0.8063993323904,0.536964017182848,1684,0.0,98,GPS_Atti,
0.35768224719924896,36.8938329156045,22600,2017-11-07 07:29:19,1864.1902696540867,93.10000297920001,0.0,0.27781500889008,1864.1902696540867,93.10000297920001,0.8063993323904,0.536964017182848,1684,0.0,98,GPS_Atti,
0.35768223775692,36.8938329452713,22700,2017-11-07 07:29:19,1864.690269670087,93.60000299520001,0.0,0.274839008794848,1864.690269670087,93.60000299520001,0.8063993323904,0.536964017182848,1684,0.0,98,GPS_Atti,
0.35768221373268894,36.8938329539008,22800,2017-11-07 07:29:19,1865.0902696828869,94.00000300800001,0.0,0.272202008710464,1865.0902696828869,94.00000300800001,0.8063993323904,0.536964017182848,1684,0.0,98,GPS_Atti,
0.357682190922871,36.8938329576752,22900,2017-11-07 07:29:19,1865.490269695687,94.4000030208,0.0,0.270032008641024,1865.490269695687,94.4000030208,0.8063993323904,0.536964017182848,1684,0.0,98,GPS_Atti,
0.35768217031226596,36.8938329423314,23000,2017-11-07 07:29:19,1865.8902697084868,94.80000303359999,0.0,0.269482008623424,1865.8902697084868,94.80000303359999,0.8063993323904,0.536964017182848,1684,0.0,98,GPS_Atti,
0.357682157349241,36.893832931571396,23100,2017-11-07 07:29:19,1866.290269721287,95.20000304640001,0.0,0.26923500861552,1866.290269721287,95.20000304640001,0.8063993323904,0.536964017182848,1229,0.0,98,GPS_Atti,
0.357682122393673,36.8938328915268,23200,2017-11-07 07:29:19,1866.590269730887,95.50000305600001,0.0,0.269487008623584,1866.590269730887,95.50000305600001,0.8063993323904,0.536964017182848,1229,0.0,98,GPS_Atti,
0.357682065992311,36.8938328399964,23300,2017-11-07 07:29:19,1866.990269743687,95.90000306880002,0.0,0.269118008611776,1866.990269743687,95.90000306880002,0.8063993323904,0.536964017182848,1024,0.0,98,GPS_Atti,
0.357681995515291,36.893832762333204,23400,2017-11-07 07:29:20,1867.1902697500868,96.10000307520001,0.0,0.270136008644352,1867.1902697500868,96.10000307520001,0.8063993323904,0.536964017182848,1024,0.0,98,GPS_Atti,
0.357681928378819,36.8938327024275,23500,2017-11-07 07:29:20,1867.390269756487,96.3000030816,0.0,0.270357008651424,1867.390269756487,96.3000030816,0.8063993323904,0.536964017182848,1024,0.0,98,GPS_Atti,
0.357681852407632,36.8938326284826,23600,2017-11-07 07:29:20,1867.4902697596867,96.40000308479999,0.0,0.27160000869120005,1867.4902697596867,96.40000308479999,0.8063993323904,0.536964017182848,1024,0.0,98,GPS_Atti,
0.357681789446491,36.8938325939414,23700,2017-11-07 07:29:20,1867.4902697596867,96.40000308479999,0.0,0.270578008658496,1867.4902697596867,96.40000308479999,0.8063993323904,0.536964017182848,1024,0.0,98,GPS_Atti,
0.357681727477073,36.8938325403051,23800,2017-11-07 07:29:20,1867.4902697596867,96.40000308479999,0.0,0.271622008691904,1867.4902697596867,96.40000308479999,0.8063993323904,0.536964017182848,1024,0.0,98,GPS_Atti,
0.35768167368000003,36.8938324595453,23900,2017-11-07 07:29:20,1867.4902697596867,96.40000308479999,0.0,0.276014008832448,1867.4902697596867,96.40000308479999,0.8063993323904,0.536964017182848,1024,0.0,98,GPS_Atti,
0.35768159977184794,36.893832334497105,24000,2017-11-07 07:29:20,1867.4902697596867,96.40000308479999,0.0,0.283987009087584,1867.4902697596867,96.40000308479999,0.8063993323904,0.536964017182848,1024,0.0,98,GPS_Atti,
0.35768150871170296,36.8938322221611,24100,2017-11-07 07:29:20,1867.4902697596867,96.40000308479999,0.0,0.29053700929718396,1867.4902697596867,96.40000308479999,0.8063993323904,0.536964017182848,1024,0.0,98,GPS_Atti,
0.357681416318676,36.893832121065294,24200,2017-11-07 07:29:20,1867.4902697596867,96.40000308479999,0.0,0.296602009491264,1867.4902697596867,96.40000308479999,0.8063993323904,0.536964017182848,1024,0.0,98,GPS_Atti,
0.357681331923344,36.8938320004177,24300,2017-11-07 07:29:20,1867.4902697596867,96.40000308479999,0.0,0.30565800978105606,1867.4902697596867,96.40000308479999,0.8063993323904,0.536964017182848,1024,0.0,98,GPS_Atti,
0.35768123829615994,36.893831897132,24400,2017-11-07 07:29:21,1867.5902697628867,96.50000308800001,0.0,0.3131540100209281,1867.5902697628867,96.50000308800001,0.8063993323904,0.536964017182848,1024,0.0,98,GPS_Atti,
0.357681139610622,36.8938318358062,24500,2017-11-07 07:29:21,1867.5902697628867,96.50000308800001,0.0,0.316574010130368,1867.5902697628867,96.50000308800001,0.8063993323904,0.536964017182848,1024,0.0,98,GPS_Atti,
0.357681023113468,36.893831776038,24600,2017-11-07 07:29:21,1867.5902697628867,96.50000308800001,0.0,0.31986601023571204,1867.5902697628867,96.50000308800001,0.8063993323904,0.536964017182848,1024,0.0,98,GPS_Atti,
0.357680907018134,36.893831737281396,24700,2017-11-07 07:29:21,1867.5902697628867,96.50000308800001,0.0,0.32148801028761603,1867.5902697628867,96.50000308800001,0.8063993323904,0.536964017182848,1024,0.0,98,GPS_Atti,
0.357680781654205,36.893831679041,24800,2017-11-07 07:29:21,1867.5902697628867,96.50000308800001,0.0,0.32568001042176,1867.5902697628867,96.50000308800001,0.8063993323904,0.536964017182848,1024,0.0,98,GPS_Atti,
0.3576806637275829,36.8938316267403,24900,2017-11-07 07:29:21,1867.5902697628867,96.50000308800001,0.0,0.329953010558496,1867.5902697628867,96.50000308800001,0.8063993323904,0.536964017182848,1024,0.0,98,GPS_Atti,
0.357680545594912,36.8938315598099,25000,2017-11-07 07:29:21,1867.4902697596867,96.40000308479999,0.0,0.336411010765152,1867.5902697628867,96.50000308800001,0.8063993323904,0.536964017182848,1024,0.0,98,GPS_Atti,
0.35768044709644103,36.8938315212759,25100,2017-11-07 07:29:21,1867.5902697628867,96.50000308800001,0.0,0.34029101088931196,1867.5902697628867,96.50000308800001,0.8063993323904,0.536964017182848,1024,0.0,98,GPS_Atti,
0.357680358835235,36.8938314944821,25200,2017-11-07 07:29:21,1867.5902697628867,96.50000308800001,0.0,0.34321201098278403,1867.5902697628867,96.50000308800001,0.8063993323904,0.536964017182848,1024,0.0,98,GPS_Atti,
0.357680289053458,36.8938313893839,25300,2017-11-07 07:29:21,1867.5902697628867,96.50000308800001,0.0,0.355047011361504,1867.5902697628867,96.50000308800001,0.8063993323904,0.536964017182848,1024,0.0,98,GPS_Atti,
0.357680227586058,36.893831269216,25400,2017-11-07 07:29:22,1867.4902697596867,96.40000308479999,0.0,0.36866501179728006,1867.5902697628867,96.50000308800001,0.8063993323904,0.536964017182848,1024,0.0,98,GPS_Atti,
0.35768016793065793,36.89383118951871,25500,2017-11-07 07:29:22,1867.5902697628867,96.50000308800001,0.0,0.37788301209225605,1867.5902697628867,96.50000308800001,0.8063993323904,0.536964017182848,1024,0.0,98,GPS_Atti,
0.35768008274001,36.8938310953106,25600,2017-11-07 07:29:22,1867.4902697596867,96.40000308479999,0.0,0.389042012449344,1867.5902697628867,96.50000308800001,0.8063993323904,0.536964017182848,1024,0.0,98,GPS_Atti,
0.35767999026100605,36.8938310373689,25700,2017-11-07 07:29:22,1867.5902697628867,96.50000308800001,0.0,0.39646801268697607,1867.5902697628867,96.50000308800001,0.8063993323904,0.536964017182848,1024,0.0,97,GPS_Atti,
0.35767989406845,36.8938309436768,25800,2017-11-07 07:29:22,1867.5902697628867,96.50000308800001,0.0,0.408117013059744,1867.5902697628867,96.50000308800001,0.8063993323904,0.536964017182848,1024,0.0,97,GPS_Atti,
0.35767983201739295,36.8938308692329,25900,2017-11-07 07:29:22,1867.5902697628867,96.50000308800001,0.0,0.41728301335305606,1867.5902697628867,96.50000308800001,0.8063993323904,0.536964017182848,1024,0.0,97,GPS_Atti,
0.35767975888350895,36.8938307807739,26000,2017-11-07 07:29:22,1867.5902697628867,96.50000308800001,0.0,0.42826101370435204,1867.5902697628867,96.50000308800001,0.8063993323904,0.536964017182848,1024,0.0,97,GPS_Atti,
0.35767969809615796,36.8938307333829,26100,2017-11-07 07:29:22,1867.4902697596867,96.40000308479999,0.0,0.43459901390716804,1867.5902697628867,96.50000308800001,0.8063993323904,0.536964017182848,1024,0.0,97,GPS_Atti,
0.35767964220583404,36.8938306654986,26200,2017-11-07 07:29:22,1867.5902697628867,96.50000308800001,0.0,0.4431490141807681,1867.5902697628867,96.50000308800001,0.8063993323904,0.536964017182848,1024,0.0,97,GPS_Atti,
0.357679608424781,36.893830604150295,26300,2017-11-07 07:29:22,1867.5902697628867,96.50000308800001,0.0,0.45055801441785603,1867.5902697628867,96.50000308800001,0.8063993323904,0.536964017182848,1024,0.0,97,GPS_Atti,
0.357679572065952,36.893830540275296,26400,2017-11-07 07:29:23,1867.5902697628867,96.50000308800001,0.0,0.458311014665952,1867.5902697628867,96.50000308800001,0.8063993323904,0.536964017182848,1024,0.0,97,GPS_Atti,
0.35767954482808895,36.8938305315168,26500,2017-11-07 07:29:23,1867.5902697628867,96.50000308800001,0.0,0.459872014715904,1867.5902697628867,96.50000308800001,0.8063993323904,0.536964017182848,1024,0.0,97,GPS_Atti,
0.35767950133353293,36.8938305023955,26600,2017-11-07 07:29:23,1867.5902697628867,96.50000308800001,0.0,0.4640430148493761,1867.5902697628867,96.50000308800001,0.8063993323904,0.536964017182848,1024,0.0,97,GPS_Atti,
0.35767946364376896,36.893830492818,26700,2017-11-07 07:29:23,1867.5902697628867,96.50000308800001,0.0,0.46598801491161607,1867.5902697628867,96.50000308800001,0.8063993323904,0.536964017182848,1024,0.0,97,GPS_Atti,
0.357679410250805,36.893830460044896,26800,2017-11-07 07:29:23,1867.5902697628867,96.50000308800001,0.0,0.470875015068,1867.5902697628867,96.50000308800001,0.8063993323904,0.536964017182848,1024,0.0,97,GPS_Atti,
0.357679364464456,36.893830440366294,26900,2017-11-07 07:29:23,1867.5902697628867,96.50000308800001,0.0,0.4741970151743039,1867.5902697628867,96.50000308800001,0.8063993323904,0.536964017182848,1024,0.0,97,GPS_Atti,
0.35767930204383097,36.893830407006504,27000,2017-11-07 07:29:23,1867.5902697628867,96.50000308800001,0.0,0.47949601534387204,1867.5902697628867,96.50000308800001,0.8063993323904,0.536964017182848,1024,0.0,97,GPS_Atti,
0.357679251401971,36.8938304076382,27100,2017-11-07 07:29:23,1867.5902697628867,96.50000308800001,0.0,0.4808730153879361,1867.5902697628867,96.50000308800001,0.8063993323904,0.536964017182848,1024,0.0,97,GPS_Atti,
0.357679191348468,36.8938303968284,27200,2017-11-07 07:29:23,1867.5902697628867,96.50000308800001,0.0,0.483823015482336,1867.5902697628867,96.50000308800001,0.8063993323904,0.536964017182848,1024,0.0,97,GPS_Atti,
0.3576791554297771,36.893830406343795,27300,2017-11-07 07:29:23,1867.5902697628867,96.50000308800001,0.0,0.48391801548537605,1867.5902697628867,96.50000308800001,0.8063993323904,0.536964017182848,1024,-3.8,97,GPS_Atti,
0.3576791327779171,36.8938304028591,27400,2017-11-07 07:29:24,1867.5902697628867,96.50000308800001,0.0,0.485007015520224,1867.5902697628867,96.50000308800001,0.8063993323904,0.536964017182848,1024,-9.4,97,GPS_Atti,
0.3576791479951671,36.8938304191235,27500,2017-11-07 07:29:24,1867.4902697596867,96.40000308479999,0.0,0.4827900154492801,1867.5902697628867,96.50000308800001,0.8063993323904,0.536964017182848,1024,-15.0,97,GPS_Atti,
0.357679158245255,36.8938304248544,27600,2017-11-07 07:29:24,1867.5902697628867,96.50000308800001,0.0,0.48185501541936004,1867.5902697628867,96.50000308800001,0.8063993323904,0.536964017182848,1024,-20.6,97,GPS_Atti,
0.35767916518120507,36.893830450359204,27700,2017-11-07 07:29:24,1867.5902697628867,96.50000308800001,0.35999970196000003,0.47891701532534403,1867.5902697628867,96.50000308800001,0.8063993323904,0.536964017182848,1024,-26.3,97,GPS_Atti,
0.35767917380290004,36.8938304745226,27800,2017-11-07 07:29:24,1867.5902697628867,96.50000308800001,0.0,0.4760680152341761,1867.5902697628867,96.50000308800001,0.8063993323904,0.536964017182848,1024,-31.5,97,GPS_Atti,
0.35767919634911405,36.893830521164105,27900,2017-11-07 07:29:24,1867.5902697628867,96.50000308800001,0.0,0.47038501505232005,1867.5902697628867,96.50000308800001,0.8063993323904,0.536964017182848,1024,-35.6,97,GPS_Atti,
0.3576792019221579,36.8938305425825,28000,2017-11-07 07:29:24,1867.5902697628867,96.50000308800001,0.0,0.4679250149736,1867.5902697628867,96.50000308800001,0.8063993323904,0.536964017182848,1024,-35.6,97,GPS_Atti,
0.35767920288334704,36.893830566812206,28100,2017-11-07 07:29:24,1867.5902697628867,96.50000308800001,0.0,0.46531001488991997,1867.5902697628867,96.50000308800001,0.8063993323904,0.536964017182848,1024,-35.6,97,GPS_Atti,
0.35767920598456604,36.8938306059799,28200,2017-11-07 07:29:24,1867.5902697628867,96.50000308800001,0.0,0.46103501475312003,1867.5902697628867,96.50000308800001,0.8063993323904,0.536964017182848,1024,-35.6,97,GPS_Atti,
0.35767918863873704,36.8938305909359,28300,2017-11-07 07:29:24,1867.5902697628867,96.50000308800001,0.0,0.46318901482204805,1867.5902697628867,96.50000308800001,0.8063993323904,0.536964017182848,1024,-35.6,97,GPS_Atti,
0.357679184276085,36.893830568644,28400,2017-11-07 07:29:25,1867.5902697628867,96.50000308800001,0.0,0.46570301490249605,1867.5902697628867,96.50000308800001,0.8063993323904,0.536964017182848,1024,-35.6,97,GPS_Atti,
0.357679210638507,36.8938305811988,28500,2017-11-07 07:29:25,1867.5902697628867,96.50000308800001,0.0,0.4635310148329921,1867.5902697628867,96.50000308800001,0.8063993323904,0.536964017182848,1024,-35.6,97,GPS_Atti,
0.357679237385954,36.8938305851365,28600,2017-11-07 07:29:25,1867.5902697628867,96.50000308800001,0.0,0.462282014793024,1867.5902697628867,96.50000308800001,0.8063993323904,0.536964017182848,1024,-35.6,97,GPS_Atti,
0.35767925857486005,36.8938306204865,28700,2017-11-07 07:29:25,1867.5902697628867,96.50000308800001,0.0,0.457854014651328,1867.5902697628867,96.50000308800001,0.8063993323904,0.536964017182848,1024,-35.6,97,GPS_Atti,
