latitude,longitude,time_millisecond,datetime_utc,altitude_m,ascent_m,speed_kph,distance_m,max_altitude_m,max_ascent_m,max_speed_kph,max_distance_m,rc_throttle,gimbal_pitch_degrees,battery_percent,flycState,message
0.343862359884498,36.9119996884765,0,2018-04-08 04:53:09,1641.184500717906,0.0,0.0,0.0,1641.184500717906,0.0,0.0,0.0,364,0.0,99,Motors_Started,Setting new Return-To-Home altitude to 30m (98 ft). Setting new Maximum Flight Altitude to 150m (492 ft)
0.343862362045342,36.9119996553785,100,2018-04-08 04:53:09,1641.184500717906,0.0,0.0,0.00368847011803104,1641.184500717906,0.0,0.0,0.00368847011803104,364,0.0,99,Motors_Started,
0.343862358734397,36.9119996127924,200,2018-04-08 04:53:09,1641.184500717906,0.0,0.0,0.008417360269355521,1641.184500717906,0.0,0.0,0.008417360269355521,364,0.0,99,Motors_Started,
0.343862360491081,36.9119995710689,300,2018-04-08 04:53:09,1641.184500717906,0.0,0.0,0.0130564004178048,1641.184500717906,0.0,0.0,0.0130564004178048,364,0.0,99,Motors_Started,
0.343862321337588,36.9119995203084,400,2018-04-08 04:53:10,1641.184500717906,0.0,0.0,0.019186000613952002,1641.184500717906,0.0,0.0,0.019186000613952002,364,0.0,99,Motors_Started,
0.343862293217203,36.9119994732028,500,2018-04-08 04:53:10,1641.184500717906,0.0,0.0,0.025061000801952,1641.184500717906,0.0,0.0,0.025061000801952,364,0.0,99,Motors_Started,
0.343862263604636,36.9119994173189,600,2018-04-08 04:53:10,1641.184500717906,0.0,0.0,0.0319983010239456,1641.184500717906,0.0,0.0,0.0319983010239456,364,0.0,99,Motors_Started,
0.343862247053424,36.9119993670169,700,2018-04-08 04:53:10,1641.184500717906,0.0,0.0,0.0378858012123456,1641.184500717906,0.0,0.0,0.0378858012123456,364,0.0,99,Motors_Started,
0.343862232508658,36.911999347539,800,2018-04-08 04:53:10,1641.184500717906,0.0,0.0,0.0404733012951456,1641.184500717906,0.0,0.0,0.0404733012951456,364,0.0,99,Motors_Started,
0.343862225057163,36.9119993250191,900,2018-04-08 04:53:10,1641.184500717906,0.0,0.0,0.043109401379500804,1641.184500717906,0.0,0.0,0.043109401379500804,364,0.0,99,Motors_Started,
0.34386218279709,36.9119992930979,1000,2018-04-08 04:53:10,1641.184500717906,0.0,0.0,0.04817660154165121,1641.184500717906,0.0,0.0,0.04817660154165121,364,0.0,99,Motors_Started,
0.343862152464033,36.9119992594077,1100,2018-04-08 04:53:10,1641.184500717906,0.0,0.0,0.052997201695910406,1641.184500717906,0.0,0.0,0.052997201695910406,364,0.0,99,Motors_Started,
0.343862128459045,36.9119992157091,1200,2018-04-08 04:53:10,1641.184500717906,0.0,0.0,0.0585348018731136,1641.184500717906,0.0,0.0,0.0585348018731136,364,0.0,99,Motors_Started,
0.343862113969589,36.9119991746666,1300,2018-04-08 04:53:10,1641.184500717906,0.0,0.0,0.0633451020270432,1641.184500717906,0.0,0.0,0.0633451020270432,364,0.0,99,Motors_Started,
0.343862075899615,36.9119991296317,1400,2018-04-08 04:53:11,1641.184500717906,0.0,0.0,0.0697098022307136,1641.184500717906,0.0,0.0,0.0697098022307136,364,0.0,99,Motors_Started,
0.343862040601133,36.9119990856652,1500,2018-04-08 04:53:11,1641.184500717906,0.0,0.0,0.0758577024274464,1641.184500717906,0.0,0.0,0.0758577024274464,364,0.0,99,Assisted_Takeoff,
0.343861973245317,36.911999026902,1600,2018-04-08 04:53:11,1641.184500717906,0.0,0.0,0.0852128027268096,1641.184500717906,0.0,0.0,0.0852128027268096,364,0.0,99,Assisted_Takeoff,
0.343861929345444,36.911998975157,1700,2018-04-08 04:53:11,1641.184500717906,0.0,0.0,0.0926534029649088,1641.184500717906,0.0,0.0,0.0926534029649088,364,0.0,99,Assisted_Takeoff,
0.343861898249924,36.9119989161747,1800,2018-04-08 04:53:11,1641.184500717906,0.0,0.0,0.10005700320182401,1641.184500717906,0.0,0.0,0.10005700320182401,364,0.0,99,Assisted_Takeoff,
0.343861876142983,36.9119988626628,1900,2018-04-08 04:53:11,1641.184500717906,0.0,0.0,0.10643000340575999,1641.184500717906,0.0,0.0,0.10643000340575999,364,0.0,99,Assisted_Takeoff,
0.343861830226587,36.9119988035494,2000,2018-04-08 04:53:11,1641.184500717906,0.0,0.0,0.114688003670016,1641.184500717906,0.0,0.0,0.114688003670016,364,0.0,99,Assisted_Takeoff,
0.343861794528678,36.9119987493285,2100,2018-04-08 04:53:11,1641.184500717906,0.0,0.0,0.121901003900832,1641.184500717906,0.0,0.0,0.121901003900832,364,0.0,99,Assisted_Takeoff,
0.343861736575485,36.9119987302075,2200,2018-04-08 04:53:11,1641.184500717906,0.0,0.0,0.127124004067968,1641.184500717906,0.0,0.0,0.127124004067968,364,0.0,99,Assisted_Takeoff,
0.343861692081866,36.9119987065078,2300,2018-04-08 04:53:11,1641.184500717906,0.0,0.0,0.132059004225888,1641.184500717906,0.0,0.0,0.132059004225888,364,0.0,99,Assisted_Takeoff,
0.343861628615908,36.9119986754842,2400,2018-04-08 04:53:12,1641.184500717906,0.0,0.0,0.13893500444592,1641.184500717906,0.0,0.0,0.13893500444592,364,0.0,99,Assisted_Takeoff,
0.343861579610277,36.9119986418593,2500,2018-04-08 04:53:12,1641.184500717906,0.0,0.0,0.145174004645568,1641.184500717906,0.0,0.0,0.145174004645568,364,0.0,99,Assisted_Takeoff,
0.343861513024627,36.9119985989139,2600,2018-04-08 04:53:12,1641.184500717906,0.0,0.0,0.153459004910688,1641.184500717906,0.0,0.0,0.153459004910688,364,0.0,99,Assisted_Takeoff,
0.343861462001355,36.9119985579828,2700,2018-04-08 04:53:12,1641.184500717906,0.0,0.0,0.16054400513740802,1641.184500717906,0.0,0.0,0.16054400513740802,364,0.0,99,Assisted_Takeoff,
0.343861438423063,36.9119985097336,2800,2018-04-08 04:53:12,1641.184500717906,0.0,0.0,0.16638100532419203,1641.184500717906,0.0,0.0,0.16638100532419203,367,0.0,99,Assisted_Takeoff,
0.343861417399343,36.9119984651263,2900,2018-04-08 04:53:12,1641.184500717906,0.0,0.0,0.171734005495488,1641.184500717906,0.0,0.0,0.171734005495488,369,0.0,99,Assisted_Takeoff,
0.343861379670992,36.9119983740405,3000,2018-04-08 04:53:12,1641.184500717906,0.0,0.0,0.18234100583491203,1641.184500717906,0.0,0.0,0.18234100583491203,375,0.0,99,Assisted_Takeoff,
0.343861347737409,36.9119982967451,3100,2018-04-08 04:53:12,1641.184500717906,0.0,0.0,0.19136800612377602,1641.184500717906,0.0,0.0,0.19136800612377602,383,0.0,99,Assisted_Takeoff,
0.34386129931756,36.9119982175293,3200,2018-04-08 04:53:12,1641.184500717906,0.0,0.0,0.20166100645315202,1641.184500717906,0.0,0.0,0.20166100645315202,390,0.0,99,Assisted_Takeoff,
0.343861259966517,36.9119981492466,3300,2018-04-08 04:53:12,1641.184500717906,0.0,0.0,0.210381006732192,1641.184500717906,0.0,0.0,0.210381006732192,409,0.0,99,Assisted_Takeoff,
0.343861244986766,36.9119980894242,3400,2018-04-08 04:53:13,1641.184500717906,0.0,0.0,0.21677700693686403,1641.184500717906,0.0,0.0,0.21677700693686403,465,0.0,99,Assisted_Takeoff,
0.343861233763224,36.9119980329397,3500,2018-04-08 04:53:13,1641.184500717906,0.0,0.0,0.222658007125056,1641.184500717906,0.0,0.0,0.222658007125056,648,0.0,99,Assisted_Takeoff,
0.343861202238381,36.9119979747939,3600,2018-04-08 04:53:13,1641.184500717906,0.0,0.0,0.22997800735929602,1641.184500717906,0.0,0.0,0.22997800735929602,900,0.0,99,Assisted_Takeoff,
0.343861174140088,36.9119979217884,3700,2018-04-08 04:53:13,1641.184500717906,0.0,0.0,0.23661200757158402,1641.184500717906,0.0,0.0,0.23661200757158402,1024,0.0,99,Assisted_Takeoff,
0.34386116253142,36.9119978312792,3800,2018-04-08 04:53:13,1641.184500717906,0.0,0.0,0.24573100786339203,1641.184500717906,0.0,0.0,0.24573100786339203,1024,0.0,99,Assisted_Takeoff,
0.343861152565851,36.91199775232,3900,2018-04-08 04:53:13,1641.184500717906,0.0,0.0,0.25374000811968,1641.184500717906,0.0,0.0,0.25374000811968,1024,0.0,99,Assisted_Takeoff,
0.343861119893158,36.9119976810426,4000,2018-04-08 04:53:13,1641.184500717906,0.0,0.0,0.26239000839648,1641.184500717906,0.0,0.0,0.26239000839648,1024,0.0,99,Assisted_Takeoff,
0.343861092671172,36.9119976168074,4100,2018-04-08 04:53:13,1641.184500717906,0.0,0.0,0.270061008641952,1641.184500717906,0.0,0.0,0.270061008641952,1024,0.0,99,Assisted_Takeoff,
0.343861079003133,36.9119975572063,4200,2018-04-08 04:53:13,1641.184500717906,0.0,0.0,0.276517008848544,1641.184500717906,0.0,0.0,0.276517008848544,1024,0.0,99,Assisted_Takeoff,
0.343861068972427,36.9119975022033,4300,2018-04-08 04:53:13,1641.184500717906,0.0,0.0,0.282342009034944,1641.184500717906,0.0,0.0,0.282342009034944,1024,0.0,99,Assisted_Takeoff,
0.343861033027783,36.9119974528783,4400,2018-04-08 04:53:14,1641.184500717906,0.0,0.0,0.28909900925116805,1641.184500717906,0.0,0.0,0.28909900925116805,1024,0.0,99,Assisted_Takeoff,
0.343861005319401,36.9119974060402,4500,2018-04-08 04:53:14,1641.184500717906,0.0,0.0,0.295151009444832,1641.184500717906,0.0,0.0,0.295151009444832,1024,0.0,99,Assisted_Takeoff,
0.343860991152243,36.9119973630939,4600,2018-04-08 04:53:14,1641.184500717906,0.0,0.0,0.300064009602048,1641.184500717906,0.0,0.0,0.300064009602048,1024,0.0,99,Assisted_Takeoff,
0.343860981394302,36.9119973219195,4700,2018-04-08 04:53:14,1641.184500717906,0.0,0.0,0.304563009746016,1641.184500717906,0.0,0.0,0.304563009746016,1024,0.0,99,Assisted_Takeoff,
0.343860982680874,36.9119972420814,4800,2018-04-08 04:53:14,1641.184500717906,0.0,0.0,0.31219700999030403,1641.184500717906,0.0,0.0,0.31219700999030403,1024,0.0,99,Assisted_Takeoff,
0.343860984442443,36.9119971735977,4900,2018-04-08 04:53:14,1641.184500717906,0.0,0.0,0.318761010200352,1641.184500717906,0.0,0.0,0.318761010200352,1024,0.0,99,Assisted_Takeoff,
0.343860955226326,36.9119971069847,5000,2018-04-08 04:53:14,1641.184500717906,0.0,0.0,0.32682001045824,1641.184500717906,0.0,0.0,0.32682001045824,1024,0.0,99,Assisted_Takeoff,
0.343860921178107,36.911996993944,5200,2018-04-08 04:53:14,1641.184500717906,0.0,0.0,0.339682010869824,1641.184500717906,0.0,0.0,0.339682010869824,1024,0.0,99,Assisted_Takeoff,
0.343860914616597,36.9119969448005,5300,2018-04-08 04:53:14,1641.184500717906,0.0,0.0,0.34485201103526403,1641.184500717906,0.0,0.0,0.34485201103526403,1024,0.0,99,Assisted_Takeoff,
0.34386091543947,36.9119968973314,5400,2018-04-08 04:53:15,1641.184500717906,0.0,0.0,0.349489011183648,1641.184500717906,0.0,0.0,0.349489011183648,1024,0.0,99,Assisted_Takeoff,
0.343860919010546,36.9119968540509,5500,2018-04-08 04:53:15,1641.184500717906,0.0,0.0,0.35359001131488005,1641.184500717906,0.0,0.0,0.35359001131488005,1024,0.0,99,Assisted_Takeoff,
0.343860925532871,36.9119968066365,5600,2018-04-08 04:53:15,1641.184500717906,0.0,0.0,0.357974011455168,1641.184500717906,0.0,0.0,0.357974011455168,1024,0.0,99,Assisted_Takeoff,
0.343860934136959,36.9119967650759,5700,2018-04-08 04:53:15,1641.184500717906,0.0,0.0,0.361697011574304,1641.184500717906,0.0,0.0,0.361697011574304,1024,0.0,99,Assisted_Takeoff,
0.343860904201273,36.9119967191552,5800,2018-04-08 04:53:15,1641.184500717906,0.0,0.0,0.367747011767904,1641.184500717906,0.0,0.0,0.367747011767904,1024,0.0,99,Assisted_Takeoff,
0.343860886073231,36.9119966801887,5900,2018-04-08 04:53:15,1641.184500717906,0.0,0.0,0.3725250119208,1641.184500717906,0.0,0.0,0.3725250119208,1024,0.0,99,Assisted_Takeoff,
0.343860869110136,36.9119966347091,6000,2018-04-08 04:53:15,1641.184500717906,0.0,0.0,0.37789701209270404,1641.184500717906,0.0,0.0,0.37789701209270404,1024,0.0,99,Assisted_Takeoff,
0.343860862074546,36.9119965968893,6100,2018-04-08 04:53:15,1641.184500717906,0.0,0.0,0.382022012224704,1641.184500717906,0.0,0.0,0.382022012224704,1024,0.0,99,Assisted_Takeoff,
0.343860856115866,36.9119965498072,6200,2018-04-08 04:53:15,1641.184500717906,0.0,0.0,0.387026012384832,1641.184500717906,0.0,0.0,0.387026012384832,1024,0.0,99,Assisted_Takeoff,
0.343860856866884,36.9119965118479,6300,2018-04-08 04:53:15,1641.184500717906,0.0,0.0,0.39080201250566404,1641.184500717906,0.0,0.0,0.39080201250566404,1024,0.0,99,Assisted_Takeoff,
0.343860856614271,36.9119964627307,6400,2018-04-08 04:53:16,1641.184500717906,0.0,0.0,0.39575801266425603,1641.184500717906,0.0,0.0,0.39575801266425603,1024,0.0,99,Assisted_Takeoff,
0.343860861844223,36.9119964234079,6500,2018-04-08 04:53:16,1641.184500717906,0.0,0.0,0.39948201278342405,1641.184500717906,0.0,0.0,0.39948201278342405,1024,0.0,99,Assisted_Takeoff,
0.343860825163318,36.9119963326415,6600,2018-04-08 04:53:16,1641.184500717906,0.0,0.0,0.41035801313145603,1641.184500717906,0.0,0.0,0.41035801313145603,1024,0.0,99,Assisted_Takeoff,
0.343860803124364,36.9119962615797,6700,2018-04-08 04:53:16,1641.184500717906,0.0,0.0,0.41856501339408,1641.184500717906,0.0,0.0,0.41856501339408,1024,0.0,99,Assisted_Takeoff,
0.343860781577506,36.9119961822384,6800,2018-04-08 04:53:16,1641.184500717906,0.0,0.0,0.427592013682944,1641.184500717906,0.0,0.0,0.427592013682944,1024,0.0,99,Assisted_Takeoff,
0.343860771735089,36.9119961203647,6900,2018-04-08 04:53:16,1641.184500717906,0.0,0.0,0.43431901389820804,1641.184500717906,0.0,0.0,0.43431901389820804,1024,0.0,99,Assisted_Takeoff,
0.34386076208666,36.9119960528954,7000,2018-04-08 04:53:16,1641.184500717906,0.0,0.0,0.44161501413168,1641.184500717906,0.0,0.0,0.44161501413168,1024,0.0,99,Assisted_Takeoff,
0.343860760156241,36.9119959989711,7100,2018-04-08 04:53:16,1641.184500717906,0.0,0.0,0.447196014310272,1641.184500717906,0.0,0.0,0.447196014310272,1024,0.0,99,Assisted_Takeoff,
0.343860757761512,36.9119959402916,7200,2018-04-08 04:53:16,1641.184500717906,0.0,0.0,0.45329501450544,1641.184500717906,0.0,0.0,0.45329501450544,1024,0.0,99,Assisted_Takeoff,
0.343860761701227,36.9119958923482,7300,2018-04-08 04:53:16,1641.184500717906,0.0,0.0,0.45803201465702403,1641.184500717906,0.0,0.0,0.45803201465702403,1024,0.0,99,Assisted_Takeoff,
0.343860725155891,36.9119958385395,7400,2018-04-08 04:53:17,1641.184500717906,0.0,0.0,0.46512601488403205,1641.184500717906,0.0,0.0,0.46512601488403205,1024,0.0,99,Assisted_Takeoff,
0.343860703240291,36.911995794157,7500,2018-04-08 04:53:17,1641.184500717906,0.0,0.0,0.47062201505990403,1641.184500717906,0.0,0.0,0.47062201505990403,1024,0.0,99,Assisted_Takeoff,
0.343860682363741,36.9119957814488,7600,2018-04-08 04:53:17,1641.184500717906,0.0,0.0,0.472834015130688,1641.184500717906,0.0,0.0,0.472834015130688,1024,0.0,99,Assisted_Takeoff,
0.343860673684542,36.9119957694257,7700,2018-04-08 04:53:17,1641.184500717906,0.0,0.0,0.474443015182176,1641.184500717906,0.0,0.0,0.474443015182176,1038,0.0,99,Assisted_Takeoff,
0.343860625745084,36.9119957034794,7800,2018-04-08 04:53:17,1641.184500717906,0.0,0.0,0.48329101546531206,1641.184500717906,0.0,0.0,0.48329101546531206,1092,0.0,99,Assisted_Takeoff,
0.343860596858014,36.911995652238,7900,2018-04-08 04:53:17,1641.184500717906,0.0,0.0,0.489798015673536,1641.184500717906,0.0,0.0,0.489798015673536,1167,0.0,99,Assisted_Takeoff,
0.343860573553963,36.9119955916791,8000,2018-04-08 04:53:17,1641.184500717906,0.0,0.0,0.497007015904224,1641.184500717906,0.0,0.0,0.497007015904224,1215,0.0,99,Assisted_Takeoff,
0.343860559836765,36.91199554324,8100,2018-04-08 04:53:17,1641.184500717906,0.0,0.0,0.50255501608176,1641.184500717906,0.0,0.0,0.50255501608176,1249,0.0,99,Assisted_Takeoff,
0.343860548663197,36.9119954815574,8200,2018-04-08 04:53:17,1641.184500717906,0.0,0.0,0.509344016299008,1641.184500717906,0.0,0.0,0.509344016299008,1273,0.0,99,Assisted_Takeoff,
0.343860545387581,36.9119954350921,8300,2018-04-08 04:53:17,1641.184500717906,0.0,0.0,0.5142370164555841,1641.184500717906,0.0,0.0,0.5142370164555841,1296,0.0,99,Assisted_Takeoff,
0.34386050503362,36.9119953769404,8400,2018-04-08 04:53:18,1641.184500717906,0.0,0.0,0.521948016702336,1641.184500717906,0.0,0.0,0.521948016702336,1304,0.0,99,Assisted_Takeoff,
0.343860463421583,36.9119953459,8500,2018-04-08 04:53:18,1641.184500717906,0.0,0.0,0.5269560168625921,1641.184500717906,0.0,0.0,0.5269560168625921,1305,0.0,99,Assisted_Takeoff,
0.343860396707489,36.9119953427738,8600,2018-04-08 04:53:18,1641.184500717906,0.0,0.0,0.53028501696912,1641.184500717906,0.0,0.0,0.53028501696912,1310,0.0,99,P-GPS,Obstacle Avoided. Revise Flight Route
0.343860348478474,36.9119953725985,8700,2018-04-08 04:53:18,1641.184500717906,0.0,0.0,0.529508016944256,1641.184500717906,0.0,0.0,0.53028501696912,1327,0.0,99,P-GPS,
0.343860282171492,36.9119953813679,8800,2018-04-08 04:53:18,1641.184500717906,0.0,0.0,0.531786017017152,1641.184500717906,0.0,0.0,0.531786017017152,1333,0.0,99,P-GPS,
0.343860212303509,36.9119954041587,8900,2018-04-08 04:53:18,1641.284500721106,0.1000000032,0.35999970196000003,0.532941017054112,1641.284500721106,0.1000000032,0.35999970196000003,0.532941017054112,1336,0.0,99,P-GPS,
0.343860125076721,36.9119953983196,9000,2018-04-08 04:53:18,1641.384500724306,0.2000000064,0.0,0.537934017213888,1641.384500724306,0.2000000064,0.35999970196000003,0.537934017213888,1342,0.0,99,P-GPS,
0.34386004784695,36.9119954020705,9100,2018-04-08 04:53:18,1641.484500727506,0.3000000096,0.0,0.5415880173308161,1641.484500727506,0.3000000096,0.35999970196000003,0.5415880173308161,1346,0.0,99,P-GPS,Home Point Recorded. RTH Altitude:  30m.
0.343859937331784,36.9119954073122,9200,2018-04-08 04:53:18,1641.5845007307062,0.4000000128,0.0,0.547022017504704,1641.5845007307062,0.4000000128,0.35999970196000003,0.547022017504704,1347,0.0,99,P-GPS,
0.343859838217761,36.9119954091398,9300,2018-04-08 04:53:18,1641.6845007339061,0.500000016,0.0,0.552358017675456,1641.6845007339061,0.500000016,0.35999970196000003,0.552358017675456,1347,0.0,99,P-GPS,
0.343859710840261,36.9119954250941,9400,2018-04-08 04:53:19,1641.8845007403058,0.7000000224,0.0,0.5581750178616001,1641.8845007403058,0.7000000224,0.35999970196000003,0.5581750178616001,1349,0.0,99,P-GPS,
0.343859605557286,36.9119954387167,9500,2018-04-08 04:53:19,1641.9845007435063,0.8000000256,0.0,0.56317001802144,1641.9845007435063,0.8000000256,0.35999970196000003,0.56317001802144,1352,0.0,99,P-GPS,
0.343859498833341,36.9119954371964,9600,2018-04-08 04:53:19,1642.184500749906,1.000000032,0.0,0.569852018235264,1642.184500749906,1.000000032,0.35999970196000003,0.569852018235264,1362,0.0,99,P-GPS,
0.343859418268109,36.9119954343116,9700,2018-04-08 04:53:19,1642.3845007563061,1.2000000384,0.0,0.575166018405312,1642.3845007563061,1.2000000384,0.35999970196000003,0.575166018405312,1367,0.0,99,P-GPS,
0.34385937230426,36.9119954623158,9800,2018-04-08 04:53:19,1642.584500762706,1.4000000448,0.0,0.575543018417376,1642.584500762706,1.4000000448,0.35999970196000003,0.575543018417376,1377,0.0,99,P-GPS,
0.343859337937374,36.9119954844422,9900,2018-04-08 04:53:19,1642.7845007691062,1.6000000512,0.0,0.575758018424256,1642.7845007691062,1.6000000512,0.35999970196000003,0.575758018424256,1377,0.0,99,P-GPS,
0.343859311108963,36.9119954985749,10000,2018-04-08 04:53:19,1642.984500775506,1.8000000576000001,0.0,0.576233018439456,1642.984500775506,1.8000000576000001,0.35999970196000003,0.576233018439456,1384,0.0,99,P-GPS,
0.34385928031468,36.9119954992853,10100,2018-04-08 04:53:19,1643.184500781906,2.000000064,0.0,0.578191018502112,1643.184500781906,2.000000064,0.35999970196000003,0.578191018502112,1375,0.0,99,P-GPS,
0.34385921160676,36.9119954835183,10200,2018-04-08 04:53:19,1643.384500788306,2.2000000704000002,0.0,0.584152018692864,1643.384500788306,2.2000000704000002,0.35999970196000003,0.584152018692864,1360,0.0,99,P-GPS,
0.343859160556669,36.9119954627702,10300,2018-04-08 04:53:19,1643.5845007947062,2.4000000768,0.0,0.58941001886112,1643.5845007947062,2.4000000768,0.35999970196000003,0.58941001886112,1364,0.0,99,P-GPS,
0.343859104631017,36.9119954143895,10400,2018-04-08 04:53:20,1643.6845007979061,2.50000008,0.0,0.597456019118592,1643.6845007979061,2.50000008,0.35999970196000003,0.597456019118592,1397,0.0,99,P-GPS,
0.343859065324857,36.9119953779366,10500,2018-04-08 04:53:20,1643.884500804306,2.7000000864,0.0,0.60333001930656,1643.884500804306,2.7000000864,0.35999970196000003,0.60333001930656,1448,0.0,99,P-GPS,
0.343859019803741,36.9119953623152,10600,2018-04-08 04:53:20,1644.084500810706,2.9000000928,0.0,0.607791019449312,1644.084500810706,2.9000000928,0.35999970196000003,0.607791019449312,1606,0.0,99,P-GPS,
0.343858958343415,36.9119953233388,10800,2018-04-08 04:53:20,1644.5845008267063,3.4000001088000005,0.0,0.61540501969296,1644.5845008267063,3.4000001088000005,0.35999970196000003,0.61540501969296,1569,0.0,99,P-GPS,
0.343858948336015,36.9119953087463,10900,2018-04-08 04:53:20,1644.884500836306,3.7000001184,0.0,0.617369019755808,1644.884500836306,3.7000001184,0.35999970196000003,0.617369019755808,1552,0.0,99,P-GPS,
0.343858921987588,36.9119953147487,11000,2018-04-08 04:53:20,1645.184500845906,4.000000128,0.0,0.618649019796768,1645.184500845906,4.000000128,0.35999970196000003,0.618649019796768,1559,0.0,99,P-GPS,
0.343858893474144,36.9119953179531,11100,2018-04-08 04:53:20,1645.4845008555062,4.3000001376,0.0,0.6203350198507201,1645.4845008555062,4.3000001376,0.35999970196000003,0.6203350198507201,1564,0.0,99,P-GPS,
0.343858852211816,36.9119952764827,11200,2018-04-08 04:53:20,1645.884500868306,4.7000001504,0.0,0.6268000200576,1645.884500868306,4.7000001504,0.35999970196000003,0.6268000200576,1559,0.0,99,P-GPS,
0.343858812881433,36.9119952406256,11300,2018-04-08 04:53:20,1646.2845008811062,5.1000001632,0.0,0.6326430202445761,1646.2845008811062,5.1000001632,0.35999970196000003,0.6326430202445761,1559,0.0,99,P-GPS,
0.343858741406176,36.9119952111332,11400,2018-04-08 04:53:21,1646.684500893906,5.5000001759999995,0.0,0.640177020485664,1646.684500893906,5.5000001759999995,0.35999970196000003,0.640177020485664,1560,0.0,99,P-GPS,
0.343858687283212,36.9119951939584,11500,2018-04-08 04:53:21,1646.9845009035062,5.8000001856,0.0,0.6454550206545601,1646.9845009035062,5.8000001856,0.35999970196000003,0.6454550206545601,1559,0.0,99,P-GPS,
0.343858621371941,36.9119951454016,11600,2018-04-08 04:53:21,1647.384500916306,6.200000198400001,0.0,0.6542780209368961,1647.384500916306,6.200000198400001,0.35999970196000003,0.6542780209368961,1559,0.0,99,P-GPS,
0.343858565138513,36.9119951096809,11700,2018-04-08 04:53:21,1647.7845009291061,6.6000002112,0.0,0.661323021162336,1647.7845009291061,6.6000002112,0.35999970196000003,0.661323021162336,1560,-0.5,99,P-GPS,
0.34385845957056,36.9119950918771,11800,2018-04-08 04:53:21,1648.1845009419062,7.000000224,0.0,0.670384021452288,1648.1845009419062,7.000000224,0.35999970196000003,0.670384021452288,1560,-2.2,99,P-GPS,
0.343858378244845,36.9119950845171,11900,2018-04-08 04:53:21,1648.584500954706,7.4000002368,0.0,0.6768890216604481,1648.584500954706,7.4000002368,0.35999970196000003,0.6768890216604481,1556,-5.7,99,P-GPS,
0.343858260874337,36.911995053602,12000,2018-04-08 04:53:21,1648.8845009643062,7.7000002464,0.0,0.68807002201824,1648.8845009643062,7.7000002464,0.35999970196000003,0.68807002201824,1555,-11.1,99,P-GPS,
0.343858164148427,36.9119950338999,12100,2018-04-08 04:53:21,1649.284500977106,8.1000002592,0.0,0.6968680222997761,1649.284500977106,8.1000002592,0.35999970196000003,0.6968680222997761,1555,-16.7,99,P-GPS,
0.343858024333076,36.9119949931463,12200,2018-04-08 04:53:21,1649.6845009899062,8.500000272,0.0,0.710696022742272,1649.6845009899062,8.500000272,0.35999970196000003,0.710696022742272,1552,-22.4,99,P-GPS,
0.34385789862127,36.9119949800018,12300,2018-04-08 04:53:21,1649.9845009995063,8.800000281600001,0.0,0.7213140230820481,1649.9845009995063,8.800000281600001,0.35999970196000003,0.7213140230820481,1551,-22.4,99,P-GPS,
0.343857746691516,36.9119949376091,12400,2018-04-08 04:53:22,1650.3845010123061,9.2000002944,0.0,0.736412023565184,1650.3845010123061,9.2000002944,0.35999970196000003,0.736412023565184,1547,-28.0,99,P-GPS,
0.343857619361852,36.9119949098785,12500,2018-04-08 04:53:22,1650.7845010251062,9.6000003072,0.0,0.7485310239529921,1650.7845010251062,9.6000003072,0.35999970196000003,0.7485310239529921,1546,-33.6,99,P-GPS,
0.343857453208047,36.911994848964,12600,2018-04-08 04:53:22,1651.0845010347061,9.900000316800002,0.0,0.766399024524768,1651.0845010347061,9.900000316800002,0.35999970196000003,0.766399024524768,1546,-37.7,99,P-GPS,
0.343857306494606,36.9119948145046,12700,2018-04-08 04:53:22,1651.4845010475062,10.3000003296,0.0,0.78075502498416,1651.4845010475062,10.3000003296,0.35999970196000003,0.78075502498416,1545,-37.7,99,P-GPS,
0.343857157449641,36.91199479584,12800,2018-04-08 04:53:22,1651.784501057106,10.600000339200001,0.0,0.7941890254140481,1651.784501057106,10.600000339200001,0.35999970196000003,0.7941890254140481,1535,-37.7,99,P-GPS,
0.343857027422866,36.9119948055441,12900,2018-04-08 04:53:22,1652.184501069906,11.000000351999999,0.0,0.8040540257297281,1652.184501069906,11.000000351999999,0.35999970196000003,0.8040540257297281,1528,-37.7,99,P-GPS,
0.343856861430277,36.9119947824059,13000,2018-04-08 04:53:22,1652.4845010795061,11.3000003616,0.0,0.819474026223168,1652.4845010795061,11.3000003616,0.35999970196000003,0.819474026223168,1521,-37.7,99,P-GPS,
0.343856706023795,36.9119947769511,13100,2018-04-08 04:53:22,1652.884501092306,11.7000003744,0.0,0.832846026651072,1652.884501092306,11.7000003744,0.35999970196000003,0.832846026651072,1519,-37.7,99,P-GPS,
0.343856523287138,36.9119947553578,13200,2018-04-08 04:53:22,1653.184501101906,12.000000384000002,0.0,0.849841027194912,1653.184501101906,12.000000384000002,0.35999970196000003,0.849841027194912,1518,-37.7,99,P-GPS,
0.343856362691619,36.9119947466274,13300,2018-04-08 04:53:23,1653.584501114706,12.400000396800001,0.0,0.8641750276536,1653.584501114706,12.400000396800001,0.35999970196000003,0.8641750276536,1518,-37.7,99,P-GPS,
0.343856164221343,36.9119947200547,13400,2018-04-08 04:53:23,1653.884501124306,12.700000406400001,0.0,0.8831650282612801,1653.884501124306,12.700000406400001,0.35999970196000003,0.8831650282612801,1517,-37.7,99,P-GPS,
0.343855991056273,36.9119947099256,13500,2018-04-08 04:53:23,1654.2845011371062,13.100000419200002,0.0,0.898963028766816,1654.2845011371062,13.100000419200002,0.35999970196000003,0.898963028766816,1518,-37.7,99,P-GPS,
0.343855813141031,36.9119946660195,13600,2018-04-08 04:53:23,1654.584501146706,13.4000004288,0.0,0.91759502936304,1654.584501146706,13.4000004288,0.35999970196000003,0.91759502936304,1520,-37.7,99,P-GPS,
0.343855667449846,36.9119946466783,13700,2018-04-08 04:53:23,1654.884501156306,13.7000004384,0.0,0.9317950298174401,1654.884501156306,13.7000004384,0.35999970196000003,0.9317950298174401,1518,-37.7,99,P-GPS,
0.343855559297959,36.9119946243163,13800,2018-04-08 04:53:23,1655.2845011691059,14.100000451200001,0.0,0.942912030173184,1655.2845011691059,14.100000451200001,0.35999970196000003,0.942912030173184,1518,-37.7,99,P-GPS,
0.343855464284766,36.9119946229855,13900,2018-04-08 04:53:23,1655.584501178706,14.400000460800001,0.0,0.9514950304478401,1655.584501178706,14.400000460800001,0.35999970196000003,0.9514950304478401,1519,-37.7,99,P-GPS,
0.343855308768364,36.9119946169611,14000,2018-04-08 04:53:23,1655.884501188306,14.7000004704,0.0,0.965878030908096,1655.884501188306,14.7000004704,0.35999970196000003,0.965878030908096,1520,-36.7,99,P-GPS,
0.343855165303262,36.9119946207549,14100,2018-04-08 04:53:23,1656.284501201106,15.1000004832,0.0,0.9786320313162241,1656.284501201106,15.1000004832,0.35999970196000003,0.9786320313162241,1519,-34.4,99,P-GPS,
0.343854985202242,36.9119945903878,14200,2018-04-08 04:53:23,1656.584501210706,15.4000004928,0.0,0.9969890319036481,1656.584501210706,15.4000004928,0.35999970196000003,0.9969890319036481,1515,-30.4,99,P-GPS,
0.343854826497346,36.9119945970508,14300,2018-04-08 04:53:23,1656.9845012235062,15.8000005056,0.0,1.01114003235648,1656.9845012235062,15.8000005056,0.35999970196000003,1.01114003235648,1511,-26.3,99,P-GPS,
0.343854655908881,36.9119945594234,14400,2018-04-08 04:53:24,1657.284501233106,16.1000005152,0.0,1.02923003293536,1657.284501233106,16.1000005152,0.35999970196000003,1.02923003293536,1511,-26.0,99,P-GPS,
0.343854523302244,36.9119945387338,14500,2018-04-08 04:53:24,1657.6845012459062,16.500000528,0.0,1.0428000333696001,1657.6845012459062,16.500000528,0.35999970196000003,1.0428000333696001,1511,-26.0,99,P-GPS,
0.343854353883002,36.9119944960364,14600,2018-04-08 04:53:24,1657.9845012555063,16.800000537600003,0.0,1.0611700339574401,1657.9845012555063,16.800000537600003,0.35999970196000003,1.0611700339574401,1511,-26.0,99,P-GPS,
0.343854226177981,36.9119944802111,14700,2018-04-08 04:53:24,1658.284501265106,17.1000005472,0.0,1.07406003436992,1658.284501265106,17.1000005472,0.35999970196000003,1.07406003436992,1508,-26.0,99,P-GPS,
0.343854092532396,36.9119944206499,14800,2018-04-08 04:53:24,1658.684501277906,17.50000056,0.0,1.0901500348848001,1658.684501277906,17.50000056,0.35999970196000003,1.0901500348848001,1508,-26.0,99,P-GPS,
0.343854002966348,36.9119943940012,14900,2018-04-08 04:53:24,1658.984501287506,17.8000005696,0.0,1.1001500352048001,1658.984501287506,17.8000005696,0.35999970196000003,1.1001500352048001,1505,-26.0,99,P-GPS,
0.343853923323223,36.9119943647385,15000,2018-04-08 04:53:24,1659.384501300306,18.2000005824,0.0,1.10937003549984,1659.384501300306,18.2000005824,0.35999970196000003,1.10937003549984,1499,-26.0,99,P-GPS,
0.343853873954501,36.9119943606675,15100,2018-04-08 04:53:24,1659.6845013099062,18.500000592000003,0.0,1.1142600356563201,1659.6845013099062,18.500000592000003,0.35999970196000003,1.1142600356563201,1498,-26.0,99,P-GPS,
0.343853806072813,36.9119943406582,15200,2018-04-08 04:53:24,1659.984501319506,18.8000006016,0.0,1.12184003589888,1659.984501319506,18.8000006016,0.35999970196000003,1.12184003589888,1499,-26.0,99,P-GPS,
0.343853765803835,36.911994327223,15300,2018-04-08 04:53:25,1660.3845013323062,19.2000006144,0.0,1.12643003604576,1660.3845013323062,19.2000006144,0.35999970196000003,1.12643003604576,1498,-26.0,99,P-GPS,
0.343853753646687,36.9119942969566,15400,2018-04-08 04:53:25,1660.6845013419063,19.500000624000002,0.0,1.12936003613952,1660.6845013419063,19.500000624000002,0.35999970196000003,1.12936003613952,1497,-26.0,99,P-GPS,
0.343853761096004,36.9119942866145,15500,2018-04-08 04:53:25,1660.984501351506,19.800000633600003,0.0,1.1292700361366401,1660.984501351506,19.800000633600003,0.35999970196000003,1.12936003613952,1497,-26.0,99,P-GPS,
0.34385375400413,36.9119942447774,15600,2018-04-08 04:53:25,1661.384501364306,20.200000646400003,0.0,1.13241003623712,1661.384501364306,20.200000646400003,0.35999970196000003,1.13241003623712,1499,-26.0,99,P-GPS,
0.343853770879695,36.9119942297609,15700,2018-04-08 04:53:25,1661.684501373906,20.500000656,0.0,1.1317200362150401,1661.684501373906,20.500000656,0.35999970196000003,1.13241003623712,1499,-26.0,99,P-GPS,
0.343853794545058,36.9119942546956,15800,2018-04-08 04:53:25,1662.084501386706,20.900000668800004,0.0,1.1280200360966401,1662.084501386706,20.900000668800004,0.35999970196000003,1.13241003623712,1497,-26.0,99,P-GPS,
0.343853831762331,36.9119942810761,15900,2018-04-08 04:53:25,1662.3845013963062,21.200000678400002,0.0,1.1229500359344,1662.3845013963062,21.200000678400002,0.35999970196000003,1.13241003623712,1495,-26.0,99,P-GPS,
0.343853893026837,36.9119942900169,16000,2018-04-08 04:53:25,1662.684501405906,21.500000688,0.0,1.11667003573344,1662.684501405906,21.500000688,0.35999970196000003,1.13241003623712,1494,-26.0,99,P-GPS,
0.343853977173423,36.9119943120154,16100,2018-04-08 04:53:25,1663.0845014187062,21.900000700800003,0.0,1.10747003543904,1663.0845014187062,21.900000700800003,0.35999970196000003,1.13241003623712,1494,-26.0,99,P-GPS,
0.343854071888612,36.9119943285998,16200,2018-04-08 04:53:25,1663.3845014283063,22.2000007104,0.0,1.09761003512352,1663.3845014283063,22.2000007104,0.35999970196000003,1.13241003623712,1496,-26.0,99,P-GPS,
0.343854171160186,36.9119943548085,16300,2018-04-08 04:53:25,1663.684501437906,22.50000072,0.0,1.08676003477632,1663.684501437906,22.50000072,0.35999970196000003,1.13241003623712,1506,-26.0,99,P-GPS,
0.343854250269181,36.9119943544734,16400,2018-04-08 04:53:26,1664.084501450706,22.900000732800002,0.0,1.0794200345414402,1664.084501450706,22.900000732800002,0.35999970196000003,1.13241003623712,1506,-26.0,99,P-GPS,
0.343854334433681,36.9119943584754,16500,2018-04-08 04:53:26,1664.384501460306,23.2000007424,0.0,1.07137003428384,1664.384501460306,23.2000007424,0.35999970196000003,1.13241003623712,1544,-26.0,99,P-GPS,
0.343854379842842,36.9119942995877,16600,2018-04-08 04:53:26,1664.684501469906,23.500000752000002,0.0,1.07082003426624,1664.684501469906,23.500000752000002,0.35999970196000003,1.13241003623712,1544,-26.0,99,P-GPS,
0.343854437444977,36.9119942502857,16700,2018-04-08 04:53:26,1664.9845014795062,23.8000007616,0.0,1.06861003419552,1664.9845014795062,23.8000007616,0.35999970196000003,1.13241003623712,1551,-26.0,99,P-GPS,
0.343854511117412,36.9119941933401,16800,2018-04-08 04:53:26,1665.384501492306,24.2000007744,0.0,1.06548003409536,1665.384501492306,24.2000007744,0.35999970196000003,1.13241003623712,1557,-26.0,99,P-GPS,
0.343854602824864,36.9119941594834,16900,2018-04-08 04:53:26,1665.7845015051062,24.600000787200003,0.35999970196000003,1.05933003389856,1665.7845015051062,24.600000787200003,0.35999970196000003,1.13241003623712,1559,-26.0,99,P-GPS,
0.343854701093317,36.9119941016074,17000,2018-04-08 04:53:26,1666.084501514706,24.9000007968,0.0,1.05423003373536,1666.084501514706,24.9000007968,0.35999970196000003,1.13241003623712,1560,-26.0,99,P-GPS,
0.343854786471821,36.9119940792191,17100,2018-04-08 04:53:26,1666.4845015275062,25.3000008096,0.0,1.0480500335376002,1666.4845015275062,25.3000008096,0.35999970196000003,1.13241003623712,1560,-26.0,99,P-GPS,
0.343854865328408,36.9119940432084,17200,2018-04-08 04:53:26,1666.8845015403062,25.7000008224,0.0,1.0434200333894401,1666.8845015403062,25.7000008224,0.35999970196000003,1.13241003623712,1563,-26.0,99,P-GPS,
0.343854936691709,36.911994038821,17300,2018-04-08 04:53:26,1667.1845015499061,26.000000832,0.0,1.03739003319648,1667.1845015499061,26.000000832,0.35999970196000003,1.13241003623712,1564,-26.0,99,P-GPS,
0.343855010772883,36.9119939987515,17400,2018-04-08 04:53:27,1667.5845015627062,26.4000008448,0.0,1.03357003307424,1667.5845015627062,26.4000008448,0.35999970196000003,1.13241003623712,1564,-26.0,99,P-GPS,
0.343855085247327,36.9119939742991,17500,2018-04-08 04:53:27,1667.984501575506,26.8000008576,0.0,1.02871003291872,1667.984501575506,26.8000008576,0.35999970196000003,1.13241003623712,1565,-26.0,99,P-GPS,
0.343855186044753,36.911993950412,17600,2018-04-08 04:53:27,1668.3845015883062,27.200000870400004,0.0,1.02157003269024,1668.3845015883062,27.200000870400004,0.35999970196000003,1.13241003623712,1566,-26.0,99,P-GPS,
0.343855282772698,36.9119939558786,17700,2018-04-08 04:53:27,1668.784501601106,27.600000883200003,0.35999970196000003,1.01281003240992,1668.784501601106,27.600000883200003,0.35999970196000003,1.13241003623712,1566,-26.0,99,P-GPS,
0.343855388992029,36.9119939566312,17800,2018-04-08 04:53:27,1669.1845016139061,28.000000896,0.0,1.00361003211552,1669.1845016139061,28.000000896,0.35999970196000003,1.13241003623712,1562,-26.0,99,P-GPS,
0.343855477160058,36.9119939791431,17900,2018-04-08 04:53:27,1669.584501626706,28.4000009088,0.0,0.994454031822528,1669.584501626706,28.4000009088,0.35999970196000003,1.13241003623712,1559,-26.0,99,P-GPS,
0.343855562628127,36.9119939483302,18000,2018-04-08 04:53:27,1669.984501639506,28.800000921600002,0.0,0.989364031659648,1669.984501639506,28.800000921600002,0.35999970196000003,1.13241003623712,1559,-26.0,99,P-GPS,
0.343855626181004,36.9119939333651,18100,2018-04-08 04:53:27,1670.3845016523062,29.200000934400002,0.0,0.985056031521792,1670.3845016523062,29.200000934400002,0.35999970196000003,1.13241003623712,1560,-26.0,99,P-GPS,
0.343855705307098,36.9119938877477,18200,2018-04-08 04:53:27,1670.784501665106,29.6000009472,0.0,0.981709031414688,1670.784501665106,29.6000009472,0.35999970196000003,1.13241003623712,1562,-26.0,99,P-GPS,
0.343855767485568,36.9119938558331,18300,2018-04-08 04:53:27,1671.1845016779062,30.00000096,0.0,0.97885503132336,1671.1845016779062,30.00000096,0.35999970196000003,1.13241003623712,1561,-26.0,99,P-GPS,
0.343855813854289,36.9119938034113,18400,2018-04-08 04:53:28,1671.584501690706,30.400000972800004,0.0,0.978887031324384,1671.584501690706,30.400000972800004,0.35999970196000003,1.13241003623712,1562,-26.0,99,P-GPS,
0.343855841944134,36.9119937708105,18500,2018-04-08 04:53:28,1671.8845017003061,30.700000982400002,0.0,0.9789990313279681,1671.8845017003061,30.700000982400002,0.35999970196000003,1.13241003623712,1562,-26.0,99,P-GPS,
0.343855864286793,36.9119937484886,18600,2018-04-08 04:53:28,1672.284501713106,31.100000995200002,0.0,0.97883503132272,1672.284501713106,31.100000995200002,0.35999970196000003,1.13241003623712,1562,-26.0,99,P-GPS,
0.343855876931253,36.911993746099,18700,2018-04-08 04:53:28,1672.684501725906,31.500001007999998,0.0,0.977977031295264,1672.684501725906,31.500001007999998,0.35999970196000003,1.13241003623712,1556,-26.0,99,P-GPS,
0.343855867576657,36.9119937181077,18800,2018-04-08 04:53:28,1673.0845017387062,31.9000010208,0.0,0.980848031387136,1673.0845017387062,31.9000010208,0.35999970196000003,1.13241003623712,1555,-26.0,99,P-GPS,
0.343855848773421,36.9119937083207,18900,2018-04-08 04:53:28,1673.484501751506,32.3000010336,0.0,0.9831240314599681,1673.484501751506,32.3000010336,0.35999970196000003,1.13241003623712,1555,-26.0,99,P-GPS,
0.343855816284335,36.9119936982472,19000,2018-04-08 04:53:28,1673.8845017643062,32.700001046400004,0.0,0.9865440315694081,1673.8845017643062,32.700001046400004,0.35999970196000003,1.13241003623712,1554,-26.0,99,P-GPS,
0.343855776590198,36.9119937092933,19100,2018-04-08 04:53:28,1674.184501773906,33.000001056,0.0,0.988979031647328,1674.184501773906,33.000001056,0.35999970196000003,1.13241003623712,1554,-26.0,99,P-GPS,
0.34385570442041,36.9119936854367,19200,2018-04-08 04:53:28,1674.5845017867061,33.4000010688,0.0,0.9967090318946881,1674.5845017867061,33.4000010688,0.35999970196000003,1.13241003623712,1554,-26.0,99,P-GPS,
0.343855642688948,36.9119936836601,19300,2018-04-08 04:53:28,1674.984501799506,33.8000010816,0.0,1.0019500320624002,1674.984501799506,33.8000010816,0.35999970196000003,1.13241003623712,1553,-26.0,99,P-GPS,
0.343855619682698,36.9119936745844,19400,2018-04-08 04:53:29,1675.384501812306,34.2000010944,0.0,1.00453003214496,1675.384501812306,34.2000010944,0.35999970196000003,1.13241003623712,1552,-26.0,99,P-GPS,
0.3438556069788,36.9119936878007,19500,2018-04-08 04:53:29,1675.6845018219062,34.500001104,0.0,1.00461003214752,1675.6845018219062,34.500001104,0.35999970196000003,1.13241003623712,1554,-26.0,99,P-GPS,
0.343855560570995,36.9119936507632,19600,2018-04-08 04:53:29,1676.084501834706,34.900001116800006,0.0,1.0112000323584,1676.084501834706,34.900001116800006,0.35999970196000003,1.13241003623712,1553,-26.0,99,P-GPS,
0.343855525816744,36.9119936425681,19700,2018-04-08 04:53:29,1676.4845018475062,35.300001129600005,0.0,1.0147000324704,1676.4845018475062,35.300001129600005,0.35999970196000003,1.13241003623712,1554,-26.0,99,P-GPS,
0.343855477052988,36.9119935777192,19800,2018-04-08 04:53:29,1676.884501860306,35.700001142400005,0.0,1.02354003275328,1676.884501860306,35.700001142400005,0.35999970196000003,1.13241003623712,1553,-26.0,99,P-GPS,
0.343855435848063,36.9119935462591,19900,2018-04-08 04:53:29,1677.2845018731061,36.1000011552,0.0,1.02929003293728,1677.2845018731061,36.1000011552,0.35999970196000003,1.13241003623712,1552,-26.0,99,P-GPS,
0.343855406659425,36.9119935760265,20000,2018-04-08 04:53:29,1677.684501885906,36.500001168000004,0.0,1.0295300329449601,1677.684501885906,36.500001168000004,0.35999970196000003,1.13241003623712,1551,-26.0,99,P-GPS,
0.343855387649784,36.9119936234014,20100,2018-04-08 04:53:29,1677.9845018955061,36.8000011776,0.0,1.0276500328848,1677.9845018955061,36.8000011776,0.35999970196000003,1.13241003623712,1550,-26.0,99,P-GPS,
0.343855362429665,36.9119936626117,20200,2018-04-08 04:53:29,1678.3845019083062,37.2000011904,0.0,1.02692003286144,1678.3845019083062,37.2000011904,0.35999970196000003,1.13241003623712,1550,-26.0,99,P-GPS,
0.343855360602551,36.9119937064653,20300,2018-04-08 04:53:29,1678.784501921106,37.6000012032,0.0,1.0239000327648,1678.784501921106,37.6000012032,0.35999970196000003,1.13241003623712,1550,-26.0,99,P-GPS,
0.343855390490198,36.9119937598335,20400,2018-04-08 04:53:30,1679.1845019339062,38.000001216,0.0,1.01752003256064,1679.1845019339062,38.000001216,0.35999970196000003,1.13241003623712,1551,-26.0,99,P-GPS,
0.34385543044,36.911993823441,20500,2018-04-08 04:53:30,1679.484501943506,38.3000012256,0.0,1.00956003230592,1679.484501943506,38.3000012256,0.35999970196000003,1.13241003623712,1550,-26.0,99,P-GPS,
0.343855454480312,36.9119938405286,20600,2018-04-08 04:53:30,1679.8845019563062,38.7000012384,0.0,1.00629003220128,1679.8845019563062,38.7000012384,0.35999970196000003,1.13241003623712,1551,-26.0,99,P-GPS,
0.343855475946868,36.9119938487306,20700,2018-04-08 04:53:30,1680.284501969106,39.100001251200005,0.0,1.00388003212416,1680.284501969106,39.100001251200005,0.35999970196000003,1.13241003623712,1551,-26.0,99,P-GPS,
0.343855473413823,36.9119938359078,20800,2018-04-08 04:53:30,1680.6845019819061,39.500001264,0.0,1.00502003216064,1680.6845019819061,39.500001264,0.35999970196000003,1.13241003623712,1551,-26.0,99,P-GPS,
0.34385547887196,36.9119938330792,20900,2018-04-08 04:53:30,1680.9845019915062,39.800001273599996,0.0,1.00476003215232,1680.9845019915062,39.800001273599996,0.35999970196000003,1.13241003623712,1551,-26.0,99,P-GPS,
0.34385545839387,36.9119938302362,21000,2018-04-08 04:53:30,1681.3845020043061,40.2000012864,0.0,1.0067000322144,1681.3845020043061,40.2000012864,0.35999970196000003,1.13241003623712,1551,-26.0,99,P-GPS,
0.343855440106037,36.911993875578,21100,2018-04-08 04:53:30,1681.684502013906,40.500001296,0.0,1.0050000321600001,1681.684502013906,40.500001296,0.35999970196000003,1.13241003623712,1551,-26.0,99,P-GPS,
0.343855409609352,36.9119939414033,21200,2018-04-08 04:53:30,1682.0845020267059,40.9000013088,0.0,1.0029200320934402,1682.0845020267059,40.9000013088,0.35999970196000003,1.13241003623712,1551,-26.0,99,P-GPS,
0.343855395216349,36.9119940319385,21300,2018-04-08 04:53:30,1682.4845020395062,41.30000132160001,0.0,0.9977730319287361,1682.4845020395062,41.30000132160001,0.35999970196000003,1.13241003623712,1551,-26.0,99,P-GPS,
0.343855362030696,36.9119940766957,21400,2018-04-08 04:53:31,1682.784502049106,41.600001331200005,0.0,0.997519031920608,1682.784502049106,41.600001331200005,0.35999970196000003,1.13241003623712,1551,-26.0,99,P-GPS,
0.343855353034357,36.9119941195648,21500,2018-04-08 04:53:31,1683.184502061906,42.000001344,0.0,0.9953260318504321,1683.184502061906,42.000001344,0.35999970196000003,1.13241003623712,1551,-26.0,99,P-GPS,
0.343855308842458,36.9119940865898,21600,2018-04-08 04:53:31,1683.584502074706,42.400001356800004,0.0,1.00146003204672,1683.584502074706,42.400001356800004,0.35999970196000003,1.13241003623712,1551,-26.0,99,P-GPS,
0.343855280788439,36.9119940814926,21700,2018-04-08 04:53:31,1683.884502084306,42.7000013664,0.0,1.004250032136,1683.884502084306,42.7000013664,0.35999970196000003,1.13241003623712,1551,-26.0,99,P-GPS,
0.343855252901336,36.9119940719298,21800,2018-04-08 04:53:31,1684.284502097106,43.1000013792,0.0,1.00734003223488,1684.284502097106,43.1000013792,0.35999970196000003,1.13241003623712,1551,-26.0,99,P-GPS,
0.343855258434789,36.9119941006909,21900,2018-04-08 04:53:31,1684.684502109906,43.500001392,0.0,1.0048800321561602,1684.684502109906,43.500001392,0.35999970196000003,1.13241003623712,1551,-26.0,99,P-GPS,
0.343855272800922,36.9119941363794,22000,2018-04-08 04:53:31,1684.984502119506,43.80000140160001,0.0,1.00117003203744,1684.984502119506,43.80000140160001,0.35999970196000003,1.13241003623712,1551,-26.0,99,P-GPS,
0.343855306296386,36.9119941762798,22100,2018-04-08 04:53:31,1685.3845021323061,44.2000014144,0.0,0.9955050318561601,1685.3845021323061,44.2000014144,0.35999970196000003,1.13241003623712,1551,-26.0,99,P-GPS,
0.343855323308741,36.9119942088715,22200,2018-04-08 04:53:31,1685.784502145106,44.600001427200006,0.0,0.9917840317370881,1685.784502145106,44.600001427200006,0.35999970196000003,1.13241003623712,1551,-26.0,99,P-GPS,
0.343855344399533,36.911994256408,22300,2018-04-08 04:53:31,1686.0845021547061,44.900001436800004,0.0,0.986689031574048,1686.0845021547061,44.900001436800004,0.35999970196000003,1.13241003623712,1551,-26.0,99,P-GPS,
0.343855327875712,36.9119943052031,22400,2018-04-08 04:53:32,1686.484502167506,45.3000014496,0.0,0.9848350315147201,1686.484502167506,45.3000014496,0.35999970196000003,1.13241003623712,1551,-26.0,99,P-GPS,
0.343855323899866,36.9119943717848,22500,2018-04-08 04:53:32,1686.784502177106,45.6000014592,0.0,0.98070503138256,1686.784502177106,45.6000014592,0.35999970196000003,1.13241003623712,1551,-26.0,99,P-GPS,
0.34385530162438,36.9119944043021,22600,2018-04-08 04:53:32,1687.1845021899062,46.00000147200001,0.0,0.980511031376352,1687.1845021899062,46.00000147200001,0.35999970196000003,1.13241003623712,1551,-26.0,99,P-GPS,
0.343855294928219,36.9119944549129,22700,2018-04-08 04:53:32,1687.584502202706,46.4000014848,0.0,0.9777460312878721,1687.584502202706,46.4000014848,0.35999970196000003,1.13241003623712,1552,-26.0,99,P-GPS,
0.343855279282943,36.9119944942902,22800,2018-04-08 04:53:32,1687.9845022155062,46.8000014976,0.0,0.976549031249568,1687.9845022155062,46.8000014976,0.35999970196000003,1.13241003623712,1552,-26.0,99,P-GPS,
0.343855281097844,36.9119945469395,22900,2018-04-08 04:53:32,1688.384502228306,47.2000015104,0.0,0.9729340311338881,1688.384502228306,47.2000015104,0.35999970196000003,1.13241003623712,1551,-26.0,99,P-GPS,
0.343855313688708,36.911994570985,23000,2018-04-08 04:53:32,1688.784502241106,47.6000015232,0.0,0.9684300309897601,1688.784502241106,47.6000015232,0.35999970196000003,1.13241003623712,1545,-26.0,99,P-GPS,
0.343855357760102,36.9119945920698,23100,2018-04-08 04:53:32,1689.0845022507062,47.9000015328,0.0,0.9630870308187841,1689.0845022507062,47.9000015328,0.35999970196000003,1.13241003623712,1544,-26.0,99,P-GPS,
0.343855383841261,36.9119945489175,23200,2018-04-08 04:53:32,1689.484502263506,48.300001545600004,0.0,0.9635820308346241,1689.484502263506,48.300001545600004,0.35999970196000003,1.13241003623712,1545,-26.0,99,P-GPS,
0.343855411239831,36.9119945176249,23300,2018-04-08 04:53:32,1689.7845022731062,48.6000015552,0.0,0.963204030822528,1689.7845022731062,48.6000015552,0.35999970196000003,1.13241003623712,1548,-26.0,99,P-GPS,
0.343855444530112,36.9119944610727,23400,2018-04-08 04:53:33,1690.184502285906,49.000001568,0.0,0.9640160308485121,1690.184502285906,49.000001568,0.35999970196000003,1.13241003623712,1556,-26.0,99,P-GPS,
0.343855472982692,36.9119944355652,23500,2018-04-08 04:53:33,1690.484502295506,49.3000015776,0.0,0.9632110308227521,1690.484502295506,49.3000015776,0.35999970196000003,1.13241003623712,1552,-26.0,99,P-GPS,
0.343855458031134,36.9119944088876,23600,2018-04-08 04:53:33,1690.8845023083059,49.70000159040001,0.0,0.9663330309226561,1690.8845023083059,49.70000159040001,0.35999970196000003,1.13241003623712,1555,-26.0,99,P-GPS,
0.343855445503514,36.9119944023327,23700,2018-04-08 04:53:33,1691.2845023211062,50.1000016032,0.0,0.967883030972256,1691.2845023211062,50.1000016032,0.35999970196000003,1.13241003623712,1549,-26.0,99,P-GPS,
0.34385542069702,36.9119943636058,23800,2018-04-08 04:53:33,1691.584502330706,50.4000016128,0.0,0.972691031126112,1691.584502330706,50.4000016128,0.35999970196000003,1.13241003623712,1550,-26.0,99,P-GPS,
0.343855404672316,36.9119943412037,23900,2018-04-08 04:53:33,1691.984502343506,50.800001625600004,0.0,0.975622031219904,1691.984502343506,50.800001625600004,0.35999970196000003,1.13241003623712,1554,-26.0,99,P-GPS,
0.343855415827565,36.9119942812282,24000,2018-04-08 04:53:33,1692.384502356306,51.2000016384,0.0,0.9787220313191041,1692.384502356306,51.2000016384,0.35999970196000003,1.13241003623712,1554,-26.0,99,P-GPS,
0.343855420011852,36.9119942562292,24100,2018-04-08 04:53:33,1692.684502365906,51.500001648,0.0,0.980066031362112,1692.684502365906,51.500001648,0.35999970196000003,1.13241003623712,1553,-26.0,99,P-GPS,
0.343855392552622,36.9119942415072,24200,2018-04-08 04:53:33,1693.084502378706,51.90000166080001,0.0,0.98348003147136,1693.084502378706,51.90000166080001,0.35999970196000003,1.13241003623712,1551,-26.0,99,P-GPS,
0.343855384370098,36.9119942548578,24300,2018-04-08 04:53:33,1693.484502391506,52.3000016736,0.0,0.983284031465088,1693.484502391506,52.3000016736,0.35999970196000003,1.13241003623712,1551,-26.0,99,P-GPS,
0.343855400893105,36.9119942683813,24400,2018-04-08 04:53:34,1693.784502401106,52.6000016832,0.0,0.98091003138912,1693.784502401106,52.6000016832,0.35999970196000003,1.13241003623712,1551,-26.0,99,P-GPS,
0.343855440772884,36.9119943008874,24500,2018-04-08 04:53:34,1694.184502413906,53.000001696000005,0.0,0.97519003120608,1694.184502413906,53.000001696000005,0.35999970196000003,1.13241003623712,1550,-26.0,99,P-GPS,
0.343855485721196,36.9119942753596,24600,2018-04-08 04:53:34,1694.584502426706,53.400001708800005,0.0,0.9730050311361601,1694.584502426706,53.400001708800005,0.35999970196000003,1.13241003623712,1549,-26.0,99,P-GPS,
0.343855540835475,36.9119942754302,24700,2018-04-08 04:53:34,1694.884502436306,53.7000017184,0.0,0.968192030982144,1694.884502436306,53.7000017184,0.35999970196000003,1.13241003623712,1549,-26.0,99,P-GPS,
0.343855599333662,36.9119942900966,24800,2018-04-08 04:53:34,1695.2845024491062,54.1000017312,0.0,0.9620870307867841,1695.2845024491062,54.1000017312,0.35999970196000003,1.13241003623712,1548,-26.0,99,P-GPS,
0.343855647417135,36.9119943288948,24900,2018-04-08 04:53:34,1695.584502458706,54.40000174080001,0.0,0.9552160305669121,1695.584502458706,54.40000174080001,0.35999970196000003,1.13241003623712,1548,-26.0,99,P-GPS,
0.343855684030256,36.9119943090824,25000,2018-04-08 04:53:34,1695.9845024715062,54.8000017536,0.0,0.953419030509408,1695.9845024715062,54.8000017536,0.35999970196000003,1.13241003623712,1547,-26.0,98,P-GPS,
0.343855715137607,36.9119943156271,25100,2018-04-08 04:53:34,1696.384502484306,55.20000176640001,0.0,0.95027003040864,1696.384502484306,55.20000176640001,0.35999970196000003,1.13241003623712,1546,-26.0,98,P-GPS,
0.343855703482019,36.911994298062,25200,2018-04-08 04:53:34,1696.7845024971061,55.6000017792,0.0,0.9525060304801921,1696.7845024971061,55.6000017792,0.35999970196000003,1.13241003623712,1546,-26.0,98,P-GPS,
0.343855711616911,36.9119943087157,25300,2018-04-08 04:53:34,1697.0845025067063,55.900001788800004,0.0,0.9510580304338561,1697.0845025067063,55.900001788800004,0.35999970196000003,1.13241003623712,1545,-26.0,98,P-GPS,
0.343855715401008,36.9119942867001,25400,2018-04-08 04:53:35,1697.4845025195061,56.3000018016,0.0,0.952273030472736,1697.4845025195061,56.3000018016,0.35999970196000003,1.13241003623712,1541,-26.0,98,P-GPS,
0.343855735652745,36.9119942857874,25500,2018-04-08 04:53:35,1697.8845025323062,56.700001814400004,0.0,0.9505910304189121,1697.8845025323062,56.700001814400004,0.35999970196000003,1.13241003623712,1539,-26.0,98,P-GPS,
0.343855770391526,36.9119942478222,25600,2018-04-08 04:53:35,1698.184502541906,57.000001824,0.0,0.950282030409024,1698.184502541906,57.000001824,0.35999970196000003,1.13241003623712,1539,-26.0,98,P-GPS,
0.343855802523576,36.9119942379383,25700,2018-04-08 04:53:35,1698.5845025547062,57.4000018368,0.0,0.9482320303434241,1698.5845025547062,57.4000018368,0.35999970196000003,1.13241003623712,1538,-26.0,98,P-GPS,
0.343855795664163,36.9119942045607,25800,2018-04-08 04:53:35,1698.8845025643059,57.700001846400006,0.0,0.9511940304382082,1698.8845025643059,57.700001846400006,0.35999970196000003,1.13241003623712,1537,-26.0,98,P-GPS,
0.343855794142789,36.9119941942608,25900,2018-04-08 04:53:35,1699.284502577106,58.100001859200006,0.0,0.952059030465888,1699.284502577106,58.100001859200006,0.35999970196000003,1.13241003623712,1538,-26.0,98,P-GPS,
0.343855800822259,36.9119941246862,26000,2018-04-08 04:53:35,1699.684502589906,58.500001872,0.0,0.9564750306072001,1699.684502589906,58.500001872,0.35999970196000003,1.13241003623712,1537,-26.0,98,P-GPS,
0.343855803439576,36.9119940769634,26100,2018-04-08 04:53:35,1699.984502599506,58.8000018816,0.0,0.959696030710272,1699.984502599506,58.8000018816,0.35999970196000003,1.13241003623712,1538,-26.0,98,P-GPS,
0.343855787005319,36.911994017756,26200,2018-04-08 04:53:35,1700.384502612306,59.2000018944,0.0,0.965373030891936,1700.384502612306,59.2000018944,0.35999970196000003,1.13241003623712,1538,-26.0,98,P-GPS,
0.343855773368322,36.9119939820499,26300,2018-04-08 04:53:35,1700.6845026219062,59.500001904,0.0,0.9691170310117441,1700.6845026219062,59.500001904,0.35999970196000003,1.13241003623712,1539,-26.0,98,P-GPS,
0.343855763402245,36.9119939555146,26400,2018-04-08 04:53:36,1701.084502634706,59.9000019168,0.0,0.971888031100416,1701.084502634706,59.9000019168,0.35999970196000003,1.13241003623712,1537,-26.0,98,P-GPS,
0.343855767055659,36.9119939506229,26500,2018-04-08 04:53:36,1701.3845026443062,60.2000019264,0.0,0.971939031102048,1701.3845026443062,60.2000019264,0.35999970196000003,1.13241003623712,1537,-26.0,98,P-GPS,
0.343855776594269,36.9119939209582,26600,2018-04-08 04:53:36,1701.784502657106,60.600001939200006,0.0,0.9733090311458881,1701.784502657106,60.600001939200006,0.35999970196000003,1.13241003623712,1535,-26.0,98,P-GPS,
0.343855785758338,36.9119939122777,26700,2018-04-08 04:53:36,1702.0845026667062,60.9000019488,0.0,0.9731800311417601,1702.0845026667062,60.9000019488,0.35999970196000003,1.13241003623712,1535,-26.0,98,P-GPS,
0.34385578882307,36.9119939089609,26800,2018-04-08 04:53:36,1702.4845026795062,61.3000019616,0.0,0.9731670311413441,1702.4845026795062,61.3000019616,0.35999970196000003,1.13241003623712,1535,-26.0,98,P-GPS,
0.343855796821986,36.9119939201526,26900,2018-04-08 04:53:36,1702.7845026891061,61.6000019712,0.0,0.9716780310936961,1702.7845026891061,61.6000019712,0.35999970196000003,1.13241003623712,1535,-26.0,98,P-GPS,
0.343855796545151,36.9119938817758,27000,2018-04-08 04:53:36,1703.1845027019062,62.000001984,0.0,0.9745230311847362,1703.1845027019062,62.000001984,0.35999970196000003,1.13241003623712,1533,-26.0,98,P-GPS,
0.343855801830673,36.9119938644666,27100,2018-04-08 04:53:36,1703.484502711506,62.300001993600006,0.0,0.9753600312115202,1703.484502711506,62.300001993600006,0.35999970196000003,1.13241003623712,1533,-26.0,98,P-GPS,
0.343855768551384,36.9119938558213,27200,2018-04-08 04:53:36,1703.884502724306,62.7000020064,0.0,0.978767031320544,1703.884502724306,62.7000020064,0.35999970196000003,1.13241003623712,1533,-26.0,98,P-GPS,
0.343855752630495,36.9119938841274,27300,2018-04-08 04:53:36,1704.2845027371059,63.100002019200005,0.0,0.978014031296448,1704.2845027371059,63.100002019200005,0.35999970196000003,1.13241003623712,1533,-26.0,98,P-GPS,
0.343855776435089,36.9119939097783,27400,2018-04-08 04:53:37,1704.584502746706,63.4000020288,0.0,0.974142031172544,1704.584502746706,63.4000020288,0.35999970196000003,1.13241003623712,1533,-26.0,98,P-GPS,
0.343855806410265,36.9119939509457,27500,2018-04-08 04:53:37,1704.984502759506,63.8000020416,0.0,0.968618030995776,1704.984502759506,63.8000020416,0.35999970196000003,1.13241003623712,1531,-26.0,98,P-GPS,
0.343855786831075,36.9119939620914,27600,2018-04-08 04:53:37,1705.284502769106,64.1000020512,0.0,0.9694430310221761,1705.284502769106,64.1000020512,0.35999970196000003,1.13241003623712,1531,-26.0,98,P-GPS,
0.343855778771906,36.9119939845369,27700,2018-04-08 04:53:37,1705.684502781906,64.500002064,0.0,0.968482030991424,1705.684502781906,64.500002064,0.35999970196000003,1.13241003623712,1531,-26.0,98,P-GPS,
0.343855795755763,36.9119939981627,27800,2018-04-08 04:53:37,1705.9845027915062,64.8000020736,0.0,0.9660620309139841,1705.9845027915062,64.8000020736,0.35999970196000003,1.13241003623712,1532,-26.0,98,P-GPS,
0.343855816887673,36.911994026996,27900,2018-04-08 04:53:37,1706.284502801106,65.10000208320001,0.0,0.9621870307899841,1706.284502801106,65.10000208320001,0.35999970196000003,1.13241003623712,1532,-26.0,98,P-GPS,
0.34385586089108,36.9119940279472,28000,2018-04-08 04:53:37,1706.6845028139062,65.500002096,0.0,0.958422030669504,1706.6845028139062,65.500002096,0.35999970196000003,1.13241003623712,1532,-26.0,98,P-GPS,
0.343855904403918,36.9119940432999,28100,2018-04-08 04:53:37,1706.9845028235063,65.8000021056,0.0,0.953654030516928,1706.9845028235063,65.8000021056,0.35999970196000003,1.13241003623712,1532,-26.0,98,P-GPS,
0.343855933706546,36.9119940339127,28200,2018-04-08 04:53:37,1707.3845028363062,66.20000211840001,0.0,0.951892030460544,1707.3845028363062,66.20000211840001,0.35999970196000003,1.13241003623712,1532,-26.0,98,P-GPS,
0.343855970235802,36.9119940524981,28300,2018-04-08 04:53:37,1707.684502845906,66.500002128,0.0,0.9474780303192961,1707.684502845906,66.500002128,0.35999970196000003,1.13241003623712,1531,-26.0,98,P-GPS,
0.343856027603034,36.9119940154804,28400,2018-04-08 04:53:38,1707.984502855506,66.8000021376,0.0,0.94544503025424,1707.984502855506,66.8000021376,0.35999970196000003,1.13241003623712,1531,-26.0,98,P-GPS,
0.343856082853696,36.9119940190285,28500,2018-04-08 04:53:38,1708.384502868306,67.20000215040001,0.0,0.940613030099616,1708.384502868306,67.20000215040001,0.35999970196000003,1.13241003623712,1532,-26.0,98,P-GPS,
0.343856134239247,36.9119940391133,28600,2018-04-08 04:53:38,1708.6845028779062,67.50000216000001,0.0,0.934878029916096,1708.6845028779062,67.50000216000001,0.35999970196000003,1.13241003623712,1532,-26.0,98,P-GPS,
0.343856179597519,36.9119940824401,28700,2018-04-08 04:53:38,1709.084502890706,67.9000021728,0.0,0.9279040296929281,1709.084502890706,67.9000021728,0.35999970196000003,1.13241003623712,1532,-26.0,98,P-GPS,
0.34385618657133,36.9119940869137,28800,2018-04-08 04:53:38,1709.3845029003062,68.2000021824,0.0,0.9269960296638721,1709.3845029003062,68.2000021824,0.35999970196000003,1.13241003623712,1533,-26.0,98,P-GPS,
0.34385619831119,36.9119941026764,28900,2018-04-08 04:53:38,1709.784502913106,68.6000021952,0.0,0.924851029595232,1709.784502913106,68.6000021952,0.35999970196000003,1.13241003623712,1532,-26.0,98,P-GPS,
0.343856235023238,36.9119940754768,29000,2018-04-08 04:53:38,1710.0845029227062,68.9000022048,0.0,0.923871029563872,1710.0845029227062,68.9000022048,0.35999970196000003,1.13241003623712,1532,-26.0,98,P-GPS,
0.343856286906278,36.9119940854191,29100,2018-04-08 04:53:38,1710.4845029355063,69.30000221760001,0.0,0.9188760294040321,1710.4845029355063,69.30000221760001,0.35999970196000003,1.13241003623712,1532,-26.0,98,P-GPS,
0.343856359209599,36.9119941162251,29200,2018-04-08 04:53:38,1710.8845029483061,69.7000022304,0.0,0.9106480291407361,1710.8845029483061,69.7000022304,0.35999970196000003,1.13241003623712,1533,-26.0,98,P-GPS,
0.343856439645776,36.9119941696976,29300,2018-04-08 04:53:38,1711.184502957906,70.00000224,0.0,0.900049028801568,1711.184502957906,70.00000224,0.35999970196000003,1.13241003623712,1531,-26.0,98,P-GPS,
0.343856522205851,36.9119941935237,29400,2018-04-08 04:53:39,1711.5845029707061,70.40000225280001,0.0,0.891537028529184,1711.5845029707061,70.40000225280001,0.35999970196000003,1.13241003623712,1532,-26.0,98,P-GPS,
0.343856596513379,36.9119942315258,29500,2018-04-08 04:53:39,1711.884502980306,70.7000022624,0.0,0.8826270282440641,1711.884502980306,70.7000022624,0.35999970196000003,1.13241003623712,1532,-26.0,98,P-GPS,
0.343856645585725,36.9119942585305,29600,2018-04-08 04:53:39,1712.284502993106,71.1000022752,0.0,0.8766010280512321,1712.284502993106,71.1000022752,0.35999970196000003,1.13241003623712,1532,-26.0,98,P-GPS,
0.343856702774235,36.9119943043417,29700,2018-04-08 04:53:39,1712.584503002706,71.40000228480001,0.0,0.868482027791424,1712.584503002706,71.40000228480001,0.35999970196000003,1.13241003623712,1532,-26.0,98,P-GPS,
0.343856797040787,36.9119943503141,29800,2018-04-08 04:53:39,1712.8845030123061,71.70000229440001,0.0,0.8573710274358721,1712.8845030123061,71.70000229440001,0.35999970196000003,1.13241003623712,1532,-26.0,98,P-GPS,
0.343856895026705,36.9119943970979,29900,2018-04-08 04:53:39,1713.284503025106,72.1000023072,0.0,0.84591502706928,1713.284503025106,72.1000023072,0.35999970196000003,1.13241003623712,1532,-26.0,98,P-GPS,
