latitude,longitude,time_millisecond,datetime_utc,altitude_m,ascent_m,speed_kph,distance_m,max_altitude_m,max_ascent_m,max_speed_kph,max_distance_m,rc_throttle,gimbal_pitch_degrees,battery_percent,flycState,message
0.337736682762847,36.9091308215055,0,2018-03-30 05:10:17,1647.751761728067,0.0,0.0,0.0,1647.751761728067,0.0,0.0,0.0,364,0.0,98,Motors_Started,
0.33773661000804,36.9091307908054,100,2018-03-30 05:10:17,1647.751761728067,0.0,0.0,0.008781570281010242,1647.751761728067,0.0,0.0,0.008781570281010242,364,0.0,98,Motors_Started,
0.337736544917098,36.9091307718284,200,2018-03-30 05:10:17,1647.751761728067,0.0,0.0,0.0162943005214176,1647.751761728067,0.0,0.0,0.0162943005214176,364,0.0,98,Motors_Started,
0.33773648615144,36.9091307573481,300,2018-03-30 05:10:17,1647.751761728067,0.0,0.0,0.022999000735968,1647.751761728067,0.0,0.0,0.022999000735968,364,0.0,98,Motors_Started,
0.337736429645247,36.9091307473676,400,2018-03-30 05:10:17,1647.751761728067,0.0,0.0,0.0293308009385856,1647.751761728067,0.0,0.0,0.0293308009385856,364,0.0,98,Motors_Started,
0.337736380129151,36.9091307229987,500,2018-03-30 05:10:17,1647.751761728067,0.0,0.0,0.0353926011325632,1647.751761728067,0.0,0.0,0.0353926011325632,364,0.0,98,Motors_Started,
0.337736329701532,36.9091306895508,600,2018-03-30 05:10:17,1647.751761728067,0.0,0.0,0.0419151013412832,1647.751761728067,0.0,0.0,0.0419151013412832,364,0.0,98,Motors_Started,
0.337736285290201,36.9091306604181,700,2018-03-30 05:10:18,1647.751761728067,0.0,0.0,0.0476934015261888,1647.751761728067,0.0,0.0,0.0476934015261888,364,0.0,98,Motors_Started,Setting new Return-To-Home altitude to 30m (98 ft). Setting new Maximum Flight Altitude to 120m (394 ft)
0.337736238102779,36.9091306428708,800,2018-03-30 05:10:18,1647.751761728067,0.0,0.0,0.0532899017052768,1647.751761728067,0.0,0.0,0.0532899017052768,364,0.0,98,Motors_Started,
0.337736195873155,36.9091306328858,900,2018-03-30 05:10:18,1647.751761728067,0.0,0.0,0.058066001858112004,1647.751761728067,0.0,0.0,0.058066001858112004,364,0.0,98,Motors_Started,
0.337736149239404,36.9091306265447,1000,2018-03-30 05:10:18,1647.751761728067,0.0,0.0,0.0631682020213824,1647.751761728067,0.0,0.0,0.0631682020213824,364,0.0,98,Motors_Started,
0.337736128772306,36.9091306079384,1100,2018-03-30 05:10:18,1647.751761728067,0.0,0.0,0.0660264021128448,1647.751761728067,0.0,0.0,0.0660264021128448,364,0.0,98,Motors_Started,
0.337736109393822,36.9091305767422,1200,2018-03-30 05:10:18,1647.751761728067,0.0,0.0,0.0693287022185184,1647.751761728067,0.0,0.0,0.0693287022185184,364,0.0,98,Motors_Started,
0.337736088864843,36.9091305501266,1300,2018-03-30 05:10:18,1647.751761728067,0.0,0.0,0.0726133023236256,1647.751761728067,0.0,0.0,0.0726133023236256,364,0.0,98,Motors_Started,
0.337736063524219,36.9091305344841,1400,2018-03-30 05:10:18,1647.751761728067,0.0,0.0,0.075900502428816,1647.751761728067,0.0,0.0,0.075900502428816,364,0.0,98,Motors_Started,
0.337736041120901,36.9091305282696,1500,2018-03-30 05:10:18,1647.751761728067,0.0,0.0,0.0784526025104832,1647.751761728067,0.0,0.0,0.0784526025104832,364,0.0,98,Motors_Started,
0.337736005289026,36.9091305221067,1600,2018-03-30 05:10:18,1647.751761728067,0.0,0.0,0.0823682026357824,1647.751761728067,0.0,0.0,0.0823682026357824,465,0.0,98,Assisted_Takeoff,
0.337735957967258,36.9091305219758,1700,2018-03-30 05:10:19,1647.751761728067,0.0,0.0,0.0872131027908192,1647.751761728067,0.0,0.0,0.0872131027908192,813,0.0,98,Assisted_Takeoff,
0.337735913038895,36.9091305231271,1800,2018-03-30 05:10:19,1647.751761728067,0.0,0.0,0.0918041029377312,1647.751761728067,0.0,0.0,0.0918041029377312,1022,0.0,98,Assisted_Takeoff,
0.337735847064522,36.9091305124377,1900,2018-03-30 05:10:19,1647.751761728067,0.0,0.0,0.099086503170768,1647.751761728067,0.0,0.0,0.099086503170768,1024,0.0,98,Assisted_Takeoff,
0.337735765537288,36.9091304859084,2000,2018-03-30 05:10:19,1647.751761728067,0.0,0.0,0.108614003475648,1647.751761728067,0.0,0.0,0.108614003475648,1024,0.0,98,Assisted_Takeoff,
0.337735703272103,36.909130463737,2100,2018-03-30 05:10:19,1647.751761728067,0.0,0.0,0.11596400371084802,1647.751761728067,0.0,0.0,0.11596400371084802,1024,0.0,98,Assisted_Takeoff,
0.337735662895241,36.9091304494379,2200,2018-03-30 05:10:19,1647.751761728067,0.0,0.0,0.12072700386326402,1647.751761728067,0.0,0.0,0.12072700386326402,1024,0.0,98,Assisted_Takeoff,
0.337735600831983,36.9091304404187,2300,2018-03-30 05:10:19,1647.751761728067,0.0,0.0,0.127562004081984,1647.751761728067,0.0,0.0,0.127562004081984,1024,0.0,98,Assisted_Takeoff,
0.337735528846617,36.9091304348511,2400,2018-03-30 05:10:19,1647.751761728067,0.0,0.0,0.13533500433072002,1647.751761728067,0.0,0.0,0.13533500433072002,1024,0.0,98,Assisted_Takeoff,
0.337735474230233,36.9091304159832,2500,2018-03-30 05:10:19,1647.751761728067,0.0,0.0,0.14176000453632,1647.751761728067,0.0,0.0,0.14176000453632,1024,0.0,98,Assisted_Takeoff,
0.337735438996812,36.9091303862069,2600,2018-03-30 05:10:19,1647.751761728067,0.0,0.0,0.14654000468928002,1647.751761728067,0.0,0.0,0.14654000468928002,1024,0.0,98,Assisted_Takeoff,
0.337735388705983,36.9091303603117,2700,2018-03-30 05:10:20,1647.751761728067,0.0,0.0,0.15277300488873602,1647.751761728067,0.0,0.0,0.15277300488873602,1024,0.0,98,Assisted_Takeoff,
0.337735317386243,36.9091303445921,2800,2018-03-30 05:10:20,1647.751761728067,0.0,0.0,0.16083400514668802,1647.751761728067,0.0,0.0,0.16083400514668802,1024,0.0,98,Assisted_Takeoff,
0.337735227321483,36.9091303359057,2900,2018-03-30 05:10:20,1647.751761728067,0.0,0.0,0.17062500546,1647.751761728067,0.0,0.0,0.17062500546,1024,0.0,98,Assisted_Takeoff,
0.337735132845676,36.9091303303093,3000,2018-03-30 05:10:20,1647.751761728067,0.0,0.0,0.180809005785888,1647.751761728067,0.0,0.0,0.180809005785888,1024,0.0,98,Assisted_Takeoff,
0.337735039634763,36.9091303126895,3100,2018-03-30 05:10:20,1647.751761728067,0.0,0.0,0.191286006121152,1647.751761728067,0.0,0.0,0.191286006121152,1024,0.0,98,Assisted_Takeoff,
0.337734962075233,36.9091302834455,3200,2018-03-30 05:10:20,1647.751761728067,0.0,0.0,0.200488006415616,1647.751761728067,0.0,0.0,0.200488006415616,1024,0.0,98,Assisted_Takeoff,
0.337734889722652,36.909130258104,3300,2018-03-30 05:10:20,1647.751761728067,0.0,0.0,0.20900800668825603,1647.751761728067,0.0,0.0,0.20900800668825603,1024,0.0,98,Assisted_Takeoff,
0.337734823366002,36.9091302423284,3400,2018-03-30 05:10:20,1647.751761728067,0.0,0.0,0.21657500693040002,1647.751761728067,0.0,0.0,0.21657500693040002,1054,0.0,98,Assisted_Takeoff,
0.337734764895906,36.9091302131124,3500,2018-03-30 05:10:20,1647.751761728067,0.0,0.0,0.223752007160064,1647.751761728067,0.0,0.0,0.223752007160064,1073,0.0,98,Assisted_Takeoff,
0.337734706830478,36.9091301775881,3600,2018-03-30 05:10:20,1647.751761728067,0.0,0.0,0.23110900739548804,1647.751761728067,0.0,0.0,0.23110900739548804,1134,0.0,98,Assisted_Takeoff,
0.3377346777025,36.9091301486038,3700,2018-03-30 05:10:20,1647.751761728067,0.0,0.0,0.235196007526272,1647.751761728067,0.0,0.0,0.235196007526272,1185,0.0,98,Assisted_Takeoff,
0.337734657049759,36.909130130808,3800,2018-03-30 05:10:21,1647.751761728067,0.0,0.0,0.238006007616192,1647.751761728067,0.0,0.0,0.238006007616192,1233,0.0,98,Assisted_Takeoff,
0.337734647932101,36.9091301220121,3900,2018-03-30 05:10:21,1647.751761728067,0.0,0.0,0.239282007657024,1647.751761728067,0.0,0.0,0.239282007657024,1283,0.0,98,Assisted_Takeoff,
0.337734620323462,36.9091301163611,4000,2018-03-30 05:10:21,1647.751761728067,0.0,0.0,0.24239000775648,1647.751761728067,0.0,0.0,0.24239000775648,1314,0.0,98,Assisted_Takeoff,
0.337734599622682,36.9091301213922,4100,2018-03-30 05:10:21,1647.751761728067,0.0,0.0,0.244391007820512,1647.751761728067,0.0,0.0,0.244391007820512,1349,0.0,98,Assisted_Takeoff,
0.337734561391702,36.9091301339879,4200,2018-03-30 05:10:21,1647.751761728067,0.0,0.0,0.24798900793564801,1647.751761728067,0.0,0.0,0.24798900793564801,1384,0.0,98,Assisted_Takeoff,
0.337734540893663,36.9091301635572,4300,2018-03-30 05:10:21,1647.751761728067,0.0,0.0,0.24917300797353603,1647.751761728067,0.0,0.0,0.24917300797353603,1381,0.0,98,Assisted_Takeoff,
0.337734531903838,36.9091302328916,4400,2018-03-30 05:10:21,1647.751761728067,0.0,0.35999970196000003,0.247983007935456,1647.751761728067,0.0,0.35999970196000003,0.24917300797353603,1419,0.0,98,P-GPS,
0.337734560511528,36.90913035744,4500,2018-03-30 05:10:21,1647.751761728067,0.0,0.35999970196000003,0.241584007730688,1647.751761728067,0.0,0.35999970196000003,0.24917300797353603,1476,0.0,98,P-GPS,
0.33773456810252,36.9091305042675,4600,2018-03-30 05:10:21,1647.851761731267,0.1000000032,0.35999970196000003,0.23779500760944,1647.851761731267,0.1000000032,0.35999970196000003,0.24917300797353603,1515,0.0,98,P-GPS,
0.337734560631219,36.909130666903,4700,2018-03-30 05:10:22,1647.9517617344668,0.2000000064,0.35999970196000003,0.236619007571808,1647.9517617344668,0.2000000064,0.35999970196000003,0.24917300797353603,1609,0.0,98,P-GPS,Home Point Recorded. RTH Altitude:  30m.
0.337734476953624,36.9091309697459,4900,2018-03-30 05:10:22,1648.251761744067,0.500000016,0.35999970196000003,0.245853007867296,1648.251761744067,0.500000016,0.35999970196000003,0.24917300797353603,1657,0.0,98,P-GPS,
0.33773441572413,36.9091310923833,5000,2018-03-30 05:10:22,1648.551761753667,0.8000000256,0.35999970196000003,0.253902008124864,1648.551761753667,0.8000000256,0.35999970196000003,0.253902008124864,1684,0.0,98,P-GPS,
0.337734348681904,36.9091311740271,5100,2018-03-30 05:10:22,1648.7517617600668,1.000000032,0.0,0.262508008400256,1648.7517617600668,1.000000032,0.35999970196000003,0.262508008400256,1684,0.0,98,P-GPS,
0.337734276278027,36.9091312160686,5200,2018-03-30 05:10:22,1649.1517617728668,1.4000000448,0.0,0.271189008678048,1649.1517617728668,1.4000000448,0.35999970196000003,0.271189008678048,1684,0.0,98,P-GPS,
0.337734191741428,36.9091312301825,5300,2018-03-30 05:10:22,1649.451761782467,1.7000000544000002,0.0,0.28072000898304,1649.451761782467,1.7000000544000002,0.35999970196000003,0.28072000898304,1684,0.0,98,P-GPS,
0.337734116958395,36.9091312422312,5400,2018-03-30 05:10:22,1649.951761798467,2.2000000704000002,0.0,0.289143009252576,1649.951761798467,2.2000000704000002,0.35999970196000003,0.289143009252576,1684,0.0,98,P-GPS,
0.337734047474318,36.9091312653717,5500,2018-03-30 05:10:22,1650.3517618112671,2.6000000832000003,0.0,0.297188009510016,1650.3517618112671,2.6000000832000003,0.35999970196000003,0.297188009510016,1684,0.0,98,P-GPS,
0.337733990887517,36.909131290664,5600,2018-03-30 05:10:22,1650.851761827267,3.1000000992000003,0.0,0.30386500972368,1650.851761827267,3.1000000992000003,0.35999970196000003,0.30386500972368,1684,0.0,98,P-GPS,
0.337733946242097,36.9091313001311,5700,2018-03-30 05:10:23,1651.351761843267,3.6000001152000003,0.0,0.308937009885984,1651.351761843267,3.6000001152000003,0.35999970196000003,0.308937009885984,1684,0.0,98,P-GPS,
0.337733893865638,36.909131287322,5800,2018-03-30 05:10:23,1651.951761862467,4.200000134400001,0.0,0.314439010062048,1651.951761862467,4.200000134400001,0.35999970196000003,0.314439010062048,1684,0.0,98,P-GPS,
0.337733735899243,36.9091312070219,6000,2018-03-30 05:10:23,1652.951761894467,5.200000166400001,0.0,0.33050101057603204,1652.951761894467,5.200000166400001,0.35999970196000003,0.33050101057603204,1684,0.0,98,P-GPS,
0.337733667191934,36.9091311755508,6100,2018-03-30 05:10:23,1653.451761910467,5.7000001824,0.0,0.337653010804896,1653.451761910467,5.7000001824,0.35999970196000003,0.337653010804896,1684,0.0,98,P-GPS,
0.337733602683567,36.909131159066,6200,2018-03-30 05:10:23,1653.951761926467,6.200000198400001,0.0,0.344574011026368,1653.951761926467,6.200000198400001,0.35999970196000003,0.344574011026368,1684,0.0,98,P-GPS,
0.337733536186057,36.9091311714102,6300,2018-03-30 05:10:23,1654.4517619424669,6.7000002144,0.0,0.3520750112664,1654.4517619424669,6.7000002144,0.35999970196000003,0.3520750112664,1684,0.0,98,P-GPS,
0.337733448723958,36.9091311858788,6400,2018-03-30 05:10:23,1654.9517619584672,7.200000230400001,0.0,0.36192001158144,1654.9517619584672,7.200000230400001,0.35999970196000003,0.36192001158144,1684,0.0,98,P-GPS,
0.337733345956114,36.9091311827778,6500,2018-03-30 05:10:23,1655.451761974467,7.7000002464,0.0,0.373242011943744,1655.451761974467,7.7000002464,0.35999970196000003,0.373242011943744,1684,0.0,98,P-GPS,
0.337733220158815,36.9091311527417,6600,2018-03-30 05:10:23,1655.9517619904668,8.200000262400001,0.0,0.38682001237824,1655.9517619904668,8.200000262400001,0.35999970196000003,0.38682001237824,1684,0.0,98,P-GPS,
0.337733089529923,36.9091311300039,6700,2018-03-30 05:10:24,1656.451762006467,8.700000278400001,0.0,0.40105901283388806,1656.451762006467,8.700000278400001,0.35999970196000003,0.40105901283388806,1684,0.0,98,P-GPS,
0.33773295634926,36.9091311254819,6800,2018-03-30 05:10:24,1656.951762022467,9.2000002944,0.0,0.415776013304832,1656.951762022467,9.2000002944,0.35999970196000003,0.415776013304832,1684,0.0,98,P-GPS,
0.337732836561733,36.9091311416948,6900,2018-03-30 05:10:24,1657.451762038467,9.7000003104,0.0,0.429201013734432,1657.451762038467,9.7000003104,0.35999970196000003,0.429201013734432,1684,0.0,98,P-GPS,
0.33773273023004,36.9091311700227,7000,2018-03-30 05:10:24,1657.9517620544668,10.2000003264,0.0,0.441251014120032,1657.9517620544668,10.2000003264,0.35999970196000003,0.441251014120032,1684,0.0,98,P-GPS,
0.337732608064171,36.9091312016484,7100,2018-03-30 05:10:24,1658.451762070467,10.700000342400001,0.0,0.45509901456316804,1658.451762070467,10.700000342400001,0.35999970196000003,0.45509901456316804,1684,0.0,98,P-GPS,
0.337732460590654,36.9091312203558,7200,2018-03-30 05:10:24,1658.951762086467,11.2000003584,0.0,0.471622015091904,1658.951762086467,11.2000003584,0.35999970196000003,0.471622015091904,1684,0.0,98,P-GPS,
0.337732313663481,36.9091312370775,7300,2018-03-30 05:10:24,1659.4517621024668,11.7000003744,0.0,0.48806301561801607,1659.4517621024668,11.7000003744,0.35999970196000003,0.48806301561801607,1684,0.0,98,P-GPS,
0.337732175688678,36.9091312466989,7400,2018-03-30 05:10:24,1659.951762118467,12.200000390400001,0.0,0.503439016110048,1659.951762118467,12.200000390400001,0.35999970196000003,0.503439016110048,1684,0.0,98,P-GPS,
0.33773201596112,36.9091312493842,7500,2018-03-30 05:10:24,1660.451762134467,12.700000406400001,0.0,0.5211540166769281,1660.451762134467,12.700000406400001,0.35999970196000003,0.5211540166769281,1684,0.0,98,P-GPS,
0.337731849432366,36.9091312472425,7600,2018-03-30 05:10:24,1660.951762150467,13.2000004224,0.0,0.539577017266464,1660.951762150467,13.2000004224,0.35999970196000003,0.539577017266464,1684,0.0,98,P-GPS,
0.337731682498129,36.9091312555628,7700,2018-03-30 05:10:25,1661.451762166467,13.7000004384,0.0,0.558151017860832,1661.451762166467,13.7000004384,0.35999970196000003,0.558151017860832,1684,0.0,98,P-GPS,
0.337731520716289,36.9091312716771,7800,2018-03-30 05:10:25,1661.951762182467,14.2000004544,0.0,0.5762300184393601,1661.951762182467,14.2000004544,0.35999970196000003,0.5762300184393601,1684,0.0,98,P-GPS,
0.337731381644729,36.9091312684067,7900,2018-03-30 05:10:25,1662.451762198467,14.7000004704,0.0,0.591608018931456,1662.451762198467,14.7000004704,0.35999970196000003,0.591608018931456,1684,0.0,98,P-GPS,
0.3377312622578,36.9091312433457,8000,2018-03-30 05:10:25,1662.9517622144667,15.200000486400002,0.0,0.604616019347712,1662.9517622144667,15.200000486400002,0.35999970196000003,0.604616019347712,1684,0.0,98,P-GPS,
0.337731151285855,36.9091312144803,8100,2018-03-30 05:10:25,1663.451762230467,15.700000502400002,0.0,0.616684019733888,1663.451762230467,15.700000502400002,0.35999970196000003,0.616684019733888,1684,0.0,98,P-GPS,
0.337731029929323,36.9091312005939,8200,2018-03-30 05:10:25,1663.9517622464668,16.2000005184,0.0,0.630041020161312,1663.9517622464668,16.2000005184,0.35999970196000003,0.630041020161312,1684,0.0,98,P-GPS,
0.33773093461731,36.9091311961404,8300,2018-03-30 05:10:25,1664.451762262467,16.7000005344,0.0,0.64058502049872,1664.451762262467,16.7000005344,0.35999970196000003,0.64058502049872,1684,0.0,98,P-GPS,
0.337730853755295,36.9091312010419,8400,2018-03-30 05:10:25,1664.951762278467,17.2000005504,0.0,0.649594020787008,1664.951762278467,17.2000005504,0.35999970196000003,0.649594020787008,1684,0.0,98,P-GPS,
0.33773079549934,36.9091312075499,8500,2018-03-30 05:10:25,1665.451762294467,17.7000005664,0.0,0.6561060209953921,1665.451762294467,17.7000005664,0.35999970196000003,0.6561060209953921,1684,0.0,98,P-GPS,
0.337730736345297,36.9091312145858,8600,2018-03-30 05:10:25,1665.9517623104668,18.2000005824,0.0,0.662721021207072,1665.9517623104668,18.2000005824,0.35999970196000003,0.662721021207072,1684,0.0,98,P-GPS,
0.337730708625109,36.9091312383181,8700,2018-03-30 05:10:25,1666.4517623264671,18.700000598400003,0.0,0.665976021311232,1666.4517623264671,18.700000598400003,0.35999970196000003,0.665976021311232,1684,0.0,98,P-GPS,
0.337730688206864,36.9091312636456,8800,2018-03-30 05:10:26,1666.951762342467,19.2000006144,0.0,0.6684420213901441,1666.951762342467,19.2000006144,0.35999970196000003,0.6684420213901441,1684,0.0,98,P-GPS,
0.337730669123129,36.9091312838795,8900,2018-03-30 05:10:26,1667.4517623584668,19.7000006304,0.0,0.6707270214632641,1667.4517623584668,19.7000006304,0.35999970196000003,0.6707270214632641,1684,0.0,98,P-GPS,
0.337730634714922,36.9091312926307,9000,2018-03-30 05:10:26,1667.951762374467,20.200000646400003,0.0,0.6746170215877441,1667.951762374467,20.200000646400003,0.35999970196000003,0.6746170215877441,1684,0.0,98,P-GPS,
0.337730586394103,36.9091312823953,9100,2018-03-30 05:10:26,1668.451762390467,20.7000006624,0.0,0.679888021756416,1668.451762390467,20.7000006624,0.35999970196000003,0.679888021756416,1684,0.0,98,P-GPS,
0.337730531553809,36.9091312556431,9200,2018-03-30 05:10:26,1668.951762406467,21.200000678400002,0.0,0.685753021944096,1668.951762406467,21.200000678400002,0.35999970196000003,0.685753021944096,1684,0.0,98,P-GPS,
0.337730471246014,36.9091312231271,9300,2018-03-30 05:10:26,1669.551762425667,21.8000006976,0.0,0.692201022150432,1669.551762425667,21.8000006976,0.35999970196000003,0.692201022150432,1684,0.0,98,P-GPS,
0.337730423609956,36.9091312017783,9400,2018-03-30 05:10:26,1670.051762441667,22.300000713600003,0.0,0.697339022314848,1670.051762441667,22.300000713600003,0.35999970196000003,0.697339022314848,1684,0.0,98,P-GPS,
0.337730413967124,36.9091312199664,9500,2018-03-30 05:10:26,1670.5517624576669,22.8000007296,0.0,0.69853502235312,1670.5517624576669,22.8000007296,0.35999970196000003,0.69853502235312,1684,0.0,98,P-GPS,
0.337730437082073,36.9091312648479,9600,2018-03-30 05:10:26,1671.0517624736672,23.300000745600002,0.0,0.69630502228176,1671.0517624736672,23.300000745600002,0.35999970196000003,0.69853502235312,1684,0.0,98,P-GPS,
0.337730457285363,36.9091313017146,9700,2018-03-30 05:10:27,1671.551762489667,23.8000007616,0.0,0.6943680222197761,1671.551762489667,23.8000007616,0.35999970196000003,0.69853502235312,1684,0.0,98,P-GPS,
0.3377304570012,36.9091313074804,9800,2018-03-30 05:10:27,1672.151762508867,24.400000780800003,0.0,0.694449022222368,1672.151762508867,24.400000780800003,0.35999970196000003,0.69853502235312,1684,0.0,98,P-GPS,
0.337730459256595,36.9091313061536,9900,2018-03-30 05:10:27,1672.651762524867,24.9000007968,0.0,0.694187022213984,1672.651762524867,24.9000007968,0.35999970196000003,0.69853502235312,1684,0.0,98,P-GPS,
0.337730459165402,36.909131298131,10000,2018-03-30 05:10:27,1673.151762540867,25.400000812800002,0.0,0.694129022212128,1673.151762540867,25.400000812800002,0.35999970196000003,0.69853502235312,1684,0.0,98,P-GPS,
0.337730477135281,36.9091312660205,10100,2018-03-30 05:10:27,1673.6517625568667,25.9000008288,0.0,0.6918720221399041,1673.6517625568667,25.9000008288,0.35999970196000003,0.69853502235312,1684,0.0,98,P-GPS,
0.337730505287821,36.9091312213309,10200,2018-03-30 05:10:27,1674.151762572867,26.4000008448,0.0,0.68841002202912,1674.151762572867,26.4000008448,0.35999970196000003,0.69853502235312,1684,0.0,98,P-GPS,
0.337730554841372,36.9091311808841,10300,2018-03-30 05:10:27,1674.7517625920668,27.000000864,0.0,0.682633021844256,1674.7517625920668,27.000000864,0.35999970196000003,0.69853502235312,1684,0.0,98,P-GPS,
0.337730598618832,36.9091311548018,10400,2018-03-30 05:10:27,1675.251762608067,27.50000088,0.0,0.677608021683456,1675.251762608067,27.50000088,0.35999970196000003,0.69853502235312,1684,0.0,98,P-GPS,
0.337730661523995,36.909131136923,10500,2018-03-30 05:10:27,1675.751762624067,28.000000896,0.0,0.670517021456544,1675.751762624067,28.000000896,0.35999970196000003,0.69853502235312,1684,0.0,98,P-GPS,
0.337730713916738,36.909131129107,10600,2018-03-30 05:10:27,1676.3517626432667,28.600000915200003,0.0,0.664653021268896,1676.3517626432667,28.600000915200003,0.35999970196000003,0.69853502235312,1684,0.0,98,P-GPS,
0.337730781129136,36.9091311291504,10700,2018-03-30 05:10:27,1676.851762659267,29.1000009312,0.0,0.6571890210300481,1676.851762659267,29.1000009312,0.35999970196000003,0.69853502235312,1684,0.0,98,P-GPS,
0.337730833623656,36.9091311295521,10800,2018-03-30 05:10:28,1677.3517626752669,29.6000009472,0.0,0.6513610208435521,1677.3517626752669,29.6000009472,0.35999970196000003,0.69853502235312,1684,0.0,98,P-GPS,
0.337730897600336,36.9091311339334,10900,2018-03-30 05:10:28,1677.851762691267,30.1000009632,0.0,0.644283020617056,1677.851762691267,30.1000009632,0.35999970196000003,0.69853502235312,1684,0.0,98,P-GPS,
0.337730947041524,36.9091311334366,11000,2018-03-30 05:10:28,1678.451762710467,30.700000982400002,0.0,0.63879002044128,1678.451762710467,30.700000982400002,0.35999970196000003,0.69853502235312,1684,0.0,98,P-GPS,
0.337731100820376,36.9091311377651,11200,2018-03-30 05:10:28,1679.451762742467,31.7000010144,0.0,0.621742019895744,1679.451762742467,31.7000010144,0.35999970196000003,0.69853502235312,1684,0.0,98,P-GPS,
0.33773120193372,36.9091311393705,11300,2018-03-30 05:10:28,1679.9517627584669,32.2000010304,0.0,0.610526019536832,1679.9517627584669,32.2000010304,0.35999970196000003,0.69853502235312,1684,0.0,98,P-GPS,
0.337731284808492,36.9091311431005,11400,2018-03-30 05:10:28,1680.551762777667,32.800001049600006,0.0,0.6013500192432001,1680.551762777667,32.800001049600006,0.35999970196000003,0.69853502235312,1684,0.0,98,P-GPS,
0.337731376024154,36.9091311581394,11500,2018-03-30 05:10:28,1681.051762793667,33.3000010656,0.0,0.5913280189224961,1681.051762793667,33.3000010656,0.35999970196000003,0.69853502235312,1684,0.0,98,P-GPS,
0.337731427065289,36.9091311708763,11600,2018-03-30 05:10:28,1681.551762809667,33.8000010816,0.0,0.58575501874416,1681.551762809667,33.8000010816,0.35999970196000003,0.69853502235312,1684,0.0,98,P-GPS,
0.337731502527384,36.9091311663021,11700,2018-03-30 05:10:29,1682.0517628256669,34.3000010976,0.0,0.5773480184751361,1682.0517628256669,34.3000010976,0.35999970196000003,0.69853502235312,1684,0.0,98,P-GPS,
0.337731564417212,36.9091311463292,11800,2018-03-30 05:10:29,1682.5517628416671,34.800001113600004,0.0,0.5703360182507521,1682.5517628416671,34.800001113600004,0.35999970196000003,0.69853502235312,1684,0.0,98,P-GPS,
0.337731638970635,36.9091311260397,11900,2018-03-30 05:10:29,1683.051762857667,35.300001129600005,0.0,0.5619220179815041,1683.051762857667,35.300001129600005,0.35999970196000003,0.69853502235312,1684,0.0,98,P-GPS,
0.337731687904563,36.9091311186011,12000,2018-03-30 05:10:29,1683.651762876867,35.9000011488,0.0,0.5564400178060801,1683.651762876867,35.9000011488,0.35999970196000003,0.69853502235312,1684,0.0,98,P-GPS,
0.337731753306945,36.9091311327375,12100,2018-03-30 05:10:29,1684.151762892867,36.4000011648,0.0,0.5492770175768641,1684.151762892867,36.4000011648,0.35999970196000003,0.69853502235312,1684,0.0,98,P-GPS,
0.337731798690865,36.9091311641793,12200,2018-03-30 05:10:29,1684.6517629088669,36.900001180800004,0.0,0.544474017423168,1684.6517629088669,36.900001180800004,0.35999970196000003,0.69853502235312,1684,0.0,98,P-GPS,
0.337731859608512,36.909131203632,12300,2018-03-30 05:10:29,1685.151762924867,37.400001196800005,0.0,0.53804501721744,1685.151762924867,37.400001196800005,0.35999970196000003,0.69853502235312,1684,0.0,98,P-GPS,
0.337731900956334,36.9091312332535,12400,2018-03-30 05:10:29,1685.651762940867,37.9000012128,0.0,0.5337340170794881,1685.651762940867,37.9000012128,0.35999970196000003,0.69853502235312,1684,0.0,98,P-GPS,
0.337731951254083,36.9091312532738,12500,2018-03-30 05:10:29,1686.1517629568668,38.4000012288,0.0,0.528359016907488,1686.1517629568668,38.4000012288,0.35999970196000003,0.69853502235312,1684,0.0,98,P-GPS,
0.337731980219217,36.9091312603575,12600,2018-03-30 05:10:29,1686.651762972867,38.9000012448,0.0,0.525224016807168,1686.651762972867,38.9000012448,0.35999970196000003,0.69853502235312,1684,0.0,98,P-GPS,
0.337732022761502,36.9091312772457,12700,2018-03-30 05:10:30,1687.151762988867,39.4000012608,0.0,0.520693016662176,1687.151762988867,39.4000012608,0.35999970196000003,0.69853502235312,1684,0.0,98,P-GPS,
0.337732049546149,36.909131302407,12800,2018-03-30 05:10:30,1687.751763008067,40.00000128,0.0,0.5180100165763201,1687.751763008067,40.00000128,0.35999970196000003,0.69853502235312,1684,0.0,98,P-GPS,
0.337732078470571,36.9091313260885,12900,2018-03-30 05:10:30,1688.251763024067,40.500001296,0.0,0.515091016482912,1688.251763024067,40.500001296,0.35999970196000003,0.69853502235312,1684,0.0,98,P-GPS,
0.337732084310985,36.9091313437405,13000,2018-03-30 05:10:30,1688.751763040067,41.000001312,0.0,0.5146630164692161,1688.751763040067,41.000001312,0.35999970196000003,0.69853502235312,1684,0.0,98,P-GPS,
0.337732110086811,36.909131378645,13100,2018-03-30 05:10:30,1689.251763056067,41.500001328,0.0,0.51227001639264,1689.251763056067,41.500001328,0.35999970196000003,0.69853502235312,1684,0.0,98,P-GPS,
0.337732136781894,36.9091314204065,13200,2018-03-30 05:10:30,1689.7517630720668,42.000001344,0.0,0.509909016317088,1689.7517630720668,42.000001344,0.35999970196000003,0.69853502235312,1684,0.0,98,P-GPS,
0.337732170336796,36.9091314566605,13300,2018-03-30 05:10:30,1690.251763088067,42.50000136,0.0,0.506756016216192,1690.251763088067,42.50000136,0.35999970196000003,0.69853502235312,1684,0.0,98,P-GPS,
0.337732178214394,36.9091314805186,13400,2018-03-30 05:10:30,1690.7517631040669,43.000001376,0.0,0.506266016200512,1690.7517631040669,43.000001376,0.35999970196000003,0.69853502235312,1684,0.0,98,P-GPS,
0.337732180924125,36.9091314968608,13500,2018-03-30 05:10:30,1691.251763120067,43.500001392,0.0,0.506234016199488,1691.251763120067,43.500001392,0.35999970196000003,0.69853502235312,1684,0.0,98,P-GPS,
0.337732171785297,36.9091315051891,13600,2018-03-30 05:10:30,1691.751763136067,44.000001407999996,0.0,0.507377016236064,1691.751763136067,44.000001407999996,0.35999970196000003,0.69853502235312,1684,0.0,98,P-GPS,
0.337732167626251,36.9091315200163,13700,2018-03-30 05:10:31,1692.251763152067,44.500001424,0.0,0.508084016258688,1692.251763152067,44.500001424,0.35999970196000003,0.69853502235312,1684,0.0,98,P-GPS,
0.337732155712555,36.9091315548354,13800,2018-03-30 05:10:31,1692.851763171267,45.1000014432,0.0,0.509998016319936,1692.851763171267,45.1000014432,0.35999970196000003,0.69853502235312,1684,0.0,98,P-GPS,
0.33773215460847,36.9091315842131,13900,2018-03-30 05:10:31,1693.351763187267,45.6000014592,0.0,0.510651016340832,1693.351763187267,45.6000014592,0.35999970196000003,0.69853502235312,1684,0.0,98,P-GPS,
0.337732145913393,36.909131602379,14000,2018-03-30 05:10:31,1693.851763203267,46.1000014752,0.0,0.511944016382208,1693.851763203267,46.1000014752,0.35999970196000003,0.69853502235312,1684,0.0,98,P-GPS,
0.337732144813379,36.9091316080345,14100,2018-03-30 05:10:31,1694.3517632192668,46.600001491200004,0.0,0.512171016389472,1694.3517632192668,46.600001491200004,0.35999970196000003,0.69853502235312,1684,0.0,98,P-GPS,
0.337732135856937,36.9091316094312,14200,2018-03-30 05:10:31,1694.851763235267,47.100001507200005,0.0,0.513179016421728,1694.851763235267,47.100001507200005,0.35999970196000003,0.69853502235312,1684,0.0,98,P-GPS,
0.337732135743761,36.9091315989383,14300,2018-03-30 05:10:31,1695.351763251267,47.6000015232,0.0,0.512994016415808,1695.351763251267,47.6000015232,0.35999970196000003,0.69853502235312,1684,0.0,98,P-GPS,
0.337732128598148,36.9091315899979,14400,2018-03-30 05:10:31,1695.851763267267,48.1000015392,0.0,0.513611016435552,1695.851763267267,48.1000015392,0.35999970196000003,0.69853502235312,1684,0.0,98,P-GPS,
0.337732132826403,36.909131553257,14500,2018-03-30 05:10:31,1696.351763283267,48.6000015552,0.0,0.512482016399424,1696.351763283267,48.6000015552,0.35999970196000003,0.69853502235312,1684,0.0,98,P-GPS,
0.337732126418476,36.9091315157807,14600,2018-03-30 05:10:31,1696.9517633024668,49.200001574400005,0.0,0.512542016401344,1696.9517633024668,49.200001574400005,0.35999970196000003,0.69853502235312,1684,0.0,98,P-GPS,
0.337732127982596,36.9091314735885,14700,2018-03-30 05:10:31,1697.451763318467,49.70000159040001,0.0,0.511684016373888,1697.451763318467,49.70000159040001,0.35999970196000003,0.69853502235312,1684,0.0,97,P-GPS,
0.337732118969159,36.9091314498452,14800,2018-03-30 05:10:32,1697.951763334467,50.20000160640001,0.0,0.512309016393888,1697.951763334467,50.20000160640001,0.35999970196000003,0.69853502235312,1684,0.0,97,P-GPS,
0.337732120515367,36.9091314433787,14900,2018-03-30 05:10:32,1698.451763350467,50.7000016224,0.0,0.5120410163853121,1698.451763350467,50.7000016224,0.35999970196000003,0.69853502235312,1684,0.0,97,P-GPS,
0.337732114193747,36.9091314585151,15000,2018-03-30 05:10:32,1698.951763366467,51.2000016384,0.0,0.512967016414944,1698.951763366467,51.2000016384,0.35999970196000003,0.69853502235312,1684,0.0,97,P-GPS,
0.337732118039317,36.9091314557989,15100,2018-03-30 05:10:32,1699.451763382467,51.700001654400005,0.0,0.5125020164000641,1699.451763382467,51.700001654400005,0.35999970196000003,0.69853502235312,1684,0.0,97,P-GPS,
0.337732108795455,36.9091314325138,15200,2018-03-30 05:10:32,1699.951763398467,52.200001670400006,0.0,0.513171016421472,1699.951763398467,52.200001670400006,0.35999970196000003,0.69853502235312,1684,0.0,97,P-GPS,
0.337732094603566,36.9091314108266,15300,2018-03-30 05:10:32,1700.4517634144668,52.70000168640001,0.0,0.5144230164615361,1700.4517634144668,52.70000168640001,0.35999970196000003,0.69853502235312,1684,0.0,97,P-GPS,
0.337732061719582,36.9091314024373,15400,2018-03-30 05:10:32,1700.951763430467,53.2000017024,0.0,0.517933016573856,1700.951763430467,53.2000017024,0.35999970196000003,0.69853502235312,1684,0.0,97,P-GPS,
0.337732042608163,36.9091313991339,15500,2018-03-30 05:10:32,1701.4517634464669,53.7000017184,0.0,0.519996016639872,1701.4517634464669,53.7000017184,0.35999970196000003,0.69853502235312,1684,0.0,97,P-GPS,
0.337732028987857,36.9091314039447,15600,2018-03-30 05:10:32,1701.951763462467,54.200001734400004,0.0,0.52156501669008,1701.951763462467,54.200001734400004,0.35999970196000003,0.69853502235312,1684,0.0,97,P-GPS,
0.337732028715093,36.9091313923106,15700,2018-03-30 05:10:33,1702.551763481667,54.8000017536,0.0,0.521436016685952,1702.551763481667,54.8000017536,0.35999970196000003,0.69853502235312,1684,0.0,97,P-GPS,
0.337732022574231,36.9091313714178,15800,2018-03-30 05:10:33,1703.0517634976668,55.3000017696,0.0,0.521837016698784,1703.0517634976668,55.3000017696,0.35999970196000003,0.69853502235312,1684,0.0,97,P-GPS,
0.337732022991112,36.9091313476887,15900,2018-03-30 05:10:33,1703.551763513667,55.8000017856,0.0,0.521488016687616,1703.551763513667,55.8000017856,0.35999970196000003,0.69853502235312,1684,0.0,97,P-GPS,
0.337732012636651,36.9091313364237,16000,2018-03-30 05:10:33,1704.051763529667,56.3000018016,0.0,0.522494016719808,1704.051763529667,56.3000018016,0.35999970196000003,0.69853502235312,1684,0.0,97,P-GPS,
0.33773199353826,36.9091313270411,16100,2018-03-30 05:10:33,1704.551763545667,56.8000018176,0.0,0.524492016783744,1704.551763545667,56.8000018176,0.35999970196000003,0.69853502235312,1684,0.0,97,P-GPS,
0.337731954188539,36.9091313268861,16200,2018-03-30 05:10:33,1705.0517635616668,57.3000018336,0.0,0.5288410169229121,1705.0517635616668,57.3000018336,0.35999970196000003,0.69853502235312,1684,0.0,97,P-GPS,
0.337731931709498,36.9091313201361,16300,2018-03-30 05:10:33,1705.551763577667,57.8000018496,0.0,0.531248016999936,1705.551763577667,57.8000018496,0.35999970196000003,0.69853502235312,1684,0.0,97,P-GPS,
0.337731918256923,36.9091313167942,16400,2018-03-30 05:10:33,1706.051763593667,58.30000186560001,0.0,0.532697017046304,1706.051763593667,58.30000186560001,0.35999970196000003,0.69853502235312,1684,0.0,97,P-GPS,
0.337731916065851,36.9091313204817,16500,2018-03-30 05:10:33,1706.551763609667,58.8000018816,0.0,0.532982017055424,1706.551763609667,58.8000018816,0.35999970196000003,0.69853502235312,1684,0.0,97,P-GPS,
0.337731908545697,36.9091313281342,16600,2018-03-30 05:10:33,1707.051763625667,59.3000018976,0.0,0.5339030170848961,1707.051763625667,59.3000018976,0.35999970196000003,0.69853502235312,1684,0.0,97,P-GPS,
0.337731915780874,36.9091313170736,16700,2018-03-30 05:10:33,1707.5517636416669,59.800001913600006,0.0,0.532974017055168,1707.5517636416669,59.800001913600006,0.35999970196000003,0.69853502235312,1684,0.0,97,P-GPS,
0.33773191367611,36.909131299014,16800,2018-03-30 05:10:34,1708.051763657667,60.30000192960001,0.0,0.5330030170560961,1708.051763657667,60.30000192960001,0.35999970196000003,0.69853502235312,1684,0.0,97,P-GPS,
0.33773192435056,36.909131275098,16900,2018-03-30 05:10:34,1708.551763673667,60.80000194560001,0.0,0.5315630170100161,1708.551763673667,60.80000194560001,0.35999970196000003,0.69853502235312,1684,0.0,97,P-GPS,
0.337731929660102,36.9091312622185,17000,2018-03-30 05:10:34,1709.051763689667,61.3000019616,0.0,0.530841016986912,1709.051763689667,61.3000019616,0.35999970196000003,0.69853502235312,1684,0.0,97,P-GPS,
0.337731947962184,36.9091312283525,17100,2018-03-30 05:10:34,1709.6517637088668,61.900001980800006,0.0,0.528479016911328,1709.6517637088668,61.900001980800006,0.35999970196000003,0.69853502235312,1684,0.0,97,P-GPS,
0.337731959592531,36.9091311927037,17200,2018-03-30 05:10:34,1710.1517637248671,62.4000019968,0.0,0.52686501685968,1710.1517637248671,62.4000019968,0.35999970196000003,0.69853502235312,1684,0.0,97,P-GPS,
0.337732001836811,36.909131157799,17300,2018-03-30 05:10:34,1710.651763740867,62.9000020128,0.0,0.5218890167004481,1710.651763740867,62.9000020128,0.35999970196000003,0.69853502235312,1684,0.0,97,P-GPS,
0.33773205301392,36.9091311463841,17400,2018-03-30 05:10:34,1711.1517637568668,63.4000020288,0.0,0.5161220165159041,1711.1517637568668,63.4000020288,0.35999970196000003,0.69853502235312,1684,0.0,97,P-GPS,
0.337732115331215,36.9091311356846,17500,2018-03-30 05:10:34,1711.651763772867,63.900002044800004,0.0,0.509126016292032,1711.651763772867,63.900002044800004,0.35999970196000003,0.69853502235312,1684,0.0,97,P-GPS,
0.33773214954808,36.9091311363917,17600,2018-03-30 05:10:34,1712.151763788867,64.4000020608,0.0,0.505336016170752,1712.151763788867,64.4000020608,0.35999970196000003,0.69853502235312,1684,0.0,97,P-GPS,
0.337732189499511,36.9091311171809,17700,2018-03-30 05:10:35,1712.651763804867,64.9000020768,0.0,0.5007590160242881,1712.651763804867,64.9000020768,0.35999970196000003,0.69853502235312,1684,0.0,97,P-GPS,
0.337732220308857,36.909131088301,17800,2018-03-30 05:10:35,1713.151763820867,65.40000209280001,0.0,0.497138015908416,1713.151763820867,65.40000209280001,0.35999970196000003,0.69853502235312,1684,0.0,97,P-GPS,
0.337732247527485,36.9091310568972,17900,2018-03-30 05:10:35,1713.651763836867,65.90000210880001,0.0,0.493919015805408,1713.651763836867,65.90000210880001,0.35999970196000003,0.69853502235312,1684,0.0,97,P-GPS,
0.337732253482704,36.909131043495,18000,2018-03-30 05:10:35,1714.151763852867,66.40000212480001,0.0,0.493181015781792,1714.151763852867,66.40000212480001,0.35999970196000003,0.69853502235312,1684,0.0,97,P-GPS,
0.337732273007748,36.9091310114517,18100,2018-03-30 05:10:35,1714.6517638688672,66.9000021408,0.0,0.49084601570707204,1714.6517638688672,66.9000021408,0.35999970196000003,0.69853502235312,1684,0.0,97,P-GPS,
0.337732305434139,36.90913097892,18200,2018-03-30 05:10:35,1715.151763884867,67.4000021568,0.0,0.4871000155872,1715.151763884867,67.4000021568,0.35999970196000003,0.69853502235312,1684,0.0,97,P-GPS,
0.33773235013167,36.9091309484428,18300,2018-03-30 05:10:35,1715.6517639008669,67.9000021728,0.0,0.482022015424704,1715.6517639008669,67.9000021728,0.35999970196000003,0.69853502235312,1684,0.0,97,P-GPS,
0.337732375973447,36.9091309355959,18400,2018-03-30 05:10:35,1716.251763920067,68.500002192,0.0,0.47910901533148803,1716.251763920067,68.500002192,0.35999970196000003,0.69853502235312,1684,0.0,97,P-GPS,
0.337732406224237,36.9091309193081,18500,2018-03-30 05:10:35,1716.751763936067,69.000002208,0.0,0.475702015222464,1716.751763936067,69.000002208,0.35999970196000003,0.69853502235312,1684,0.0,97,P-GPS,
0.337732430248672,36.9091309111562,18600,2018-03-30 05:10:35,1717.251763952067,69.500002224,0.0,0.473011015136352,1717.251763952067,69.500002224,0.35999970196000003,0.69853502235312,1684,0.0,97,P-GPS,
0.337732467129671,36.9091309064979,18700,2018-03-30 05:10:35,1717.751763968067,70.00000224,0.0,0.46889901500476805,1717.751763968067,70.00000224,0.35999970196000003,0.69853502235312,1684,0.0,97,P-GPS,
0.337732500409367,36.9091309064755,18800,2018-03-30 05:10:36,1718.2517639840669,70.500002256,0.0,0.465199014886368,1718.2517639840669,70.500002256,0.35999970196000003,0.69853502235312,1684,0.0,97,P-GPS,
0.33773253480129,36.9091309050374,18900,2018-03-30 05:10:36,1718.751764000067,71.000002272,0.0,0.461372014763904,1718.751764000067,71.000002272,0.35999970196000003,0.69853502235312,1684,0.0,97,P-GPS,
0.337732549624202,36.9091309035034,19000,2018-03-30 05:10:36,1719.251764016067,71.500002288,0.0,0.459721014711072,1719.251764016067,71.500002288,0.35999970196000003,0.69853502235312,1684,0.0,97,P-GPS,
0.337732579544417,36.90913090402,19100,2018-03-30 05:10:36,1719.751764032067,72.000002304,0.0,0.45639501460464005,1719.751764032067,72.000002304,0.35999970196000003,0.69853502235312,1684,0.0,97,P-GPS,
0.337732609721113,36.9091309087837,19200,2018-03-30 05:10:36,1720.251764048067,72.50000232,0.0,0.453051014497632,1720.251764048067,72.50000232,0.35999970196000003,0.69853502235312,1684,0.0,97,P-GPS,
0.337732635439943,36.9091309163963,19300,2018-03-30 05:10:36,1720.751764064067,73.00000233600001,0.0,0.45021101440675204,1720.751764064067,73.00000233600001,0.35999970196000003,0.69853502235312,1684,0.0,97,P-GPS,
0.337732641991173,36.9091309267583,19400,2018-03-30 05:10:36,1721.251764080067,73.50000235200001,0.0,0.44951101438435204,1721.251764080067,73.50000235200001,0.35999970196000003,0.69853502235312,1684,0.0,97,P-GPS,
0.337732660954404,36.9091309413361,19500,2018-03-30 05:10:36,1721.751764096067,74.00000236800001,0.0,0.44744801431833603,1721.751764096067,74.00000236800001,0.35999970196000003,0.69853502235312,1684,0.0,97,P-GPS,
0.337732683801473,36.9091309569579,19600,2018-03-30 05:10:36,1722.251764112067,74.50000238400001,0.0,0.444964014238848,1722.251764112067,74.50000238400001,0.35999970196000003,0.69853502235312,1684,0.0,97,P-GPS,
0.337732724729156,36.9091309492342,19700,2018-03-30 05:10:37,1722.751764128067,75.0000024,0.0,0.440387014092384,1722.751764128067,75.0000024,0.35999970196000003,0.69853502235312,1684,0.0,97,P-GPS,
0.337732755366701,36.9091309300397,19800,2018-03-30 05:10:37,1723.251764144067,75.500002416,0.0,0.436917013981344,1723.251764144067,75.500002416,0.35999970196000003,0.69853502235312,1684,0.0,97,P-GPS,
0.337732784895276,36.9091309039833,19900,2018-03-30 05:10:37,1723.7517641600668,76.000002432,0.0,0.433564013874048,1723.7517641600668,76.000002432,0.35999970196000003,0.69853502235312,1684,0.0,97,P-GPS,
0.337732786519649,36.9091308948898,20000,2018-03-30 05:10:37,1724.351764179267,76.6000024512,0.0,0.433363013867616,1724.351764179267,76.6000024512,0.35999970196000003,0.69853502235312,1684,0.0,97,P-GPS,
0.337732806619534,36.9091308785485,20100,2018-03-30 05:10:37,1724.851764195267,77.1000024672,0.0,0.431097013795104,1724.851764195267,77.1000024672,0.35999970196000003,0.69853502235312,1684,0.0,97,P-GPS,
0.337732834116625,36.9091308694485,20200,2018-03-30 05:10:37,1725.3517642112668,77.6000024832,0.0,0.428026013696832,1725.3517642112668,77.6000024832,0.35999970196000003,0.69853502235312,1684,0.0,97,P-GPS,
0.337732874020831,36.9091308555444,20300,2018-03-30 05:10:37,1725.851764227267,78.1000024992,0.0,0.42357201355430407,1725.851764227267,78.1000024992,0.35999970196000003,0.69853502235312,1684,0.0,97,P-GPS,
0.337732896594321,36.9091308509932,20400,2018-03-30 05:10:37,1726.3517642432669,78.6000025152,0.0,0.421058013473856,1726.3517642432669,78.6000025152,0.35999970196000003,0.69853502235312,1684,0.0,97,P-GPS,
0.33773293604012,36.9091308468481,20500,2018-03-30 05:10:37,1726.751764256067,79.000002528,0.0,0.416668013333376,1726.751764256067,79.000002528,0.35999970196000003,0.69853502235312,1684,0.0,97,P-GPS,
0.33773296857236,36.9091308514212,20600,2018-03-30 05:10:37,1727.2517642720668,79.500002544,0.0,0.413054013217728,1727.2517642720668,79.500002544,0.35999970196000003,0.69853502235312,1684,0.0,97,P-GPS,
0.337733014972429,36.9091308516195,20700,2018-03-30 05:10:37,1727.751764288067,80.00000256,0.0,0.40789401305260803,1727.751764288067,80.00000256,0.35999970196000003,0.69853502235312,1684,0.0,97,P-GPS,
0.337733048541174,36.9091308535094,20800,2018-03-30 05:10:38,1728.251764304067,80.500002576,0.0,0.404163012933216,1728.251764304067,80.500002576,0.35999970196000003,0.69853502235312,1684,0.0,97,P-GPS,
0.337733088184014,36.9091308578452,20900,2018-03-30 05:10:38,1728.751764320067,81.000002592,0.0,0.39976001279232,1728.751764320067,81.000002592,0.35999970196000003,0.69853502235312,1684,0.0,97,P-GPS,
0.337733103861045,36.9091308671684,21000,2018-03-30 05:10:38,1729.351764339267,81.6000026112,0.0,0.39802801273689603,1729.351764339267,81.6000026112,0.35999970196000003,0.69853502235312,1545,0.0,97,P-GPS,
0.337733162091759,36.9091308297723,21200,2018-03-30 05:10:38,1730.351764371267,82.60000264320001,0.0,0.391521012528672,1730.351764371267,82.60000264320001,0.35999970196000003,0.69853502235312,1442,0.0,97,P-GPS,
0.337733207874648,36.9091307901788,21300,2018-03-30 05:10:38,1730.851764387267,83.10000265920002,0.0,0.386444012366208,1730.851764387267,83.10000265920002,0.35999970196000003,0.69853502235312,1322,0.0,97,P-GPS,
0.337733244802058,36.9091307726579,21400,2018-03-30 05:10:38,1731.251764400067,83.500002672,0.0,0.382361012235552,1731.251764400067,83.500002672,0.35999970196000003,0.69853502235312,1322,0.0,97,P-GPS,
0.337733278924474,36.9091307472316,21500,2018-03-30 05:10:38,1731.7517644160669,84.000002688,0.0,0.378618012115776,1731.7517644160669,84.000002688,0.35999970196000003,0.69853502235312,1348,0.0,97,P-GPS,
0.337733283695001,36.9091307251807,21600,2018-03-30 05:10:38,1732.051764425667,84.30000269760001,0.0,0.378149012100768,1732.051764425667,84.30000269760001,0.35999970196000003,0.69853502235312,1427,0.0,97,P-GPS,
0.337733305977814,36.9091306825473,21700,2018-03-30 05:10:39,1732.3517644352671,84.60000270719999,0.0,0.37583701202678405,1732.3517644352671,84.60000270719999,0.35999970196000003,0.69853502235312,1428,0.0,97,P-GPS,
0.337733328148265,36.9091306426687,21800,2018-03-30 05:10:39,1732.5517644416668,84.80000271360001,0.0,0.37358301195465604,1732.5517644416668,84.80000271360001,0.35999970196000003,0.69853502235312,1389,0.0,97,P-GPS,
0.337733378118697,36.9091306156687,21900,2018-03-30 05:10:39,1732.751764448067,85.00000272,0.0,0.368209011782688,1732.751764448067,85.00000272,0.35999970196000003,0.69853502235312,1389,0.0,97,P-GPS,
0.337733442577396,36.9091306230399,22000,2018-03-30 05:10:39,1733.051764457667,85.30000272960001,0.0,0.361004011552128,1733.051764457667,85.30000272960001,0.35999970196000003,0.69853502235312,1045,0.0,97,P-GPS,
0.337733535555035,36.909130623016,22100,2018-03-30 05:10:39,1733.251764464067,85.500002736,0.0,0.35068401122188797,1733.251764464067,85.500002736,0.35999970196000003,0.69853502235312,1024,0.0,97,P-GPS,
0.33773360542831,36.9091306145267,22200,2018-03-30 05:10:39,1733.451764470467,85.7000027424,0.0,0.342992010975744,1733.451764470467,85.7000027424,0.35999970196000003,0.69853502235312,1024,0.0,97,P-GPS,
0.337733655524946,36.909130590924,22300,2018-03-30 05:10:39,1733.551764473667,85.80000274560001,0.0,0.337622010803904,1733.551764473667,85.80000274560001,0.35999970196000003,0.69853502235312,1024,0.0,97,P-GPS,
0.337733659053785,36.9091305703825,22400,2018-03-30 05:10:39,1733.651764476867,85.9000027488,0.0,0.337413010797216,1733.651764476867,85.9000027488,0.35999970196000003,0.69853502235312,1024,0.0,97,P-GPS,
0.337733666429007,36.9091305444922,22500,2018-03-30 05:10:39,1733.7517644800669,86.000002752,0.0,0.336846010779072,1733.7517644800669,86.000002752,0.35999970196000003,0.69853502235312,1024,0.0,97,P-GPS,
0.337733668285434,36.9091305294613,22600,2018-03-30 05:10:39,1733.7517644800669,86.000002752,0.0,0.336798010777536,1733.7517644800669,86.000002752,0.35999970196000003,0.69853502235312,1024,0.0,97,P-GPS,
0.337733691482618,36.9091305137221,22700,2018-03-30 05:10:39,1733.7517644800669,86.000002752,0.0,0.33440501070096,1733.7517644800669,86.000002752,0.35999970196000003,0.69853502235312,1024,0.0,97,P-GPS,
0.337733713745076,36.9091305080535,22800,2018-03-30 05:10:40,1733.7517644800669,86.000002752,0.0,0.332008010624256,1733.7517644800669,86.000002752,0.35999970196000003,0.69853502235312,1024,0.0,97,P-GPS,
0.337733758924627,36.9091304880437,22900,2018-03-30 05:10:40,1733.7517644800669,86.000002752,0.0,0.32725601047219205,1733.7517644800669,86.000002752,0.35999970196000003,0.69853502235312,1024,0.0,97,P-GPS,
0.337733792143256,36.9091304609196,23000,2018-03-30 05:10:40,1733.7517644800669,86.000002752,0.0,0.323946010366272,1733.7517644800669,86.000002752,0.35999970196000003,0.69853502235312,1024,0.0,97,P-GPS,
0.337733843851238,36.909130433623,23100,2018-03-30 05:10:40,1733.851764483267,86.10000275520001,0.0,0.318637010196384,1733.851764483267,86.10000275520001,0.35999970196000003,0.69853502235312,1024,0.0,97,P-GPS,
0.337733876995773,36.9091304205749,23200,2018-03-30 05:10:40,1733.851764483267,86.10000275520001,0.0,0.31518801008601605,1733.851764483267,86.10000275520001,0.35999970196000003,0.69853502235312,1024,0.0,97,P-GPS,
0.337733918911107,36.9091304053685,23300,2018-03-30 05:10:40,1733.851764483267,86.10000275520001,0.0,0.310821009946272,1733.851764483267,86.10000275520001,0.35999970196000003,0.69853502235312,1024,0.0,97,P-GPS,
0.337733931779886,36.9091303936567,23400,2018-03-30 05:10:40,1733.851764483267,86.10000275520001,0.0,0.30960400990732806,1733.851764483267,86.10000275520001,0.35999970196000003,0.69853502235312,1024,0.0,97,P-GPS,
0.337733965668619,36.9091303816343,23500,2018-03-30 05:10:40,1733.851764483267,86.10000275520001,0.0,0.30609100979491205,1733.851764483267,86.10000275520001,0.35999970196000003,0.69853502235312,1024,0.0,97,P-GPS,
0.337733991928093,36.9091303695069,23600,2018-03-30 05:10:40,1733.851764483267,86.10000275520001,0.0,0.303429009709728,1733.851764483267,86.10000275520001,0.35999970196000003,0.69853502235312,1024,0.0,97,P-GPS,
0.337734040472009,36.9091303582445,23700,2018-03-30 05:10:41,1733.851764483267,86.10000275520001,0.0,0.298321009546272,1733.851764483267,86.10000275520001,0.35999970196000003,0.69853502235312,1024,0.0,97,P-GPS,
0.337734080769484,36.9091303457984,23800,2018-03-30 05:10:41,1733.851764483267,86.10000275520001,0.0,0.294153009412896,1733.851764483267,86.10000275520001,0.35999970196000003,0.69853502235312,1024,0.0,97,P-GPS,
0.337734144764076,36.9091303213643,23900,2018-03-30 05:10:41,1733.851764483267,86.10000275520001,0.0,0.287669009205408,1733.851764483267,86.10000275520001,0.35999970196000003,0.69853502235312,1024,0.0,97,P-GPS,
0.337734190404476,36.9091302857323,24000,2018-03-30 05:10:41,1733.7517644800669,86.000002752,0.0,0.283497009071904,1733.851764483267,86.10000275520001,0.35999970196000003,0.69853502235312,1024,0.0,97,P-GPS,
0.337734259437474,36.9091302389644,24100,2018-03-30 05:10:41,1733.7517644800669,86.000002752,0.0,0.27716500886928,1733.851764483267,86.10000275520001,0.35999970196000003,0.69853502235312,1024,0.0,97,P-GPS,
0.337734309499913,36.9091301927605,24200,2018-03-30 05:10:41,1733.7517644800669,86.000002752,0.0,0.273026008736832,1733.851764483267,86.10000275520001,0.35999970196000003,0.69853502235312,1024,0.0,97,P-GPS,
0.337734381393273,36.9091301331145,24300,2018-03-30 05:10:41,1733.7517644800669,86.000002752,0.0,0.26713000854816005,1733.851764483267,86.10000275520001,0.35999970196000003,0.69853502235312,1024,0.0,97,P-GPS,
0.337734429163678,36.9091300808603,24400,2018-03-30 05:10:41,1733.7517644800669,86.000002752,0.0,0.263801008441632,1733.851764483267,86.10000275520001,0.35999970196000003,0.69853502235312,1024,0.0,97,P-GPS,
0.337734491621833,36.9091300253981,24500,2018-03-30 05:10:41,1733.7517644800669,86.000002752,0.0,0.25925200829606404,1733.851764483267,86.10000275520001,0.35999970196000003,0.69853502235312,1024,0.0,97,P-GPS,
0.337734537838702,36.9091299796758,24600,2018-03-30 05:10:41,1733.7517644800669,86.000002752,0.0,0.256241008199712,1733.851764483267,86.10000275520001,0.35999970196000003,0.69853502235312,1024,0.0,97,P-GPS,
0.337734601008488,36.9091299261204,24700,2018-03-30 05:10:41,1733.7517644800669,86.000002752,0.0,0.252009008064288,1733.851764483267,86.10000275520001,0.35999970196000003,0.69853502235312,1024,0.0,97,P-GPS,
0.337734647218029,36.9091298788777,24800,2018-03-30 05:10:42,1733.7517644800669,86.000002752,0.0,0.24945800798265602,1733.851764483267,86.10000275520001,0.35999970196000003,0.69853502235312,1024,0.0,97,P-GPS,
0.337734710560429,36.9091298258618,24900,2018-03-30 05:10:42,1733.7517644800669,86.000002752,0.0,0.24568400786188802,1733.851764483267,86.10000275520001,0.35999970196000003,0.69853502235312,1024,0.0,97,P-GPS,
0.337734757961991,36.9091297814759,25000,2018-03-30 05:10:42,1733.7517644800669,86.000002752,0.0,0.24329700778550403,1733.851764483267,86.10000275520001,0.35999970196000003,0.69853502235312,1024,0.0,97,P-GPS,
0.337734819209398,36.9091297321888,25100,2018-03-30 05:10:42,1733.7517644800669,86.000002752,0.0,0.240046007681472,1733.851764483267,86.10000275520001,0.35999970196000003,0.69853502235312,1024,0.0,97,P-GPS,
0.33773486107995,36.9091296933437,25200,2018-03-30 05:10:42,1733.7517644800669,86.000002752,0.0,0.238283007625056,1733.851764483267,86.10000275520001,0.35999970196000003,0.69853502235312,1024,0.0,97,P-GPS,
0.337734915844522,36.9091296637323,25300,2018-03-30 05:10:42,1733.7517644800669,86.000002752,0.0,0.234916007517312,1733.851764483267,86.10000275520001,0.35999970196000003,0.69853502235312,1024,0.0,97,P-GPS,
0.337734951277021,36.909129655644,25400,2018-03-30 05:10:42,1733.7517644800669,86.000002752,0.0,0.232131007428192,1733.851764483267,86.10000275520001,0.35999970196000003,0.69853502235312,1024,0.0,97,P-GPS,
0.337734970416123,36.9091296524697,25500,2018-03-30 05:10:42,1733.7517644800669,86.000002752,0.0,0.230568007378176,1733.851764483267,86.10000275520001,0.35999970196000003,0.69853502235312,1024,0.0,97,P-GPS,
0.337735024255738,36.909129624701,25600,2018-03-30 05:10:42,1733.7517644800669,86.000002752,0.0,0.22744100727811203,1733.851764483267,86.10000275520001,0.35999970196000003,0.69853502235312,1024,0.0,97,P-GPS,
0.337735067374086,36.9091295864815,25700,2018-03-30 05:10:43,1733.7517644800669,86.000002752,0.0,0.22612600723603202,1733.851764483267,86.10000275520001,0.35999970196000003,0.69853502235312,1024,0.0,97,P-GPS,
0.337735075247612,36.9091295514285,25800,2018-03-30 05:10:43,1733.7517644800669,86.000002752,0.0,0.22782700729046404,1733.851764483267,86.10000275520001,0.35999970196000003,0.69853502235312,1024,0.0,97,P-GPS,
0.337735097985983,36.9091295184216,25900,2018-03-30 05:10:43,1733.7517644800669,86.000002752,0.0,0.228162007301184,1733.851764483267,86.10000275520001,0.35999970196000003,0.69853502235312,1024,0.0,97,P-GPS,
0.337735117424312,36.9091295035098,26000,2018-03-30 05:10:43,1733.7517644800669,86.000002752,0.0,0.22756100728195203,1733.851764483267,86.10000275520001,0.35999970196000003,0.69853502235312,1024,0.0,97,P-GPS,
0.337735157626523,36.9091294793892,26100,2018-03-30 05:10:43,1733.651764476867,85.9000027488,0.0,0.225922007229504,1733.851764483267,86.10000275520001,0.35999970196000003,0.69853502235312,1024,0.0,97,P-GPS,
0.337735187703069,36.9091294552869,26200,2018-03-30 05:10:43,1733.651764476867,85.9000027488,0.0,0.225222007207104,1733.851764483267,86.10000275520001,0.35999970196000003,0.69853502235312,1024,0.0,97,P-GPS,
0.337735219886008,36.9091294350905,26300,2018-03-30 05:10:43,1733.651764476867,85.9000027488,0.0,0.224132007172224,1733.851764483267,86.10000275520001,0.35999970196000003,0.69853502235312,1024,0.0,97,P-GPS,
0.33773522232786,36.90912943177,26400,2018-03-30 05:10:43,1733.651764476867,85.9000027488,0.0,0.224189007174048,1733.851764483267,86.10000275520001,0.35999970196000003,0.69853502235312,1024,0.0,97,P-GPS,
0.337735243804186,36.9091294311087,26500,2018-03-30 05:10:43,1733.7517644800669,86.000002752,0.0,0.222516007120512,1733.851764483267,86.10000275520001,0.35999970196000003,0.69853502235312,1024,0.0,97,P-GPS,
0.337735255618141,36.9091294382272,26600,2018-03-30 05:10:43,1733.7517644800669,86.000002752,0.0,0.22102200707270403,1733.851764483267,86.10000275520001,0.35999970196000003,0.69853502235312,1024,0.0,97,P-GPS,
0.337735273671885,36.9091294461916,26700,2018-03-30 05:10:43,1733.7517644800669,86.000002752,0.0,0.21896500700688,1733.851764483267,86.10000275520001,0.35999970196000003,0.69853502235312,1024,0.0,97,P-GPS,
0.337735266975316,36.909129457279,26800,2018-03-30 05:10:44,1733.7517644800669,86.000002752,0.0,0.218641006996512,1733.851764483267,86.10000275520001,0.35999970196000003,0.69853502235312,1024,0.0,97,P-GPS,
0.337735288305083,36.9091294668079,26900,2018-03-30 05:10:44,1733.651764476867,85.9000027488,0.0,0.216199006918368,1733.851764483267,86.10000275520001,0.35999970196000003,0.69853502235312,1024,0.0,97,P-GPS,
0.337735307252843,36.9091294803085,27000,2018-03-30 05:10:44,1733.651764476867,85.9000027488,0.0,0.213642006836544,1733.851764483267,86.10000275520001,0.35999970196000003,0.69853502235312,1024,0.0,97,P-GPS,
0.337735343874513,36.9091294701211,27100,2018-03-30 05:10:44,1733.651764476867,85.9000027488,0.0,0.21154900676956803,1733.851764483267,86.10000275520001,0.35999970196000003,0.69853502235312,1024,0.0,97,P-GPS,
0.33773535758764,36.9091294489084,27200,2018-03-30 05:10:44,1733.651764476867,85.9000027488,0.0,0.21216900678940803,1733.851764483267,86.10000275520001,0.35999970196000003,0.69853502235312,1024,0.0,97,P-GPS,
0.33773537812639,36.9091294198398,27300,2018-03-30 05:10:44,1733.651764476867,85.9000027488,0.0,0.212944006814208,1733.851764483267,86.10000275520001,0.35999970196000003,0.69853502235312,1024,0.0,97,P-GPS,
0.337735376914013,36.9091294046099,27400,2018-03-30 05:10:44,1733.651764476867,85.9000027488,0.0,0.214278006856896,1733.851764483267,86.10000275520001,0.35999970196000003,0.69853502235312,1024,0.0,97,P-GPS,
0.337735381979695,36.9091293842839,27500,2018-03-30 05:10:44,1733.651764476867,85.9000027488,0.0,0.215567006898144,1733.851764483267,86.10000275520001,0.35999970196000003,0.69853502235312,1024,0.0,97,P-GPS,
0.337735371842224,36.909129377695,27600,2018-03-30 05:10:44,1733.651764476867,85.9000027488,0.0,0.21686700693974403,1733.851764483267,86.10000275520001,0.35999970196000003,0.69853502235312,1024,0.0,97,P-GPS,
0.337735382706388,36.9091293673442,27700,2018-03-30 05:10:45,1733.7517644800669,86.000002752,0.0,0.216913006941216,1733.851764483267,86.10000275520001,0.35999970196000003,0.69853502235312,1024,0.0,96,P-GPS,
0.337735402287206,36.9091293638312,27800,2018-03-30 05:10:45,1733.651764476867,85.9000027488,0.0,0.215762006904384,1733.851764483267,86.10000275520001,0.35999970196000003,0.69853502235312,1024,0.0,96,P-GPS,
0.337735442058694,36.9091293568315,27900,2018-03-30 05:10:45,1733.651764476867,85.9000027488,0.0,0.213462006830784,1733.851764483267,86.10000275520001,0.35999970196000003,0.69853502235312,1024,0.0,96,P-GPS,
0.337735450152468,36.9091293593199,28000,2018-03-30 05:10:45,1733.651764476867,85.9000027488,0.0,0.21267000680544002,1733.851764483267,86.10000275520001,0.35999970196000003,0.69853502235312,1024,0.0,96,P-GPS,
0.337735467724192,36.9091293581839,28100,2018-03-30 05:10:45,1733.651764476867,85.9000027488,0.0,0.211513006768416,1733.851764483267,86.10000275520001,0.35999970196000003,0.69853502235312,1024,0.0,96,P-GPS,
0.337735468252623,36.9091293602507,28200,2018-03-30 05:10:45,1733.651764476867,85.9000027488,0.0,0.21129800676153604,1733.851764483267,86.10000275520001,0.35999970196000003,0.69853502235312,1024,0.0,96,P-GPS,
0.337735477404885,36.9091293609676,28300,2018-03-30 05:10:45,1733.7517644800669,86.000002752,0.0,0.210588006738816,1733.851764483267,86.10000275520001,0.35999970196000003,0.69853502235312,1024,0.0,96,P-GPS,
0.337735469021655,36.9091293644388,28400,2018-03-30 05:10:45,1733.7517644800669,86.000002752,0.0,0.21088600674835203,1733.851764483267,86.10000275520001,0.35999970196000003,0.69853502235312,1024,0.0,96,P-GPS,
0.337735470665569,36.9091293463898,28500,2018-03-30 05:10:45,1733.7517644800669,86.000002752,0.0,0.21231500679408002,1733.851764483267,86.10000275520001,0.35999970196000003,0.69853502235312,1024,0.0,96,P-GPS,
0.337735461304866,36.9091293187678,28600,2018-03-30 05:10:45,1733.7517644800669,86.000002752,0.0,0.215353006891296,1733.851764483267,86.10000275520001,0.35999970196000003,0.69853502235312,1024,0.0,96,P-GPS,
0.337735448044854,36.9091292732382,28700,2018-03-30 05:10:46,1733.7517644800669,86.000002752,0.0,0.220221007047072,1733.851764483267,86.10000275520001,0.35999970196000003,0.69853502235312,1024,0.0,96,P-GPS,
0.337735384108886,36.909129216787,28800,2018-03-30 05:10:46,1733.7517644800669,86.000002752,0.35999970196000003,0.22956800734617602,1733.851764483267,86.10000275520001,0.35999970196000003,0.69853502235312,1024,0.0,96,P-GPS,
0.337735268831742,36.9091291227332,28900,2018-03-30 05:10:46,1733.7517644800669,86.000002752,0.7199994039200001,0.245786007865152,1733.851764483267,86.10000275520001,0.7199994039200001,0.69853502235312,1024,0.0,96,P-GPS,
0.337735064449807,36.9091289938759,29000,2018-03-30 05:10:46,1733.7517644800669,86.000002752,0.7919993443119999,0.271467008686944,1733.851764483267,86.10000275520001,0.7919993443119999,0.69853502235312,1024,0.0,96,P-GPS,
0.337734384940024,36.9091285191713,29200,2018-03-30 05:10:46,1733.7517644800669,86.000002752,2.087998271368,0.361728011575296,1733.851764483267,86.10000275520001,2.087998271368,0.69853502235312,1024,0.0,96,P-GPS,
0.337733854206513,36.9091281453883,29300,2018-03-30 05:10:46,1733.7517644800669,86.000002752,2.9159975858759997,0.43302001385664,1733.851764483267,86.10000275520001,2.9159975858759997,0.69853502235312,1024,0.0,96,P-GPS,
0.33773314284518,36.9091276753759,29400,2018-03-30 05:10:46,1733.7517644800669,86.000002752,3.383997198424,0.526662016853184,1733.851764483267,86.10000275520001,3.383997198424,0.69853502235312,1024,0.0,96,P-GPS,
0.337732238182659,36.9091270774299,29500,2018-03-30 05:10:46,1733.7517644800669,86.000002752,4.211996512932,0.6462590206802881,1733.851764483267,86.10000275520001,4.211996512932,0.69853502235312,1024,0.0,96,P-GPS,
0.337731129162629,36.9091263680955,29600,2018-03-30 05:10:46,1733.7517644800669,86.000002752,5.507995439988,0.791633025332256,1733.851764483267,86.10000275520001,5.507995439988,0.791633025332256,1024,0.0,96,P-GPS,
0.337729815022166,36.9091255195985,29700,2018-03-30 05:10:47,1733.7517644800669,86.000002752,6.2999947843,0.9648380308748161,1733.851764483267,86.10000275520001,6.2999947843,0.9648380308748161,1024,0.0,96,P-GPS,
0.337728298988843,36.9091245494228,29800,2018-03-30 05:10:47,1733.7517644800669,86.000002752,7.271993979592,1.1643500372592002,1733.851764483267,86.10000275520001,7.271993979592,1.1643500372592002,1024,0.0,96,P-GPS,
