latitude,longitude,time_millisecond,datetime_utc,altitude_m,ascent_m,speed_kph,distance_m,max_altitude_m,max_ascent_m,max_speed_kph,max_distance_m,rc_throttle,gimbal_pitch_degrees,battery_percent,flycState,message
0.0769798738016295,36.8736590285058,0,2018-04-13 05:43:43,1814.7492035719667,0.0,0.0,0.0,1814.7492035719667,0.0,0.0,0.0,364,0.0,99,Motors_Started,
0.0769798588044745,36.8736590248419,100,2018-04-13 05:43:43,1814.7492035719667,0.0,0.0,0.0017168200549382401,1814.7492035719667,0.0,0.0,0.0017168200549382401,364,0.0,99,Motors_Started,
0.0769798551412897,36.8736590201045,200,2018-04-13 05:43:43,1814.7492035719667,0.0,0.0,0.00227576007282432,1814.7492035719667,0.0,0.0,0.00227576007282432,364,0.0,99,Motors_Started,
0.0769798481943477,36.8736590167595,300,2018-04-13 05:43:43,1814.7492035719667,0.0,0.0,0.0031329901002556805,1814.7492035719667,0.0,0.0,0.0031329901002556805,364,0.0,99,Motors_Started,Setting new Return-To-Home altitude to 30m (98 ft). Setting new Maximum Flight Altitude to 150m (492 ft)
0.0769798528663535,36.8736590125743,400,2018-04-13 05:43:43,1814.7492035719667,0.0,0.0,0.00292559009361888,1814.7492035719667,0.0,0.0,0.0031329901002556805,364,0.0,99,Motors_Started,
0.0769798503202813,36.8736590090901,500,2018-04-13 05:43:43,1814.7492035719667,0.0,0.0,0.00338831010842592,1814.7492035719667,0.0,0.0,0.00338831010842592,364,0.0,99,Motors_Started,
0.0769798597522289,36.8736590054597,600,2018-04-13 05:43:43,1814.7492035719667,0.0,0.0,0.0030015500960496,1814.7492035719667,0.0,0.0,0.00338831010842592,364,0.0,99,Motors_Started,
0.0769798585895199,36.8736590026231,700,2018-04-13 05:43:43,1814.7492035719667,0.0,0.0,0.00333864010683648,1814.7492035719667,0.0,0.0,0.00338831010842592,364,0.0,99,Motors_Started,
0.0769798662220369,36.8736589999867,800,2018-04-13 05:43:44,1814.7492035719667,0.0,0.0,0.0032816001050112002,1814.7492035719667,0.0,0.0,0.00338831010842592,364,0.0,99,Motors_Started,
0.0769798683137732,36.8736589971986,900,2018-04-13 05:43:44,1814.7492035719667,0.0,0.0,0.00353463011310816,1814.7492035719667,0.0,0.0,0.00353463011310816,364,0.0,99,Motors_Started,
0.0769798792194627,36.8736589943395,1000,2018-04-13 05:43:44,1814.7492035719667,0.0,0.0,0.0038469701231030403,1814.7492035719667,0.0,0.0,0.0038469701231030403,364,0.0,99,Motors_Started,
0.076979882235341,36.8736589906154,1100,2018-04-13 05:43:44,1814.7492035719667,0.0,0.0,0.004316750138136,1814.7492035719667,0.0,0.0,0.004316750138136,364,0.0,99,Motors_Started,
0.0769798925466483,36.8736589897828,1200,2018-04-13 05:43:44,1814.7492035719667,0.0,0.0,0.004784250153096,1814.7492035719667,0.0,0.0,0.004784250153096,364,0.0,99,Motors_Started,
0.076979894126239,36.8736589863314,1300,2018-04-13 05:43:44,1814.7492035719667,0.0,0.0,0.00520626016660032,1814.7492035719667,0.0,0.0,0.00520626016660032,364,0.0,99,Motors_Started,
0.0769799021894795,36.8736589856781,1400,2018-04-13 05:43:44,1814.7492035719667,0.0,0.0,0.005713960182846721,1814.7492035719667,0.0,0.0,0.005713960182846721,403,0.0,99,Motors_Started,
0.0769799027846758,36.8736589823739,1500,2018-04-13 05:43:44,1814.7492035719667,0.0,0.0,0.0060586101938755205,1814.7492035719667,0.0,0.0,0.0060586101938755205,432,0.0,99,Motors_Started,
0.0769799078825197,36.8736589838629,1600,2018-04-13 05:43:44,1814.7492035719667,0.0,0.0,0.006245870199867841,1814.7492035719667,0.0,0.0,0.006245870199867841,498,0.0,99,Assisted_Takeoff,
0.0769799061498553,36.8736589820358,1700,2018-04-13 05:43:44,1814.7492035719667,0.0,0.0,0.006296540201489281,1814.7492035719667,0.0,0.0,0.006296540201489281,649,0.0,99,Assisted_Takeoff,
0.0769799094213993,36.8736589589785,1800,2018-04-13 05:43:44,1814.7492035719667,0.0,0.0,0.00868747027799904,1814.7492035719667,0.0,0.0,0.00868747027799904,775,0.0,99,Assisted_Takeoff,
0.0769799079452148,36.8736589287836,1900,2018-04-13 05:43:45,1814.7492035719667,0.0,0.0,0.011721700375094402,1814.7492035719667,0.0,0.0,0.011721700375094402,870,0.0,99,Assisted_Takeoff,
0.0769799115579178,36.8736588991662,2000,2018-04-13 05:43:45,1814.7492035719667,0.0,0.0,0.0149837004794784,1814.7492035719667,0.0,0.0,0.0149837004794784,978,0.0,99,Assisted_Takeoff,
0.0769799098773636,36.8736588791002,2100,2018-04-13 05:43:45,1814.7492035719667,0.0,0.0,0.017092300546953598,1814.7492035719667,0.0,0.0,0.017092300546953598,1024,0.0,99,Assisted_Takeoff,
0.0769799124893878,36.8736588635756,2200,2018-04-13 05:43:45,1814.7492035719667,0.0,0.0,0.0188391006028512,1814.7492035719667,0.0,0.0,0.0188391006028512,1024,0.0,99,Assisted_Takeoff,
0.0769799102918026,36.8736588500584,2300,2018-04-13 05:43:45,1814.7492035719667,0.0,0.0,0.020255100648163202,1814.7492035719667,0.0,0.0,0.020255100648163202,1024,0.0,99,Assisted_Takeoff,
0.0769799129315103,36.8736588434061,2400,2018-04-13 05:43:45,1814.7492035719667,0.0,0.0,0.0210391006732512,1814.7492035719667,0.0,0.0,0.0210391006732512,1024,0.0,99,Assisted_Takeoff,
0.0769799105474683,36.8736588356699,2500,2018-04-13 05:43:45,1814.7492035719667,0.0,0.0,0.0218304006985728,1814.7492035719667,0.0,0.0,0.0218304006985728,1024,0.0,99,Assisted_Takeoff,
0.076979912200339,36.8736588356536,2600,2018-04-13 05:43:45,1814.7492035719667,0.0,0.0,0.0218673006997536,1814.7492035719667,0.0,0.0,0.0218673006997536,1024,0.0,99,Assisted_Takeoff,
0.076979909299266,36.8736588330826,2700,2018-04-13 05:43:45,1814.7492035719667,0.0,0.0,0.0220878007068096,1814.7492035719667,0.0,0.0,0.0220878007068096,1026,0.0,99,Assisted_Takeoff,
0.0769799112379285,36.873658837784,2800,2018-04-13 05:43:46,1814.7492035719667,0.0,0.0,0.0216141006916512,1814.7492035719667,0.0,0.0,0.0220878007068096,1156,0.0,99,Assisted_Takeoff,
0.0769799085404111,36.8736588377578,2900,2018-04-13 05:43:46,1814.7492035719667,0.0,0.0,0.021561200689958402,1814.7492035719667,0.0,0.0,0.0220878007068096,1249,0.0,99,Assisted_Takeoff,
0.0769799108869989,36.8736588442614,3000,2018-04-13 05:43:46,1814.7492035719667,0.0,0.0,0.020900000668800003,1814.7492035719667,0.0,0.0,0.0220878007068096,1295,0.0,99,Assisted_Takeoff,
0.0769799080991027,36.8736588459514,3100,2018-04-13 05:43:46,1814.7492035719667,0.0,0.0,0.0206563006610016,1814.7492035719667,0.0,0.0,0.0220878007068096,1317,0.0,99,Assisted_Takeoff,
0.0769799100744053,36.8736588278542,3200,2018-04-13 05:43:46,1814.7492035719667,0.0,0.0,0.022675300725609603,1814.7492035719667,0.0,0.0,0.022675300725609603,1317,0.0,99,Assisted_Takeoff,
0.0769799069779191,36.8736588026153,3300,2018-04-13 05:43:46,1814.7492035719667,0.0,0.0,0.0253899008124768,1814.7492035719667,0.0,0.0,0.0253899008124768,1326,0.0,99,Assisted_Takeoff,
0.0769799026267167,36.8736587758774,3400,2018-04-13 05:43:46,1814.7492035719667,0.0,0.0,0.028276100904835202,1814.7492035719667,0.0,0.0,0.028276100904835202,1357,0.0,99,Assisted_Takeoff,
0.0769798750091207,36.8736587382717,3500,2018-04-13 05:43:46,1814.7492035719667,0.0,0.0,0.0322761010328352,1814.7492035719667,0.0,0.0,0.0322761010328352,1382,0.0,99,Assisted_Takeoff,
0.0769798519283697,36.8736587061282,3600,2018-04-13 05:43:46,1814.7492035719667,0.0,0.0,0.035932701149846404,1814.7492035719667,0.0,0.0,0.035932701149846404,1402,0.0,99,P-GPS,
0.0769798232278585,36.873658702972,3700,2018-04-13 05:43:46,1814.7492035719667,0.0,0.0,0.0366356011723392,1814.7492035719667,0.0,0.0,0.0366356011723392,1406,0.0,99,P-GPS,
0.0769797917158387,36.873658723025,3800,2018-04-13 05:43:46,1814.8492035751665,0.1000000032,0.0,0.0351764011256448,1814.8492035751665,0.1000000032,0.0,0.0366356011723392,1410,0.0,99,P-GPS,
0.0769797350525014,36.8736587671282,3900,2018-04-13 05:43:47,1814.9492035783667,0.2000000064,0.0,0.0329083010530656,1814.9492035783667,0.2000000064,0.0,0.0366356011723392,1415,0.0,99,P-GPS,
0.0769797078591151,36.8736588099081,4000,2018-04-13 05:43:47,1815.0492035815666,0.3000000096,0.0,0.0305203009766496,1815.0492035815666,0.3000000096,0.0,0.0366356011723392,1422,0.0,99,P-GPS,Obstacle Avoided. Revise Flight Route
0.0769796874709963,36.8736588467209,4100,2018-04-13 05:43:47,1815.2492035879666,0.500000016,0.0,0.0289488009263616,1815.2492035879666,0.500000016,0.0,0.0366356011723392,1439,0.0,99,P-GPS,
0.0769796909843642,36.8736588886849,4200,2018-04-13 05:43:47,1815.4492035943667,0.7000000224,0.0,0.025594800819033602,1815.4492035943667,0.7000000224,0.0,0.0366356011723392,1445,0.0,99,P-GPS,
0.0769797020488269,36.8736589447324,4300,2018-04-13 05:43:47,1815.6492036007664,0.9000000288000001,0.0,0.021250800680025602,1815.6492036007664,0.9000000288000001,0.0,0.0366356011723392,1453,0.0,99,P-GPS,
0.0769797551751839,36.8736589689719,4400,2018-04-13 05:43:47,1815.9492036103666,1.2000000384,0.0,0.014760100472323201,1815.9492036103666,1.2000000384,0.0,0.0366356011723392,1474,0.0,99,P-GPS,Home Point Recorded. RTH Altitude:  30m.
0.0769798272720992,36.8736589488006,4500,2018-04-13 05:43:47,1816.1492036167667,1.4000000448,0.0,0.010263500328432,1816.1492036167667,1.4000000448,0.0,0.0366356011723392,1477,0.0,99,P-GPS,
0.0769799382245025,36.873658888189,4600,2018-04-13 05:43:47,1816.4492036263666,1.7000000544000002,0.0,0.0171701005494432,1816.4492036263666,1.7000000544000002,0.0,0.0366356011723392,1479,0.0,99,P-GPS,
0.0769800507231133,36.8736588032869,4700,2018-04-13 05:43:47,1816.7492036359665,2.000000064,0.0,0.0318494010191808,1816.7492036359665,2.000000064,0.0,0.0366356011723392,1480,0.0,99,P-GPS,
0.0769801329310374,36.8736587144112,4800,2018-04-13 05:43:48,1817.0492036455666,2.3000000736,0.0,0.045282001449024,1817.0492036455666,2.3000000736,0.0,0.045282001449024,1479,0.0,99,P-GPS,
0.0769802001735611,36.8736586530443,4900,2018-04-13 05:43:48,1817.3492036551668,2.6000000832000003,0.0,0.0553232017703424,1817.3492036551668,2.6000000832000003,0.0,0.0553232017703424,1479,0.0,99,P-GPS,
0.0769802711256803,36.8736585938256,5000,2018-04-13 05:43:48,1817.5492036615665,2.8000000896,0.0,0.0654902020956864,1817.5492036615665,2.8000000896,0.0,0.0654902020956864,1484,0.0,99,P-GPS,
0.0769803539149589,36.8736585509853,5100,2018-04-13 05:43:48,1817.8492036711666,3.1000000992000003,0.0,0.0753034024097088,1817.8492036711666,3.1000000992000003,0.0,0.0753034024097088,1486,0.0,99,P-GPS,
0.0769804565859102,36.8736585333379,5200,2018-04-13 05:43:48,1818.1492036807667,3.4000001088000005,0.0,0.08504380272140159,1818.1492036807667,3.4000001088000005,0.0,0.08504380272140159,1485,0.0,99,P-GPS,
0.0769805692888908,36.8736585327994,5300,2018-04-13 05:43:48,1818.4492036903666,3.7000001184,0.35999970196000003,0.09497720303927042,1818.4492036903666,3.7000001184,0.35999970196000003,0.09497720303927042,1485,0.0,99,P-GPS,
0.0769807129697615,36.873658543027,5400,2018-04-13 05:43:48,1818.7492036999665,4.000000128,0.35999970196000003,0.10781200344998401,1818.7492036999665,4.000000128,0.35999970196000003,0.10781200344998401,1486,0.0,99,P-GPS,
0.0769808558339676,36.8736585483196,5500,2018-04-13 05:43:48,1819.0492037095667,4.3000001376,0.35999970196000003,0.121564003890048,1819.0492037095667,4.3000001376,0.35999970196000003,0.121564003890048,1486,0.0,99,P-GPS,
0.0769810151332447,36.873658573788,5600,2018-04-13 05:43:48,1819.3492037191666,4.6000001472,0.35999970196000003,0.136625004372,1819.3492037191666,4.6000001472,0.35999970196000003,0.136625004372,1490,0.0,99,P-GPS,
0.0769811542731994,36.8736585990377,5700,2018-04-13 05:43:48,1819.6492037287667,4.9000001568,0.35999970196000003,0.150192004806144,1819.6492037287667,4.9000001568,0.35999970196000003,0.150192004806144,1496,0.0,99,P-GPS,
0.0769812723199189,36.8736586540395,5800,2018-04-13 05:43:49,1819.9492037383668,5.200000166400001,0.35999970196000003,0.161002005152064,1819.9492037383668,5.200000166400001,0.35999970196000003,0.161002005152064,1497,0.0,99,P-GPS,
0.0769813579557176,36.8736586860027,5900,2018-04-13 05:43:49,1820.2492037479665,5.5000001759999995,0.35999970196000003,0.16938500542032003,1820.2492037479665,5.5000001759999995,0.35999970196000003,0.16938500542032003,1497,0.0,99,P-GPS,
0.0769814229713442,36.8736587122093,6000,2018-04-13 05:43:49,1820.5492037575666,5.8000001856,0.35999970196000003,0.175831005626592,1820.5492037575666,5.8000001856,0.35999970196000003,0.175831005626592,1501,0.0,99,P-GPS,
0.0769814652742481,36.8736587209833,6100,2018-04-13 05:43:49,1820.8492037671667,6.100000195200001,0.35999970196000003,0.18025500576816,1820.8492037671667,6.100000195200001,0.35999970196000003,0.18025500576816,1531,0.0,99,P-GPS,
0.0769815015836639,36.8736587660292,6200,2018-04-13 05:43:49,1821.1492037767666,6.4000002048,0.0,0.18335800586745601,1821.1492037767666,6.4000002048,0.35999970196000003,0.18335800586745601,1546,0.0,99,P-GPS,
0.0769815193166048,36.8736588098281,6300,2018-04-13 05:43:49,1821.4492037863668,6.7000002144,0.0,0.18460000590720002,1821.4492037863668,6.7000002144,0.35999970196000003,0.18460000590720002,1564,0.0,99,P-GPS,
0.0769815178013377,36.873658874292,6400,2018-04-13 05:43:49,1821.8492037991668,7.1000002272,0.0,0.18362500587600003,1821.8492037991668,7.1000002272,0.35999970196000003,0.18460000590720002,1565,0.0,99,P-GPS,
0.0769814885691395,36.8736589199684,6500,2018-04-13 05:43:49,1822.1492038087665,7.4000002368,0.0,0.179977005759264,1822.1492038087665,7.4000002368,0.35999970196000003,0.18460000590720002,1567,0.0,99,P-GPS,
0.0769814424336926,36.8736589887609,6600,2018-04-13 05:43:49,1822.5492038215666,7.8000002496,0.0,0.174497005583904,1822.5492038215666,7.8000002496,0.35999970196000003,0.18460000590720002,1579,0.0,99,P-GPS,
0.0769813761218246,36.8736590430547,6700,2018-04-13 05:43:49,1822.8492038311665,8.1000002592,0.0,0.1670750053464,1822.8492038311665,8.1000002592,0.35999970196000003,0.18460000590720002,1592,0.0,99,P-GPS,
0.0769812921421535,36.8736590848615,6800,2018-04-13 05:43:50,1823.2492038439666,8.500000272,0.0,0.157853005051296,1823.2492038439666,8.500000272,0.35999970196000003,0.18460000590720002,1614,0.0,99,P-GPS,
0.0769811882889518,36.8736591027514,6900,2018-04-13 05:43:50,1823.6492038567667,8.9000002848,0.0,0.146412004685184,1823.6492038567667,8.9000002848,0.35999970196000003,0.18460000590720002,1634,0.0,99,P-GPS,
0.07698109069956,36.8736591175302,7000,2018-04-13 05:43:50,1824.0492038695666,9.3000002976,0.0,0.135688004342016,1824.0492038695666,9.3000002976,0.35999970196000003,0.18460000590720002,1646,0.0,99,P-GPS,
0.0769809974735838,36.8736591296029,7100,2018-04-13 05:43:50,1824.4492038823666,9.7000003104,0.0,0.125464004014848,1824.4492038823666,9.7000003104,0.35999970196000003,0.18460000590720002,1659,0.0,99,P-GPS,
0.0769809128466062,36.8736591635765,7200,2018-04-13 05:43:50,1824.8492038951665,10.100000323200002,0.0,0.11652000372864,1824.8492038951665,10.100000323200002,0.35999970196000003,0.18460000590720002,1684,0.0,99,P-GPS,
0.0769808191573377,36.8736591978757,7300,2018-04-13 05:43:50,1825.2492039079666,10.500000336,0.0,0.10680300341769601,1825.2492039079666,10.500000336,0.35999970196000003,0.18460000590720002,1684,0.0,99,P-GPS,
0.0769807455769099,36.873659245662,7400,2018-04-13 05:43:50,1825.7492039239667,11.000000351999999,0.0,0.0999092031970944,1825.7492039239667,11.000000351999999,0.35999970196000003,0.18460000590720002,1684,0.0,99,P-GPS,
0.0769806581701784,36.8736592999459,7500,2018-04-13 05:43:50,1826.2492039399667,11.500000368000002,0.0,0.09230200295366402,1826.2492039399667,11.500000368000002,0.35999970196000003,0.18460000590720002,1684,0.0,99,P-GPS,
0.0769805653667834,36.8736593756646,7600,2018-04-13 05:43:50,1826.6492039527666,11.9000003808,0.0,0.08605240275367682,1826.6492039527666,11.9000003808,0.35999970196000003,0.18460000590720002,1684,0.0,99,P-GPS,
0.0769804508546016,36.8736594377741,7700,2018-04-13 05:43:50,1827.1492039687666,12.400000396800001,0.0,0.0786731025175392,1827.1492039687666,12.400000396800001,0.35999970196000003,0.18460000590720002,1684,0.0,99,P-GPS,
0.0769803413506992,36.8736595078725,7800,2018-04-13 05:43:51,1827.6492039847667,12.9000004128,0.0,0.0744661023829152,1827.6492039847667,12.9000004128,0.35999970196000003,0.18460000590720002,1684,0.0,99,P-GPS,
0.0769802251245801,36.8736595640388,7900,2018-04-13 05:43:51,1828.1492040007668,13.4000004288,0.0,0.07122600227923201,1828.1492040007668,13.4000004288,0.35999970196000003,0.18460000590720002,1684,0.0,99,P-GPS,
0.076980123950983,36.8736596213313,8000,2018-04-13 05:43:51,1828.6492040167666,13.9000004448,0.0,0.071554502289744,1828.6492040167666,13.9000004448,0.35999970196000003,0.18460000590720002,1684,0.0,99,P-GPS,
0.0769800183561604,36.8736596659378,8100,2018-04-13 05:43:51,1829.1492040327666,14.400000460800001,0.0,0.0726862023259584,1829.1492040327666,14.400000460800001,0.35999970196000003,0.18460000590720002,1684,0.0,99,P-GPS,
0.0769799349342314,36.8736597224974,8200,2018-04-13 05:43:51,1829.6492040487667,14.9000004768,0.0,0.0774749024791968,1829.6492040487667,14.9000004768,0.35999970196000003,0.18460000590720002,1684,0.0,99,P-GPS,
0.07697985325718,36.8736597794105,8300,2018-04-13 05:43:51,1830.1492040647665,15.4000004928,0.0,0.0835363026731616,1830.1492040647665,15.4000004928,0.35999970196000003,0.18460000590720002,1684,0.0,99,P-GPS,
0.0769797889434128,36.8736598515586,8400,2018-04-13 05:43:51,1830.6492040807668,15.900000508800002,0.0,0.09201360294443521,1830.6492040807668,15.900000508800002,0.35999970196000003,0.18460000590720002,1684,0.0,99,P-GPS,
0.0769797214680216,36.8736599193418,8500,2018-04-13 05:43:51,1831.2492040999666,16.500000528,0.0,0.100504003216128,1831.2492040999666,16.500000528,0.35999970196000003,0.18460000590720002,1684,0.0,99,P-GPS,
0.0769796656408903,36.873660015261,8600,2018-04-13 05:43:51,1831.7492041159664,17.000000544,0.0,0.112148003588736,1831.7492041159664,17.000000544,0.35999970196000003,0.18460000590720002,1684,0.0,99,P-GPS,
0.0769796063842559,36.8736601179188,8700,2018-04-13 05:43:51,1832.2492041319667,17.50000056,0.0,0.124746003991872,1832.2492041319667,17.50000056,0.35999970196000003,0.18460000590720002,1684,0.0,99,P-GPS,
0.0769795653181552,36.8736602226249,8800,2018-04-13 05:43:52,1832.7492041479666,18.000000576,0.0,0.137153004388896,1832.7492041479666,18.000000576,0.35999970196000003,0.18460000590720002,1684,0.0,99,P-GPS,
0.0769795220894808,36.8736603154913,8900,2018-04-13 05:43:52,1833.2492041639666,18.500000592000003,0.0,0.148369004747808,1833.2492041639666,18.500000592000003,0.35999970196000003,0.18460000590720002,1684,0.0,99,P-GPS,
0.0769794831444284,36.873660421264,9000,2018-04-13 05:43:52,1833.7492041799667,19.000000608,0.0,0.16086000514752002,1833.7492041799667,19.000000608,0.35999970196000003,0.18460000590720002,1684,0.0,99,P-GPS,
0.0769794342162001,36.8736605218878,9100,2018-04-13 05:43:52,1834.2492041959667,19.500000624000002,0.0,0.17311800553977602,1834.2492041959667,19.500000624000002,0.35999970196000003,0.18460000590720002,1684,-0.2,99,P-GPS,
0.0769793973783542,36.8736606487865,9200,2018-04-13 05:43:52,1834.7492042119666,20.00000064,0.0,0.187813006010016,1834.7492042119666,20.00000064,0.35999970196000003,0.187813006010016,1684,-0.9,99,P-GPS,
0.0769793578226353,36.8736607696879,9300,2018-04-13 05:43:52,1835.2492042279669,20.500000656,0.0,0.20195300646249603,1835.2492042279669,20.500000656,0.35999970196000003,0.20195300646249603,1684,-2.3,99,P-GPS,
0.076979374260149,36.8736609282934,9400,2018-04-13 05:43:52,1835.8492042471667,21.1000006752,0.0,0.218449006990368,1835.8492042471667,21.1000006752,0.35999970196000003,0.218449006990368,1684,-4.2,99,P-GPS,
0.0769793993593563,36.8736610932941,9500,2018-04-13 05:43:52,1836.3492042631665,21.6000006912,0.0,0.23560100753923202,1836.3492042631665,21.6000006912,0.35999970196000003,0.23560100753923202,1684,-6.7,99,P-GPS,
0.0769794495146172,36.8736612670063,9600,2018-04-13 05:43:52,1836.8492042791668,22.1000007072,0.0,0.25336700810774404,1836.8492042791668,22.1000007072,0.35999970196000003,0.25336700810774404,1684,-9.7,99,P-GPS,
0.0769794731921929,36.8736614045249,9700,2018-04-13 05:43:52,1837.3492042951666,22.6000007232,0.0,0.267957008574624,1837.3492042951666,22.6000007232,0.35999970196000003,0.267957008574624,1684,-12.8,99,P-GPS,
0.0769794887487184,36.8736615420435,9800,2018-04-13 05:43:53,1837.8492043111667,23.1000007392,0.0,0.282781009048992,1837.8492043111667,23.1000007392,0.35999970196000003,0.282781009048992,1684,-15.9,99,P-GPS,
0.0769794727077308,36.8736616541035,9900,2018-04-13 05:43:53,1838.4492043303667,23.7000007584,0.0,0.295369009451808,1838.4492043303667,23.7000007584,0.35999970196000003,0.295369009451808,1684,-19.0,99,P-GPS,
0.0769794642308656,36.8736617494492,10000,2018-04-13 05:43:53,1838.9492043463665,24.2000007744,0.0,0.305994009791808,1838.9492043463665,24.2000007744,0.35999970196000003,0.305994009791808,1684,-20.2,99,P-GPS,
0.0769794407763867,36.8736618299662,10100,2018-04-13 05:43:53,1839.4492043623668,24.7000007904,0.0,0.315239010087648,1839.4492043623668,24.7000007904,0.35999970196000003,0.315239010087648,1684,-20.2,99,P-GPS,
0.0769794251840355,36.8736619082208,10200,2018-04-13 05:43:53,1839.9492043783666,25.2000008064,0.0,0.324104010371328,1839.9492043783666,25.2000008064,0.35999970196000003,0.324104010371328,1684,-20.2,99,P-GPS,
0.0769794039181853,36.8736619739981,10300,2018-04-13 05:43:53,1840.4492043943667,25.7000008224,0.0,0.331698010614336,1840.4492043943667,25.7000008224,0.35999970196000003,0.331698010614336,1684,-20.2,99,P-GPS,
0.0769793970632503,36.8736620460648,10400,2018-04-13 05:43:53,1840.9492044103665,26.200000838400005,0.0,0.339733010871456,1840.9492044103665,26.200000838400005,0.35999970196000003,0.339733010871456,1684,-20.2,99,P-GPS,
0.0769793777963152,36.8736621028967,10500,2018-04-13 05:43:53,1841.5492044295665,26.8000008576,0.0,0.34631201108198406,1841.5492044295665,26.8000008576,0.35999970196000003,0.34631201108198406,1684,-20.2,99,P-GPS,
0.0769793784900323,36.8736621683624,10600,2018-04-13 05:43:53,1842.0492044455666,27.3000008736,0.0,0.353489011311648,1842.0492044455666,27.3000008736,0.35999970196000003,0.353489011311648,1684,-20.2,99,P-GPS,
0.076979372543769,36.8736622155851,10700,2018-04-13 05:43:53,1842.5492044615667,27.8000008896,0.0,0.358779011480928,1842.5492044615667,27.8000008896,0.35999970196000003,0.358779011480928,1684,-20.2,99,P-GPS,
0.0769793666716,36.8736622811811,10800,2018-04-13 05:43:54,1843.1492044807667,28.4000009088,0.0,0.366087011714784,1843.1492044807667,28.4000009088,0.35999970196000003,0.366087011714784,1684,-20.2,99,P-GPS,
0.0769793472198364,36.8736623295606,10900,2018-04-13 05:43:54,1843.6492044967667,28.9000009248,0.0,0.371738011895616,1843.6492044967667,28.9000009248,0.35999970196000003,0.371738011895616,1684,-20.2,99,P-GPS,
0.0769793681054449,36.8736623869898,11000,2018-04-13 05:43:54,1844.1492045127668,29.4000009408,0.0,0.377694012086208,1844.1492045127668,29.4000009408,0.35999970196000003,0.377694012086208,1684,-20.2,99,P-GPS,
0.0769793829503404,36.8736624153459,11100,2018-04-13 05:43:54,1844.6492045287666,29.900000956800003,0.0,0.380572012178304,1844.6492045287666,29.900000956800003,0.35999970196000003,0.380572012178304,1684,-20.2,99,P-GPS,
0.0769794267465275,36.8736624602377,11200,2018-04-13 05:43:54,1845.1492045447665,30.400000972800004,0.0,0.384854012315328,1845.1492045447665,30.400000972800004,0.35999970196000003,0.384854012315328,1684,-20.2,99,P-GPS,
0.0769794557816839,36.8736624862432,11300,2018-04-13 05:43:54,1845.6492045607667,30.900000988800002,0.0,0.387321012394272,1845.6492045607667,30.900000988800002,0.35999970196000003,0.387321012394272,1684,-20.2,99,P-GPS,
0.0769794943790636,36.8736625299607,11400,2018-04-13 05:43:54,1846.1492045767666,31.400001004800004,0.0,0.391662012533184,1846.1492045767666,31.400001004800004,0.35999970196000003,0.391662012533184,1684,-20.2,99,P-GPS,
0.0769795064735171,36.8736625464833,11500,2018-04-13 05:43:54,1846.7492045959668,32.000001024,0.0,0.39334701258710403,1846.7492045959668,32.000001024,0.35999970196000003,0.39334701258710403,1684,-20.2,99,P-GPS,
0.0769795525609249,36.8736625585159,11600,2018-04-13 05:43:54,1847.2492046119667,32.50000104,0.0,0.39418001261376,1847.2492046119667,32.50000104,0.35999970196000003,0.39418001261376,1684,-20.2,99,P-GPS,
0.0769795870057723,36.8736625441902,11700,2018-04-13 05:43:54,1847.7492046279665,33.000001056,0.0,0.392264012552448,1847.7492046279665,33.000001056,0.35999970196000003,0.39418001261376,1684,-20.2,99,P-GPS,
0.0769796563408466,36.8736625410857,11800,2018-04-13 05:43:55,1848.2492046439668,33.500001072,0.0,0.391368012523776,1848.2492046439668,33.500001072,0.35999970196000003,0.39418001261376,1684,-20.2,99,P-GPS,
0.0769797072411206,36.8736625346547,11900,2018-04-13 05:43:55,1848.7492046599666,34.000001088,0.0,0.39034501249104003,1848.7492046599666,34.000001088,0.35999970196000003,0.39418001261376,1684,-20.2,99,P-GPS,
0.076979814599548,36.8736625784083,12000,2018-04-13 05:43:55,1849.3492046791666,34.6000011072,0.0,0.3948250126344,1849.3492046791666,34.6000011072,0.35999970196000003,0.3948250126344,1684,-20.2,99,P-GPS,
0.0769799113869312,36.8736626231807,12100,2018-04-13 05:43:55,1849.8492046951667,35.1000011232,0.0,0.399771012792672,1849.8492046951667,35.1000011232,0.35999970196000003,0.399771012792672,1684,-20.2,99,P-GPS,
0.0769800312013267,36.8736626731223,12200,2018-04-13 05:43:55,1850.3492047111667,35.6000011392,0.0,0.405681012981792,1850.3492047111667,35.6000011392,0.35999970196000003,0.405681012981792,1684,-20.2,99,P-GPS,
0.0769801037590916,36.8736626896067,12300,2018-04-13 05:43:55,1850.9492047303668,36.2000011584,0.0,0.40793901305404806,1850.9492047303668,36.2000011584,0.35999970196000003,0.40793901305404806,1684,-20.2,99,P-GPS,
0.0769801980036595,36.8736627010667,12400,2018-04-13 05:43:55,1851.4492047463666,36.7000011744,0.0,0.409999013119968,1851.4492047463666,36.7000011744,0.35999970196000003,0.409999013119968,1684,-20.2,99,P-GPS,
0.0769802543657347,36.8736626951642,12500,2018-04-13 05:43:55,1851.9492047623667,37.2000011904,0.0,0.40994501311824,1851.9492047623667,37.2000011904,0.35999970196000003,0.409999013119968,1684,-20.2,99,P-GPS,
0.0769803172391432,36.8736627034633,12600,2018-04-13 05:43:55,1852.4492047783665,37.7000012064,0.0,0.411642013172544,1852.4492047783665,37.7000012064,0.35999970196000003,0.411642013172544,1684,-20.2,99,P-GPS,
0.0769803480826867,36.8736627074745,12700,2018-04-13 05:43:55,1852.9492047943668,38.2000012224,0.0,0.412509013200288,1852.9492047943668,38.2000012224,0.35999970196000003,0.412509013200288,1684,-20.2,99,P-GPS,
0.0769804011430917,36.8736626993793,12800,2018-04-13 05:43:56,1853.4492048103666,38.7000012384,0.0,0.412414013197248,1853.4492048103666,38.7000012384,0.35999970196000003,0.412509013200288,1684,-20.2,99,P-GPS,
0.0769804334913175,36.8736626771156,12900,2018-04-13 05:43:56,1853.9492048263664,39.2000012544,0.0,0.410493013135776,1853.9492048263664,39.2000012544,0.35999970196000003,0.412509013200288,1684,-20.2,99,P-GPS,
0.0769804879391567,36.8736626510798,13000,2018-04-13 05:43:56,1854.5492048455667,39.800001273599996,0.0,0.4086000130752,1854.5492048455667,39.800001273599996,0.35999970196000003,0.412509013200288,1684,-20.2,99,P-GPS,
0.0769805140838251,36.8736626210311,13100,2018-04-13 05:43:56,1855.0492048615665,40.3000012896,0.0,0.40580601298579205,1855.0492048615665,40.3000012896,0.35999970196000003,0.412509013200288,1684,-20.2,99,P-GPS,
0.076980552337603,36.8736625993644,13200,2018-04-13 05:43:56,1855.5492048775668,40.8000013056,0.0,0.404207012934624,1855.5492048775668,40.8000013056,0.35999970196000003,0.412509013200288,1684,-20.2,99,P-GPS,
0.0769805601801893,36.8736625769903,13300,2018-04-13 05:43:56,1856.0492048935666,41.30000132160001,0.0,0.40192701286166405,1856.0492048935666,41.30000132160001,0.35999970196000003,0.412509013200288,1684,-20.2,99,P-GPS,
0.0769805960263128,36.8736625622514,13400,2018-04-13 05:43:56,1856.5492049095667,41.80000133760001,0.0,0.401097012835104,1856.5492049095667,41.80000133760001,0.35999970196000003,0.412509013200288,1684,-20.2,99,P-GPS,
0.0769806096360335,36.8736625344218,13500,2018-04-13 05:43:56,1857.0492049255668,42.300001353599995,0.0,0.398374012747968,1857.0492049255668,42.300001353599995,0.35999970196000003,0.412509013200288,1684,-20.2,99,P-GPS,
0.0769806338102846,36.8736624897959,13600,2018-04-13 05:43:56,1857.5492049415668,42.800001369600004,0.0,0.39408601261075205,1857.5492049415668,42.800001369600004,0.35999970196000003,0.412509013200288,1684,-20.2,99,P-GPS,
0.0769806248155742,36.8736624246654,13700,2018-04-13 05:43:56,1858.0492049575666,43.300001385600005,0.0,0.386797012377504,1858.0492049575666,43.300001385600005,0.35999970196000003,0.412509013200288,1684,-20.2,99,P-GPS,
0.0769806529322883,36.8736623783036,13800,2018-04-13 05:43:56,1858.5492049735665,43.80000140160001,0.0,0.382461012238752,1858.5492049735665,43.80000140160001,0.35999970196000003,0.412509013200288,1684,-20.2,99,P-GPS,
0.0769806639943083,36.8736623355088,13900,2018-04-13 05:43:57,1859.1492049927667,44.4000014208,0.0,0.37811101209955206,1859.1492049927667,44.4000014208,0.35999970196000003,0.412509013200288,1684,-20.2,99,P-GPS,
0.0769806676371376,36.8736622776714,14000,2018-04-13 05:43:57,1859.6492050087666,44.900001436800004,0.0,0.37195501190256,1859.6492050087666,44.900001436800004,0.35999970196000003,0.412509013200288,1684,-20.2,99,P-GPS,
0.0769806270172305,36.8736622038777,14100,2018-04-13 05:43:57,1860.1492050247668,45.4000014528,0.0,0.36291901161340806,1860.1492050247668,45.4000014528,0.35999970196000003,0.412509013200288,1684,-20.2,99,P-GPS,
0.0769806222646167,36.8736621640868,14200,2018-04-13 05:43:57,1860.6492050407667,45.9000014688,0.0,0.358492011471744,1860.6492050407667,45.9000014688,0.35999970196000003,0.412509013200288,1684,-20.2,99,P-GPS,
0.0769806075573247,36.8736621457402,14300,2018-04-13 05:43:57,1861.1492050567665,46.4000014848,0.0,0.356129011396128,1861.1492050567665,46.4000014848,0.35999970196000003,0.412509013200288,1684,-20.2,99,P-GPS,
0.0769805934484859,36.8736621442499,14400,2018-04-13 05:43:57,1861.6492050727668,46.9000015008,0.0,0.355612011379584,1861.6492050727668,46.9000015008,0.35999970196000003,0.412509013200288,1684,-20.2,99,P-GPS,
0.0769805414310994,36.8736621332564,14500,2018-04-13 05:43:57,1862.1492050887666,47.4000015168,0.0,0.353159011301088,1862.1492050887666,47.4000015168,0.35999970196000003,0.412509013200288,1684,-20.2,99,P-GPS,
0.0769805164401836,36.8736621201355,14600,2018-04-13 05:43:57,1862.7492051079666,48.000001536000006,0.0,0.35115701123702403,1862.7492051079666,48.000001536000006,0.35999970196000003,0.412509013200288,1684,-20.2,99,P-GPS,
0.0769804741087819,36.8736620934069,14700,2018-04-13 05:43:57,1863.2492051239667,48.50000155200001,0.0,0.347312011113984,1863.2492051239667,48.50000155200001,0.35999970196000003,0.412509013200288,1684,-20.2,99,P-GPS,
0.0769804696207902,36.8736620765414,14800,2018-04-13 05:43:58,1863.7492051399668,49.000001568,0.0,0.345375011052,1863.7492051399668,49.000001568,0.35999970196000003,0.412509013200288,1684,-20.2,99,P-GPS,
0.0769804487384386,36.8736620512592,14900,2018-04-13 05:43:58,1864.2492051559666,49.500001584,0.0,0.3421750109496,1864.2492051559666,49.500001584,0.35999970196000003,0.412509013200288,1684,-20.2,99,P-GPS,
0.0769804657817335,36.8736620319764,15000,2018-04-13 05:43:58,1864.7492051719667,50.000001600000004,0.0,0.34043001089376,1864.7492051719667,50.000001600000004,0.35999970196000003,0.412509013200288,1684,-20.2,99,P-GPS,
0.0769804577062797,36.8736620071079,15100,2018-04-13 05:43:58,1865.2492051879667,50.500001616000006,0.0,0.337543010801376,1865.2492051879667,50.500001616000006,0.35999970196000003,0.412509013200288,1684,-20.2,99,P-GPS,
0.0769804677203961,36.8736620036649,15200,2018-04-13 05:43:58,1865.7492052039665,51.00000163200001,0.0,0.337384010796288,1865.7492052039665,51.00000163200001,0.35999970196000003,0.412509013200288,1684,-20.2,99,P-GPS,
0.0769804438197235,36.8736619973035,15300,2018-04-13 05:43:58,1866.3492052231668,51.6000016512,0.0,0.336179010757728,1866.3492052231668,51.6000016512,0.35999970196000003,0.412509013200288,1684,-20.2,99,P-GPS,
0.0769804252074228,36.8736619910136,15400,2018-04-13 05:43:58,1866.8492052391666,52.1000016672,0.0,0.335107010723424,1866.8492052391666,52.1000016672,0.35999970196000003,0.412509013200288,1684,-20.2,99,P-GPS,
0.0769803794921145,36.8736619681896,15500,2018-04-13 05:43:58,1867.3492052551665,52.6000016832,0.0,0.331712010614784,1867.3492052551665,52.6000016832,0.35999970196000003,0.412509013200288,1684,-20.2,99,P-GPS,
0.0769803623030739,36.8736619622307,15600,2018-04-13 05:43:58,1867.8492052711667,53.1000016992,0.0,0.33074001058368,1867.8492052711667,53.1000016992,0.35999970196000003,0.412509013200288,1684,-20.2,99,P-GPS,
0.0769803376704158,36.873661958825,15700,2018-04-13 05:43:59,1868.3492052871666,53.6000017152,0.0,0.329927010557664,1868.3492052871666,53.6000017152,0.35999970196000003,0.412509013200288,1684,-20.2,99,P-GPS,
0.0769803288580911,36.8736620309116,15900,2018-04-13 05:43:59,1869.3492053191667,54.6000017472,0.0,0.33769901080636805,1869.3492053191667,54.6000017472,0.35999970196000003,0.412509013200288,1684,-20.2,99,P-GPS,
0.0769803218867224,36.8736620820248,16000,2018-04-13 05:43:59,1869.8492053351667,55.1000017632,0.0,0.343206010982592,1869.8492053351667,55.1000017632,0.35999970196000003,0.412509013200288,1684,-20.2,99,P-GPS,
0.0769802850342205,36.873662111824,16100,2018-04-13 05:43:59,1870.3492053511666,55.6000017792,0.0,0.34592001106944,1870.3492053511666,55.6000017792,0.35999970196000003,0.412509013200288,1684,-20.2,99,P-GPS,
0.0769802712893389,36.8736621393636,16200,2018-04-13 05:43:59,1870.9492053703666,56.2000017984,0.0,0.348759011160288,1870.9492053703666,56.2000017984,0.35999970196000003,0.412509013200288,1684,-20.2,99,P-GPS,
0.0769802370618888,36.873662142286,16300,2018-04-13 05:43:59,1871.4492053863667,56.700001814400004,0.0,0.348619011155808,1871.4492053863667,56.700001814400004,0.35999970196000003,0.412509013200288,1684,-20.2,99,P-GPS,
0.0769802098619887,36.8736621686165,16400,2018-04-13 05:43:59,1871.9492054023665,57.200001830400005,0.0,0.35119301123817603,1871.9492054023665,57.200001830400005,0.35999970196000003,0.412509013200288,1684,-20.2,99,P-GPS,
0.0769801562641972,36.8736621906051,16500,2018-04-13 05:43:59,1872.4492054183668,57.700001846400006,0.0,0.35304501129744004,1872.4492054183668,57.700001846400006,0.35999970196000003,0.412509013200288,1684,-20.2,99,P-GPS,
0.0769801621640498,36.8736622097253,16600,2018-04-13 05:43:59,1872.9492054343666,58.2000018624,0.0,0.35522101136707207,1872.9492054343666,58.2000018624,0.35999970196000003,0.412509013200288,1684,-20.2,99,P-GPS,
0.0769801738367364,36.8736622082993,16700,2018-04-13 05:43:59,1873.4492054503667,58.7000018784,0.0,0.355183011365856,1873.4492054503667,58.7000018784,0.35999970196000003,0.412509013200288,1684,-20.2,99,P-GPS,
0.0769802019672922,36.8736622309871,16800,2018-04-13 05:44:00,1873.9492054663667,59.2000018944,0.0,0.358000011456,1873.9492054663667,59.2000018944,0.35999970196000003,0.412509013200288,1684,-20.2,99,P-GPS,
0.0769801866631755,36.8736622466036,16900,2018-04-13 05:44:00,1874.5492054855665,59.800001913600006,0.0,0.35955901150588804,1874.5492054855665,59.800001913600006,0.35999970196000003,0.412509013200288,1684,-20.2,99,P-GPS,
0.0769801887654967,36.8736622735761,17000,2018-04-13 05:44:00,1875.0492055015668,60.30000192960001,0.0,0.362567011602144,1875.0492055015668,60.30000192960001,0.35999970196000003,0.412509013200288,1684,-20.2,99,P-GPS,
0.0769801725673643,36.8736622907151,17100,2018-04-13 05:44:00,1875.4492055143667,60.7000019424,0.0,0.36429501165744005,1875.4492055143667,60.7000019424,0.35999970196000003,0.412509013200288,1684,-20.2,99,P-GPS,
0.0769801831783054,36.8736623560407,17200,2018-04-13 05:44:00,1876.0492055335667,61.3000019616,0.0,0.371638011892416,1876.0492055335667,61.3000019616,0.35999970196000003,0.412509013200288,1684,-20.2,99,P-GPS,
0.0769801798481374,36.8736624168749,17300,2018-04-13 05:44:00,1876.5492055495665,61.800001977600004,0.0,0.378341012106912,1876.5492055495665,61.800001977600004,0.35999970196000003,0.412509013200288,1684,-20.2,98,P-GPS,
0.0769802037422962,36.8736624798024,17400,2018-04-13 05:44:00,1876.9492055623666,62.200001990400004,0.0,0.38555501233775996,1876.9492055623666,62.200001990400004,0.35999970196000003,0.412509013200288,1684,-20.2,98,P-GPS,
0.0769802090518378,36.8736625054439,17500,2018-04-13 05:44:00,1877.4492055783667,62.7000020064,0.0,0.38845001243040006,1877.4492055783667,62.7000020064,0.35999970196000003,0.412509013200288,1684,-20.2,98,P-GPS,
0.0769802343073758,36.8736625413462,17600,2018-04-13 05:44:00,1878.0492055975665,63.30000202560001,0.0,0.39270101256643203,1878.0492055975665,63.30000202560001,0.35999970196000003,0.412509013200288,1684,-20.2,98,P-GPS,
0.076980245707298,36.8736625654073,17700,2018-04-13 05:44:00,1878.5492056135668,63.8000020416,0.0,0.395493012655776,1878.5492056135668,63.8000020416,0.35999970196000003,0.412509013200288,1684,-20.2,98,P-GPS,
0.0769803002577292,36.8736625973063,17800,2018-04-13 05:44:00,1879.0492056295666,64.3000020576,0.0,0.39969501279024,1879.0492056295666,64.3000020576,0.35999970196000003,0.412509013200288,1684,-20.2,98,P-GPS,
0.0769803396196633,36.8736626104009,17900,2018-04-13 05:44:01,1879.5492056455666,64.8000020736,0.0,0.40168201285382404,1879.5492056455666,64.8000020736,0.35999970196000003,0.412509013200288,1684,-20.2,98,P-GPS,
0.0769804859638542,36.8736626551369,18000,2018-04-13 05:44:01,1880.0492056615667,65.3000020896,0.0,0.409008013088256,1880.0492056615667,65.3000020896,0.35999970196000003,0.412509013200288,1684,-20.2,98,P-GPS,
0.076980609366526,36.8736626846513,18100,2018-04-13 05:44:01,1880.4492056743668,65.7000021024,0.0,0.41473201327142406,1880.4492056743668,65.7000021024,0.35999970196000003,0.41473201327142406,1684,-20.2,98,P-GPS,
0.0769807283064471,36.8736627286308,18200,2018-04-13 05:44:01,1880.9492056903666,66.20000211840001,0.0,0.422306013513792,1880.9492056903666,66.20000211840001,0.35999970196000003,0.422306013513792,1684,-20.2,98,P-GPS,
0.0769807568221299,36.8736627418212,18300,2018-04-13 05:44:01,1881.5492057095664,66.8000021376,0.0,0.424458013582656,1881.5492057095664,66.8000021376,0.35999970196000003,0.424458013582656,1684,-20.2,98,P-GPS,
0.0769807898103342,36.8736627526651,18400,2018-04-13 05:44:01,1881.9492057223667,67.20000215040001,0.0,0.42649301364777603,1881.9492057223667,67.20000215040001,0.35999970196000003,0.42649301364777603,1684,-20.2,98,P-GPS,
0.0769807897647378,36.8736627491135,18500,2018-04-13 05:44:01,1882.5492057415665,67.8000021696,0.0,0.42610801363545603,1882.5492057415665,67.8000021696,0.35999970196000003,0.42649301364777603,1684,-20.2,98,P-GPS,
0.0769808001998069,36.8736627842236,18600,2018-04-13 05:44:01,1883.0492057575666,68.3000021856,0.0,0.43017701376566403,1883.0492057575666,68.3000021856,0.35999970196000003,0.43017701376566403,1684,-20.2,98,P-GPS,
0.0769807761387326,36.873662811502,18700,2018-04-13 05:44:01,1883.5492057735667,68.8000022016,0.0,0.43249401383980807,1883.5492057735667,68.8000022016,0.35999970196000003,0.43249401383980807,1684,-20.2,98,P-GPS,
0.0769807807920113,36.8736628463128,18800,2018-04-13 05:44:02,1884.0492057895667,69.30000221760001,0.0,0.43638001396416004,1884.0492057895667,69.30000221760001,0.35999970196000003,0.43638001396416004,1684,-20.2,98,P-GPS,
0.076980768822948,36.8736628488343,18900,2018-04-13 05:44:02,1884.5492058055665,69.80000223360001,0.0,0.436347013963104,1884.5492058055665,69.80000223360001,0.35999970196000003,0.43638001396416004,1684,-20.2,98,P-GPS,
0.076980782444882,36.8736628762341,19000,2018-04-13 05:44:02,1885.0492058215668,70.30000224960001,0.0,0.43966001406912003,1885.0492058215668,70.30000224960001,0.35999970196000003,0.43966001406912003,1684,-20.2,98,P-GPS,
0.0769807775937473,36.8736628940409,19100,2018-04-13 05:44:02,1885.5492058375667,70.8000022656,0.0,0.44146401412684805,1885.5492058375667,70.8000022656,0.35999970196000003,0.44146401412684805,1684,-20.2,98,P-GPS,
0.0769807974974041,36.8736629503488,19200,2018-04-13 05:44:02,1886.0492058535665,71.3000022816,0.0,0.448066014338112,1886.0492058535665,71.3000022816,0.35999970196000003,0.448066014338112,1684,-20.2,98,P-GPS,
0.0769807939913642,36.8736629929361,19300,2018-04-13 05:44:02,1886.5492058695668,71.8000022976,0.0,0.45258901448284805,1886.5492058695668,71.8000022976,0.35999970196000003,0.45258901448284805,1684,-20.2,98,P-GPS,
0.076980812204696,36.873663067559,19400,2018-04-13 05:44:02,1887.0492058855666,72.3000023136,0.0,0.46113001475616006,1887.0492058855666,72.3000023136,0.35999970196000003,0.46113001475616006,1684,-20.2,98,P-GPS,
0.0769808142369942,36.8736631083322,19500,2018-04-13 05:44:02,1887.6492059047666,72.9000023328,0.0,0.465599014899168,1887.6492059047666,72.9000023328,0.35999970196000003,0.465599014899168,1684,-20.2,98,P-GPS,
0.0769808539400872,36.8736631671308,19600,2018-04-13 05:44:02,1888.1492059207667,73.4000023488,0.0,0.47297101513507206,1888.1492059207667,73.4000023488,0.35999970196000003,0.47297101513507206,1684,-20.2,98,P-GPS,
0.0769808577734444,36.8736631942834,19700,2018-04-13 05:44:02,1888.5492059335668,73.80000236160001,0.0,0.476007015232224,1888.5492059335668,73.80000236160001,0.35999970196000003,0.476007015232224,1684,-20.2,98,P-GPS,
0.0769808842104185,36.8736632475646,19800,2018-04-13 05:44:03,1889.0492059495666,74.30000237760001,0.35999970196000003,0.482452015438464,1889.0492059495666,74.30000237760001,0.35999970196000003,0.482452015438464,1684,-20.2,98,P-GPS,
0.0769808739886755,36.8736632713944,19900,2018-04-13 05:44:03,1889.5492059655664,74.80000239360001,0.35999970196000003,0.48476701551254403,1889.5492059655664,74.80000239360001,0.35999970196000003,0.48476701551254403,1684,-20.2,98,P-GPS,
0.0769808914765356,36.8736633285655,20000,2018-04-13 05:44:03,1890.0492059815667,75.3000024096,0.35999970196000003,0.491402015724864,1890.0492059815667,75.3000024096,0.35999970196000003,0.491402015724864,1684,-20.2,98,P-GPS,
0.076980879638562,36.873663366758,20100,2018-04-13 05:44:03,1890.5492059975666,75.8000024256,0.0,0.49523701584758406,1890.5492059975666,75.8000024256,0.35999970196000003,0.49523701584758406,1684,-20.2,98,P-GPS,
0.0769809027241983,36.8736634199608,20200,2018-04-13 05:44:03,1891.0492060135666,76.3000024416,0.0,0.501582016050624,1891.0492060135666,76.3000024416,0.35999970196000003,0.501582016050624,1684,-20.2,98,P-GPS,
0.076980897570173,36.873663442356,20300,2018-04-13 05:44:03,1891.5492060295667,76.8000024576,0.0,0.503877016124064,1891.5492060295667,76.8000024576,0.35999970196000003,0.503877016124064,1684,-20.2,98,P-GPS,
0.0769809464283783,36.8736634884435,20400,2018-04-13 05:44:03,1892.0492060455667,77.3000024736,0.0,0.5101140163236481,1892.0492060455667,77.3000024736,0.35999970196000003,0.5101140163236481,1684,-20.2,98,P-GPS,
0.0769809679645501,36.8736635061124,20500,2018-04-13 05:44:03,1892.5492060615666,77.8000024896,0.0,0.512588016402816,1892.5492060615666,77.8000024896,0.35999970196000003,0.512588016402816,1684,-20.2,98,P-GPS,
0.0769810110548067,36.8736635456074,20600,2018-04-13 05:44:03,1893.0492060775669,78.3000025056,0.0,0.51800501657616,1893.0492060775669,78.3000025056,0.35999970196000003,0.51800501657616,1684,-20.2,98,P-GPS,
0.0769810164229724,36.873663562001,20700,2018-04-13 05:44:03,1893.5492060935667,78.8000025216,0.0,0.519918016637376,1893.5492060935667,78.8000025216,0.35999970196000003,0.519918016637376,1684,-20.2,98,P-GPS,
0.0769810734527096,36.8736635863816,20800,2018-04-13 05:44:04,1894.0492061095665,79.30000253760001,0.0,0.5241260167720321,1894.0492061095665,79.30000253760001,0.35999970196000003,0.5241260167720321,1684,-20.2,98,P-GPS,
0.0769811042026176,36.8736635773519,20900,2018-04-13 05:44:04,1894.5492061255666,79.80000255360001,0.0,0.524037016769184,1894.5492061255666,79.80000255360001,0.35999970196000003,0.5241260167720321,1684,-20.2,98,P-GPS,
0.0769811756107011,36.8736635789508,21000,2018-04-13 05:44:04,1895.0492061415666,80.30000256960001,0.0,0.526338016842816,1895.0492061415666,80.30000256960001,0.35999970196000003,0.526338016842816,1684,-20.2,98,P-GPS,
0.0769812177295908,36.8736635671196,21100,2018-04-13 05:44:04,1895.5492061575667,80.80000258560001,0.0,0.526383016844256,1895.5492061575667,80.80000258560001,0.35999970196000003,0.526383016844256,1684,-20.2,98,P-GPS,
0.0769812807031486,36.8736635972623,21200,2018-04-13 05:44:04,1896.1492061767667,81.40000260480001,0.0,0.531617017011744,1896.1492061767667,81.40000260480001,0.35999970196000003,0.531617017011744,1684,-20.2,98,P-GPS,
0.0769813031227514,36.8736636177827,21300,2018-04-13 05:44:04,1896.5492061895668,81.8000026176,0.0,0.5345350171051201,1896.5492061895668,81.8000026176,0.35999970196000003,0.5345350171051201,1684,-20.2,98,P-GPS,
0.0769813659546345,36.8736636580934,21400,2018-04-13 05:44:04,1897.0492062055666,82.3000026336,0.0,0.5409190173094081,1897.0492062055666,82.3000026336,0.35999970196000003,0.5409190173094081,1684,-20.2,98,P-GPS,
0.0769813995982875,36.8736636627135,21500,2018-04-13 05:44:04,1897.5492062215665,82.8000026496,0.0,0.5425660173621121,1897.5492062215665,82.8000026496,0.35999970196000003,0.5425660173621121,1684,-20.2,98,P-GPS,
0.0769814835942431,36.8736636976686,21600,2018-04-13 05:44:04,1898.1492062407667,83.4000026688,0.0,0.549233017575456,1898.1492062407667,83.4000026688,0.35999970196000003,0.549233017575456,1684,-20.2,98,P-GPS,
0.0769815430528045,36.8736637147793,21700,2018-04-13 05:44:04,1898.6492062567665,83.9000026848,0.0,0.553216017702912,1898.6492062567665,83.9000026848,0.35999970196000003,0.553216017702912,1684,-20.2,98,P-GPS,
0.0769816295850616,36.8736637682574,21800,2018-04-13 05:44:04,1899.1492062727666,84.4000027008,0.0,0.5620910179869121,1899.1492062727666,84.4000027008,0.35999970196000003,0.5620910179869121,1684,-20.2,98,P-GPS,
0.0769816643238432,36.873663797882,21900,2018-04-13 05:44:05,1899.6492062887667,84.9000027168,0.0,0.566528018128896,1899.6492062887667,84.9000027168,0.35999970196000003,0.566528018128896,1684,-20.2,98,P-GPS,
0.0769817229111871,36.8736638464138,22000,2018-04-13 05:44:05,1900.1492063047667,85.4000027328,0.0,0.573886018364352,1900.1492063047667,85.4000027328,0.35999970196000003,0.573886018364352,1684,-20.2,98,P-GPS,
0.0769817429312776,36.8736638599512,22100,2018-04-13 05:44:05,1900.6492063207666,85.9000027488,0.0,0.5760910184349121,1900.6492063207666,85.9000027488,0.35999970196000003,0.5760910184349121,1684,-20.2,98,P-GPS,
0.0769818006286768,36.8736638868091,22200,2018-04-13 05:44:05,1901.1492063367668,86.4000027648,0.0,0.581213018598816,1901.1492063367668,86.4000027648,0.35999970196000003,0.581213018598816,1684,-20.2,98,P-GPS,
0.0769818243762757,36.8736638864282,22300,2018-04-13 05:44:05,1901.6492063527667,86.90000278080001,0.0,0.582152018628864,1901.6492063527667,86.90000278080001,0.35999970196000003,0.582152018628864,1684,-20.2,98,P-GPS,
0.0769818844365472,36.8736639161729,22400,2018-04-13 05:44:05,1902.1492063687665,87.4000027968,0.0,0.5877310188073921,1902.1492063687665,87.4000027968,0.35999970196000003,0.5877310188073921,1684,-20.2,98,P-GPS,
0.076981913271405,36.8736639267831,22500,2018-04-13 05:44:05,1902.6492063847668,87.9000028128,0.0,0.590048018881536,1902.6492063847668,87.9000028128,0.35999970196000003,0.590048018881536,1684,-20.2,98,P-GPS,
0.0769819862598934,36.8736639500388,22600,2018-04-13 05:44:05,1903.1492064007666,88.4000028288,0.0,0.595591019058912,1903.1492064007666,88.4000028288,0.35999970196000003,0.595591019058912,1684,-20.2,98,P-GPS,
0.0769820289438532,36.873663945639,22700,2018-04-13 05:44:05,1903.6492064167667,88.9000028448,0.0,0.597031019104992,1903.6492064167667,88.9000028448,0.35999970196000003,0.597031019104992,1684,-20.2,98,P-GPS,
0.0769821111126946,36.8736639615062,22800,2018-04-13 05:44:06,1904.1492064327667,89.4000028608,0.0,0.6023640192756481,1904.1492064327667,89.4000028608,0.35999970196000003,0.6023640192756481,1684,-20.2,98,P-GPS,
0.076982153897618,36.8736639539057,22900,2018-04-13 05:44:06,1904.6492064487668,89.9000028768,0.0,0.6035770193144641,1904.6492064487668,89.9000028768,0.35999970196000003,0.6035770193144641,1684,-20.2,98,P-GPS,
0.0769822263739607,36.873663959835,23000,2018-04-13 05:44:06,1905.2492064679666,90.50000289600001,0.0,0.6076020194432641,1905.2492064679666,90.50000289600001,0.35999970196000003,0.6076020194432641,1684,-20.2,98,P-GPS,
0.0769822565881107,36.8736639421602,23100,2018-04-13 05:44:06,1905.7492064839666,91.00000291200001,0.0,0.6072870194331841,1905.7492064839666,91.00000291200001,0.35999970196000003,0.6076020194432641,1684,-20.2,98,P-GPS,
0.0769823141226655,36.8736639637964,23200,2018-04-13 05:44:06,1906.2492064999667,91.50000292800001,0.0,0.612262019592384,1906.2492064999667,91.50000292800001,0.35999970196000003,0.612262019592384,1684,-20.2,98,P-GPS,
0.0769823325932915,36.8736639758101,23300,2018-04-13 05:44:06,1906.6492065127666,91.9000029408,0.0,0.614371019659872,1906.6492065127666,91.9000029408,0.35999970196000003,0.614371019659872,1684,-20.2,98,P-GPS,
0.0769824009749119,36.8736640076868,23400,2018-04-13 05:44:06,1907.1492065287666,92.4000029568,0.0,0.6209520198704641,1907.1492065287666,92.4000029568,0.35999970196000003,0.6209520198704641,1684,-20.2,98,P-GPS,
0.0769824510699203,36.8736640104031,23500,2018-04-13 05:44:06,1907.6492065447667,92.9000029728,0.0,0.623762019960384,1907.6492065447667,92.9000029728,0.35999970196000003,0.623762019960384,1684,-20.2,98,P-GPS,
0.0769825450172972,36.873664050698,23600,2018-04-13 05:44:06,1908.1492065607667,93.4000029888,0.0,0.632583020242656,1908.1492065607667,93.4000029888,0.35999970196000003,0.632583020242656,1684,-20.2,98,P-GPS,
0.0769825938510757,36.8736640759931,23700,2018-04-13 05:44:06,1908.6492065767666,93.9000030048,0.0,0.637627020404064,1908.6492065767666,93.9000030048,0.35999970196000003,0.637627020404064,1684,-20.2,98,P-GPS,
0.0769826656744124,36.8736641221317,23800,2018-04-13 05:44:07,1909.2492065959666,94.50000302400001,0.0,0.645949020670368,1909.2492065959666,94.50000302400001,0.35999970196000003,0.645949020670368,1684,-20.2,98,P-GPS,
0.076982690084788,36.8736641391891,23900,2018-04-13 05:44:07,1909.6492066087667,94.9000030368,0.0,0.6489190207654081,1909.6492066087667,94.9000030368,0.35999970196000003,0.6489190207654081,1684,-20.2,98,P-GPS,
0.0769827851386925,36.8736642016627,24000,2018-04-13 05:44:07,1910.2492066279665,95.50000305600001,0.0,0.660132021124224,1910.2492066279665,95.50000305600001,0.35999970196000003,0.660132021124224,1684,-20.2,98,P-GPS,
0.0769828226344298,36.8736642264392,24100,2018-04-13 05:44:07,1910.7492066439668,96.00000307200001,0.35999970196000003,0.664582021266624,1910.7492066439668,96.00000307200001,0.35999970196000003,0.664582021266624,1684,-20.2,98,P-GPS,
0.0769828760425075,36.8736642617369,24200,2018-04-13 05:44:07,1911.2492066599666,96.50000308800001,0.35999970196000003,0.670934021469888,1911.2492066599666,96.50000308800001,0.35999970196000003,0.670934021469888,1684,-20.2,98,P-GPS,
0.076982879139808,36.8736642649824,24300,2018-04-13 05:44:07,1911.7492066759667,97.00000310400002,0.35999970196000003,0.6714190214854081,1911.7492066759667,97.00000310400002,0.35999970196000003,0.6714190214854081,1684,-20.2,98,P-GPS,
0.0769829248787288,36.8736642792343,24400,2018-04-13 05:44:07,1912.2492066919667,97.50000312,0.35999970196000003,0.6753350216107201,1912.2492066919667,97.50000312,0.35999970196000003,0.6753350216107201,1684,-20.2,98,P-GPS,
0.076982935739636,36.8736642640986,24500,2018-04-13 05:44:07,1912.7492067079666,98.000003136,0.35999970196000003,0.674489021583648,1912.7492067079666,98.000003136,0.35999970196000003,0.6753350216107201,1684,-20.2,98,P-GPS,
0.0769830186062657,36.8736642829353,24600,2018-04-13 05:44:07,1913.2492067239666,98.500003152,0.35999970196000003,0.6809840217914881,1913.2492067239666,98.500003152,0.35999970196000003,0.6809840217914881,1684,-20.2,98,P-GPS,
0.0769830698761965,36.873664283951,24700,2018-04-13 05:44:07,1913.7492067399667,99.000003168,0.35999970196000003,0.6840260218888321,1913.7492067399667,99.000003168,0.35999970196000003,0.6840260218888321,1684,-20.2,98,P-GPS,
0.0769831453329989,36.8736643298805,24800,2018-04-13 05:44:08,1914.2492067559667,99.50000318400001,0.35999970196000003,0.69276502216848,1914.2492067559667,99.50000318400001,0.35999970196000003,0.69276502216848,1684,-20.2,98,P-GPS,
0.0769831572800782,36.8736643547745,24900,2018-04-13 05:44:08,1914.7492067719666,100.00000320000001,0.35999970196000003,0.6958190222662081,1914.7492067719666,100.00000320000001,0.35999970196000003,0.6958190222662081,1684,-20.2,98,P-GPS,
0.0769832066260025,36.8736643989079,25000,2018-04-13 05:44:08,1915.2492067879668,100.50000321600001,0.35999970196000003,0.7028800224921601,1915.2492067879668,100.50000321600001,0.35999970196000003,0.7028800224921601,1684,-20.2,98,P-GPS,
0.0769832240719301,36.8736644054041,25100,2018-04-13 05:44:08,1915.7492068039667,101.00000323200001,0.35999970196000003,0.704518022544576,1915.7492068039667,101.00000323200001,0.35999970196000003,0.704518022544576,1684,-20.2,98,P-GPS,
0.076983292363986,36.8736644494698,25200,2018-04-13 05:44:08,1916.2492068199667,101.50000324800001,0.35999970196000003,0.7127030228064961,1916.2492068199667,101.50000324800001,0.35999970196000003,0.7127030228064961,1684,-20.2,98,P-GPS,
0.076983315969096,36.8736644636201,25300,2018-04-13 05:44:08,1916.7492068359666,102.00000326400001,0.35999970196000003,0.715436022893952,1916.7492068359666,102.00000326400001,0.35999970196000003,0.715436022893952,1684,-20.2,98,P-GPS,
0.0769833883029499,36.8736644963648,25400,2018-04-13 05:44:08,1917.2492068519666,102.50000328,0.35999970196000003,0.722832023130624,1917.2492068519666,102.50000328,0.35999970196000003,0.722832023130624,1684,-20.2,98,P-GPS,
0.076983415217058,36.8736644931844,25500,2018-04-13 05:44:08,1917.7492068679667,103.000003296,0.35999970196000003,0.724158023173056,1917.7492068679667,103.000003296,0.35999970196000003,0.724158023173056,1684,-20.2,98,P-GPS,
0.0769834905496915,36.873664508842,25600,2018-04-13 05:44:08,1918.2492068839665,103.500003312,0.35999970196000003,0.7302010233664321,1918.2492068839665,103.500003312,0.35999970196000003,0.7302010233664321,1684,-20.2,98,P-GPS,
0.0769835271375713,36.8736644954187,25700,2018-04-13 05:44:08,1918.7492068999668,104.000003328,0.0,0.7312080233986561,1918.7492068999668,104.000003328,0.35999970196000003,0.7312080233986561,1684,-20.2,98,P-GPS,
0.0769835836437637,36.8736644963932,25800,2018-04-13 05:44:09,1919.2492069159666,104.500003344,0.0,0.7348080235138561,1919.2492069159666,104.500003344,0.35999970196000003,0.7348080235138561,1684,-20.2,98,P-GPS,
0.0769836009394674,36.8736644786322,25900,2018-04-13 05:44:09,1919.7492069319667,105.00000336000001,0.0,0.7342580234962561,1919.7492069319667,105.00000336000001,0.35999970196000003,0.7348080235138561,1684,-20.2,98,P-GPS,
0.076983660174932,36.8736644849619,26000,2018-04-13 05:44:09,1920.2492069479667,105.50000337600001,0.35999970196000003,0.7385750236344001,1920.2492069479667,105.50000337600001,0.35999970196000003,0.7385750236344001,1684,-20.2,98,P-GPS,
0.0769836726850459,36.8736644574731,26100,2018-04-13 05:44:09,1920.7492069639668,106.00000339200001,0.35999970196000003,0.736862023579584,1920.7492069639668,106.00000339200001,0.35999970196000003,0.7385750236344001,1684,-20.2,98,P-GPS,
0.076983726090681,36.8736644580194,26200,2018-04-13 05:44:09,1921.2492069799666,106.50000340800001,0.35999970196000003,0.740333023690656,1921.2492069799666,106.50000340800001,0.35999970196000003,0.740333023690656,1684,-20.2,98,P-GPS,
0.0769837400407465,36.8736644390414,26300,2018-04-13 05:44:09,1921.7492069959665,107.000003424,0.35999970196000003,0.7395130236644161,1921.7492069959665,107.000003424,0.35999970196000003,0.740333023690656,1684,-20.2,98,P-GPS,
0.0769837993612973,36.8736644517625,26400,2018-04-13 05:44:09,1922.2492070119667,107.50000344,0.35999970196000003,0.7445140238244481,1922.2492070119667,107.50000344,0.35999970196000003,0.7445140238244481,1684,-20.2,98,P-GPS,
0.0769838912181592,36.8736644766963,26600,2018-04-13 05:44:09,1923.2492070439666,108.500003472,0.35999970196000003,0.752779024088928,1923.2492070439666,108.500003472,0.35999970196000003,0.752779024088928,1684,-20.2,98,P-GPS,
0.0769839114141216,36.8736644874788,26700,2018-04-13 05:44:09,1923.7492070599667,109.000003488,0.35999970196000003,0.7550770241624641,1923.7492070599667,109.000003488,0.35999970196000003,0.7550770241624641,1684,-20.2,98,P-GPS,
0.0769839971069159,36.8736645219426,26800,2018-04-13 05:44:10,1924.2492070759668,109.500003504,0.35999970196000003,0.76384502444304,1924.2492070759668,109.500003504,0.35999970196000003,0.76384502444304,1684,-20.2,98,P-GPS,
0.0769840481712556,36.873664519257,26900,2018-04-13 05:44:10,1924.7492070919666,110.00000352,0.35999970196000003,0.767029024544928,1924.7492070919666,110.00000352,0.35999970196000003,0.767029024544928,1684,-20.2,98,P-GPS,
0.0769841416313206,36.8736645433154,27000,2018-04-13 05:44:10,1925.2492071079669,110.50000353600001,0.0,0.775478024815296,1925.2492071079669,110.50000353600001,0.35999970196000003,0.775478024815296,1684,-20.2,98,P-GPS,
0.0769841832616772,36.8736645407281,27100,2018-04-13 05:44:10,1925.7492071239667,111.00000355200001,0.0,0.778093024898976,1925.7492071239667,111.00000355200001,0.35999970196000003,0.778093024898976,1684,-20.2,98,P-GPS,
0.0769842648080459,36.8736645870642,27200,2018-04-13 05:44:10,1926.2492071399665,111.50000356800001,0.35999970196000003,0.7877480252079361,1926.2492071399665,111.50000356800001,0.35999970196000003,0.7877480252079361,1684,-20.2,98,P-GPS,
0.0769842888788908,36.873664609733,27300,2018-04-13 05:44:10,1926.7492071559668,112.000003584,0.35999970196000003,0.7913850253243201,1926.7492071559668,112.000003584,0.35999970196000003,0.7913850253243201,1684,-20.2,98,P-GPS,
0.0769843520360557,36.8736646495309,27400,2018-04-13 05:44:10,1927.2492071719666,112.5000036,0.35999970196000003,0.799219025575008,1927.2492071719666,112.5000036,0.35999970196000003,0.799219025575008,1684,-20.2,98,P-GPS,
0.0769843753472315,36.87366465003,27500,2018-04-13 05:44:10,1927.8492071911664,113.1000036192,0.35999970196000003,0.8008800256281601,1927.8492071911664,113.1000036192,0.35999970196000003,0.8008800256281601,1684,-20.2,98,P-GPS,
0.0769844638971307,36.873664692325,27600,2018-04-13 05:44:10,1928.3492072071667,113.6000036352,0.35999970196000003,0.81072002594304,1928.3492072071667,113.6000036352,0.35999970196000003,0.81072002594304,1684,-20.2,98,P-GPS,
0.0769845184272064,36.8736647097009,27700,2018-04-13 05:44:10,1928.8492072231666,114.1000036512,0.35999970196000003,0.816047026113504,1928.8492072231666,114.1000036512,0.35999970196000003,0.816047026113504,1669,-20.2,98,P-GPS,
0.0769846256085405,36.8736647743355,27800,2018-04-13 05:44:11,1929.3492072391666,114.6000036672,0.35999970196000003,0.8291690265334081,1929.3492072391666,114.6000036672,0.35999970196000003,0.8291690265334081,1663,-20.2,98,P-GPS,
0.0769846666962181,36.8736648002454,27900,2018-04-13 05:44:11,1929.8492072551667,115.1000036832,0.35999970196000003,0.834303026697696,1929.8492072551667,115.1000036832,0.35999970196000003,0.834303026697696,1663,-20.2,98,P-GPS,
0.0769847508594963,36.8736648476807,28000,2018-04-13 05:44:11,1930.3492072711667,115.6000036992,0.35999970196000003,0.8443500270192,1930.3492072711667,115.6000036992,0.35999970196000003,0.8443500270192,1654,-20.2,98,P-GPS,
0.0769847808810827,36.8736648468141,28100,2018-04-13 05:44:11,1930.8492072871666,116.1000037152,0.35999970196000003,0.846424027085568,1930.8492072871666,116.1000037152,0.35999970196000003,0.846424027085568,1605,-20.2,98,P-GPS,
0.0769848528562718,36.8736648613208,28200,2018-04-13 05:44:11,1931.3492073031668,116.60000373120002,0.35999970196000003,0.852833027290656,1931.3492073031668,116.60000373120002,0.35999970196000003,0.852833027290656,1372,-20.2,98,P-GPS,
0.0769848851373243,36.8736648369402,28300,2018-04-13 05:44:11,1931.7492073159667,117.000003744,0.0,0.8531130272996161,1931.7492073159667,117.000003744,0.35999970196000003,0.8531130272996161,1024,-20.2,98,P-GPS,
0.0769849795451437,36.8736648384666,28400,2018-04-13 05:44:11,1932.1492073287668,117.4000037568,0.0,0.860136027524352,1932.1492073287668,117.4000037568,0.35999970196000003,0.860136027524352,1024,-20.2,98,P-GPS,
0.0769850317563151,36.8736648161647,28500,2018-04-13 05:44:11,1932.5492073415667,117.80000376960001,0.0,0.862127027588064,1932.5492073415667,117.80000376960001,0.35999970196000003,0.862127027588064,1024,-20.2,98,P-GPS,
