latitude,longitude,time_millisecond,datetime_utc,altitude_m,ascent_m,speed_kph,distance_m,max_altitude_m,max_ascent_m,max_speed_kph,max_distance_m,rc_throttle,gimbal_pitch_degrees,battery_percent,flycState,message
0.375914557434408,36.925448646502204,0,2018-04-17 07:32:52,1630.487234775595,0.0,0.0,0.0,1630.487234775595,0.0,0.0,0.0,364,0.0,99,Motors_Started,
0.375914549309592,36.9254487105763,100,2018-04-17 07:32:52,1630.487234775595,0.0,0.0,0.00718234022983488,1630.487234775595,0.0,0.0,0.00718234022983488,364,0.0,99,Motors_Started,
0.37591454789824,36.925448794691896,200,2018-04-17 07:32:52,1630.487234775595,0.0,0.0,0.0165133005284256,1630.487234775595,0.0,0.0,0.0165133005284256,364,0.0,99,Motors_Started,
0.37591454609076896,36.925448884570706,300,2018-04-17 07:32:53,1630.487234775595,0.0,0.0,0.026504100848131203,1630.487234775595,0.0,0.0,0.026504100848131203,364,0.0,99,Motors_Started,
0.375914549975117,36.9254489747364,400,2018-04-17 07:32:53,1630.487234775595,0.0,0.0,0.0365103011683296,1630.487234775595,0.0,0.0,0.0365103011683296,364,0.0,99,Motors_Started,
0.37591455214674896,36.925449049449796,500,2018-04-17 07:32:53,1630.487234775595,0.0,0.0,0.044813101434019204,1630.487234775595,0.0,0.0,0.044813101434019204,743,0.0,99,Motors_Started,
0.375914559356175,36.9254491199322,600,2018-04-17 07:32:53,1630.487234775595,0.0,0.0,0.052647601684723204,1630.487234775595,0.0,0.0,0.052647601684723204,1024,0.0,99,Motors_Started,
0.375914563974646,36.925449183248794,700,2018-04-17 07:32:53,1630.487234775595,0.0,0.0,0.05969260191016321,1630.487234775595,0.0,0.0,0.05969260191016321,1024,0.0,99,Motors_Started,Setting new Return-To-Home altitude to 30m (98 ft). Setting new Maximum Flight Altitude to 150m (492 ft)
0.37591457243309007,36.9254492594986,800,2018-04-17 07:32:53,1630.487234775595,0.0,0.0,0.0681879021820128,1630.487234775595,0.0,0.0,0.0681879021820128,1024,0.0,99,Motors_Started,
0.37591458684095097,36.9254494076974,1000,2018-04-17 07:32:53,1630.487234775595,0.0,0.0,0.08471090271074881,1630.487234775595,0.0,0.0,0.08471090271074881,1024,0.0,99,Motors_Started,
0.375914591358866,36.9254494502804,1100,2018-04-17 07:32:53,1630.487234775595,0.0,0.0,0.0894627028628064,1630.487234775595,0.0,0.0,0.0894627028628064,1024,0.0,99,Motors_Started,
0.375914595284739,36.925449494087,1200,2018-04-17 07:32:53,1630.487234775595,0.0,0.0,0.094348503019152,1630.487234775595,0.0,0.0,0.094348503019152,1024,0.0,99,Motors_Started,
0.37591460029261103,36.9254495651154,1300,2018-04-17 07:32:54,1630.487234775595,0.0,0.0,0.102264003272448,1630.487234775595,0.0,0.0,0.102264003272448,1024,0.0,99,Motors_Started,
0.375914603156026,36.9254496252041,1400,2018-04-17 07:32:54,1630.487234775595,0.0,0.0,0.108954003486528,1630.487234775595,0.0,0.0,0.108954003486528,1024,0.0,99,Motors_Started,
0.375914606482123,36.9254496888012,1500,2018-04-17 07:32:54,1630.487234775595,0.0,0.0,0.11603600371315201,1630.487234775595,0.0,0.0,0.11603600371315201,1024,0.0,99,Assisted_Takeoff,
0.375914608115656,36.9254497346164,1600,2018-04-17 07:32:54,1630.487234775595,0.0,0.0,0.121134003876288,1630.487234775595,0.0,0.0,0.121134003876288,1024,0.0,99,Assisted_Takeoff,
0.37591460834516494,36.925449786322105,1700,2018-04-17 07:32:54,1630.487234775595,0.0,0.0,0.12687900406012798,1630.487234775595,0.0,0.0,0.12687900406012798,1024,0.0,99,Assisted_Takeoff,
0.375914607275379,36.9254498285336,1800,2018-04-17 07:32:54,1630.487234775595,0.0,0.0,0.131563004210016,1630.487234775595,0.0,0.0,0.131563004210016,1024,0.0,99,Assisted_Takeoff,
0.375914607865487,36.9254498808035,1900,2018-04-17 07:32:54,1630.487234775595,0.0,0.0,0.137373004395936,1630.487234775595,0.0,0.0,0.137373004395936,1024,0.0,99,Assisted_Takeoff,
0.375914606086717,36.925449920493705,2000,2018-04-17 07:32:54,1630.487234775595,0.0,0.0,0.14177600453683198,1630.487234775595,0.0,0.0,0.14177600453683198,1024,0.0,99,Assisted_Takeoff,
0.37591460815992994,36.9254499720121,2100,2018-04-17 07:32:54,1630.487234775595,0.0,0.0,0.14751000472032003,1630.487234775595,0.0,0.0,0.14751000472032003,1024,0.0,99,Assisted_Takeoff,
0.37591460707497903,36.925449993095796,2200,2018-04-17 07:32:54,1630.487234775595,0.0,0.0,0.14984800479513602,1630.487234775595,0.0,0.0,0.14984800479513602,1024,0.0,99,Assisted_Takeoff,
0.37591460824888295,36.925450013212796,2300,2018-04-17 07:32:55,1630.487234775595,0.0,0.0,0.152088004866816,1630.487234775595,0.0,0.0,0.152088004866816,1024,0.0,99,Assisted_Takeoff,
0.375914607728087,36.925450004996904,2400,2018-04-17 07:32:55,1630.487234775595,0.0,0.0,0.15117300483753598,1630.487234775595,0.0,0.0,0.152088004866816,1024,0.0,99,Assisted_Takeoff,
0.37591460811077104,36.925450004341705,2500,2018-04-17 07:32:55,1630.487234775595,0.0,0.0,0.151102004835264,1630.487234775595,0.0,0.0,0.152088004866816,1024,0.0,99,Assisted_Takeoff,
0.375914607975406,36.9254499817419,2600,2018-04-17 07:32:55,1630.487234775595,0.0,0.0,0.14859000475488002,1630.487234775595,0.0,0.0,0.152088004866816,1024,0.0,99,Assisted_Takeoff,
0.375914607761266,36.925449970768,2700,2018-04-17 07:32:55,1630.487234775595,0.0,0.0,0.14737000471584,1630.487234775595,0.0,0.0,0.152088004866816,1024,0.0,99,Assisted_Takeoff,
0.375914607987416,36.9254499829281,2800,2018-04-17 07:32:55,1630.487234775595,0.0,0.0,0.14872200475910402,1630.487234775595,0.0,0.0,0.152088004866816,1046,0.0,99,Assisted_Takeoff,
0.37591460742651894,36.925450028155495,2900,2018-04-17 07:32:55,1630.487234775595,0.0,0.0,0.153746004919872,1630.487234775595,0.0,0.0,0.153746004919872,1025,0.0,99,Assisted_Takeoff,
0.37591460728728704,36.9254500475852,3000,2018-04-17 07:32:55,1630.487234775595,0.0,0.0,0.15590400498892804,1630.487234775595,0.0,0.0,0.15590400498892804,1024,0.0,99,Assisted_Takeoff,
0.375914605906265,36.925450040108,3100,2018-04-17 07:32:55,1630.487234775595,0.0,0.0,0.155068004962176,1630.487234775595,0.0,0.0,0.15590400498892804,1024,0.0,99,Assisted_Takeoff,
0.3759146052957,36.925450040972,3200,2018-04-17 07:32:56,1630.487234775595,0.0,0.0,0.15516200496518404,1630.487234775595,0.0,0.0,0.15590400498892804,1102,0.0,99,Assisted_Takeoff,
0.375914603267575,36.925450059697106,3300,2018-04-17 07:32:56,1630.487234775595,0.0,0.0,0.15723500503152002,1630.487234775595,0.0,0.0,0.15723500503152002,1104,0.0,99,Assisted_Takeoff,
0.375914602248474,36.9254500717813,3400,2018-04-17 07:32:56,1630.487234775595,0.0,0.0,0.1585750050744,1630.487234775595,0.0,0.0,0.1585750050744,1102,0.0,99,Assisted_Takeoff,
0.375914600264521,36.925450081349396,3500,2018-04-17 07:32:56,1630.487234775595,0.0,0.0,0.15963100510819198,1630.487234775595,0.0,0.0,0.15963100510819198,1141,0.0,99,Assisted_Takeoff,
0.375914597838241,36.925450099732,3600,2018-04-17 07:32:56,1630.487234775595,0.0,0.0,0.161667005173344,1630.487234775595,0.0,0.0,0.161667005173344,1157,0.0,99,Assisted_Takeoff,
0.375914596083185,36.925450133550896,3700,2018-04-17 07:32:56,1630.487234775595,0.0,0.0,0.16542100529347198,1630.487234775595,0.0,0.0,0.16542100529347198,1156,0.0,99,Assisted_Takeoff,
0.37591459406666294,36.9254501572534,3800,2018-04-17 07:32:56,1630.487234775595,0.0,0.0,0.16805100537763198,1630.487234775595,0.0,0.0,0.16805100537763198,1160,0.0,99,Assisted_Takeoff,
0.37591459237644004,36.925450174389795,3900,2018-04-17 07:32:56,1630.487234775595,0.0,0.0,0.16995100543843197,1630.487234775595,0.0,0.0,0.16995100543843197,1153,0.0,99,Assisted_Takeoff,
0.375914591932383,36.9254501801369,4000,2018-04-17 07:32:56,1630.487234775595,0.0,0.0,0.17058900545884803,1630.487234775595,0.0,0.0,0.17058900545884803,1177,0.0,99,Assisted_Takeoff,
0.375914591009259,36.92545018537329,4100,2018-04-17 07:32:56,1630.487234775595,0.0,0.0,0.17116900547740801,1630.487234775595,0.0,0.0,0.17116900547740801,1249,0.0,99,Assisted_Takeoff,
0.37591459343116296,36.925450201286004,4200,2018-04-17 07:32:56,1630.487234775595,0.0,0.0,0.17294400553420802,1630.487234775595,0.0,0.0,0.17294400553420802,1280,0.0,99,Assisted_Takeoff,
0.3759145901841471,36.9254502447147,4300,2018-04-17 07:32:57,1630.487234775595,0.0,0.0,0.17776400568844802,1630.487234775595,0.0,0.0,0.17776400568844802,1301,0.0,99,Assisted_Takeoff,
0.375914587625454,36.925450308977794,4400,2018-04-17 07:32:57,1630.487234775595,0.0,0.0,0.18490400591692802,1630.487234775595,0.0,0.0,0.18490400591692802,1301,0.0,99,Assisted_Takeoff,Obstacle Avoided. Revise Flight Route
0.375914579887394,36.9254504105242,4500,2018-04-17 07:32:57,1630.487234775595,0.0,0.35999970196000003,0.196182006277824,1630.487234775595,0.0,0.35999970196000003,0.196182006277824,1302,0.0,99,P-GPS,
0.37591455239478105,36.925450593750604,4600,2018-04-17 07:32:57,1630.487234775595,0.0,0.35999970196000003,0.216542006929344,1630.487234775595,0.0,0.35999970196000003,0.216542006929344,1346,0.0,99,P-GPS,
0.37591449430645296,36.9254508111695,4700,2018-04-17 07:32:57,1630.587234778795,0.10000000320000002,0.35999970196000003,0.24082100770627202,1630.587234778795,0.10000000320000002,0.35999970196000003,0.24082100770627202,1348,0.0,99,P-GPS,
0.375914280491858,36.9254511343638,4900,2018-04-17 07:32:57,1630.6872347819947,0.20000000640000004,0.0,0.278368008907776,1630.6872347819947,0.20000000640000004,0.35999970196000003,0.278368008907776,1341,0.0,99,P-GPS,Home Point Recorded. RTH Altitude:  30m.
0.375914171988329,36.925451247185,5000,2018-04-17 07:32:57,1630.8872347883948,0.4000000128000001,0.0,0.29236500935568,1630.8872347883948,0.4000000128000001,0.35999970196000003,0.29236500935568,1341,0.0,99,P-GPS,
0.37591407298442997,36.9254513546413,5100,2018-04-17 07:32:57,1630.9872347915948,0.500000016,0.0,0.305936009789952,1630.9872347915948,0.500000016,0.35999970196000003,0.305936009789952,1349,0.0,99,P-GPS,
0.37591395527337396,36.9254514823313,5200,2018-04-17 07:32:57,1631.0872347947948,0.6000000192,0.0,0.32238601031635195,1631.0872347947948,0.6000000192,0.35999970196000003,0.32238601031635195,1349,0.0,99,P-GPS,
0.37591384362216496,36.925451610406704,5300,2018-04-17 07:32:58,1631.287234801195,0.8000000256000002,0.0,0.33902101084867203,1631.287234801195,0.8000000256000002,0.35999970196000003,0.33902101084867203,1365,0.0,99,P-GPS,
0.37591377863320397,36.925451767347205,5400,2018-04-17 07:32:58,1631.4872348075949,1.000000032,0.0,0.3576930114461761,1631.4872348075949,1.000000032,0.35999970196000003,0.3576930114461761,1379,0.0,99,P-GPS,
0.37591374387996995,36.9254519211807,5500,2018-04-17 07:32:58,1631.587234810795,1.1000000352,0.0,0.375227012007264,1631.587234810795,1.1000000352,0.35999970196000003,0.375227012007264,1352,0.0,99,P-GPS,
0.375913738882479,36.9254520930264,5600,2018-04-17 07:32:58,1631.7872348171948,1.3000000416000002,0.0,0.39392801260569604,1631.7872348171948,1.3000000416000002,0.35999970196000003,0.39392801260569604,1348,0.0,99,P-GPS,
0.375913692376154,36.9254522454992,5700,2018-04-17 07:32:58,1631.987234823595,1.5000000480000002,0.35999970196000003,0.41162101317187205,1631.987234823595,1.5000000480000002,0.35999970196000003,0.41162101317187205,1441,0.0,99,P-GPS,
0.375913589859294,36.9254524282695,5800,2018-04-17 07:32:58,1632.1872348299948,1.7000000544000002,0.35999970196000003,0.434094013891008,1632.1872348299948,1.7000000544000002,0.35999970196000003,0.434094013891008,1478,0.0,99,P-GPS,
0.375913465499708,36.9254526138117,5900,2018-04-17 07:32:58,1632.387234836395,1.9000000607999998,0.503999582744,0.45758601464275206,1632.387234836395,1.9000000607999998,0.503999582744,0.45758601464275206,1478,0.0,99,P-GPS,
0.37591334499322293,36.92545281485221,6000,2018-04-17 07:32:58,1632.6872348459947,2.2000000704,0.503999582744,0.482747015447904,1632.6872348459947,2.2000000704,0.503999582744,0.482747015447904,1491,0.0,99,P-GPS,
0.375913217592111,36.9254530001459,6100,2018-04-17 07:32:58,1632.8872348523948,2.4000000768,0.503999582744,0.5065500162095999,1632.8872348523948,2.4000000768,0.503999582744,0.5065500162095999,1498,0.0,99,P-GPS,
0.375913071005892,36.925453207138,6200,2018-04-17 07:32:58,1633.187234861995,2.7000000863999998,0.503999582744,0.5334180170693761,1633.187234861995,2.7000000863999998,0.503999582744,0.5334180170693761,1513,0.0,99,P-GPS,
0.37591289830146796,36.9254534216802,6300,2018-04-17 07:32:59,1633.4872348715949,3.0000000960000004,0.503999582744,0.5621580179890561,1633.4872348715949,3.0000000960000004,0.503999582744,0.5621580179890561,1548,0.0,99,P-GPS,
0.37591272085786404,36.9254535744634,6400,2018-04-17 07:32:59,1633.7872348811948,3.3000001056,0.503999582744,0.58483001871456,1633.7872348811948,3.3000001056,0.503999582744,0.58483001871456,1567,0.0,99,P-GPS,
0.375912596945286,36.925453656063105,6500,2018-04-17 07:32:59,1634.087234890795,3.6000001152000003,0.35999970196000003,0.5982240191431679,1634.087234890795,3.6000001152000003,0.503999582744,0.5982240191431679,1587,0.0,99,P-GPS,
0.37591255526098705,36.9254537051319,6600,2018-04-17 07:32:59,1634.3872349003948,3.9000001248,0.35999970196000003,0.604999019359968,1634.3872349003948,3.9000001248,0.503999582744,0.604999019359968,1584,0.0,99,P-GPS,
0.37591253941012004,36.9254537576845,6700,2018-04-17 07:32:59,1634.7872349131949,4.3000001376,0.35999970196000003,0.6110820195546239,1634.7872349131949,4.3000001376,0.503999582744,0.6110820195546239,1585,0.0,99,P-GPS,
0.37591250160009293,36.925453794940005,6800,2018-04-17 07:32:59,1635.087234922795,4.6000001472,0.35999970196000003,0.616484019727488,1635.087234922795,4.6000001472,0.503999582744,0.616484019727488,1595,0.0,99,P-GPS,
0.375912416491096,36.925453838223206,6900,2018-04-17 07:32:59,1635.4872349355949,5.00000016,0.0,0.624504019984128,1635.4872349355949,5.00000016,0.503999582744,0.624504019984128,1595,-0.1,99,P-GPS,
0.375912337917452,36.925453816851395,7000,2018-04-17 07:32:59,1635.887234948395,5.4000001727999996,0.0,0.625702020022464,1635.887234948395,5.4000001727999996,0.503999582744,0.625702020022464,1595,-0.1,99,P-GPS,
0.375912294859357,36.925453798002,7100,2018-04-17 07:32:59,1636.2872349611948,5.8000001856,0.0,0.6256870200219841,1636.2872349611948,5.8000001856,0.503999582744,0.625702020022464,1599,-1.7,99,P-GPS,
0.375912265991116,36.9254537607914,7200,2018-04-17 07:32:59,1636.687234973995,6.2000001984,0.0,0.6232060199425921,1636.687234973995,6.2000001984,0.503999582744,0.625702020022464,1600,-3.3,99,P-GPS,
0.37591221942413205,36.9254537438135,7300,2018-04-17 07:33:00,1637.0872349867948,6.6000002112,0.0,0.6236250199560001,1637.0872349867948,6.6000002112,0.503999582744,0.625702020022464,1625,-5.4,99,P-GPS,
0.37591215453348803,36.925453744508296,7400,2018-04-17 07:33:00,1637.5872350027948,7.100000227200002,0.35999970196000003,0.6267380200556161,1637.5872350027948,7.100000227200002,0.503999582744,0.6267380200556161,1607,-8.3,99,P-GPS,
0.3759120391142629,36.925453814348295,7500,2018-04-17 07:33:00,1637.9872350155947,7.50000024,0.35999970196000003,0.639289020457248,1637.9872350155947,7.50000024,0.503999582744,0.639289020457248,1558,-11.5,99,P-GPS,
0.375911891157506,36.9254538717037,7600,2018-04-17 07:33:00,1638.3872350283948,7.9000002528,0.35999970196000003,0.6523410208749121,1638.3872350283948,7.9000002528,0.503999582744,0.6523410208749121,1477,-14.8,99,P-GPS,
0.375911760786315,36.925453933720604,7700,2018-04-17 07:33:00,1638.7872350411947,8.3000002656,0.35999970196000003,0.6651460212846722,1638.7872350411947,8.3000002656,0.503999582744,0.6651460212846722,1496,-17.9,99,P-GPS,
0.375911677031776,36.92545397615471,7800,2018-04-17 07:33:00,1639.1872350539948,8.700000278400001,0.35999970196000003,0.673699021558368,1639.1872350539948,8.700000278400001,0.503999582744,0.673699021558368,1499,-21.0,99,P-GPS,
0.375911616015201,36.9254539627569,7900,2018-04-17 07:33:00,1639.5872350667946,9.1000002912,0.35999970196000003,0.675647021620704,1639.5872350667946,9.1000002912,0.503999582744,0.675647021620704,1525,-24.1,99,P-GPS,
0.375911566893188,36.9254538547375,8000,2018-04-17 07:33:00,1639.8872350763947,9.400000300800002,0.0,0.66786502137168,1639.8872350763947,9.400000300800002,0.503999582744,0.675647021620704,1536,-27.2,99,P-GPS,
0.375911529394601,36.925453748885005,8100,2018-04-17 07:33:00,1640.2872350891948,9.8000003136,0.0,0.659802021113664,1640.2872350891948,9.8000003136,0.503999582744,0.675647021620704,1539,-29.6,99,P-GPS,
0.37591151197594896,36.925453649965895,8200,2018-04-17 07:33:00,1640.5872350987947,10.100000323200002,0.0,0.651372020843904,1640.5872350987947,10.100000323200002,0.503999582744,0.675647021620704,1539,-29.6,99,P-GPS,
0.37591148144750997,36.925453603692496,8300,2018-04-17 07:33:01,1640.9872351115948,10.500000336,0.0,0.64876502076048,1640.9872351115948,10.500000336,0.503999582744,0.675647021620704,1522,-29.6,99,P-GPS,
0.375911447264842,36.9254535897487,8400,2018-04-17 07:33:01,1641.287235121195,10.800000345599999,0.0,0.649464020782848,1641.287235121195,10.800000345599999,0.503999582744,0.675647021620704,1518,-29.6,99,P-GPS,
0.375911418316807,36.9254536068733,8500,2018-04-17 07:33:01,1641.6872351339948,11.200000358400002,0.0,0.6527930208893761,1641.6872351339948,11.200000358400002,0.503999582744,0.675647021620704,1511,-29.6,99,P-GPS,
0.375911406736942,36.9254536318627,8600,2018-04-17 07:33:01,1641.987235143595,11.500000367999998,0.0,0.65583002098656,1641.987235143595,11.500000367999998,0.503999582744,0.675647021620704,1501,-29.6,99,P-GPS,
0.375911371322356,36.9254536374353,8700,2018-04-17 07:33:01,1642.3872351563948,11.900000380800002,0.0,0.6584650210708801,1642.3872351563948,11.900000380800002,0.503999582744,0.675647021620704,1500,-29.6,99,P-GPS,
0.375911315395483,36.9254536501747,8800,2018-04-17 07:33:01,1642.687235165995,12.2000003904,0.35999970196000003,0.66302002121664,1642.687235165995,12.2000003904,0.503999582744,0.675647021620704,1500,-29.6,99,P-GPS,
0.37591125907819,36.9254536459778,9000,2018-04-17 07:33:01,1643.3872351883947,12.900000412799999,0.0,0.6660570213138239,1643.3872351883947,12.900000412799999,0.503999582744,0.675647021620704,1504,-29.6,99,P-GPS,
0.37591129329831197,36.925453613073294,9100,2018-04-17 07:33:01,1643.6872351979948,13.2000004224,0.0,0.6609080211490561,1643.6872351979948,13.2000004224,0.503999582744,0.675647021620704,1533,-29.6,99,P-GPS,
0.375911358552912,36.925453557508995,9200,2018-04-17 07:33:01,1643.987235207595,13.500000432000002,0.0,0.6517640208564481,1643.987235207595,13.500000432000002,0.503999582744,0.675647021620704,1589,-29.6,99,P-GPS,
0.375911423398774,36.9254534800195,9300,2018-04-17 07:33:02,1644.2872352171948,13.8000004416,0.0,0.6406100204995201,1644.2872352171948,13.8000004416,0.503999582744,0.675647021620704,1637,-29.6,99,P-GPS,
0.375911508719468,36.92545341106071,9400,2018-04-17 07:33:02,1644.687235229995,14.200000454400003,0.0,0.6290250201288,1644.687235229995,14.200000454400003,0.503999582744,0.675647021620704,1640,-29.6,99,P-GPS,
0.37591159191911494,36.9254533837769,9500,2018-04-17 07:33:02,1644.987235239595,14.500000464,0.0,0.621513019888416,1644.987235239595,14.500000464,0.503999582744,0.675647021620704,1642,-29.6,99,P-GPS,
0.37591170489933795,36.925453392140604,9600,2018-04-17 07:33:02,1645.387235252395,14.9000004768,0.0,0.6157350197035201,1645.387235252395,14.9000004768,0.503999582744,0.675647021620704,1651,-29.6,99,P-GPS,
0.3759118412599461,36.9254533717367,9700,2018-04-17 07:33:02,1645.787235265195,15.3000004896,0.0,0.6060930193949761,1645.787235265195,15.3000004896,0.503999582744,0.675647021620704,1675,-29.6,99,P-GPS,
0.37591219582390706,36.925453139915795,9900,2018-04-17 07:33:02,1646.687235293995,16.2000005184,0.503999582744,0.5644970180639041,1646.687235293995,16.2000005184,0.503999582744,0.675647021620704,1679,-29.6,99,P-GPS,
0.37591241259830105,36.9254529390155,10000,2018-04-17 07:33:02,1647.1872353099948,16.7000005344,0.503999582744,0.533618017075776,1647.1872353099948,16.7000005344,0.503999582744,0.675647021620704,1684,-29.6,99,P-GPS,
0.37591260707990704,36.925452705022295,10100,2018-04-17 07:33:02,1647.687235325995,17.2000005504,0.7919993443119999,0.500733016023456,1647.687235325995,17.2000005504,0.7919993443119999,0.675647021620704,1684,-29.6,99,P-GPS,
0.37591279122516796,36.9254524944982,10200,2018-04-17 07:33:02,1648.187235341995,17.700000566400004,0.7199994039200001,0.47083601506675204,1648.187235341995,17.700000566400004,0.7919993443119999,0.675647021620704,1684,-29.6,99,P-GPS,
0.37591295540061803,36.925452319522,10300,2018-04-17 07:33:03,1648.6872353579947,18.2000005824,0.7919993443119999,0.445616014259712,1648.6872353579947,18.2000005824,0.7919993443119999,0.675647021620704,1684,-29.6,99,P-GPS,
0.37591313103461294,36.925452154530504,10400,2018-04-17 07:33:03,1649.187235373995,18.7000005984,0.7919993443119999,0.42112301347593606,1649.187235373995,18.7000005984,0.7919993443119999,0.675647021620704,1684,-29.6,99,P-GPS,
0.3759132872429001,36.9254519826987,10500,2018-04-17 07:33:03,1649.6872353899948,19.2000006144,0.7919993443119999,0.3969780127032961,1649.6872353899948,19.2000006144,0.7919993443119999,0.675647021620704,1684,-29.6,99,P-GPS,
0.37591347453187196,36.9254518604228,10600,2018-04-17 07:33:03,1650.187235405995,19.7000006304,0.7919993443119999,0.3771430120685761,1650.187235405995,19.7000006304,0.7919993443119999,0.675647021620704,1684,-29.6,99,P-GPS,
0.375913652567415,36.9254517604673,10700,2018-04-17 07:33:03,1650.6872354219947,20.200000646400003,0.7919993443119999,0.36060901153948804,1650.6872354219947,20.200000646400003,0.7919993443119999,0.675647021620704,1684,-29.6,99,P-GPS,
0.375913825092711,36.9254517033646,10800,2018-04-17 07:33:03,1651.187235437995,20.7000006624,0.7919993443119999,0.349554011185728,1651.187235437995,20.7000006624,0.7919993443119999,0.675647021620704,1684,-29.6,99,P-GPS,
0.37591395010815293,36.9254516564413,10900,2018-04-17 07:33:03,1651.7872354571948,21.300000681600004,0.7919993443119999,0.341462010926784,1651.7872354571948,21.300000681600004,0.7919993443119999,0.675647021620704,1684,-29.6,99,P-GPS,
0.37591406811232997,36.9254516472361,11000,2018-04-17 07:33:03,1652.2872354731949,21.8000006976,0.35999970196000003,0.33810001081920005,1652.2872354731949,21.8000006976,0.7919993443119999,0.675647021620704,1684,-29.6,99,P-GPS,
0.375914167358867,36.9254516647173,11100,2018-04-17 07:33:03,1652.787235489195,22.3000007136,0.35999970196000003,0.33842801082969604,1652.787235489195,22.3000007136,0.7919993443119999,0.675647021620704,1684,-29.6,99,P-GPS,
0.37591425655821004,36.925451708423296,11200,2018-04-17 07:33:03,1653.387235508395,22.900000732800002,0.35999970196000003,0.34213701094838395,1653.387235508395,22.900000732800002,0.7919993443119999,0.675647021620704,1684,-29.6,99,P-GPS,
0.3759143208391029,36.92545173563639,11300,2018-04-17 07:33:04,1653.887235524395,23.400000748800004,0.0,0.34452901102492806,1653.887235524395,23.400000748800004,0.7919993443119999,0.675647021620704,1684,-29.6,99,P-GPS,
0.37591439346129296,36.9254517743051,11400,2018-04-17 07:33:04,1654.3872355403948,23.9000007648,0.0,0.348301011145632,1654.3872355403948,23.9000007648,0.7919993443119999,0.675647021620704,1684,-29.6,99,P-GPS,
0.37591443513521,36.9254518131302,11500,2018-04-17 07:33:04,1654.8872355563947,24.4000007808,0.0,0.3524030112768961,1654.8872355563947,24.4000007808,0.7919993443119999,0.675647021620704,1684,-29.6,99,P-GPS,
0.375914471933872,36.9254518745615,11600,2018-04-17 07:33:04,1655.387235572395,24.9000007968,0.0,0.35909801149113607,1655.387235572395,24.9000007968,0.7919993443119999,0.675647021620704,1684,-29.6,99,P-GPS,
0.37591450239951496,36.925451971501005,11700,2018-04-17 07:33:04,1655.9872355915948,25.500000816,0.0,0.369803011833696,1655.9872355915948,25.500000816,0.7919993443119999,0.675647021620704,1684,-29.6,99,P-GPS,
0.375914541962867,36.9254520988356,11800,2018-04-17 07:33:04,1656.487235607595,26.000000832,0.0,0.383916012285312,1656.487235607595,26.000000832,0.7919993443119999,0.675647021620704,1684,-29.6,99,P-GPS,
0.37591455914437605,36.9254522345884,11900,2018-04-17 07:33:04,1656.9872356235949,26.500000848000003,0.0,0.399009012768288,1656.9872356235949,26.500000848000003,0.7919993443119999,0.675647021620704,1684,-29.6,99,P-GPS,
0.37591455301898397,36.925452377221106,12000,2018-04-17 07:33:04,1657.5872356427947,27.100000867200002,0.0,0.41487001327584005,1657.5872356427947,27.100000867200002,0.7919993443119999,0.675647021620704,1684,-29.6,99,P-GPS,
0.37591452955096794,36.92545250498279,12100,2018-04-17 07:33:04,1658.087235658795,27.6000008832,0.0,0.42908901373084807,1658.087235658795,27.6000008832,0.7919993443119999,0.675647021620704,1684,-29.6,99,P-GPS,
0.375914527124689,36.9254526478821,12200,2018-04-17 07:33:04,1658.5872356747948,28.1000008992,0.0,0.444981014239392,1658.5872356747948,28.1000008992,0.7919993443119999,0.675647021620704,1684,-29.6,99,P-GPS,
0.37591453120027707,36.9254527882986,12300,2018-04-17 07:33:05,1659.0872356907948,28.600000915200003,0.0,0.46059201473894396,1659.0872356907948,28.600000915200003,0.7919993443119999,0.675647021620704,1684,-29.5,99,P-GPS,
0.37591452712275497,36.925453073198796,12500,2018-04-17 07:33:05,1660.0872357227947,29.6000009472,0.0,0.4922770157528641,1660.0872357227947,29.6000009472,0.7919993443119999,0.675647021620704,1684,-29.4,99,P-GPS,
0.37591450661341896,36.9254532410993,12600,2018-04-17 07:33:05,1660.687235741995,30.200000966400005,0.0,0.510967016350944,1660.687235741995,30.200000966400005,0.7919993443119999,0.675647021620704,1684,-29.1,99,P-GPS,
0.37591447566046404,36.925453407308105,12700,2018-04-17 07:33:05,1661.1872357579948,30.700000982400002,0.0,0.529497016943904,1661.1872357579948,30.700000982400002,0.7919993443119999,0.675647021620704,1684,-28.8,99,P-GPS,
0.3759144405549771,36.9254535994774,12800,2018-04-17 07:33:05,1661.6872357739949,31.2000009984,0.0,0.5509430176301761,1661.6872357739949,31.2000009984,0.7919993443119999,0.675647021620704,1684,-28.5,99,P-GPS,
0.375914401872206,36.9254537733081,12900,2018-04-17 07:33:05,1662.187235789995,31.7000010144,0.0,0.570382018252224,1662.187235789995,31.7000010144,0.7919993443119999,0.675647021620704,1684,-28.0,99,P-GPS,
0.375914362401879,36.9254539531695,13000,2018-04-17 07:33:05,1662.687235805995,32.2000010304,0.0,0.590519018896608,1662.687235805995,32.2000010304,0.7919993443119999,0.675647021620704,1684,-27.6,99,P-GPS,
0.375914325511109,36.9254540866419,13100,2018-04-17 07:33:05,1663.1872358219948,32.700001046400004,0.0,0.605513019376416,1663.1872358219948,32.700001046400004,0.7919993443119999,0.675647021620704,1684,-27.6,99,P-GPS,
0.37591430341159704,36.9254542357476,13200,2018-04-17 07:33:05,1663.6872358379946,33.2000010624,0.0,0.622186019909952,1663.6872358379946,33.2000010624,0.7919993443119999,0.675647021620704,1684,-27.6,99,P-GPS,
0.37591429878803706,36.925454365071396,13300,2018-04-17 07:33:06,1664.187235853995,33.70000107840001,0.0,0.6365760203704321,1664.187235853995,33.70000107840001,0.7919993443119999,0.675647021620704,1684,-27.6,99,P-GPS,
0.37591428965246604,36.9254545122092,13400,2018-04-17 07:33:06,1664.7872358731947,34.3000010976,0.0,0.6529680208949761,1664.7872358731947,34.3000010976,0.7919993443119999,0.675647021620704,1684,-27.6,99,P-GPS,
0.375914261083045,36.925454626590295,13500,2018-04-17 07:33:06,1665.287235889195,34.800001113600004,0.0,0.6658240213063681,1665.287235889195,34.800001113600004,0.7919993443119999,0.675647021620704,1684,-27.5,99,P-GPS,
0.37591421139799697,36.9254547728245,13600,2018-04-17 07:33:06,1665.7872359051948,35.300001129600005,0.0,0.6823560218353921,1665.7872359051948,35.300001129600005,0.7919993443119999,0.6823560218353921,1684,-27.4,99,P-GPS,
0.375914159600145,36.9254549125216,13700,2018-04-17 07:33:06,1666.3872359243946,35.9000011488,0.0,0.698208022342656,1666.3872359243946,35.9000011488,0.7919993443119999,0.698208022342656,1684,-26.6,99,P-GPS,
0.3759141128328621,36.9254550990605,13800,2018-04-17 07:33:06,1666.887235940395,36.4000011648,0.0,0.719250023016,1666.887235940395,36.4000011648,0.7919993443119999,0.719250023016,1684,-25.6,99,P-GPS,
0.3759140700980129,36.925455240789496,13900,2018-04-17 07:33:06,1667.3872359563948,36.900001180800004,0.0,0.7353090235298879,1667.3872359563948,36.900001180800004,0.7919993443119999,0.7353090235298879,1684,-24.5,99,P-GPS,
0.375914009929654,36.9254553793581,14000,2018-04-17 07:33:06,1667.8872359723948,37.4000011968,0.0,0.7511900240380801,1667.8872359723948,37.4000011968,0.7919993443119999,0.7511900240380801,1684,-22.9,99,P-GPS,
0.37591396467031,36.925455446407,14100,2018-04-17 07:33:06,1668.3872359883949,37.90000121280001,0.0,0.759042024289344,1668.3872359883949,37.90000121280001,0.7919993443119999,0.759042024289344,1680,-21.5,99,P-GPS,
0.375913947763804,36.9254555341349,14200,2018-04-17 07:33:07,1668.887236004395,38.4000012288,0.0,0.7689250246056001,1668.887236004395,38.4000012288,0.7919993443119999,0.7689250246056001,1684,-21.5,99,P-GPS,
0.375913965564122,36.925455599273704,14300,2018-04-17 07:33:07,1669.3872360203948,38.9000012448,0.0,0.7759700248310399,1669.3872360203948,38.9000012448,0.7919993443119999,0.7759700248310399,1684,-21.4,99,P-GPS,
0.375913999037603,36.9254556691768,14400,2018-04-17 07:33:07,1669.887236036395,39.4000012608,0.0,0.783412025069184,1669.887236036395,39.4000012608,0.7919993443119999,0.783412025069184,1684,-21.4,99,P-GPS,
0.375914049844241,36.9254556833604,14500,2018-04-17 07:33:07,1670.3872360523949,39.900001276800005,0.35999970196000003,0.7845580251058561,1670.3872360523949,39.900001276800005,0.7919993443119999,0.7845580251058561,1684,-21.5,99,P-GPS,
0.37591406830468893,36.9254557260162,14600,2018-04-17 07:33:07,1670.8872360683947,40.400001292800006,0.35999970196000003,0.7891450252526401,1670.8872360683947,40.400001292800006,0.7919993443119999,0.7891450252526401,1684,-21.5,99,P-GPS,
0.375914051648354,36.9254557603061,14700,2018-04-17 07:33:07,1671.387236084395,40.90000130880001,0.0,0.7930780253784961,1671.387236084395,40.90000130880001,0.7919993443119999,0.7930780253784961,1675,-21.4,99,P-GPS,
0.375914012364178,36.925455821353005,14800,2018-04-17 07:33:07,1671.9872361035948,41.500001328,0.0,0.8001690256054079,1671.9872361035948,41.500001328,0.7919993443119999,0.8001690256054079,1664,-21.4,99,P-GPS,
0.3759139900361749,36.925455846591895,14900,2018-04-17 07:33:07,1672.4872361195946,42.000001344,0.0,0.8031590257010879,1672.4872361195946,42.000001344,0.7919993443119999,0.8031590257010879,1669,-21.4,99,P-GPS,
0.37591400001019104,36.925455857008,15000,2018-04-17 07:33:07,1672.987236135595,42.50000136,0.35999970196000003,0.8042280257352962,1672.987236135595,42.50000136,0.7919993443119999,0.8042280257352962,1674,-21.4,99,P-GPS,
0.375914043139937,36.9254558083107,15100,2018-04-17 07:33:07,1673.4872361515947,43.000001376,0.35999970196000003,0.7984710255510721,1673.4872361515947,43.000001376,0.7919993443119999,0.8042280257352962,1672,-21.4,99,P-GPS,
0.375914078649584,36.925455762561896,15200,2018-04-17 07:33:07,1673.8872361643948,43.40000138880001,0.35999970196000003,0.7931210253798721,1673.8872361643948,43.40000138880001,0.7919993443119999,0.8042280257352962,1672,-21.4,99,P-GPS,
0.37591410468758896,36.9254556994969,15300,2018-04-17 07:33:08,1674.3872361803947,43.9000014048,0.35999970196000003,0.7859330251498561,1674.3872361803947,43.9000014048,0.7919993443119999,0.8042280257352962,1684,-21.4,99,P-GPS,
0.375914113823363,36.9254556731713,15400,2018-04-17 07:33:08,1674.887236196395,44.4000014208,0.0,0.7829470250543039,1674.887236196395,44.4000014208,0.7919993443119999,0.8042280257352962,1684,-21.4,99,P-GPS,
0.37591410620896293,36.925455670625404,15500,2018-04-17 07:33:08,1675.3872362123948,44.9000014368,0.0,0.7827190250470081,1675.3872362123948,44.9000014368,0.7919993443119999,0.8042280257352962,1684,-21.4,99,P-GPS,
0.375914069251019,36.9254557136184,15600,2018-04-17 07:33:08,1675.987236231595,45.50000145600001,0.0,0.787762025208384,1675.987236231595,45.50000145600001,0.7919993443119999,0.8042280257352962,1684,-21.4,99,P-GPS,
0.37591400066564,36.9254557462017,15700,2018-04-17 07:33:08,1676.4872362475949,46.000001471999994,0.0,0.791937025341984,1676.4872362475949,46.000001471999994,0.7919993443119999,0.8042280257352962,1684,-21.4,99,P-GPS,
0.375913936762444,36.925455773796,15800,2018-04-17 07:33:08,1676.9872362635947,46.50000148800001,0.0,0.7955810254585921,1676.9872362635947,46.50000148800001,0.7919993443119999,0.8042280257352962,1684,-21.4,99,P-GPS,
0.375913916201303,36.9254557675168,15900,2018-04-17 07:33:08,1677.4872362795948,47.000001504000004,0.0,0.795087025442784,1677.4872362795948,47.000001504000004,0.7919993443119999,0.8042280257352962,1684,-21.4,99,P-GPS,
0.375913916164459,36.9254557512722,16000,2018-04-17 07:33:08,1677.9872362955948,47.500001520000005,0.0,0.793289025385248,1677.9872362955948,47.500001520000005,0.7919993443119999,0.8042280257352962,1684,-21.4,99,P-GPS,
0.375913926295824,36.925455714079796,16100,2018-04-17 07:33:08,1678.4872363115949,48.000001536000006,0.0,0.789069025250208,1678.4872363115949,48.000001536000006,0.7919993443119999,0.8042280257352962,1684,-21.4,99,P-GPS,
0.375913953495113,36.9254556896643,16200,2018-04-17 07:33:08,1679.087236330795,48.6000015552,0.0,0.7861000251552,1679.087236330795,48.6000015552,0.7919993443119999,0.8042280257352962,1684,-21.4,99,P-GPS,
0.37591399772466993,36.925455675279395,16300,2018-04-17 07:33:09,1679.587236346795,49.1000015712,0.0,0.7841000250912001,1679.587236346795,49.1000015712,0.7919993443119999,0.8042280257352962,1684,-21.4,99,P-GPS,
0.375914041425389,36.9254556586965,16400,2018-04-17 07:33:09,1680.0872363627948,49.6000015872,0.0,0.7818910250205121,1680.0872363627948,49.6000015872,0.7919993443119999,0.8042280257352962,1684,-21.4,99,P-GPS,
0.375914071387334,36.9254556239194,16500,2018-04-17 07:33:09,1680.587236378795,50.100001603200006,0.0,0.7777950248894401,1680.587236378795,50.100001603200006,0.7919993443119999,0.8042280257352962,1684,-21.4,99,P-GPS,
0.37591407470264204,36.9254556021815,16600,2018-04-17 07:33:09,1681.087236394795,50.6000016192,0.0,0.775358024811456,1681.087236394795,50.6000016192,0.7919993443119999,0.8042280257352962,1684,-21.4,99,P-GPS,
0.37591405950641,36.925455586213204,16700,2018-04-17 07:33:09,1681.6872364139947,51.20000163840001,0.0,0.7737060247585921,1681.6872364139947,51.20000163840001,0.7919993443119999,0.8042280257352962,1684,-21.4,99,P-GPS,
0.37591403624815894,36.9254555683156,16800,2018-04-17 07:33:09,1682.187236429995,51.700001654400005,0.0,0.77191002470112,1682.187236429995,51.700001654400005,0.7919993443119999,0.8042280257352962,1684,-21.4,99,P-GPS,
0.375914015277261,36.925455536076996,16900,2018-04-17 07:33:09,1682.6872364459948,52.200001670400006,0.0,0.76851502459248,1682.6872364459948,52.200001670400006,0.7919993443119999,0.8042280257352962,1684,-21.4,99,P-GPS,
0.37591397631348106,36.9254555074218,17000,2018-04-17 07:33:09,1683.1872364619946,52.7000016864,0.0,0.765692024502144,1683.1872364619946,52.7000016864,0.7919993443119999,0.8042280257352962,1684,-21.4,99,P-GPS,
0.37591393246925503,36.9254554762591,17100,2018-04-17 07:33:09,1683.687236477995,53.2000017024,0.0,0.7626680244053761,1683.687236477995,53.2000017024,0.7919993443119999,0.8042280257352962,1684,-21.4,99,P-GPS,
0.375913893749742,36.9254554476628,17200,2018-04-17 07:33:09,1684.1872364939948,53.7000017184,0.0,0.7599070243170241,1684.1872364939948,53.7000017184,0.7919993443119999,0.8042280257352962,1684,-21.4,99,P-GPS,
0.375913866819349,36.9254554094351,17300,2018-04-17 07:33:10,1684.6872365099948,54.200001734400004,0.0,0.755974024191168,1684.6872365099948,54.200001734400004,0.7919993443119999,0.8042280257352962,1684,-21.4,99,P-GPS,
0.37591384106835707,36.92545536815621,17400,2018-04-17 07:33:10,1685.1872365259949,54.700001750400006,0.0,0.7517060240545922,1685.1872365259949,54.700001750400006,0.7919993443119999,0.8042280257352962,1680,-21.4,99,P-GPS,
0.375913818831344,36.925455309565294,17500,2018-04-17 07:33:10,1685.587236538795,55.1000017632,0.0,0.7454960238558721,1685.587236538795,55.1000017632,0.7919993443119999,0.8042280257352962,1684,-21.4,99,P-GPS,
0.375913805440445,36.9254552535856,17600,2018-04-17 07:33:10,1686.0872365547948,55.6000017792,0.0,0.7394760236632321,1686.0872365547948,55.6000017792,0.7919993443119999,0.8042280257352962,1684,-21.4,99,P-GPS,
0.375913805318923,36.925455190512,17700,2018-04-17 07:33:10,1686.5872365707949,56.10000179520001,0.0,0.732509023440288,1686.5872365707949,56.10000179520001,0.7919993443119999,0.8042280257352962,1661,-21.4,99,P-GPS,
0.37591381199187895,36.9254551512608,17800,2018-04-17 07:33:10,1687.087236586795,56.600001811199995,0.0,0.7280880232988161,1687.087236586795,56.600001811199995,0.7919993443119999,0.8042280257352962,1596,-21.4,99,P-GPS,
0.37591379577481604,36.925455119744896,18000,2018-04-17 07:33:10,1688.0872366187948,57.600001843200005,0.0,0.7248150231940801,1688.0872366187948,57.600001843200005,0.7919993443119999,0.8042280257352962,1554,-21.4,99,P-GPS,
0.375913783010258,36.9254550569079,18100,2018-04-17 07:33:10,1688.487236631595,58.000001856,0.35999970196000003,0.718044022977408,1688.487236631595,58.000001856,0.7919993443119999,0.8042280257352962,1514,-21.4,99,P-GPS,
0.375913765968591,36.9254550086796,18200,2018-04-17 07:33:11,1688.8872366443948,58.400001868800004,0.0,0.712951022814432,1688.8872366443948,58.400001868800004,0.7919993443119999,0.8042280257352962,1524,-21.4,99,P-GPS,
0.375913746510925,36.92545498428329,18300,2018-04-17 07:33:11,1689.2872366571949,58.8000018816,0.0,0.7105310227369921,1689.2872366571949,58.8000018816,0.7919993443119999,0.8042280257352962,1526,-21.4,99,P-GPS,
0.375913720053595,36.9254549587885,18400,2018-04-17 07:33:11,1689.6872366699947,59.2000018944,0.35999970196000003,0.7081000226592,1689.6872366699947,59.2000018944,0.7919993443119999,0.8042280257352962,1572,-21.4,99,P-GPS,
0.3759136867437729,36.9254549005423,18500,2018-04-17 07:33:11,1689.9872366795948,59.500001904,0.35999970196000003,0.70218002246976,1689.9872366795948,59.500001904,0.7919993443119999,0.8042280257352962,1573,-21.4,99,P-GPS,
0.375913652297704,36.925454898382895,18600,2018-04-17 07:33:11,1690.3872366923947,59.9000019168,0.0,0.7024810224793921,1690.3872366923947,59.9000019168,0.7919993443119999,0.8042280257352962,1547,-21.4,99,P-GPS,
0.37591362070528,36.9254549388525,18700,2018-04-17 07:33:11,1690.6872367019948,60.2000019264,0.0,0.7074440226382079,1690.6872367019948,60.2000019264,0.7919993443119999,0.8042280257352962,1521,-21.4,99,P-GPS,
0.3759135749639171,36.925455031488106,18800,2018-04-17 07:33:11,1691.087236714795,60.600001939200006,0.0,0.718391022988512,1691.087236714795,60.600001939200006,0.7919993443119999,0.8042280257352962,1515,-21.4,99,P-GPS,
0.37591352822289203,36.9254551093631,18900,2018-04-17 07:33:11,1691.4872367275948,61.000001952,0.0,0.7277510232880321,1691.4872367275948,61.000001952,0.7919993443119999,0.8042280257352962,1521,-21.4,99,P-GPS,
0.37591348772674704,36.9254551700984,19000,2018-04-17 07:33:11,1691.787236737195,61.3000019616,0.0,0.735137023524384,1691.787236737195,61.3000019616,0.7919993443119999,0.8042280257352962,1549,-21.4,99,P-GPS,
0.37591345627884704,36.9254551920666,19100,2018-04-17 07:33:11,1692.1872367499948,61.7000019744,0.0,0.7381200236198402,1692.1872367499948,61.7000019744,0.7919993443119999,0.8042280257352962,1549,-21.4,99,P-GPS,
0.375913423017675,36.9254552083775,19200,2018-04-17 07:33:12,1692.487236759595,62.000001984,0.0,0.74053002369696,1692.487236759595,62.000001984,0.7919993443119999,0.8042280257352962,1555,-21.4,99,P-GPS,
0.375913402734998,36.9254552083839,19300,2018-04-17 07:33:12,1692.887236772395,62.4000019968,0.0,0.7409180237093761,1692.887236772395,62.4000019968,0.7919993443119999,0.8042280257352962,1550,-21.4,99,P-GPS,
0.37591339348441793,36.92545523453921,19400,2018-04-17 07:33:12,1693.1872367819947,62.7000020064,0.0,0.7439610238067521,1693.1872367819947,62.7000020064,0.7919993443119999,0.8042280257352962,1533,-21.4,99,P-GPS,
0.375913400886103,36.9254552495194,19500,2018-04-17 07:33:12,1693.587236794795,63.100002019200005,0.0,0.7454590238546881,1693.587236794795,63.100002019200005,0.7919993443119999,0.8042280257352962,1509,-21.4,99,P-GPS,
0.37591341727802,36.925455229403504,19600,2018-04-17 07:33:12,1693.987236807595,63.500002032,0.0,0.742942023774144,1693.987236807595,63.500002032,0.7919993443119999,0.8042280257352962,1535,-21.5,99,P-GPS,
0.37591343391501897,36.9254551539085,19700,2018-04-17 07:33:12,1694.2872368171948,63.8000020416,0.0,0.7343540234993279,1694.2872368171948,63.8000020416,0.7919993443119999,0.8042280257352962,1517,-21.4,99,P-GPS,
0.37591344857590003,36.9254550566852,19800,2018-04-17 07:33:12,1694.6872368299948,64.2000020544,0.0,0.723423023149536,1694.6872368299948,64.2000020544,0.7919993443119999,0.8042280257352962,1515,-21.4,99,P-GPS,
0.375913459908242,36.9254549655195,19900,2018-04-17 07:33:12,1694.9872368395947,64.500002064,0.0,0.7132190228230081,1694.9872368395947,64.500002064,0.7919993443119999,0.8042280257352962,1536,-21.4,99,P-GPS,
0.37591348636801397,36.9254549156885,20000,2018-04-17 07:33:12,1695.3872368523948,64.9000020768,0.0,0.7072580226322561,1695.3872368523948,64.9000020768,0.7919993443119999,0.8042280257352962,1542,-21.4,99,P-GPS,
0.375913528272356,36.9254548592163,20100,2018-04-17 07:33:12,1695.687236861995,65.2000020864,0.0,0.7002920224093441,1695.687236861995,65.2000020864,0.7919993443119999,0.8042280257352962,1548,-21.4,99,P-GPS,
0.37591356611596993,36.9254547909266,20200,2018-04-17 07:33:12,1695.9872368715949,65.500002096,0.0,0.692119022147808,1695.9872368715949,65.500002096,0.7919993443119999,0.8042280257352962,1572,-21.4,99,P-GPS,
0.37591358889545895,36.925454707448004,20300,2018-04-17 07:33:13,1696.387236884395,65.90000210880001,0.0,0.682551021841632,1696.387236884395,65.90000210880001,0.7919993443119999,0.8042280257352962,1556,-21.4,99,P-GPS,
0.37591361409623997,36.925454610151895,20400,2018-04-17 07:33:13,1696.6872368939949,66.20000211840001,0.0,0.6714260214856321,1696.6872368939949,66.20000211840001,0.7919993443119999,0.8042280257352962,1563,-21.4,99,P-GPS,
0.37591364093075796,36.925454488466,20500,2018-04-17 07:33:13,1697.087236906795,66.6000021312,0.0,0.657594021043008,1697.087236906795,66.6000021312,0.7919993443119999,0.8042280257352962,1552,-21.4,99,P-GPS,
0.37591367449278495,36.9254543705347,20600,2018-04-17 07:33:13,1697.3872369163948,66.9000021408,0.0,0.6440620206099841,1697.3872369163948,66.9000021408,0.7919993443119999,0.8042280257352962,1571,-21.4,99,P-GPS,
0.375913713715894,36.9254542437612,20700,2018-04-17 07:33:13,1697.7872369291947,67.30000215359999,0.0,0.6294680201429761,1697.7872369291947,67.30000215359999,0.7919993443119999,0.8042280257352962,1573,-21.4,98,P-GPS,
0.375913749758856,36.925454113158104,20800,2018-04-17 07:33:13,1698.187236941995,67.70000216640001,0.0,0.614512019664384,1698.187236941995,67.70000216640001,0.7919993443119999,0.8042280257352962,1573,-21.4,98,P-GPS,
0.37591376801045595,36.9254539595301,20900,2018-04-17 07:33:13,1698.4872369515947,68.00000217600001,0.35999970196000003,0.59731501911408,1698.4872369515947,68.00000217600001,0.7919993443119999,0.8042280257352962,1557,-21.4,98,P-GPS,
0.375913794308402,36.9254538179691,21000,2018-04-17 07:33:13,1698.8872369643948,68.4000021888,0.0,0.581314018602048,1698.8872369643948,68.4000021888,0.7919993443119999,0.8042280257352962,1559,-21.4,98,P-GPS,
0.3759138222465979,36.9254537092752,21100,2018-04-17 07:33:13,1699.2872369771947,68.8000022016,0.0,0.568904018204928,1699.2872369771947,68.8000022016,0.7919993443119999,0.8042280257352962,1596,-21.4,98,P-GPS,
0.375913849709288,36.9254536115455,21200,2018-04-17 07:33:13,1699.5872369867948,69.1000022112,0.0,0.557712017846784,1699.5872369867948,69.1000022112,0.7919993443119999,0.8042280257352962,1596,-21.4,98,P-GPS,
0.37591386693334006,36.9254535036792,21300,2018-04-17 07:33:14,1699.9872369995949,69.500002224,0.35999970196000003,0.5455670174581441,1699.9872369995949,69.500002224,0.7919993443119999,0.8042280257352962,1600,-21.4,98,P-GPS,
0.37591387728820896,36.92545343219479,21400,2018-04-17 07:33:14,1700.487237015595,70.00000224,0.0,0.53753501720112,1700.487237015595,70.00000224,0.7919993443119999,0.8042280257352962,1617,-21.4,98,P-GPS,
0.37591389033123096,36.925453365011,21500,2018-04-17 07:33:14,1700.887237028395,70.4000022528,0.0,0.529934016957888,1700.887237028395,70.4000022528,0.7919993443119999,0.8042280257352962,1616,-21.4,98,P-GPS,
0.375913910668461,36.9254532914914,21600,2018-04-17 07:33:14,1701.2872370411949,70.80000226560001,0.35999970196000003,0.521523016688736,1701.2872370411949,70.80000226560001,0.7919993443119999,0.8042280257352962,1594,-21.4,98,P-GPS,
0.375913923465181,36.925453211048996,21700,2018-04-17 07:33:14,1701.687237053995,71.2000022784,0.0,0.512467016398944,1701.687237053995,71.2000022784,0.7919993443119999,0.8042280257352962,1496,-21.4,98,P-GPS,
0.375913951826569,36.9254531376246,21800,2018-04-17 07:33:14,1702.0872370667948,71.6000022912,0.0,0.5039500161264,1702.0872370667948,71.6000022912,0.7919993443119999,0.8042280257352962,1496,-21.4,98,P-GPS,
0.37591398620750005,36.9254530474792,21900,2018-04-17 07:33:14,1702.487237079595,72.00000230399999,0.35999970196000003,0.49351001579232,1702.487237079595,72.00000230399999,0.7919993443119999,0.8042280257352962,1437,-21.4,98,P-GPS,
0.375914018461276,36.9254529638679,22000,2018-04-17 07:33:14,1702.8872370923948,72.40000231680001,0.35999970196000003,0.48383401548268806,1702.8872370923948,72.40000231680001,0.7919993443119999,0.8042280257352962,1424,-21.4,98,P-GPS,
0.375914036675829,36.9254528866289,22100,2018-04-17 07:33:14,1703.187237101995,72.70000232640001,0.35999970196000003,0.475061015201952,1703.187237101995,72.70000232640001,0.7919993443119999,0.8042280257352962,1444,-21.4,98,P-GPS,
0.375914052911823,36.9254527796736,22200,2018-04-17 07:33:14,1703.4872371115948,73.00000233600001,0.35999970196000003,0.463036014817152,1703.4872371115948,73.00000233600001,0.7919993443119999,0.8042280257352962,1445,-21.4,98,P-GPS,
0.375914058084168,36.925452659799205,22300,2018-04-17 07:33:15,1703.687237117995,73.2000023424,0.35999970196000003,0.44973501439152,1703.687237117995,73.2000023424,0.7919993443119999,0.8042280257352962,1448,-21.4,98,P-GPS,
0.37591406323229,36.925452585412295,22400,2018-04-17 07:33:15,1703.9872371275949,73.50000235200001,0.0,0.441456014126592,1703.9872371275949,73.50000235200001,0.7919993443119999,0.8042280257352962,1450,-21.4,98,P-GPS,
0.375914071294513,36.9254525587816,22500,2018-04-17 07:33:15,1704.1872371339948,73.7000023584,0.0,0.438406014028992,1704.1872371339948,73.7000023584,0.7919993443119999,0.8042280257352962,1459,-21.4,98,P-GPS,
0.375914077608601,36.9254525578084,22600,2018-04-17 07:33:15,1704.487237143595,74.00000236800001,0.0,0.4382130140228161,1704.487237143595,74.00000236800001,0.7919993443119999,0.8042280257352962,1458,-21.4,98,P-GPS,
0.37591407044019,36.9254525762274,22700,2018-04-17 07:33:15,1704.7872371531948,74.30000237760001,0.0,0.44034301409097604,1704.7872371531948,74.30000237760001,0.7919993443119999,0.8042280257352962,1456,-21.4,98,P-GPS,
0.37591405673072703,36.9254526007351,22800,2018-04-17 07:33:15,1704.9872371595948,74.500002384,0.0,0.443237014183584,1704.9872371595948,74.500002384,0.7919993443119999,0.8042280257352962,1472,-21.4,98,P-GPS,
0.375914037257794,36.9254526103343,22900,2018-04-17 07:33:15,1705.287237169195,74.8000023936,0.0,0.44457201422630394,1705.287237169195,74.8000023936,0.7919993443119999,0.8042280257352962,1483,-21.4,98,P-GPS,
0.375914022290969,36.9254526125333,23000,2018-04-17 07:33:15,1705.487237175595,75.0000024,0.0,0.445034014241088,1705.487237175595,75.0000024,0.7919993443119999,0.8042280257352962,1494,-21.4,98,P-GPS,
0.375914019083748,36.925452610202605,23100,2018-04-17 07:33:15,1705.7872371851947,75.30000240960001,0.0,0.4448250142344001,1705.7872371851947,75.30000240960001,0.7919993443119999,0.8042280257352962,1494,-21.4,98,P-GPS,
0.375914013446279,36.9254526132624,23200,2018-04-17 07:33:15,1706.0872371947949,75.60000241920001,0.0,0.445247014247904,1706.0872371947949,75.60000241920001,0.7919993443119999,0.8042280257352962,1489,-21.4,98,P-GPS,
0.37591400653007395,36.925452605764896,23300,2018-04-17 07:33:16,1706.387237204395,75.90000242880001,0.0,0.44452701422486407,1706.387237204395,75.90000242880001,0.7919993443119999,0.8042280257352962,1489,-21.4,98,P-GPS,
0.3759140104639871,36.9254526132282,23400,2018-04-17 07:33:16,1706.6872372139949,76.2000024384,0.0,0.445289014249248,1706.6872372139949,76.2000024384,0.7919993443119999,0.8042280257352962,1507,-21.4,98,P-GPS,
0.37591404243156396,36.925452616806204,23500,2018-04-17 07:33:16,1706.987237223595,76.500002448,0.0,0.445212014246784,1706.987237223595,76.500002448,0.7919993443119999,0.8042280257352962,1514,-21.4,98,P-GPS,
0.37591406870752603,36.9254526134294,23600,2018-04-17 07:33:16,1707.3872372363949,76.9000024608,0.0,0.444472014223104,1707.3872372363949,76.9000024608,0.7919993443119999,0.8042280257352962,1515,-21.4,98,P-GPS,
0.37591408620373207,36.9254525840997,23700,2018-04-17 07:33:16,1707.6872372459948,77.20000247040001,0.0,0.441000014112,1707.6872372459948,77.20000247040001,0.7919993443119999,0.8042280257352962,1522,-21.4,98,P-GPS,
0.375914094406815,36.9254525890192,23800,2018-04-17 07:33:16,1707.987237255595,77.50000248,0.0,0.44143601412595196,1707.987237255595,77.50000248,0.7919993443119999,0.8042280257352962,1540,-21.4,98,P-GPS,
0.37591409295302103,36.925452591183,23900,2018-04-17 07:33:16,1708.2872372651948,77.8000024896,0.0,0.441694014134208,1708.2872372651948,77.8000024896,0.7919993443119999,0.8042280257352962,1550,-21.4,98,P-GPS,
0.375914088448338,36.925452624334795,24000,2018-04-17 07:33:16,1708.6872372779949,78.20000250240001,0.0,0.445414014253248,1708.6872372779949,78.20000250240001,0.7919993443119999,0.8042280257352962,1542,-21.4,98,P-GPS,
0.37591409098178996,36.9254526514837,24100,2018-04-17 07:33:16,1708.987237287595,78.500002512,0.0,0.44837901434812805,1708.987237287595,78.500002512,0.7919993443119999,0.8042280257352962,1537,-21.4,98,P-GPS,
0.37591408950173794,36.925452707978295,24200,2018-04-17 07:33:16,1709.3872373003949,78.9000025248,0.0,0.454639014548448,1709.3872373003949,78.9000025248,0.7919993443119999,0.8042280257352962,1549,-21.4,98,P-GPS,
0.375914092627943,36.925452727955,24300,2018-04-17 07:33:17,1709.687237309995,79.20000253439999,0.0,0.45680701461782397,1709.687237309995,79.20000253439999,0.7919993443119999,0.8042280257352962,1553,-21.4,98,P-GPS,
0.375914095693489,36.925452768464204,24400,2018-04-17 07:33:17,1710.0872373227949,79.60000254720002,0.0,0.46124501475984003,1710.0872373227949,79.60000254720002,0.7919993443119999,0.8042280257352962,1533,-21.4,98,P-GPS,
0.37591409548810206,36.9254527852398,24500,2018-04-17 07:33:17,1710.487237335595,80.00000256,0.0,0.46310101481923205,1710.487237335595,80.00000256,0.7919993443119999,0.8042280257352962,1533,-21.4,98,P-GPS,
0.375914091475616,36.925452827208204,24600,2018-04-17 07:33:17,1710.7872373451946,80.30000256960001,0.0,0.46778901496924796,1710.7872373451946,80.30000256960001,0.7919993443119999,0.8042280257352962,1469,-21.4,98,P-GPS,
0.375914093771111,36.9254528484408,24700,2018-04-17 07:33:17,1711.1872373579947,80.7000025824,0.0,0.470107015043424,1711.1872373579947,80.7000025824,0.7919993443119999,0.8042280257352962,1397,-21.4,98,P-GPS,
0.375914092272128,36.9254528864779,24800,2018-04-17 07:33:17,1711.4872373675948,81.000002592,0.0,0.47433001517856005,1711.4872373675948,81.000002592,0.7919993443119999,0.8042280257352962,1361,-21.4,98,P-GPS,
0.37591409208668897,36.9254529138719,24900,2018-04-17 07:33:17,1711.7872373771947,81.3000026016,0.0,0.477361015275552,1711.7872373771947,81.3000026016,0.7919993443119999,0.8042280257352962,1307,-21.4,98,P-GPS,
0.375914093014699,36.925452971601,25000,2018-04-17 07:33:17,1711.987237383595,81.500002608,0.0,0.48373201547942407,1711.987237383595,81.500002608,0.7919993443119999,0.8042280257352962,1181,-21.4,98,P-GPS,
0.37591412197352203,36.925452979541795,25100,2018-04-17 07:33:17,1712.1872373899948,81.7000026144,0.0,0.484277015496864,1712.1872373899948,81.7000026144,0.7919993443119999,0.8042280257352962,1024,-21.4,98,P-GPS,
0.37591415035913295,36.9254530456421,25200,2018-04-17 07:33:17,1712.387237396395,81.9000026208,0.0,0.49129101572131206,1712.387237396395,81.9000026208,0.7919993443119999,0.8042280257352962,1024,-21.4,98,P-GPS,
0.37591416202327005,36.925453142479896,25300,2018-04-17 07:33:18,1712.387237396395,81.9000026208,0.0,0.501899016060768,1712.387237396395,81.9000026208,0.7919993443119999,0.8042280257352962,1024,-21.4,98,P-GPS,
0.375914172034944,36.925453265891704,25400,2018-04-17 07:33:18,1712.487237399595,82.00000262399999,0.0,0.5154780164952961,1712.487237399595,82.00000262399999,0.7919993443119999,0.8042280257352962,1024,-21.4,98,P-GPS,
0.375914179267067,36.925453367786105,25500,2018-04-17 07:33:18,1712.487237399595,82.00000262399999,0.0,0.5267060168545921,1712.487237399595,82.00000262399999,0.7919993443119999,0.8042280257352962,1024,-21.4,98,P-GPS,
0.37591419272605503,36.9254535542169,25600,2018-04-17 07:33:18,1712.487237399595,82.00000262399999,0.0,0.5472610175123521,1712.487237399595,82.00000262399999,0.7919993443119999,0.8042280257352962,1024,-21.4,98,P-GPS,
0.375914227059659,36.925454046232296,25800,2018-04-17 07:33:18,1712.487237399595,82.00000262399999,0.0,0.601593019250976,1712.487237399595,82.00000262399999,0.7919993443119999,0.8042280257352962,1024,-21.4,98,P-GPS,
0.37591421644953205,36.9254542827008,25900,2018-04-17 07:33:18,1712.487237399595,82.00000262399999,0.35999970196000003,0.627912020093184,1712.487237399595,82.00000262399999,0.7919993443119999,0.8042280257352962,1024,-21.4,98,P-GPS,
0.375914196846323,36.925454532462204,26000,2018-04-17 07:33:18,1712.487237399595,82.00000262399999,0.35999970196000003,0.6557680209845761,1712.487237399595,82.00000262399999,0.7919993443119999,0.8042280257352962,1024,-21.4,98,P-GPS,
0.37591417538404204,36.9254546775423,26100,2018-04-17 07:33:18,1712.487237399595,82.00000262399999,0.35999970196000003,0.672018021504576,1712.487237399595,82.00000262399999,0.7919993443119999,0.8042280257352962,1024,-21.4,98,P-GPS,
0.37591414808602797,36.9254547804174,26200,2018-04-17 07:33:18,1712.5872374027947,82.10000262720001,0.35999970196000003,0.6836310218761921,1712.5872374027947,82.10000262720001,0.7919993443119999,0.8042280257352962,1024,-21.4,98,P-GPS,
0.37591411668576097,36.9254547765835,26300,2018-04-17 07:33:19,1712.5872374027947,82.10000262720001,0.0,0.683448021870336,1712.5872374027947,82.10000262720001,0.7919993443119999,0.8042280257352962,1024,-21.4,98,P-GPS,
0.375914092451461,36.925454724397,26400,2018-04-17 07:33:19,1712.5872374027947,82.10000262720001,0.0,0.67786002169152,1712.5872374027947,82.10000262720001,0.7919993443119999,0.8042280257352962,1024,-21.4,98,P-GPS,
0.37591409382892105,36.9254546029595,26500,2018-04-17 07:33:19,1712.5872374027947,82.10000262720001,0.0,0.6643830212602561,1712.5872374027947,82.10000262720001,0.7919993443119999,0.8042280257352962,1024,-21.4,98,P-GPS,
0.3759141129731121,36.9254544298869,26600,2018-04-17 07:33:19,1712.5872374027947,82.10000262720001,0.0,0.6450300206409602,1712.5872374027947,82.10000262720001,0.7919993443119999,0.8042280257352962,1024,-21.4,98,P-GPS,
0.37591415374507503,36.9254541968454,26700,2018-04-17 07:33:19,1712.5872374027947,82.10000262720001,0.0,0.618849019803168,1712.5872374027947,82.10000262720001,0.7919993443119999,0.8042280257352962,1024,-21.4,98,P-GPS,
0.375914213763007,36.9254539301672,26800,2018-04-17 07:33:19,1712.5872374027947,82.10000262720001,0.0,0.5888050188417601,1712.5872374027947,82.10000262720001,0.7919993443119999,0.8042280257352962,1024,-21.4,98,P-GPS,
0.3759142762410089,36.9254536259861,26900,2018-04-17 07:33:19,1712.487237399595,82.00000262399999,0.35999970196000003,0.5546190177478081,1712.5872374027947,82.10000262720001,0.7919993443119999,0.8042280257352962,987,-21.4,98,P-GPS,
0.375914317489597,36.925453290359705,27000,2018-04-17 07:33:19,1712.487237399595,82.00000262399999,0.35999970196000003,0.5171030165472961,1712.5872374027947,82.10000262720001,0.7919993443119999,0.8042280257352962,940,-21.4,98,P-GPS,
0.37591433027390003,36.9254529228673,27100,2018-04-17 07:33:19,1712.487237399595,82.00000262399999,0.7199994039200001,0.47621801523897606,1712.5872374027947,82.10000262720001,0.7919993443119999,0.8042280257352962,940,-21.4,98,P-GPS,
0.375914346987639,36.9254525512969,27200,2018-04-17 07:33:19,1712.487237399595,82.00000262399999,0.7199994039200001,0.43485801391545603,1712.5872374027947,82.10000262720001,0.7919993443119999,0.8042280257352962,920,-21.4,98,P-GPS,
0.375914378458846,36.9254521813185,27300,2018-04-17 07:33:20,1712.487237399595,82.00000262399999,0.7199994039200001,0.3935880125948161,1712.5872374027947,82.10000262720001,0.7919993443119999,0.8042280257352962,903,-21.4,98,P-GPS,
0.375914414206245,36.9254517955367,27400,2018-04-17 07:33:20,1712.487237399595,82.00000262399999,0.7199994039200001,0.350546011217472,1712.5872374027947,82.10000262720001,0.7919993443119999,0.8042280257352962,890,-21.4,98,P-GPS,
0.37591444623753495,36.9254513838318,27500,2018-04-17 07:33:20,1712.487237399595,82.00000262399999,0.7199994039200001,0.304652009748864,1712.5872374027947,82.10000262720001,0.7919993443119999,0.8042280257352962,873,-21.4,98,P-GPS,
0.375914479226248,36.925450995215996,27600,2018-04-17 07:33:20,1712.387237396395,81.9000026208,0.7199994039200001,0.26133000836256004,1712.5872374027947,82.10000262720001,0.7919993443119999,0.8042280257352962,863,-21.4,98,P-GPS,
0.37591453082471704,36.925450636004896,27700,2018-04-17 07:33:20,1712.387237396395,81.9000026208,0.7199994039200001,0.22126000708032,1712.5872374027947,82.10000262720001,0.7919993443119999,0.8042280257352962,873,-21.4,98,P-GPS,
0.37591458962732105,36.925450269265205,27800,2018-04-17 07:33:20,1712.2872373931948,81.80000261760001,0.7199994039200001,0.180493005775776,1712.5872374027947,82.10000262720001,0.7919993443119999,0.8042280257352962,845,-21.4,98,P-GPS,
0.375914646329334,36.925449872479504,27900,2018-04-17 07:33:20,1712.1872373899948,81.7000026144,0.35999970196000003,0.136691004374112,1712.5872374027947,82.10000262720001,0.7919993443119999,0.8042280257352962,829,-21.4,98,P-GPS,
0.375914679995683,36.925449502460395,28000,2018-04-17 07:33:20,1712.1872373899948,81.7000026144,0.35999970196000003,0.09615660307701121,1712.5872374027947,82.10000262720001,0.7919993443119999,0.8042280257352962,830,-21.4,98,P-GPS,
0.37591469431988395,36.925449175809,28100,2018-04-17 07:33:20,1712.0872373867949,81.6000026112,0.35999970196000003,0.060797401945516805,1712.5872374027947,82.10000262720001,0.7919993443119999,0.8042280257352962,847,-21.4,98,P-GPS,
0.375914705420885,36.9254488439705,28200,2018-04-17 07:33:20,1711.987237383595,81.500002608,0.35999970196000003,0.027441600878131203,1712.5872374027947,82.10000262720001,0.7919993443119999,0.8042280257352962,855,-21.4,98,P-GPS,
0.37591472970912704,36.9254485139804,28300,2018-04-17 07:33:21,1711.8872373803947,81.4000026048,0.35999970196000003,0.0241703007734496,1712.5872374027947,82.10000262720001,0.7919993443119999,0.8042280257352962,867,-21.4,98,P-GPS,
0.37591475090739707,36.9254482060993,28400,2018-04-17 07:33:21,1711.8872373803947,81.4000026048,0.35999970196000003,0.0534921017117472,1712.5872374027947,82.10000262720001,0.7919993443119999,0.8042280257352962,871,-21.4,98,P-GPS,
0.37591478129273703,36.9254476503876,28600,2018-04-17 07:33:21,1711.7872373771947,81.3000026016,0.35999970196000003,0.11353500363312,1712.5872374027947,82.10000262720001,0.7919993443119999,0.8042280257352962,872,-21.4,98,P-GPS,
0.375914775197674,36.925447349802205,28700,2018-04-17 07:33:21,1711.7872373771947,81.3000026016,0.35999970196000003,0.14621700467894402,1712.5872374027947,82.10000262720001,0.7919993443119999,0.8042280257352962,894,-21.4,98,P-GPS,
0.37591477846301,36.9254470365984,28800,2018-04-17 07:33:21,1711.7872373771947,81.3000026016,0.35999970196000003,0.180707005782624,1712.5872374027947,82.10000262720001,0.7919993443119999,0.8042280257352962,881,-21.4,98,P-GPS,
0.375914798357914,36.9254467556584,28900,2018-04-17 07:33:21,1711.687237373995,81.2000025984,0.35999970196000003,0.211969006783008,1712.5872374027947,82.10000262720001,0.7919993443119999,0.8042280257352962,862,-21.4,98,P-GPS,
0.375914832708719,36.9254464852319,29000,2018-04-17 07:33:21,1711.687237373995,81.2000025984,0.35999970196000003,0.242283007753056,1712.5872374027947,82.10000262720001,0.7919993443119999,0.8042280257352962,866,-21.4,98,P-GPS,
