latitude,longitude,time_millisecond,datetime_utc,altitude_m,ascent_m,speed_kph,distance_m,max_altitude_m,max_ascent_m,max_speed_kph,max_distance_m,rc_throttle,gimbal_pitch_degrees,battery_percent,flycState,message
0.0,0.0,100,2017-11-02 06:29:50,1788.745540639869,0.0,0.0,0.0,1788.745540639869,0.0,0.0,0.0,1024,-90.0,98,Motors_Started,
0.0,0.0,200,2017-11-02 06:29:50,1788.745540639869,0.0,0.0,0.0,1788.745540639869,0.0,0.0,0.0,1024,-90.0,98,Motors_Started,
0.0,0.0,300,2017-11-02 06:29:50,1788.745540639869,0.0,0.0,0.0,1788.745540639869,0.0,0.0,0.0,1024,-89.9,98,Motors_Started,
0.0,0.0,400,2017-11-02 06:29:50,1788.745540639869,0.0,0.0,0.0,1788.745540639869,0.0,0.0,0.0,1024,-89.9,98,Motors_Started,
0.0621055331178673,36.9336233087656,500,2017-11-02 06:29:50,1788.745540639869,0.0,0.0,0.0,1788.745540639869,0.0,0.0,0.0,1024,-89.9,98,Motors_Started,
0.0621054732426787,36.9336232241738,600,2017-11-02 06:29:50,1788.745540639869,0.0,0.0,0.0115252003688064,1788.745540639869,0.0,0.0,0.0115252003688064,1024,-89.9,98,Motors_Started,Setting new Return-To-Home altitude to 30m (98 ft). Setting new Maximum Flight Altitude to 30m (98 ft)
0.0621054572702384,36.9336231716633,700,2017-11-02 06:29:50,1788.745540639869,0.0,0.0,0.0174242005575744,1788.745540639869,0.0,0.0,0.0174242005575744,1024,-89.9,98,Motors_Started,
0.0621056131391473,36.9336232662194,800,2017-11-02 06:29:50,1788.745540639869,0.0,0.0,0.010078500322512,1788.745540639869,0.0,0.0,0.0174242005575744,1024,-89.9,98,Motors_Started,
0.0621058344387834,36.9336234227629,900,2017-11-02 06:29:50,1788.745540639869,0.0,0.0,0.035826601146451205,1788.745540639869,0.0,0.0,0.035826601146451205,1024,-89.9,98,Motors_Started,
0.0621060086092146,36.9336235428113,1000,2017-11-02 06:29:50,1788.745540639869,0.0,0.0,0.058936001885952,1788.745540639869,0.0,0.0,0.058936001885952,1024,-89.9,98,Motors_Started,
0.0621063249047419,36.9336238080946,1100,2017-11-02 06:29:50,1788.745540639869,0.0,0.0,0.104098003331136,1788.745540639869,0.0,0.0,0.104098003331136,1024,-90.0,98,Motors_Started,
0.0621065982399828,36.9336240373194,1200,2017-11-02 06:29:51,1788.745540639869,0.0,0.0,0.143507004592224,1788.745540639869,0.0,0.0,0.143507004592224,1024,-89.9,98,Motors_Started,
0.0621070451566671,36.9336244571057,1300,2017-11-02 06:29:51,1788.745540639869,0.0,0.0,0.211144006756608,1788.745540639869,0.0,0.0,0.211144006756608,1024,-89.9,98,Motors_Started,
0.0621074214851895,36.9336248046151,1400,2017-11-02 06:29:51,1788.745540639869,0.0,0.0,0.2679000085728,1788.745540639869,0.0,0.0,0.2679000085728,1024,-89.9,98,Motors_Started,
0.0621079352655807,36.9336253246835,1500,2017-11-02 06:29:51,1788.745540639869,0.0,0.0,0.348738011159616,1788.745540639869,0.0,0.0,0.348738011159616,364,-89.9,98,Motors_Started,
0.0621083278852604,36.9336257282826,1600,2017-11-02 06:29:51,1788.745540639869,0.0,0.0,0.411083013154656,1788.745540639869,0.0,0.0,0.411083013154656,489,-90.0,98,Assisted_Takeoff,
0.0621091643513967,36.933626618552,1800,2017-11-02 06:29:51,1788.745540639869,0.0,0.0,0.546389017484448,1788.745540639869,0.0,0.0,0.546389017484448,680,-90.0,98,Assisted_Takeoff,
0.0621095652340048,36.933627051183,1900,2017-11-02 06:29:51,1788.745540639869,0.0,0.0,0.611771019576672,1788.745540639869,0.0,0.0,0.611771019576672,1042,-90.0,98,Assisted_Takeoff,
0.0621098835198977,36.9336273704277,2000,2017-11-02 06:29:51,1788.745540639869,0.0,0.0,0.661869021179808,1788.745540639869,0.0,0.0,0.661869021179808,1024,-89.9,98,Assisted_Takeoff,
0.0621102383725006,36.9336277332563,2100,2017-11-02 06:29:52,1788.745540639869,0.0,0.0,0.718253022984096,1788.745540639869,0.0,0.0,0.718253022984096,1024,-89.9,98,Assisted_Takeoff,
0.0621105228067069,36.9336279814355,2200,2017-11-02 06:29:52,1788.745540639869,0.0,0.0,0.760204024326528,1788.745540639869,0.0,0.0,0.760204024326528,1024,-89.9,98,Assisted_Takeoff,
0.0621107927127501,36.9336282587011,2300,2017-11-02 06:29:52,1788.745540639869,0.0,0.0,0.803191025702112,1788.745540639869,0.0,0.0,0.803191025702112,1024,-89.9,98,Assisted_Takeoff,
0.0621109895496969,36.9336284875017,2400,2017-11-02 06:29:52,1788.745540639869,0.0,0.0,0.8365770267704641,1788.745540639869,0.0,0.0,0.8365770267704641,1024,-89.9,98,Assisted_Takeoff,
0.0621111803870489,36.9336287368933,2500,2017-11-02 06:29:52,1788.745540639869,0.0,0.0,0.8710790278745281,1788.745540639869,0.0,0.0,0.8710790278745281,1024,-89.9,98,Assisted_Takeoff,
0.0621113557688389,36.9336289265521,2600,2017-11-02 06:29:52,1788.745540639869,0.0,0.0,0.899758028792256,1788.745540639869,0.0,0.0,0.899758028792256,1024,-89.9,98,Assisted_Takeoff,
0.0621115329744862,36.9336291460168,2700,2017-11-02 06:29:52,1788.745540639869,0.0,0.0,0.930894029788608,1788.745540639869,0.0,0.0,0.930894029788608,1024,-90.0,98,Assisted_Takeoff,
0.0621117035776073,36.9336293154749,2800,2017-11-02 06:29:52,1788.745540639869,0.0,0.35999970196000003,0.957633030644256,1788.745540639869,0.0,0.35999970196000003,0.957633030644256,1024,-90.0,98,Assisted_Takeoff,
0.0621118601239998,36.933629504682,2900,2017-11-02 06:29:52,1788.745540639869,0.0,0.35999970196000003,0.984788031513216,1788.745540639869,0.0,0.35999970196000003,0.984788031513216,1024,-90.0,98,Assisted_Takeoff,
0.0621119956561368,36.9336296610074,3000,2017-11-02 06:29:52,1788.745540639869,0.0,0.0,1.00772003224704,1788.745540639869,0.0,0.35999970196000003,1.00772003224704,1024,-89.9,98,Assisted_Takeoff,
0.0621121196132939,36.9336298263903,3100,2017-11-02 06:29:53,1788.745540639869,0.0,0.0,1.0304500329744,1788.745540639869,0.0,0.35999970196000003,1.0304500329744,1024,-89.9,98,Assisted_Takeoff,
0.0621122371323976,36.9336299478508,3200,2017-11-02 06:29:53,1788.745540639869,0.0,0.0,1.04924003357568,1788.745540639869,0.0,0.35999970196000003,1.04924003357568,1024,-89.9,98,Assisted_Takeoff,
0.0621123522454753,36.9336300889066,3300,2017-11-02 06:29:53,1788.745540639869,0.0,0.0,1.06938003422016,1788.745540639869,0.0,0.35999970196000003,1.06938003422016,1024,-89.9,98,Assisted_Takeoff,
0.0621124661217497,36.9336301951569,3400,2017-11-02 06:29:53,1788.745540639869,0.0,0.0,1.08669003477408,1788.745540639869,0.0,0.35999970196000003,1.08669003477408,1024,-89.9,98,Assisted_Takeoff,
0.0621125832817815,36.9336303247313,3500,2017-11-02 06:29:53,1788.745540639869,0.0,0.0,1.10609003539488,1788.745540639869,0.0,0.35999970196000003,1.10609003539488,1024,-89.9,98,Assisted_Takeoff,
0.062112696992769,36.9336304259944,3600,2017-11-02 06:29:53,1788.745540639869,0.0,0.0,1.1229900359356801,1788.745540639869,0.0,0.35999970196000003,1.1229900359356801,1024,-89.9,98,Assisted_Takeoff,Setting new Maximum Flight Altitude to 100m (328 ft)
0.0621128038651058,36.9336305738044,3700,2017-11-02 06:29:53,1788.745540639869,0.0,0.0,1.14302003657664,1788.745540639869,0.0,0.35999970196000003,1.14302003657664,1024,-89.9,98,Assisted_Takeoff,Home Point Recorded. RTH Altitude:  30m.
0.0621128908630979,36.9336307064599,3800,2017-11-02 06:29:53,1788.745540639869,0.0,0.0,1.1602900371292801,1788.745540639869,0.0,0.35999970196000003,1.1602900371292801,1024,-89.9,98,Assisted_Takeoff,
0.0621129888709999,36.9336308779403,3900,2017-11-02 06:29:53,1788.745540639869,0.0,0.0,1.18151003780832,1788.745540639869,0.0,0.35999970196000003,1.18151003780832,1024,-89.9,98,Assisted_Takeoff,
0.0621130915346232,36.9336310028197,4000,2017-11-02 06:29:53,1788.745540639869,0.0,0.0,1.1994200383814402,1788.745540639869,0.0,0.35999970196000003,1.1994200383814402,1024,-89.9,98,Assisted_Takeoff,
0.0621131976652038,36.9336311671461,4100,2017-11-02 06:29:53,1788.745540639869,0.0,0.0,1.22073003906336,1788.745540639869,0.0,0.35999970196000003,1.22073003906336,1024,-89.9,98,Assisted_Takeoff,
0.0621132839727356,36.9336312882982,4200,2017-11-02 06:29:54,1788.745540639869,0.0,0.0,1.23708003958656,1788.745540639869,0.0,0.35999970196000003,1.23708003958656,1024,-89.9,98,Assisted_Takeoff,
0.062113392728368,36.9336314507934,4300,2017-11-02 06:29:54,1788.745540639869,0.0,0.0,1.25848004027136,1788.745540639869,0.0,0.35999970196000003,1.25848004027136,1024,-90.0,98,Assisted_Takeoff,
0.0621135008098245,36.9336315723807,4400,2017-11-02 06:29:54,1788.745540639869,0.0,0.0,1.2765500408496002,1788.745540639869,0.0,0.35999970196000003,1.2765500408496002,1024,-90.0,98,Assisted_Takeoff,
0.0621136213220083,36.9336317532496,4500,2017-11-02 06:29:54,1788.745540639869,0.0,0.0,1.3003400416108801,1788.745540639869,0.0,0.35999970196000003,1.3003400416108801,1024,-89.9,98,Assisted_Takeoff,
0.062113715577161,36.9336319063889,4600,2017-11-02 06:29:54,1788.745540639869,0.0,0.0,1.3199000422368,1788.745540639869,0.0,0.35999970196000003,1.3199000422368,1024,-89.9,98,Assisted_Takeoff,
0.062113821224908,36.9336321069708,4700,2017-11-02 06:29:54,1788.745540639869,0.0,0.0,1.34417004301344,1788.745540639869,0.0,0.35999970196000003,1.34417004301344,1024,-90.0,98,Assisted_Takeoff,
0.0621139057069541,36.933632251718,4800,2017-11-02 06:29:54,1788.745540639869,0.0,0.0,1.3623400435948803,1788.745540639869,0.0,0.35999970196000003,1.3623400435948803,1024,-90.0,98,Assisted_Takeoff,
0.0621139870803006,36.933632441153,4900,2017-11-02 06:29:54,1788.745540639869,0.0,0.0,1.38392004428544,1788.745540639869,0.0,0.35999970196000003,1.38392004428544,1024,-90.0,98,Assisted_Takeoff,
0.062114037890196,36.933632579633,5000,2017-11-02 06:29:54,1788.745540639869,0.0,0.0,1.39908004477056,1788.745540639869,0.0,0.35999970196000003,1.39908004477056,1024,-90.0,98,Assisted_Takeoff,
0.0621141016177234,36.9336327437661,5100,2017-11-02 06:29:55,1788.745540639869,0.0,0.0,1.4173400453548801,1788.745540639869,0.0,0.35999970196000003,1.4173400453548801,1024,-89.9,98,Assisted_Takeoff,
0.062114163193262,36.9336328475798,5200,2017-11-02 06:29:55,1788.745540639869,0.0,0.0,1.43049004577568,1788.745540639869,0.0,0.35999970196000003,1.43049004577568,1024,-89.9,98,Assisted_Takeoff,
0.0621142464914293,36.9336329780475,5300,2017-11-02 06:29:55,1788.745540639869,0.0,0.0,1.44747004631904,1788.745540639869,0.0,0.35999970196000003,1.44747004631904,1024,-89.9,98,Assisted_Takeoff,
0.0621143184499269,36.9336330602056,5400,2017-11-02 06:29:55,1788.745540639869,0.0,0.0,1.4596100467075201,1788.745540639869,0.0,0.35999970196000003,1.4596100467075201,1024,-89.9,98,Assisted_Takeoff,
0.0621143953116693,36.9336331606342,5500,2017-11-02 06:29:55,1788.745540639869,0.0,0.0,1.47363004715616,1788.745540639869,0.0,0.35999970196000003,1.47363004715616,1024,-89.9,98,Assisted_Takeoff,
0.0621144448888326,36.9336332307279,5600,2017-11-02 06:29:55,1788.745540639869,0.0,0.0,1.4831100474595202,1788.745540639869,0.0,0.35999970196000003,1.4831100474595202,1024,-89.9,98,Assisted_Takeoff,
0.0621145011532011,36.9336333423761,5700,2017-11-02 06:29:55,1788.745540639869,0.0,0.0,1.49653004788896,1788.745540639869,0.0,0.35999970196000003,1.49653004788896,1024,-89.9,98,Assisted_Takeoff,
0.0621145383753598,36.9336334374207,5800,2017-11-02 06:29:55,1788.745540639869,0.0,0.0,1.50718004822976,1788.745540639869,0.0,0.35999970196000003,1.50718004822976,1024,-89.9,98,Assisted_Takeoff,
0.0621145829491289,36.933633565075,5900,2017-11-02 06:29:55,1788.745540639869,0.0,0.0,1.52109004867488,1788.745540639869,0.0,0.35999970196000003,1.52109004867488,1024,-89.9,98,Assisted_Takeoff,
0.0621146139074777,36.9336336480831,6000,2017-11-02 06:29:55,1788.745540639869,0.0,0.0,1.53029004896928,1788.745540639869,0.0,0.35999970196000003,1.53029004896928,1024,-89.9,98,Assisted_Takeoff,
0.0621146544598043,36.9336337633102,6100,2017-11-02 06:29:55,1788.745540639869,0.0,0.0,1.54291004937312,1788.745540639869,0.0,0.35999970196000003,1.54291004937312,1024,-89.9,98,Assisted_Takeoff,
0.0621146820309896,36.933633839109,6200,2017-11-02 06:29:56,1788.745540639869,0.0,0.0,1.55128004964096,1788.745540639869,0.0,0.35999970196000003,1.55128004964096,1024,-89.9,98,Assisted_Takeoff,
0.0621147343349824,36.9336339445018,6300,2017-11-02 06:29:56,1788.745540639869,0.0,0.0,1.56394005004608,1788.745540639869,0.0,0.35999970196000003,1.56394005004608,1024,-89.9,98,Assisted_Takeoff,
0.0621147920559941,36.9336340192547,6400,2017-11-02 06:29:56,1788.745540639869,0.0,0.0,1.57443005038176,1788.745540639869,0.0,0.35999970196000003,1.57443005038176,1024,-89.9,98,Assisted_Takeoff,
0.0621148675864835,36.9336341297488,6500,2017-11-02 06:29:56,1788.745540639869,0.0,0.0,1.5892200508550403,1788.745540639869,0.0,0.35999970196000003,1.5892200508550403,1024,-90.0,98,Assisted_Takeoff,
0.0621149177686137,36.933634203732,6600,2017-11-02 06:29:56,1788.745540639869,0.0,0.0,1.59909005117088,1788.745540639869,0.0,0.35999970196000003,1.59909005117088,1024,-89.9,98,Assisted_Takeoff,
0.0621149820245712,36.9336343158865,6700,2017-11-02 06:29:56,1788.745540639869,0.0,0.0,1.6132100516227201,1788.745540639869,0.0,0.35999970196000003,1.6132100516227201,1024,-89.9,98,Assisted_Takeoff,
0.06211502530617,36.9336343918684,6800,2017-11-02 06:29:56,1788.745540639869,0.0,0.0,1.62276005192832,1788.745540639869,0.0,0.35999970196000003,1.62276005192832,1024,-89.9,98,Assisted_Takeoff,
0.0621150846670248,36.9336344922937,6900,2017-11-02 06:29:56,1788.745540639869,0.0,0.0,1.63554005233728,1788.745540639869,0.0,0.35999970196000003,1.63554005233728,1024,-89.9,98,Assisted_Takeoff,
0.0621151247487311,36.933634542007,7000,2017-11-02 06:29:56,1788.745540639869,0.0,0.0,1.6426300525641602,1788.745540639869,0.0,0.35999970196000003,1.6426300525641602,1024,-89.9,98,Assisted_Takeoff,
0.0621151780525884,36.9336346196879,7100,2017-11-02 06:29:57,1788.745540639869,0.0,0.0,1.6530500528976002,1788.745540639869,0.0,0.35999970196000003,1.6530500528976002,1024,-89.9,98,Assisted_Takeoff,
0.0621152158528447,36.9336346830981,7200,2017-11-02 06:29:57,1788.745540639869,0.0,0.0,1.6611500531568002,1788.745540639869,0.0,0.35999970196000003,1.6611500531568002,1024,-90.0,98,Assisted_Takeoff,
0.0621153092164244,36.9336348549029,7400,2017-11-02 06:29:57,1788.745540639869,0.0,0.0,1.6824300538377601,1788.745540639869,0.0,0.35999970196000003,1.6824300538377601,1024,-90.0,98,Assisted_Takeoff,
0.0621153635502726,36.9336349677008,7500,2017-11-02 06:29:57,1788.745540639869,0.0,0.0,1.6959100542691201,1788.745540639869,0.0,0.35999970196000003,1.6959100542691201,1024,-89.9,98,Assisted_Takeoff,
0.0621154021883633,36.9336350480368,7600,2017-11-02 06:29:57,1788.745540639869,0.0,0.0,1.7055100545763202,1788.745540639869,0.0,0.35999970196000003,1.7055100545763202,1024,-90.0,98,Assisted_Takeoff,
0.062115432247811,36.9336351095264,7700,2017-11-02 06:29:57,1788.745540639869,0.0,0.0,1.7129000548128,1788.745540639869,0.0,0.35999970196000003,1.7129000548128,1024,-89.9,98,Assisted_Takeoff,
0.0621154968066591,36.9336352074005,7800,2017-11-02 06:29:57,1788.745540639869,0.0,0.0,1.7258500552272,1788.745540639869,0.0,0.35999970196000003,1.7258500552272,1024,-89.9,98,Assisted_Takeoff,
0.0621155571413234,36.9336353032309,7900,2017-11-02 06:29:57,1788.745540639869,0.0,0.0,1.73833005562656,1788.745540639869,0.0,0.35999970196000003,1.73833005562656,1024,-90.0,98,Assisted_Takeoff,
0.0621155984443627,36.9336353703549,8000,2017-11-02 06:29:57,1788.745540639869,0.0,0.0,1.74701005590432,1788.745540639869,0.0,0.35999970196000003,1.74701005590432,1024,-89.9,98,Assisted_Takeoff,
0.0621156563900996,36.9336354773589,8100,2017-11-02 06:29:58,1788.745540639869,0.0,0.0,1.7602700563286402,1788.745540639869,0.0,0.35999970196000003,1.7602700563286402,1024,-89.9,98,Assisted_Takeoff,
0.0621156977989878,36.9336355557057,8200,2017-11-02 06:29:58,1788.745540639869,0.0,0.0,1.76992005663744,1788.745540639869,0.0,0.35999970196000003,1.76992005663744,1024,-89.9,98,Assisted_Takeoff,
0.0621157570263102,36.9336356611081,8300,2017-11-02 06:29:58,1788.745540639869,0.0,0.0,1.7831500570608003,1788.745540639869,0.0,0.35999970196000003,1.7831500570608003,1024,-89.9,98,Assisted_Takeoff,
0.0621157976470315,36.9336357161764,8400,2017-11-02 06:29:58,1788.745540639869,0.0,0.0,1.79074005730368,1788.745540639869,0.0,0.35999970196000003,1.79074005730368,1024,-89.9,98,Assisted_Takeoff,
0.0621158557971382,36.9336358075542,8500,2017-11-02 06:29:58,1788.745540639869,0.0,0.0,1.8027000576864,1788.745540639869,0.0,0.35999970196000003,1.8027000576864,1024,-89.9,98,Assisted_Takeoff,
0.0621158987050091,36.9336358755925,8600,2017-11-02 06:29:58,1788.745540639869,0.0,0.0,1.8115700579702403,1788.745540639869,0.0,0.35999970196000003,1.8115700579702403,1024,-89.9,98,Assisted_Takeoff,
0.06211596149211,36.9336359740169,8700,2017-11-02 06:29:58,1788.745540639869,0.0,0.0,1.8244600583827202,1788.745540639869,0.0,0.35999970196000003,1.8244600583827202,1024,-89.9,98,Assisted_Takeoff,
0.0621160030133608,36.9336360212753,8800,2017-11-02 06:29:58,1788.745540639869,0.0,0.0,1.8314500586064002,1788.745540639869,0.0,0.35999970196000003,1.8314500586064002,1024,-90.0,98,Assisted_Takeoff,
0.0621160623123348,36.9336361066687,8900,2017-11-02 06:29:58,1788.745540639869,0.0,0.0,1.8429700589750402,1788.745540639869,0.0,0.35999970196000003,1.8429700589750402,1024,-89.9,98,Assisted_Takeoff,
0.0621161037529776,36.9336361712308,9000,2017-11-02 06:29:58,1788.745540639869,0.0,0.0,1.85144005924608,1788.745540639869,0.0,0.35999970196000003,1.85144005924608,1194,-90.0,98,Assisted_Takeoff,
0.0621161475996464,36.9336362778483,9100,2017-11-02 06:29:59,1788.745540639869,0.0,0.0,1.8637000596384001,1788.745540639869,0.0,0.35999970196000003,1.8637000596384001,1607,-89.9,98,Assisted_Takeoff,
0.0621161591640415,36.9336363550228,9200,2017-11-02 06:29:59,1788.745540639869,0.0,0.0,1.87116005987712,1788.745540639869,0.0,0.35999970196000003,1.87116005987712,1684,-89.9,98,Assisted_Takeoff,
0.0621161886258503,36.9336364584383,9300,2017-11-02 06:29:59,1788.745540639869,0.0,0.0,1.88216006022912,1788.745540639869,0.0,0.35999970196000003,1.88216006022912,1684,-90.0,98,Assisted_Takeoff,
0.0621162143186254,36.9336365118118,9400,2017-11-02 06:29:59,1788.745540639869,0.0,0.0,1.88857006043424,1788.745540639869,0.0,0.35999970196000003,1.88857006043424,1684,-90.0,98,Assisted_Takeoff,
0.0621162622421038,36.9336366025537,9500,2017-11-02 06:29:59,1788.745540639869,0.0,0.0,1.8997700607926402,1788.745540639869,0.0,0.35999970196000003,1.8997700607926402,1684,-89.9,98,Assisted_Takeoff,
0.062116333418134,36.9336366734397,9600,2017-11-02 06:29:59,1788.745540639869,0.0,0.0,1.91087006114784,1788.745540639869,0.0,0.35999970196000003,1.91087006114784,1684,-89.9,98,Assisted_Takeoff,
0.0621165001203175,36.9336368180627,9700,2017-11-02 06:29:59,1788.745540639869,0.0,0.7199994039200001,1.9350400619212802,1788.745540639869,0.0,0.7199994039200001,1.9350400619212802,1684,-89.9,98,Assisted_Takeoff,Home Point Recorded. RTH Altitude:  30m.
0.0621168616120866,36.9336369793073,9800,2017-11-02 06:29:59,1788.745540639869,0.0,1.8359984799959999,1.9744000631808,1788.745540639869,0.0,1.8359984799959999,1.9744000631808,1684,-89.9,98,GPS_Atti,
0.0621175379635025,36.9336372255247,9900,2017-11-02 06:29:59,1788.845540643069,0.1000000032,2.9015975977976,2.04387006540384,1788.845540643069,0.1000000032,2.9015975977976,2.04387006540384,1684,-89.9,98,GPS_Atti,
0.062118469041828,36.9336374530122,10000,2017-11-02 06:29:59,1788.9455406462691,0.2000000064,3.617997004698,2.13156006820992,1788.9455406462691,0.2000000064,3.617997004698,2.13156006820992,1684,-89.9,98,GPS_Atti,
0.0621195752088236,36.9336376817171,10100,2017-11-02 06:29:59,1789.0455406494689,0.3000000096,3.9599967215600005,2.2345600715059204,1789.0455406494689,0.3000000096,3.9599967215600005,2.2345600715059204,1684,-90.0,98,GPS_Atti,
0.0621207459949196,36.9336378694317,10200,2017-11-02 06:30:00,1789.2455406558688,0.500000016,4.31999642352,2.34179007493728,1789.2455406558688,0.500000016,4.31999642352,2.34179007493728,1684,-90.0,98,GPS_Atti,
0.0621219821060465,36.9336381578318,10300,2017-11-02 06:30:00,1789.445540662269,0.7000000224,4.31999642352,2.4643200788582402,1789.445540662269,0.7000000224,4.31999642352,2.4643200788582402,1684,-90.0,98,GPS_Atti,
0.0621231313038605,36.9336384419743,10400,2017-11-02 06:30:00,1789.6455406686691,0.9000000288000001,3.617997004698,2.58111008259552,1789.6455406686691,0.9000000288000001,4.31999642352,2.58111008259552,1684,-90.0,98,GPS_Atti,Obstacle Avoided. Revise Flight Route
0.06212413801771,36.9336388603187,10500,2017-11-02 06:30:00,1790.045540681469,1.3000000416000002,2.9015975977976,2.69659008629088,1790.045540681469,1.3000000416000002,4.31999642352,2.69659008629088,1684,-90.0,98,GPS_Atti,
0.0621249625168185,36.9336392558106,10600,2017-11-02 06:30:00,1790.345540691069,1.6000000512,2.5451978928572,2.79526008944832,1790.345540691069,1.6000000512,4.31999642352,2.79526008944832,1684,-89.9,97,GPS_Atti,
0.0621257310739904,36.9336396852322,10700,2017-11-02 06:30:00,1790.7455407038688,2.000000064,2.5451978928572,2.8916700925334404,1790.7455407038688,2.000000064,4.31999642352,2.8916700925334404,1684,-90.0,97,GPS_Atti,
0.0621264588712091,36.9336400152284,10800,2017-11-02 06:30:00,1791.245540719869,2.50000008,2.51999791372,2.97773009528736,1791.245540719869,2.50000008,4.31999642352,2.97773009528736,1684,-90.0,97,GPS_Atti,
0.0621271844521155,36.9336402706056,10900,2017-11-02 06:30:00,1791.7455407358689,3.0000000960000004,2.51999791372,3.0586400978764803,1791.7455407358689,3.0000000960000004,4.31999642352,3.0586400978764803,1684,-90.0,97,GPS_Atti,
0.0621279437613539,36.9336405127108,11000,2017-11-02 06:30:00,1792.245540751869,3.500000112,2.51999791372,3.14187010053984,1792.245540751869,3.500000112,4.31999642352,3.14187010053984,1684,-90.0,97,GPS_Atti,
0.0621286588599663,36.9336407216207,11100,2017-11-02 06:30:00,1792.745540767869,4.000000128,2.51999791372,3.2192301030153603,1792.745540767869,4.000000128,4.31999642352,3.2192301030153603,1684,-90.0,97,GPS_Atti,
0.0621294536855683,36.9336410216066,11200,2017-11-02 06:30:01,1793.345540787069,4.6000001472,2.5451978928572,3.31002010592064,1793.345540787069,4.6000001472,4.31999642352,3.31002010592064,1684,-89.9,97,GPS_Atti,
0.0621302933210637,36.9336413541786,11300,2017-11-02 06:30:01,1793.845540803069,5.1000001632,2.51999791372,3.40716010902912,1793.845540803069,5.1000001632,4.31999642352,3.40716010902912,1684,-89.9,97,GPS_Atti,
0.062131133135688,36.9336416427907,11400,2017-11-02 06:30:01,1794.3455408190691,5.6000001792,2.51999791372,3.5016601120531203,1794.3455408190691,5.6000001792,4.31999642352,3.5016601120531203,1684,-90.0,97,GPS_Atti,
0.062132026229743,36.9336419319809,11500,2017-11-02 06:30:01,1794.945540838269,6.200000198400001,2.8799976156800002,3.60127011524064,1794.945540838269,6.200000198400001,4.31999642352,3.60127011524064,1684,-90.0,97,GPS_Atti,
0.0621329267739293,36.9336421461987,11600,2017-11-02 06:30:01,1795.445540854269,6.7000002144,3.2399973176400003,3.6971001183072003,1795.445540854269,6.7000002144,4.31999642352,3.6971001183072003,1684,-90.0,97,GPS_Atti,
0.0621339241535379,36.9336423875342,11700,2017-11-02 06:30:01,1795.945540870269,7.200000230400001,3.2399973176400003,3.80391012172512,1795.945540870269,7.200000230400001,4.31999642352,3.80391012172512,1684,-90.0,97,GPS_Atti,
0.0621349366483636,36.9336426151577,11800,2017-11-02 06:30:01,1796.545540889469,7.8000002496,3.2399973176400003,3.9117101251747206,1796.545540889469,7.8000002496,4.31999642352,3.9117101251747206,1684,-89.9,97,GPS_Atti,
0.0621359491269049,36.9336428344779,11900,2017-11-02 06:30:01,1797.1455409086689,8.400000268800001,3.2399973176400003,4.01943012862176,1797.1455409086689,8.400000268800001,4.31999642352,4.01943012862176,1684,-90.0,97,GPS_Atti,
0.0621370063388028,36.9336431558068,12000,2017-11-02 06:30:01,1797.7455409278691,9.000000288,3.2399973176400003,4.13781013240992,1797.7455409278691,9.000000288,4.31999642352,4.13781013240992,1684,-90.0,97,GPS_Atti,
0.0621380729696208,36.9336434898455,12100,2017-11-02 06:30:01,1798.245540943869,9.500000304,3.2399973176400003,4.25807013625824,1798.245540943869,9.500000304,4.31999642352,4.25807013625824,1684,-90.0,97,GPS_Atti,
0.0621391042892592,36.9336437989698,12200,2017-11-02 06:30:02,1798.8455409630692,10.100000323200002,3.2399973176400003,4.373770139960641,1798.8455409630692,10.100000323200002,4.31999642352,4.373770139960641,1684,-89.9,97,GPS_Atti,
0.0621400904391179,36.933644105088,12300,2017-11-02 06:30:02,1799.345540979069,10.600000339200001,3.2399973176400003,4.4852001435264,1799.345540979069,10.600000339200001,4.31999642352,4.4852001435264,1684,-89.9,97,GPS_Atti,
0.0621410351222787,36.9336445054103,12400,2017-11-02 06:30:02,1799.9455409982688,11.2000003584,3.2399973176400003,4.5981901471420805,1799.9455409982688,11.2000003584,4.31999642352,4.5981901471420805,1684,-90.0,97,GPS_Atti,
0.0621419397620017,36.9336448539189,12500,2017-11-02 06:30:02,1800.445541014269,11.7000003744,3.2399973176400003,4.70447015054304,1800.445541014269,11.7000003744,4.31999642352,4.70447015054304,1684,-90.0,97,GPS_Atti,
0.0621427941414291,36.9336451301209,12600,2017-11-02 06:30:02,1801.045541033469,12.300000393600001,2.8799976156800002,4.80193015366176,1801.045541033469,12.300000393600001,4.31999642352,4.80193015366176,1684,-90.0,97,GPS_Atti,
0.0621436425379533,36.9336454739939,12700,2017-11-02 06:30:02,1801.645541052669,12.9000004128,2.9015975977976,4.90269015688608,1801.645541052669,12.9000004128,4.31999642352,4.90269015688608,1684,-89.9,97,GPS_Atti,
0.0621444594957376,36.9336458261232,12800,2017-11-02 06:30:02,1802.245541071869,13.500000432,2.9015975977976,5.00093016002976,1802.245541071869,13.500000432,4.31999642352,5.00093016002976,1684,-90.0,97,GPS_Atti,
0.0621452645723946,36.9336462364897,12900,2017-11-02 06:30:02,1802.845541091069,14.100000451200001,2.5451978928572,5.10128016324096,1802.845541091069,14.100000451200001,4.31999642352,5.10128016324096,1684,-90.0,97,GPS_Atti,
0.0621460275537743,36.9336466163833,13000,2017-11-02 06:30:02,1803.3455411070688,14.600000467200001,2.5451978928572,5.19589016626848,1803.3455411070688,14.600000467200001,4.31999642352,5.19589016626848,1684,-90.0,97,GPS_Atti,
0.06214676590331,36.9336470227458,13100,2017-11-02 06:30:03,1803.945541126269,15.200000486400002,2.1887981879168,5.28959016926688,1803.945541126269,15.200000486400002,4.31999642352,5.28959016926688,1684,-90.0,97,GPS_Atti,
0.062147460135041,36.9336473618548,13200,2017-11-02 06:30:03,1804.5455411454689,15.8000005056,2.1887981879168,5.37532017201024,1804.5455411454689,15.8000005056,4.31999642352,5.37532017201024,1684,-89.9,97,GPS_Atti,
0.0621488250316614,36.9336479491145,13400,2017-11-02 06:30:03,1805.7455411838691,17.000000544,2.15999821176,5.53951017726432,1805.7455411838691,17.000000544,4.31999642352,5.53951017726432,1684,-90.0,97,GPS_Atti,
0.0621494910001184,36.9336482291556,13500,2017-11-02 06:30:03,1806.245541199869,17.50000056,2.15999821176,5.61929017981728,1806.245541199869,17.50000056,4.31999642352,5.61929017981728,1684,-90.0,97,GPS_Atti,
0.0621501436609311,36.9336484599373,13600,2017-11-02 06:30:03,1806.8455412190688,18.1000005792,2.15999821176,5.6951001822432,1806.8455412190688,18.1000005792,4.31999642352,5.6951001822432,1684,-90.0,97,GPS_Atti,
0.062150802796437,36.9336487258703,13700,2017-11-02 06:30:03,1807.445541238269,18.700000598400003,2.15999821176,5.77348018475136,1807.445541238269,18.700000598400003,4.31999642352,5.77348018475136,1684,-90.0,97,GPS_Atti,
0.0621514385507441,36.9336490124826,13800,2017-11-02 06:30:03,1808.045541257469,19.300000617600002,2.1887981879168,5.85074018722368,1808.045541257469,19.300000617600002,4.31999642352,5.85074018722368,1684,-90.0,97,GPS_Atti,
0.0621520725723867,36.9336493811244,13900,2017-11-02 06:30:03,1808.6455412766688,19.900000636799998,2.1887981879168,5.932290189833281,1808.6455412766688,19.900000636799998,4.31999642352,5.932290189833281,1684,-90.0,97,GPS_Atti,
0.0621526995852064,36.9336497412745,14000,2017-11-02 06:30:03,1809.145541292669,20.4000006528,2.1887981879168,6.0126901924060805,1809.145541292669,20.4000006528,4.31999642352,6.0126901924060805,1684,-89.9,97,GPS_Atti,
0.0621533291318849,36.9336501397769,14100,2017-11-02 06:30:03,1809.745541311869,21.000000672,2.1887981879168,6.09543019505376,1809.745541311869,21.000000672,4.31999642352,6.09543019505376,1684,-89.9,97,GPS_Atti,
0.0621539320828161,36.9336505009846,14200,2017-11-02 06:30:04,1810.3455413310692,21.6000006912,2.1887981879168,6.17357019755424,1810.3455413310692,21.6000006912,4.31999642352,6.17357019755424,1684,-90.0,97,GPS_Atti,
0.0621545785262296,36.9336509040776,14300,2017-11-02 06:30:04,1810.945541350269,22.2000007104,2.2751981163872,6.2582002002624,1810.945541350269,22.2000007104,4.31999642352,6.2582002002624,1684,-90.0,97,GPS_Atti,
0.062155276119069,36.9336513146196,14400,2017-11-02 06:30:04,1811.545541369469,22.8000007296,2.6207978302688,6.3482002031424,1811.545541369469,22.8000007296,4.31999642352,6.3482002031424,1684,-90.0,97,GPS_Atti,
0.0621559985521931,36.9336517278188,14500,2017-11-02 06:30:04,1812.245541391869,23.500000752000002,2.5451978928572,6.440750206104,1812.245541391869,23.500000752000002,4.31999642352,6.440750206104,1684,-90.0,97,GPS_Atti,
0.0621566986723776,36.9336520333353,14600,2017-11-02 06:30:04,1812.845541411069,24.100000771200005,2.5451978928572,6.525260208808321,1812.845541411069,24.100000771200005,4.31999642352,6.525260208808321,1684,-90.0,97,GPS_Atti,
0.0621573909792878,36.9336523598008,14700,2017-11-02 06:30:04,1813.445541430269,24.7000007904,2.5451978928572,6.61017021152544,1813.445541430269,24.7000007904,4.31999642352,6.61017021152544,1684,-90.0,97,GPS_Atti,
0.0621580947895263,36.9336526995971,14800,2017-11-02 06:30:04,1814.0455414494688,25.3000008096,2.6207978302688,6.69692021430144,1814.0455414494688,25.3000008096,4.31999642352,6.69692021430144,1684,-90.0,97,GPS_Atti,
0.0621588184602679,36.9336531089358,14900,2017-11-02 06:30:04,1814.645541468669,25.9000008288,2.6207978302688,6.7893802172601605,1814.645541468669,25.9000008288,4.31999642352,6.7893802172601605,1684,-90.0,97,GPS_Atti,
0.0621594890600196,36.9336534866775,15000,2017-11-02 06:30:04,1815.2455414878689,26.500000848000003,2.2751981163872,6.874970219999041,1815.2455414878689,26.500000848000003,4.31999642352,6.874970219999041,1684,-90.0,97,GPS_Atti,
0.0621600664476369,36.9336538679522,15100,2017-11-02 06:30:05,1815.7455415038692,27.000000864,1.8359984799959999,6.95171022245472,1815.7455415038692,27.000000864,4.31999642352,6.95171022245472,1684,-90.0,97,GPS_Atti,
0.0621605273363707,36.9336542167049,15200,2017-11-02 06:30:05,1816.345541523069,27.600000883200003,1.6091986677612,7.015390224492481,1816.345541523069,27.600000883200003,4.31999642352,7.015390224492481,1684,-90.0,97,GPS_Atti,
0.0621608742079696,36.9336546124109,15300,2017-11-02 06:30:05,1816.845541539069,28.1000008992,1.2995989240756,7.0706002262592,1816.845541539069,28.1000008992,4.31999642352,7.0706002262592,1684,-90.0,97,GPS_Atti,
0.0621611253270615,36.9336549719015,15400,2017-11-02 06:30:05,1817.445541558269,28.7000009184,1.0187991565468,7.11462022766784,1817.445541558269,28.7000009184,4.31999642352,7.11462022766784,1684,-89.9,97,GPS_Atti,
0.0621613278143018,36.9336553255403,15500,2017-11-02 06:30:05,1818.045541577469,29.300000937600004,0.8063993323904,7.15369022891808,1818.045541577469,29.300000937600004,4.31999642352,7.15369022891808,1684,-90.0,97,GPS_Atti,
0.0621615248495117,36.9336556038085,15600,2017-11-02 06:30:05,1818.545541593469,29.8000009536,0.8063993323904,7.18812023001984,1818.545541593469,29.8000009536,4.31999642352,7.18812023001984,1684,-90.0,97,GPS_Atti,
0.0621616906576794,36.9336558795416,15700,2017-11-02 06:30:05,1819.045541609469,30.300000969600003,0.5075995797636,7.219430231021761,1819.045541609469,30.300000969600003,4.31999642352,7.219430231021761,1684,-90.0,97,GPS_Atti,
0.0621618432559095,36.933656119618,15800,2017-11-02 06:30:05,1819.645541628669,30.900000988800002,0.5075995797636,7.247520231920641,1819.645541628669,30.900000988800002,4.31999642352,7.247520231920641,1684,-89.9,97,GPS_Atti,
0.0621619830936524,36.9336563822687,15900,2017-11-02 06:30:05,1820.1455416446688,31.400001004800004,0.5075995797636,7.27568023282176,1820.1455416446688,31.400001004800004,4.31999642352,7.27568023282176,1684,-89.9,97,GPS_Atti,
0.0621620920756385,36.9336566034923,16000,2017-11-02 06:30:05,1820.6455416606689,31.9000010208,0.5075995797636,7.29859023355488,1820.6455416606689,31.9000010208,4.31999642352,7.29859023355488,1684,-90.0,97,GPS_Atti,
0.0621621666518597,36.9336568316512,16100,2017-11-02 06:30:05,1821.145541676669,32.4000010368,0.35999970196000003,7.318630234196161,1821.145541676669,32.4000010368,4.31999642352,7.318630234196161,1684,-89.9,97,GPS_Atti,
0.0621621756148155,36.9336570466891,16200,2017-11-02 06:30:06,1821.645541692669,32.9000010528,0.35999970196000003,7.33169023461408,1821.645541692669,32.9000010528,4.31999642352,7.33169023461408,1684,-89.9,97,GPS_Atti,
0.0621621111870572,36.9336571793911,16300,2017-11-02 06:30:06,1822.0455417054688,33.3000010656,0.0,7.333110234659521,1822.0455417054688,33.3000010656,4.31999642352,7.333110234659521,1684,-89.9,97,GPS_Atti,
0.0621620931048151,36.9336571460449,16400,2017-11-02 06:30:06,1822.545541721469,33.8000010816,0.35999970196000003,7.32948023454336,1822.545541721469,33.8000010816,4.31999642352,7.333110234659521,1684,-90.0,97,GPS_Atti,
0.0621621439774055,36.9336570776779,16500,2017-11-02 06:30:06,1823.045541737469,34.3000010976,0.35999970196000003,7.3304402345740804,1823.045541737469,34.3000010976,4.31999642352,7.333110234659521,1684,-89.9,97,GPS_Atti,
0.0621621837179528,36.9336570104801,16600,2017-11-02 06:30:06,1823.645541756669,34.900001116800006,0.35999970196000003,7.330410234573121,1823.645541756669,34.900001116800006,4.31999642352,7.333110234659521,1684,-89.9,97,GPS_Atti,
0.0621621981524804,36.9336570120517,16700,2017-11-02 06:30:06,1824.0455417694689,35.300001129600005,0.35999970196000003,7.33188023462016,1824.0455417694689,35.300001129600005,4.31999642352,7.333110234659521,1684,-89.9,97,GPS_Atti,
0.0621621921923754,36.9336570531232,16800,2017-11-02 06:30:06,1824.6455417886689,35.9000011488,0.0,7.33364023467648,1824.6455417886689,35.9000011488,4.31999642352,7.33364023467648,1684,-90.0,97,GPS_Atti,
0.0621621849360289,36.9336570991794,16900,2017-11-02 06:30:06,1825.145541804669,36.4000011648,0.0,7.335570234738241,1825.145541804669,36.4000011648,4.31999642352,7.335570234738241,1684,-90.0,97,GPS_Atti,
0.0621621316793965,36.9336572281794,17000,2017-11-02 06:30:06,1825.645541820669,36.900001180800004,0.0,7.3378502348112,1825.645541820669,36.900001180800004,4.31999642352,7.3378502348112,1684,-89.9,97,GPS_Atti,
0.0621620267750342,36.9336572916452,17100,2017-11-02 06:30:06,1826.145541836669,37.400001196800005,0.35999970196000003,7.33148023460736,1826.145541836669,37.400001196800005,4.31999642352,7.3378502348112,1684,-89.9,97,GPS_Atti,
0.0621618873867418,36.9336572119302,17200,2017-11-02 06:30:07,1826.6455418526689,37.9000012128,0.7199994039200001,7.313630234036161,1826.6455418526689,37.9000012128,4.31999642352,7.3378502348112,1684,-90.0,97,GPS_Atti,
0.0621617758708969,36.9336570782839,17300,2017-11-02 06:30:07,1827.145541868669,38.4000012288,1.07999910588,7.295350233451201,1827.145541868669,38.4000012288,4.31999642352,7.3378502348112,1684,-90.0,97,GPS_Atti,
0.0621617651296803,36.9336568973203,17400,2017-11-02 06:30:07,1827.745541887869,39.000001248000004,0.7199994039200001,7.283980233087361,1827.745541887869,39.000001248000004,4.31999642352,7.3378502348112,1684,-90.0,97,GPS_Atti,
0.0621618107130847,36.9336567378046,17500,2017-11-02 06:30:07,1828.345541907069,39.60000126720001,0.8063993323904,7.279260232936321,1828.345541907069,39.60000126720001,4.31999642352,7.3378502348112,1684,-89.9,97,GPS_Atti,
0.0621618840582023,36.9336566768032,17600,2017-11-02 06:30:07,1828.945541926269,40.2000012864,0.8063993323904,7.28281023304992,1828.945541926269,40.2000012864,4.31999642352,7.3378502348112,1684,-89.9,97,GPS_Atti,
0.0621620059439786,36.9336565787835,17700,2017-11-02 06:30:07,1829.545541945469,40.8000013056,1.0187991565468,7.28894023324608,1829.545541945469,40.8000013056,4.31999642352,7.3378502348112,1684,-90.0,97,GPS_Atti,
0.0621621720452663,36.9336565890139,17800,2017-11-02 06:30:07,1830.1455419646688,41.4000013248,1.0187991565468,7.30544023377408,1830.1455419646688,41.4000013248,4.31999642352,7.3378502348112,1684,-90.0,97,GPS_Atti,
0.0621623658105606,36.9336565324318,17900,2017-11-02 06:30:07,1830.745541983869,42.000001344,1.0187991565468,7.3208502342671995,1830.745541983869,42.000001344,4.31999642352,7.3378502348112,1684,-89.9,97,GPS_Atti,
0.0621624706693264,36.9336565407566,18000,2017-11-02 06:30:07,1831.3455420030689,42.6000013632,0.5075995797636,7.33138023460416,1831.3455420030689,42.6000013632,4.31999642352,7.3378502348112,1684,-89.9,97,GPS_Atti,
0.0621625462486692,36.9336565426473,18100,2017-11-02 06:30:07,1831.845542019069,43.1000013792,0.5075995797636,7.33875023484,1831.845542019069,43.1000013792,4.31999642352,7.33875023484,1684,-90.0,97,GPS_Atti,
0.0621626052113694,36.9336565100868,18200,2017-11-02 06:30:08,1832.445542038269,43.7000013984,0.5075995797636,7.34259023496288,1832.445542038269,43.7000013984,4.31999642352,7.34259023496288,1684,-90.0,97,GPS_Atti,
0.0621626115492735,36.9336565338686,18300,2017-11-02 06:30:08,1832.945542054269,44.2000014144,0.35999970196000003,7.344530235024961,1832.945542054269,44.2000014144,4.31999642352,7.344530235024961,1684,-90.0,97,GPS_Atti,
0.0621625988604379,36.9336565072819,18400,2017-11-02 06:30:08,1833.445542070269,44.7000014304,0.35999970196000003,7.341830234938561,1833.445542070269,44.7000014304,4.31999642352,7.344530235024961,1684,-90.0,97,GPS_Atti,
0.0621625392203049,36.9336564723619,18500,2017-11-02 06:30:08,1834.0455420894689,45.3000014496,0.35999970196000003,7.33414023469248,1834.0455420894689,45.3000014496,4.31999642352,7.344530235024961,1684,-90.0,97,GPS_Atti,
0.0621624640578438,36.9336563995199,18600,2017-11-02 06:30:08,1834.645542108669,45.9000014688,0.35999970196000003,7.32284023433088,1834.645542108669,45.9000014688,4.31999642352,7.344530235024961,1684,-90.0,97,GPS_Atti,
0.0621623604888056,36.9336563522797,18700,2017-11-02 06:30:08,1835.145542124669,46.4000014848,0.35999970196000003,7.31024023392768,1835.145542124669,46.4000014848,4.31999642352,7.344530235024961,1684,-90.0,97,GPS_Atti,
0.0621622854175373,36.9336562918393,18800,2017-11-02 06:30:08,1835.745542143869,47.000001504000004,0.35999970196000003,7.2996502335888005,1835.745542143869,47.000001504000004,4.31999642352,7.344530235024961,1684,-90.0,97,GPS_Atti,
0.062162181620517,36.933656259872,18900,2017-11-02 06:30:08,1836.2455421598688,47.500001520000005,0.35999970196000003,7.28788023321216,1836.2455421598688,47.500001520000005,4.31999642352,7.344530235024961,1684,-90.0,97,GPS_Atti,
0.0621621041391516,36.933656214471,19000,2017-11-02 06:30:08,1836.845542179069,48.1000015392,0.35999970196000003,7.2779002328928,1836.845542179069,48.1000015392,4.31999642352,7.344530235024961,1684,-90.0,97,GPS_Atti,
0.0621620535987637,36.9336561654044,19100,2017-11-02 06:30:08,1837.4455421982689,48.7000015584,0.35999970196000003,7.270300232649601,1837.4455421982689,48.7000015584,4.31999642352,7.344530235024961,1684,-90.0,97,GPS_Atti,
0.0621619762020774,36.9336561654472,19200,2017-11-02 06:30:09,1837.9455422142692,49.200001574400005,0.35999970196000003,7.26286023241152,1837.9455422142692,49.200001574400005,4.31999642352,7.344530235024961,1684,-90.0,97,GPS_Atti,
0.0621619092274327,36.9336561568634,19300,2017-11-02 06:30:09,1838.545542233469,49.8000015936,0.35999970196000003,7.25594023219008,1838.545542233469,49.8000015936,4.31999642352,7.344530235024961,1684,-89.9,97,GPS_Atti,
0.0621618558144696,36.9336561070281,19400,2017-11-02 06:30:09,1839.045542249469,50.3000016096,0.35999970196000003,7.248020231936641,1839.045542249469,50.3000016096,4.31999642352,7.344530235024961,1684,-90.0,97,GPS_Atti,
0.0621617769196149,36.9336560766216,19500,2017-11-02 06:30:09,1839.545542265469,50.800001625600004,0.35999970196000003,7.238740231639681,1839.545542265469,50.800001625600004,4.31999642352,7.344530235024961,1684,-90.0,97,GPS_Atti,
0.0621617118339652,36.9336560459325,19600,2017-11-02 06:30:09,1840.1455422846689,51.4000016448,0.35999970196000003,7.23076023138432,1840.1455422846689,51.4000016448,4.31999642352,7.344530235024961,1684,-90.0,97,GPS_Atti,
0.0621616384693062,36.9336560442603,19700,2017-11-02 06:30:09,1840.6455423006691,51.90000166080001,0.35999970196000003,7.223620231155841,1840.6455423006691,51.90000166080001,4.31999642352,7.344530235024961,1684,-90.0,97,GPS_Atti,
0.062161576510269,36.9336560291202,19800,2017-11-02 06:30:09,1841.145542316669,52.40000167680001,0.0,7.21682023093824,1841.145542316669,52.40000167680001,4.31999642352,7.344530235024961,1684,-90.0,97,GPS_Atti,
0.06216148901723,36.9336560268077,19900,2017-11-02 06:30:09,1841.6455423326688,52.9000016928,0.35999970196000003,7.2082902306652805,1841.6455423326688,52.9000016928,4.31999642352,7.344530235024961,1684,-90.0,97,GPS_Atti,
0.0621614188638626,36.9336560006515,20000,2017-11-02 06:30:09,1842.145542348669,53.400001708800005,0.35999970196000003,7.20009023040288,1842.145542348669,53.400001708800005,4.31999642352,7.344530235024961,1684,-90.0,97,GPS_Atti,
0.0621613366013856,36.9336559849804,20100,2017-11-02 06:30:09,1842.645542364669,53.900001724800006,0.35999970196000003,7.19131023012192,1842.645542364669,53.900001724800006,4.31999642352,7.344530235024961,1684,-90.0,97,GPS_Atti,
0.0621612679071041,36.9336559460071,20200,2017-11-02 06:30:10,1843.145542380669,54.40000174080001,0.35999970196000003,7.182530229840961,1843.145542380669,54.40000174080001,4.31999642352,7.344530235024961,1684,-90.0,97,GPS_Atti,
0.0621611840292107,36.9336559077405,20300,2017-11-02 06:30:10,1843.645542396669,54.9000017568,0.35999970196000003,7.17233022951456,1843.645542396669,54.9000017568,4.31999642352,7.344530235024961,1684,-90.0,97,GPS_Atti,
0.0621611226629271,36.9336558401615,20400,2017-11-02 06:30:10,1844.145542412669,55.4000017728,0.35999970196000003,7.1626502292048,1844.145542412669,55.4000017728,4.31999642352,7.344530235024961,1684,-90.0,97,GPS_Atti,
0.0621610555580069,36.9336558038819,20500,2017-11-02 06:30:10,1844.645542428669,55.900001788800004,0.35999970196000003,7.154170228933441,1844.645542428669,55.900001788800004,4.31999642352,7.344530235024961,1684,-90.0,97,GPS_Atti,
0.062161011674698,36.9336557683409,20600,2017-11-02 06:30:10,1845.1455424446688,56.400001804800006,0.35999970196000003,7.14796022873472,1845.1455424446688,56.400001804800006,4.31999642352,7.344530235024961,1684,-90.0,97,GPS_Atti,
0.0621609465499657,36.9336557619474,20700,2017-11-02 06:30:10,1845.645542460669,56.90000182080001,0.35999970196000003,7.1413502285232004,1845.645542460669,56.90000182080001,4.31999642352,7.344530235024961,1684,-90.0,97,GPS_Atti,
0.06216089687591,36.933655753203,20800,2017-11-02 06:30:10,1846.2455424798688,57.50000184,0.35999970196000003,7.13609022835488,1846.2455424798688,57.50000184,4.31999642352,7.344530235024961,1684,-90.0,97,GPS_Atti,
0.0621608423295499,36.9336557782587,20900,2017-11-02 06:30:10,1846.7455424958691,58.000001856000004,0.35999970196000003,7.13227022823264,1846.7455424958691,58.000001856000004,4.31999642352,7.344530235024961,1684,-90.0,97,GPS_Atti,
0.0621608127244381,36.9336557655724,21000,2017-11-02 06:30:10,1847.245542511869,58.500001872,0.35999970196000003,7.1287202281190405,1847.245542511869,58.500001872,4.31999642352,7.344530235024961,1684,-90.0,97,GPS_Atti,
0.0621607706063625,36.9336557424651,21100,2017-11-02 06:30:10,1847.7455425278688,59.000001888,0.35999970196000003,7.123380227948161,1847.7455425278688,59.000001888,4.31999642352,7.344530235024961,1684,-90.0,97,GPS_Atti,
0.0621606613703392,36.9336558106286,21200,2017-11-02 06:30:11,1848.245542543869,59.500001904,0.35999970196000003,7.116750227736,1848.245542543869,59.500001904,4.31999642352,7.344530235024961,1684,-89.9,97,GPS_Atti,
0.0621605402141058,36.9336558537557,21300,2017-11-02 06:30:11,1848.745542559869,60.00000192,0.35999970196000003,7.107590227442881,1848.745542559869,60.00000192,4.31999642352,7.344530235024961,1684,-90.0,97,GPS_Atti,
0.0621604343913011,36.9336558413905,21400,2017-11-02 06:30:11,1849.245542575869,60.500001936000004,0.35999970196000003,7.09676022709632,1849.245542575869,60.500001936000004,4.31999642352,7.344530235024961,1684,-89.9,97,GPS_Atti,
0.0621603084083598,36.9336558496939,21500,2017-11-02 06:30:11,1849.745542591869,61.000001952,0.35999970196000003,7.08518022672576,1849.745542591869,61.000001952,4.31999642352,7.344530235024961,1684,-90.0,97,GPS_Atti,
0.0621601902354358,36.9336558412364,21600,2017-11-02 06:30:11,1850.245542607869,61.500001968,0.35999970196000003,7.07341022634912,1850.245542607869,61.500001968,4.31999642352,7.344530235024961,1684,-90.0,97,GPS_Atti,
0.0621600676266304,36.9336558723066,21700,2017-11-02 06:30:11,1850.745542623869,62.000001984,0.0,7.063470226031041,1850.745542623869,62.000001984,4.31999642352,7.344530235024961,1684,-90.0,97,GPS_Atti,
0.0621599910246248,36.9336558960177,21800,2017-11-02 06:30:11,1851.2455426398687,62.50000200000001,0.0,7.05751022584032,1851.2455426398687,62.50000200000001,4.31999642352,7.344530235024961,1684,-90.0,97,GPS_Atti,
0.0621599250791567,36.9336559618517,21900,2017-11-02 06:30:11,1851.745542655869,63.000002015999996,0.0,7.05498022575936,1851.745542655869,63.000002015999996,4.31999642352,7.344530235024961,1684,-90.0,97,GPS_Atti,
0.0621598610943351,36.9336560196113,22000,2017-11-02 06:30:11,1852.2455426718689,63.500002032,0.0,7.05219022567008,1852.2455426718689,63.500002032,4.31999642352,7.344530235024961,1684,-90.0,97,GPS_Atti,
0.0621597777049749,36.9336560938386,22100,2017-11-02 06:30:11,1852.645542684669,63.900002044800004,0.0,7.048510225552321,1852.645542684669,63.900002044800004,4.31999642352,7.344530235024961,1684,-89.9,97,GPS_Atti,
0.0621597059361911,36.9336561209541,22200,2017-11-02 06:30:12,1853.1455427006688,64.4000020608,0.35999970196000003,7.043250225384001,1853.1455427006688,64.4000020608,4.31999642352,7.344530235024961,1684,-89.9,97,GPS_Atti,
0.0621596536826801,36.9336561207636,22300,2017-11-02 06:30:12,1853.645542716669,64.9000020768,0.35999970196000003,7.0382702252246405,1853.645542716669,64.9000020768,4.31999642352,7.344530235024961,1684,-90.0,97,GPS_Atti,
0.0621595794647165,36.9336561703141,22400,2017-11-02 06:30:12,1854.145542732669,65.40000209280001,0.35999970196000003,7.0340702250902405,1854.145542732669,65.40000209280001,4.31999642352,7.344530235024961,1684,-90.0,97,GPS_Atti,
0.0621595115716294,36.9336562239092,22500,2017-11-02 06:30:12,1854.645542748669,65.90000210880001,0.35999970196000003,7.030720224983041,1854.645542748669,65.90000210880001,4.31999642352,7.344530235024961,1684,-90.0,97,GPS_Atti,
0.0621594488179116,36.9336562618739,22600,2017-11-02 06:30:12,1855.0455427614688,66.3000021216,0.0,7.026970224863041,1855.0455427614688,66.3000021216,4.31999642352,7.344530235024961,1684,-90.0,97,GPS_Atti,
0.0621593718674189,36.9336563340114,22700,2017-11-02 06:30:12,1855.545542777469,66.8000021376,0.0,7.023860224763521,1855.545542777469,66.8000021376,4.31999642352,7.344530235024961,1684,-90.0,97,GPS_Atti,
0.0621593118950834,36.9336563808148,22800,2017-11-02 06:30:12,1856.045542793469,67.3000021536,0.0,7.0209002246688,1856.045542793469,67.3000021536,4.31999642352,7.344530235024961,1684,-90.0,97,GPS_Atti,
0.0621592700017331,36.933656410003,22900,2017-11-02 06:30:12,1856.545542809469,67.8000021696,0.35999970196000003,7.01863022459616,1856.545542809469,67.8000021696,4.31999642352,7.344530235024961,1684,-90.0,97,GPS_Atti,
0.0621592045773671,36.9336564816609,23000,2017-11-02 06:30:12,1856.9455428222689,68.2000021824,0.35999970196000003,7.01662022453184,1856.9455428222689,68.2000021824,4.31999642352,7.344530235024961,1684,-90.0,97,GPS_Atti,
0.0621591448199862,36.9336565391872,23100,2017-11-02 06:30:13,1857.4455428382691,68.7000021984,0.35999970196000003,7.014340224458881,1857.4455428382691,68.7000021984,4.31999642352,7.344530235024961,1684,-90.0,97,GPS_Atti,
0.0621591028289293,36.9336565385855,23200,2017-11-02 06:30:13,1857.945542854269,69.2000022144,0.35999970196000003,7.01034022433088,1857.945542854269,69.2000022144,4.31999642352,7.344530235024961,1684,-90.0,97,GPS_Atti,
0.0621590494941315,36.9336565710668,23300,2017-11-02 06:30:13,1858.4455428702688,69.7000022304,0.35999970196000003,7.0072002242304,1858.4455428702688,69.7000022304,4.31999642352,7.344530235024961,1684,-90.0,97,GPS_Atti,
0.0621590063794483,36.9336565921956,23400,2017-11-02 06:30:13,1858.945542886269,70.2000022464,0.35999970196000003,7.004370224139841,1858.945542886269,70.2000022464,4.31999642352,7.344530235024961,1684,-90.0,97,GPS_Atti,
0.0621589630237553,36.9336566420352,23500,2017-11-02 06:30:13,1859.445542902269,70.7000022624,0.35999970196000003,7.0032102241027205,1859.445542902269,70.7000022624,4.31999642352,7.344530235024961,1684,-90.0,97,GPS_Atti,
0.0621589258756908,36.9336566669903,23600,2017-11-02 06:30:13,1859.945542918269,71.2000022784,0.35999970196000003,7.00118022403776,1859.945542918269,71.2000022784,4.31999642352,7.344530235024961,1684,-90.0,97,GPS_Atti,
0.0621588847900488,36.9336567306553,23700,2017-11-02 06:30:13,1860.545542937469,71.8000022976,0.0,7.00106022403392,1860.545542937469,71.8000022976,4.31999642352,7.344530235024961,1684,-90.0,97,GPS_Atti,
0.0621588547354864,36.9336567884192,23800,2017-11-02 06:30:13,1860.945542950269,72.2000023104,0.0,7.00164022405248,1860.945542950269,72.2000023104,4.31999642352,7.344530235024961,1684,-89.9,97,GPS_Atti,
0.0621587998894926,36.9336568962711,23900,2017-11-02 06:30:13,1861.445542966269,72.7000023264,0.0,7.002870224091841,1861.445542966269,72.7000023264,4.31999642352,7.344530235024961,1684,-89.9,97,GPS_Atti,
0.0621587276712582,36.9336569688218,24000,2017-11-02 06:30:13,1862.0455429854692,73.3000023456,0.35999970196000003,7.00038022401216,1862.0455429854692,73.3000023456,4.31999642352,7.344530235024961,1684,-90.0,97,GPS_Atti,
0.062158673388706,36.9336570368184,24100,2017-11-02 06:30:13,1862.545543001469,73.80000236160001,0.35999970196000003,6.99933022397856,1862.545543001469,73.80000236160001,4.31999642352,7.344530235024961,1684,-90.0,97,GPS_Atti,
0.0621586584982141,36.9336570345445,24200,2017-11-02 06:30:14,1863.0455430174688,74.30000237760001,0.35999970196000003,6.9978002239296,1863.0455430174688,74.30000237760001,4.31999642352,7.344530235024961,1684,-90.0,97,GPS_Atti,
0.0621586505514074,36.9336570598935,24300,2017-11-02 06:30:14,1863.5455430334691,74.80000239360001,0.35999970196000003,6.998570223954241,1863.5455430334691,74.80000239360001,4.31999642352,7.344530235024961,1684,-90.0,97,GPS_Atti,
0.0621586314497593,36.9336570782796,24400,2017-11-02 06:30:14,1863.945543046269,75.2000024064,0.35999970196000003,6.997870223931841,1863.945543046269,75.2000024064,4.31999642352,7.344530235024961,1684,-90.0,97,GPS_Atti,
0.0621586241282751,36.933657128132,24500,2017-11-02 06:30:14,1864.445543062269,75.7000024224,0.35999970196000003,7.00016022400512,1864.445543062269,75.7000024224,4.31999642352,7.344530235024961,1684,-90.0,97,GPS_Atti,
0.062158610201822,36.9336571487213,24600,2017-11-02 06:30:14,1864.9455430782689,76.2000024384,0.35999970196000003,7.000080224002561,1864.9455430782689,76.2000024384,4.31999642352,7.344530235024961,1684,-90.0,97,GPS_Atti,
0.0621586039616246,36.9336571742395,24700,2017-11-02 06:30:14,1865.4455430942692,76.7000024544,0.35999970196000003,7.001030224032961,1865.4455430942692,76.7000024544,4.31999642352,7.344530235024961,1660,-90.0,97,GPS_Atti,
0.06215859074843,36.9336571633646,24800,2017-11-02 06:30:14,1865.945543110269,77.20000247040001,0.35999970196000003,6.99914022397248,1865.945543110269,77.20000247040001,4.31999642352,7.344530235024961,1613,-90.0,97,GPS_Atti,
0.0621585733794464,36.9336571971734,24900,2017-11-02 06:30:14,1866.345543123069,77.6000024832,0.35999970196000003,6.9995302239849595,1866.345543123069,77.6000024832,4.31999642352,7.344530235024961,1569,-90.0,97,GPS_Atti,
0.0621585393384531,36.9336572252267,25000,2017-11-02 06:30:14,1866.845543139069,78.1000024992,0.35999970196000003,6.99802022393664,1866.845543139069,78.1000024992,4.31999642352,7.344530235024961,1527,-90.0,97,GPS_Atti,
0.0621584993927218,36.9336572482826,25100,2017-11-02 06:30:14,1867.245543151869,78.500002512,0.0,6.995660223861121,1867.245543151869,78.500002512,4.31999642352,7.344530235024961,1487,-90.0,97,GPS_Atti,
0.062158457108545,36.9336573021647,25200,2017-11-02 06:30:15,1867.6455431646689,78.9000025248,0.0,6.99494022383808,1867.6455431646689,78.9000025248,4.31999642352,7.344530235024961,1447,-90.0,97,GPS_Atti,
0.0621584320467919,36.9336573460711,25300,2017-11-02 06:30:15,1867.945543174269,79.20000253440001,0.35999970196000003,6.99524022384768,1867.945543174269,79.20000253440001,4.31999642352,7.344530235024961,1417,-90.0,97,GPS_Atti,
0.0621584187586889,36.9336573510536,25400,2017-11-02 06:30:15,1868.2455431838691,79.500002544,0.35999970196000003,6.994300223817601,1868.2455431838691,79.500002544,4.31999642352,7.344530235024961,1359,-90.0,97,GPS_Atti,
0.0621584254287955,36.9336573606631,25500,2017-11-02 06:30:15,1868.545543193469,79.80000255360001,0.35999970196000003,6.995500223856,1868.545543193469,79.80000255360001,4.31999642352,7.344530235024961,1267,-90.0,97,GPS_Atti,
0.0621584589226316,36.9336573265374,25600,2017-11-02 06:30:15,1868.745543199869,80.00000256,0.35999970196000003,6.99658022389056,1868.745543199869,80.00000256,4.31999642352,7.344530235024961,1228,-90.0,96,GPS_Atti,
0.0621585328474753,36.9336572930498,25700,2017-11-02 06:30:15,1868.9455432062691,80.20000256640002,0.35999970196000003,7.001480224047361,1868.9455432062691,80.20000256640002,4.31999642352,7.344530235024961,1228,-90.0,96,GPS_Atti,
0.0621586308374644,36.9336572307659,25800,2017-11-02 06:30:15,1869.045543209469,80.30000256960001,0.35999970196000003,7.006930224221761,1869.045543209469,80.30000256960001,4.31999642352,7.344530235024961,1154,-89.9,96,GPS_Atti,
0.0621587670340065,36.9336571821896,25900,2017-11-02 06:30:15,1869.1455432126688,80.4000025728,0.35999970196000003,7.016790224537281,1869.1455432126688,80.4000025728,4.31999642352,7.344530235024961,1024,-89.9,96,GPS_Atti,
0.0621589271523909,36.9336571174648,26000,2017-11-02 06:30:15,1869.1455432126688,80.4000025728,0.5075995797636,7.027970224895041,1869.1455432126688,80.4000025728,4.31999642352,7.344530235024961,1024,-90.0,96,GPS_Atti,
0.0621591593782755,36.9336570729545,26100,2017-11-02 06:30:15,1869.1455432126688,80.4000025728,0.35999970196000003,7.04716022550912,1869.1455432126688,80.4000025728,4.31999642352,7.344530235024961,1024,-89.9,96,GPS_Atti,
0.062159362735105,36.9336570146553,26200,2017-11-02 06:30:16,1869.1455432126688,80.4000025728,0.0,7.062870226011841,1869.1455432126688,80.4000025728,4.31999642352,7.344530235024961,1024,-90.0,96,GPS_Atti,
0.0621595479575821,36.9336569473675,26300,2017-11-02 06:30:16,1869.1455432126688,80.4000025728,0.0,7.076380226444161,1869.1455432126688,80.4000025728,4.31999642352,7.344530235024961,1024,-90.0,96,GPS_Atti,
0.0621597175567675,36.9336569988065,26400,2017-11-02 06:30:16,1869.045543209469,80.30000256960001,0.0,7.0954102270531205,1869.1455432126688,80.4000025728,4.31999642352,7.344530235024961,1024,-89.9,96,GPS_Atti,
0.0621598341924403,36.933657011238,26500,2017-11-02 06:30:16,1869.045543209469,80.30000256960001,0.0,7.10716022742912,1869.1455432126688,80.4000025728,4.31999642352,7.344530235024961,1024,-90.0,96,GPS_Atti,
0.0621598947770708,36.9336569385995,26600,2017-11-02 06:30:16,1869.1455432126688,80.4000025728,0.0,7.10863022747616,1869.1455432126688,80.4000025728,4.31999642352,7.344530235024961,1024,-90.0,96,GPS_Atti,
0.0621599291176978,36.9336568472537,26700,2017-11-02 06:30:16,1869.045543209469,80.30000256960001,0.0,7.106540227409281,1869.1455432126688,80.4000025728,4.31999642352,7.344530235024961,1024,-89.9,96,GPS_Atti,
0.0621599313258678,36.9336567184678,26800,2017-11-02 06:30:16,1869.045543209469,80.30000256960001,0.5075995797636,7.099250227176,1869.1455432126688,80.4000025728,4.31999642352,7.344530235024961,1024,-89.9,96,GPS_Atti,
0.0621599085993034,36.9336565515694,26900,2017-11-02 06:30:16,1869.045543209469,80.30000256960001,0.5075995797636,7.08739022679648,1869.1455432126688,80.4000025728,4.31999642352,7.344530235024961,1024,-89.9,96,GPS_Atti,
0.0621598644684711,36.9336563628827,27000,2017-11-02 06:30:16,1869.045543209469,80.30000256960001,0.5075995797636,7.0722802263129605,1869.1455432126688,80.4000025728,4.31999642352,7.344530235024961,1024,-89.9,96,GPS_Atti,
0.0621598033041146,36.9336561455988,27100,2017-11-02 06:30:16,1869.045543209469,80.30000256960001,0.5075995797636,7.05393022572576,1869.1455432126688,80.4000025728,4.31999642352,7.344530235024961,1024,-90.0,96,GPS_Atti,
0.0621597461652716,36.9336559912411,27200,2017-11-02 06:30:17,1869.1455432126688,80.4000025728,0.5075995797636,7.03962022526784,1869.1455432126688,80.4000025728,4.31999642352,7.344530235024961,1024,-90.0,96,GPS_Atti,
0.0621596810535668,36.9336557915681,27300,2017-11-02 06:30:17,1869.1455432126688,80.4000025728,0.5075995797636,7.02197022470304,1869.1455432126688,80.4000025728,4.31999642352,7.344530235024961,1024,-89.9,96,GPS_Atti,
0.0621596500023967,36.9336555896298,27400,2017-11-02 06:30:17,1869.1455432126688,80.4000025728,0.5075995797636,7.007480224239361,1869.1455432126688,80.4000025728,4.31999642352,7.344530235024961,1024,-90.0,96,GPS_Atti,
0.0621596037806423,36.9336553437401,27500,2017-11-02 06:30:17,1869.1455432126688,80.4000025728,0.5075995797636,6.98908022365056,1869.1455432126688,80.4000025728,4.31999642352,7.344530235024961,1024,-90.0,96,GPS_Atti,
0.0621595802528834,36.9336551384808,27600,2017-11-02 06:30:17,1869.1455432126688,80.4000025728,0.5075995797636,6.975220223207041,1869.1455432126688,80.4000025728,4.31999642352,7.344530235024961,1024,-90.0,96,GPS_Atti,
0.0621595464007896,36.933654912825,27700,2017-11-02 06:30:17,1869.1455432126688,80.4000025728,0.5075995797636,6.95927022269664,1869.1455432126688,80.4000025728,4.31999642352,7.344530235024961,1024,-90.0,96,GPS_Atti,
0.0621595193751331,36.933654692961,27800,2017-11-02 06:30:17,1869.045543209469,80.30000256960001,0.5075995797636,6.944360222219521,1869.1455432126688,80.4000025728,4.31999642352,7.344530235024961,1024,-90.0,96,GPS_Atti,
0.0621594775241223,36.9336544614084,27900,2017-11-02 06:30:17,1869.1455432126688,80.4000025728,0.5075995797636,6.92742022167744,1869.1455432126688,80.4000025728,4.31999642352,7.344530235024961,1024,-90.0,96,GPS_Atti,
0.0621593979225229,36.9336542955057,28000,2017-11-02 06:30:17,1869.045543209469,80.30000256960001,0.5075995797636,6.91054022113728,1869.1455432126688,80.4000025728,4.31999642352,7.344530235024961,1024,-89.9,96,GPS_Atti,
0.0621593286354877,36.9336541173298,28100,2017-11-02 06:30:17,1869.045543209469,80.30000256960001,0.5075995797636,6.89399022060768,1869.1455432126688,80.4000025728,4.31999642352,7.344530235024961,1024,-89.9,96,GPS_Atti,
0.0621592651750251,36.9336539823196,28200,2017-11-02 06:30:18,1869.1455432126688,80.4000025728,0.5075995797636,6.88041022017312,1869.1455432126688,80.4000025728,4.31999642352,7.344530235024961,1024,-89.9,96,GPS_Atti,
0.0621591999818982,36.9336538223885,28300,2017-11-02 06:30:18,1869.1455432126688,80.4000025728,0.5075995797636,6.86531021968992,1869.1455432126688,80.4000025728,4.31999642352,7.344530235024961,1024,-90.0,96,GPS_Atti,
0.0621591087173828,36.9336536697416,28400,2017-11-02 06:30:18,1869.1455432126688,80.4000025728,0.5075995797636,6.8481002191392,1869.1455432126688,80.4000025728,4.31999642352,7.344530235024961,1024,-90.0,96,GPS_Atti,
0.062159021914804,36.9336535242098,28500,2017-11-02 06:30:18,1869.1455432126688,80.4000025728,0.5075995797636,6.83173021861536,1869.1455432126688,80.4000025728,4.31999642352,7.344530235024961,1024,-90.0,96,GPS_Atti,
0.0621589461302773,36.933653376556,28600,2017-11-02 06:30:18,1869.1455432126688,80.4000025728,0.35999970196000003,6.816330218122561,1869.1455432126688,80.4000025728,4.31999642352,7.344530235024961,1024,-90.0,96,GPS_Atti,
0.0621588800284785,36.9336532555917,28700,2017-11-02 06:30:18,1869.1455432126688,80.4000025728,0.35999970196000003,6.80333021770656,1869.1455432126688,80.4000025728,4.31999642352,7.344530235024961,1024,-90.0,96,GPS_Atti,
0.0621588405712805,36.9336531208277,28800,2017-11-02 06:30:18,1869.1455432126688,80.4000025728,0.35999970196000003,6.79217021734944,1869.1455432126688,80.4000025728,4.31999642352,7.344530235024961,1024,-90.0,96,GPS_Atti,
