latitude,longitude,time_millisecond,datetime_utc,altitude_m,ascent_m,speed_kph,distance_m,max_altitude_m,max_ascent_m,max_speed_kph,max_distance_m,rc_throttle,gimbal_pitch_degrees,battery_percent,flycState,message
0.335867975363846,36.9072025017467,0,2018-04-04 04:41:06,1643.1150427796895,0.0,0.0,0.0,1643.1150427796895,0.0,0.0,0.0,364,0.0,99,P-GPS,
0.335867997908432,36.9072024841881,100,2018-04-04 04:41:06,1643.1150427796895,0.0,0.0,0.00317776010168832,1643.1150427796895,0.0,0.0,0.00317776010168832,364,0.0,99,Motors_Started,Setting new Return-To-Home altitude to 30m (98 ft). Setting new Maximum Flight Altitude to 150m (492 ft)
0.335868027114575,36.9072024529909,200,2018-04-04 04:41:06,1643.1150427796895,0.0,0.0,0.00790674025301568,1643.1150427796895,0.0,0.0,0.00790674025301568,364,0.0,99,Motors_Started,
0.335868062578422,36.9072024157388,300,2018-04-04 04:41:06,1643.1150427796895,0.0,0.0,0.013621500435888,1643.1150427796895,0.0,0.0,0.013621500435888,364,0.0,99,Motors_Started,
0.335868080590641,36.9072023653845,400,2018-04-04 04:41:06,1643.1150427796895,0.0,0.0,0.0191542006129344,1643.1150427796895,0.0,0.0,0.0191542006129344,364,0.0,99,Motors_Started,
0.335868095975365,36.9072023162154,500,2018-04-04 04:41:06,1643.1150427796895,0.0,0.0,0.024608400787468804,1643.1150427796895,0.0,0.0,0.024608400787468804,364,0.0,99,Motors_Started,
0.335868120516831,36.9072022563069,600,2018-04-04 04:41:06,1643.1150427796895,0.0,0.0,0.0317099010147168,1643.1150427796895,0.0,0.0,0.0317099010147168,364,0.0,99,Motors_Started,
0.33586815291391,36.9072022005738,700,2018-04-04 04:41:06,1643.1150427796895,0.0,0.0,0.0388786012441152,1643.1150427796895,0.0,0.0,0.0388786012441152,364,0.0,99,Motors_Started,
0.335868195551052,36.9072021098589,800,2018-04-04 04:41:06,1643.1150427796895,0.0,0.0,0.049987501599600005,1643.1150427796895,0.0,0.0,0.049987501599600005,364,0.0,99,Motors_Started,
0.335868239587841,36.9072020210588,900,2018-04-04 04:41:06,1643.1150427796895,0.0,0.0,0.0609981019519392,1643.1150427796895,0.0,0.0,0.0609981019519392,364,0.0,99,Motors_Started,
0.335868294084127,36.9072019263253,1000,2018-04-04 04:41:07,1643.1150427796895,0.0,0.0,0.0731497023407904,1643.1150427796895,0.0,0.0,0.0731497023407904,364,0.0,99,Motors_Started,
0.335868346244002,36.9072018472395,1100,2018-04-04 04:41:07,1643.1150427796895,0.0,0.0,0.08365750267704,1643.1150427796895,0.0,0.0,0.08365750267704,388,0.0,99,Motors_Started,
0.335868377853729,36.9072017454517,1200,2018-04-04 04:41:07,1643.1150427796895,0.0,0.0,0.0952719030487008,1643.1150427796895,0.0,0.0,0.0952719030487008,996,0.0,99,Motors_Started,
0.335868399387051,36.9072016495914,1300,2018-04-04 04:41:07,1643.1150427796895,0.0,0.0,0.10584700338710401,1643.1150427796895,0.0,0.0,0.10584700338710401,1024,0.0,99,Motors_Started,
0.335868430131259,36.9072015558135,1400,2018-04-04 04:41:07,1643.1150427796895,0.0,0.0,0.11671700373494401,1643.1150427796895,0.0,0.0,0.11671700373494401,1024,0.0,99,Motors_Started,
0.335868464911973,36.9072014768309,1500,2018-04-04 04:41:07,1643.1150427796895,0.0,0.0,0.126309004041888,1643.1150427796895,0.0,0.0,0.126309004041888,1024,0.0,99,Motors_Started,
0.335868482762976,36.9072014068512,1600,2018-04-04 04:41:07,1643.1150427796895,0.0,0.0,0.134196004294272,1643.1150427796895,0.0,0.0,0.134196004294272,1024,0.0,99,Assisted_Takeoff,
0.335868494162899,36.9072013444974,1700,2018-04-04 04:41:07,1643.1150427796895,0.0,0.0,0.141032004513024,1643.1150427796895,0.0,0.0,0.141032004513024,1024,0.0,99,Assisted_Takeoff,
0.335868514555496,36.9072012658114,1800,2018-04-04 04:41:07,1643.1150427796895,0.0,0.0,0.149951004798432,1643.1150427796895,0.0,0.0,0.149951004798432,1024,0.0,99,Assisted_Takeoff,
0.335868544898293,36.9072011796365,1900,2018-04-04 04:41:07,1643.1150427796895,0.0,0.0,0.160086005122752,1643.1150427796895,0.0,0.0,0.160086005122752,1024,0.0,99,Assisted_Takeoff,
0.335868582864243,36.9072011064406,2000,2018-04-04 04:41:07,1643.1150427796895,0.0,0.0,0.169233005415456,1643.1150427796895,0.0,0.0,0.169233005415456,1024,0.0,99,Assisted_Takeoff,
0.335868624807261,36.9072010370063,2100,2018-04-04 04:41:08,1643.1150427796895,0.0,0.0,0.178179005701728,1643.1150427796895,0.0,0.0,0.178179005701728,1024,0.0,99,Assisted_Takeoff,
0.33586867571242,36.9072009817261,2200,2018-04-04 04:41:08,1643.1150427796895,0.0,0.0,0.18611200595558403,1643.1150427796895,0.0,0.0,0.18611200595558403,1024,0.0,99,Assisted_Takeoff,
0.335868724759932,36.9072009230585,2300,2018-04-04 04:41:08,1643.1150427796895,0.0,0.0,0.19433300621865598,1643.1150427796895,0.0,0.0,0.19433300621865598,1024,0.0,99,Assisted_Takeoff,
0.335868754959426,36.9072008778341,2400,2018-04-04 04:41:08,1643.1150427796895,0.0,0.0,0.200318006410176,1643.1150427796895,0.0,0.0,0.200318006410176,1024,0.0,99,Assisted_Takeoff,
0.335868777579734,36.9072008277694,2500,2018-04-04 04:41:08,1643.1150427796895,0.0,0.0,0.206426006605632,1643.1150427796895,0.0,0.0,0.206426006605632,1024,0.0,99,Assisted_Takeoff,
0.335868806978034,36.9072007622064,2600,2018-04-04 04:41:08,1643.1150427796895,0.0,0.0,0.214414006861248,1643.1150427796895,0.0,0.0,0.214414006861248,1024,0.0,99,Assisted_Takeoff,
0.335868842382035,36.9072006852382,2700,2018-04-04 04:41:08,1643.1150427796895,0.0,0.0,0.223834007162688,1643.1150427796895,0.0,0.0,0.223834007162688,1024,0.0,99,Assisted_Takeoff,
0.335868886739628,36.9072006171717,2800,2018-04-04 04:41:08,1643.1150427796895,0.0,0.0,0.232793007449376,1643.1150427796895,0.0,0.0,0.232793007449376,1024,0.0,99,Assisted_Takeoff,
0.335868930224782,36.9072005517774,2900,2018-04-04 04:41:09,1643.1150427796895,0.0,0.0,0.241448007726336,1643.1150427796895,0.0,0.0,0.241448007726336,1024,0.0,99,Assisted_Takeoff,
0.335868953975231,36.9072004974709,3000,2018-04-04 04:41:09,1643.1150427796895,0.0,0.0,0.24803400793708802,1643.1150427796895,0.0,0.0,0.24803400793708802,1024,0.0,99,Assisted_Takeoff,
0.335868971543292,36.9072004417378,3100,2018-04-04 04:41:09,1643.1150427796895,0.0,0.0,0.254462008142784,1643.1150427796895,0.0,0.0,0.254462008142784,1024,0.0,99,Assisted_Takeoff,
0.335868971060051,36.9072003959947,3200,2018-04-04 04:41:09,1643.1150427796895,0.0,0.0,0.259028008288896,1643.1150427796895,0.0,0.0,0.259028008288896,1024,0.0,99,Assisted_Takeoff,
0.335868973557677,36.9072003453985,3300,2018-04-04 04:41:09,1643.1150427796895,0.0,0.0,0.264242008455744,1643.1150427796895,0.0,0.0,0.264242008455744,1024,0.0,99,Assisted_Takeoff,
0.335868987424692,36.9072003031396,3400,2018-04-04 04:41:09,1643.1150427796895,0.0,0.0,0.26915500861296004,1643.1150427796895,0.0,0.0,0.26915500861296004,1024,0.0,99,Assisted_Takeoff,
0.335869011511007,36.9072002544507,3500,2018-04-04 04:41:09,1643.1150427796895,0.0,0.0,0.275193008806176,1643.1150427796895,0.0,0.0,0.275193008806176,1024,0.0,99,Assisted_Takeoff,
0.335869022784318,36.907200240606,3600,2018-04-04 04:41:09,1643.1150427796895,0.0,0.0,0.27711700886774404,1643.1150427796895,0.0,0.0,0.27711700886774404,1024,0.0,99,Assisted_Takeoff,
0.335869032496765,36.9072002211957,3700,2018-04-04 04:41:09,1643.1150427796895,0.0,0.0,0.27952900894492805,1643.1150427796895,0.0,0.0,0.27952900894492805,1024,0.0,99,Assisted_Takeoff,
0.335869056858694,36.9072002065594,3800,2018-04-04 04:41:09,1643.1150427796895,0.0,0.0,0.282151009028832,1643.1150427796895,0.0,0.0,0.282151009028832,1024,0.0,99,Assisted_Takeoff,
0.335869087471406,36.9072001781259,3900,2018-04-04 04:41:09,1643.1150427796895,0.0,0.0,0.286468009166976,1643.1150427796895,0.0,0.0,0.286468009166976,1024,0.0,99,Assisted_Takeoff,
0.335869107251301,36.9072001768995,4000,2018-04-04 04:41:10,1643.1150427796895,0.0,0.0,0.287547009201504,1643.1150427796895,0.0,0.0,0.287547009201504,1024,0.0,99,Assisted_Takeoff,
0.335869126703471,36.9072001660039,4100,2018-04-04 04:41:10,1643.1150427796895,0.0,0.0,0.28958700926678405,1643.1150427796895,0.0,0.0,0.28958700926678405,1024,0.0,99,Assisted_Takeoff,
0.335869153249958,36.9072001581573,4200,2018-04-04 04:41:10,1643.1150427796895,0.0,0.0,0.291683009333856,1643.1150427796895,0.0,0.0,0.291683009333856,1024,0.0,99,Assisted_Takeoff,
0.335869187568194,36.9072001314192,4300,2018-04-04 04:41:10,1643.1150427796895,0.0,0.0,0.29606100947395203,1643.1150427796895,0.0,0.0,0.29606100947395203,1024,0.0,99,Assisted_Takeoff,
0.33586923816802,36.9072001266866,4400,2018-04-04 04:41:10,1643.1150427796895,0.0,0.0,0.29913000957216,1643.1150427796895,0.0,0.0,0.29913000957216,1024,0.0,99,Assisted_Takeoff,
0.335869285027718,36.9072001176827,4500,2018-04-04 04:41:10,1643.1150427796895,0.0,0.0,0.30248800967961603,1643.1150427796895,0.0,0.0,0.30248800967961603,1024,0.0,99,Assisted_Takeoff,
0.335869318071696,36.9072001292566,4600,2018-04-04 04:41:10,1643.1150427796895,0.0,0.0,0.30315400970092804,1643.1150427796895,0.0,0.0,0.30315400970092804,1024,0.0,99,Assisted_Takeoff,
0.335869342967755,36.9072001324898,4700,2018-04-04 04:41:10,1643.1150427796895,0.0,0.0,0.30421600973491203,1643.1150427796895,0.0,0.0,0.30421600973491203,1024,0.0,99,Assisted_Takeoff,
0.335869379763668,36.9072001515452,4800,2018-04-04 04:41:10,1643.1150427796895,0.0,0.0,0.30446100974275203,1643.1150427796895,0.0,0.0,0.30446100974275203,1024,0.0,99,Assisted_Takeoff,
0.335869418986371,36.9072001622824,4900,2018-04-04 04:41:10,1643.1150427796895,0.0,0.0,0.30570500978256,1643.1150427796895,0.0,0.0,0.30570500978256,1024,0.0,99,Assisted_Takeoff,
0.335869470935363,36.9072001571579,5000,2018-04-04 04:41:11,1643.1150427796895,0.0,0.0,0.309258009896256,1643.1150427796895,0.0,0.0,0.309258009896256,1024,0.0,99,Assisted_Takeoff,
0.335869519219948,36.9072001391432,5100,2018-04-04 04:41:11,1643.1150427796895,0.0,0.0,0.313853010043296,1643.1150427796895,0.0,0.0,0.313853010043296,1024,0.0,99,Assisted_Takeoff,
0.335869549785842,36.907200129862,5200,2018-04-04 04:41:11,1643.1150427796895,0.0,0.0,0.31658501013072,1643.1150427796895,0.0,0.0,0.31658501013072,1024,0.0,99,Assisted_Takeoff,
0.335869573100275,36.9072001229721,5300,2018-04-04 04:41:11,1643.1150427796895,0.0,0.0,0.318662010197184,1643.1150427796895,0.0,0.0,0.318662010197184,1024,0.0,99,Assisted_Takeoff,
0.335869577288633,36.9072001255469,5400,2018-04-04 04:41:11,1643.1150427796895,0.0,0.0,0.31868401019788806,1643.1150427796895,0.0,0.0,0.31868401019788806,1071,0.0,99,Assisted_Takeoff,
0.335869584731436,36.9072001263991,5500,2018-04-04 04:41:11,1643.1150427796895,0.0,0.0,0.319069010210208,1643.1150427796895,0.0,0.0,0.319069010210208,1024,0.0,99,Assisted_Takeoff,
0.335869603503324,36.9072001343682,5600,2018-04-04 04:41:11,1643.1150427796895,0.0,0.0,0.31951401022444803,1643.1150427796895,0.0,0.0,0.31951401022444803,1024,0.0,99,Assisted_Takeoff,
0.335869631742172,36.9072001392679,5700,2018-04-04 04:41:11,1643.1150427796895,0.0,0.0,0.320858010267456,1643.1150427796895,0.0,0.0,0.320858010267456,1024,0.0,99,Assisted_Takeoff,
0.335869644711914,36.9072001495319,5800,2018-04-04 04:41:11,1643.1150427796895,0.0,0.0,0.32075701026422404,1643.1150427796895,0.0,0.0,0.320858010267456,1024,0.0,99,Assisted_Takeoff,
0.335869657748422,36.9072001558432,5900,2018-04-04 04:41:11,1643.1150427796895,0.0,0.0,0.321027010272864,1643.1150427796895,0.0,0.0,0.321027010272864,1024,0.0,99,Assisted_Takeoff,
0.335869684073034,36.9072001651468,6000,2018-04-04 04:41:11,1643.1150427796895,0.0,0.0,0.321907010301024,1643.1150427796895,0.0,0.0,0.321907010301024,1024,0.0,99,Assisted_Takeoff,
0.335869716947247,36.9072001711289,6100,2018-04-04 04:41:12,1643.1150427796895,0.0,0.0,0.32354501035343997,1643.1150427796895,0.0,0.0,0.32354501035343997,1024,0.0,99,Assisted_Takeoff,
0.335869735498481,36.9072001781484,6200,2018-04-04 04:41:12,1643.1150427796895,0.0,0.0,0.32416101037315204,1643.1150427796895,0.0,0.0,0.32416101037315204,1024,0.0,99,Assisted_Takeoff,
0.335869752203059,36.9072001827296,6300,2018-04-04 04:41:12,1643.1150427796895,0.0,0.0,0.324882010396224,1643.1150427796895,0.0,0.0,0.324882010396224,1024,0.0,99,Assisted_Takeoff,
0.335869782019869,36.9072002153796,6400,2018-04-04 04:41:12,1643.1150427796895,0.0,0.0,0.324053010369696,1643.1150427796895,0.0,0.0,0.324882010396224,1024,0.0,99,Assisted_Takeoff,
0.335869817608698,36.9072002479285,6500,2018-04-04 04:41:12,1643.1150427796895,0.0,0.0,0.323711010358752,1643.1150427796895,0.0,0.0,0.324882010396224,1024,0.0,99,Assisted_Takeoff,
0.335869838486165,36.9072002782665,6600,2018-04-04 04:41:12,1643.1150427796895,0.0,0.0,0.32259201032294404,1643.1150427796895,0.0,0.0,0.324882010396224,1024,0.0,99,Assisted_Takeoff,
0.335869856841171,36.9072002978047,6700,2018-04-04 04:41:12,1643.1150427796895,0.0,0.0,0.322251010312032,1643.1150427796895,0.0,0.0,0.324882010396224,1024,0.0,99,Assisted_Takeoff,
0.335869887617134,36.9072003399833,6800,2018-04-04 04:41:12,1643.1150427796895,0.0,0.0,0.32095601027059206,1643.1150427796895,0.0,0.0,0.324882010396224,1024,0.0,99,Assisted_Takeoff,
0.33586992429295,36.9072003791694,6900,2018-04-04 04:41:12,1643.1150427796895,0.0,0.0,0.320449010254368,1643.1150427796895,0.0,0.0,0.324882010396224,1024,0.0,99,Assisted_Takeoff,
0.335869973254561,36.9072004107344,7000,2018-04-04 04:41:13,1643.1150427796895,0.0,0.0,0.32161001029152003,1643.1150427796895,0.0,0.0,0.324882010396224,1024,0.0,99,Assisted_Takeoff,
0.33587002152327,36.9072004319963,7100,2018-04-04 04:41:13,1643.1150427796895,0.0,0.0,0.32365501035696,1643.1150427796895,0.0,0.0,0.324882010396224,1024,0.0,99,Assisted_Takeoff,
0.335870052017512,36.9072004722151,7200,2018-04-04 04:41:13,1643.1150427796895,0.0,0.0,0.322907010333024,1643.1150427796895,0.0,0.0,0.324882010396224,1024,0.0,99,Assisted_Takeoff,
0.335870077319461,36.9072005115447,7300,2018-04-04 04:41:13,1643.1150427796895,0.0,0.0,0.321902010300864,1643.1150427796895,0.0,0.0,0.324882010396224,1024,0.0,99,Assisted_Takeoff,
0.335870110681393,36.9072005400766,7400,2018-04-04 04:41:13,1643.1150427796895,0.0,0.0,0.322452010318464,1643.1150427796895,0.0,0.0,0.324882010396224,1024,0.0,99,Assisted_Takeoff,
0.335870149567821,36.9072005607711,7500,2018-04-04 04:41:13,1643.1150427796895,0.0,0.0,0.324112010371584,1643.1150427796895,0.0,0.0,0.324882010396224,1024,0.0,99,Assisted_Takeoff,
0.335870170332925,36.9072005973979,7600,2018-04-04 04:41:13,1643.1150427796895,0.0,0.0,0.32315501034096,1643.1150427796895,0.0,0.0,0.324882010396224,1024,0.0,99,Assisted_Takeoff,
0.335870190459679,36.9072006357244,7700,2018-04-04 04:41:13,1643.1150427796895,0.0,0.0,0.322087010306784,1643.1150427796895,0.0,0.0,0.324882010396224,1024,0.0,99,Assisted_Takeoff,
0.3358701921956,36.9072007146523,7800,2018-04-04 04:41:13,1643.1150427796895,0.0,0.0,0.31665301013289604,1643.1150427796895,0.0,0.0,0.324882010396224,1024,0.0,99,Assisted_Takeoff,
0.335870198516405,36.907200793583,7900,2018-04-04 04:41:13,1643.1150427796895,0.0,0.0,0.31177700997686403,1643.1150427796895,0.0,0.0,0.324882010396224,1024,0.0,99,Assisted_Takeoff,
0.335870214484113,36.9072008572172,8000,2018-04-04 04:41:13,1643.1150427796895,0.0,0.0,0.30894600988627197,1643.1150427796895,0.0,0.0,0.324882010396224,1024,0.0,99,Assisted_Takeoff,
0.335870243649545,36.9072009008941,8100,2018-04-04 04:41:14,1643.1150427796895,0.0,0.0,0.30874000987968,1643.1150427796895,0.0,0.0,0.324882010396224,1024,0.0,99,Assisted_Takeoff,
0.335870285528239,36.9072009798509,8200,2018-04-04 04:41:14,1643.1150427796895,0.0,0.0,0.30764000984448003,1643.1150427796895,0.0,0.0,0.324882010396224,1024,0.0,99,Assisted_Takeoff,
0.335870330875519,36.9072010589727,8300,2018-04-04 04:41:14,1643.1150427796895,0.0,0.0,0.307178009829696,1643.1150427796895,0.0,0.0,0.324882010396224,1024,0.0,99,Assisted_Takeoff,
0.335870386548762,36.9072011428469,8400,2018-04-04 04:41:14,1643.1150427796895,0.0,0.0,0.30778900984924806,1643.1150427796895,0.0,0.0,0.324882010396224,1024,0.0,99,Assisted_Takeoff,
0.335870440717324,36.9072012138485,8500,2018-04-04 04:41:14,1643.1150427796895,0.0,0.0,0.30931700989814404,1643.1150427796895,0.0,0.0,0.324882010396224,1024,0.0,99,Assisted_Takeoff,
0.335870500576482,36.907201256466,8600,2018-04-04 04:41:14,1643.1150427796895,0.0,0.0,0.31310701001942404,1643.1150427796895,0.0,0.0,0.324882010396224,1024,0.0,99,Assisted_Takeoff,
0.335870557738938,36.9072012887253,8700,2018-04-04 04:41:14,1643.1150427796895,0.0,0.0,0.31727901015292803,1643.1150427796895,0.0,0.0,0.324882010396224,1024,0.0,99,Assisted_Takeoff,
0.335870591993257,36.907201319946,8800,2018-04-04 04:41:14,1643.1150427796895,0.0,0.0,0.319287010217184,1643.1150427796895,0.0,0.0,0.324882010396224,1024,0.0,99,Assisted_Takeoff,
0.335870621648036,36.9072013582987,8900,2018-04-04 04:41:14,1643.1150427796895,0.0,0.0,0.320579010258528,1643.1150427796895,0.0,0.0,0.324882010396224,1024,0.0,99,Assisted_Takeoff,
0.335870626986076,36.9072013972681,9000,2018-04-04 04:41:15,1643.1150427796895,0.0,0.0,0.31943301022185605,1643.1150427796895,0.0,0.0,0.324882010396224,1024,0.0,99,Assisted_Takeoff,
0.335870636840605,36.9072014386003,9100,2018-04-04 04:41:15,1643.1150427796895,0.0,0.0,0.318712010198784,1643.1150427796895,0.0,0.0,0.324882010396224,1024,0.0,99,Assisted_Takeoff,
0.335870650668537,36.9072014544293,9200,2018-04-04 04:41:15,1643.1150427796895,0.0,0.0,0.319494010223808,1643.1150427796895,0.0,0.0,0.324882010396224,1024,0.0,99,Assisted_Takeoff,
0.335870679455356,36.9072014700866,9300,2018-04-04 04:41:15,1643.1150427796895,0.0,0.0,0.32185301029929597,1643.1150427796895,0.0,0.0,0.324882010396224,1024,0.0,99,Assisted_Takeoff,
0.335870687687954,36.9072014899283,9400,2018-04-04 04:41:15,1643.0150427764897,-0.1000000032,0.0,0.32193001030176005,1643.1150427796895,0.0,0.0,0.324882010396224,1024,0.0,99,Assisted_Takeoff,
0.33587069968633,36.9072015190774,9500,2018-04-04 04:41:15,1643.0150427764897,-0.1000000032,0.0,0.322067010306144,1643.1150427796895,0.0,0.0,0.324882010396224,1024,0.0,99,Assisted_Takeoff,
0.335870692508149,36.9072015280074,9600,2018-04-04 04:41:15,1643.0150427764897,-0.1000000032,0.0,0.32098001027136003,1643.1150427796895,0.0,0.0,0.324882010396224,1024,0.0,99,Assisted_Takeoff,
0.335870694248141,36.9072015382088,9700,2018-04-04 04:41:15,1643.0150427764897,-0.1000000032,0.0,0.320781010264992,1643.1150427796895,0.0,0.0,0.324882010396224,1024,0.0,99,Assisted_Takeoff,
0.33587070735223,36.9072015580339,9800,2018-04-04 04:41:15,1643.0150427764897,-0.1000000032,0.0,0.321428010285696,1643.1150427796895,0.0,0.0,0.324882010396224,1024,0.0,99,Assisted_Takeoff,
0.335870733070246,36.907201586075,9900,2018-04-04 04:41:15,1643.0150427764897,-0.1000000032,0.0,0.32313701034038406,1643.1150427796895,0.0,0.0,0.324882010396224,1024,0.0,99,Assisted_Takeoff,
0.335870743608721,36.9072015979219,10000,2018-04-04 04:41:15,1643.0150427764897,-0.1000000032,0.0,0.323838010362816,1643.1150427796895,0.0,0.0,0.324882010396224,1024,0.0,99,Assisted_Takeoff,
0.335870755925457,36.9072016090456,10100,2018-04-04 04:41:16,1643.0150427764897,-0.1000000032,0.0,0.32476001039232,1643.1150427796895,0.0,0.0,0.324882010396224,1024,0.0,99,Assisted_Takeoff,
0.335870781174482,36.9072016048263,10200,2018-04-04 04:41:16,1643.0150427764897,-0.1000000032,0.0,0.327577010482464,1643.1150427796895,0.0,0.0,0.327577010482464,1024,0.0,99,Assisted_Takeoff,
0.33587081488083,36.9072016041111,10300,2018-04-04 04:41:16,1643.0150427764897,-0.1000000032,0.0,0.33117401059756807,1643.1150427796895,0.0,0.0,0.33117401059756807,1024,0.0,99,Assisted_Takeoff,
0.335870834931046,36.9072016180457,10400,2018-04-04 04:41:16,1643.0150427764897,-0.1000000032,0.0,0.332839010650848,1643.1150427796895,0.0,0.0,0.332839010650848,1024,0.0,99,Assisted_Takeoff,
0.335870854076662,36.907201641376,10500,2018-04-04 04:41:16,1643.0150427764897,-0.1000000032,0.0,0.334122010691904,1643.1150427796895,0.0,0.0,0.334122010691904,1024,0.0,99,Assisted_Takeoff,
0.33587085819744,36.90720165339,10600,2018-04-04 04:41:16,1643.0150427764897,-0.1000000032,0.0,0.334182010693824,1643.1150427796895,0.0,0.0,0.334182010693824,1024,0.0,99,Assisted_Takeoff,
0.335870865526252,36.9072016630218,10700,2018-04-04 04:41:16,1643.0150427764897,-0.1000000032,0.0,0.334663010709216,1643.1150427796895,0.0,0.0,0.334663010709216,1024,0.0,99,Assisted_Takeoff,
0.33587088541851,36.9072016622536,10800,2018-04-04 04:41:16,1643.0150427764897,-0.1000000032,0.0,0.33681201077798406,1643.1150427796895,0.0,0.0,0.33681201077798406,1024,0.0,99,Assisted_Takeoff,
0.335870916008016,36.9072016637278,10900,2018-04-04 04:41:16,1643.0150427764897,-0.1000000032,0.0,0.340037010881184,1643.1150427796895,0.0,0.0,0.340037010881184,1024,0.0,99,Assisted_Takeoff,
0.335870933630223,36.9072016826756,11000,2018-04-04 04:41:17,1643.0150427764897,-0.1000000032,0.0,0.341354010923328,1643.1150427796895,0.0,0.0,0.341354010923328,1024,0.0,99,Assisted_Takeoff,
0.335870949923619,36.9072017090122,11100,2018-04-04 04:41:17,1643.0150427764897,-0.1000000032,0.0,0.342334010954688,1643.1150427796895,0.0,0.0,0.342334010954688,1028,0.0,99,Assisted_Takeoff,
0.335870979211184,36.9072017279322,11200,2018-04-04 04:41:17,1643.0150427764897,-0.1000000032,0.0,0.344952011038464,1643.1150427796895,0.0,0.0,0.344952011038464,1024,0.0,99,Assisted_Takeoff,
0.335871015611793,36.907201741204,11300,2018-04-04 04:41:17,1643.0150427764897,-0.1000000032,0.0,0.34851201115238406,1643.1150427796895,0.0,0.0,0.34851201115238406,1024,0.0,99,Assisted_Takeoff,
0.335871036744925,36.9072017737556,11400,2018-04-04 04:41:17,1643.0150427764897,-0.1000000032,0.0,0.349937011197984,1643.1150427796895,0.0,0.0,0.349937011197984,1027,0.0,99,Assisted_Takeoff,
0.33587105617959,36.9072018084221,11500,2018-04-04 04:41:17,1643.0150427764897,-0.1000000032,0.0,0.35117401123756803,1643.1150427796895,0.0,0.0,0.35117401123756803,1027,0.0,99,Assisted_Takeoff,
0.335871059326558,36.9072018622158,11600,2018-04-04 04:41:17,1643.0150427764897,-0.1000000032,0.0,0.35025201120806404,1643.1150427796895,0.0,0.0,0.35117401123756803,1027,0.0,99,Assisted_Takeoff,
0.33587106702177,36.9072019110728,11700,2018-04-04 04:41:17,1643.0150427764897,-0.1000000032,0.0,0.35003001120096,1643.1150427796895,0.0,0.0,0.35117401123756803,1031,0.0,99,Assisted_Takeoff,
0.335871087628915,36.9072019469192,11800,2018-04-04 04:41:17,1643.0150427764897,-0.1000000032,0.0,0.35155901124988803,1643.1150427796895,0.0,0.0,0.35155901124988803,1036,0.0,99,Assisted_Takeoff,
0.335871118141884,36.9072019726049,11900,2018-04-04 04:41:17,1643.0150427764897,-0.1000000032,0.0,0.35441501134128,1643.1150427796895,0.0,0.0,0.35441501134128,1036,0.0,99,Assisted_Takeoff,
0.335871135521453,36.9072020108146,12000,2018-04-04 04:41:17,1643.0150427764897,-0.1000000032,0.0,0.355644011380608,1643.1150427796895,0.0,0.0,0.355644011380608,1061,0.0,99,Assisted_Takeoff,
0.335871152274884,36.9072020505527,12100,2018-04-04 04:41:18,1643.0150427764897,-0.1000000032,0.0,0.35683701141878404,1643.1150427796895,0.0,0.0,0.35683701141878404,1086,0.0,99,Assisted_Takeoff,
0.335871182145433,36.9072020755805,12200,2018-04-04 04:41:18,1643.0150427764897,-0.1000000032,0.0,0.359749011511968,1643.1150427796895,0.0,0.0,0.359749011511968,1082,0.0,99,Assisted_Takeoff,
0.33587122008085,36.9072020942841,12300,2018-04-04 04:41:18,1643.0150427764897,-0.1000000032,0.0,0.363666011637312,1643.1150427796895,0.0,0.0,0.363666011637312,1126,0.0,99,Assisted_Takeoff,
0.335871242271656,36.9072021254712,12400,2018-04-04 04:41:18,1643.0150427764897,-0.1000000032,0.0,0.365702011702464,1643.1150427796895,0.0,0.0,0.365702011702464,1115,0.0,99,Assisted_Takeoff,
0.335871263677552,36.9072021598005,12500,2018-04-04 04:41:18,1643.0150427764897,-0.1000000032,0.0,0.367652011764864,1643.1150427796895,0.0,0.0,0.367652011764864,1146,0.0,99,Assisted_Takeoff,
0.335871294699411,36.9072022070741,12600,2018-04-04 04:41:18,1643.0150427764897,-0.1000000032,0.0,0.37058201185862405,1643.1150427796895,0.0,0.0,0.37058201185862405,1136,0.0,99,Assisted_Takeoff,
0.335871333399382,36.9072022525806,12700,2018-04-04 04:41:18,1643.0150427764897,-0.1000000032,0.0,0.37446101198275206,1643.1150427796895,0.0,0.0,0.37446101198275206,1159,0.0,99,Assisted_Takeoff,
0.335871354819935,36.9072022841397,12800,2018-04-04 04:41:18,1643.0150427764897,-0.1000000032,0.0,0.37659401205100806,1643.1150427796895,0.0,0.0,0.37659401205100806,1158,0.0,99,Assisted_Takeoff,
0.335871375405909,36.9072023077789,12900,2018-04-04 04:41:18,1643.0150427764897,-0.1000000032,0.0,0.37872001211904,1643.1150427796895,0.0,0.0,0.37872001211904,1171,0.0,99,Assisted_Takeoff,
0.335871406258409,36.9072023170783,13000,2018-04-04 04:41:19,1643.0150427764897,-0.1000000032,0.0,0.382089012226848,1643.1150427796895,0.0,0.0,0.382089012226848,1206,0.0,99,Assisted_Takeoff,
0.335871462355048,36.90720234087,13100,2018-04-04 04:41:19,1642.9150427732895,-0.2000000064,0.0,0.388187012421984,1643.1150427796895,0.0,0.0,0.388187012421984,1244,0.0,99,Assisted_Takeoff,
0.335871546362403,36.9072024097021,13200,2018-04-04 04:41:19,1642.9150427732895,-0.2000000064,0.0,0.39724901271196805,1643.1150427796895,0.0,0.0,0.39724901271196805,1235,0.0,99,Assisted_Takeoff,
0.335871666329058,36.9072024910491,13300,2018-04-04 04:41:19,1642.9150427732895,-0.2000000064,0.35999970196000003,0.41046001313472,1643.1150427796895,0.0,0.35999970196000003,0.41046001313472,1226,0.0,99,P-GPS,
0.335871829393297,36.9072025534259,13400,2018-04-04 04:41:19,1643.0150427764897,-0.1000000032,0.35999970196000003,0.42863001371616005,1643.1150427796895,0.0,0.35999970196000003,0.42863001371616005,1233,0.0,99,P-GPS,
0.335872010697738,36.9072026123585,13500,2018-04-04 04:41:19,1643.0150427764897,-0.1000000032,0.35999970196000003,0.44892201436550405,1643.1150427796895,0.0,0.35999970196000003,0.44892201436550405,1245,0.0,99,P-GPS,
0.335872168839192,36.9072026644078,13600,2018-04-04 04:41:19,1643.1150427796895,0.0,0.35999970196000003,0.466691014934112,1643.1150427796895,0.0,0.35999970196000003,0.466691014934112,1245,0.0,99,P-GPS,
0.335872314582487,36.9072027143162,13700,2018-04-04 04:41:19,1643.1150427796895,0.0,0.35999970196000003,0.48312601546003203,1643.1150427796895,0.0,0.35999970196000003,0.48312601546003203,1246,0.0,99,P-GPS,
0.335872464005251,36.9072027505983,13800,2018-04-04 04:41:19,1643.1150427796895,0.0,0.35999970196000003,0.499931015997792,1643.1150427796895,0.0,0.35999970196000003,0.499931015997792,1257,0.0,99,P-GPS,
0.335872606616234,36.9072027750881,13900,2018-04-04 04:41:19,1643.2150427828894,0.1000000032,0.0,0.5159200165094401,1643.2150427828894,0.1000000032,0.35999970196000003,0.5159200165094401,1290,0.0,99,P-GPS,
0.335872726243359,36.9072027583062,14000,2018-04-04 04:41:20,1643.3150427860894,0.2000000064,0.0,0.529097016931104,1643.3150427860894,0.2000000064,0.35999970196000003,0.529097016931104,1270,0.0,99,P-GPS,
0.335872824413291,36.9072027315716,14100,2018-04-04 04:41:20,1643.4150427892896,0.3000000096,0.0,0.539849017275168,1643.4150427892896,0.3000000096,0.35999970196000003,0.539849017275168,1255,0.0,99,P-GPS,Home Point Recorded. RTH Altitude:  30m.
0.335872866615231,36.9072027061916,14200,2018-04-04 04:41:20,1643.5150427924896,0.4000000128,0.0,0.5444120174211841,1643.5150427924896,0.4000000128,0.35999970196000003,0.5444120174211841,1268,0.0,99,P-GPS,
0.335872893734523,36.9072026897654,14300,2018-04-04 04:41:20,1643.6150427956895,0.500000016,0.0,0.5473520175152641,1643.6150427956895,0.500000016,0.35999970196000003,0.5473520175152641,1269,0.0,99,P-GPS,
0.335872920014352,36.9072026528412,14400,2018-04-04 04:41:20,1643.7150427988895,0.6000000192,0.0,0.550132017604224,1643.7150427988895,0.6000000192,0.35999970196000003,0.550132017604224,1255,0.0,99,P-GPS,
0.335872962244791,36.9072026189955,14500,2018-04-04 04:41:20,1643.8150428020897,0.7000000224,0.0,0.5547250177512,1643.8150428020897,0.7000000224,0.35999970196000003,0.5547250177512,1255,0.0,99,P-GPS,
0.335872991130944,36.9072025675074,14600,2018-04-04 04:41:20,1643.9150428052894,0.8000000256,0.0,0.557832017850624,1643.9150428052894,0.8000000256,0.35999970196000003,0.557832017850624,1258,0.0,99,P-GPS,Obstacle Avoided. Revise Flight Route
0.335873016339258,36.9072025255537,14700,2018-04-04 04:41:20,1644.1150428116894,1.000000032,0.0,0.560593017938976,1644.1150428116894,1.000000032,0.35999970196000003,0.560593017938976,1259,-0.1,99,P-GPS,
0.335873029433576,36.9072025456966,14800,2018-04-04 04:41:20,1644.2150428148896,1.1000000352000001,0.0,0.5620650179860801,1644.2150428148896,1.1000000352000001,0.35999970196000003,0.5620650179860801,1271,-0.3,99,P-GPS,
0.335873040901893,36.9072025926768,14900,2018-04-04 04:41:20,1644.3150428180895,1.2000000384,0.0,0.563409018029088,1644.3150428180895,1.2000000384,0.35999970196000003,0.563409018029088,1276,-0.5,99,P-GPS,
0.335873055688978,36.9072026476072,15000,2018-04-04 04:41:20,1644.4150428212895,1.3000000416000002,0.0,0.5651960180862721,1644.4150428212895,1.3000000416000002,0.35999970196000003,0.5651960180862721,1276,-0.7,99,P-GPS,
0.335873071696583,36.9072026844278,15100,2018-04-04 04:41:21,1644.5150428244897,1.4000000448,0.0,0.567107018147424,1644.5150428244897,1.4000000448,0.35999970196000003,0.567107018147424,1268,-1.1,99,P-GPS,
0.335873080000019,36.9072026906074,15200,2018-04-04 04:41:21,1644.6150428276896,1.5000000480000002,0.0,0.56805501817776,1644.6150428276896,1.5000000480000002,0.35999970196000003,0.56805501817776,1267,-1.1,99,P-GPS,
0.335873088764304,36.9072026835769,15300,2018-04-04 04:41:21,1644.7150428308896,1.6000000512,0.0,0.5690010182080321,1644.7150428308896,1.6000000512,0.35999970196000003,0.5690010182080321,1274,-1.4,99,P-GPS,
0.335873123387466,36.9072026732599,15400,2018-04-04 04:41:21,1644.9150428372895,1.8000000576000001,0.0,0.5728090183298881,1644.9150428372895,1.8000000576000001,0.35999970196000003,0.5728090183298881,1271,-1.9,99,P-GPS,
0.335873175955267,36.907202669747,15500,2018-04-04 04:41:21,1645.0150428404895,1.9000000608000003,0.0,0.5786390185164481,1645.0150428404895,1.9000000608000003,0.35999970196000003,0.5786390185164481,1271,-2.5,99,P-GPS,
0.335873254400671,36.9072026822604,15600,2018-04-04 04:41:21,1645.1150428436895,2.000000064,0.0,0.587404018796928,1645.1150428436895,2.000000064,0.35999970196000003,0.587404018796928,1276,-3.0,99,P-GPS,
0.335873336899273,36.9072027035801,15700,2018-04-04 04:41:21,1645.2150428468894,2.1000000672000003,0.0,0.596658019093056,1645.2150428468894,2.1000000672000003,0.35999970196000003,0.596658019093056,1274,-4.4,99,P-GPS,
0.3358735119855,36.9072027903554,15900,2018-04-04 04:41:21,1645.5150428564896,2.4000000768,0.0,0.616542019729344,1645.5150428564896,2.4000000768,0.35999970196000003,0.616542019729344,1274,-5.2,99,P-GPS,
0.335873572632826,36.9072028025601,16000,2018-04-04 04:41:22,1645.6150428596893,2.50000008,0.0,0.6233490199471681,1645.6150428596893,2.50000008,0.35999970196000003,0.6233490199471681,1271,-6.8,99,P-GPS,
0.335873623649533,36.9072028022505,16100,2018-04-04 04:41:22,1645.7150428628897,2.6000000832000003,0.0,0.629012020128384,1645.7150428628897,2.6000000832000003,0.35999970196000003,0.629012020128384,1266,-9.3,99,P-GPS,
0.335873663984463,36.9072028231989,16200,2018-04-04 04:41:22,1645.8150428660895,2.7000000864,0.0,0.6336180202757761,1645.8150428660895,2.7000000864,0.35999970196000003,0.6336180202757761,1266,-11.8,99,P-GPS,
0.33587371314393,36.9072028600613,16300,2018-04-04 04:41:22,1645.9150428692894,2.8000000896,0.0,0.6393190204582081,1645.9150428692894,2.8000000896,0.35999970196000003,0.6393190204582081,1269,-14.2,99,P-GPS,
0.335873774036336,36.9072028878194,16400,2018-04-04 04:41:22,1646.1150428756896,3.0000000960000004,0.0,0.6462750206808001,1646.1150428756896,3.0000000960000004,0.35999970196000003,0.6462750206808001,1270,-16.7,99,P-GPS,
0.335873848471697,36.9072029167555,16500,2018-04-04 04:41:22,1646.2150428788896,3.1000000992000003,0.0,0.6547540209521281,1646.2150428788896,3.1000000992000003,0.35999970196000003,0.6547540209521281,1266,-16.7,99,P-GPS,
0.335873913417301,36.9072029384494,16600,2018-04-04 04:41:22,1646.3150428820895,3.2000001024,0.0,0.662131021188192,1646.3150428820895,3.2000001024,0.35999970196000003,0.662131021188192,1266,-19.2,99,P-GPS,
0.335873977161927,36.9072029661214,16700,2018-04-04 04:41:22,1646.4150428852895,3.3000001056,0.0,0.669431021421792,1646.4150428852895,3.3000001056,0.35999970196000003,0.669431021421792,1260,-21.6,99,P-GPS,
0.335874028247029,36.907203006145,16800,2018-04-04 04:41:22,1646.5150428884897,3.4000001088000005,0.0,0.6754510216144319,1646.5150428884897,3.4000001088000005,0.35999970196000003,0.6754510216144319,1255,-24.1,99,P-GPS,
0.335874083803025,36.9072030627303,16900,2018-04-04 04:41:22,1646.6150428916894,3.500000112,0.0,0.682154021828928,1646.6150428916894,3.500000112,0.35999970196000003,0.682154021828928,1255,-25.9,99,P-GPS,
0.33587416336717,36.9072031278478,17000,2018-04-04 04:41:22,1646.7150428948894,3.6000001152000003,0.0,0.691657022133024,1646.7150428948894,3.6000001152000003,0.35999970196000003,0.691657022133024,1249,-26.5,99,P-GPS,
0.335874255005413,36.9072032015105,17100,2018-04-04 04:41:23,1646.9150429012896,3.8000001216000006,0.0,0.702657022485024,1646.9150429012896,3.8000001216000006,0.35999970196000003,0.702657022485024,1250,-26.5,99,P-GPS,
0.335874308393135,36.9072032753886,17200,2018-04-04 04:41:23,1647.0150429044895,3.9000001248,0.0,0.709507022704224,1647.0150429044895,3.9000001248,0.35999970196000003,0.709507022704224,1252,-26.5,99,P-GPS,
0.335874349035026,36.907203346757,17300,2018-04-04 04:41:23,1647.1150429076895,4.000000128,0.0,0.7149930228797761,1647.1150429076895,4.000000128,0.35999970196000003,0.7149930228797761,1255,-26.5,99,P-GPS,
0.335874421351782,36.9072034275965,17400,2018-04-04 04:41:23,1647.2150429108897,4.100000131200001,0.0,0.724189023174048,1647.2150429108897,4.100000131200001,0.35999970196000003,0.724189023174048,1256,-26.5,99,P-GPS,
0.335874511811031,36.9072035053907,17500,2018-04-04 04:41:23,1647.3150429140896,4.200000134400001,0.0,0.7354110235331521,1647.3150429140896,4.200000134400001,0.35999970196000003,0.7354110235331521,1257,-26.5,99,P-GPS,
0.335874566729491,36.9072035414991,17600,2018-04-04 04:41:23,1647.4150429172896,4.3000001376,0.0,0.7420630237460161,1647.4150429172896,4.3000001376,0.35999970196000003,0.7420630237460161,1259,-26.5,99,P-GPS,
0.33587460960235,36.9072035645998,17700,2018-04-04 04:41:23,1647.5150429204893,4.4000001408000005,0.0,0.7471750239096,1647.5150429204893,4.4000001408000005,0.35999970196000003,0.7471750239096,1263,-26.5,99,P-GPS,
0.335874641933477,36.9072035778765,17800,2018-04-04 04:41:23,1647.6150429236895,4.500000144,0.0,0.75096002403072,1647.6150429236895,4.500000144,0.35999970196000003,0.75096002403072,1261,-26.5,99,P-GPS,
0.335874679678367,36.9072036004245,17900,2018-04-04 04:41:24,1647.7150429268895,4.6000001472,0.0,0.7555050241761601,1647.7150429268895,4.6000001472,0.35999970196000003,0.7555050241761601,1257,-26.5,99,P-GPS,
0.335874701978279,36.9072036181298,18000,2018-04-04 04:41:24,1647.8150429300895,4.7000001504,0.0,0.7582720242647041,1647.8150429300895,4.7000001504,0.35999970196000003,0.7582720242647041,1271,-26.5,99,P-GPS,
0.335874729479441,36.9072036412803,18100,2018-04-04 04:41:24,1647.9150429332894,4.8000001536,0.0,0.761714024374848,1647.9150429332894,4.8000001536,0.35999970196000003,0.761714024374848,1286,-26.5,99,P-GPS,
0.335874750745291,36.9072036658552,18200,2018-04-04 04:41:24,1648.1150429396896,5.00000016,0.0,0.764504024464128,1648.1150429396896,5.00000016,0.35999970196000003,0.764504024464128,1275,-26.5,99,P-GPS,
0.335874779384736,36.9072036882814,18300,2018-04-04 04:41:24,1648.2150429428896,5.1000001632,0.0,0.768067024578144,1648.2150429428896,5.1000001632,0.35999970196000003,0.768067024578144,1253,-26.5,99,P-GPS,
0.335874797568756,36.9072036883317,18400,2018-04-04 04:41:24,1648.3150429460893,5.200000166400001,0.0,0.77006002464192,1648.3150429460893,5.200000166400001,0.35999970196000003,0.77006002464192,1257,-26.5,99,P-GPS,
0.335874823335625,36.9072036870411,18500,2018-04-04 04:41:24,1648.4150429492895,5.3000001696000005,0.0,0.772859024731488,1648.4150429492895,5.3000001696000005,0.35999970196000003,0.772859024731488,1271,-26.5,99,P-GPS,
0.335874852434291,36.9072036836836,18600,2018-04-04 04:41:24,1648.5150429524895,5.4000001728,0.0,0.7759850248315201,1648.5150429524895,5.4000001728,0.35999970196000003,0.7759850248315201,1274,-26.5,99,P-GPS,
0.335874894548295,36.9072036916466,18700,2018-04-04 04:41:24,1648.6150429556894,5.5000001759999995,0.0,0.780750024984,1648.6150429556894,5.5000001759999995,0.35999970196000003,0.780750024984,1274,-26.5,99,P-GPS,
0.335874914685634,36.9072036913931,18800,2018-04-04 04:41:24,1648.8150429620896,5.7000001824,0.0,0.782952025054464,1648.8150429620896,5.7000001824,0.35999970196000003,0.782952025054464,1277,-26.5,99,P-GPS,
0.335874938300514,36.9072036937308,18900,2018-04-04 04:41:24,1648.9150429652896,5.8000001856,0.0,0.78558502513872,1648.9150429652896,5.8000001856,0.35999970196000003,0.78558502513872,1270,-26.5,99,P-GPS,
0.335874941194259,36.9072037105076,19000,2018-04-04 04:41:24,1649.0150429684895,5.9000001888,0.0,0.7862190251590081,1649.0150429684895,5.9000001888,0.35999970196000003,0.7862190251590081,1275,-26.5,99,P-GPS,
0.335874954593096,36.9072037393666,19100,2018-04-04 04:41:25,1649.1150429716897,6.000000192000001,0.0,0.788241025223712,1649.1150429716897,6.000000192000001,0.35999970196000003,0.788241025223712,1277,-26.5,99,P-GPS,
0.335874972742919,36.9072037686809,19200,2018-04-04 04:41:25,1649.2150429748897,6.100000195200001,0.0,0.790803025305696,1649.2150429748897,6.100000195200001,0.35999970196000003,0.790803025305696,1286,-26.5,99,P-GPS,
0.335875013439363,36.9072037990931,19300,2018-04-04 04:41:25,1649.4150429812894,6.3000002016,0.0,0.795862025467584,1649.4150429812894,6.3000002016,0.35999970196000003,0.795862025467584,1312,-26.5,99,P-GPS,
0.335875058500037,36.9072038188933,19400,2018-04-04 04:41:25,1649.5150429844896,6.4000002048,0.0,0.8011910256381121,1649.5150429844896,6.4000002048,0.35999970196000003,0.8011910256381121,1315,-26.5,99,P-GPS,
0.335875108526651,36.9072038428104,19500,2018-04-04 04:41:25,1649.6150429876895,6.500000208,0.0,0.807148025828736,1649.6150429876895,6.500000208,0.35999970196000003,0.807148025828736,1314,-26.5,99,P-GPS,
0.335875151086034,36.9072038525808,19600,2018-04-04 04:41:25,1649.8150429940895,6.7000002144,0.0,0.8120000259840001,1649.8150429940895,6.7000002144,0.35999970196000003,0.8120000259840001,1322,-26.5,99,P-GPS,
0.335875190104367,36.9072038748215,19700,2018-04-04 04:41:25,1649.9150429972897,6.800000217600001,0.0,0.8167230261351361,1649.9150429972897,6.800000217600001,0.35999970196000003,0.8167230261351361,1322,-26.5,99,P-GPS,
0.335875198454213,36.9072038848366,19800,2018-04-04 04:41:25,1650.1150430036894,7.000000224,0.0,0.817844026171008,1650.1150430036894,7.000000224,0.35999970196000003,0.817844026171008,1292,-26.5,99,P-GPS,
0.335875204049547,36.9072039021257,19900,2018-04-04 04:41:25,1650.2150430068893,7.1000002272,0.0,0.818819026202208,1650.2150430068893,7.1000002272,0.35999970196000003,0.818819026202208,1291,-26.5,99,P-GPS,
0.335875193813962,36.907203924762,20000,2018-04-04 04:41:26,1650.4150430132895,7.3000002336000005,0.0,0.81818502618192,1650.4150430132895,7.3000002336000005,0.35999970196000003,0.818819026202208,1301,-26.5,99,P-GPS,
0.335875186925644,36.9072039716397,20100,2018-04-04 04:41:26,1650.5150430164895,7.4000002368,0.0,0.818458026190656,1650.5150430164895,7.4000002368,0.35999970196000003,0.818819026202208,1300,-26.5,99,P-GPS,
0.335875180594254,36.9072040261558,20200,2018-04-04 04:41:26,1650.7150430228896,7.600000243200001,0.0,0.8190020262080641,1650.7150430228896,7.600000243200001,0.35999970196000003,0.8190020262080641,1315,-26.5,99,P-GPS,
0.335875193082791,36.9072040854101,20300,2018-04-04 04:41:26,1650.8150430260896,7.7000002464,0.0,0.8217470262959041,1650.8150430260896,7.7000002464,0.35999970196000003,0.8217470262959041,1308,-26.5,99,P-GPS,
0.335875201488005,36.9072041196235,20400,2018-04-04 04:41:26,1651.0150430324893,7.9000002528,0.0,0.8234830263514561,1651.0150430324893,7.9000002528,0.35999970196000003,0.8234830263514561,1312,-26.5,99,P-GPS,
0.335875213079269,36.9072041506087,20500,2018-04-04 04:41:26,1651.1150430356895,8.000000256,0.0,0.8255000264160001,1651.1150430356895,8.000000256,0.35999970196000003,0.8255000264160001,1320,-26.5,99,P-GPS,
0.335875219255957,36.9072041489707,20600,2018-04-04 04:41:26,1651.2150430388895,8.1000002592,0.0,0.826129026436128,1651.2150430388895,8.1000002592,0.35999970196000003,0.826129026436128,1330,-26.5,99,P-GPS,
0.335875237019838,36.9072041576759,20800,2018-04-04 04:41:26,1651.6150430516896,8.500000272,0.0,0.8282700265046401,1651.6150430516896,8.500000272,0.35999970196000003,0.8282700265046401,1323,-26.5,99,P-GPS,
0.335875253133292,36.9072041745587,20900,2018-04-04 04:41:26,1651.7150430548895,8.6000002752,0.0,0.830436026573952,1651.7150430548895,8.6000002752,0.35999970196000003,0.830436026573952,1312,-26.5,99,P-GPS,
0.33587528421296,36.9072041674793,21000,2018-04-04 04:41:26,1651.9150430612897,8.800000281600001,0.0,0.833629026676128,1651.9150430612897,8.800000281600001,0.35999970196000003,0.833629026676128,1319,-26.5,99,P-GPS,
0.335875328226544,36.9072041656812,21100,2018-04-04 04:41:27,1652.0150430644894,8.9000002848,0.0,0.838358026827456,1652.0150430644894,8.9000002848,0.35999970196000003,0.838358026827456,1304,-26.5,99,P-GPS,
0.335875356877388,36.9072041515447,21200,2018-04-04 04:41:27,1652.2150430708896,9.1000002912,0.0,0.8411220269159041,1652.2150430708896,9.1000002912,0.35999970196000003,0.8411220269159041,1279,-26.5,99,P-GPS,
0.335875379584411,36.9072041519264,21300,2018-04-04 04:41:27,1652.4150430772895,9.3000002976,0.0,0.8435950269950401,1652.4150430772895,9.3000002976,0.35999970196000003,0.8435950269950401,1289,-26.5,99,P-GPS,
0.335875410011887,36.907204138814,21400,2018-04-04 04:41:27,1652.5150430804895,9.4000003008,0.0,0.846584027090688,1652.5150430804895,9.4000003008,0.35999970196000003,0.846584027090688,1296,-26.5,99,P-GPS,
0.335875451236761,36.9072041390485,21500,2018-04-04 04:41:27,1652.6150430836897,9.500000304,0.0,0.8510670272341441,1652.6150430836897,9.500000304,0.35999970196000003,0.8510670272341441,1303,-26.5,99,P-GPS,
0.335875495896837,36.9072041311966,21600,2018-04-04 04:41:27,1652.8150430900894,9.7000003104,0.0,0.855734027383488,1652.8150430900894,9.7000003104,0.35999970196000003,0.855734027383488,1302,-26.5,99,P-GPS,
0.335875543310613,36.9072041304386,21700,2018-04-04 04:41:27,1652.9150430932893,9.8000003136,0.0,0.86087002754784,1652.9150430932893,9.8000003136,0.35999970196000003,0.86087002754784,1299,-26.5,99,P-GPS,
0.335875571749759,36.9072041440935,21800,2018-04-04 04:41:27,1653.1150430996895,10.00000032,0.0,0.864282027657024,1653.1150430996895,10.00000032,0.35999970196000003,0.864282027657024,1296,-26.5,99,P-GPS,
0.335875596933645,36.9072041765744,21900,2018-04-04 04:41:27,1653.2150431028895,10.100000323200002,0.0,0.867787027769184,1653.2150431028895,10.100000323200002,0.35999970196000003,0.867787027769184,1297,-26.5,99,P-GPS,
0.335875647431694,36.9072041837665,22000,2018-04-04 04:41:28,1653.4150431092896,10.3000003296,0.0,0.873444027950208,1653.4150431092896,10.3000003296,0.35999970196000003,0.873444027950208,1300,-26.5,99,P-GPS,
0.335875711173877,36.9072041893656,22100,2018-04-04 04:41:28,1653.5150431124896,10.400000332800001,0.0,0.880502028176064,1653.5150431124896,10.400000332800001,0.35999970196000003,0.880502028176064,1298,-26.5,99,P-GPS,
0.335875757576389,36.9072041880308,22200,2018-04-04 04:41:28,1653.6150431156896,10.500000336,0.0,0.8855130283364161,1653.6150431156896,10.500000336,0.35999970196000003,0.8855130283364161,1299,-26.5,99,P-GPS,
0.335875791374744,36.9072042032418,22300,2018-04-04 04:41:28,1653.8150431220895,10.700000342400001,0.0,0.88954502846544,1653.8150431220895,10.700000342400001,0.35999970196000003,0.88954502846544,1296,-26.5,99,P-GPS,
0.335875805900464,36.9072042262074,22400,2018-04-04 04:41:28,1653.9150431252895,10.8000003456,0.0,0.891669028533408,1653.9150431252895,10.8000003456,0.35999970196000003,0.891669028533408,1296,-26.5,99,P-GPS,
0.335875822462554,36.9072042718504,22500,2018-04-04 04:41:28,1654.1150431316896,11.000000351999999,0.0,0.894571028626272,1654.1150431316896,11.000000351999999,0.35999970196000003,0.894571028626272,1287,-26.4,99,P-GPS,
0.33587586389994,36.9072043018892,22600,2018-04-04 04:41:28,1654.2150431348896,11.1000003552,0.0,0.8998040287937281,1654.2150431348896,11.1000003552,0.35999970196000003,0.8998040287937281,1286,-25.9,99,P-GPS,
0.335875929852736,36.9072043333351,22700,2018-04-04 04:41:28,1654.4150431412895,11.3000003616,0.0,0.9077340290474881,1654.4150431412895,11.3000003616,0.35999970196000003,0.9077340290474881,1284,-24.9,99,P-GPS,
0.335875973791412,36.9072043458664,22800,2018-04-04 04:41:28,1654.5150431444897,11.4000003648,0.0,0.912808029209856,1654.5150431444897,11.4000003648,0.35999970196000003,0.912808029209856,1282,-24.9,99,P-GPS,
0.335876002127966,36.9072043692219,22900,2018-04-04 04:41:28,1654.7150431508894,11.6000003712,0.0,0.916464029326848,1654.7150431508894,11.6000003712,0.35999970196000003,0.916464029326848,1276,-22.3,99,P-GPS,
0.335876029152808,36.9072043727308,23000,2018-04-04 04:41:28,1654.8150431540894,11.7000003744,0.0,0.91948002942336,1654.8150431540894,11.7000003744,0.35999970196000003,0.91948002942336,1253,-20.9,99,P-GPS,
0.335876065757787,36.9072043995329,23100,2018-04-04 04:41:29,1654.9150431572896,11.8000003776,0.0,0.924122029571904,1654.9150431572896,11.8000003776,0.35999970196000003,0.924122029571904,1245,-19.4,99,P-GPS,
0.335876114838274,36.9072044305832,23200,2018-04-04 04:41:29,1655.1150431636895,12.000000384000002,0.0,0.9302260297672321,1655.1150431636895,12.000000384000002,0.35999970196000003,0.9302260297672321,1242,-18.9,99,P-GPS,
0.335876181078491,36.907204485611,23300,2018-04-04 04:41:29,1655.2150431668895,12.1000003872,0.0,0.93881503004208,1655.2150431668895,12.1000003872,0.35999970196000003,0.93881503004208,1228,-18.9,99,P-GPS,
0.335876234068873,36.9072045322176,23400,2018-04-04 04:41:29,1655.3150431700897,12.200000390400001,0.0,0.9457680302645761,1655.3150431700897,12.200000390400001,0.35999970196000003,0.9457680302645761,1229,-18.9,99,P-GPS,
0.335876282203235,36.9072045942188,23500,2018-04-04 04:41:29,1655.5150431764894,12.400000396800001,0.0,0.952627030484064,1655.5150431764894,12.400000396800001,0.35999970196000003,0.952627030484064,1245,-18.9,99,P-GPS,
0.335876316991684,36.9072046490935,23600,2018-04-04 04:41:29,1655.6150431796893,12.500000400000001,0.0,0.957882030652224,1655.6150431796893,12.500000400000001,0.35999970196000003,0.957882030652224,1287,-18.9,99,P-GPS,
0.335876356586485,36.9072047126439,23700,2018-04-04 04:41:29,1655.7150431828895,12.6000004032,0.0,0.9639250308456,1655.7150431828895,12.6000004032,0.35999970196000003,0.9639250308456,1290,-18.9,99,P-GPS,
0.335876388697772,36.9072047612347,23800,2018-04-04 04:41:29,1655.8150431860895,12.700000406400001,0.0,0.9687660310005121,1655.8150431860895,12.700000406400001,0.35999970196000003,0.9687660310005121,1291,-18.9,99,P-GPS,
0.33587644002307,36.9072048154357,23900,2018-04-04 04:41:29,1655.9150431892895,12.8000004096,0.0,0.9758510312272319,1655.9150431892895,12.8000004096,0.35999970196000003,0.9758510312272319,1290,-18.9,99,P-GPS,
0.33587649971857,36.9072048491337,24000,2018-04-04 04:41:29,1656.1150431956896,13.000000416,0.0,0.98324503146384,1656.1150431956896,13.000000416,0.35999970196000003,0.98324503146384,1285,-18.9,99,P-GPS,
0.335876568313517,36.907204886135,24100,2018-04-04 04:41:30,1656.2150431988896,13.100000419200002,0.0,0.9916930317341761,1656.2150431988896,13.100000419200002,0.35999970196000003,0.9916930317341761,1276,-18.9,99,P-GPS,
0.335876645298207,36.9072049063183,24200,2018-04-04 04:41:30,1656.3150432020893,13.2000004224,0.0,1.0005400320172801,1656.3150432020893,13.2000004224,0.35999970196000003,1.0005400320172801,1274,-18.9,99,P-GPS,
0.335876729229839,36.907204929624,24300,2018-04-04 04:41:30,1656.4150432052897,13.3000004256,0.0,1.01023003232736,1656.4150432052897,13.3000004256,0.35999970196000003,1.01023003232736,1292,-18.9,99,P-GPS,
0.335876821885045,36.9072049235967,24400,2018-04-04 04:41:30,1656.6150432116895,13.500000432,0.0,1.01999003263968,1656.6150432116895,13.500000432,0.35999970196000003,1.01999003263968,1288,-18.9,99,P-GPS,
0.335876904269656,36.9072049199939,24500,2018-04-04 04:41:30,1656.7150432148894,13.600000435200002,0.0,1.02872003291904,1656.7150432148894,13.600000435200002,0.35999970196000003,1.02872003291904,1283,-18.9,99,P-GPS,
0.335876973817242,36.9072049138265,24600,2018-04-04 04:41:30,1656.8150432180896,13.7000004384,0.0,1.03601003315232,1656.8150432180896,13.7000004384,0.35999970196000003,1.03601003315232,1279,-19.0,99,P-GPS,
0.335877037277704,36.9072049241316,24700,2018-04-04 04:41:30,1657.0150432244895,13.9000004448,0.0,1.04312003337984,1657.0150432244895,13.9000004448,0.35999970196000003,1.04312003337984,1277,-19.1,99,P-GPS,
0.335877093161017,36.9072049061447,24800,2018-04-04 04:41:30,1657.1150432276895,14.000000448,0.0,1.0486200335558402,1657.1150432276895,14.000000448,0.35999970196000003,1.0486200335558402,1277,-19.3,99,P-GPS,
0.335877149659882,36.9072048766491,24900,2018-04-04 04:41:30,1657.3150432340894,14.2000004544,0.0,1.05387003372384,1657.3150432340894,14.2000004544,0.35999970196000003,1.05387003372384,1274,-19.5,99,P-GPS,
0.335877203212891,36.9072048375646,25000,2018-04-04 04:41:31,1657.4150432372894,14.300000457600001,0.0,1.05856003387392,1657.4150432372894,14.300000457600001,0.35999970196000003,1.05856003387392,1269,-20.0,99,P-GPS,
0.335877265992664,36.9072048257705,25100,2018-04-04 04:41:31,1657.5150432404894,14.400000460800001,0.0,1.06501003408032,1657.5150432404894,14.400000460800001,0.35999970196000003,1.06501003408032,1268,-20.8,99,P-GPS,
0.335877320029321,36.9072047873743,25200,2018-04-04 04:41:31,1657.7150432468895,14.600000467200001,0.0,1.06982003423424,1657.7150432468895,14.600000467200001,0.35999970196000003,1.06982003423424,1269,-20.8,99,P-GPS,
0.335877376049423,36.9072047532454,25300,2018-04-04 04:41:31,1657.8150432500895,14.7000004704,0.0,1.07498003439936,1657.8150432500895,14.7000004704,0.35999970196000003,1.07498003439936,1270,-21.8,99,P-GPS,
0.3358774426137,36.9072047069202,25400,2018-04-04 04:41:31,1657.9150432532897,14.8000004736,0.0,1.0810000345920001,1657.9150432532897,14.8000004736,0.35999970196000003,1.0810000345920001,1268,-23.3,99,P-GPS,
0.335877526260354,36.9072046796063,25500,2018-04-04 04:41:31,1658.1150432596896,15.00000048,0.0,1.08938003486016,1658.1150432596896,15.00000048,0.35999970196000003,1.08938003486016,1266,-24.8,99,P-GPS,
0.335877607698838,36.9072046056412,25600,2018-04-04 04:41:31,1658.2150432628894,15.1000004832,0.0,1.09643003508576,1658.2150432628894,15.1000004832,0.35999970196000003,1.09643003508576,1267,-26.3,99,P-GPS,
0.335877683032286,36.907204526656,25700,2018-04-04 04:41:31,1658.3150432660896,15.200000486400002,0.0,1.10279003528928,1658.3150432660896,15.200000486400002,0.35999970196000003,1.10279003528928,1267,-27.8,99,P-GPS,
0.335877733214416,36.9072044329923,25800,2018-04-04 04:41:31,1658.5150432724895,15.4000004928,0.0,1.10618003539776,1658.5150432724895,15.4000004928,0.35999970196000003,1.10618003539776,1262,-29.2,99,P-GPS,
0.335877769575942,36.9072043696381,25900,2018-04-04 04:41:31,1658.6150432756895,15.500000496,0.0,1.1088100354819201,1658.6150432756895,15.500000496,0.35999970196000003,1.1088100354819201,1262,-30.2,99,P-GPS,
0.335877806836369,36.9072042953373,26000,2018-04-04 04:41:31,1658.7150432788897,15.6000004992,0.0,1.11136003556352,1658.7150432788897,15.6000004992,0.35999970196000003,1.11136003556352,1262,-30.3,99,P-GPS,
0.335877843008996,36.9072042461845,26100,2018-04-04 04:41:32,1658.8150432820896,15.700000502400002,0.0,1.11436003565952,1658.8150432820896,15.700000502400002,0.35999970196000003,1.11436003565952,1261,-30.3,99,P-GPS,
0.335877844850766,36.9072041810338,26200,2018-04-04 04:41:32,1658.9150432852896,15.8000005056,0.0,1.11332003562624,1658.9150432852896,15.8000005056,0.35999970196000003,1.11436003565952,1265,-30.3,99,P-GPS,
0.335877826040609,36.9072041243016,26300,2018-04-04 04:41:32,1659.1150432916895,16.000000512,0.0,1.11022003552704,1659.1150432916895,16.000000512,0.35999970196000003,1.11436003565952,1271,-30.3,99,P-GPS,
0.335877796985912,36.9072040292408,26400,2018-04-04 04:41:32,1659.2150432948895,16.1000005152,0.0,1.1053500353712,1659.2150432948895,16.1000005152,0.35999970196000003,1.11436003565952,1269,-30.7,99,P-GPS,
0.33587779521905,36.9072039379852,26500,2018-04-04 04:41:32,1659.3150432980894,16.2000005184,0.0,1.1036500353168002,1659.3150432980894,16.2000005184,0.35999970196000003,1.11436003565952,1269,-31.4,99,P-GPS,
0.335877824615721,36.9072038143863,26600,2018-04-04 04:41:32,1659.4150433012894,16.3000005216,0.0,1.1049800353593602,1659.4150433012894,16.3000005216,0.35999970196000003,1.11436003565952,1267,-31.4,99,P-GPS,
0.335877876725929,36.9072037053542,26700,2018-04-04 04:41:32,1659.5150433044896,16.400000524800003,0.0,1.1092000354944,1659.5150433044896,16.400000524800003,0.35999970196000003,1.11436003565952,1268,-32.2,99,P-GPS,
0.335877912243921,36.9072035675247,26800,2018-04-04 04:41:32,1659.6150433076896,16.500000528,0.0,1.11138003556416,1659.6150433076896,16.500000528,0.35999970196000003,1.11436003565952,1268,-33.1,99,P-GPS,
0.335877927308656,36.9072034428175,26900,2018-04-04 04:41:32,1659.8150433140895,16.7000005344,0.0,1.1116500355728,1659.8150433140895,16.7000005344,0.35999970196000003,1.11436003565952,1267,-34.1,99,P-GPS,
0.335877936206474,36.9072032921738,27000,2018-04-04 04:41:33,1659.9150433172897,16.800000537600003,0.0,1.1111900355580802,1659.9150433172897,16.800000537600003,0.35999970196000003,1.11436003565952,1268,-35.1,99,P-GPS,
0.335877952096831,36.9072031677478,27100,2018-04-04 04:41:33,1660.0150433204894,16.9000005408,0.0,1.11194003558208,1660.0150433204894,16.9000005408,0.35999970196000003,1.11436003565952,1268,-36.0,99,P-GPS,
0.335877968723244,36.9072030211443,27200,2018-04-04 04:41:33,1660.1150433236894,17.000000544,0.0,1.11282003561024,1660.1150433236894,17.000000544,0.35999970196000003,1.11436003565952,1261,-36.9,99,P-GPS,
0.335877982275155,36.9072028982965,27300,2018-04-04 04:41:33,1660.2150433268896,17.1000005472,0.0,1.1137000356384001,1660.2150433268896,17.1000005472,0.35999970196000003,1.11436003565952,1260,-37.5,99,P-GPS,
0.335878010764783,36.9072027585565,27400,2018-04-04 04:41:33,1660.4150433332895,17.3000005536,0.0,1.1163600357235202,1660.4150433332895,17.3000005536,0.35999970196000003,1.1163600357235202,1260,-37.5,99,P-GPS,
0.335878047806998,36.9072026509906,27500,2018-04-04 04:41:33,1660.5150433364895,17.400000556800002,0.0,1.12024003584768,1660.5150433364895,17.400000556800002,0.35999970196000003,1.12024003584768,1260,-37.5,99,P-GPS,
0.335878077371399,36.9072025398577,27600,2018-04-04 04:41:33,1660.6150433396897,17.50000056,0.0,1.12341003594912,1660.6150433396897,17.50000056,0.35999970196000003,1.12341003594912,1260,-37.5,99,P-GPS,
0.335878096790594,36.9072024630868,27700,2018-04-04 04:41:33,1660.7150433428897,17.600000563200002,0.0,1.12557003601824,1660.7150433428897,17.600000563200002,0.35999970196000003,1.12557003601824,1304,-37.5,99,P-GPS,
0.335878166886966,36.9072022320291,27900,2018-04-04 04:41:33,1661.0150433524896,17.9000005728,0.0,1.13376003628032,1661.0150433524896,17.9000005728,0.35999970196000003,1.13376003628032,1306,-37.5,99,P-GPS,
0.335878195192579,36.9072021093108,28000,2018-04-04 04:41:33,1661.1150433556895,18.000000576,0.0,1.13734003639488,1661.1150433556895,18.000000576,0.35999970196000003,1.13734003639488,1305,-37.5,99,P-GPS,
0.335878214261658,36.9072020246828,28100,2018-04-04 04:41:34,1661.2150433588895,18.1000005792,0.0,1.13986003647552,1661.2150433588895,18.1000005792,0.35999970196000003,1.13986003647552,1311,-37.5,99,P-GPS,
0.33587821166429,36.9072019076233,28200,2018-04-04 04:41:34,1661.4150433652896,18.3000005856,0.0,1.140250036488,1661.4150433652896,18.3000005856,0.35999970196000003,1.140250036488,1329,-37.5,99,P-GPS,
0.33587820138718,36.9072018095168,28300,2018-04-04 04:41:34,1661.5150433684896,18.4000005888,0.0,1.1398000364736,1661.5150433684896,18.4000005888,0.35999970196000003,1.140250036488,1335,-37.5,99,P-GPS,
0.335878180868786,36.9072017083099,28400,2018-04-04 04:41:34,1661.7150433748893,18.6000005952,0.0,1.13834003642688,1661.7150433748893,18.6000005952,0.35999970196000003,1.140250036488,1345,-37.5,99,P-GPS,
0.335878173514733,36.9072016457715,28500,2018-04-04 04:41:34,1661.9150433812895,18.8000006016,0.0,1.1380800364185601,1661.9150433812895,18.8000006016,0.35999970196000003,1.140250036488,1345,-37.5,99,P-GPS,
0.335878192118077,36.9072015809569,28600,2018-04-04 04:41:34,1662.0150433844894,18.900000604800002,0.0,1.14077003650464,1662.0150433844894,18.900000604800002,0.35999970196000003,1.14077003650464,1381,-37.5,99,P-GPS,
0.335878227906391,36.9072015527183,28700,2018-04-04 04:41:34,1662.2150433908896,19.1000006112,0.0,1.14502003664064,1662.2150433908896,19.1000006112,0.35999970196000003,1.14502003664064,1381,-37.5,99,P-GPS,
0.335878228676645,36.9072015178441,28800,2018-04-04 04:41:34,1662.3150433940896,19.2000006144,0.0,1.14547003665504,1662.3150433940896,19.2000006144,0.35999970196000003,1.14547003665504,1392,-37.5,99,P-GPS,
0.335878204031773,36.9072015015841,28900,2018-04-04 04:41:34,1662.5150434004897,19.4000006208,0.0,1.1429100365731202,1662.5150434004897,19.4000006208,0.35999970196000003,1.14547003665504,1387,-37.5,99,P-GPS,
0.335878159202338,36.907201463983,29000,2018-04-04 04:41:35,1662.7150434068894,19.6000006272,0.0,1.1383700364278402,1662.7150434068894,19.6000006272,0.35999970196000003,1.14547003665504,1383,-37.5,99,P-GPS,
0.33587811959858,36.9072014325336,29100,2018-04-04 04:41:35,1662.9150434132896,19.800000633600003,0.0,1.1343500362992,1662.9150434132896,19.800000633600003,0.35999970196000003,1.14547003665504,1416,-37.5,99,P-GPS,
0.335878082935792,36.9072013897706,29200,2018-04-04 04:41:35,1663.1150434196895,20.00000064,0.0,1.13081003618592,1663.1150434196895,20.00000064,0.35999970196000003,1.14547003665504,1419,-37.5,99,P-GPS,
0.335878053521208,36.9072013648225,29300,2018-04-04 04:41:35,1663.3150434260897,20.200000646400003,0.0,1.12786003609152,1663.3150434260897,20.200000646400003,0.35999970196000003,1.14547003665504,1405,-37.5,99,P-GPS,
0.33587803515236,36.9072012875588,29400,2018-04-04 04:41:35,1663.6150434356894,20.500000656,0.0,1.1268300360585601,1663.6150434356894,20.500000656,0.35999970196000003,1.14547003665504,1392,-37.5,99,P-GPS,
0.335878032001321,36.9072012184206,29500,2018-04-04 04:41:35,1663.8150434420895,20.7000006624,0.0,1.12743003607776,1663.8150434420895,20.7000006624,0.35999970196000003,1.14547003665504,1385,-37.5,99,P-GPS,
0.335878051987214,36.9072011240918,29600,2018-04-04 04:41:35,1664.1150434516896,21.000000672,0.0,1.13101003619232,1664.1150434516896,21.000000672,0.35999970196000003,1.14547003665504,1434,-37.5,99,P-GPS,
0.3358780755394,36.9072010704925,29700,2018-04-04 04:41:35,1664.3150434580896,21.200000678400002,0.0,1.13442003630144,1664.3150434580896,21.200000678400002,0.35999970196000003,1.14547003665504,1511,-37.5,99,P-GPS,
0.335878070618242,36.9072010149206,29800,2018-04-04 04:41:35,1664.5150434644895,21.400000684800002,0.0,1.13476003631232,1664.5150434644895,21.400000684800002,0.35999970196000003,1.14547003665504,1509,-37.5,99,P-GPS,
0.335878054058595,36.9072010080328,29900,2018-04-04 04:41:35,1664.8150434740896,21.7000006944,0.0,1.1330500362576001,1664.8150434740896,21.7000006944,0.35999970196000003,1.14547003665504,1496,-37.5,99,P-GPS,
0.335878048031724,36.9072009795495,30000,2018-04-04 04:41:35,1665.1150434836895,22.000000703999998,0.0,1.13286003625152,1665.1150434836895,22.000000703999998,0.35999970196000003,1.14547003665504,1513,-37.5,99,P-GPS,
0.335878055097542,36.9072009832753,30100,2018-04-04 04:41:36,1665.4150434932894,22.300000713600003,0.0,1.13358003627456,1665.4150434932894,22.300000713600003,0.35999970196000003,1.14547003665504,1513,-37.5,99,P-GPS,
0.335878060183173,36.9072009864443,30200,2018-04-04 04:41:36,1665.7150435028896,22.6000007232,0.0,1.13408003629056,1665.7150435028896,22.6000007232,0.35999970196000003,1.14547003665504,1460,-37.5,99,P-GPS,
0.335878073210725,36.9072010196136,30300,2018-04-04 04:41:36,1666.1150435156896,23.000000736000004,0.0,1.13497003631904,1666.1150435156896,23.000000736000004,0.35999970196000003,1.14547003665504,1427,-37.5,99,P-GPS,
