latitude,longitude,time_millisecond,datetime_utc,altitude_m,ascent_m,speed_kph,distance_m,max_altitude_m,max_ascent_m,max_speed_kph,max_distance_m,rc_throttle,gimbal_pitch_degrees,battery_percent,flycState,message
0.376744344856793,36.9245242643659,0,2018-04-02 06:26:51,1626.965628262896,0.0,0.0,0.0,1626.965628262896,0.0,0.0,0.0,364,0.0,98,Motors_Started,
0.37674434304438503,36.924524253209995,100,2018-04-02 06:26:51,1626.965628262896,0.0,0.0,0.00125684004021888,1626.965628262896,0.0,0.0,0.00125684004021888,364,0.0,98,Motors_Started,
0.37674434458072104,36.924524245520296,200,2018-04-02 06:26:51,1626.965628262896,0.0,0.0,0.00209593006706976,1626.965628262896,0.0,0.0,0.00209593006706976,364,0.0,98,Motors_Started,
0.376744343768178,36.9245242411682,300,2018-04-02 06:26:52,1626.965628262896,0.0,0.0,0.0025825100826403196,1626.965628262896,0.0,0.0,0.0025825100826403196,364,0.0,98,Motors_Started,Setting new Return-To-Home altitude to 45m (148 ft). Setting new Maximum Flight Altitude to 150m (492 ft)
0.37674434688043995,36.9245242392496,500,2018-04-02 06:26:52,1626.965628262896,0.0,0.0,0.0028020800896665604,1626.965628262896,0.0,0.0,0.0028020800896665604,364,0.0,98,Motors_Started,
0.376744350377065,36.924524242303,600,2018-04-02 06:26:52,1626.965628262896,0.0,0.0,0.00252911008093152,1626.965628262896,0.0,0.0,0.0028020800896665604,364,0.0,98,Motors_Started,
0.37674435089424896,36.9245242424652,700,2018-04-02 06:26:52,1626.965628262896,0.0,0.0,0.0025262900808412803,1626.965628262896,0.0,0.0,0.0028020800896665604,364,0.0,98,Motors_Started,
0.376744354724807,36.924524233491795,800,2018-04-02 06:26:52,1626.965628262896,0.0,0.0,0.0036044301153417605,1626.965628262896,0.0,0.0,0.0036044301153417605,364,0.0,98,Motors_Started,
0.376744355886753,36.9245242045459,900,2018-04-02 06:26:52,1626.965628262896,0.0,0.0,0.006764350216459201,1626.965628262896,0.0,0.0,0.006764350216459201,364,0.0,98,Motors_Started,
0.37674436034304104,36.9245241745727,1000,2018-04-02 06:26:52,1626.965628262896,0.0,0.0,0.010132800324249598,1626.965628262896,0.0,0.0,0.010132800324249598,364,0.0,98,Motors_Started,
0.376744361618214,36.924524156058396,1100,2018-04-02 06:26:52,1626.965628262896,0.0,0.0,0.012187600390003201,1626.965628262896,0.0,0.0,0.012187600390003201,364,0.0,98,Motors_Started,
0.376744360352201,36.9245241427077,1200,2018-04-02 06:26:53,1626.965628262896,0.0,0.0,0.013638100436419201,1626.965628262896,0.0,0.0,0.013638100436419201,364,0.0,98,Motors_Started,
0.37674436186019106,36.924524132421205,1300,2018-04-02 06:26:53,1626.965628262896,0.0,0.0,0.0147941004734112,1626.965628262896,0.0,0.0,0.0147941004734112,364,0.0,98,Motors_Started,
0.3767443638044,36.924524128781,1400,2018-04-02 06:26:53,1626.965628262896,0.0,0.0,0.015224100487171202,1626.965628262896,0.0,0.0,0.015224100487171202,364,0.0,98,Motors_Started,
0.376744366942666,36.924524123401206,1500,2018-04-02 06:26:53,1626.965628262896,0.0,0.0,0.015867000507744,1626.965628262896,0.0,0.0,0.015867000507744,364,0.0,98,Assisted_Takeoff,
0.376744366686695,36.9245241106281,1600,2018-04-02 06:26:53,1626.965628262896,0.0,0.0,0.0172677005525664,1626.965628262896,0.0,0.0,0.0172677005525664,686,0.0,98,Assisted_Takeoff,
0.376744367335477,36.9245240795961,1700,2018-04-02 06:26:53,1626.965628262896,0.0,0.0,0.020698600662355203,1626.965628262896,0.0,0.0,0.020698600662355203,989,0.0,98,Assisted_Takeoff,
0.37674436739496603,36.924524064267395,1800,2018-04-02 06:26:53,1626.965628262896,0.0,0.0,0.0223924007165568,1626.965628262896,0.0,0.0,0.0223924007165568,1024,0.0,98,Assisted_Takeoff,
0.37674436922376,36.9245240747424,1900,2018-04-02 06:26:53,1626.965628262896,0.0,0.0,0.021260200680326403,1626.965628262896,0.0,0.0,0.0223924007165568,1024,0.0,98,Assisted_Takeoff,
0.37674438296100804,36.9245240826345,2000,2018-04-02 06:26:53,1626.965628262896,0.0,0.0,0.020648700660758402,1626.965628262896,0.0,0.0,0.0223924007165568,1024,0.0,98,Assisted_Takeoff,
0.37674441297679295,36.924524061661,2100,2018-04-02 06:26:53,1626.965628262896,0.0,0.0,0.023780400760972802,1626.965628262896,0.0,0.0,0.023780400760972802,1024,0.0,98,Assisted_Takeoff,
0.37674444794294604,36.9245240428431,2200,2018-04-02 06:26:53,1626.965628262896,0.0,0.0,0.027170900869468804,1626.965628262896,0.0,0.0,0.027170900869468804,1024,0.0,98,Assisted_Takeoff,
0.3767444657177179,36.924524030503704,2300,2018-04-02 06:26:54,1626.965628262896,0.0,0.0,0.0292742009367744,1626.965628262896,0.0,0.0,0.0292742009367744,1024,0.0,98,Assisted_Takeoff,
0.3767444859888429,36.924524022974,2400,2018-04-02 06:26:54,1626.965628262896,0.0,0.0,0.0310951009950432,1626.965628262896,0.0,0.0,0.0310951009950432,1024,0.0,98,Assisted_Takeoff,
0.37674449614977396,36.9245240162553,2500,2018-04-02 06:26:54,1626.965628262896,0.0,0.0,0.032316001034112,1626.965628262896,0.0,0.0,0.032316001034112,1024,0.0,98,Assisted_Takeoff,
0.37674450537058396,36.9245240152071,2600,2018-04-02 06:26:54,1626.965628262896,0.0,0.0,0.032959501054704,1626.965628262896,0.0,0.0,0.032959501054704,1024,0.0,98,Assisted_Takeoff,
0.376744510237087,36.9245240113165,2700,2018-04-02 06:26:54,1626.965628262896,0.0,0.0,0.033617001075744,1626.965628262896,0.0,0.0,0.033617001075744,1024,0.0,98,Assisted_Takeoff,
0.37674451170339895,36.9245240015519,2800,2018-04-02 06:26:54,1626.965628262896,0.0,0.0,0.034618201107782395,1626.965628262896,0.0,0.0,0.034618201107782395,1024,0.0,98,Assisted_Takeoff,
0.376744512000793,36.924523970782104,2900,2018-04-02 06:26:54,1626.965628262896,0.0,0.0,0.037568101202179204,1626.965628262896,0.0,0.0,0.037568101202179204,1024,0.0,98,Assisted_Takeoff,
0.376744510619822,36.9245239412442,3000,2018-04-02 06:26:54,1626.965628262896,0.0,0.0,0.0403849012923168,1626.965628262896,0.0,0.0,0.0403849012923168,1024,0.0,98,Assisted_Takeoff,
0.37674450853917896,36.9245239219836,3100,2018-04-02 06:26:54,1626.965628262896,0.0,0.0,0.04220160135045121,1626.965628262896,0.0,0.0,0.04220160135045121,1024,0.0,98,Assisted_Takeoff,
0.376744505547779,36.92452390094,3200,2018-04-02 06:26:55,1626.965628262896,0.0,0.0,0.0441888014140416,1626.965628262896,0.0,0.0,0.0441888014140416,1024,0.0,98,Assisted_Takeoff,
0.376744500706567,36.9245238971329,3300,2018-04-02 06:26:55,1626.965628262896,0.0,0.0,0.0443632014196224,1626.965628262896,0.0,0.0,0.0443632014196224,1024,0.0,98,Assisted_Takeoff,
0.376744495651623,36.92452389475179,3400,2018-04-02 06:26:55,1626.965628262896,0.0,0.0,0.044391701420534405,1626.965628262896,0.0,0.0,0.044391701420534405,1024,0.0,98,Assisted_Takeoff,
0.3767444913209289,36.92452389032211,3500,2018-04-02 06:26:55,1626.965628262896,0.0,0.0,0.0446703014294496,1626.965628262896,0.0,0.0,0.0446703014294496,1024,0.0,98,Assisted_Takeoff,
0.376744487114149,36.9245238804397,3600,2018-04-02 06:26:55,1626.965628262896,0.0,0.0,0.045530701456982396,1626.965628262896,0.0,0.0,0.045530701456982396,1024,0.0,98,Assisted_Takeoff,
0.37674448365701296,36.924523849901206,3700,2018-04-02 06:26:55,1626.965628262896,0.0,0.0,0.048606001555392006,1626.965628262896,0.0,0.0,0.048606001555392006,1024,0.0,98,Assisted_Takeoff,
0.376744480207104,36.9245238226148,3800,2018-04-02 06:26:55,1626.965628262896,0.0,0.0,0.0513786016441152,1626.965628262896,0.0,0.0,0.0513786016441152,1024,0.0,98,Assisted_Takeoff,
0.3767444766486479,36.9245238047241,3900,2018-04-02 06:26:55,1626.965628262896,0.0,0.0,0.053173601701555204,1626.965628262896,0.0,0.0,0.053173601701555204,1024,0.0,98,Assisted_Takeoff,
0.376744474388419,36.924523794302104,4000,2018-04-02 06:26:55,1626.965628262896,0.0,0.0,0.054221301735081606,1626.965628262896,0.0,0.0,0.054221301735081606,1024,0.0,98,Assisted_Takeoff,
0.37674447116160603,36.9245237849454,4100,2018-04-02 06:26:55,1626.965628262896,0.0,0.0,0.055132501764240005,1626.965628262896,0.0,0.0,0.055132501764240005,1024,0.0,98,Assisted_Takeoff,
0.376744466895134,36.9245237728329,4200,2018-04-02 06:26:55,1626.965628262896,0.0,0.0,0.0563199018022368,1626.965628262896,0.0,0.0,0.0563199018022368,1024,0.0,98,Assisted_Takeoff,
0.37674446724504607,36.924523780829894,4300,2018-04-02 06:26:56,1626.965628262896,0.0,0.0,0.0554667017749344,1626.965628262896,0.0,0.0,0.0563199018022368,1024,0.0,98,Assisted_Takeoff,
0.37674446739984996,36.9245237753403,4400,2018-04-02 06:26:56,1626.965628262896,0.0,0.0,0.056062901794012805,1626.965628262896,0.0,0.0,0.0563199018022368,1024,0.0,98,Assisted_Takeoff,
0.376744465513806,36.9245237461347,4500,2018-04-02 06:26:56,1626.965628262896,0.0,0.0,0.0591706018934592,1626.965628262896,0.0,0.0,0.0591706018934592,1024,0.0,98,Assisted_Takeoff,
0.3767444657120179,36.9245237204553,4600,2018-04-02 06:26:56,1626.965628262896,0.0,0.0,0.0619601019827232,1626.965628262896,0.0,0.0,0.0619601019827232,1024,0.0,98,Assisted_Takeoff,
0.37674446364852504,36.924523703467706,4700,2018-04-02 06:26:56,1626.965628262896,0.0,0.0,0.06375750204024,1626.965628262896,0.0,0.0,0.06375750204024,1024,0.0,98,Assisted_Takeoff,
0.37674446255288796,36.9245236931367,4800,2018-04-02 06:26:56,1626.965628262896,0.0,0.0,0.0648572020754304,1626.965628262896,0.0,0.0,0.0648572020754304,1024,0.0,98,Assisted_Takeoff,
0.37674445961827896,36.924523684216794,4900,2018-04-02 06:26:56,1626.965628262896,0.0,0.0,0.0657649021044768,1626.965628262896,0.0,0.0,0.0657649021044768,1024,0.0,98,Assisted_Takeoff,
0.37674445865678496,36.9245236834706,5000,2018-04-02 06:26:56,1626.965628262896,0.0,0.0,0.0658257021064224,1626.965628262896,0.0,0.0,0.0658257021064224,1024,0.0,98,Assisted_Takeoff,
0.376744455035634,36.9245236802063,5100,2018-04-02 06:26:56,1626.965628262896,0.0,0.0,0.06610610211539521,1626.965628262896,0.0,0.0,0.06610610211539521,1024,0.0,98,Assisted_Takeoff,
0.376744453331111,36.924523685531504,5200,2018-04-02 06:26:57,1626.965628262896,0.0,0.0,0.0654891020956512,1626.965628262896,0.0,0.0,0.06610610211539521,1024,0.0,98,Assisted_Takeoff,
0.37674444930941403,36.9245236856033,5300,2018-04-02 06:26:57,1626.965628262896,0.0,0.0,0.0654003020928096,1626.965628262896,0.0,0.0,0.06610610211539521,1024,0.0,98,Assisted_Takeoff,
0.37674444774809296,36.9245236801806,5400,2018-04-02 06:26:57,1626.965628262896,0.0,0.0,0.065963502110832,1626.965628262896,0.0,0.0,0.06610610211539521,1246,0.0,98,Assisted_Takeoff,
0.37674444390710204,36.9245236519819,5500,2018-04-02 06:26:57,1626.965628262896,0.0,0.0,0.06898440220750081,1626.965628262896,0.0,0.0,0.06898440220750081,1554,0.0,98,Assisted_Takeoff,
0.3767444429449461,36.9245236268913,5600,2018-04-02 06:26:57,1626.965628262896,0.0,0.0,0.0717238022951616,1626.965628262896,0.0,0.0,0.0717238022951616,1684,0.0,98,Assisted_Takeoff,
0.37674444026574894,36.924523609824,5700,2018-04-02 06:26:57,1626.965628262896,0.0,0.0,0.0735567023538144,1626.965628262896,0.0,0.0,0.0735567023538144,1684,0.0,98,Assisted_Takeoff,
0.37674444125619894,36.9245235988228,5800,2018-04-02 06:26:57,1626.965628262896,0.0,0.0,0.0747832023930624,1626.965628262896,0.0,0.0,0.0747832023930624,1684,0.0,98,Assisted_Takeoff,
0.37674443809198,36.924523588587604,5900,2018-04-02 06:26:57,1626.965628262896,0.0,0.0,0.0758609024275488,1626.965628262896,0.0,0.0,0.0758609024275488,1684,0.0,98,Assisted_Takeoff,
0.376744456087965,36.9245235881267,6000,2018-04-02 06:26:57,1626.965628262896,0.0,0.0,0.0762108024387456,1626.965628262896,0.0,0.0,0.0762108024387456,1684,0.0,98,Assisted_Takeoff,
0.37674451122606106,36.9245235976344,6100,2018-04-02 06:26:57,1626.965628262896,0.0,0.35999970196000003,0.076416502445328,1626.965628262896,0.0,0.35999970196000003,0.076416502445328,1684,0.0,98,P-GPS,
0.37674466438312704,36.9245236289287,6200,2018-04-02 06:26:57,1626.965628262896,0.0,0.35999970196000003,0.079094002531008,1626.965628262896,0.0,0.35999970196000003,0.079094002531008,1684,0.0,98,P-GPS,
0.376744898490698,36.9245236704459,6300,2018-04-02 06:26:58,1626.965628262896,0.0,0.7199994039200001,0.09029200288934401,1626.965628262896,0.0,0.7199994039200001,0.09029200288934401,1684,0.0,98,P-GPS,Home Point Recorded. RTH Altitude:  45m.
0.37674518437128707,36.924523716292704,6400,2018-04-02 06:26:58,1627.0656282660962,0.10000000320000002,0.7199994039200001,0.11149200356774401,1627.0656282660962,0.10000000320000002,0.7199994039200001,0.11149200356774401,1684,0.0,98,P-GPS,
0.37674548711885997,36.924523740605004,6500,2018-04-02 06:26:58,1627.265628272496,0.3000000096,0.7199994039200001,0.139743004471776,1627.265628272496,0.3000000096,0.7199994039200001,0.139743004471776,1684,0.0,98,P-GPS,
0.37674582901027004,36.924523779977704,6600,2018-04-02 06:26:58,1627.365628275696,0.4000000128000001,0.7199994039200001,0.17361500555568002,1627.365628275696,0.4000000128000001,0.7199994039200001,0.17361500555568002,1684,0.0,98,P-GPS,
0.376746148825272,36.9245238246334,6700,2018-04-02 06:26:58,1627.5656282820962,0.6000000192,0.7199994039200001,0.206486006607552,1627.5656282820962,0.6000000192,0.7199994039200001,0.206486006607552,1684,0.0,98,P-GPS,
0.37674648753490597,36.9245238581969,6800,2018-04-02 06:26:58,1627.865628291696,0.9000000288000001,0.7199994039200001,0.24252200776070404,1627.865628291696,0.9000000288000001,0.7199994039200001,0.24252200776070404,1684,0.0,98,P-GPS,
0.37674677912133997,36.924523854611394,6900,2018-04-02 06:26:58,1628.165628301296,1.2000000384,0.7199994039200001,0.27451300878441603,1628.165628301296,1.2000000384,0.7199994039200001,0.27451300878441603,1684,0.0,98,P-GPS,
0.376747019525271,36.9245238200437,7000,2018-04-02 06:26:58,1628.5656283140959,1.6000000512000003,0.35999970196000003,0.30151500964848005,1628.5656283140959,1.6000000512000003,0.7199994039200001,0.30151500964848005,1684,0.0,98,P-GPS,
0.37674721740279293,36.92452378355679,7100,2018-04-02 06:26:58,1628.9656283268962,2.000000064,0.7199994039200001,0.323888010364416,1628.9656283268962,2.000000064,0.7199994039200001,0.323888010364416,1684,0.0,98,P-GPS,
0.376747426926336,36.9245237754725,7200,2018-04-02 06:26:59,1629.465628342896,2.50000008,0.35999970196000003,0.34703001110495996,1629.465628342896,2.50000008,0.7199994039200001,0.34703001110495996,1684,0.0,98,P-GPS,
0.376747625197942,36.9245237619243,7300,2018-04-02 06:26:59,1629.965628358896,3.0000000960000004,0.35999970196000003,0.36904801180953606,1629.965628358896,3.0000000960000004,0.7199994039200001,0.36904801180953606,1684,0.0,98,P-GPS,
0.37674781915518896,36.924523718791,7400,2018-04-02 06:26:59,1630.465628374896,3.500000112,0.35999970196000003,0.39109801251513604,1630.465628374896,3.500000112,0.7199994039200001,0.39109801251513604,1684,0.0,98,P-GPS,
0.37674799381618895,36.9245236821762,7500,2018-04-02 06:26:59,1630.9656283908962,4.000000128,0.35999970196000003,0.4109190131494081,1630.9656283908962,4.000000128,0.7199994039200001,0.4109190131494081,1684,0.0,98,P-GPS,
0.3767481479005779,36.9245236451878,7600,2018-04-02 06:26:59,1631.465628406896,4.5000001439999995,0.35999970196000003,0.42849001371168005,1631.465628406896,4.5000001439999995,0.7199994039200001,0.42849001371168005,1684,0.0,98,P-GPS,
0.376748263025259,36.9245236130364,7700,2018-04-02 06:26:59,1631.965628422896,5.00000016,0.0,0.4417030141344961,1631.965628422896,5.00000016,0.7199994039200001,0.4417030141344961,1684,0.0,98,P-GPS,
0.376748369973114,36.9245235867274,7800,2018-04-02 06:26:59,1632.4656284388961,5.500000176000001,0.35999970196000003,0.453916014525312,1632.4656284388961,5.500000176000001,0.7199994039200001,0.453916014525312,1684,0.0,98,P-GPS,
0.376748545469303,36.924523542634894,8000,2018-04-02 06:26:59,1633.465628470896,6.500000208,0.35999970196000003,0.4739780151672961,1633.465628470896,6.500000208,0.7199994039200001,0.4739780151672961,1684,0.0,98,P-GPS,
0.376748594933289,36.9245235273308,8100,2018-04-02 06:26:59,1633.965628486896,7.000000224,0.0,0.479688015350016,1633.965628486896,7.000000224,0.7199994039200001,0.479688015350016,1684,0.0,98,P-GPS,
0.37674861523632197,36.9245235113143,8200,2018-04-02 06:27:00,1634.4656285028962,7.50000024,0.0,0.482219015431008,1634.4656285028962,7.50000024,0.7199994039200001,0.482219015431008,1684,0.0,98,P-GPS,
0.37674865816699105,36.9245235480115,8400,2018-04-02 06:27:00,1635.365628531696,8.4000002688,0.0,0.48623601555955204,1635.365628531696,8.4000002688,0.7199994039200001,0.48623601555955204,1684,0.0,98,P-GPS,
0.376748702016917,36.9245235894848,8500,2018-04-02 06:27:00,1635.8656285476961,8.9000002848,0.35999970196000003,0.49032001569024003,1635.8656285476961,8.9000002848,0.7199994039200001,0.49032001569024003,1684,0.0,98,P-GPS,
0.376748759270972,36.9245236144475,8600,2018-04-02 06:27:00,1636.3656285636962,9.400000300800002,0.35999970196000003,0.496201015878432,1636.3656285636962,9.400000300800002,0.7199994039200001,0.496201015878432,1684,0.0,98,P-GPS,
0.376748818120088,36.92452358930171,8700,2018-04-02 06:27:00,1636.865628579696,9.900000316799998,0.35999970196000003,0.503087016098784,1636.865628579696,9.900000316799998,0.7199994039200001,0.503087016098784,1684,0.0,98,P-GPS,
0.37674888193351597,36.92452356470471,8800,2018-04-02 06:27:00,1637.2656285924961,10.300000329600001,0.0,0.510514016336448,1637.2656285924961,10.300000329600001,0.7199994039200001,0.510514016336448,1684,0.0,98,P-GPS,
0.376748906449333,36.9245235814862,8900,2018-04-02 06:27:00,1637.7656286084962,10.800000345599999,0.0,0.5129290164137281,1637.7656286084962,10.800000345599999,0.7199994039200001,0.5129290164137281,1684,0.0,98,P-GPS,
0.3767488953010061,36.9245236745229,9000,2018-04-02 06:27:00,1638.2656286244962,11.3000003616,0.0,0.510271016328672,1638.2656286244962,11.3000003616,0.7199994039200001,0.5129290164137281,1684,0.0,98,P-GPS,
0.37674883242026896,36.924523808052705,9100,2018-04-02 06:27:00,1638.765628640496,11.8000003776,0.0,0.501618016051776,1638.765628640496,11.8000003776,0.7199994039200001,0.5129290164137281,1684,0.0,98,P-GPS,
0.3767487389675321,36.924523951474,9200,2018-04-02 06:27:01,1639.165628653296,12.2000003904,0.0,0.48988901567644805,1639.165628653296,12.2000003904,0.7199994039200001,0.5129290164137281,1684,0.0,98,P-GPS,
0.376748646094114,36.9245240270049,9300,2018-04-02 06:27:01,1639.665628669296,12.700000406400001,0.0,0.47905201532966407,1639.665628669296,12.700000406400001,0.7199994039200001,0.5129290164137281,1684,0.0,98,P-GPS,
0.37674858959525,36.924524080789794,9400,2018-04-02 06:27:01,1640.165628685296,13.2000004224,0.0,0.47248201511942406,1640.165628685296,13.2000004224,0.7199994039200001,0.5129290164137281,1684,0.0,98,P-GPS,
0.376748578188814,36.9245241614715,9500,2018-04-02 06:27:01,1640.665628701296,13.7000004384,0.0,0.470911015069152,1640.665628701296,13.7000004384,0.7199994039200001,0.5129290164137281,1684,0.0,98,P-GPS,
0.37674851646956503,36.9245243504569,9700,2018-04-02 06:27:01,1641.6656287332962,14.7000004704,0.0,0.4640080148482561,1641.6656287332962,14.7000004704,0.7199994039200001,0.5129290164137281,1684,0.0,98,P-GPS,
0.37674833354543297,36.924524636193,9900,2018-04-02 06:27:01,1642.7656287684963,15.8000005056,0.503999582744,0.44549001425567997,1642.7656287684963,15.8000005056,0.7199994039200001,0.5129290164137281,1684,0.0,98,P-GPS,
0.376748221992134,36.924524809531796,10000,2018-04-02 06:27:01,1643.2656287844961,16.3000005216,0.35999970196000003,0.43540201393286404,1643.2656287844961,16.3000005216,0.7199994039200001,0.5129290164137281,1684,0.0,98,P-GPS,
0.3767481253834721,36.9245250129758,10100,2018-04-02 06:27:02,1643.865628803696,16.900000540799997,0.0,0.42858001371456,1643.865628803696,16.900000540799997,0.7199994039200001,0.5129290164137281,1684,0.0,98,P-GPS,
0.37674807384179493,36.924525266467704,10300,2018-04-02 06:27:02,1644.965628838896,18.000000575999998,0.0,0.42939801374073605,1644.965628838896,18.000000575999998,0.7199994039200001,0.5129290164137281,1684,0.0,98,P-GPS,
0.376748101302246,36.9245253655287,10400,2018-04-02 06:27:02,1645.4656288548963,18.500000592000003,0.0,0.435317013930144,1645.4656288548963,18.500000592000003,0.7199994039200001,0.5129290164137281,1684,0.0,98,P-GPS,
0.376748162215822,36.9245254679912,10500,2018-04-02 06:27:02,1646.065628874096,19.1000006112,0.0,0.44511501424368,1646.065628874096,19.1000006112,0.7199994039200001,0.5129290164137281,1684,0.0,98,P-GPS,
0.37674831731412106,36.9245256107776,10700,2018-04-02 06:27:02,1647.1656289092962,20.200000646400003,0.0,0.46644501492624,1647.1656289092962,20.200000646400003,0.7199994039200001,0.5129290164137281,1684,0.0,98,P-GPS,
0.376748387115948,36.9245256553921,10800,2018-04-02 06:27:02,1647.665628925296,20.7000006624,0.0,0.47539401521260805,1647.665628925296,20.7000006624,0.7199994039200001,0.5129290164137281,1684,0.0,98,P-GPS,
0.37674849185441295,36.9245257170049,10900,2018-04-02 06:27:02,1648.165628941296,21.2000006784,0.0,0.48864501563664003,1648.165628941296,21.2000006784,0.7199994039200001,0.5129290164137281,1684,0.0,98,P-GPS,
0.37674855235477095,36.92452575622929,11000,2018-04-02 06:27:02,1648.765628960496,21.8000006976,0.0,0.49644001588608005,1648.765628960496,21.8000006976,0.7199994039200001,0.5129290164137281,1684,0.0,98,P-GPS,
0.37674855293816106,36.9245258017895,11100,2018-04-02 06:27:02,1649.2656289764961,22.3000007136,0.0,0.498217015942944,1649.2656289764961,22.3000007136,0.7199994039200001,0.5129290164137281,1684,0.0,98,P-GPS,
0.37674854636739,36.9245258359592,11200,2018-04-02 06:27:03,1649.7656289924962,22.8000007296,0.0,0.4988490159631681,1649.7656289924962,22.8000007296,0.7199994039200001,0.5129290164137281,1684,0.0,98,P-GPS,
0.376748578682639,36.9245259184941,11400,2018-04-02 06:27:03,1650.865629027696,23.9000007648,0.0,0.5054840161754881,1650.865629027696,23.9000007648,0.7199994039200001,0.5129290164137281,1684,0.0,98,P-GPS,
0.37674858102312,36.924526015409704,11600,2018-04-02 06:27:03,1651.865629059696,24.9000007968,0.0,0.5097450163118401,1651.865629059696,24.9000007968,0.7199994039200001,0.5129290164137281,1684,0.0,98,P-GPS,
0.37674856618799607,36.9245260764095,11700,2018-04-02 06:27:03,1652.3656290756962,25.400000812800002,0.0,0.5108590163474881,1652.3656290756962,25.400000812800002,0.7199994039200001,0.5129290164137281,1684,0.0,98,P-GPS,
0.3767485742650779,36.924526113949106,11800,2018-04-02 06:27:03,1652.965629094896,26.000000832,0.0,0.513342016426944,1652.965629094896,26.000000832,0.7199994039200001,0.513342016426944,1684,0.0,98,P-GPS,
0.37674861211418703,36.9245261177354,11900,2018-04-02 06:27:03,1653.4656291108963,26.500000848000003,0.0,0.517369016555808,1653.4656291108963,26.500000848000003,0.7199994039200001,0.517369016555808,1684,0.0,98,P-GPS,
0.3767486421068689,36.9245261123857,12000,2018-04-02 06:27:03,1653.9656291268961,27.000000864000004,0.0,0.52019501664624,1653.9656291268961,27.000000864000004,0.7199994039200001,0.52019501664624,1684,0.0,98,P-GPS,
0.37674867531694894,36.924526089848,12100,2018-04-02 06:27:03,1654.565629146096,27.6000008832,0.0,0.522611016723552,1654.565629146096,27.6000008832,0.7199994039200001,0.522611016723552,1684,0.0,98,P-GPS,
0.376748689955846,36.924526065988395,12200,2018-04-02 06:27:03,1655.0656291620962,28.1000008992,0.0,0.52309001673888,1655.0656291620962,28.1000008992,0.7199994039200001,0.52309001673888,1684,0.0,98,P-GPS,
0.376748711172843,36.9245260891789,12300,2018-04-02 06:27:04,1655.565629178096,28.600000915200003,0.0,0.526259016840288,1655.565629178096,28.600000915200003,0.7199994039200001,0.526259016840288,1684,0.0,98,P-GPS,
0.37674872927381203,36.9245260883259,12400,2018-04-02 06:27:04,1656.065629194096,29.1000009312,0.0,0.52808001689856,1656.065629194096,29.1000009312,0.7199994039200001,0.52808001689856,1684,0.0,98,P-GPS,
0.3767487167954529,36.9245259959468,12600,2018-04-02 06:27:04,1657.065629226096,30.1000009632,0.0,0.52293001673376,1657.065629226096,30.1000009632,0.7199994039200001,0.52808001689856,1684,0.0,98,P-GPS,
0.37674873966613504,36.924525939137396,12700,2018-04-02 06:27:04,1657.665629245296,30.700000982400002,0.0,0.523013016736416,1657.665629245296,30.700000982400002,0.7199994039200001,0.52808001689856,1684,0.0,98,P-GPS,
0.37674873642227397,36.924525903667295,12800,2018-04-02 06:27:04,1658.165629261296,31.2000009984,0.0,0.521283016681056,1658.165629261296,31.2000009984,0.7199994039200001,0.52808001689856,1684,0.0,98,P-GPS,
0.3767487038139051,36.924525804454795,13000,2018-04-02 06:27:04,1659.165629293296,32.2000010304,0.0,0.514108016451456,1659.165629293296,32.2000010304,0.7199994039200001,0.52808001689856,1684,0.0,98,P-GPS,
0.376748726626776,36.9245257336916,13100,2018-04-02 06:27:04,1659.6656293092963,32.700001046400004,0.35999970196000003,0.51394501644624,1659.6656293092963,32.700001046400004,0.7199994039200001,0.52808001689856,1684,0.0,98,P-GPS,
0.376748743840244,36.9245256163357,13200,2018-04-02 06:27:05,1660.165629325296,33.2000010624,0.35999970196000003,0.5117750163768,1660.165629325296,33.2000010624,0.7199994039200001,0.52808001689856,1684,0.0,98,P-GPS,
0.376748831938657,36.9245253255709,13500,2018-04-02 06:27:05,1661.765629376496,34.800001113600004,0.0,0.512756016408192,1661.765629376496,34.800001113600004,0.7199994039200001,0.52808001689856,1684,0.0,98,P-GPS,
0.37674881785587294,36.9245252443231,13600,2018-04-02 06:27:05,1662.2656293924963,35.300001129600005,0.0,0.509222016295104,1662.2656293924963,35.300001129600005,0.7199994039200001,0.52808001689856,1684,0.0,98,P-GPS,
0.376748839058621,36.924525167238,13700,2018-04-02 06:27:05,1662.7656294084961,35.8000011456,0.0,0.5097680163125761,1662.7656294084961,35.8000011456,0.7199994039200001,0.52808001689856,1684,0.0,98,P-GPS,
0.37674883225783207,36.924525082400706,13800,2018-04-02 06:27:05,1663.265629424496,36.3000011616,0.0,0.5072500162320001,1663.265629424496,36.3000011616,0.7199994039200001,0.52808001689856,1684,0.0,98,P-GPS,
0.376748778223617,36.9245250147115,13900,2018-04-02 06:27:05,1663.765629440496,36.8000011776,0.0,0.500029016000928,1663.765629440496,36.8000011776,0.7199994039200001,0.52808001689856,1684,0.0,98,P-GPS,
0.376748706717013,36.924524934749606,14000,2018-04-02 06:27:05,1664.265629456496,37.3000011936,0.0,0.490761015704352,1664.265629456496,37.3000011936,0.7199994039200001,0.52808001689856,1684,0.0,98,P-GPS,
0.37674865502897903,36.924524841726,14100,2018-04-02 06:27:05,1664.7656294724961,37.800001209600005,0.35999970196000003,0.483598015475136,1664.7656294724961,37.800001209600005,0.7199994039200001,0.52808001689856,1684,0.0,98,P-GPS,
0.376748596798265,36.9245247230035,14200,2018-04-02 06:27:06,1665.3656294916962,38.4000012288,0.35999970196000003,0.475584015218688,1665.3656294916962,38.4000012288,0.7199994039200001,0.52808001689856,1684,0.0,98,P-GPS,
0.37674853426438704,36.924524580425796,14300,2018-04-02 06:27:06,1665.8656295076962,38.9000012448,0.503999582744,0.467212014950784,1665.8656295076962,38.9000012448,0.7199994039200001,0.52808001689856,1684,0.0,98,P-GPS,
0.376748449939892,36.9245244403476,14400,2018-04-02 06:27:06,1666.365629523696,39.4000012608,0.503999582744,0.4569300146217601,1666.365629523696,39.4000012608,0.7199994039200001,0.52808001689856,1684,0.0,98,P-GPS,
0.376748346554868,36.9245243429625,14500,2018-04-02 06:27:06,1666.8656295396963,39.900001276800005,0.35999970196000003,0.44509901424316806,1666.8656295396963,39.900001276800005,0.7199994039200001,0.52808001689856,1684,0.0,98,P-GPS,
0.37674822689090004,36.9245243240682,14600,2018-04-02 06:27:06,1667.3656295556962,40.400001292800006,0.35999970196000003,0.43175701381622406,1667.3656295556962,40.400001292800006,0.7199994039200001,0.52808001689856,1684,0.0,98,P-GPS,
0.37674800704668604,36.92452434115479,14800,2018-04-02 06:27:06,1668.4656295908962,41.500001328,0.35999970196000003,0.407347013035104,1668.4656295908962,41.500001328,0.7199994039200001,0.52808001689856,1684,0.0,98,P-GPS,
0.376747944036285,36.9245243552849,14900,2018-04-02 06:27:06,1668.965629606896,42.000001344,0.0,0.400378012812096,1668.965629606896,42.000001344,0.7199994039200001,0.52808001689856,1684,0.0,98,P-GPS,
0.376747882000507,36.9245243544568,15000,2018-04-02 06:27:06,1669.465629622896,42.50000136,0.0,0.393479012591328,1669.465629622896,42.50000136,0.7199994039200001,0.52808001689856,1684,0.0,98,P-GPS,
0.376747885032466,36.924524326446,15100,2018-04-02 06:27:06,1670.0656296420962,43.1000013792,0.0,0.3937500126,1670.0656296420962,43.1000013792,0.7199994039200001,0.52808001689856,1684,0.0,98,P-GPS,
0.37674787511870295,36.9245243054024,15200,2018-04-02 06:27:07,1670.565629658096,43.6000013952,0.0,0.392613012563616,1670.565629658096,43.6000013952,0.7199994039200001,0.52808001689856,1684,0.0,98,P-GPS,
0.37674788696156203,36.9245242853073,15300,2018-04-02 06:27:07,1671.065629674096,44.100001411200004,0.0,0.393911012605152,1671.065629674096,44.100001411200004,0.7199994039200001,0.52808001689856,1684,0.0,98,P-GPS,
0.37674788731880204,36.9245242746375,15400,2018-04-02 06:27:07,1671.565629690096,44.6000014272,0.0,0.39394501260624,1671.565629690096,44.6000014272,0.7199994039200001,0.52808001689856,1684,0.0,98,P-GPS,
0.37674787946990507,36.9245242763071,15500,2018-04-02 06:27:07,1672.0656297060962,45.10000144320001,0.0,0.39307301257833605,1672.0656297060962,45.10000144320001,0.7199994039200001,0.52808001689856,1684,0.0,98,P-GPS,
0.37674785676980294,36.9245242773761,15600,2018-04-02 06:27:07,1672.565629722096,45.6000014592,0.0,0.390549012497568,1672.565629722096,45.6000014592,0.7199994039200001,0.52808001689856,1684,0.0,98,P-GPS,
0.37674781648047,36.9245242849401,15700,2018-04-02 06:27:07,1673.165629741296,46.20000147840001,0.0,0.386072012354304,1673.165629741296,46.20000147840001,0.7199994039200001,0.52808001689856,1684,0.0,98,P-GPS,
0.37674778001696296,36.9245242941523,15800,2018-04-02 06:27:07,1673.665629757296,46.7000014944,0.0,0.3820250122248,1673.665629757296,46.7000014944,0.7199994039200001,0.52808001689856,1684,0.0,98,P-GPS,
0.376747725753748,36.924524305105294,15900,2018-04-02 06:27:07,1674.1656297732961,47.2000015104,0.0,0.376004012032128,1674.1656297732961,47.2000015104,0.7199994039200001,0.52808001689856,1684,0.0,98,P-GPS,
0.376747672729169,36.9245243079012,16000,2018-04-02 06:27:07,1674.6656297892962,47.700001526399994,0.0,0.370111011843552,1674.6656297892962,47.700001526399994,0.7199994039200001,0.52808001689856,1684,0.0,98,P-GPS,
0.37674761514515004,36.92452434901261,16100,2018-04-02 06:27:07,1675.165629805296,48.200001542399995,0.0,0.363798011641536,1675.165629805296,48.200001542399995,0.7199994039200001,0.52808001689856,1684,0.0,98,P-GPS,
0.37674756418340294,36.9245243811405,16200,2018-04-02 06:27:08,1675.765629824496,48.8000015616,0.0,0.358244011463808,1675.765629824496,48.8000015616,0.7199994039200001,0.52808001689856,1684,0.0,98,P-GPS,
0.376747513859801,36.924524402881104,16300,2018-04-02 06:27:08,1676.265629840496,49.30000157760001,0.0,0.35274901128796804,1676.265629840496,49.30000157760001,0.7199994039200001,0.52808001689856,1684,0.0,98,P-GPS,
0.376747466251834,36.92452441429771,16400,2018-04-02 06:27:08,1676.765629856496,49.8000015936,0.0,0.34751801112057606,1676.765629856496,49.8000015936,0.7199994039200001,0.52808001689856,1684,0.0,98,P-GPS,
0.37674743251780196,36.9245244652968,16600,2018-04-02 06:27:08,1677.765629888496,50.800001625600004,0.0,0.344093011010976,1677.765629888496,50.800001625600004,0.7199994039200001,0.52808001689856,1684,0.0,98,P-GPS,
0.376747393021725,36.924524477389,16700,2018-04-02 06:27:08,1678.265629904496,51.3000016416,0.0,0.339801010873632,1678.265629904496,51.3000016416,0.7199994039200001,0.52808001689856,1684,0.0,98,P-GPS,
0.37674734614024696,36.924524490161,16800,2018-04-02 06:27:08,1678.8656299236961,51.90000166080001,0.0,0.3347040107105281,1678.8656299236961,51.90000166080001,0.7199994039200001,0.52808001689856,1684,0.0,98,P-GPS,
0.376747295834152,36.9245245351229,16900,2018-04-02 06:27:08,1679.365629939696,52.400001676799995,0.0,0.32954501054544005,1679.365629939696,52.400001676799995,0.7199994039200001,0.52808001689856,1684,0.0,98,P-GPS,
0.37674724209997795,36.9245246583432,17100,2018-04-02 06:27:08,1680.365629971696,53.400001708800005,0.0,0.32515601040499204,1680.365629971696,53.400001708800005,0.7199994039200001,0.52808001689856,1684,0.0,98,P-GPS,
0.376747215336705,36.9245247381539,17200,2018-04-02 06:27:09,1680.8656299876961,53.900001724800006,0.0,0.32353401035308804,1680.8656299876961,53.900001724800006,0.7199994039200001,0.52808001689856,1684,0.0,98,P-GPS,
0.376747190190883,36.924524827407495,17300,2018-04-02 06:27:09,1681.365630003696,54.40000174080001,0.0,0.322554010321728,1681.365630003696,54.40000174080001,0.7199994039200001,0.52808001689856,1684,0.0,98,P-GPS,
0.376747179429515,36.9245248828696,17400,2018-04-02 06:27:09,1681.965630022896,55.00000176,0.0,0.322638010324416,1681.965630022896,55.00000176,0.7199994039200001,0.52808001689856,1684,0.0,98,P-GPS,
0.376747211070385,36.9245249224414,17500,2018-04-02 06:27:09,1682.465630038896,55.500001776,0.0,0.32703301046505606,1682.465630038896,55.500001776,0.7199994039200001,0.52808001689856,1684,0.0,98,P-GPS,
0.376747232862019,36.924524940793795,17600,2018-04-02 06:27:09,1682.965630054896,56.000001792,0.0,0.32985501055536004,1682.965630054896,56.000001792,0.7199994039200001,0.52808001689856,1684,0.0,98,P-GPS,
0.376747261984908,36.924524968235005,17700,2018-04-02 06:27:09,1683.4656300708962,56.50000180800001,0.0,0.33371201067878403,1683.4656300708962,56.50000180800001,0.7199994039200001,0.52808001689856,1684,0.0,98,P-GPS,
0.376747276218526,36.924524983323,17800,2018-04-02 06:27:09,1683.965630086896,57.000001824,0.0,0.335646010740672,1683.965630086896,57.000001824,0.7199994039200001,0.52808001689856,1684,0.0,98,P-GPS,
0.376747280500927,36.9245249803314,17900,2018-04-02 06:27:09,1684.5656301060963,57.600001843200005,0.0,0.33603001075296,1684.5656301060963,57.600001843200005,0.7199994039200001,0.52808001689856,1684,0.0,98,P-GPS,
0.3767472775196529,36.9245249710338,18000,2018-04-02 06:27:09,1685.065630122096,58.100001859200006,0.0,0.33546401073484805,1685.065630122096,58.100001859200006,0.7199994039200001,0.52808001689856,1684,0.0,98,P-GPS,
0.37674727445715994,36.92452499700529,18100,2018-04-02 06:27:09,1685.565630138096,58.60000187520001,0.0,0.335822010746304,1685.565630138096,58.60000187520001,0.7199994039200001,0.52808001689856,1684,0.0,98,P-GPS,
0.37674726849440904,36.924524999256,18200,2018-04-02 06:27:10,1686.0656301540962,59.1000018912,0.0,0.33524001072768,1686.0656301540962,59.1000018912,0.7199994039200001,0.52808001689856,1684,0.0,98,P-GPS,
0.376747308580187,36.924524994205605,18300,2018-04-02 06:27:10,1686.565630170096,59.6000019072,0.0,0.33943001086176006,1686.565630170096,59.6000019072,0.7199994039200001,0.52808001689856,1684,0.0,97,P-GPS,
0.3767473212643401,36.92452498897129,18400,2018-04-02 06:27:10,1687.1656301892963,60.2000019264,0.0,0.34066201090118403,1687.1656301892963,60.2000019264,0.7199994039200001,0.52808001689856,1684,0.0,97,P-GPS,
0.37674732648268894,36.9245250448892,18500,2018-04-02 06:27:10,1687.665630205296,60.7000019424,0.0,0.34274701096790405,1687.665630205296,60.7000019424,0.7199994039200001,0.52808001689856,1684,0.0,97,P-GPS,
0.376747323533984,36.9245250724768,18600,2018-04-02 06:27:10,1688.165630221296,61.2000019584,0.0,0.343221010983072,1688.165630221296,61.2000019584,0.7199994039200001,0.52808001689856,1684,0.0,97,P-GPS,
0.376747321162766,36.9245250963504,18700,2018-04-02 06:27:10,1688.665630237296,61.7000019744,0.0,0.343671010997472,1688.665630237296,61.7000019744,0.7199994039200001,0.52808001689856,1684,0.0,97,P-GPS,
0.376747307322824,36.924525097115,18800,2018-04-02 06:27:10,1689.265630256496,62.300001993600006,0.0,0.342212010950784,1689.265630256496,62.300001993600006,0.7199994039200001,0.52808001689856,1684,0.0,97,P-GPS,
0.37674734189672604,36.924525091848395,18900,2018-04-02 06:27:10,1689.765630272496,62.80000200960001,0.0,0.345759011064288,1689.765630272496,62.80000200960001,0.7199994039200001,0.52808001689856,1684,0.0,97,P-GPS,
0.3767473530183879,36.924525069028,19000,2018-04-02 06:27:10,1690.2656302884961,63.3000020256,0.0,0.346287011081184,1690.2656302884961,63.3000020256,0.7199994039200001,0.52808001689856,1684,0.0,97,P-GPS,
0.376747367366404,36.9245250952206,19100,2018-04-02 06:27:10,1690.7656303044962,63.8000020416,0.0,0.3485890111548481,1690.7656303044962,63.8000020416,0.7199994039200001,0.52808001689856,1684,0.0,97,P-GPS,
0.376747350313746,36.924525112059605,19200,2018-04-02 06:27:11,1691.265630320496,64.30000205760001,0.0,0.34726501111248,1691.265630320496,64.30000205760001,0.7199994039200001,0.52808001689856,1684,0.0,97,P-GPS,
0.37674733717851294,36.924525156809004,19300,2018-04-02 06:27:11,1691.7656303364963,64.8000020736,0.0,0.347248011111936,1691.7656303364963,64.8000020736,0.7199994039200001,0.52808001689856,1684,0.0,97,P-GPS,
0.37674731922349297,36.92452518285889,19400,2018-04-02 06:27:11,1692.365630355696,65.40000209280001,0.0,0.346179011077728,1692.365630355696,65.40000209280001,0.7199994039200001,0.52808001689856,1684,0.0,97,P-GPS,
0.376747330205312,36.9245252139169,19500,2018-04-02 06:27:11,1692.865630371696,65.90000210880001,0.0,0.348377011148064,1692.865630371696,65.90000210880001,0.7199994039200001,0.52808001689856,1684,0.0,97,P-GPS,
0.376747321048775,36.92452523811539,19600,2018-04-02 06:27:11,1693.3656303876962,66.4000021248,0.0,0.348234011143488,1693.3656303876962,66.4000021248,0.7199994039200001,0.52808001689856,1684,0.0,97,P-GPS,
0.376747286395283,36.9245252983321,19700,2018-04-02 06:27:11,1693.865630403696,66.9000021408,0.0,0.346736011095552,1693.865630403696,66.9000021408,0.7199994039200001,0.52808001689856,1684,0.0,97,P-GPS,
0.37674723688224004,36.924525321074796,19800,2018-04-02 06:27:11,1694.365630419696,67.40000215680001,0.0,0.342406010956992,1694.365630419696,67.40000215680001,0.7199994039200001,0.52808001689856,1684,0.0,97,P-GPS,
0.37674720795049,36.9245253058824,19900,2018-04-02 06:27:11,1694.8656304356962,67.9000021728,0.0,0.33880501084176,1694.8656304356962,67.9000021728,0.7199994039200001,0.52808001689856,1684,0.0,97,P-GPS,
0.37674716057600105,36.924525281443,20000,2018-04-02 06:27:11,1695.465630454896,68.500002192,0.0,0.332926010653632,1695.465630454896,68.500002192,0.7199994039200001,0.52808001689856,1684,0.0,97,P-GPS,
0.376747138441986,36.9245252739749,20100,2018-04-02 06:27:11,1695.9656304708963,69.000002208,0.0,0.330329010570528,1695.9656304708963,69.000002208,0.7199994039200001,0.52808001689856,1684,0.0,97,P-GPS,
0.376747093228442,36.92452525079079,20200,2018-04-02 06:27:12,1696.465630486896,69.500002224,0.0,0.324724010391168,1696.465630486896,69.500002224,0.7199994039200001,0.52808001689856,1684,0.0,97,P-GPS,
0.37674704160147493,36.9245252348275,20300,2018-04-02 06:27:12,1696.9656305028961,70.00000224,0.35999970196000003,0.31872101019907195,1696.9656305028961,70.00000224,0.7199994039200001,0.52808001689856,1684,0.0,97,P-GPS,
0.37674696358374105,36.924525195628796,20400,2018-04-02 06:27:12,1697.465630518896,70.50000225600002,0.35999970196000003,0.30908400989068807,1697.465630518896,70.50000225600002,0.7199994039200001,0.52808001689856,1684,0.0,97,P-GPS,
0.376746800746873,36.9245251066388,20600,2018-04-02 06:27:12,1698.465630550896,71.500002288,0.35999970196000003,0.2887250092392,1698.465630550896,71.500002288,0.7199994039200001,0.52808001689856,1684,0.0,97,P-GPS,
0.37674674677291103,36.9245251268773,20700,2018-04-02 06:27:12,1698.965630566896,72.00000230399999,0.35999970196000003,0.283806009081792,1698.965630566896,72.00000230399999,0.7199994039200001,0.52808001689856,1684,0.0,97,P-GPS,
0.3767466791486189,36.92452512209,20800,2018-04-02 06:27:12,1699.4656305828962,72.50000232,0.35999970196000003,0.276556008849792,1699.4656305828962,72.50000232,0.7199994039200001,0.52808001689856,1684,0.0,97,P-GPS,
0.376746607493419,36.9245251314291,20900,2018-04-02 06:27:12,1700.065630602096,73.1000023392,0.35999970196000003,0.269461008622752,1700.065630602096,73.1000023392,0.7199994039200001,0.52808001689856,1684,0.0,97,P-GPS,
0.376746533507305,36.9245251197095,21000,2018-04-02 06:27:12,1700.5656306180963,73.6000023552,0.0,0.261317008362144,1700.5656306180963,73.6000023552,0.7199994039200001,0.52808001689856,1684,0.0,97,P-GPS,
0.3767464843904821,36.9245251131072,21200,2018-04-02 06:27:13,1701.565630650096,74.6000023872,0.0,0.25596600819091203,1701.565630650096,74.6000023872,0.7199994039200001,0.52808001689856,1684,0.0,97,P-GPS,
0.376746491263839,36.924525077884,21300,2018-04-02 06:27:13,1702.065630666096,75.1000024032,0.0,0.255262008168384,1702.065630666096,75.1000024032,0.7199994039200001,0.52808001689856,1684,0.0,97,P-GPS,
0.37674648955397294,36.9245250317521,21400,2018-04-02 06:27:13,1702.565630682096,75.60000241920001,0.0,0.25331000810592,1702.565630682096,75.60000241920001,0.7199994039200001,0.52808001689856,1684,0.0,97,P-GPS,
0.3767465294359911,36.9245249820987,21600,2018-04-02 06:27:13,1703.6656307172962,76.70000245439999,0.0,0.25571400818284806,1703.6656307172962,76.70000245439999,0.7199994039200001,0.52808001689856,1684,0.0,97,P-GPS,
0.3767465488738111,36.9245249997506,21700,2018-04-02 06:27:13,1704.1656307332962,77.20000247040001,0.0,0.258383008268256,1704.1656307332962,77.20000247040001,0.7199994039200001,0.52808001689856,1684,0.0,97,P-GPS,
0.37674655441835797,36.9245249916656,21800,2018-04-02 06:27:13,1704.665630749296,77.70000248640001,0.0,0.25868500827792,1704.665630749296,77.70000248640001,0.7199994039200001,0.52808001689856,1684,0.0,97,P-GPS,
0.37674653549380294,36.924525012543,21900,2018-04-02 06:27:13,1705.165630765296,78.20000250240001,0.0,0.25742800823769596,1705.165630765296,78.20000250240001,0.7199994039200001,0.52808001689856,1684,0.0,97,P-GPS,
0.37674651402846904,36.9245250263594,22000,2018-04-02 06:27:13,1705.6656307812962,78.70000251840001,0.0,0.2556750081816,1705.6656307812962,78.70000251840001,0.7199994039200001,0.52808001689856,1684,0.0,97,P-GPS,
0.376746514193959,36.924525062099,22100,2018-04-02 06:27:13,1706.265630800496,79.30000253760001,0.0,0.257037008225184,1706.265630800496,79.30000253760001,0.7199994039200001,0.52808001689856,1684,0.0,97,P-GPS,
0.37674651674664705,36.924525090512795,22200,2018-04-02 06:27:14,1706.7656308164962,79.80000255360001,0.0,0.25841000826912,1706.7656308164962,79.80000255360001,0.7199994039200001,0.52808001689856,1684,0.0,97,P-GPS,
0.37674651283003596,36.9245251000063,22300,2018-04-02 06:27:14,1707.265630832496,80.30000256960001,0.0,0.258381008268192,1707.265630832496,80.30000256960001,0.7199994039200001,0.52808001689856,1684,0.0,97,P-GPS,
0.37674656269431395,36.924525109474104,22500,2018-04-02 06:27:14,1708.2656308644962,81.3000026016,0.0,0.26393500844592005,1708.2656308644962,81.3000026016,0.7199994039200001,0.52808001689856,1684,0.0,97,P-GPS,
0.37674657957822494,36.924525111811796,22600,2018-04-02 06:27:14,1708.765630880496,81.80000261760001,0.0,0.26578300850505604,1708.765630880496,81.80000261760001,0.7199994039200001,0.52808001689856,1684,0.0,97,P-GPS,
0.376746570276451,36.924525169226605,22700,2018-04-02 06:27:14,1709.3656308996963,82.40000263680001,0.0,0.26715500854896,1709.3656308996963,82.40000263680001,0.7199994039200001,0.52808001689856,1684,0.0,97,P-GPS,
0.376746521409289,36.9245252130516,22800,2018-04-02 06:27:14,1709.865630915696,82.9000026528,0.0,0.264038008449216,1709.865630915696,82.9000026528,0.7199994039200001,0.52808001689856,1684,0.0,97,P-GPS,
0.376746440830623,36.9245252564423,22900,2018-04-02 06:27:14,1710.3656309316962,83.4000026688,0.0,0.257875008252,1710.3656309316962,83.4000026688,0.7199994039200001,0.52808001689856,1684,0.0,97,P-GPS,
0.37674636159827396,36.9245252772791,23000,2018-04-02 06:27:14,1710.865630947696,83.9000026848,0.0,0.250971008031072,1710.865630947696,83.9000026848,0.7199994039200001,0.52808001689856,1684,0.0,97,P-GPS,
0.37674630237848294,36.92452532065,23100,2018-04-02 06:27:14,1711.365630963696,84.4000027008,0.0,0.24735700791542403,1711.365630963696,84.4000027008,0.7199994039200001,0.52808001689856,1684,0.0,97,P-GPS,
0.376746243737197,36.924525344788606,23200,2018-04-02 06:27:15,1711.865630979696,84.9000027168,0.0,0.24295400777452802,1711.865630979696,84.9000027168,0.7199994039200001,0.52808001689856,1510,0.0,97,P-GPS,
0.376746207854535,36.9245253598865,23300,2018-04-02 06:27:15,1712.365630995696,85.4000027328,0.0,0.240341007690912,1712.365630995696,85.4000027328,0.7199994039200001,0.52808001689856,1034,0.0,97,P-GPS,
0.37674616394344107,36.9245253603009,23400,2018-04-02 06:27:15,1712.8656310116962,85.9000027488,0.0,0.23616800755737605,1712.8656310116962,85.9000027488,0.7199994039200001,0.52808001689856,1024,0.0,97,P-GPS,
0.376746170154937,36.924525388724604,23500,2018-04-02 06:27:15,1713.365631027696,86.40000276479999,0.0,0.238403007628896,1713.365631027696,86.40000276479999,0.7199994039200001,0.52808001689856,1024,0.0,97,P-GPS,
0.376746163858253,36.9245253971274,23600,2018-04-02 06:27:15,1713.865631043696,86.9000027808,0.0,0.238299007625568,1713.865631043696,86.9000027808,0.7199994039200001,0.52808001689856,1024,0.0,97,P-GPS,
0.376746141111435,36.9245253967077,23700,2018-04-02 06:27:15,1714.265631056496,87.3000027936,0.0,0.23613100755619199,1714.265631056496,87.3000027936,0.7199994039200001,0.52808001689856,1024,0.0,97,P-GPS,
0.376746126703675,36.9245253725194,23900,2018-04-02 06:27:15,1714.7656310724963,87.8000028096,0.0,0.233346007467072,1714.7656310724963,87.8000028096,0.7199994039200001,0.52808001689856,1024,0.0,97,P-GPS,
0.376746130728781,36.9245253553661,24000,2018-04-02 06:27:15,1714.8656310756962,87.9000028128,0.0,0.23272600744723201,1714.8656310756962,87.9000028128,0.7199994039200001,0.52808001689856,1024,0.0,97,P-GPS,
0.37674615648934,36.924525355871396,24100,2018-04-02 06:27:15,1714.965631078896,88.00000281600002,0.0,0.23520400752652804,1714.965631078896,88.00000281600002,0.7199994039200001,0.52808001689856,1024,0.0,97,P-GPS,
0.376746175382038,36.9245253419932,24200,2018-04-02 06:27:15,1714.965631078896,88.00000281600002,0.0,0.236219007559008,1714.965631078896,88.00000281600002,0.7199994039200001,0.52808001689856,1024,0.0,97,P-GPS,
0.376746227011347,36.9245253450592,24300,2018-04-02 06:27:16,1714.965631078896,88.00000281600002,0.0,0.24135400772332805,1714.965631078896,88.00000281600002,0.7199994039200001,0.52808001689856,1024,0.0,97,P-GPS,
0.376746289639674,36.92452531495079,24400,2018-04-02 06:27:16,1715.065631082096,88.10000281920001,0.0,0.24581000786592003,1715.065631082096,88.10000281920001,0.7199994039200001,0.52808001689856,1024,0.0,97,P-GPS,
0.376746472032933,36.9245251943365,24600,2018-04-02 06:27:16,1715.065631082096,88.10000281920001,0.0,0.25817300826153605,1715.065631082096,88.10000281920001,0.7199994039200001,0.52808001689856,1024,0.0,97,P-GPS,
0.37674661879044397,36.9245250656055,24700,2018-04-02 06:27:16,1715.1656310852961,88.20000282240001,0.0,0.268114008579648,1715.1656310852961,88.20000282240001,0.7199994039200001,0.52808001689856,1024,0.0,97,P-GPS,
0.376746749057821,36.9245248870809,24800,2018-04-02 06:27:16,1715.1656310852961,88.20000282240001,0.0,0.276184008837888,1715.1656310852961,88.20000282240001,0.7199994039200001,0.52808001689856,1024,0.0,97,P-GPS,
0.37674689476162704,36.924524662222,24900,2018-04-02 06:27:16,1715.1656310852961,88.20000282240001,0.0,0.286996009183872,1715.1656310852961,88.20000282240001,0.7199994039200001,0.52808001689856,1024,0.0,97,P-GPS,
0.376747021070053,36.9245243959622,25000,2018-04-02 06:27:16,1715.265631088496,88.3000028256,0.35999970196000003,0.297971009535072,1715.265631088496,88.3000028256,0.7199994039200001,0.52808001689856,1024,0.0,97,P-GPS,
0.37674713578233004,36.9245241322525,25100,2018-04-02 06:27:16,1715.265631088496,88.3000028256,0.35999970196000003,0.31071500994288,1715.265631088496,88.3000028256,0.7199994039200001,0.52808001689856,930,0.0,97,P-GPS,
0.376747249226049,36.924523832652895,25200,2018-04-02 06:27:17,1715.265631088496,88.3000028256,0.35999970196000003,0.326532010449024,1715.265631088496,88.3000028256,0.7199994039200001,0.52808001689856,885,0.0,97,P-GPS,
0.37674739725506895,36.924523535594396,25300,2018-04-02 06:27:17,1715.265631088496,88.3000028256,0.35999970196000003,0.34898601116755207,1715.265631088496,88.3000028256,0.7199994039200001,0.52808001689856,845,0.0,97,P-GPS,
0.3767475268643521,36.9245232420545,25400,2018-04-02 06:27:17,1715.265631088496,88.3000028256,0.35999970196000003,0.37167201189350396,1715.265631088496,88.3000028256,0.7199994039200001,0.52808001689856,780,0.0,97,P-GPS,
0.37674788234247997,36.9245226500226,25600,2018-04-02 06:27:17,1715.265631088496,88.3000028256,0.35999970196000003,0.43241601383731204,1715.265631088496,88.3000028256,0.7199994039200001,0.52808001689856,781,0.0,97,P-GPS,
0.3767480701503161,36.9245223894842,25700,2018-04-02 06:27:17,1715.265631088496,88.3000028256,0.35999970196000003,0.463782014841024,1715.265631088496,88.3000028256,0.7199994039200001,0.52808001689856,781,0.0,97,P-GPS,
0.376748235761035,36.9245221033316,25800,2018-04-02 06:27:17,1715.1656310852961,88.20000282240001,0.35999970196000003,0.49494801583833603,1715.265631088496,88.3000028256,0.7199994039200001,0.52808001689856,779,0.0,97,P-GPS,
0.37674842899891703,36.924521810881,25900,2018-04-02 06:27:17,1715.065631082096,88.10000281920001,0.35999970196000003,0.5298310169545921,1715.265631088496,88.3000028256,0.7199994039200001,0.5298310169545921,781,0.0,97,P-GPS,
0.376748625688897,36.924521504911795,26000,2018-04-02 06:27:17,1715.065631082096,88.10000281920001,0.503999582744,0.5663850181243201,1715.265631088496,88.3000028256,0.7199994039200001,0.5663850181243201,783,0.0,97,P-GPS,
0.376748881011002,36.924521180435704,26100,2018-04-02 06:27:17,1714.965631078896,88.00000281600002,0.503999582744,0.609982019519424,1715.265631088496,88.3000028256,0.7199994039200001,0.609982019519424,782,0.0,97,P-GPS,
0.37674910879856294,36.9245208787564,26200,2018-04-02 06:27:17,1714.8656310756962,87.9000028128,0.503999582744,0.6499330207978561,1715.265631088496,88.3000028256,0.7199994039200001,0.6499330207978561,782,0.0,97,P-GPS,
0.3767493766320039,36.9245206104998,26300,2018-04-02 06:27:18,1714.8656310756962,87.9000028128,0.35999970196000003,0.691528022128896,1715.265631088496,88.3000028256,0.7199994039200001,0.691528022128896,780,0.0,97,P-GPS,
0.376749583166742,36.924520347857,26400,2018-04-02 06:27:18,1714.7656310724963,87.8000028096,0.35999970196000003,0.7273450232750399,1715.265631088496,88.3000028256,0.7199994039200001,0.7273450232750399,781,0.0,97,P-GPS,
0.37674976507696395,36.9245200792691,26500,2018-04-02 06:27:18,1714.7656310724963,87.8000028096,0.35999970196000003,0.7615230243687361,1715.265631088496,88.3000028256,0.7199994039200001,0.7615230243687361,781,0.0,97,P-GPS,
0.37674989892854704,36.9245198045385,26600,2018-04-02 06:27:18,1714.665631069296,87.70000280640001,0.35999970196000003,0.792119025347808,1715.265631088496,88.3000028256,0.7199994039200001,0.792119025347808,785,0.0,97,P-GPS,
0.37675003029390297,36.9245195258251,26700,2018-04-02 06:27:18,1714.665631069296,87.70000280640001,0.35999970196000003,0.8230530263376961,1715.265631088496,88.3000028256,0.7199994039200001,0.8230530263376961,787,0.0,97,P-GPS,
0.37675010694883293,36.9245192767145,26800,2018-04-02 06:27:18,1714.565631066096,87.60000280319998,0.35999970196000003,0.84748502711952,1715.265631088496,88.3000028256,0.7199994039200001,0.84748502711952,788,0.0,97,P-GPS,
0.37675018801562504,36.9245190353991,26900,2018-04-02 06:27:18,1714.4656310628961,87.50000280000002,0.35999970196000003,0.8719820279034239,1715.265631088496,88.3000028256,0.7199994039200001,0.8719820279034239,787,0.0,97,P-GPS,
0.37675024488170294,36.9245188119439,27000,2018-04-02 06:27:18,1714.4656310628961,87.50000280000002,0.35999970196000003,0.8933800285881601,1715.265631088496,88.3000028256,0.7199994039200001,0.8933800285881601,787,0.0,97,P-GPS,
0.376750324760545,36.924518588295896,27100,2018-04-02 06:27:18,1714.3656310596962,87.40000279680001,0.35999970196000003,0.9168650293396802,1715.265631088496,88.3000028256,0.7199994039200001,0.9168650293396802,787,0.0,97,P-GPS,
0.376750367935481,36.9245183879201,27200,2018-04-02 06:27:19,1714.265631056496,87.3000027936,0.0,0.9357750299448001,1715.265631088496,88.3000028256,0.7199994039200001,0.9357750299448001,791,0.0,97,P-GPS,
0.37675044652663103,36.9245181861428,27300,2018-04-02 06:27:19,1714.265631056496,87.3000027936,0.0,0.957752030648064,1715.265631088496,88.3000028256,0.7199994039200001,0.957752030648064,792,0.0,97,P-GPS,
0.3767505394810639,36.924517901592495,27500,2018-04-02 06:27:19,1714.165631053296,87.2000027904,0.0,0.9875230316007361,1715.265631088496,88.3000028256,0.7199994039200001,0.9875230316007361,791,0.0,97,P-GPS,
0.376750545365854,36.9245178152306,27600,2018-04-02 06:27:19,1714.065631050096,87.10000278720001,0.0,0.99488003183616,1715.265631088496,88.3000028256,0.7199994039200001,0.99488003183616,791,0.0,97,P-GPS,
0.37675057516800703,36.924517717989,27700,2018-04-02 06:27:19,1714.065631050096,87.10000278720001,0.0,1.00499003215968,1715.265631088496,88.3000028256,0.7199994039200001,1.00499003215968,791,0.0,97,P-GPS,
0.37675057240087395,36.9245176463889,27800,2018-04-02 06:27:19,1713.9656310468963,87.00000278399999,0.0,1.01056003233792,1715.265631088496,88.3000028256,0.7199994039200001,1.01056003233792,790,0.0,97,P-GPS,
0.37675057890935704,36.9245175790563,27900,2018-04-02 06:27:19,1713.9656310468963,87.00000278399999,0.0,1.01652003252864,1715.265631088496,88.3000028256,0.7199994039200001,1.01652003252864,788,0.0,97,P-GPS,
0.37675056377826294,36.924517529935,28000,2018-04-02 06:27:19,1713.865631043696,86.9000027808,0.0,1.01938003262016,1715.265631088496,88.3000028256,0.7199994039200001,1.01938003262016,788,0.0,97,P-GPS,
0.376750566516084,36.924517500777704,28100,2018-04-02 06:27:19,1713.865631043696,86.9000027808,0.0,1.02197003270304,1715.265631088496,88.3000028256,0.7199994039200001,1.02197003270304,788,0.0,97,P-GPS,
0.37675055268977997,36.924517473887896,28200,2018-04-02 06:27:19,1713.7656310404961,86.80000277760001,0.0,1.02313003274016,1715.265631088496,88.3000028256,0.7199994039200001,1.02313003274016,788,0.0,97,P-GPS,
0.37675053199103603,36.9245174434211,28300,2018-04-02 06:27:20,1713.7656310404961,86.80000277760001,0.0,1.0240900327708802,1715.265631088496,88.3000028256,0.7199994039200001,1.0240900327708802,787,0.0,97,P-GPS,
0.376750499320378,36.924517423478605,28400,2018-04-02 06:27:20,1713.6656310372962,86.7000027744,0.0,1.0233000327456,1715.265631088496,88.3000028256,0.7199994039200001,1.0240900327708802,786,0.0,97,P-GPS,
0.376750453531383,36.9245174260856,28500,2018-04-02 06:27:20,1713.565631034096,86.60000277120001,0.0,1.01968003262976,1715.265631088496,88.3000028256,0.7199994039200001,1.0240900327708802,788,0.0,97,P-GPS,
0.376750402248424,36.9245174299206,28600,2018-04-02 06:27:20,1713.565631034096,86.60000277120001,0.0,1.01557003249824,1715.265631088496,88.3000028256,0.7199994039200001,1.0240900327708802,789,0.0,97,P-GPS,
0.376750344139843,36.9245174504251,28700,2018-04-02 06:27:20,1713.465631030896,86.500002768,0.0,1.0095800323065602,1715.265631088496,88.3000028256,0.7199994039200001,1.0240900327708802,789,0.0,97,P-GPS,
0.376750278345006,36.924517473844,28800,2018-04-02 06:27:20,1713.465631030896,86.500002768,0.0,1.0028000320896,1715.265631088496,88.3000028256,0.7199994039200001,1.0240900327708802,788,0.0,97,P-GPS,
0.3767502087111121,36.924517503828895,28900,2018-04-02 06:27:20,1713.365631027696,86.40000276479999,0.0,0.995202031846464,1715.265631088496,88.3000028256,0.7199994039200001,1.0240900327708802,788,0.0,97,P-GPS,
0.37675013248283507,36.924517533088,29000,2018-04-02 06:27:20,1713.265631024496,86.3000027616,0.0,0.9871990315903679,1715.265631088496,88.3000028256,0.7199994039200001,1.0240900327708802,789,0.0,97,P-GPS,
0.376750064361765,36.924517632294204,29100,2018-04-02 06:27:20,1713.265631024496,86.3000027616,0.0,0.973896031164672,1715.265631088496,88.3000028256,0.7199994039200001,1.0240900327708802,789,0.0,97,P-GPS,
0.3767499882686479,36.924517709923,29200,2018-04-02 06:27:21,1713.165631021296,86.2000027584,0.0,0.9618330307786561,1715.265631088496,88.3000028256,0.7199994039200001,1.0240900327708802,791,0.0,97,P-GPS,
0.376749891561466,36.924517845261605,29300,2018-04-02 06:27:21,1713.165631021296,86.2000027584,0.0,0.9434120301891841,1715.265631088496,88.3000028256,0.7199994039200001,1.0240900327708802,792,0.0,97,P-GPS,
0.376749796278765,36.9245179558463,29400,2018-04-02 06:27:21,1713.065631018096,86.10000275520001,0.0,0.9271790296697281,1715.265631088496,88.3000028256,0.7199994039200001,1.0240900327708802,796,0.0,97,P-GPS,
0.376749730957805,36.9245180969395,29500,2018-04-02 06:27:21,1713.065631018096,86.10000275520001,0.0,0.9105710291382719,1715.265631088496,88.3000028256,0.7199994039200001,1.0240900327708802,796,0.0,97,P-GPS,
0.376749661468029,36.9245182034912,29600,2018-04-02 06:27:21,1712.9656310148962,86.000002752,0.0,0.8965650286900799,1715.265631088496,88.3000028256,0.7199994039200001,1.0240900327708802,892,0.0,97,P-GPS,
0.37674958151997795,36.9245183581011,29700,2018-04-02 06:27:21,1712.9656310148962,86.000002752,0.0,0.877789028089248,1715.265631088496,88.3000028256,0.7199994039200001,1.0240900327708802,1008,0.0,97,P-GPS,
0.376749495803978,36.924518488748205,29800,2018-04-02 06:27:21,1712.8656310116962,85.9000027488,0.35999970196000003,0.860599027539168,1715.265631088496,88.3000028256,0.7199994039200001,1.0240900327708802,1024,0.0,97,P-GPS,
0.376749444963957,36.924518680282794,29900,2018-04-02 06:27:21,1712.8656310116962,85.9000027488,0.35999970196000003,0.8409980269119361,1715.265631088496,88.3000028256,0.7199994039200001,1.0240900327708802,1024,0.0,97,P-GPS,
0.37674941080938,36.9245188227272,30000,2018-04-02 06:27:21,1712.8656310116962,85.9000027488,0.0,0.826778026456896,1715.265631088496,88.3000028256,0.7199994039200001,1.0240900327708802,1024,0.0,97,P-GPS,
0.376749348233569,36.9245190146312,30100,2018-04-02 06:27:21,1712.8656310116962,85.9000027488,0.0,0.8064730258071361,1715.265631088496,88.3000028256,0.7199994039200001,1.0240900327708802,1024,0.0,97,P-GPS,
0.37674927912892,36.9245191569342,30200,2018-04-02 06:27:21,1712.8656310116962,85.9000027488,0.0,0.789734025271488,1715.265631088496,88.3000028256,0.7199994039200001,1.0240900327708802,1024,0.0,97,P-GPS,
0.37674921453913107,36.9245193597681,30300,2018-04-02 06:27:22,1712.8656310116962,85.9000027488,0.0,0.768593024594976,1715.265631088496,88.3000028256,0.7199994039200001,1.0240900327708802,1024,0.0,97,P-GPS,
0.376749137768175,36.924519498476,30400,2018-04-02 06:27:22,1712.8656310116962,85.9000027488,0.0,0.751647024052704,1715.265631088496,88.3000028256,0.7199994039200001,1.0240900327708802,1024,0.0,97,P-GPS,
0.376749064311101,36.924519643771504,30500,2018-04-02 06:27:22,1712.8656310116962,85.9000027488,0.0,0.7344840235034881,1715.265631088496,88.3000028256,0.7199994039200001,1.0240900327708802,1024,0.0,97,P-GPS,
0.376748985944677,36.9245197263679,30600,2018-04-02 06:27:22,1712.8656310116962,85.9000027488,0.0,0.7218320230986239,1715.265631088496,88.3000028256,0.7199994039200001,1.0240900327708802,1024,0.0,97,P-GPS,
0.376748896227997,36.924519849988606,30700,2018-04-02 06:27:22,1712.8656310116962,85.9000027488,0.0,0.705093022562976,1715.265631088496,88.3000028256,0.7199994039200001,1.0240900327708802,1024,0.0,97,P-GPS,
0.37674882287962297,36.9245199301697,30800,2018-04-02 06:27:22,1712.9656310148962,86.000002752,0.0,0.6930300221769601,1715.265631088496,88.3000028256,0.7199994039200001,1.0240900327708802,1024,0.0,97,P-GPS,
0.37674878999848904,36.9245200858085,30900,2018-04-02 06:27:22,1712.9656310148962,86.000002752,0.0,0.678438021710016,1715.265631088496,88.3000028256,0.7199994039200001,1.0240900327708802,1024,0.0,97,P-GPS,
0.37674876356965703,36.9245201917992,31000,2018-04-02 06:27:22,1712.9656310148962,86.000002752,0.0,0.668256021384192,1715.265631088496,88.3000028256,0.7199994039200001,1.0240900327708802,1024,0.0,97,P-GPS,
0.376748747768865,36.9245203745755,31100,2018-04-02 06:27:22,1712.9656310148962,86.000002752,0.0,0.653334020906688,1715.265631088496,88.3000028256,0.7199994039200001,1.0240900327708802,1024,0.0,97,P-GPS,
0.37674871358701095,36.9245204923356,31200,2018-04-02 06:27:23,1712.9656310148962,86.000002752,0.0,0.6418570205394241,1715.265631088496,88.3000028256,0.7199994039200001,1.0240900327708802,1024,0.0,97,P-GPS,
0.3767487040023971,36.92452063301929,31300,2018-04-02 06:27:23,1712.9656310148962,86.000002752,0.0,0.630924020189568,1715.265631088496,88.3000028256,0.7199994039200001,1.0240900327708802,1024,0.0,97,P-GPS,
