latitude,longitude,time_millisecond,datetime_utc,altitude_m,ascent_m,speed_kph,distance_m,max_altitude_m,max_ascent_m,max_speed_kph,max_distance_m,rc_throttle,gimbal_pitch_degrees,battery_percent,flycState,message
0.339149278723249,36.9100263847798,0,2018-04-06 07:17:53,1646.277640580872,0.0,0.0,0.0,1646.277640580872,0.0,0.0,0.0,364,0.0,99,Motors_Started,
0.339149275065763,36.9100264191215,100,2018-04-06 07:17:53,1646.277640580872,0.0,0.0,0.0038405301228969604,1646.277640580872,0.0,0.0,0.0038405301228969604,364,0.0,99,Motors_Started,
0.33914927128126005,36.910026445597296,200,2018-04-06 07:17:53,1646.277640580872,0.0,0.0,0.0068136002180352,1646.277640580872,0.0,0.0,0.0068136002180352,364,0.0,99,Motors_Started,
0.339149269182195,36.9100264634945,300,2018-04-06 07:17:53,1646.277640580872,0.0,0.0,0.00881747028215904,1646.277640580872,0.0,0.0,0.00881747028215904,364,0.0,99,Motors_Started,
0.339149267346939,36.910026496209895,400,2018-04-06 07:17:53,1646.277640580872,0.0,0.0,0.012455900398588802,1646.277640580872,0.0,0.0,0.012455900398588802,364,0.0,99,Motors_Started,Setting new Return-To-Home altitude to 30m (98 ft). Setting new Maximum Flight Altitude to 150m (492 ft)
0.339149266075124,36.9100265311907,500,2018-04-06 07:17:53,1646.277640580872,0.0,0.0,0.016342100522947198,1646.277640580872,0.0,0.0,0.016342100522947198,364,0.0,99,Motors_Started,
0.33914926460626804,36.910026556764706,600,2018-04-06 07:17:53,1646.277640580872,0.0,0.0,0.0191898006140736,1646.277640580872,0.0,0.0,0.0191898006140736,364,0.0,99,Motors_Started,
0.33914926283289193,36.91002657424411,700,2018-04-06 07:17:53,1646.277640580872,0.0,0.0,0.021143200676582402,1646.277640580872,0.0,0.0,0.021143200676582402,364,0.0,99,Motors_Started,
0.339149262271079,36.9100266067494,800,2018-04-06 07:17:53,1646.277640580872,0.0,0.0,0.0247516007920512,1646.277640580872,0.0,0.0,0.0247516007920512,449,0.0,99,Motors_Started,
0.339149260058024,36.9100266423752,900,2018-04-06 07:17:53,1646.277640580872,0.0,0.0,0.0287208009190656,1646.277640580872,0.0,0.0,0.0287208009190656,949,0.0,99,Motors_Started,
0.33914928810959993,36.9100266669249,1000,2018-04-06 07:17:54,1646.277640580872,0.0,0.0,0.031393101004579205,1646.277640580872,0.0,0.0,0.031393101004579205,1024,0.0,99,Motors_Started,
0.33914931418587396,36.910026684255,1100,2018-04-06 07:17:54,1646.277640580872,0.0,0.0,0.0335356010731392,1646.277640580872,0.0,0.0,0.0335356010731392,1024,0.0,99,Motors_Started,
0.339149337456338,36.9100267136532,1200,2018-04-06 07:17:54,1646.277640580872,0.0,0.0,0.0371507011888224,1646.277640580872,0.0,0.0,0.0371507011888224,1024,0.0,99,Motors_Started,
0.339149352289835,36.910026750103704,1300,2018-04-06 07:17:54,1646.277640580872,0.0,0.0,0.0414411013261152,1646.277640580872,0.0,0.0,0.0414411013261152,1024,0.0,99,Motors_Started,
0.339149377195257,36.910026786935205,1500,2018-04-06 07:17:54,1646.277640580872,0.0,0.0,0.04604250147336001,1646.277640580872,0.0,0.0,0.04604250147336001,1024,0.0,99,Assisted_Takeoff,
0.339149376999844,36.9100267910256,1600,2018-04-06 07:17:54,1646.277640580872,0.0,0.0,0.0464794014873408,1646.277640580872,0.0,0.0,0.0464794014873408,1024,0.0,99,Assisted_Takeoff,
0.339149381710932,36.910026794334996,1700,2018-04-06 07:17:54,1646.277640580872,0.0,0.0,0.0469622015027904,1646.277640580872,0.0,0.0,0.0469622015027904,1024,0.0,99,Assisted_Takeoff,
0.33914938137058803,36.910026807872796,1800,2018-04-06 07:17:54,1646.277640580872,0.0,0.0,0.048414601549267196,1646.277640580872,0.0,0.0,0.048414601549267196,1024,0.0,99,Assisted_Takeoff,
0.33914938263588895,36.910026832883,1900,2018-04-06 07:17:54,1646.277640580872,0.0,0.0,0.0511533016369056,1646.277640580872,0.0,0.0,0.0511533016369056,1024,0.0,99,Assisted_Takeoff,
0.33914940584447195,36.9100268503619,2000,2018-04-06 07:17:54,1646.277640580872,0.0,0.0,0.0536699017174368,1646.277640580872,0.0,0.0,0.0536699017174368,1024,0.0,99,Assisted_Takeoff,
0.33914943183443896,36.91002686182271,2100,2018-04-06 07:17:55,1646.277640580872,0.0,0.0,0.0557147017828704,1646.277640580872,0.0,0.0,0.0557147017828704,1024,0.0,99,Assisted_Takeoff,
0.33914945753291303,36.9100268641158,2200,2018-04-06 07:17:55,1646.277640580872,0.0,0.0,0.056892301820553604,1646.277640580872,0.0,0.0,0.056892301820553604,1024,0.0,99,Assisted_Takeoff,
0.33914947168571996,36.9100268653085,2300,2018-04-06 07:17:55,1646.277640580872,0.0,0.0,0.057584401842700805,1646.277640580872,0.0,0.0,0.057584401842700805,1031,0.0,99,Assisted_Takeoff,
0.33914948236016995,36.9100268851786,2400,2018-04-06 07:17:55,1646.277640580872,0.0,0.0,0.0600779019224928,1646.277640580872,0.0,0.0,0.0600779019224928,1031,0.0,99,Assisted_Takeoff,
0.339149487994587,36.910026911656296,2500,2018-04-06 07:17:55,1646.277640580872,0.0,0.0,0.06304350201739199,1646.277640580872,0.0,0.0,0.06304350201739199,1081,0.0,99,Assisted_Takeoff,
0.33914948847497806,36.910026930376794,2600,2018-04-06 07:17:55,1646.277640580872,0.0,0.0,0.065002002080064,1646.277640580872,0.0,0.0,0.065002002080064,1102,0.0,99,Assisted_Takeoff,
0.33914948939342,36.9100269422027,2700,2018-04-06 07:17:55,1646.277640580872,0.0,0.0,0.0662672021205504,1646.277640580872,0.0,0.0,0.0662672021205504,1106,0.0,99,Assisted_Takeoff,
0.33914948557634694,36.91002694654821,2800,2018-04-06 07:17:55,1646.277640580872,0.0,0.0,0.0665716021302912,1646.277640580872,0.0,0.0,0.0665716021302912,1122,0.0,99,Assisted_Takeoff,
0.339149482457877,36.910026948737396,2900,2018-04-06 07:17:55,1646.277640580872,0.0,0.0,0.066681502133808,1646.277640580872,0.0,0.0,0.066681502133808,1146,0.0,99,Assisted_Takeoff,
0.33914947864406103,36.9100269439628,3000,2018-04-06 07:17:56,1646.277640580872,0.0,0.0,0.0660384021132288,1646.277640580872,0.0,0.0,0.066681502133808,1155,0.0,99,Assisted_Takeoff,
0.33914947470974105,36.910026940409296,3100,2018-04-06 07:17:56,1646.277640580872,0.0,0.0,0.0655196020966272,1646.277640580872,0.0,0.0,0.066681502133808,1166,0.0,99,Assisted_Takeoff,
0.33914949575737896,36.9100269583432,3200,2018-04-06 07:17:56,1646.277640580872,0.0,0.0,0.0681964021822848,1646.277640580872,0.0,0.0,0.0681964021822848,1194,0.0,99,Assisted_Takeoff,
0.339149522335214,36.910026982467706,3300,2018-04-06 07:17:56,1646.277640580872,0.0,0.0,0.07177450229678402,1646.277640580872,0.0,0.0,0.07177450229678402,1215,0.0,99,Assisted_Takeoff,
0.33914955028257,36.910027004704794,3400,2018-04-06 07:17:56,1646.277640580872,0.0,0.0,0.0752626024084032,1646.277640580872,0.0,0.0,0.0752626024084032,1226,0.0,99,Assisted_Takeoff,
0.339149574619665,36.9100270224866,3500,2018-04-06 07:17:56,1646.277640580872,0.0,0.0,0.078178002501696,1646.277640580872,0.0,0.0,0.078178002501696,1238,0.0,99,Assisted_Takeoff,
0.339149622165344,36.9100270415434,3600,2018-04-06 07:17:56,1646.277640580872,0.0,0.0,0.0824183026373856,1646.277640580872,0.0,0.0,0.0824183026373856,1253,0.0,99,Assisted_Takeoff,
0.339149740416434,36.910027063578504,3700,2018-04-06 07:17:56,1646.277640580872,0.0,0.0,0.091291502921328,1646.277640580872,0.0,0.0,0.091291502921328,1262,0.0,99,P-GPS,
0.339149987881297,36.910027070897605,3800,2018-04-06 07:17:56,1646.277640580872,0.0,0.7199994039200001,0.10973100351139199,1646.277640580872,0.0,0.7199994039200001,0.10973100351139199,1259,0.0,99,P-GPS,
0.33915026054796005,36.910027061373,3900,2018-04-06 07:17:56,1646.277640580872,0.0,0.7199994039200001,0.13259900424316803,1646.277640580872,0.0,0.7199994039200001,0.13259900424316803,1254,0.0,99,P-GPS,
0.339150504200636,36.9100270419304,4000,2018-04-06 07:17:57,1646.377640584072,0.10000000320000002,0.35999970196000003,0.154638004948416,1646.377640584072,0.10000000320000002,0.7199994039200001,0.154638004948416,1257,0.0,99,P-GPS,
0.339150698713386,36.910027017970705,4100,2018-04-06 07:17:57,1646.377640584072,0.10000000320000002,0.35999970196000003,0.17289900553276802,1646.377640584072,0.10000000320000002,0.7199994039200001,0.17289900553276802,1257,0.0,99,P-GPS,
0.33915086863500393,36.9100269469917,4200,2018-04-06 07:17:57,1646.477640587272,0.20000000640000004,0.0,0.187536006001152,1646.477640587272,0.20000000640000004,0.7199994039200001,0.187536006001152,1255,0.0,99,P-GPS,
0.33915100236771,36.91002686071,4300,2018-04-06 07:17:57,1646.5776405904721,0.3000000096,0.0,0.198852006363264,1646.5776405904721,0.3000000096,0.7199994039200001,0.198852006363264,1255,0.0,99,P-GPS,
0.339151121965523,36.91002679992229,4400,2018-04-06 07:17:57,1646.677640593672,0.4000000128000001,0.35999970196000003,0.21011400672364802,1646.677640593672,0.4000000128000001,0.7199994039200001,0.21011400672364802,1262,0.0,99,P-GPS,
0.339151202586528,36.9100267576218,4500,2018-04-06 07:17:57,1646.7776405968718,0.500000016,0.0,0.21792600697363199,1646.7776405968718,0.500000016,0.7199994039200001,0.21792600697363199,1259,0.0,99,P-GPS,Home Point Recorded. RTH Altitude:  30m.
0.33915126742139695,36.910026708290204,4600,2018-04-06 07:17:57,1646.8776406000718,0.6000000192,0.0,0.224062007169984,1646.8776406000718,0.6000000192,0.7199994039200001,0.224062007169984,1258,0.0,99,P-GPS,
0.339151329147567,36.910026653710496,4700,2018-04-06 07:17:57,1646.977640603272,0.7000000224000001,0.0,0.229973007359136,1646.977640603272,0.7000000224000001,0.7199994039200001,0.229973007359136,1258,0.0,99,P-GPS,
0.33915139103169606,36.9100266011442,4800,2018-04-06 07:17:57,1647.077640606472,0.8000000256000002,0.0,0.23613100755619199,1647.077640606472,0.8000000256000002,0.7199994039200001,0.23613100755619199,1257,0.0,99,P-GPS,
0.33915145437002503,36.910026547385,4900,2018-04-06 07:17:57,1647.177640609672,0.9000000288000001,0.0,0.24262000776384002,1647.177640609672,0.9000000288000001,0.7199994039200001,0.24262000776384002,1257,0.0,99,P-GPS,
0.33915153977377005,36.910026495711705,5000,2018-04-06 07:17:58,1647.277640612872,1.000000032,0.0,0.25174500805584,1647.277640612872,1.000000032,0.7199994039200001,0.25174500805584,1257,0.0,99,P-GPS,
0.33915162246290004,36.910026434535105,5100,2018-04-06 07:17:58,1647.377640616072,1.1000000352,0.0,0.260697008342304,1647.377640616072,1.1000000352,0.7199994039200001,0.260697008342304,1252,0.0,99,P-GPS,
0.33915166361856497,36.9100263894315,5200,2018-04-06 07:17:58,1647.477640619272,1.2000000384,0.0,0.26521500848688,1647.477640619272,1.2000000384,0.7199994039200001,0.26521500848688,1253,0.0,99,P-GPS,
0.339151682920511,36.9100263570233,5300,2018-04-06 07:17:58,1647.577640622472,1.3000000416000002,0.0,0.26737900855612806,1647.577640622472,1.3000000416000002,0.7199994039200001,0.26737900855612806,1253,0.0,99,P-GPS,
0.339151699761879,36.9100263659656,5400,2018-04-06 07:17:58,1647.777640628872,1.5000000480000002,0.0,0.269242008615744,1647.777640628872,1.5000000480000002,0.7199994039200001,0.269242008615744,1251,0.0,99,P-GPS,
0.339151720351925,36.9100263646925,5500,2018-04-06 07:17:58,1647.877640632072,1.6000000512000003,0.0,0.27153300868905605,1647.877640632072,1.6000000512000003,0.7199994039200001,0.27153300868905605,1251,0.0,99,P-GPS,
0.33915172843715,36.910026352399896,5600,2018-04-06 07:17:58,1647.9776406352719,1.7000000544000002,0.0,0.27244700871830396,1647.9776406352719,1.7000000544000002,0.7199994039200001,0.27244700871830396,1256,0.0,99,P-GPS,
0.33915172027376006,36.910026318751896,5700,2018-04-06 07:17:58,1648.077640638472,1.8000000576000001,0.0,0.27161500869168,1648.077640638472,1.8000000576000001,0.7199994039200001,0.27244700871830396,1262,0.0,99,P-GPS,
0.339151702232229,36.9100262781933,5800,2018-04-06 07:17:58,1648.177640641672,1.9000000607999998,0.0,0.269769008632608,1648.177640641672,1.9000000607999998,0.7199994039200001,0.27244700871830396,1265,0.0,99,P-GPS,
0.339151669583555,36.9100262305942,5900,2018-04-06 07:17:58,1648.277640644872,2.000000064,0.0,0.266431008525792,1648.277640644872,2.000000064,0.7199994039200001,0.27244700871830396,1269,0.0,99,P-GPS,
0.33915163380826896,36.910026159132,6000,2018-04-06 07:17:59,1648.377640648072,2.1000000672,0.0,0.263099008419168,1648.377640648072,2.1000000672,0.7199994039200001,0.27244700871830396,1274,0.0,99,P-GPS,
0.339151600104364,36.910026087580704,6100,2018-04-06 07:17:59,1648.4776406512722,2.2000000704,0.0,0.260259008328288,1648.4776406512722,2.2000000704,0.7199994039200001,0.27244700871830396,1305,0.0,99,P-GPS,
0.33915161474733196,36.910026000729296,6300,2018-04-06 07:17:59,1648.7776406608718,2.50000008,0.0,0.263267008424544,1648.7776406608718,2.50000008,0.7199994039200001,0.27244700871830396,1302,0.0,99,P-GPS,
0.339151636275362,36.9100259868856,6400,2018-04-06 07:17:59,1648.877640664072,2.6000000832000003,0.0,0.265882008508224,1648.877640664072,2.6000000832000003,0.7199994039200001,0.27244700871830396,1304,0.0,99,P-GPS,
0.339151644683018,36.9100259784759,6500,2018-04-06 07:17:59,1648.977640667272,2.7000000863999998,0.0,0.26696000854272,1648.977640667272,2.7000000863999998,0.7199994039200001,0.27244700871830396,1306,0.0,99,P-GPS,
0.339151676015909,36.910025964329705,6600,2018-04-06 07:17:59,1649.177640673672,2.9000000928,0.0,0.270663008661216,1649.177640673672,2.9000000928,0.7199994039200001,0.27244700871830396,1330,0.0,99,P-GPS,
0.33915172603682303,36.9100259593789,6700,2018-04-06 07:17:59,1649.2776406768721,3.0000000960000004,0.0,0.276237008839584,1649.2776406768721,3.0000000960000004,0.7199994039200001,0.276237008839584,1369,0.0,99,P-GPS,
0.33915178220022807,36.9100259872281,6800,2018-04-06 07:17:59,1649.4776406832718,3.2000001024000007,0.0,0.28189000902048006,1649.4776406832718,3.2000001024000007,0.7199994039200001,0.28189000902048006,1458,0.0,99,P-GPS,
0.33915182238534103,36.9100260195354,6900,2018-04-06 07:17:59,1649.5776406864718,3.3000001056,0.0,0.28577200914470396,1649.5776406864718,3.3000001056,0.7199994039200001,0.28577200914470396,1484,0.0,99,P-GPS,
0.339151815114338,36.91002608556229,7000,2018-04-06 07:18:00,1649.777640692872,3.500000112,0.0,0.28401800908857605,1649.777640692872,3.500000112,0.7199994039200001,0.28577200914470396,1490,0.0,99,P-GPS,
0.33915179489232106,36.9100261587857,7100,2018-04-06 07:18:00,1649.977640699272,3.7000001184,0.0,0.28094000899008004,1649.977640699272,3.7000001184,0.7199994039200001,0.28577200914470396,1494,0.0,99,P-GPS,
0.339151789098317,36.910026224322294,7200,2018-04-06 07:18:00,1650.177640705672,3.9000001248,0.0,0.279739008951648,1650.177640705672,3.9000001248,0.7199994039200001,0.28577200914470396,1500,0.0,99,P-GPS,
0.339151720394265,36.910026321002896,7400,2018-04-06 07:18:00,1650.777640724872,4.5000001439999995,0.0,0.27162100869187195,1650.777640724872,4.5000001439999995,0.7199994039200001,0.28577200914470396,1524,0.0,99,P-GPS,
0.339151613351755,36.9100263138671,7600,2018-04-06 07:18:00,1651.3776407440719,5.1000001632,0.0,0.25974500831184,1651.3776407440719,5.1000001632,0.7199994039200001,0.28577200914470396,1557,0.0,99,P-GPS,
0.339151552000128,36.9100262346806,7800,2018-04-06 07:18:00,1652.077640766472,5.8000001856,0.0,0.253353008107296,1652.077640766472,5.8000001856,0.7199994039200001,0.28577200914470396,1571,0.0,99,P-GPS,
0.339151524652039,36.9100262217224,7900,2018-04-06 07:18:00,1652.377640776072,6.1000001952,0.0,0.25041800801337605,1652.377640776072,6.1000001952,0.7199994039200001,0.28577200914470396,1600,0.0,99,P-GPS,
0.33915149125590993,36.910026238129,8000,2018-04-06 07:18:00,1652.777640788872,6.500000208,0.0,0.24658700789078403,1652.777640788872,6.500000208,0.7199994039200001,0.28577200914470396,1619,0.0,99,P-GPS,
0.33915145173357397,36.9100262535136,8100,2018-04-06 07:18:01,1653.0776407984722,6.800000217600001,0.0,0.24209200774694403,1653.0776407984722,6.800000217600001,0.7199994039200001,0.28577200914470396,1627,0.0,99,P-GPS,
0.339151420221554,36.9100262887546,8200,2018-04-06 07:18:01,1653.477640811272,7.200000230400001,0.0,0.23838700762838402,1653.477640811272,7.200000230400001,0.7199994039200001,0.28577200914470396,1640,0.0,99,P-GPS,
0.3391513832363339,36.9100263151133,8300,2018-04-06 07:18:01,1653.8776408240722,7.600000243199999,0.0,0.23416300749321603,1653.8776408240722,7.600000243199999,0.7199994039200001,0.28577200914470396,1658,0.0,99,P-GPS,
0.33915137144314306,36.9100263197925,8400,2018-04-06 07:18:01,1654.277640836872,8.000000256,0.0,0.23283500745072,1654.277640836872,8.000000256,0.7199994039200001,0.28577200914470396,1669,0.0,99,P-GPS,
0.33915138700129704,36.9100263067108,8500,2018-04-06 07:18:01,1654.777640852872,8.500000272000001,0.0,0.23461400750764802,1654.777640852872,8.500000272000001,0.7199994039200001,0.28577200914470396,1675,0.0,99,P-GPS,
0.33915144726675206,36.9100263119123,8600,2018-04-06 07:18:01,1655.177640865672,8.9000002848,0.35999970196000003,0.24129100772131198,1655.177640865672,8.9000002848,0.7199994039200001,0.28577200914470396,1684,0.0,99,P-GPS,
0.339151516164589,36.9100263551716,8700,2018-04-06 07:18:01,1655.6776408816718,9.400000300800002,0.35999970196000003,0.24883900796284805,1655.6776408816718,9.400000300800002,0.7199994039200001,0.28577200914470396,1684,0.0,99,P-GPS,
0.339151623799852,36.9100263934976,8800,2018-04-06 07:18:01,1656.0776408944719,9.8000003136,0.35999970196000003,0.26078900834524804,1656.0776408944719,9.8000003136,0.7199994039200001,0.28577200914470396,1684,0.0,99,P-GPS,
0.339151709537429,36.910026390626996,8900,2018-04-06 07:18:01,1656.5776409104722,10.300000329600001,0.0,0.270322008650304,1656.5776409104722,10.300000329600001,0.7199994039200001,0.28577200914470396,1684,0.0,99,P-GPS,
0.339151770156256,36.9100263832543,9000,2018-04-06 07:18:02,1657.077640926472,10.800000345599999,0.0,0.27706300886601604,1657.077640926472,10.800000345599999,0.7199994039200001,0.28577200914470396,1684,0.0,99,P-GPS,
0.339151791723369,36.910026419628004,9100,2018-04-06 07:18:02,1657.5776409424718,11.3000003616,0.0,0.27948800894361603,1657.5776409424718,11.3000003616,0.7199994039200001,0.28577200914470396,1684,0.0,99,P-GPS,
0.33915179401133194,36.910026489587494,9200,2018-04-06 07:18:02,1658.077640958472,11.8000003776,0.35999970196000003,0.279958008958656,1658.077640958472,11.8000003776,0.7199994039200001,0.28577200914470396,1684,0.0,99,P-GPS,
0.339151819467169,36.9100266647025,9400,2018-04-06 07:18:02,1659.077640990472,12.800000409600003,0.35999970196000003,0.284256009096192,1659.077640990472,12.800000409600003,0.7199994039200001,0.28577200914470396,1684,0.0,99,P-GPS,
0.339151854021122,36.9100267613659,9500,2018-04-06 07:18:02,1659.577641006472,13.3000004256,0.35999970196000003,0.289434009261888,1659.577641006472,13.3000004256,0.7199994039200001,0.289434009261888,1684,0.0,99,P-GPS,
0.339151893113549,36.9100268648224,9600,2018-04-06 07:18:02,1660.077641022472,13.8000004416,0.35999970196000003,0.295596009459072,1660.077641022472,13.8000004416,0.7199994039200001,0.295596009459072,1684,0.0,99,P-GPS,
0.339151911273956,36.910026963918206,9700,2018-04-06 07:18:02,1660.577641038472,14.300000457600001,0.0,0.299756009592192,1660.577641038472,14.300000457600001,0.7199994039200001,0.299756009592192,1684,0.0,99,P-GPS,
0.3391519403514519,36.9100270586611,9800,2018-04-06 07:18:02,1661.0776410544718,14.8000004736,0.0,0.305328009770496,1661.0776410544718,14.8000004736,0.7199994039200001,0.305328009770496,1684,0.0,99,P-GPS,
0.339151943694648,36.9100271433948,9900,2018-04-06 07:18:02,1661.577641070472,15.3000004896,0.0,0.308134009860288,1661.577641070472,15.3000004896,0.7199994039200001,0.308134009860288,1684,0.0,99,P-GPS,
0.339151914793024,36.9100272668852,10000,2018-04-06 07:18:03,1662.0776410864719,15.8000005056,0.0,0.30912400989196803,1662.0776410864719,15.8000005056,0.7199994039200001,0.30912400989196803,1684,0.0,99,P-GPS,
0.339151845346401,36.910027399334396,10100,2018-04-06 07:18:03,1662.577641102472,16.3000005216,0.0,0.30691300982121605,1662.577641102472,16.3000005216,0.7199994039200001,0.30912400989196803,1684,0.0,99,P-GPS,
0.33915172420156703,36.9100275513703,10200,2018-04-06 07:18:03,1663.077641118472,16.8000005376,0.0,0.30131000964192,1663.077641118472,16.8000005376,0.7199994039200001,0.30912400989196803,1684,0.0,99,P-GPS,
0.339151603022535,36.9100276693628,10300,2018-04-06 07:18:03,1663.577641134472,17.3000005536,0.0,0.295324009450368,1663.577641134472,17.3000005536,0.7199994039200001,0.30912400989196803,1684,0.0,99,P-GPS,
0.339151526358649,36.9100277646437,10400,2018-04-06 07:18:03,1664.077641150472,17.8000005696,0.0,0.293294009385408,1664.077641150472,17.8000005696,0.7199994039200001,0.30912400989196803,1684,0.0,99,P-GPS,
0.33915147100946597,36.9100278447298,10500,2018-04-06 07:18:03,1664.5776411664722,18.3000005856,0.0,0.292907009373024,1664.5776411664722,18.3000005856,0.7199994039200001,0.30912400989196803,1684,0.0,99,P-GPS,
0.339151401689862,36.9100281341067,10700,2018-04-06 07:18:03,1665.5776411984718,19.300000617600002,0.0,0.3059080097890561,1665.5776411984718,19.300000617600002,0.7199994039200001,0.30912400989196803,1684,0.0,99,P-GPS,
0.339151310016607,36.910028414786,10900,2018-04-06 07:18:03,1666.577641230472,20.3000006496,0.0,0.31935601021939203,1666.577641230472,20.3000006496,0.7199994039200001,0.31935601021939203,1684,0.0,99,P-GPS,
0.33915126527836503,36.9100285397065,11000,2018-04-06 07:18:04,1667.077641246472,20.800000665600002,0.0,0.32593001042976005,1667.077641246472,20.800000665600002,0.7199994039200001,0.32593001042976005,1684,0.0,99,P-GPS,
0.33915121578669505,36.9100286389864,11100,2018-04-06 07:18:04,1667.677641265672,21.400000684800002,0.0,0.33051801057657604,1667.677641265672,21.400000684800002,0.7199994039200001,0.33051801057657604,1684,0.0,99,P-GPS,
0.33915118073606604,36.9100287116767,11200,2018-04-06 07:18:04,1668.1776412816719,21.900000700799996,0.0,0.33420901069468806,1668.1776412816719,21.900000700799996,0.7199994039200001,0.33420901069468806,1684,0.0,99,P-GPS,
0.339151189790215,36.910028740905105,11300,2018-04-06 07:18:04,1668.677641297672,22.400000716800005,0.0,0.33736501079568,1668.677641297672,22.400000716800005,0.7199994039200001,0.33736501079568,1684,0.0,99,P-GPS,
0.339151230217966,36.910028748145706,11400,2018-04-06 07:18:04,1669.177641313672,22.900000732800002,0.0,0.340836010906752,1669.177641313672,22.900000732800002,0.7199994039200001,0.340836010906752,1684,0.0,99,P-GPS,
0.339151266558322,36.910028732369106,11500,2018-04-06 07:18:04,1669.777641332872,23.500000752000002,0.0,0.342083010946656,1669.777641332872,23.500000752000002,0.7199994039200001,0.342083010946656,1684,0.0,99,P-GPS,
0.339151283559277,36.9100287253126,11600,2018-04-06 07:18:04,1670.2776413488718,24.000000768000003,0.0,0.342711010966752,1670.2776413488718,24.000000768000003,0.7199994039200001,0.342711010966752,1684,0.0,99,P-GPS,
0.33915132568223805,36.9100287610953,11800,2018-04-06 07:18:04,1671.277641380872,25.000000800000002,0.0,0.348782011161024,1671.277641380872,25.000000800000002,0.7199994039200001,0.348782011161024,1684,0.0,99,P-GPS,
0.33915138973708303,36.9100288204487,12000,2018-04-06 07:18:05,1672.277641412872,26.000000832,0.0,0.35843301146985607,1672.277641412872,26.000000832,0.7199994039200001,0.35843301146985607,1684,0.0,99,P-GPS,
0.339151437593795,36.9100288178718,12200,2018-04-06 07:18:05,1673.277641444872,27.000000864000004,0.0,0.361727011575264,1673.277641444872,27.000000864000004,0.7199994039200001,0.361727011575264,1684,0.0,99,P-GPS,
0.33915145993930296,36.9100288407335,12300,2018-04-06 07:18:05,1673.777641460872,27.50000088,0.0,0.36527801168889606,1673.777641460872,27.50000088,0.7199994039200001,0.36527801168889606,1684,0.0,99,P-GPS,
0.33915154175884393,36.9100288889524,12500,2018-04-06 07:18:05,1674.777641492872,28.500000912,0.0,0.3753430120109761,1674.777641492872,28.500000912,0.7199994039200001,0.3753430120109761,1684,0.0,99,P-GPS,
0.339151617049952,36.910028919330394,12600,2018-04-06 07:18:05,1675.2776415088722,29.000000928,0.0,0.383484012271488,1675.2776415088722,29.000000928,0.7199994039200001,0.383484012271488,1684,0.0,99,P-GPS,
0.339151668085387,36.9100289559728,12700,2018-04-06 07:18:05,1675.7776415248718,29.500000944,0.0,0.39032901249052804,1675.7776415248718,29.500000944,0.7199994039200001,0.39032901249052804,1684,0.0,99,P-GPS,
0.339151681375118,36.910028988252705,12800,2018-04-06 07:18:05,1676.2776415408716,30.00000096,0.0,0.393967012606944,1676.2776415408716,30.00000096,0.7199994039200001,0.393967012606944,1684,0.0,99,P-GPS,
0.33915166090557697,36.910028976997296,12900,2018-04-06 07:18:05,1676.8776415600719,30.6000009792,0.0,0.39150501252816006,1676.8776415600719,30.6000009792,0.7199994039200001,0.393967012606944,1684,0.0,99,P-GPS,
0.33915163391737496,36.910028933206895,13000,2018-04-06 07:18:06,1677.3776415760717,31.100000995200002,0.0,0.3858900123484801,1677.3776415760717,31.100000995200002,0.7199994039200001,0.393967012606944,1684,0.0,99,P-GPS,
0.33915161935257204,36.9100288857269,13100,2018-04-06 07:18:06,1677.8776415920718,31.6000010112,0.0,0.38092001218944,1677.8776415920718,31.6000010112,0.7199994039200001,0.393967012606944,1684,0.0,99,P-GPS,
0.33915161065179494,36.9100288512959,13200,2018-04-06 07:18:06,1678.3776416080718,32.1000010272,0.0,0.377469012079008,1678.3776416080718,32.1000010272,0.7199994039200001,0.393967012606944,1684,0.0,99,P-GPS,
0.33915160463469496,36.9100288518732,13300,2018-04-06 07:18:06,1678.8776416240717,32.6000010432,0.0,0.37705601206579203,1678.8776416240717,32.6000010432,0.7199994039200001,0.393967012606944,1684,0.0,99,P-GPS,
0.339151727421001,36.910029004936106,13700,2018-04-06 07:18:06,1680.877641688072,34.6000011072,0.0,0.398811012761952,1680.877641688072,34.6000011072,0.7199994039200001,0.398811012761952,1684,0.0,99,P-GPS,
0.339151768044165,36.9100290068935,13800,2018-04-06 07:18:06,1681.377641704072,35.1000011232,0.0,0.402067012866144,1681.377641704072,35.1000011232,0.7199994039200001,0.402067012866144,1684,0.0,99,P-GPS,
0.33915184729564896,36.9100290344298,14000,2018-04-06 07:18:07,1682.4776417392718,36.200001158400006,0.0,0.410379013132128,1682.4776417392718,36.200001158400006,0.7199994039200001,0.410379013132128,1684,0.0,99,P-GPS,
0.339151884209217,36.9100291282311,14200,2018-04-06 07:18:07,1683.4776417712717,37.2000011904,0.0,0.42074701346390403,1683.4776417712717,37.2000011904,0.7199994039200001,0.42074701346390403,1684,0.0,99,P-GPS,
0.33915186692979804,36.910029157779604,14300,2018-04-06 07:18:07,1683.977641787272,37.700001206399996,0.0,0.421823013498336,1683.977641787272,37.700001206399996,0.7199994039200001,0.421823013498336,1684,0.0,99,P-GPS,
0.339151855183831,36.9100291809234,14400,2018-04-06 07:18:07,1684.4776418032718,38.2000012224,0.0,0.42282201353030396,1684.4776418032718,38.2000012224,0.7199994039200001,0.42282201353030396,1684,0.0,99,P-GPS,
0.339151839291846,36.9100291928102,14500,2018-04-06 07:18:07,1684.9776418192716,38.700001238400006,0.0,0.422602013523264,1684.9776418192716,38.700001238400006,0.7199994039200001,0.42282201353030396,1684,0.0,99,P-GPS,
0.33915184242497304,36.9100291953408,14600,2018-04-06 07:18:07,1685.477641835272,39.2000012544,0.0,0.42304401353740806,1685.477641835272,39.2000012544,0.7199994039200001,0.42304401353740806,1684,0.0,99,P-GPS,
0.3391518411987539,36.910029184022,14700,2018-04-06 07:18:07,1686.0776418544717,39.80000127360001,0.0,0.42202301350473603,1686.0776418544717,39.80000127360001,0.7199994039200001,0.42304401353740806,1684,0.0,99,P-GPS,
0.339151863539377,36.910029165561106,14800,2018-04-06 07:18:07,1686.5776418704718,40.3000012896,0.0,0.42219901351036804,1686.5776418704718,40.3000012896,0.7199994039200001,0.42304401353740806,1684,0.0,99,P-GPS,
0.339151889565169,36.9100291594374,14900,2018-04-06 07:18:08,1687.0776418864718,40.8000013056,0.0,0.42367801355769613,1687.0776418864718,40.8000013056,0.7199994039200001,0.42367801355769613,1684,0.0,99,P-GPS,
0.339151921984232,36.9100291792007,15000,2018-04-06 07:18:08,1687.577641902472,41.30000132160001,0.0,0.427751013688032,1687.577641902472,41.30000132160001,0.7199994039200001,0.427751013688032,1684,0.0,99,P-GPS,
0.339151938084658,36.9100292173913,15100,2018-04-06 07:18:08,1688.0776419184717,41.80000133760001,0.0,0.43207001382624,1688.0776419184717,41.80000133760001,0.7199994039200001,0.43207001382624,1684,0.0,99,P-GPS,
0.33915197246273904,36.9100292852871,15200,2018-04-06 07:18:08,1688.5776419344718,42.30000135360001,0.0,0.44019701408630396,1688.5776419344718,42.30000135360001,0.7199994039200001,0.44019701408630396,1684,0.0,99,P-GPS,
0.339151999931333,36.910029355295,15300,2018-04-06 07:18:08,1689.0776419504718,42.800001369600004,0.0,0.447991014335712,1689.0776419504718,42.800001369600004,0.7199994039200001,0.447991014335712,1684,0.0,99,P-GPS,
0.33915215586461606,36.9100295434439,15600,2018-04-06 07:18:08,1690.5776419984718,44.30000141760001,0.0,0.47513401520428805,1690.5776419984718,44.30000141760001,0.7199994039200001,0.47513401520428805,1684,0.0,99,P-GPS,
0.339152217338377,36.910029596669105,15700,2018-04-06 07:18:08,1691.1776420176716,44.9000014368,0.0,0.48411501549168007,1691.1776420176716,44.9000014368,0.7199994039200001,0.48411501549168007,1684,0.0,99,P-GPS,
0.339152415567236,36.9100297655301,16000,2018-04-06 07:18:09,1692.6776420656718,46.4000014848,0.0,0.512862016411584,1692.6776420656718,46.4000014848,0.7199994039200001,0.512862016411584,1684,0.0,99,P-GPS,
0.339152432600761,36.9100298322857,16200,2018-04-06 07:18:09,1693.6776420976719,47.400001516799996,0.0,0.51960501662736,1693.6776420976719,47.400001516799996,0.7199994039200001,0.51960501662736,1684,0.0,99,P-GPS,
0.33915240945242897,36.9100298327782,16300,2018-04-06 07:18:09,1694.1776421136717,47.900001532800005,0.0,0.517912016573184,1694.1776421136717,47.900001532800005,0.7199994039200001,0.51960501662736,1684,0.0,99,P-GPS,
0.33915240848513295,36.9100298640424,16400,2018-04-06 07:18:09,1694.677642129672,48.4000015488,0.0,0.5204190166534081,1694.677642129672,48.4000015488,0.7199994039200001,0.5204190166534081,1684,0.0,98,P-GPS,
0.339152523785482,36.9100299748657,16600,2018-04-06 07:18:09,1695.7776421648716,49.500001584,0.0,0.538158017221056,1695.7776421648716,49.500001584,0.7199994039200001,0.538158017221056,1684,0.0,98,P-GPS,
0.33915263820484304,36.9100300474059,16700,2018-04-06 07:18:09,1696.277642180872,50.000001600000004,0.0,0.5526900176860801,1696.277642180872,50.000001600000004,0.7199994039200001,0.5526900176860801,1684,0.0,98,P-GPS,
0.33915278211206706,36.9100301340911,16800,2018-04-06 07:18:09,1696.7776421968717,50.500001616000006,0.0,0.57063501826032,1696.7776421968717,50.500001616000006,0.7199994039200001,0.57063501826032,1684,0.0,98,P-GPS,
0.339152907588562,36.91003020995021,16900,2018-04-06 07:18:10,1697.2776422128718,51.000001632,0.0,0.5863430187629761,1697.2776422128718,51.000001632,0.7199994039200001,0.5863430187629761,1684,0.0,98,P-GPS,
0.339153033892307,36.9100302928422,17000,2018-04-06 07:18:10,1697.7776422288719,51.50000164800001,0.0,0.6027090192866881,1697.7776422288719,51.50000164800001,0.7199994039200001,0.6027090192866881,1684,0.0,98,P-GPS,
0.33915313271280295,36.9100303477129,17100,2018-04-06 07:18:10,1698.3776422480717,52.1000016672,0.0,0.6147350196715201,1698.3776422480717,52.1000016672,0.7199994039200001,0.6147350196715201,1684,0.0,98,P-GPS,
0.33915322013581894,36.9100303908331,17200,2018-04-06 07:18:10,1698.877642264072,52.600001683200006,0.0,0.6249610199987521,1698.877642264072,52.600001683200006,0.7199994039200001,0.6249610199987521,1684,0.0,98,P-GPS,
0.33915326411683394,36.910030418556204,17300,2018-04-06 07:18:10,1699.3776422800718,53.1000016992,0.0,0.63059002017888,1699.3776422800718,53.1000016992,0.7199994039200001,0.63059002017888,1684,0.0,98,P-GPS,
0.339153294940022,36.9100305214296,17500,2018-04-06 07:18:10,1700.3776423120717,54.100001731199995,0.0,0.6411610205171521,1700.3776423120717,54.100001731199995,0.7199994039200001,0.6411610205171521,1684,0.0,98,P-GPS,
0.33915332220180294,36.9100305913024,17600,2018-04-06 07:18:10,1700.877642328072,54.6000017472,0.0,0.6488560207633921,1700.877642328072,54.6000017472,0.7199994039200001,0.6488560207633921,1684,0.0,98,P-GPS,
0.339153334625202,36.9100306523918,17700,2018-04-06 07:18:10,1701.3776423440718,55.1000017632,0.0,0.654722020951104,1701.3776423440718,55.1000017632,0.7199994039200001,0.654722020951104,1684,0.0,98,P-GPS,
0.33915337736371504,36.910030720699794,17800,2018-04-06 07:18:11,1701.8776423600716,55.6000017792,0.0,0.663504021232128,1701.8776423600716,55.6000017792,0.7199994039200001,0.663504021232128,1684,0.0,98,P-GPS,
0.33915354847084,36.9100309342724,18100,2018-04-06 07:18:11,1703.3776424080718,57.100001827199996,0.0,0.6938400222028801,1703.3776424080718,57.100001827199996,0.7199994039200001,0.6938400222028801,1684,0.0,98,P-GPS,
0.339153777855089,36.9100310388738,18300,2018-04-06 07:18:11,1704.377642440072,58.100001859200006,0.0,0.7198570230354241,1704.377642440072,58.100001859200006,0.7199994039200001,0.7198570230354241,1684,0.0,98,P-GPS,
0.33915388135247604,36.9100311135628,18400,2018-04-06 07:18:11,1704.8776424560717,58.60000187520001,0.0,0.733832023482624,1704.8776424560717,58.60000187520001,0.7199994039200001,0.733832023482624,1684,0.0,98,P-GPS,
0.33915394675892896,36.9100311935079,18500,2018-04-06 07:18:11,1705.377642472072,59.1000018912,0.0,0.7452770238488641,1705.377642472072,59.1000018912,0.7199994039200001,0.7452770238488641,1684,0.0,98,P-GPS,
0.33915401764346803,36.9100313171861,18600,2018-04-06 07:18:11,1705.8776424880718,59.6000019072,0.0,0.7606460243406722,1705.8776424880718,59.6000019072,0.7199994039200001,0.7606460243406722,1684,0.0,98,P-GPS,
0.33915405380795194,36.9100314362285,18700,2018-04-06 07:18:11,1706.3776425040717,60.100001923200004,0.0,0.7730040247361281,1706.3776425040717,60.100001923200004,0.7199994039200001,0.7730040247361281,1684,0.0,98,P-GPS,
0.33915408220313,36.9100315559315,18800,2018-04-06 07:18:12,1706.8776425200717,60.600001939200006,0.0,0.784876025116032,1706.8776425200717,60.600001939200006,0.7199994039200001,0.784876025116032,1684,0.0,98,P-GPS,
0.33915404930041904,36.9100317449511,19000,2018-04-06 07:18:12,1707.8776425520718,61.6000019712,0.0,0.797967025534944,1707.8776425520718,61.6000019712,0.7199994039200001,0.797967025534944,1684,0.0,98,P-GPS,
0.33915399049730705,36.9100318288607,19100,2018-04-06 07:18:12,1708.3776425680717,62.1000019872,0.0,0.8006670256213441,1708.3776425680717,62.1000019872,0.7199994039200001,0.8006670256213441,1684,0.0,98,P-GPS,
0.339153959374485,36.910031907515794,19200,2018-04-06 07:18:12,1708.877642584072,62.600002003200004,0.0,0.8050590257618879,1708.877642584072,62.600002003200004,0.7199994039200001,0.8050590257618879,1684,0.0,98,P-GPS,
0.33915393565619795,36.910031947289205,19300,2018-04-06 07:18:12,1709.3776426000718,63.100002019200005,0.0,0.806742025815744,1709.3776426000718,63.100002019200005,0.7199994039200001,0.806742025815744,1684,0.0,98,P-GPS,
0.33915387351314696,36.9100320387911,19500,2018-04-06 07:18:12,1710.4776426352719,64.2000020544,0.0,0.810194025926208,1710.4776426352719,64.2000020544,0.7199994039200001,0.810194025926208,1684,0.0,98,P-GPS,
0.33915384894481204,36.910032090574205,19600,2018-04-06 07:18:12,1710.9776426512717,64.7000020704,0.0,0.8129610260147521,1710.9776426512717,64.7000020704,0.7199994039200001,0.8129610260147521,1684,0.0,98,P-GPS,
0.339153806831622,36.9100321372418,19700,2018-04-06 07:18:12,1711.4776426672718,65.2000020864,0.0,0.814112026051584,1711.4776426672718,65.2000020864,0.7199994039200001,0.814112026051584,1684,0.0,98,P-GPS,
0.339153757344837,36.910032198443105,19800,2018-04-06 07:18:13,1711.9776426832718,65.7000021024,0.35999970196000003,0.816101026115232,1711.9776426832718,65.7000021024,0.7199994039200001,0.816101026115232,1684,0.0,98,P-GPS,
0.33915369633681103,36.910032265044606,19900,2018-04-06 07:18:13,1712.4776426992719,66.20000211840001,0.35999970196000003,0.817887026172384,1712.4776426992719,66.20000211840001,0.7199994039200001,0.817887026172384,1684,0.0,98,P-GPS,
0.33915367030450605,36.910032372762,20000,2018-04-06 07:18:13,1712.9776427152717,66.7000021344,0.35999970196000003,0.82578002642496,1712.9776427152717,66.7000021344,0.7199994039200001,0.82578002642496,1684,0.0,98,P-GPS,
0.339153654506971,36.9100324467685,20100,2018-04-06 07:18:13,1713.477642731272,67.2000021504,0.0,0.8314020266048641,1713.477642731272,67.2000021504,0.7199994039200001,0.8314020266048641,1684,0.0,98,P-GPS,
0.33915366773156397,36.910032510162395,20200,2018-04-06 07:18:13,1713.9776427472718,67.70000216640001,0.0,0.8379830268154562,1713.9776427472718,67.70000216640001,0.7199994039200001,0.8379830268154562,1684,0.0,98,P-GPS,
0.33915365764335403,36.9100325369754,20300,2018-04-06 07:18:13,1714.4776427632717,68.2000021824,0.0,0.839758026872256,1714.4776427632717,68.2000021824,0.7199994039200001,0.839758026872256,1684,0.0,98,P-GPS,
0.33915364524275293,36.9100325656251,20400,2018-04-06 07:18:13,1714.977642779272,68.7000021984,0.0,0.841559026929888,1714.977642779272,68.7000021984,0.7199994039200001,0.841559026929888,1684,0.0,98,P-GPS,
0.33915361987322395,36.9100325818755,20500,2018-04-06 07:18:13,1715.4776427952718,69.2000022144,0.0,0.841414026925248,1715.4776427952718,69.2000022144,0.7199994039200001,0.841559026929888,1684,0.0,98,P-GPS,
0.339153606036335,36.9100326487548,20600,2018-04-06 07:18:13,1715.9776428112718,69.7000022304,0.0,0.84664002709248,1715.9776428112718,69.7000022304,0.7199994039200001,0.84664002709248,1684,0.0,98,P-GPS,
0.339153590299052,36.9100327164216,20700,2018-04-06 07:18:13,1716.4776428272717,70.2000022464,0.0,0.8518560272593922,1716.4776428272717,70.2000022464,0.7199994039200001,0.8518560272593922,1684,0.0,98,P-GPS,
0.3391535752424589,36.9100327872097,20800,2018-04-06 07:18:13,1716.977642843272,70.7000022624,0.0,0.85744002743808,1716.977642843272,70.7000022624,0.7199994039200001,0.85744002743808,1684,0.0,98,P-GPS,
0.33915352937733395,36.9100328307356,20900,2018-04-06 07:18:13,1717.4776428592718,71.2000022784,0.0,0.8586450274766401,1717.4776428592718,71.2000022784,0.7199994039200001,0.8586450274766401,1684,0.0,98,P-GPS,
0.339153476237949,36.9100328960079,21000,2018-04-06 07:18:14,1717.9776428752716,71.7000022944,0.35999970196000003,0.8614970275679039,1717.9776428752716,71.7000022944,0.7199994039200001,0.8614970275679039,1684,0.0,98,P-GPS,
0.33915342380205293,36.9100329577317,21100,2018-04-06 07:18:14,1718.477642891272,72.2000023104,0.35999970196000003,0.8641500276528,1718.477642891272,72.2000023104,0.7199994039200001,0.8641500276528,1684,0.0,98,P-GPS,
0.33915338892566693,36.910033037779606,21200,2018-04-06 07:18:14,1718.9776429072717,72.70000232640001,0.0,0.8696470278287041,1718.9776429072717,72.70000232640001,0.7199994039200001,0.8696470278287041,1684,0.0,98,P-GPS,
0.33915335182808504,36.910033106597204,21300,2018-04-06 07:18:14,1719.4776429232718,73.2000023424,0.0,0.874022027968704,1719.4776429232718,73.2000023424,0.7199994039200001,0.874022027968704,1684,0.0,98,P-GPS,
0.339153326315253,36.9100331819243,21400,2018-04-06 07:18:14,1719.9776429392718,73.7000023584,0.0,0.8797420281517442,1719.9776429392718,73.7000023584,0.7199994039200001,0.8797420281517442,1684,0.0,98,P-GPS,
0.33915323194040903,36.910033306642,21600,2018-04-06 07:18:14,1720.9776429712717,74.7000023904,0.0,0.8864350283659201,1720.9776429712717,74.7000023904,0.7199994039200001,0.8864350283659201,1684,0.0,98,P-GPS,
0.339153176584713,36.9100333591419,21700,2018-04-06 07:18:14,1721.477642987272,75.20000240640002,0.0,0.8884900284316801,1721.477642987272,75.20000240640002,0.7199994039200001,0.8884900284316801,1684,0.0,98,P-GPS,
0.339153156602076,36.9100333812512,21800,2018-04-06 07:18:14,1721.9776430032719,75.7000024224,0.0,0.8895570284658241,1721.9776430032719,75.7000024224,0.7199994039200001,0.8895570284658241,1684,0.0,98,P-GPS,
0.339153159233642,36.910033338359604,22000,2018-04-06 07:18:15,1722.9776430352717,76.70000245439999,0.0,0.885531028336992,1722.9776430352717,76.70000245439999,0.7199994039200001,0.8895570284658241,1684,0.0,98,P-GPS,
0.33915314876763203,36.9100333275009,22100,2018-04-06 07:18:15,1723.4776430512718,77.20000247040001,0.0,0.8839100282851201,1723.4776430512718,77.20000247040001,0.7199994039200001,0.8895570284658241,1684,0.0,98,P-GPS,
0.33915315445252997,36.910033342807495,22200,2018-04-06 07:18:15,1723.9776430672719,77.70000248640001,0.0,0.885704028342528,1723.9776430672719,77.70000248640001,0.7199994039200001,0.8895570284658241,1684,0.0,98,P-GPS,
0.339153143859502,36.910033347451794,22300,2018-04-06 07:18:15,1724.4776430832717,78.20000250240001,0.0,0.8855830283386561,1724.4776430832717,78.20000250240001,0.7199994039200001,0.8895570284658241,1684,0.0,98,P-GPS,
0.33915312475134,36.9100333683829,22400,2018-04-06 07:18:15,1724.977643099272,78.70000251840001,0.0,0.886592028370944,1724.977643099272,78.70000251840001,0.7199994039200001,0.8895570284658241,1684,0.0,98,P-GPS,
0.339153089047705,36.910033378622295,22500,2018-04-06 07:18:15,1725.4776431152718,79.20000253439999,0.0,0.885683028341856,1725.4776431152718,79.20000253439999,0.7199994039200001,0.8895570284658241,1684,0.0,98,P-GPS,
0.33915306852931104,36.910033390946204,22600,2018-04-06 07:18:15,1725.9776431312716,79.70000255040001,0.0,0.8857990283455681,1725.9776431312716,79.70000255040001,0.7199994039200001,0.8895570284658241,1684,0.0,98,P-GPS,
0.33915305715951505,36.9100333681501,22700,2018-04-06 07:18:15,1726.477643147272,80.20000256640002,0.0,0.8829680282549762,1726.477643147272,80.20000256640002,0.7199994039200001,0.8895570284658241,1684,0.0,98,P-GPS,
0.33915307400739697,36.9100333305382,22800,2018-04-06 07:18:15,1726.9776431632718,80.7000025824,0.35999970196000003,0.8801880281660159,1726.9776431632718,80.7000025824,0.7199994039200001,0.8895570284658241,1684,0.0,98,P-GPS,
0.339153091811175,36.9100332801031,22900,2018-04-06 07:18:15,1727.4776431792718,81.2000025984,0.35999970196000003,0.8762270280392641,1727.4776431792718,81.2000025984,0.7199994039200001,0.8895570284658241,1684,0.0,98,P-GPS,
0.339153147088706,36.91003325925921,23000,2018-04-06 07:18:16,1727.9776431952719,81.7000026144,0.0,0.877197028070304,1727.9776431952719,81.7000026144,0.7199994039200001,0.8895570284658241,1218,0.0,98,P-GPS,
0.339153213998213,36.9100332402654,23100,2018-04-06 07:18:16,1728.477643211272,82.20000263040001,0.0,0.879038028129216,1728.477643211272,82.20000263040001,0.7199994039200001,0.8895570284658241,1218,0.0,98,P-GPS,
0.339153322356505,36.910033223204,23200,2018-04-06 07:18:16,1729.0776432304717,82.8000026496,0.0,0.88346502827088,1729.0776432304717,82.8000026496,0.7199994039200001,0.8895570284658241,1024,0.0,98,P-GPS,
0.339153452982141,36.910033189053,23300,2018-04-06 07:18:16,1729.5776432464718,83.3000026656,0.0,0.8877070284066241,1729.5776432464718,83.3000026656,0.7199994039200001,0.8895570284658241,1024,0.0,98,P-GPS,
0.339153578466778,36.910033145668294,23400,2018-04-06 07:18:16,1729.9776432592719,83.70000267840001,0.0,0.8910090285122879,1729.9776432592719,83.70000267840001,0.7199994039200001,0.8910090285122879,1024,0.0,98,P-GPS,
0.339153661043545,36.9100331014454,23500,2018-04-06 07:18:16,1730.277643268872,84.000002688,0.0,0.891848028539136,1730.277643268872,84.000002688,0.7199994039200001,0.891848028539136,1024,0.0,98,P-GPS,
0.33915376551311205,36.9100330914576,23600,2018-04-06 07:18:16,1730.5776432784717,84.30000269760001,0.0,0.8973250287144001,1730.5776432784717,84.30000269760001,0.7199994039200001,0.8973250287144001,1024,0.0,98,P-GPS,
0.339154123099873,36.9100331133978,23900,2018-04-06 07:18:17,1730.8776432880718,84.60000270720002,0.0,0.92201002950432,1730.8776432880718,84.60000270720002,0.7199994039200001,0.92201002950432,1024,0.0,98,P-GPS,
0.33915425523670395,36.91003312912571,24000,2018-04-06 07:18:17,1730.9776432912718,84.70000271040001,0.0,0.932079029826528,1730.9776432912718,84.70000271040001,0.7199994039200001,0.932079029826528,992,0.0,98,P-GPS,
0.339154559210203,36.9100331771006,24200,2018-04-06 07:18:17,1730.9776432912718,84.70000271040001,0.0,0.956744030615808,1730.9776432912718,84.70000271040001,0.7199994039200001,0.956744030615808,823,0.0,98,P-GPS,
0.33915485354982694,36.9100333040651,24400,2018-04-06 07:18:17,1730.9776432912718,84.70000271040001,0.0,0.9881310316201921,1730.9776432912718,84.70000271040001,0.7199994039200001,0.9881310316201921,657,0.0,98,P-GPS,
0.339155021360981,36.910033431291296,24600,2018-04-06 07:18:17,1730.8776432880718,84.60000270720002,0.35999970196000003,1.0108700323478401,1730.9776432912718,84.70000271040001,0.7199994039200001,1.0108700323478401,608,0.0,98,P-GPS,
0.339155024251469,36.9100334512771,24700,2018-04-06 07:18:17,1730.7776432848718,84.500002704,0.35999970196000003,1.0128000324096,1730.9776432912718,84.70000271040001,0.7199994039200001,1.0128000324096,587,0.0,98,P-GPS,
0.339154995042069,36.9100334426564,24800,2018-04-06 07:18:17,1730.6776432816719,84.4000027008,0.7199994039200001,1.01001003232032,1730.9776432912718,84.70000271040001,0.7199994039200001,1.0128000324096,577,0.0,98,P-GPS,
0.33915492882465104,36.9100333789429,24900,2018-04-06 07:18:18,1730.5776432784717,84.30000269760001,0.7199994039200001,0.9998670319957441,1730.9776432912718,84.70000271040001,0.7199994039200001,1.0128000324096,580,0.0,98,P-GPS,
0.339154868432176,36.910033259194996,25000,2018-04-06 07:18:18,1730.3776432720717,84.10000269119999,0.7199994039200001,0.985293031529376,1730.9776432912718,84.70000271040001,0.7199994039200001,1.0128000324096,568,0.0,98,P-GPS,
0.33915482644437606,36.9100328483366,25200,2018-04-06 07:18:18,1729.9776432592719,83.70000267840001,0.503999582744,0.9472340303114879,1730.9776432912718,84.70000271040001,0.7199994039200001,1.0128000324096,550,0.0,98,P-GPS,
0.339154891562595,36.910032550819004,25300,2018-04-06 07:18:18,1729.7776432528717,83.500002672,0.503999582744,0.927239029671648,1730.9776432912718,84.70000271040001,0.7199994039200001,1.0128000324096,554,0.0,98,P-GPS,
0.339155009289325,36.910032250394295,25400,2018-04-06 07:18:18,1729.6776432496717,83.4000026688,0.7919993443119999,0.9119150291812801,1730.9776432912718,84.70000271040001,0.7919993443119999,1.0128000324096,536,0.0,98,P-GPS,
0.339155088405648,36.9100319627179,25500,2018-04-06 07:18:18,1729.4776432432716,83.20000266240001,0.503999582744,0.8956390286604481,1730.9776432912718,84.70000271040001,0.7919993443119999,1.0128000324096,512,0.0,98,P-GPS,
0.33915517520008504,36.9100316758037,25600,2018-04-06 07:18:18,1729.2776432368719,83.000002656,0.7919993443119999,0.8810050281921601,1730.9776432912718,84.70000271040001,0.7919993443119999,1.0128000324096,512,0.0,98,P-GPS,
0.33915525155945303,36.9100314024463,25700,2018-04-06 07:18:18,1729.0776432304717,82.8000026496,0.503999582744,0.8674850277595201,1730.9776432912718,84.70000271040001,0.7919993443119999,1.0128000324096,497,0.0,98,P-GPS,
0.33915558761492604,36.910030665490204,26000,2018-04-06 07:18:19,1728.377643208072,82.10000262720001,0.35999970196000003,0.847839027130848,1730.9776432912718,84.70000271040001,0.7919993443119999,1.0128000324096,479,0.0,98,P-GPS,
0.3391557237789001,36.910030424636204,26100,2018-04-06 07:18:19,1728.1776432016718,81.9000026208,0.35999970196000003,0.8458870270683841,1730.9776432912718,84.70000271040001,0.7919993443119999,1.0128000324096,484,0.0,98,P-GPS,
0.33915588023654203,36.91003021261329,26200,2018-04-06 07:18:19,1727.9776431952719,81.7000026144,0.35999970196000003,0.848611027155552,1730.9776432912718,84.70000271040001,0.7919993443119999,1.0128000324096,480,0.0,98,P-GPS,
0.33915601603900103,36.9100299979198,26300,2018-04-06 07:18:19,1727.7776431888717,81.500002608,0.35999970196000003,0.850169027205408,1730.9776432912718,84.70000271040001,0.7919993443119999,1.0128000324096,479,0.0,98,P-GPS,
0.339156159714986,36.910029792279396,26400,2018-04-06 07:18:19,1727.4776431792718,81.2000025984,0.35999970196000003,0.8538910273245122,1730.9776432912718,84.70000271040001,0.7919993443119999,1.0128000324096,493,0.0,98,P-GPS,
0.33915627835038803,36.9100295749934,26500,2018-04-06 07:18:19,1727.2776431728719,81.000002592,0.35999970196000003,0.855434027373888,1730.9776432912718,84.70000271040001,0.7919993443119999,1.0128000324096,570,0.0,98,P-GPS,
0.33915639820875204,36.9100293714223,26600,2018-04-06 07:18:19,1727.0776431664717,80.80000258560001,0.35999970196000003,0.858572027474304,1730.9776432912718,84.70000271040001,0.7919993443119999,1.0128000324096,1144,0.0,98,P-GPS,
0.33915648018136607,36.9100291915318,26700,2018-04-06 07:18:19,1726.7776431568716,80.500002576,0.35999970196000003,0.8595200275046401,1730.9776432912718,84.70000271040001,0.7919993443119999,1.0128000324096,1024,0.0,98,P-GPS,
0.339156597816903,36.910029037346895,26800,2018-04-06 07:18:19,1726.5776431504719,80.30000256960001,0.35999970196000003,0.8657310277033922,1730.9776432912718,84.70000271040001,0.7919993443119999,1.0128000324096,1024,0.0,98,P-GPS,
0.339156792673255,36.9100289059225,26900,2018-04-06 07:18:19,1726.3776431440717,80.1000025632,0.35999970196000003,0.8813770282040639,1730.9776432912718,84.70000271040001,0.7919993443119999,1.0128000324096,1024,0.0,98,P-GPS,
0.33915721068831506,36.9100287913226,27000,2018-04-06 07:18:20,1726.2776431408718,80.00000256,1.07999910588,0.921786029497152,1730.9776432912718,84.70000271040001,1.07999910588,1.0128000324096,1024,0.0,98,P-GPS,
0.33915764038908897,36.9100287020109,27100,2018-04-06 07:18:20,1726.2776431408718,80.00000256,0.7199994039200001,0.9649130308772161,1730.9776432912718,84.70000271040001,1.07999910588,1.0128000324096,1024,0.0,98,P-GPS,
0.339158020547712,36.910028687394295,27200,2018-04-06 07:18:20,1726.2776431408718,80.00000256,0.35999970196000003,1.0053000321696,1730.9776432912718,84.70000271040001,1.07999910588,1.0128000324096,1024,0.0,98,P-GPS,
0.339158275799795,36.9100287031752,27300,2018-04-06 07:18:20,1726.3776431440717,80.1000025632,0.0,1.03321003306272,1730.9776432912718,84.70000271040001,1.07999910588,1.03321003306272,1024,0.0,98,P-GPS,
0.339158499434009,36.910028743345606,27400,2018-04-06 07:18:20,1726.3776431440717,80.1000025632,0.0,1.05841003386912,1730.9776432912718,84.70000271040001,1.07999910588,1.05841003386912,1024,0.0,98,P-GPS,
0.33915862193533697,36.9100287723505,27500,2018-04-06 07:18:20,1726.3776431440717,80.1000025632,0.0,1.0724100343171201,1730.9776432912718,84.70000271040001,1.07999910588,1.0724100343171201,1024,0.0,98,P-GPS,
0.339158761486474,36.9100287884357,27600,2018-04-06 07:18:20,1726.3776431440717,80.1000025632,0.0,1.08789003481248,1730.9776432912718,84.70000271040001,1.07999910588,1.08789003481248,1024,0.0,98,P-GPS,
0.33915885103135196,36.910028787771395,27700,2018-04-06 07:18:20,1726.477643147272,80.20000256640002,0.0,1.09753003512096,1730.9776432912718,84.70000271040001,1.07999910588,1.09753003512096,1024,0.0,98,P-GPS,
0.339158996363465,36.9100287818233,27800,2018-04-06 07:18:20,1726.477643147272,80.20000256640002,0.0,1.1130500356176,1730.9776432912718,84.70000271040001,1.07999910588,1.1130500356176,1024,0.0,98,P-GPS,
0.33915909734002003,36.9100287588088,27900,2018-04-06 07:18:20,1726.477643147272,80.20000256640002,0.0,1.1233500359472,1730.9776432912718,84.70000271040001,1.07999910588,1.1233500359472,1024,0.0,98,P-GPS,
0.339159247909209,36.9100287595146,28000,2018-04-06 07:18:21,1726.477643147272,80.20000256640002,0.0,1.1396500364688,1730.9776432912718,84.70000271040001,1.07999910588,1.1396500364688,1024,0.0,98,P-GPS,
0.339159338111979,36.9100287831292,28100,2018-04-06 07:18:21,1726.477643147272,80.20000256640002,0.0,1.1500200368006401,1730.9776432912718,84.70000271040001,1.07999910588,1.1500200368006401,1024,0.0,98,P-GPS,
0.339159463961388,36.910028834803796,28200,2018-04-06 07:18:21,1726.477643147272,80.20000256640002,0.0,1.1649700372790401,1730.9776432912718,84.70000271040001,1.07999910588,1.1649700372790401,1024,0.0,98,P-GPS,
0.33915951277236894,36.9100289022535,28300,2018-04-06 07:18:21,1726.477643147272,80.20000256640002,0.0,1.1720200375046401,1730.9776432912718,84.70000271040001,1.07999910588,1.1720200375046401,1024,0.0,98,P-GPS,
0.33915960022958197,36.9100289968717,28400,2018-04-06 07:18:21,1726.477643147272,80.20000256640002,0.0,1.184000037888,1730.9776432912718,84.70000271040001,1.07999910588,1.184000037888,1024,0.0,98,P-GPS,
0.33915962553234497,36.910029105811,28500,2018-04-06 07:18:21,1726.477643147272,80.20000256640002,0.0,1.189750038072,1730.9776432912718,84.70000271040001,1.07999910588,1.189750038072,1024,0.0,98,P-GPS,
0.33915961106524795,36.9100294078428,28700,2018-04-06 07:18:21,1726.477643147272,80.20000256640002,0.35999970196000003,1.19719003831008,1730.9776432912718,84.70000271040001,1.07999910588,1.19719003831008,1024,0.0,98,P-GPS,
0.33915958403633506,36.9100295590776,28800,2018-04-06 07:18:21,1726.3776431440717,80.1000025632,0.35999970196000003,1.1991500383728002,1730.9776432912718,84.70000271040001,1.07999910588,1.1991500383728002,1024,0.0,98,P-GPS,
0.33915950773070597,36.9100296918909,28900,2018-04-06 07:18:21,1726.3776431440717,80.1000025632,0.35999970196000003,1.1955000382560002,1730.9776432912718,84.70000271040001,1.07999910588,1.1991500383728002,1024,0.0,98,P-GPS,
0.339159459238901,36.910029846435,29000,2018-04-06 07:18:22,1726.477643147272,80.20000256640002,0.35999970196000003,1.1957900382652802,1730.9776432912718,84.70000271040001,1.07999910588,1.1991500383728002,1024,0.0,98,P-GPS,
0.339159371081456,36.910029992645995,29100,2018-04-06 07:18:22,1726.477643147272,80.20000256640002,0.35999970196000003,1.19189003814048,1730.9776432912718,84.70000271040001,1.07999910588,1.1991500383728002,1024,0.0,98,P-GPS,
0.339159327807186,36.9100301337196,29200,2018-04-06 07:18:22,1726.3776431440717,80.1000025632,0.35999970196000003,1.192750038168,1730.9776432912718,84.70000271040001,1.07999910588,1.1991500383728002,1024,0.0,98,P-GPS,
0.33915925748446,36.910030239857896,29300,2018-04-06 07:18:22,1726.3776431440717,80.1000025632,0.35999970196000003,1.1896300380681601,1730.9776432912718,84.70000271040001,1.07999910588,1.1991500383728002,1024,0.0,98,P-GPS,
0.33915918910284004,36.910030349814,29400,2018-04-06 07:18:22,1726.3776431440717,80.1000025632,0.35999970196000003,1.18703003798496,1730.9776432912718,84.70000271040001,1.07999910588,1.1991500383728002,1024,0.0,97,P-GPS,
0.339159078746447,36.9100304402549,29500,2018-04-06 07:18:22,1726.3776431440717,80.1000025632,0.35999970196000003,1.1794500377424002,1730.9776432912718,84.70000271040001,1.07999910588,1.1991500383728002,1024,0.0,97,P-GPS,
0.33915898632573604,36.9100305628646,29600,2018-04-06 07:18:22,1726.3776431440717,80.1000025632,0.35999970196000003,1.17528003760896,1730.9776432912718,84.70000271040001,1.07999910588,1.1991500383728002,1024,0.0,97,P-GPS,
0.339158875646912,36.910030657662396,29700,2018-04-06 07:18:22,1726.3776431440717,80.1000025632,0.35999970196000003,1.16823003738336,1730.9776432912718,84.70000271040001,1.07999910588,1.1991500383728002,1024,0.0,97,P-GPS,
0.33915876613405294,36.9100307646015,29800,2018-04-06 07:18:23,1726.3776431440717,80.1000025632,0.35999970196000003,1.1620500371856,1730.9776432912718,84.70000271040001,1.07999910588,1.1991500383728002,1024,0.0,97,P-GPS,
0.33915852748232794,36.9100309333833,30000,2018-04-06 07:18:23,1726.477643147272,80.20000256640002,0.35999970196000003,1.14617003667744,1730.9776432912718,84.70000271040001,1.07999910588,1.1991500383728002,1024,0.0,97,P-GPS,
0.33915840096199995,36.91003098078,30100,2018-04-06 07:18:23,1726.477643147272,80.20000256640002,0.35999970196000003,1.13592003634944,1730.9776432912718,84.70000271040001,1.07999910588,1.1991500383728002,1024,0.0,97,P-GPS,
0.33915826963776297,36.910031065335204,30200,2018-04-06 07:18:23,1726.477643147272,80.20000256640002,0.35999970196000003,1.12721003607072,1730.9776432912718,84.70000271040001,1.07999910588,1.1991500383728002,1024,0.0,97,P-GPS,
0.339158139472977,36.910031143507396,30300,2018-04-06 07:18:23,1726.477643147272,80.20000256640002,0.35999970196000003,1.11848003579136,1730.9776432912718,84.70000271040001,1.07999910588,1.1991500383728002,1024,0.0,97,P-GPS,
0.33915800116760003,36.9100312581228,30400,2018-04-06 07:18:23,1726.477643147272,80.20000256640002,0.35999970196000003,1.1111100355555201,1730.9776432912718,84.70000271040001,1.07999910588,1.1991500383728002,1024,0.0,97,P-GPS,
0.339157861000911,36.9100313693722,30500,2018-04-06 07:18:23,1726.477643147272,80.20000256640002,0.35999970196000003,1.1036900353180799,1730.9776432912718,84.70000271040001,1.07999910588,1.1991500383728002,1024,0.0,97,P-GPS,
0.33915771909993,36.9100315244939,30600,2018-04-06 07:18:23,1726.477643147272,80.20000256640002,0.35999970196000003,1.0989500351664,1730.9776432912718,84.70000271040001,1.07999910588,1.1991500383728002,1024,0.0,97,P-GPS,
0.339157581579463,36.9100316446985,30700,2018-04-06 07:18:23,1726.477643147272,80.20000256640002,0.35999970196000003,1.0930100349763199,1730.9776432912718,84.70000271040001,1.07999910588,1.1991500383728002,1024,0.0,97,P-GPS,
0.339157438650933,36.9100317479778,30800,2018-04-06 07:18:23,1726.477643147272,80.20000256640002,0.35999970196000003,1.08588003474816,1730.9776432912718,84.70000271040001,1.07999910588,1.1991500383728002,1024,0.0,97,P-GPS,
0.339157295782656,36.9100317990874,30900,2018-04-06 07:18:23,1726.477643147272,80.20000256640002,0.35999970196000003,1.07581003442592,1730.9776432912718,84.70000271040001,1.07999910588,1.1991500383728002,1024,0.0,97,P-GPS,
0.33915716867120305,36.910031846307,31000,2018-04-06 07:18:24,1726.477643147272,80.20000256640002,0.35999970196000003,1.0671100341475201,1730.9776432912718,84.70000271040001,1.07999910588,1.1991500383728002,1024,0.0,97,P-GPS,
0.339157060413875,36.9100318824837,31100,2018-04-06 07:18:24,1726.477643147272,80.20000256640002,0.35999970196000003,1.0595500339055999,1730.9776432912718,84.70000271040001,1.07999910588,1.1991500383728002,1024,0.0,97,P-GPS,
0.339156947883509,36.910031942715996,31200,2018-04-06 07:18:24,1726.477643147272,80.20000256640002,0.35999970196000003,1.0532700337046401,1730.9776432912718,84.70000271040001,1.07999910588,1.1991500383728002,1024,0.0,97,P-GPS,
0.33915683015189296,36.910032016642205,31300,2018-04-06 07:18:24,1726.477643147272,80.20000256640002,0.35999970196000003,1.04759003352288,1730.9776432912718,84.70000271040001,1.07999910588,1.1991500383728002,1024,0.0,97,P-GPS,
0.33915657468811305,36.910032237100395,31500,2018-04-06 07:18:24,1726.477643147272,80.20000256640002,0.35999970196000003,1.04012003328384,1730.9776432912718,84.70000271040001,1.07999910588,1.1991500383728002,1024,0.0,97,P-GPS,
0.33915645407252304,36.9100323322445,31600,2018-04-06 07:18:24,1726.3776431440717,80.1000025632,0.35999970196000003,1.03641003316512,1730.9776432912718,84.70000271040001,1.07999910588,1.1991500383728002,1024,0.0,97,P-GPS,
0.339156325500356,36.9100324041584,31700,2018-04-06 07:18:24,1726.3776431440717,80.1000025632,0.35999970196000003,1.03062003297984,1730.9776432912718,84.70000271040001,1.07999910588,1.1991500383728002,1024,0.0,97,P-GPS,
0.33915618362868605,36.910032476118296,31800,2018-04-06 07:18:24,1726.3776431440717,80.1000025632,0.35999970196000003,1.0239500327664,1730.9776432912718,84.70000271040001,1.07999910588,1.1991500383728002,1024,0.0,97,P-GPS,
0.339156037177832,36.910032533425294,31900,2018-04-06 07:18:24,1726.3776431440717,80.1000025632,0.35999970196000003,1.01607003251424,1730.9776432912718,84.70000271040001,1.07999910588,1.1991500383728002,1024,0.0,97,P-GPS,
0.339155861136522,36.910032603882605,32000,2018-04-06 07:18:24,1726.3776431440717,80.1000025632,0.35999970196000003,1.00704003222528,1730.9776432912718,84.70000271040001,1.07999910588,1.1991500383728002,1024,0.0,97,P-GPS,
0.33915565768687206,36.9100326531015,32100,2018-04-06 07:18:25,1726.3776431440717,80.1000025632,0.7199994039200001,0.9945440318254081,1730.9776432912718,84.70000271040001,1.07999910588,1.1991500383728002,1024,0.0,97,P-GPS,
0.339155434331121,36.9100327261299,32200,2018-04-06 07:18:25,1726.2776431408718,80.00000256,0.7199994039200001,0.982793031449376,1730.9776432912718,84.70000271040001,1.07999910588,1.1991500383728002,1024,0.0,97,P-GPS,
0.33915519183301196,36.9100327800494,32300,2018-04-06 07:18:25,1726.2776431408718,80.00000256,0.7199994039200001,0.9685970309951041,1730.9776432912718,84.70000271040001,1.07999910588,1.1991500383728002,1024,0.0,97,P-GPS,
0.33915490902114304,36.910032811692,32400,2018-04-06 07:18:25,1726.3776431440717,80.1000025632,1.07999910588,0.9501710304054721,1730.9776432912718,84.70000271040001,1.07999910588,1.1991500383728002,1024,0.0,97,P-GPS,
0.339154581495459,36.9100327910163,32500,2018-04-06 07:18:25,1726.3776431440717,80.1000025632,1.151999046272,0.9248030295936961,1730.9776432912718,84.70000271040001,1.151999046272,1.1991500383728002,1024,0.0,97,P-GPS,
