latitude,longitude,time_millisecond,datetime_utc,altitude_m,ascent_m,speed_kph,distance_m,max_altitude_m,max_ascent_m,max_speed_kph,max_distance_m,rc_throttle,gimbal_pitch_degrees,battery_percent,flycState,message
0.356690786535264,36.8968518663759,100,2017-11-14 07:44:55,1770.5314287570152,0.0,0.0,0.0,1770.5314287570152,0.0,0.0,0.0,1024,0.0,99,Motors_Started,
0.35669084289774605,36.896851907631294,200,2017-11-14 07:44:55,1770.5314287570152,0.0,0.0,0.007767470248559039,1770.5314287570152,0.0,0.0,0.007767470248559039,1024,0.0,99,Motors_Started,
0.35669090745415205,36.896851964907704,300,2017-11-14 07:44:55,1770.5314287570152,0.0,0.0,0.017345800555065603,1770.5314287570152,0.0,0.0,0.017345800555065603,1024,0.0,99,Motors_Started,
0.35669094615737995,36.8968519972114,400,2017-11-14 07:44:55,1770.5314287570152,0.0,0.0,0.0229517007344544,1770.5314287570152,0.0,0.0,0.0229517007344544,1024,0.0,99,Motors_Started,
0.356690996509683,36.896852043344495,500,2017-11-14 07:44:55,1770.5314287570152,0.0,0.0,0.0305373009771936,1770.5314287570152,0.0,0.0,0.0305373009771936,1024,0.0,99,Motors_Started,Setting new Return-To-Home altitude to 30m (98 ft). Setting new Maximum Flight Altitude to 150m (492 ft)
0.356691027971221,36.8968521121335,600,2017-11-14 07:44:55,1770.5314287570152,0.0,0.0,0.038311401225964804,1770.5314287570152,0.0,0.0,0.038311401225964804,1024,0.0,99,Motors_Started,Home Point Recorded. RTH Altitude:  30m.
0.356691071573216,36.8968521841006,700,2017-11-14 07:44:55,1770.5314287570152,0.0,0.0,0.0474671015189472,1770.5314287570152,0.0,0.0,0.0474671015189472,1007,0.0,99,Motors_Started,
0.356691142758202,36.8968521972524,800,2017-11-14 07:44:55,1770.5314287570152,0.0,0.0,0.054066001730112,1770.5314287570152,0.0,0.0,0.054066001730112,1024,0.0,99,Motors_Started,
0.35669121316316404,36.896852228589296,900,2017-11-14 07:44:55,1770.5314287570152,0.0,0.0,0.0622362019915584,1770.5314287570152,0.0,0.0,0.0622362019915584,1024,0.0,99,Motors_Started,
0.356691267742093,36.896852249008205,1000,2017-11-14 07:44:56,1770.5314287570152,0.0,0.0,0.06836800218777599,1770.5314287570152,0.0,0.0,0.06836800218777599,1024,0.0,99,Motors_Started,
0.35669132566951,36.8968522832095,1100,2017-11-14 07:44:56,1770.5314287570152,0.0,0.0,0.0757843024250976,1770.5314287570152,0.0,0.0,0.0757843024250976,1024,0.0,99,Motors_Started,
0.35669137116579297,36.8968523113876,1200,2017-11-14 07:44:56,1770.5314287570152,0.0,0.0,0.0817059026145888,1770.5314287570152,0.0,0.0,0.0817059026145888,1024,0.0,99,Motors_Started,
0.35669142140491905,36.896852350173205,1300,2017-11-14 07:44:56,1770.5314287570152,0.0,0.0,0.08876380284044161,1770.5314287570152,0.0,0.0,0.08876380284044161,1024,0.0,99,Motors_Started,
0.356691419623401,36.8968523440451,1400,2017-11-14 07:44:56,1770.5314287570152,0.0,0.0,0.0881942028222144,1770.5314287570152,0.0,0.0,0.08876380284044161,1024,0.0,99,Motors_Started,
0.356691452528555,36.8968523734282,1600,2017-11-14 07:44:56,1770.5314287570152,0.0,0.0,0.09308420297869441,1770.5314287570152,0.0,0.0,0.09308420297869441,1024,0.0,99,Assisted_Takeoff,
0.356691478491652,36.8968523996647,1700,2017-11-14 07:44:56,1770.5314287570152,0.0,0.0,0.09715050310881598,1770.5314287570152,0.0,0.0,0.09715050310881598,1024,0.0,99,Assisted_Takeoff,
0.356691507832141,36.8968523930661,1800,2017-11-14 07:44:56,1770.5314287570152,0.0,0.0,0.0993202031782464,1770.5314287570152,0.0,0.0,0.0993202031782464,1024,0.0,99,Assisted_Takeoff,
0.356691541281195,36.8968523991824,1900,2017-11-14 07:44:57,1770.5314287570152,0.0,0.0,0.102739003287648,1770.5314287570152,0.0,0.0,0.102739003287648,1024,0.0,99,Assisted_Takeoff,
0.356691580726994,36.8968523389287,2000,2017-11-14 07:44:57,1770.5314287570152,0.0,0.0,0.10277000328864001,1770.5314287570152,0.0,0.0,0.10277000328864001,1024,0.0,99,Assisted_Takeoff,
0.35669162159768203,36.8968523041557,2100,2017-11-14 07:44:57,1770.5314287570152,0.0,0.0,0.10485100335523201,1770.5314287570152,0.0,0.0,0.10485100335523201,1024,0.0,99,Assisted_Takeoff,
0.35669166907578104,36.896852255189295,2200,2017-11-14 07:44:57,1770.5314287570152,0.0,0.0,0.10724600343187202,1770.5314287570152,0.0,0.0,0.10724600343187202,1024,0.0,99,Assisted_Takeoff,
0.356691714857855,36.8968522262265,2300,2017-11-14 07:44:57,1770.5314287570152,0.0,0.0,0.11072000354304,1770.5314287570152,0.0,0.0,0.11072000354304,1024,0.0,99,Assisted_Takeoff,
0.35669176561645394,36.896852231890996,2400,2017-11-14 07:44:57,1770.5314287570152,0.0,0.0,0.11621900371900801,1770.5314287570152,0.0,0.0,0.11621900371900801,1034,0.0,99,Assisted_Takeoff,
0.35669181439160896,36.8968522398332,2500,2017-11-14 07:44:57,1770.5314287570152,0.0,0.0,0.12161500389167999,1770.5314287570152,0.0,0.0,0.12161500389167999,1034,0.0,99,Assisted_Takeoff,
0.356691864809049,36.8968522417764,2600,2017-11-14 07:44:57,1770.5314287570152,0.0,0.0,0.12697000406304,1770.5314287570152,0.0,0.0,0.12697000406304,1075,0.0,99,Assisted_Takeoff,
0.356691913593975,36.8968522452665,2700,2017-11-14 07:44:57,1770.5314287570152,0.0,0.0,0.132228004231296,1770.5314287570152,0.0,0.0,0.132228004231296,1075,0.0,99,Assisted_Takeoff,
0.35669196896269895,36.8968522835617,2800,2017-11-14 07:44:57,1770.5314287570152,0.0,0.0,0.139437004461984,1770.5314287570152,0.0,0.0,0.139437004461984,1105,0.0,99,Assisted_Takeoff,
0.3566920207683879,36.8968523136717,2900,2017-11-14 07:44:58,1770.5314287570152,0.0,0.0,0.14598900467164802,1770.5314287570152,0.0,0.0,0.14598900467164802,1105,0.0,99,Assisted_Takeoff,
0.356692116156123,36.8968523332278,3000,2017-11-14 07:44:58,1770.5314287570152,0.0,0.0,0.156711005014752,1770.5314287570152,0.0,0.0,0.156711005014752,1243,0.0,99,Assisted_Takeoff,
0.356692197678473,36.8968523513364,3100,2017-11-14 07:44:58,1770.5314287570152,0.0,0.0,0.165936005309952,1770.5314287570152,0.0,0.0,0.165936005309952,1347,0.0,99,Assisted_Takeoff,
0.35669227390675,36.8968523572161,3200,2017-11-14 07:44:58,1770.5314287570152,0.0,0.0,0.174178005573696,1770.5314287570152,0.0,0.0,0.174178005573696,1425,0.0,99,Assisted_Takeoff,
0.356692343561814,36.8968523633442,3300,2017-11-14 07:44:58,1770.5314287570152,0.0,0.0,0.18175600581619197,1770.5314287570152,0.0,0.0,0.18175600581619197,1445,0.0,99,Assisted_Takeoff,
0.35669243790815897,36.8968523572916,3400,2017-11-14 07:44:58,1770.5314287570152,0.0,0.0,0.19158500613072,1770.5314287570152,0.0,0.0,0.19158500613072,1457,0.0,99,Assisted_Takeoff,
0.356692486767993,36.896852345257,3500,2017-11-14 07:44:58,1770.5314287570152,0.0,0.0,0.19643300628585603,1770.5314287570152,0.0,0.0,0.19643300628585603,1487,0.0,99,Assisted_Takeoff,Obstacle Avoided. Revise Flight Route
0.35669256053813503,36.89685235357071,3600,2017-11-14 07:44:58,1770.5314287570152,0.0,0.0,0.20458400654668804,1770.5314287570152,0.0,0.0,0.20458400654668804,1525,0.0,99,GPS_Atti,Home Point Recorded. RTH Altitude:  30m.
0.35669265079871404,36.896852347531,3700,2017-11-14 07:44:58,1770.5314287570152,0.0,0.0,0.21411100685155202,1770.5314287570152,0.0,0.0,0.21411100685155202,1540,0.0,99,GPS_Atti,
0.356692699353215,36.8968522802868,3800,2017-11-14 07:44:58,1770.5314287570152,0.0,0.0,0.21764000696448005,1770.5314287570152,0.0,0.0,0.21764000696448005,1546,0.0,99,GPS_Atti,
0.35669271275368,36.8968522077726,3900,2017-11-14 07:44:58,1770.6314287602152,0.10000000320000002,0.35999970196000003,0.217546006961472,1770.6314287602152,0.10000000320000002,0.35999970196000003,0.21764000696448005,1555,0.0,99,GPS_Atti,
0.35669272285817494,36.8968520974417,4000,2017-11-14 07:44:59,1770.8314287666153,0.3000000096,0.35999970196000003,0.21685900693948804,1770.8314287666153,0.3000000096,0.35999970196000003,0.21764000696448005,1560,0.0,99,GPS_Atti,Obstacle Avoided. Revise Flight Route
0.35669268500418,36.896851974899604,4100,2017-11-14 07:44:59,1770.9314287698153,0.4000000128000001,0.35999970196000003,0.211466006766912,1770.9314287698153,0.4000000128000001,0.35999970196000003,0.21764000696448005,1570,0.0,99,GPS_Atti,
0.356692598579401,36.8968518074251,4200,2017-11-14 07:44:59,1771.2314287794152,0.7000000224000001,0.35999970196000003,0.20161700645174402,1771.2314287794152,0.7000000224000001,0.35999970196000003,0.21764000696448005,1571,0.0,99,GPS_Atti,
0.356692531137392,36.896851665362796,4300,2017-11-14 07:44:59,1771.4314287858151,0.9000000288000001,0.35999970196000003,0.19529400624940801,1771.4314287858151,0.9000000288000001,0.35999970196000003,0.21764000696448005,1574,0.0,99,GPS_Atti,
0.35669250156322097,36.896851544138606,4400,2017-11-14 07:44:59,1771.831428798615,1.3000000416000002,0.0,0.194059006209888,1771.831428798615,1.3000000416000002,0.35999970196000003,0.21764000696448005,1575,0.0,99,GPS_Atti,
0.35669249551599397,36.896851455672,4500,2017-11-14 07:44:59,1772.131428808215,1.6000000512000003,0.0,0.19546000625472,1772.131428808215,1.6000000512000003,0.35999970196000003,0.21764000696448005,1576,0.0,99,GPS_Atti,
0.35669246704020796,36.8968513650706,4600,2017-11-14 07:44:59,1772.5314288210152,2.000000064,0.35999970196000003,0.19502000624064003,1772.5314288210152,2.000000064,0.35999970196000003,0.21764000696448005,1577,0.0,99,GPS_Atti,
0.35669239905918504,36.896851302243704,4700,2017-11-14 07:44:59,1772.931428833815,2.4000000768,0.35999970196000003,0.18997900607932802,1772.931428833815,2.4000000768,0.35999970196000003,0.21764000696448005,1590,0.0,99,GPS_Atti,
0.35669226119267405,36.8968512933513,4800,2017-11-14 07:44:59,1773.3314288466152,2.8000000896000006,0.35999970196000003,0.17593600562995199,1773.3314288466152,2.8000000896000006,0.35999970196000003,0.21764000696448005,1594,0.0,99,GPS_Atti,
0.356692148579258,36.8968512815051,4900,2017-11-14 07:45:00,1773.731428859415,3.2000001024000007,0.7199994039200001,0.16484100527491197,1773.731428859415,3.2000001024000007,0.7199994039200001,0.21764000696448005,1597,0.0,99,GPS_Atti,
0.35669191822526897,36.8968511643107,5100,2017-11-14 07:45:00,1774.6314288882152,4.100000131200001,0.7199994039200001,0.14810000473920001,1774.6314288882152,4.100000131200001,0.7199994039200001,0.21764000696448005,1586,0.0,99,GPS_Atti,
0.35669177828900606,36.8968510319474,5200,2017-11-14 07:45:00,1775.0314289010153,4.5000001439999995,0.8063993323904,0.144132004612224,1775.0314289010153,4.5000001439999995,0.8063993323904,0.21764000696448005,1587,0.0,99,GPS_Atti,
0.35669162866268606,36.896850845338705,5300,2017-11-14 07:45:00,1775.4314289138154,4.9000001568,1.0187991565468,0.14718100470979198,1775.4314289138154,4.9000001568,1.0187991565468,0.21764000696448005,1598,0.0,99,GPS_Atti,
0.35669142595642,36.8968505893719,5400,2017-11-14 07:45:00,1775.8314289266152,5.3000001696,1.0187991565468,0.158816005082112,1775.8314289266152,5.3000001696,1.0187991565468,0.21764000696448005,1601,0.0,99,GPS_Atti,
0.3566912439191789,36.8968503568372,5500,2017-11-14 07:45:00,1776.2314289394153,5.7000001824,1.0187991565468,0.175403005612896,1776.2314289394153,5.7000001824,1.0187991565468,0.21764000696448005,1598,-0.1,99,GPS_Atti,
0.35669111517480395,36.8968501362241,5600,2017-11-14 07:45:00,1776.6314289522152,6.1000001952,0.8063993323904,0.19584000626688003,1776.6314289522152,6.1000001952,1.0187991565468,0.21764000696448005,1599,-0.1,99,GPS_Atti,
0.356691019423111,36.896849946132704,5700,2017-11-14 07:45:00,1777.0314289650153,6.500000208,0.8063993323904,0.215103006883296,1777.0314289650153,6.500000208,1.0187991565468,0.21764000696448005,1604,-1.6,99,GPS_Atti,
0.35669091113891294,36.8968496472055,5900,2017-11-14 07:45:01,1777.8314289906152,7.3000002336000005,0.5075995797636,0.24716900790940804,1777.8314289906152,7.3000002336000005,1.0187991565468,0.24716900790940804,1595,-2.3,99,GPS_Atti,
0.356690897733969,36.8968495467118,6000,2017-11-14 07:45:01,1778.231429003415,7.7000002464,0.5075995797636,0.25825200826406397,1778.231429003415,7.7000002464,1.0187991565468,0.25825200826406397,1590,-2.9,99,GPS_Atti,
0.356690900278413,36.8968494764539,6100,2017-11-14 07:45:01,1778.6314290162152,8.1000002592,0.5075995797636,0.26607000851424,1778.6314290162152,8.1000002592,1.0187991565468,0.26607000851424,1586,-3.5,99,GPS_Atti,
0.35669086607498296,36.8968494623466,6200,2017-11-14 07:45:01,1779.031429029015,8.500000272000001,0.35999970196000003,0.267484008559488,1779.031429029015,8.500000272000001,1.0187991565468,0.267484008559488,1592,-3.6,99,GPS_Atti,
0.35669077939372296,36.8968496490116,6400,2017-11-14 07:45:01,1779.831429054615,9.3000002976,0.35999970196000003,0.246581007890592,1779.831429054615,9.3000002976,1.0187991565468,0.267484008559488,1596,-3.6,99,GPS_Atti,
0.35669076522585297,36.896849766500004,6500,2017-11-14 07:45:01,1780.331429070615,9.8000003136,0.0,0.233526007472832,1780.331429070615,9.8000003136,1.0187991565468,0.267484008559488,1589,-3.6,99,GPS_Atti,
0.35669080429100297,36.8968500107914,6700,2017-11-14 07:45:01,1781.1314290962152,10.6000003392,0.35999970196000003,0.20635800660345602,1781.1314290962152,10.6000003392,1.0187991565468,0.267484008559488,1591,-3.6,99,GPS_Atti,
0.35669085405788,36.8968501340802,6800,2017-11-14 07:45:01,1781.5314291090153,11.000000352000002,0.0,0.19278400616908803,1781.5314291090153,11.000000352000002,1.0187991565468,0.267484008559488,1595,-3.6,99,GPS_Atti,
0.356690933556073,36.8968502716519,6900,2017-11-14 07:45:01,1781.9314291218152,11.4000003648,0.35999970196000003,0.178092005698944,1781.9314291218152,11.4000003648,1.0187991565468,0.267484008559488,1592,-3.6,99,GPS_Atti,
0.356691050464103,36.8968504650012,7000,2017-11-14 07:45:02,1782.4314291378153,11.900000380800002,0.35999970196000003,0.158578005074496,1782.4314291378153,11.900000380800002,1.0187991565468,0.267484008559488,1590,-3.6,99,GPS_Atti,
0.356691248644924,36.8968507699767,7200,2017-11-14 07:45:02,1783.2314291634152,12.700000406400001,0.0,0.132311004233952,1783.2314291634152,12.700000406400001,1.0187991565468,0.267484008559488,1602,-3.6,99,GPS_Atti,
0.35669150164812496,36.896851051245,7400,2017-11-14 07:45:02,1784.1314291922151,13.600000435200002,0.0,0.120586003858752,1784.1314291922151,13.600000435200002,1.0187991565468,0.267484008559488,1604,-3.6,99,GPS_Atti,
0.35669164603167,36.896851196348294,7500,2017-11-14 07:45:02,1784.531429205015,14.000000448,0.0,0.121192003878144,1784.531429205015,14.000000448,1.0187991565468,0.267484008559488,1604,-3.6,99,GPS_Atti,
0.35669196007139503,36.8968514627781,7700,2017-11-14 07:45:02,1785.4314292338152,14.9000004768,0.0,0.13800600441619199,1785.4314292338152,14.9000004768,1.0187991565468,0.267484008559488,1607,-3.6,99,GPS_Atti,
0.356692123519947,36.896851596805,7800,2017-11-14 07:45:02,1785.9314292498152,15.4000004928,0.0,0.15167300485353602,1785.9314292498152,15.4000004928,1.0187991565468,0.267484008559488,1608,-3.6,99,GPS_Atti,
0.35669227257224,36.8968517485995,7900,2017-11-14 07:45:03,1786.331429262615,15.8000005056,0.35999970196000003,0.16577500530480002,1786.331429262615,15.8000005056,1.0187991565468,0.267484008559488,1608,-3.6,99,GPS_Atti,
0.356692419356111,36.896851902877394,8000,2017-11-14 07:45:03,1786.8314292786151,16.3000005216,0.35999970196000003,0.18162500581200003,1786.8314292786151,16.3000005216,1.0187991565468,0.267484008559488,1609,-3.6,99,GPS_Atti,
0.35669268059598297,36.8968521591124,8200,2017-11-14 07:45:03,1787.7314293074153,17.2000005504,0.0,0.213132006820224,1787.7314293074153,17.2000005504,1.0187991565468,0.267484008559488,1613,-3.6,99,GPS_Atti,
0.35669281003611103,36.896852294902,8300,2017-11-14 07:45:03,1788.231429323415,17.700000566400004,0.35999970196000003,0.230016007360512,1788.231429323415,17.700000566400004,1.0187991565468,0.267484008559488,1614,-3.6,99,GPS_Atti,
0.3566929705021679,36.896852489032796,8400,2017-11-14 07:45:03,1788.6314293362152,18.100000579200003,0.35999970196000003,0.25254800808153605,1788.6314293362152,18.100000579200003,1.0187991565468,0.267484008559488,1614,-3.6,99,GPS_Atti,
0.356693137883412,36.8968526949535,8500,2017-11-14 07:45:03,1789.131429352215,18.6000005952,0.35999970196000003,0.27724400887180806,1789.131429352215,18.6000005952,1.0187991565468,0.27724400887180806,1614,-3.6,99,GPS_Atti,
0.3566933251267879,36.8968529331709,8600,2017-11-14 07:45:03,1789.6314293682153,19.1000006112,0.35999970196000003,0.30622000979904007,1789.6314293682153,19.1000006112,1.0187991565468,0.30622000979904007,1609,-3.6,99,GPS_Atti,
0.356693534078952,36.896853105607704,8700,2017-11-14 07:45:03,1790.0314293810152,19.500000624000002,0.35999970196000003,0.33518301072585605,1790.0314293810152,19.500000624000002,1.0187991565468,0.33518301072585605,1609,-3.6,99,GPS_Atti,
0.356693768021216,36.8968532172356,8800,2017-11-14 07:45:03,1790.531429397015,20.00000064,0.35999970196000003,0.364003011648096,1790.531429397015,20.00000064,1.0187991565468,0.364003011648096,1610,-3.6,99,GPS_Atti,
0.356693976497873,36.8968532857795,8900,2017-11-14 07:45:04,1791.031429413015,20.500000655999997,0.0,0.38827501242479995,1791.031429413015,20.500000655999997,1.0187991565468,0.38827501242479995,1610,-3.6,99,GPS_Atti,
0.356694209320583,36.8968533053864,9000,2017-11-14 07:45:04,1791.431429425815,20.900000668800004,0.35999970196000003,0.4129050132129601,1791.431429425815,20.900000668800004,1.0187991565468,0.4129050132129601,1611,-3.6,99,GPS_Atti,
0.35669442149787894,36.8968533445616,9100,2017-11-14 07:45:04,1791.9314294418152,21.400000684800002,0.35999970196000003,0.43637501396399997,1791.9314294418152,21.400000684800002,1.0187991565468,0.43637501396399997,1612,-3.6,99,GPS_Atti,
0.35669466884630896,36.896853366374,9200,2017-11-14 07:45:04,1792.431429457815,21.900000700799996,0.35999970196000003,0.46284001481088,1792.431429457815,21.900000700799996,1.0187991565468,0.46284001481088,1609,-3.6,99,GPS_Atti,
0.35669490268353904,36.8968533841213,9300,2017-11-14 07:45:04,1792.8314294706151,22.3000007136,0.35999970196000003,0.487866015611712,1792.8314294706151,22.3000007136,1.0187991565468,0.487866015611712,1606,-3.6,99,GPS_Atti,
0.356695141706549,36.8968534096389,9400,2017-11-14 07:45:04,1793.331429486615,22.8000007296,0.35999970196000003,0.513829016442528,1793.331429486615,22.8000007296,1.0187991565468,0.513829016442528,1615,-3.6,99,GPS_Atti,
0.3566953532642221,36.8968534517412,9500,2017-11-14 07:45:04,1793.8314295026153,23.300000745600002,0.35999970196000003,0.537579017202528,1793.8314295026153,23.300000745600002,1.0187991565468,0.537579017202528,1635,-3.6,99,GPS_Atti,
0.356695582071189,36.896853472529,9600,2017-11-14 07:45:04,1794.2314295154151,23.700000758399998,0.0,0.5624080179970561,1794.2314295154151,23.700000758399998,1.0187991565468,0.5624080179970561,1636,-3.6,99,GPS_Atti,
0.35669577701873295,36.896853504742204,9700,2017-11-14 07:45:04,1794.7314295314152,24.2000007744,0.0,0.584113018691616,1794.7314295314152,24.2000007744,1.0187991565468,0.584113018691616,1637,-3.6,99,GPS_Atti,
0.356695998305545,36.8968534999481,9800,2017-11-14 07:45:04,1795.231429547415,24.7000007904,0.0,0.607383019436256,1795.231429547415,24.7000007904,1.0187991565468,0.607383019436256,1640,-3.6,99,GPS_Atti,
0.356696181154565,36.896853507748396,9900,2017-11-14 07:45:05,1795.7314295634153,25.200000806400006,0.0,0.627067020066144,1795.7314295634153,25.200000806400006,1.0187991565468,0.627067020066144,1646,-3.6,99,GPS_Atti,
0.356696359208632,36.8968535114495,10000,2017-11-14 07:45:05,1796.2314295794151,25.7000008224,0.0,0.646153020676896,1796.2314295794151,25.7000008224,1.0187991565468,0.646153020676896,1649,-3.6,99,GPS_Atti,
0.35669650155824995,36.896853512107896,10100,2017-11-14 07:45:05,1796.731429595415,26.200000838399998,0.0,0.661371021163872,1796.731429595415,26.200000838399998,1.0187991565468,0.661371021163872,1650,-3.6,99,GPS_Atti,
0.35669674053240596,36.896853473791204,10300,2017-11-14 07:45:05,1797.731429627415,27.200000870400004,0.0,0.6858250219464,1797.731429627415,27.200000870400004,1.0187991565468,0.6858250219464,1654,-3.6,99,GPS_Atti,
0.35669687235657604,36.896853466749896,10400,2017-11-14 07:45:05,1798.1314296402152,27.6000008832,0.0,0.699789022393248,1798.1314296402152,27.6000008832,1.0187991565468,0.699789022393248,1660,-3.6,99,GPS_Atti,
0.356696980284959,36.8968534655476,10500,2017-11-14 07:45:05,1798.631429656215,28.1000008992,0.0,0.71137002276384,1798.631429656215,28.1000008992,1.0187991565468,0.71137002276384,1665,-3.6,99,GPS_Atti,
0.356697093572551,36.8968533822691,10600,2017-11-14 07:45:05,1799.1314296722153,28.600000915200003,0.0,0.721354023083328,1799.1314296722153,28.600000915200003,1.0187991565468,0.721354023083328,1668,-3.6,99,GPS_Atti,
0.35669717804238393,36.8968533080853,10700,2017-11-14 07:45:05,1799.6314296882151,29.1000009312,0.0,0.728632023316224,1799.6314296882151,29.1000009312,1.0187991565468,0.728632023316224,1684,-3.6,99,GPS_Atti,
0.35669729882081797,36.896853219395,10800,2017-11-14 07:45:05,1800.231429707415,29.7000009504,0.0,0.7396710236694721,1800.231429707415,29.7000009504,1.0187991565468,0.7396710236694721,1684,-3.6,99,GPS_Atti,
0.356697384975276,36.8968531657913,10900,2017-11-14 07:45:06,1800.7314297234152,30.200000966400005,0.0,0.747879023932128,1800.7314297234152,30.200000966400005,1.0187991565468,0.747879023932128,1684,-3.6,99,GPS_Atti,
0.35669749613693497,36.896853114909,11000,2017-11-14 07:45:06,1801.231429739415,30.700000982400002,0.0,0.7589560242865921,1801.231429739415,30.700000982400002,1.0187991565468,0.7589560242865921,1684,-3.6,99,GPS_Atti,
0.35669759524729294,36.8968530892639,11100,2017-11-14 07:45:06,1801.731429755415,31.2000009984,0.0,0.76928502461712,1801.731429755415,31.2000009984,1.0187991565468,0.76928502461712,1684,-3.6,99,GPS_Atti,
0.356697730305553,36.8968530352042,11200,2017-11-14 07:45:06,1802.2314297714152,31.7000010144,0.0,0.783052025057664,1802.2314297714152,31.7000010144,1.0187991565468,0.783052025057664,1684,-3.6,99,GPS_Atti,
0.35669783133503297,36.8968530201259,11300,2017-11-14 07:45:06,1802.8314297906152,32.300001033600005,0.0,0.7938610254035521,1802.8314297906152,32.300001033600005,1.0187991565468,0.7938610254035521,1684,-3.6,99,GPS_Atti,
0.356697944842465,36.8968529757871,11400,2017-11-14 07:45:06,1803.3314298066152,32.800001049600006,0.0,0.805551025777632,1803.3314298066152,32.800001049600006,1.0187991565468,0.805551025777632,1684,-3.6,99,GPS_Atti,
0.356698034629981,36.896852943153206,11500,2017-11-14 07:45:06,1803.8314298226153,33.3000010656,0.0,0.814878026076096,1803.8314298226153,33.3000010656,1.0187991565468,0.814878026076096,1684,-3.6,99,GPS_Atti,
0.35669813869080996,36.8968528493421,11600,2017-11-14 07:45:06,1804.3314298386151,33.800001081599994,0.0,0.824879026396128,1804.3314298386151,33.800001081599994,1.0187991565468,0.824879026396128,1684,-3.6,99,GPS_Atti,
0.35669823550343394,36.8968527697904,11700,2017-11-14 07:45:06,1804.831429854615,34.3000010976,0.0,0.83444002670208,1804.831429854615,34.3000010976,1.0187991565468,0.83444002670208,1684,-3.6,99,GPS_Atti,
0.35669831517831296,36.8968526613721,11800,2017-11-14 07:45:06,1805.4314298738152,34.9000011168,0.0,0.8418860269403521,1805.4314298738152,34.9000011168,1.0187991565468,0.8418860269403521,1684,-3.6,99,GPS_Atti,
0.3566983759469579,36.8968525752972,11900,2017-11-14 07:45:07,1805.931429889815,35.40000113280001,0.0,0.8476630271252161,1805.931429889815,35.40000113280001,1.0187991565468,0.8476630271252161,1684,-3.6,99,GPS_Atti,
0.356698444051743,36.8968524475723,12000,2017-11-14 07:45:07,1806.4314299058153,35.9000011488,0.0,0.8540120273283841,1806.4314299058153,35.9000011488,1.0187991565468,0.8540120273283841,1684,-3.6,99,GPS_Atti,
0.356698498959617,36.8968523652756,12100,2017-11-14 07:45:07,1807.0314299250151,36.500001168000004,0.0,0.8594610275027522,1807.0314299250151,36.500001168000004,1.0187991565468,0.8594610275027522,1684,-3.6,99,GPS_Atti,
0.35669855046730103,36.8968522997352,12200,2017-11-14 07:45:07,1807.531429941015,37.000001184000006,0.0,0.8647400276716801,1807.531429941015,37.000001184000006,1.0187991565468,0.8647400276716801,1684,-3.6,99,GPS_Atti,
0.35669859948672206,36.8968522618725,12300,2017-11-14 07:45:07,1808.0314299570152,37.5000012,0.0,0.86996002783872,1808.0314299570152,37.5000012,1.0187991565468,0.86996002783872,1684,-3.6,99,GPS_Atti,
0.356698656876345,36.8968521911612,12400,2017-11-14 07:45:07,1808.531429973015,38.000001216,0.0,0.8759750280312,1808.531429973015,38.000001216,1.0187991565468,0.8759750280312,1684,-3.6,99,GPS_Atti,
0.356698708414969,36.896852147752796,12500,2017-11-14 07:45:07,1809.0314299890151,38.500001232,0.0,0.8815170282085439,1809.0314299890151,38.500001232,1.0187991565468,0.8815170282085439,1684,-3.6,99,GPS_Atti,
0.356698756952371,36.896852096490996,12600,2017-11-14 07:45:07,1809.6314300082151,39.100001251200005,0.0,0.8867280283752961,1809.6314300082151,39.100001251200005,1.0187991565468,0.8867280283752961,1684,-3.6,99,GPS_Atti,
0.35669879905253404,36.896852070655896,12700,2017-11-14 07:45:07,1810.131430024215,39.60000126719999,0.0,0.8913300285225602,1810.131430024215,39.60000126719999,1.0187991565468,0.8913300285225602,1684,-3.6,99,GPS_Atti,
0.356698854277955,36.896851997986495,12800,2017-11-14 07:45:07,1810.6314300402153,40.10000128320001,0.0,0.8973020287136639,1810.6314300402153,40.10000128320001,1.0187991565468,0.8973020287136639,1684,-3.6,99,GPS_Atti,
0.35669891693071,36.8968519480876,12900,2017-11-14 07:45:08,1811.131430056215,40.6000012992,0.0,0.90419502893424,1811.131430056215,40.6000012992,1.0187991565468,0.90419502893424,1684,-3.6,99,GPS_Atti,
0.356698960662573,36.8968518850685,13000,2017-11-14 07:45:08,1811.7314300754151,41.200001318400005,0.0,0.9090150290884801,1811.7314300754151,41.200001318400005,1.0187991565468,0.9090150290884801,1684,-3.6,99,GPS_Atti,
0.356698968477476,36.896851845927,13100,2017-11-14 07:45:08,1812.2314300914152,41.7000013344,0.0,0.9098850291163201,1812.2314300914152,41.7000013344,1.0187991565468,0.9098850291163201,1684,-3.6,99,GPS_Atti,
0.356698938587386,36.896851734573104,13200,2017-11-14 07:45:08,1812.7314301074152,42.2000013504,0.0,0.9066760290136322,1812.7314301074152,42.2000013504,1.0187991565468,0.9098850291163201,1684,-3.6,99,GPS_Atti,
0.356698926926099,36.8968516671234,13300,2017-11-14 07:45:08,1813.231430123415,42.7000013664,0.0,0.905532028977024,1813.231430123415,42.7000013664,1.0187991565468,0.9098850291163201,1684,-3.6,99,GPS_Atti,
0.35669891740295795,36.8968516078471,13400,2017-11-14 07:45:08,1813.831430142615,43.300001385600005,0.0,0.9046590289490881,1813.831430142615,43.300001385600005,1.0187991565468,0.9098850291163201,1684,-3.6,99,GPS_Atti,
0.35669892900562206,36.8968515721432,13500,2017-11-14 07:45:08,1814.3314301586151,43.80000140159999,0.0,0.9060830289946561,1814.3314301586151,43.80000140159999,1.0187991565468,0.9098850291163201,1684,-3.6,99,GPS_Atti,
0.35669899314188896,36.896851492867704,13600,2017-11-14 07:45:08,1814.8314301746152,44.30000141760001,0.0,0.9135690292342081,1814.8314301746152,44.30000141760001,1.0187991565468,0.9135690292342081,1684,-3.6,99,GPS_Atti,
0.356699062793695,36.8968514369799,13700,2017-11-14 07:45:08,1815.3314301906153,44.80000143360001,0.0,0.9216080294914561,1815.3314301906153,44.80000143360001,1.0187991565468,0.9216080294914561,1684,-3.6,99,GPS_Atti,
0.35669909807393396,36.896851328845294,13800,2017-11-14 07:45:08,1815.831430206615,45.3000014496,0.0,0.9262250296392,1815.831430206615,45.3000014496,1.0187991565468,0.9262250296392,1684,-3.6,99,GPS_Atti,
0.356699114456081,36.8968512751726,13900,2017-11-14 07:45:09,1816.331430222615,45.800001465600005,0.0,0.928446029710272,1816.331430222615,45.800001465600005,1.0187991565468,0.928446029710272,1684,-3.6,99,GPS_Atti,
0.35669911546408795,36.8968512423839,14000,2017-11-14 07:45:09,1816.8314302386152,46.3000014816,0.0,0.9288230297223362,1816.8314302386152,46.3000014816,1.0187991565468,0.9288230297223362,1684,-5.8,99,GPS_Atti,
0.356699105776475,36.8968512479045,14100,2017-11-14 07:45:09,1817.431430257815,46.9000015008,0.0,0.927703029686496,1817.431430257815,46.9000015008,1.0187991565468,0.9288230297223362,1684,-9.1,99,GPS_Atti,
0.3566990939002321,36.8968512281011,14300,2017-11-14 07:45:09,1818.4314302898151,47.900001532800005,0.0,0.926552029649664,1818.4314302898151,47.900001532800005,1.0187991565468,0.9288230297223362,1684,-9.1,99,GPS_Atti,
0.356699091677406,36.896851231003,14400,2017-11-14 07:45:09,1818.9314303058152,48.4000015488,0.0,0.9262810296409921,1818.9314303058152,48.4000015488,1.0187991565468,0.9288230297223362,1684,-9.1,99,GPS_Atti,
0.35669908040857395,36.8968512605552,14500,2017-11-14 07:45:09,1819.4314303218152,48.9000015648,0.0,0.924786029593152,1819.4314303218152,48.9000015648,1.0187991565468,0.9288230297223362,1684,-9.1,99,GPS_Atti,
0.35669908033692205,36.8968512624598,14600,2017-11-14 07:45:09,1819.931430337815,49.4000015808,0.0,0.9247630295924161,1819.931430337815,49.4000015808,1.0187991565468,0.9288230297223362,1684,-9.1,99,GPS_Atti,
0.356699083230667,36.896851296269205,14700,2017-11-14 07:45:09,1820.4314303538151,49.900001596799996,0.0,0.9248190295942081,1820.4314303538151,49.900001596799996,1.0187991565468,0.9288230297223362,1684,-9.8,99,GPS_Atti,
0.356699105747163,36.896851292890396,14800,2017-11-14 07:45:09,1821.0314303730152,50.500001616000006,0.0,0.9273430296749762,1821.0314303730152,50.500001616000006,1.0187991565468,0.9288230297223362,1684,-14.6,99,GPS_Atti,
0.356699126330695,36.896851313359704,14900,2017-11-14 07:45:09,1821.5314303890152,51.000001632,0.0,0.9294730297431361,1821.5314303890152,51.000001632,1.0187991565468,0.9294730297431361,1684,-19.7,99,GPS_Atti,
0.356699154820322,36.8968513279781,15000,2017-11-14 07:45:10,1822.031430405015,51.50000164800001,0.0,0.9325280298408961,1822.031430405015,51.50000164800001,1.0187991565468,0.9325280298408961,1684,-19.7,99,GPS_Atti,
0.356699177151175,36.8968513557799,15100,2017-11-14 07:45:10,1822.5314304210153,52.000001664,0.0,0.934814029914048,1822.5314304210153,52.000001664,1.0187991565468,0.934814029914048,1684,-19.7,99,GPS_Atti,
0.356699228507413,36.8968513507551,15200,2017-11-14 07:45:10,1823.0314304370152,52.500001680000004,0.0,0.9405480300975361,1823.0314304370152,52.500001680000004,1.0187991565468,0.9405480300975361,1684,-19.7,99,GPS_Atti,
0.35669926370948707,36.8968513733811,15300,2017-11-14 07:45:10,1823.531430453015,53.000001696000005,0.0,0.9443060302177921,1823.531430453015,53.000001696000005,1.0187991565468,0.9443060302177921,1684,-19.7,99,GPS_Atti,
0.356699273341733,36.896851357487,15400,2017-11-14 07:45:10,1824.0314304690153,53.500001712,0.0,0.9454800302553601,1824.0314304690153,53.500001712,1.0187991565468,0.9454800302553601,1684,-19.7,99,GPS_Atti,
0.356699256462911,36.8968513971826,15600,2017-11-14 07:45:10,1825.0314305010152,54.500001744,0.0,0.9433520301872642,1825.0314305010152,54.500001744,1.0187991565468,0.9454800302553601,1684,-19.7,99,GPS_Atti,
0.35669922988833397,36.8968514478261,15700,2017-11-14 07:45:10,1825.5314305170152,55.00000176,0.0,0.94010503008336,1825.5314305170152,55.00000176,1.0187991565468,0.9454800302553601,1684,-19.7,99,GPS_Atti,
0.356699162397472,36.8968515041277,15800,2017-11-14 07:45:10,1826.0314305330153,55.500001776,0.0,0.932318029834176,1826.0314305330153,55.500001776,1.0187991565468,0.9454800302553601,1684,-19.7,99,GPS_Atti,
0.356699111931993,36.8968515645051,15900,2017-11-14 07:45:11,1826.531430549015,56.000001792,0.0,0.9264430296461761,1826.531430549015,56.000001792,1.0187991565468,0.9454800302553601,1684,-19.7,99,GPS_Atti,
0.35669910554035,36.8968516122301,16100,2017-11-14 07:45:11,1827.5314305810152,57.000001824,0.0,0.925556029617792,1827.5314305810152,57.000001824,1.0187991565468,0.9454800302553601,1684,-19.7,99,GPS_Atti,
0.35669913736828796,36.896851638581296,16200,2017-11-14 07:45:11,1828.031430597015,57.50000184,0.0,0.9290090297282879,1828.031430597015,57.50000184,1.0187991565468,0.9454800302553601,1684,-19.7,99,GPS_Atti,
0.356699153079516,36.8968516790113,16300,2017-11-14 07:45:11,1828.5314306130151,58.000001856,0.0,0.9306440297806079,1828.5314306130151,58.000001856,1.0187991565468,0.9454800302553601,1684,-19.7,99,GPS_Atti,
0.356699154834978,36.8968516976766,16400,2017-11-14 07:45:11,1829.0314306290152,58.500001872,0.0,0.9307950297854399,1829.0314306290152,58.500001872,1.0187991565468,0.9454800302553601,1684,-19.7,99,GPS_Atti,
0.3566991512621721,36.8968517220921,16500,2017-11-14 07:45:11,1829.6314306482152,59.1000018912,0.0,0.9303470297711041,1829.6314306482152,59.1000018912,1.0187991565468,0.9454800302553601,1684,-19.7,99,GPS_Atti,
0.356699182025108,36.8968517386831,16600,2017-11-14 07:45:11,1830.1314306642153,59.6000019072,0.0,0.933738029879616,1830.1314306642153,59.6000019072,1.0187991565468,0.9454800302553601,1684,-19.7,99,GPS_Atti,
0.356699199355009,36.89685177176511,16700,2017-11-14 07:45:11,1830.631430680215,60.100001923200004,0.0,0.9356160299397122,1830.631430680215,60.100001923200004,1.0187991565468,0.9454800302553601,1684,-19.7,99,GPS_Atti,
0.356699196835806,36.8968517864617,16800,2017-11-14 07:45:11,1831.1314306962151,60.600001939200006,0.0,0.935319029930208,1831.1314306962151,60.600001939200006,1.0187991565468,0.9454800302553601,1684,-19.7,99,GPS_Atti,
0.356699180419462,36.8968518167013,16900,2017-11-14 07:45:12,1831.631430712215,61.10000195520001,0.0,0.933467029870944,1831.631430712215,61.10000195520001,1.0187991565468,0.9454800302553601,1684,-19.7,99,GPS_Atti,
0.3566991803412971,36.8968518504775,17000,2017-11-14 07:45:12,1832.1314307282153,61.6000019712,0.0,0.933444029870208,1832.1314307282153,61.6000019712,1.0187991565468,0.9454800302553601,1684,-19.7,99,GPS_Atti,
0.35669918313570703,36.8968518950047,17100,2017-11-14 07:45:12,1832.631430744215,62.1000019872,0.0,0.9337590298802879,1832.631430744215,62.1000019872,1.0187991565468,0.9454800302553601,1684,-19.7,99,GPS_Atti,
0.356699205059448,36.896851905523896,17200,2017-11-14 07:45:12,1833.1314307602152,62.600002003200004,0.0,0.936201029958432,1833.1314307602152,62.600002003200004,1.0187991565468,0.9454800302553601,1684,-19.7,99,GPS_Atti,
0.356699226709611,36.896851930962896,17300,2017-11-14 07:45:12,1833.6314307762152,63.100002019200005,0.0,0.9386260300360321,1833.6314307762152,63.100002019200005,1.0187991565468,0.9454800302553601,1684,-19.7,99,GPS_Atti,
0.35669926270636604,36.8968519300416,17400,2017-11-14 07:45:12,1834.1314307922153,63.600002035200006,0.0,0.9426290301641279,1834.1314307922153,63.600002035200006,1.0187991565468,0.9454800302553601,1684,-19.7,99,GPS_Atti,
0.35669930224987106,36.8968519599262,17500,2017-11-14 07:45:12,1834.631430808215,64.1000020512,0.0,0.9470570303058241,1834.631430808215,64.1000020512,1.0187991565468,0.9470570303058241,1684,-19.7,99,GPS_Atti,
0.356699326873573,36.8968519556251,17600,2017-11-14 07:45:12,1835.1314308242152,64.60000206720001,0.0,0.94979003039328,1835.1314308242152,64.60000206720001,1.0187991565468,0.94979003039328,1684,-19.7,99,GPS_Atti,
0.356699358100615,36.8968519685183,17700,2017-11-14 07:45:12,1835.6314308402152,65.1000020832,0.0,0.953278030504896,1835.6314308402152,65.1000020832,1.0187991565468,0.953278030504896,1684,-19.7,99,GPS_Atti,
0.35669941737923294,36.896851982294706,17800,2017-11-14 07:45:12,1836.131430856215,65.60000209920001,0.0,0.9598890307164482,1836.131430856215,65.60000209920001,1.0187991565468,0.9598890307164482,1684,-19.7,99,GPS_Atti,
0.35669947726689005,36.8968520003584,17900,2017-11-14 07:45:12,1836.631430872215,66.10000211520001,0.0,0.966577030930464,1836.631430872215,66.10000211520001,1.0187991565468,0.966577030930464,1684,-19.7,99,GPS_Atti,
0.35669954381488206,36.896851978807796,18000,2017-11-14 07:45:13,1837.2314308914151,66.7000021344,0.0,0.9739430311661761,1837.2314308914151,66.7000021344,1.0187991565468,0.9739430311661761,1684,-19.7,99,GPS_Atti,
0.35669958909051097,36.8968519725427,18100,2017-11-14 07:45:13,1837.731430907415,67.2000021504,0.0,0.9789690313270079,1837.731430907415,67.2000021504,1.0187991565468,0.9789690313270079,1684,-19.7,99,GPS_Atti,
0.356699663065836,36.8968519039099,18200,2017-11-14 07:45:13,1838.2314309234152,67.70000216640001,0.0,0.987133031588256,1838.2314309234152,67.70000216640001,1.0187991565468,0.987133031588256,1684,-19.7,99,GPS_Atti,
0.35669972441257797,36.896851870267504,18300,2017-11-14 07:45:13,1838.731430939415,68.2000021824,0.0,0.993947031806304,1838.731430939415,68.2000021824,1.0187991565468,0.993947031806304,1684,-19.7,99,GPS_Atti,
0.35669993134058503,36.8968517789172,18600,2017-11-14 07:45:13,1840.2314309874153,69.7000022304,0.0,1.017000032544,1840.2314309874153,69.7000022304,1.0187991565468,1.017000032544,1684,-19.7,99,GPS_Atti,
0.35669997170157003,36.896851759434,18700,2017-11-14 07:45:13,1840.731431003415,70.2000022464,0.0,1.0215200326886402,1840.731431003415,70.2000022464,1.0187991565468,1.0215200326886402,1684,-19.7,99,GPS_Atti,
0.3567000328024171,36.896851749731205,18900,2017-11-14 07:45:14,1841.7314310354152,71.2000022784,0.0,1.02832003290624,1841.7314310354152,71.2000022784,1.0187991565468,1.02832003290624,1684,-19.7,99,GPS_Atti,
0.35670008769075,36.8968517151985,19000,2017-11-14 07:45:14,1842.231431051415,71.7000022944,0.0,1.0344800331033601,1842.231431051415,71.7000022944,1.0187991565468,1.0344800331033601,1684,-19.7,99,GPS_Atti,
0.356700139231003,36.896851707110706,19100,2017-11-14 07:45:14,1842.731431067415,72.2000023104,0.0,1.04023003328736,1842.731431067415,72.2000023104,1.0187991565468,1.04023003328736,1684,-19.7,99,GPS_Atti,
0.356700171119193,36.8968516850596,19200,2017-11-14 07:45:14,1843.2314310834151,72.70000232640001,0.0,1.04382003340224,1843.2314310834151,72.70000232640001,1.0187991565468,1.04382003340224,1684,-19.7,99,GPS_Atti,
0.356700202023803,36.896851686660206,19300,2017-11-14 07:45:14,1843.7314310994152,73.2000023424,0.0,1.047250033512,1843.7314310994152,73.2000023424,1.0187991565468,1.047250033512,1684,-19.7,99,GPS_Atti,
0.3567003489843599,36.8968516733891,19500,2017-11-14 07:45:14,1844.7314311314153,74.2000023744,0.0,1.06362003403584,1844.7314311314153,74.2000023744,1.0187991565468,1.06362003403584,1684,-19.7,98,GPS_Atti,
0.35670044645976096,36.8968516274374,19700,2017-11-14 07:45:14,1845.731431163415,75.20000240640002,0.0,1.07457003438624,1845.731431163415,75.20000240640002,1.0187991565468,1.07457003438624,1684,-19.7,98,GPS_Atti,
0.35670048466305704,36.8968515598812,19800,2017-11-14 07:45:14,1846.131431176215,75.60000241920001,0.0,1.07903003452896,1846.131431176215,75.60000241920001,1.0187991565468,1.07903003452896,1684,-19.7,98,GPS_Atti,
0.35670051960458005,36.8968515451888,19900,2017-11-14 07:45:14,1846.6314311922154,76.10000243520001,0.0,1.0829700346550402,1846.6314311922154,76.10000243520001,1.0187991565468,1.0829700346550402,1684,-19.7,98,GPS_Atti,
0.35670068164452895,36.8968515091601,20100,2017-11-14 07:45:15,1847.731431227415,77.20000247040001,0.0,1.10111003523552,1847.731431227415,77.20000247040001,1.0187991565468,1.10111003523552,1684,-19.7,98,GPS_Atti,
0.356700892777178,36.8968514743137,20300,2017-11-14 07:45:15,1848.731431259415,78.20000250240001,0.0,1.12472003599104,1848.731431259415,78.20000250240001,1.0187991565468,1.12472003599104,1684,-19.7,98,GPS_Atti,
0.35670097551678903,36.8968514534965,20400,2017-11-14 07:45:15,1849.231431275415,78.70000251840001,0.0,1.1340100362883199,1849.231431275415,78.70000251840001,1.0187991565468,1.1340100362883199,1684,-19.7,98,GPS_Atti,
0.35670104808676706,36.8968514579186,20500,2017-11-14 07:45:15,1849.7314312914152,79.20000253439999,0.0,1.1420500365456001,1849.7314312914152,79.20000253439999,1.0187991565468,1.1420500365456001,1684,-19.7,98,GPS_Atti,
0.356701115266596,36.896851417514796,20600,2017-11-14 07:45:15,1850.231431307415,79.70000255040001,0.0,1.1497000367904,1850.231431307415,79.70000255040001,1.0187991565468,1.1497000367904,1684,-19.7,98,GPS_Atti,
0.356701289039483,36.8968514135429,20900,2017-11-14 07:45:16,1851.8314313586152,81.3000026016,0.0,1.16903003740896,1851.8314313586152,81.3000026016,1.0187991565468,1.16903003740896,1684,-19.7,98,GPS_Atti,
0.35670133289836603,36.8968514160181,21000,2017-11-14 07:45:16,1852.3314313746152,81.80000261760001,0.0,1.17389003756448,1852.3314313746152,81.80000261760001,1.0187991565468,1.17389003756448,1684,-19.7,98,GPS_Atti,
0.356701370839482,36.8968514474985,21100,2017-11-14 07:45:16,1852.8314313906153,82.3000026336,0.0,1.1779600376947201,1852.8314313906153,82.3000026336,1.0187991565468,1.1779600376947201,1684,-19.7,98,GPS_Atti,
0.35670142738231503,36.8968514055911,21200,2017-11-14 07:45:16,1853.3314314066151,82.8000026496,0.0,1.1844400379020799,1853.3314314066151,82.8000026496,1.0187991565468,1.1844400379020799,1684,-19.7,98,GPS_Atti,
0.35670146105853706,36.8968513795338,21300,2017-11-14 07:45:16,1853.831431422615,83.3000026656,0.0,1.1883100380259202,1853.831431422615,83.3000026656,1.0187991565468,1.1883100380259202,1684,-19.7,98,GPS_Atti,
0.356701506552376,36.8968513196553,21400,2017-11-14 07:45:16,1854.231431435415,83.70000267840001,0.0,1.19368003819776,1854.231431435415,83.70000267840001,1.0187991565468,1.19368003819776,1684,-19.7,98,GPS_Atti,
0.35670153654668607,36.8968512817241,21500,2017-11-14 07:45:16,1854.7314314514151,84.2000026944,0.0,1.19723003831136,1854.7314314514151,84.2000026944,1.0187991565468,1.19723003831136,1684,-19.7,98,GPS_Atti,
0.35670158841099897,36.896851218464704,21600,2017-11-14 07:45:16,1855.2314314674152,84.70000271040001,0.0,1.20339003850848,1855.2314314674152,84.70000271040001,1.0187991565468,1.20339003850848,1684,-19.7,98,GPS_Atti,
0.356701620523915,36.896851180335396,21700,2017-11-14 07:45:16,1855.731431483415,85.20000272640002,0.0,1.20722003863104,1855.731431483415,85.20000272640002,1.0187991565468,1.20722003863104,1684,-19.7,98,GPS_Atti,
0.356701640381161,36.896851119183395,21800,2017-11-14 07:45:16,1856.2314314994153,85.7000027424,0.0,1.20987003871584,1856.2314314994153,85.7000027424,1.0187991565468,1.20987003871584,1684,-19.7,98,GPS_Atti,
0.35670165412522803,36.8968510972929,21900,2017-11-14 07:45:17,1856.7314315154151,86.2000027584,0.0,1.2115600387699201,1856.7314315154151,86.2000027584,1.0187991565468,1.2115600387699201,1684,-19.7,98,GPS_Atti,
0.356701685728441,36.896851053857205,22000,2017-11-14 07:45:17,1857.231431531415,86.7000027744,0.0,1.21542003889344,1857.231431531415,86.7000027744,1.0187991565468,1.21542003889344,1684,-19.7,98,GPS_Atti,
0.35670168976372496,36.8968510345538,22100,2017-11-14 07:45:17,1857.7314315474152,87.2000027904,0.0,1.21603003891296,1857.7314315474152,87.2000027904,1.0187991565468,1.21603003891296,1684,-19.7,98,GPS_Atti,
0.35670171892427205,36.896850985907996,22200,2017-11-14 07:45:17,1858.231431563415,87.70000280640001,0.0,1.2196800390297602,1858.231431563415,87.70000280640001,1.0187991565468,1.2196800390297602,1684,-19.7,98,GPS_Atti,
0.35670173331646005,36.896850976157,22300,2017-11-14 07:45:17,1858.7314315794151,88.20000282240001,0.0,1.22137003908384,1858.7314315794151,88.20000282240001,1.0187991565468,1.22137003908384,1684,-19.7,98,GPS_Atti,
0.35670175183023994,36.89685095969129,22400,2017-11-14 07:45:17,1859.2314315954152,88.70000283840001,0.0,1.22357003915424,1859.2314315954152,88.70000283840001,1.0187991565468,1.22357003915424,1684,-19.7,98,GPS_Atti,
0.356701744235177,36.8968509714721,22500,2017-11-14 07:45:17,1859.7314316114152,89.2000028544,0.0,1.22262003912384,1859.7314316114152,89.2000028544,1.0187991565468,1.22357003915424,1684,-19.7,98,GPS_Atti,
0.356701663773759,36.8968509811444,22700,2017-11-14 07:45:17,1860.7314316434151,90.20000288640001,0.35999970196000003,1.21361003883552,1860.7314316434151,90.20000288640001,1.0187991565468,1.22357003915424,1684,-19.7,98,GPS_Atti,
0.35670161978622994,36.896850988465204,22800,2017-11-14 07:45:17,1861.2314316594152,90.7000029024,0.35999970196000003,1.20867003867744,1861.2314316594152,90.7000029024,1.0187991565468,1.22357003915424,1684,-19.7,98,GPS_Atti,
0.356701562399863,36.896851024921105,22900,2017-11-14 07:45:18,1861.731431675415,91.2000029184,0.35999970196000003,1.2019900384636801,1861.731431675415,91.2000029184,1.0187991565468,1.22357003915424,1684,-19.7,98,GPS_Atti,
0.35670151979976794,36.8968510508162,23000,2017-11-14 07:45:18,1862.231431691415,91.7000029344,0.0,1.1970500383056,1862.231431691415,91.7000029344,1.0187991565468,1.22357003915424,1684,-19.7,98,GPS_Atti,
0.356701489264815,36.8968510945051,23100,2017-11-14 07:45:18,1862.7314317074151,92.2000029504,0.0,1.1933000381856,1862.7314317074151,92.2000029504,1.0187991565468,1.22357003915424,1684,-19.7,98,GPS_Atti,
0.35670151489652396,36.8968510923559,23200,2017-11-14 07:45:18,1863.2314317234152,92.7000029664,0.0,1.19616003827712,1863.2314317234152,92.7000029664,1.0187991565468,1.22357003915424,1684,-19.7,98,GPS_Atti,
0.356701531503395,36.8968511170101,23300,2017-11-14 07:45:18,1863.631431736215,93.10000297920001,0.0,1.1978100383299202,1863.631431736215,93.10000297920001,1.0187991565468,1.22357003915424,1684,-19.7,98,GPS_Atti,
0.356701549377197,36.8968511045098,23400,2017-11-14 07:45:18,1864.2314317554153,93.70000299840001,0.0,1.19989003839648,1864.2314317554153,93.70000299840001,1.0187991565468,1.22357003915424,1684,-19.7,98,GPS_Atti,
0.35670155717093,36.8968511173254,23500,2017-11-14 07:45:18,1864.7314317714151,94.2000030144,0.0,1.2006500384208,1864.7314317714151,94.2000030144,1.0187991565468,1.22357003915424,1684,-19.7,98,GPS_Atti,
0.356701622351029,36.8968510900444,23600,2017-11-14 07:45:18,1865.2314317874152,94.7000030304,0.0,1.2081000386592,1865.2314317874152,94.7000030304,1.0187991565468,1.22357003915424,1684,-19.7,98,GPS_Atti,
0.356701672223755,36.896851092001,23700,2017-11-14 07:45:18,1865.7314318034153,95.20000304640001,0.0,1.21361003883552,1865.7314318034153,95.20000304640001,1.0187991565468,1.22357003915424,1684,-19.7,98,GPS_Atti,
0.35670170429595893,36.8968510505726,23800,2017-11-14 07:45:18,1866.231431819415,95.7000030624,0.0,1.21751003896032,1866.231431819415,95.7000030624,1.0187991565468,1.22357003915424,1684,-19.7,98,GPS_Atti,
0.356701723296644,36.896850959295705,24000,2017-11-14 07:45:19,1867.231431851415,96.7000030944,0.0,1.2204100390531198,1867.231431851415,96.7000030944,1.0187991565468,1.22357003915424,1684,-19.7,98,GPS_Atti,
0.356701729527071,36.8968509412069,24100,2017-11-14 07:45:19,1867.7314318674153,97.2000031104,0.0,1.2212700390806401,1867.7314318674153,97.2000031104,1.0187991565468,1.22357003915424,1684,-19.7,98,GPS_Atti,
0.356701775035567,36.8968508755402,24200,2017-11-14 07:45:19,1868.231431883415,97.7000031264,0.0,1.2269500392624,1868.231431883415,97.7000031264,1.0187991565468,1.2269500392624,1684,-19.7,98,GPS_Atti,
0.356701806094879,36.8968508374944,24300,2017-11-14 07:45:19,1868.7314318994152,98.2000031424,0.0,1.2307700393846401,1868.7314318994152,98.2000031424,1.0187991565468,1.2307700393846401,1684,-19.7,98,GPS_Atti,
0.356701834470516,36.8968507723904,24500,2017-11-14 07:45:19,1869.7314319314153,99.2000031744,0.0,1.23461003950752,1869.7314319314153,99.2000031744,1.0187991565468,1.23461003950752,1684,-19.7,98,GPS_Atti,
0.35670186520576797,36.896850717695706,24600,2017-11-14 07:45:19,1870.231431947415,99.7000031904,0.0,1.23862003963584,1870.231431947415,99.7000031904,1.0187991565468,1.23862003963584,1684,-19.7,98,GPS_Atti,
0.35670186947717597,36.8968506898404,24700,2017-11-14 07:45:19,1870.7314319634152,100.20000320640001,0.0,1.2394200396614399,1870.7314319634152,100.20000320640001,1.0187991565468,1.2394200396614399,1625,-19.7,98,GPS_Atti,
0.35670184969321006,36.8968506319934,24800,2017-11-14 07:45:19,1871.3314319826152,100.80000322560002,0.0,1.23792003961344,1871.3314319826152,100.80000322560002,1.0187991565468,1.2394200396614399,1611,-19.7,98,GPS_Atti,
0.35670181690449,36.8968505998252,24900,2017-11-14 07:45:20,1871.831431998615,101.3000032416,0.0,1.2347000395104,1871.831431998615,101.3000032416,1.0187991565468,1.2394200396614399,1639,-19.7,98,GPS_Atti,
0.356701766290822,36.8968505774914,25000,2017-11-14 07:45:20,1872.231432011415,101.7000032544,0.35999970196000003,1.2294000393408002,1872.231432011415,101.7000032544,1.0187991565468,1.2394200396614399,1651,-19.7,98,GPS_Atti,
0.356701704331785,36.896850603626795,25100,2017-11-14 07:45:20,1872.7314320274152,102.2000032704,0.0,1.22222003911104,1872.7314320274152,102.2000032704,1.0187991565468,1.2394200396614399,1652,-19.7,98,GPS_Atti,
0.35670166443327894,36.896850619863,25200,2017-11-14 07:45:20,1873.1314320402153,102.6000032832,0.0,1.2176000389632,1873.1314320402153,102.6000032832,1.0187991565468,1.2394200396614399,1655,-19.7,98,GPS_Atti,
0.356701633650802,36.896850638822706,25300,2017-11-14 07:45:20,1873.5314320530151,103.00000329600002,0.0,1.21396003884672,1873.5314320530151,103.00000329600002,1.0187991565468,1.2394200396614399,1665,-19.7,98,GPS_Atti,
0.35670161746244,36.89685060591739,25400,2017-11-14 07:45:20,1874.0314320690152,103.500003312,0.0,1.21259003880288,1874.0314320690152,103.500003312,1.0187991565468,1.2394200396614399,1665,-19.7,98,GPS_Atti,
0.356701600191163,36.8968505779507,25500,2017-11-14 07:45:20,1874.431432081815,103.90000332480001,0.0,1.2110500387536,1874.431432081815,103.90000332480001,1.0187991565468,1.2394200396614399,1665,-19.7,98,GPS_Atti,
0.356701649951526,36.8968504890998,25600,2017-11-14 07:45:20,1874.9314320978153,104.40000334080001,0.0,1.217750038968,1874.9314320978153,104.40000334080001,1.0187991565468,1.2394200396614399,1669,-19.7,98,GPS_Atti,
0.356701750864572,36.896850415978,25800,2017-11-14 07:45:20,1875.9314321298152,105.4000033728,0.0,1.2299200393574399,1875.9314321298152,105.4000033728,1.0187991565468,1.2394200396614399,1671,-19.7,98,GPS_Atti,
0.356701783418796,36.8968504168859,25900,2017-11-14 07:45:21,1876.431432145815,105.90000338880002,0.0,1.2335000394720002,1876.431432145815,105.90000338880002,1.0187991565468,1.2394200396614399,1671,-19.7,98,GPS_Atti,
0.35670183569836295,36.8968504168843,26000,2017-11-14 07:45:21,1876.831432158615,106.30000340160001,0.0,1.23926003965632,1876.831432158615,106.30000340160001,1.0187991565468,1.2394200396614399,1673,-19.7,98,GPS_Atti,
0.35670186216546296,36.8968504431128,26100,2017-11-14 07:45:21,1877.3314321746152,106.80000341760001,0.0,1.2418100397379204,1877.3314321746152,106.80000341760001,1.0187991565468,1.2418100397379204,1673,-19.7,98,GPS_Atti,
0.356701912639084,36.8968504490996,26200,2017-11-14 07:45:21,1877.831432190615,107.30000343360001,0.0,1.2472900399132802,1877.831432190615,107.30000343360001,1.0187991565468,1.2472900399132802,1669,-19.7,98,GPS_Atti,
0.35670194525030396,36.89685047434,26300,2017-11-14 07:45:21,1878.331432206615,107.80000344960001,0.0,1.2505400400172801,1878.331432206615,107.80000344960001,1.0187991565468,1.2505400400172801,1642,-19.7,98,GPS_Atti,
0.356701968449117,36.8968504615929,26400,2017-11-14 07:45:21,1878.8314322226151,108.30000346560001,0.0,1.2532700401046402,1878.8314322226151,108.30000346560001,1.0187991565468,1.2532700401046402,1642,-19.7,98,GPS_Atti,
0.35670196754533096,36.8968504761959,26500,2017-11-14 07:45:21,1879.3314322386152,108.80000348160002,0.0,1.25297004009504,1879.3314322386152,108.80000348160002,1.0187991565468,1.2532700401046402,1620,-19.7,98,GPS_Atti,
0.35670199123919105,36.8968504595085,26600,2017-11-14 07:45:21,1879.731432251415,109.2000034944,0.0,1.25581004018592,1879.731432251415,109.2000034944,1.0187991565468,1.25581004018592,1588,-19.7,98,GPS_Atti,
0.35670199375839395,36.8968504705731,26700,2017-11-14 07:45:21,1880.2314322674151,109.7000035104,0.0,1.25594004019008,1880.2314322674151,109.7000035104,1.0187991565468,1.25594004019008,1529,-19.7,98,GPS_Atti,
0.35670202764631304,36.8968504101909,26800,2017-11-14 07:45:21,1880.7314322834152,110.2000035264,0.0,1.2605200403366401,1880.7314322834152,110.2000035264,1.0187991565468,1.2605200403366401,1443,-19.7,98,GPS_Atti,
0.356702012975661,36.8968503725434,26900,2017-11-14 07:45:22,1881.1314322962153,110.6000035392,0.35999970196000003,1.2594500403024003,1881.1314322962153,110.6000035392,1.0187991565468,1.2605200403366401,1348,-19.7,98,GPS_Atti,
0.356701984521859,36.8968503012052,27000,2017-11-14 07:45:22,1881.5314323090151,111.000003552,0.35999970196000003,1.25739004023648,1881.5314323090151,111.000003552,1.0187991565468,1.2605200403366401,1287,-19.7,98,GPS_Atti,
0.356701922559565,36.896850257436,27100,2017-11-14 07:45:22,1881.8314323186153,111.30000356160001,0.35999970196000003,1.25125004004,1881.8314323186153,111.30000356160001,1.0187991565468,1.2605200403366401,1235,-19.7,98,GPS_Atti,
0.35670188050662704,36.8968501602649,27200,2017-11-14 07:45:22,1882.0314323250152,111.50000356800001,0.35999970196000003,1.2482200399430403,1882.0314323250152,111.50000356800001,1.0187991565468,1.2605200403366401,1195,-19.7,98,GPS_Atti,
0.356701801807186,36.8968500884134,27300,2017-11-14 07:45:22,1882.2314323314154,111.70000357440001,0.35999970196000003,1.2408200397062399,1882.2314323314154,111.70000357440001,1.0187991565468,1.2605200403366401,1180,-19.7,98,GPS_Atti,
0.356701692714466,36.8968499841919,27400,2017-11-14 07:45:22,1882.431432337815,111.9000035808,0.35999970196000003,1.23076003938432,1882.431432337815,111.9000035808,1.0187991565468,1.2605200403366401,1171,-19.7,98,GPS_Atti,
0.356701567099553,36.8968499104267,27500,2017-11-14 07:45:22,1882.531432341015,112.000003584,0.35999970196000003,1.21844003899008,1882.531432341015,112.000003584,1.0187991565468,1.2605200403366401,1144,-19.7,98,GPS_Atti,
0.35670145198810294,36.89684986222579,27600,2017-11-14 07:45:22,1882.6314323442152,112.1000035872,0.35999970196000003,1.2068200386182402,1882.6314323442152,112.1000035872,1.0187991565468,1.2605200403366401,1117,-19.7,98,GPS_Atti,
0.35670134237265294,36.896849833760704,27700,2017-11-14 07:45:22,1882.6314323442152,112.1000035872,0.35999970196000003,1.19544003825408,1882.6314323442152,112.1000035872,1.0187991565468,1.2605200403366401,1107,-19.7,98,GPS_Atti,
0.35670126644970795,36.896849793691004,27800,2017-11-14 07:45:22,1882.7314323474152,112.20000359040002,0.35999970196000003,1.188000038016,1882.7314323474152,112.20000359040002,1.0187991565468,1.2605200403366401,1094,-19.7,98,GPS_Atti,
0.35670119792967,36.896849778234795,27900,2017-11-14 07:45:23,1882.7314323474152,112.20000359040002,0.35999970196000003,1.18087003778784,1882.7314323474152,112.20000359040002,1.0187991565468,1.2605200403366401,1094,-19.7,98,GPS_Atti,
0.356701237940539,36.8968496946212,28000,2017-11-14 07:45:23,1882.8314323506152,112.30000359360001,0.0,1.18709003798688,1882.8314323506152,112.30000359360001,1.0187991565468,1.2605200403366401,1024,-19.7,98,GPS_Atti,
0.35670127205969804,36.8968496470728,28100,2017-11-14 07:45:23,1882.8314323506152,112.30000359360001,0.0,1.19189003814048,1882.8314323506152,112.30000359360001,1.0187991565468,1.2605200403366401,1024,-19.7,98,GPS_Atti,
0.35670133285114103,36.8968496143312,28200,2017-11-14 07:45:23,1882.8314323506152,112.30000359360001,0.0,1.199250038376,1882.8314323506152,112.30000359360001,1.0187991565468,1.2605200403366401,1024,-19.7,98,GPS_Atti,
0.35670137782876393,36.8968496143617,28300,2017-11-14 07:45:23,1882.8314323506152,112.30000359360001,0.0,1.2041500385328001,1882.8314323506152,112.30000359360001,1.0187991565468,1.2605200403366401,1024,-19.7,98,GPS_Atti,
0.35670149529331496,36.8968494994653,28500,2017-11-14 07:45:23,1882.9314323538151,112.4000035968,0.0,1.21962003902784,1882.9314323538151,112.4000035968,1.0187991565468,1.2605200403366401,1024,-19.7,98,GPS_Atti,
0.356701574987735,36.8968494236879,28600,2017-11-14 07:45:23,1882.9314323538151,112.4000035968,0.0,1.23011003936352,1882.9314323538151,112.4000035968,1.0187991565468,1.2605200403366401,978,-19.7,98,GPS_Atti,
0.3567016385491621,36.896849390098,28700,2017-11-14 07:45:23,1882.9314323538151,112.4000035968,0.0,1.2378300396105602,1882.9314323538151,112.4000035968,1.0187991565468,1.2605200403366401,799,-19.7,98,GPS_Atti,
0.35670184219585405,36.896849304532104,28900,2017-11-14 07:45:24,1882.9314323538151,112.4000035968,0.0,1.26203004038496,1882.9314323538151,112.4000035968,1.0187991565468,1.26203004038496,739,-19.7,98,GPS_Atti,
0.3567019613425879,36.896849238516396,29000,2017-11-14 07:45:24,1882.9314323538151,112.4000035968,0.0,1.2766000408512002,1882.9314323538151,112.4000035968,1.0187991565468,1.2766000408512002,734,-19.7,98,GPS_Atti,
0.35670204499087,36.8968492185364,29100,2017-11-14 07:45:24,1882.9314323538151,112.4000035968,0.35999970196000003,1.28617004115744,1882.9314323538151,112.4000035968,1.0187991565468,1.28617004115744,728,-19.7,98,GPS_Atti,
0.3567021813339721,36.896849220220496,29200,2017-11-14 07:45:24,1882.8314323506152,112.30000359360001,0.35999970196000003,1.30089004162848,1882.9314323538151,112.4000035968,1.0187991565468,1.30089004162848,719,-19.7,98,GPS_Atti,
0.35670227970176005,36.896849247424896,29300,2017-11-14 07:45:24,1882.7314323474152,112.20000359040002,0.0,1.3108700419478398,1882.9314323538151,112.4000035968,1.0187991565468,1.3108700419478398,716,-19.7,98,GPS_Atti,
0.356702393328069,36.8968492065019,29400,2017-11-14 07:45:24,1882.6314323442152,112.1000035872,0.0,1.3242000423744,1882.9314323538151,112.4000035968,1.0187991565468,1.3242000423744,714,-19.7,98,GPS_Atti,
0.35670246560981295,36.8968491998203,29500,2017-11-14 07:45:24,1882.531432341015,112.000003584,0.0,1.33221004263072,1882.9314323538151,112.4000035968,1.0187991565468,1.33221004263072,712,-19.7,98,GPS_Atti,
0.35670259094951795,36.896849127947895,29600,2017-11-14 07:45:24,1882.331432334615,111.80000357760001,0.0,1.34758004312256,1882.9314323538151,112.4000035968,1.0187991565468,1.34758004312256,711,-19.7,98,GPS_Atti,
0.356702678134782,36.89684908322,29700,2017-11-14 07:45:24,1882.2314323314154,111.70000357440001,0.0,1.3581500434608,1882.9314323538151,112.4000035968,1.0187991565468,1.3581500434608,713,-19.7,98,GPS_Atti,
0.35670282317866,36.896849026614795,29800,2017-11-14 07:45:24,1882.1314323282152,111.6000035712,0.0,1.3752900440092801,1882.9314323538151,112.4000035968,1.0187991565468,1.3752900440092801,713,-19.7,98,GPS_Atti,
0.356702933399892,36.8968489983639,29900,2017-11-14 07:45:25,1882.0314323250152,111.50000356800001,0.0,1.3879500444144002,1882.9314323538151,112.4000035968,1.0187991565468,1.3879500444144002,732,-19.7,98,GPS_Atti,
0.35670308682862795,36.8968488865513,30000,2017-11-14 07:45:25,1881.9314323218152,111.4000035648,0.0,1.40743004503776,1882.9314323538151,112.4000035968,1.0187991565468,1.40743004503776,861,-19.7,98,GPS_Atti,
0.356703179680877,36.8968488328604,30100,2017-11-14 07:45:25,1881.8314323186153,111.30000356160001,0.0,1.4188800454041601,1882.9314323538151,112.4000035968,1.0187991565468,1.4188800454041601,1024,-19.7,98,GPS_Atti,
0.35670337609239205,36.8968487152548,30300,2017-11-14 07:45:25,1881.731432315415,111.2000035584,0.0,1.4432200461830402,1882.9314323538151,112.4000035968,1.0187991565468,1.4432200461830402,1024,-19.7,98,GPS_Atti,
0.35670346081219106,36.896848631400296,30400,2017-11-14 07:45:25,1881.631432312215,111.1000035552,0.0,1.4546400465484801,1882.9314323538151,112.4000035968,1.0187991565468,1.4546400465484801,1024,-19.7,98,GPS_Atti,
0.35670348868301005,36.8968485735281,30500,2017-11-14 07:45:25,1881.731432315415,111.2000035584,0.0,1.459250046696,1882.9314323538151,112.4000035968,1.0187991565468,1.459250046696,1024,-19.7,98,GPS_Atti,
0.356703565631875,36.8968484470371,30600,2017-11-14 07:45:25,1881.731432315415,111.2000035584,0.0,1.4711000470752,1882.9314323538151,112.4000035968,1.0187991565468,1.4711000470752,943,-19.7,98,GPS_Atti,
0.35670366528776204,36.8968482582866,30800,2017-11-14 07:45:25,1881.731432315415,111.2000035584,0.0,1.4873400475948801,1882.9314323538151,112.4000035968,1.0187991565468,1.4873400475948801,781,-19.7,98,GPS_Atti,
0.356703687618614,36.8968481945374,30900,2017-11-14 07:45:26,1881.731432315415,111.2000035584,0.0,1.4916500477328003,1882.9314323538151,112.4000035968,1.0187991565468,1.4916500477328003,723,-19.7,98,GPS_Atti,
0.35670377066763,36.8968481068555,31000,2017-11-14 07:45:26,1881.631432312215,111.1000035552,0.0,1.5032200481030402,1882.9314323538151,112.4000035968,1.0187991565468,1.5032200481030402,700,-19.7,98,GPS_Atti,
0.3567038005805179,36.896848076911,31100,2017-11-14 07:45:26,1881.631432312215,111.1000035552,0.0,1.50734004823488,1882.9314323538151,112.4000035968,1.0187991565468,1.50734004823488,675,-19.7,98,GPS_Atti,
0.356703884955086,36.8968480167156,31200,2017-11-14 07:45:26,1881.5314323090151,111.000003552,0.35999970196000003,1.5182300485833602,1882.9314323538151,112.4000035968,1.0187991565468,1.5182300485833602,681,-19.7,98,GPS_Atti,
