latitude,longitude,time_millisecond,datetime_utc,altitude_m,ascent_m,speed_kph,distance_m,max_altitude_m,max_ascent_m,max_speed_kph,max_distance_m,rc_throttle,gimbal_pitch_degrees,battery_percent,flycState,message
0.0805026343895607,36.8784551592191,0,2018-04-11 08:46:58,1808.8856779843447,0.0,0.0,0.0,1808.8856779843447,0.0,0.0,0.0,364,0.0,99,Motors_Started,
0.0805026418647293,36.8784551616849,100,2018-04-11 08:46:59,1808.8856779843447,0.0,0.0,0.0008753430280109759,1808.8856779843447,0.0,0.0,0.0008753430280109759,364,0.0,99,Motors_Started,
0.0805026465762249,36.8784551640211,200,2018-04-11 08:46:59,1808.8856779843447,0.0,0.0,0.0014566500466128,1808.8856779843447,0.0,0.0,0.0014566500466128,364,0.0,99,Motors_Started,
0.0805026454090377,36.8784551615449,300,2018-04-11 08:46:59,1808.8856779843447,0.0,0.0,0.00125243004007776,1808.8856779843447,0.0,0.0,0.0014566500466128,364,0.0,99,Motors_Started,
0.0805026446727774,36.878455160830605,400,2018-04-11 08:46:59,1808.8856779843447,0.0,0.0,0.00115751003704032,1808.8856779843447,0.0,0.0,0.0014566500466128,364,0.0,99,Motors_Started,
0.0805026389933754,36.8784551695086,500,2018-04-11 08:46:59,1808.8856779843447,0.0,0.0,0.0012535700401142401,1808.8856779843447,0.0,0.0,0.0014566500466128,364,0.0,99,Motors_Started,Setting new Return-To-Home altitude to 30m (98 ft). Setting new Maximum Flight Altitude to 150m (492 ft)
0.080502635036053,36.8784551971994,600,2018-04-11 08:46:59,1808.8856779843447,0.0,0.0,0.0042242501351759994,1808.8856779843447,0.0,0.0,0.0042242501351759994,364,0.0,99,Motors_Started,
0.0805026267442197,36.8784552247503,700,2018-04-11 08:46:59,1808.8856779843447,0.0,0.0,0.007336890234780481,1808.8856779843447,0.0,0.0,0.007336890234780481,364,0.0,99,Motors_Started,
0.0805026219000059,36.8784552400969,800,2018-04-11 08:46:59,1808.8856779843447,0.0,0.0,0.009100710291222721,1808.8856779843447,0.0,0.0,0.009100710291222721,364,0.0,99,Motors_Started,
0.0805026140979272,36.8784552526814,900,2018-04-11 08:46:59,1808.8856779843447,0.0,0.0,0.010635700340342401,1808.8856779843447,0.0,0.0,0.010635700340342401,364,0.0,99,Motors_Started,
0.0805026103989166,36.878455260450295,1000,2018-04-11 08:46:59,1808.8856779843447,0.0,0.0,0.0115693003702176,1808.8856779843447,0.0,0.0,0.0115693003702176,364,0.0,99,Motors_Started,
0.080502605052735,36.8784552635721,1100,2018-04-11 08:47:00,1808.8856779843447,0.0,0.0,0.012054500385744,1808.8856779843447,0.0,0.0,0.012054500385744,364,0.0,99,Motors_Started,
0.0805025979899698,36.878455262729204,1200,2018-04-11 08:47:00,1808.8856779843447,0.0,0.0,0.0122019003904608,1808.8856779843447,0.0,0.0,0.0122019003904608,364,0.0,99,Motors_Started,
0.0805025911203788,36.878455258463,1300,2018-04-11 08:47:00,1808.8856779843447,0.0,0.0,0.012039900385276801,1808.8856779843447,0.0,0.0,0.0122019003904608,364,0.0,99,Motors_Started,
0.0805025920353608,36.8784552590484,1400,2018-04-11 08:47:00,1808.8856779843447,0.0,0.0,0.012059500385904,1808.8856779843447,0.0,0.0,0.0122019003904608,364,0.0,99,Motors_Started,
0.0805025874836563,36.8784552667305,1500,2018-04-11 08:47:00,1808.8856779843447,0.0,0.0,0.013044300417417599,1808.8856779843447,0.0,0.0,0.013044300417417599,364,0.0,99,Motors_Started,
0.0805025882368116,36.8784552946659,1600,2018-04-11 08:47:00,1808.8856779843447,0.0,0.0,0.0159129005092128,1808.8856779843447,0.0,0.0,0.0159129005092128,364,0.0,99,Assisted_Takeoff,
0.080502582916278,36.878455321074206,1700,2018-04-11 08:47:00,1808.8856779843447,0.0,0.0,0.0188875006044,1808.8856779843447,0.0,0.0,0.0188875006044,364,0.0,99,Assisted_Takeoff,
0.0805025830457393,36.8784553382976,1800,2018-04-11 08:47:00,1808.8856779843447,0.0,0.0,0.020717000662944,1808.8856779843447,0.0,0.0,0.020717000662944,364,0.0,99,Assisted_Takeoff,
0.0805025791144719,36.8784553500896,1900,2018-04-11 08:47:00,1808.8856779843447,0.0,0.0,0.0220981007071392,1808.8856779843447,0.0,0.0,0.0220981007071392,364,0.0,99,Assisted_Takeoff,
0.0805025797304308,36.8784553592906,2000,2018-04-11 08:47:00,1808.8856779843447,0.0,0.0,0.023064500738064,1808.8856779843447,0.0,0.0,0.023064500738064,364,0.0,99,Assisted_Takeoff,
0.0805025917564897,36.8784553760258,2100,2018-04-11 08:47:01,1808.8856779843447,0.0,0.0,0.024571900786300803,1808.8856779843447,0.0,0.0,0.024571900786300803,364,0.0,99,Assisted_Takeoff,
0.0805026206047823,36.8784554073447,2200,2018-04-11 08:47:01,1808.8856779843447,0.0,0.0,0.027635600884339202,1808.8856779843447,0.0,0.0,0.027635600884339202,408,0.0,99,Assisted_Takeoff,
0.0805026522898242,36.8784554361265,2300,2018-04-11 08:47:01,1808.8856779843447,0.0,0.0,0.030858000987456002,1808.8856779843447,0.0,0.0,0.030858000987456002,492,0.0,99,Assisted_Takeoff,
0.0805026691301743,36.8784554518978,2400,2018-04-11 08:47:01,1808.8856779843447,0.0,0.0,0.0327761010488352,1808.8856779843447,0.0,0.0,0.0327761010488352,545,0.0,99,Assisted_Takeoff,
0.0805027013214587,36.8784554779536,2500,2018-04-11 08:47:01,1808.8856779843447,0.0,0.0,0.0362183011589856,1808.8856779843447,0.0,0.0,0.0362183011589856,648,0.0,99,Assisted_Takeoff,
0.0805027393957007,36.8784555135073,2600,2018-04-11 08:47:01,1808.8856779843447,0.0,0.0,0.04109300131497601,1808.8856779843447,0.0,0.0,0.04109300131497601,788,0.0,99,Assisted_Takeoff,
0.0805027801583002,36.8784555471949,2700,2018-04-11 08:47:01,1808.8856779843447,0.0,0.0,0.04609000147488,1808.8856779843447,0.0,0.0,0.04609000147488,952,0.0,99,Assisted_Takeoff,
0.0805028010779024,36.878455565955,2800,2018-04-11 08:47:01,1808.8856779843447,0.0,0.0,0.048882501564240004,1808.8856779843447,0.0,0.0,0.048882501564240004,1024,0.0,99,Assisted_Takeoff,
0.0805028194557072,36.878455578810396,2900,2018-04-11 08:47:01,1808.8856779843447,0.0,0.0,0.0509982016319424,1808.8856779843447,0.0,0.0,0.0509982016319424,1024,0.0,99,Assisted_Takeoff,
0.08050282845571001,36.8784555858911,3000,2018-04-11 08:47:01,1808.8856779843447,0.0,0.0,0.05212590166802881,1808.8856779843447,0.0,0.0,0.05212590166802881,1024,0.0,99,Assisted_Takeoff,
0.080502846271498,36.878455599802706,3100,2018-04-11 08:47:02,1808.8856779843447,0.0,0.0,0.0543669017397408,1808.8856779843447,0.0,0.0,0.0543669017397408,1024,0.0,99,Assisted_Takeoff,
0.0805028764477866,36.878455629579705,3200,2018-04-11 08:47:02,1808.8856779843447,0.0,0.0,0.058827001882464,1808.8856779843447,0.0,0.0,0.058827001882464,1024,0.0,99,Assisted_Takeoff,
0.0805029061970158,36.8784556564569,3300,2018-04-11 08:47:02,1808.8856779843447,0.0,0.0,0.0630181020165792,1808.8856779843447,0.0,0.0,0.0630181020165792,1024,0.0,99,Assisted_Takeoff,
0.0805029201566484,36.8784556705951,3400,2018-04-11 08:47:02,1808.8856779843447,0.0,0.0,0.0651451020846432,1808.8856779843447,0.0,0.0,0.0651451020846432,1126,0.0,99,Assisted_Takeoff,
0.0805029436406428,36.8784556787435,3500,2018-04-11 08:47:02,1808.8856779843447,0.0,0.0,0.06723520215152641,1808.8856779843447,0.0,0.0,0.06723520215152641,1235,0.0,99,Assisted_Takeoff,
0.0805029770107172,36.8784556816549,3600,2018-04-11 08:47:02,1808.8856779843447,0.0,0.0,0.06947740222327681,1808.8856779843447,0.0,0.0,0.06947740222327681,1467,0.0,99,Assisted_Takeoff,
0.0805030113645753,36.8784556788136,3700,2018-04-11 08:47:02,1808.8856779843447,0.0,0.0,0.0713877022844064,1808.8856779843447,0.0,0.0,0.0713877022844064,1684,0.0,99,Assisted_Takeoff,
0.0805030292892655,36.87845567672311,3800,2018-04-11 08:47:02,1808.8856779843447,0.0,0.0,0.0723913023165216,1808.8856779843447,0.0,0.0,0.0723913023165216,1684,0.0,99,Assisted_Takeoff,
0.0805030427220965,36.878455667521,3900,2018-04-11 08:47:02,1808.8856779843447,0.0,0.0,0.07250650232020801,1808.8856779843447,0.0,0.0,0.07250650232020801,1684,0.0,99,Assisted_Takeoff,
0.0805030481161137,36.878455664400796,4000,2018-04-11 08:47:02,1808.8856779843447,0.0,0.0,0.0726149023236768,1808.8856779843447,0.0,0.0,0.0726149023236768,1684,0.0,99,Assisted_Takeoff,
0.0805030602514819,36.878455663389104,4100,2018-04-11 08:47:03,1808.8856779843447,0.0,0.0,0.0733914023485248,1808.8856779843447,0.0,0.0,0.0733914023485248,1684,0.0,99,Assisted_Takeoff,
0.0805031161834443,36.8784556786555,4200,2018-04-11 08:47:03,1808.8856779843447,0.0,0.0,0.07878690252118081,1808.8856779843447,0.0,0.0,0.07878690252118081,1684,0.0,99,P-GPS,
0.0805032633654696,36.8784557168604,4300,2018-04-11 08:47:03,1808.8856779843447,0.0,0.35999970196000003,0.09347760299128322,1808.8856779843447,0.0,0.35999970196000003,0.09347760299128322,1684,0.0,99,P-GPS,
0.0805034535834022,36.8784558048392,4400,2018-04-11 08:47:03,1808.8856779843447,0.0,0.503999582744,0.11599100371171202,1808.8856779843447,0.0,0.503999582744,0.11599100371171202,1684,0.0,99,P-GPS,
0.0805036362148214,36.8784559457342,4500,2018-04-11 08:47:03,1809.085677990745,0.20000000640000004,0.503999582744,0.141641004532512,1809.085677990745,0.20000000640000004,0.503999582744,0.141641004532512,1684,0.0,99,P-GPS,
0.0805038002510385,36.8784561135297,4600,2018-04-11 08:47:03,1809.1856779939449,0.3000000096,0.503999582744,0.167547005361504,1809.1856779939449,0.3000000096,0.503999582744,0.167547005361504,1684,0.0,99,P-GPS,Home Point Recorded. RTH Altitude:  30m.
0.0805039457692012,36.8784563053482,4700,2018-04-11 08:47:03,1809.385678000345,0.500000016,0.503999582744,0.193681006197792,1809.385678000345,0.500000016,0.503999582744,0.193681006197792,1684,0.0,99,P-GPS,
0.0805040569406302,36.8784564904061,4800,2018-04-11 08:47:03,1809.5856780067447,0.7000000224000001,0.503999582744,0.216658006933056,1809.5856780067447,0.7000000224000001,0.503999582744,0.216658006933056,1684,0.0,99,P-GPS,
0.0805041439211165,36.878456689752795,4900,2018-04-11 08:47:03,1809.8856780163449,1.000000032,0.35999970196000003,0.23906000764992003,1809.8856780163449,1.000000032,0.503999582744,0.23906000764992003,1684,0.0,99,P-GPS,
0.080504218974879,36.8784568728984,5000,2018-04-11 08:47:03,1810.185678025945,1.3000000416000002,0.0,0.259556008305792,1810.185678025945,1.3000000416000002,0.503999582744,0.259556008305792,1684,0.0,99,P-GPS,
0.0805042834885377,36.8784570256679,5100,2018-04-11 08:47:04,1810.5856780387448,1.7000000544000002,0.0,0.276971008863072,1810.5856780387448,1.7000000544000002,0.503999582744,0.276971008863072,1684,0.0,99,P-GPS,
0.0805043537611886,36.8784571175734,5200,2018-04-11 08:47:04,1811.085678054745,2.2000000704,0.0,0.289806009273792,1811.085678054745,2.2000000704,0.503999582744,0.289806009273792,1684,0.0,99,P-GPS,
0.080504424736106,36.8784571551905,5300,2018-04-11 08:47:04,1811.4856780675448,2.6000000832000003,0.0,0.29817400954156803,1811.4856780675448,2.6000000832000003,0.503999582744,0.29817400954156803,1684,0.0,99,P-GPS,
0.0805044875765385,36.8784571388721,5400,2018-04-11 08:47:04,1811.9856780835448,3.1000000992,0.0,0.301558009649856,1811.9856780835448,3.1000000992,0.503999582744,0.301558009649856,1684,0.0,99,P-GPS,
0.0805045165046248,36.8784571395045,5500,2018-04-11 08:47:04,1812.5856781027449,3.7000001184,0.0,0.303816009722112,1812.5856781027449,3.7000001184,0.503999582744,0.303816009722112,1684,0.0,99,P-GPS,
0.0805044944371731,36.878457186124294,5600,2018-04-11 08:47:04,1813.0856781187447,4.2000001344,0.0,0.30593000978976004,1813.0856781187447,4.2000001344,0.503999582744,0.30593000978976004,1684,0.0,99,P-GPS,
0.0805044476397637,36.878457244794205,5700,2018-04-11 08:47:04,1813.585678134745,4.700000150400001,0.0,0.307329009834528,1813.585678134745,4.700000150400001,0.503999582744,0.307329009834528,1684,0.0,99,P-GPS,
0.0805044199651722,36.878457290719,5800,2018-04-11 08:47:04,1814.0856781507448,5.200000166400001,0.0,0.309216009894912,1814.0856781507448,5.200000166400001,0.503999582744,0.309216009894912,1684,0.0,99,P-GPS,
0.0805044398871489,36.8784573175683,5900,2018-04-11 08:47:04,1814.5856781667449,5.7000001824,0.35999970196000003,0.312928010013696,1814.5856781667449,5.7000001824,0.503999582744,0.312928010013696,1684,0.0,99,P-GPS,
0.0805045287961201,36.8784573098619,6000,2018-04-11 08:47:04,1815.0856781827447,6.2000001984,0.35999970196000003,0.31871801019897605,1815.0856781827447,6.2000001984,0.503999582744,0.31871801019897605,1684,0.0,99,P-GPS,
0.0805046425270559,36.87845729722,6100,2018-04-11 08:47:05,1815.585678198745,6.7000002144,0.35999970196000003,0.32619001043808005,1815.585678198745,6.7000002144,0.503999582744,0.32619001043808005,1684,0.0,99,P-GPS,
0.0805047367134069,36.8784573077159,6200,2018-04-11 08:47:05,1816.0856782147448,7.200000230400001,0.35999970196000003,0.334281010696992,1816.0856782147448,7.200000230400001,0.503999582744,0.334281010696992,1684,0.0,99,P-GPS,
0.0805048228988055,36.87845730183739,6300,2018-04-11 08:47:05,1816.5856782307446,7.7000002464,0.35999970196000003,0.34059501089904,1816.5856782307446,7.7000002464,0.503999582744,0.34059501089904,1684,0.0,99,P-GPS,
0.080504892843732,36.878457283896296,6400,2018-04-11 08:47:05,1817.085678246745,8.200000262400001,0.35999970196000003,0.34482601103443206,1817.085678246745,8.200000262400001,0.503999582744,0.34482601103443206,1684,0.0,99,P-GPS,
0.0805049570084966,36.878457263952605,6500,2018-04-11 08:47:05,1817.5856782627448,8.700000278400001,0.0,0.34856401115404806,1817.5856782627448,8.700000278400001,0.503999582744,0.34856401115404806,1684,0.0,99,P-GPS,
0.0805049868143142,36.878457286372,6600,2018-04-11 08:47:05,1818.0856782787448,9.2000002944,0.0,0.35269501128624003,1818.0856782787448,9.2000002944,0.503999582744,0.35269501128624003,1684,0.0,99,P-GPS,
0.0805049947883973,36.878457328264396,6700,2018-04-11 08:47:05,1818.5856782947449,9.7000003104,0.0,0.35648801140761605,1818.5856782947449,9.7000003104,0.503999582744,0.35648801140761605,1684,0.0,99,P-GPS,
0.0805049743921363,36.8784574024271,6800,2018-04-11 08:47:05,1819.085678310745,10.2000003264,0.0,0.360479011535328,1819.085678310745,10.2000003264,0.503999582744,0.360479011535328,1684,0.0,99,P-GPS,
0.0805049503986424,36.878457463135796,6900,2018-04-11 08:47:05,1819.4856783235448,10.6000003392,0.0,0.363287011625184,1819.4856783235448,10.6000003392,0.503999582744,0.363287011625184,1684,0.0,99,P-GPS,
0.0805049216944672,36.878457523441604,7000,2018-04-11 08:47:05,1819.9856783395448,11.1000003552,0.0,0.365821011706272,1819.9856783395448,11.1000003552,0.503999582744,0.365821011706272,1684,0.0,99,P-GPS,
0.0805049140106542,36.878457583243105,7100,2018-04-11 08:47:06,1820.485678355545,11.6000003712,0.0,0.37004301184137606,1820.485678355545,11.6000003712,0.503999582744,0.37004301184137606,1684,0.0,99,P-GPS,
0.0805048972637361,36.878457645832796,7200,2018-04-11 08:47:06,1820.985678371545,12.1000003872,0.0,0.373888011964416,1820.985678371545,12.1000003872,0.503999582744,0.373888011964416,1684,0.0,99,P-GPS,
0.0805048778001664,36.8784576801291,7300,2018-04-11 08:47:06,1821.4856783875448,12.600000403200003,0.0,0.37527501200880004,1821.4856783875448,12.600000403200003,0.503999582744,0.37527501200880004,1684,0.0,99,P-GPS,
0.0805048535571135,36.878457707078,7400,2018-04-11 08:47:06,1821.985678403545,13.100000419199999,0.0,0.375743012023776,1821.985678403545,13.100000419199999,0.503999582744,0.375743012023776,1684,0.0,99,P-GPS,
0.0805048587595849,36.8784577351794,7500,2018-04-11 08:47:06,1822.485678419545,13.600000435200002,0.35999970196000003,0.378483012111456,1822.485678419545,13.600000435200002,0.503999582744,0.378483012111456,1684,0.0,99,P-GPS,
0.0805048660468718,36.878457778020895,7600,2018-04-11 08:47:06,1822.9856784355447,14.100000451200001,0.35999970196000003,0.38262701224406404,1822.9856784355447,14.100000451200001,0.503999582744,0.38262701224406404,1684,0.0,99,P-GPS,
0.0805048759140211,36.8784578009627,7700,2018-04-11 08:47:06,1823.4856784515448,14.600000467200001,0.0,0.38528101232899203,1823.4856784515448,14.600000467200001,0.503999582744,0.38528101232899203,1684,0.0,99,P-GPS,
0.0805048536369072,36.8784578075526,7800,2018-04-11 08:47:06,1823.8856784643447,15.00000048,0.0,0.38424401229580807,1823.8856784643447,15.00000048,0.503999582744,0.38528101232899203,1684,0.0,99,P-GPS,
0.0805047970098028,36.878457807119005,7900,2018-04-11 08:47:06,1824.385678480345,15.500000496,0.0,0.38019301216617607,1824.385678480345,15.500000496,0.503999582744,0.38528101232899203,1684,0.0,99,P-GPS,
0.0805047120721995,36.8784578482369,8000,2018-04-11 08:47:06,1824.8856784963448,16.000000512,0.0,0.377897012092704,1824.8856784963448,16.000000512,0.503999582744,0.38528101232899203,1684,0.0,99,P-GPS,
0.0805046361696106,36.8784579059106,8100,2018-04-11 08:47:07,1825.485678515545,16.6000005312,0.0,0.37796001209472,1825.485678515545,16.6000005312,0.503999582744,0.38528101232899203,1684,0.0,99,P-GPS,
0.0805045602010697,36.8784579492751,8200,2018-04-11 08:47:07,1825.9856785315449,17.1000005472,0.0,0.37700601206419204,1825.9856785315449,17.1000005472,0.503999582744,0.38528101232899203,1684,0.0,99,P-GPS,
0.0805043627367648,36.8784579765564,8400,2018-04-11 08:47:07,1826.985678563545,18.100000579200003,0.0,0.36756201176198394,1826.985678563545,18.100000579200003,0.503999582744,0.38528101232899203,1684,0.0,99,P-GPS,
0.0805042400738136,36.8784579968914,8500,2018-04-11 08:47:07,1827.4856785795448,18.6000005952,0.35999970196000003,0.36258301160265605,1827.4856785795448,18.6000005952,0.503999582744,0.38528101232899203,1684,0.0,99,P-GPS,
0.080504094346803,36.878458024850396,8600,2018-04-11 08:47:07,1827.9856785955449,19.1000006112,0.35999970196000003,0.3576500114448,1827.9856785955449,19.1000006112,0.503999582744,0.38528101232899203,1684,0.0,99,P-GPS,
0.0805039675382405,36.8784580559258,8700,2018-04-11 08:47:07,1828.4856786115447,19.6000006272,0.35999970196000003,0.354609011347488,1828.4856786115447,19.6000006272,0.503999582744,0.38528101232899203,1684,0.0,99,P-GPS,
0.0805038886169236,36.878458085001895,8800,2018-04-11 08:47:07,1828.985678627545,20.1000006432,0.0,0.354000011328,1828.985678627545,20.1000006432,0.503999582744,0.38528101232899203,1684,0.0,99,P-GPS,
0.0805038395657477,36.8784580901005,8900,2018-04-11 08:47:07,1829.5856786467448,20.7000006624,0.0,0.35241101127715196,1829.5856786467448,20.7000006624,0.503999582744,0.38528101232899203,1684,0.0,99,P-GPS,
0.0805037990085357,36.878458084848795,9000,2018-04-11 08:47:07,1830.0856786627448,21.2000006784,0.0,0.350178011205696,1830.0856786627448,21.2000006784,0.503999582744,0.38528101232899203,1684,0.0,99,P-GPS,
0.0805037438466238,36.8784580724286,9100,2018-04-11 08:47:08,1830.585678678745,21.700000694400003,0.0,0.34666501109328,1830.585678678745,21.700000694400003,0.503999582744,0.38528101232899203,1684,0.0,99,P-GPS,
0.0805036517585229,36.8784580360876,9200,2018-04-11 08:47:08,1831.0856786947447,22.2000007104,0.0,0.339341010858912,1831.0856786947447,22.2000007104,0.503999582744,0.38528101232899203,1684,0.0,99,P-GPS,
0.0805035803365976,36.87845800855089,9300,2018-04-11 08:47:08,1831.585678710745,22.700000726400003,0.0,0.33386801068377603,1831.585678710745,22.700000726400003,0.503999582744,0.38528101232899203,1684,0.0,99,P-GPS,
0.0805035440263676,36.8784579913806,9400,2018-04-11 08:47:08,1832.1856787299448,23.300000745600002,0.0,0.33080001058560005,1832.1856787299448,23.300000745600002,0.503999582744,0.38528101232899203,1684,0.0,99,P-GPS,
0.0805035256963984,36.87845796962021,9500,2018-04-11 08:47:08,1832.6856787459446,23.800000761600003,0.0,0.32787401049196807,1832.6856787459446,23.800000761600003,0.503999582744,0.38528101232899203,1684,0.0,99,P-GPS,
0.080503521154261,36.8784579468824,9600,2018-04-11 08:47:08,1833.185678761945,24.3000007776,0.0,0.32531201040998403,1833.185678761945,24.3000007776,0.503999582744,0.38528101232899203,1684,0.0,99,P-GPS,
0.0805035145665944,36.8784579220859,9700,2018-04-11 08:47:08,1833.6856787779448,24.8000007936,0.0,0.322462010318784,1833.6856787779448,24.8000007936,0.503999582744,0.38528101232899203,1684,0.0,99,P-GPS,
0.0805034885322531,36.8784578881509,9800,2018-04-11 08:47:08,1834.1856787939448,25.3000008096,0.0,0.317991010175712,1834.1856787939448,25.3000008096,0.503999582744,0.38528101232899203,1684,0.0,99,P-GPS,
0.0805034356151512,36.8784578407766,9900,2018-04-11 08:47:08,1834.7856788131448,25.900000828800003,0.0,0.311232009959424,1834.7856788131448,25.900000828800003,0.503999582744,0.38528101232899203,1684,0.0,99,P-GPS,
0.0805033627587703,36.878457778359206,10000,2018-04-11 08:47:08,1835.285678829145,26.4000008448,0.35999970196000003,0.302317009674144,1835.285678829145,26.4000008448,0.503999582744,0.38528101232899203,1684,0.0,99,P-GPS,
0.0805032839604009,36.8784577015078,10100,2018-04-11 08:47:09,1835.785678845145,26.9000008608,0.0,0.29180000933760003,1835.785678845145,26.9000008608,0.503999582744,0.38528101232899203,1684,0.0,99,P-GPS,
0.0805032017885061,36.8784575275831,10300,2018-04-11 08:47:09,1836.7856788771448,27.9000008928,0.0,0.27082900866652804,1836.7856788771448,27.9000008928,0.503999582744,0.38528101232899203,1684,0.0,99,P-GPS,
0.0805031603959024,36.8784574725595,10400,2018-04-11 08:47:09,1837.2856788931447,28.400000908800006,0.0,0.26382400844236803,1837.2856788931447,28.400000908800006,0.503999582744,0.38528101232899203,1684,0.0,99,P-GPS,
0.0805031273040883,36.8784574155844,10500,2018-04-11 08:47:09,1837.885678912345,29.000000928,0.0,0.25683900821884803,1837.885678912345,29.000000928,0.503999582744,0.38528101232899203,1684,0.0,99,P-GPS,
0.0805031246218375,36.878457375345896,10600,2018-04-11 08:47:09,1838.3856789283448,29.500000944,0.0,0.25240400807692803,1838.3856789283448,29.500000944,0.503999582744,0.38528101232899203,1684,0.0,99,P-GPS,
0.08050313278217401,36.87845735100711,10700,2018-04-11 08:47:09,1838.885678944345,30.00000096,0.0,0.249962007998784,1838.885678944345,30.00000096,0.503999582744,0.38528101232899203,1684,0.0,99,P-GPS,
0.0805031360199277,36.878457335080206,10800,2018-04-11 08:47:09,1839.4856789635448,30.6000009792,0.0,0.248316007946112,1839.4856789635448,30.6000009792,0.503999582744,0.38528101232899203,1684,0.0,99,P-GPS,
0.0805031417127644,36.8784573235721,10900,2018-04-11 08:47:09,1839.985678979545,31.100000995200002,0.0,0.24721300791081602,1839.985678979545,31.100000995200002,0.503999582744,0.38528101232899203,1684,0.0,99,P-GPS,
0.0805031467582945,36.8784573216012,11000,2018-04-11 08:47:09,1840.585678998745,31.7000010144,0.0,0.247128007908096,1840.585678998745,31.7000010144,0.503999582744,0.38528101232899203,1684,0.0,99,P-GPS,
0.0805031633234376,36.878457315637604,11100,2018-04-11 08:47:10,1841.0856790147448,32.2000010304,0.0,0.24691500790128001,1841.0856790147448,32.2000010304,0.503999582744,0.38528101232899203,1684,0.0,99,P-GPS,
0.0805031914132823,36.8784573025279,11200,2018-04-11 08:47:10,1841.585679030745,32.700001046400004,0.0,0.246267007880544,1841.585679030745,32.700001046400004,0.503999582744,0.38528101232899203,1684,0.0,99,P-GPS,
0.0805032357159154,36.878457280624104,11300,2018-04-11 08:47:10,1842.1856790499448,33.3000010656,0.0,0.245207007846624,1842.1856790499448,33.3000010656,0.503999582744,0.38528101232899203,1684,0.0,99,P-GPS,
0.080503283509729,36.8784572438677,11400,2018-04-11 08:47:10,1842.685679065945,33.800001081599994,0.0,0.24280400776972802,1842.685679065945,33.800001081599994,0.503999582744,0.38528101232899203,1684,0.0,99,P-GPS,
0.0805033503376102,36.8784571923149,11500,2018-04-11 08:47:10,1843.185679081945,34.3000010976,0.0,0.23970100767043204,1843.185679081945,34.3000010976,0.503999582744,0.38528101232899203,1684,0.0,98,P-GPS,
0.0805034120912599,36.878457165063,11600,2018-04-11 08:47:10,1843.6856790979448,34.800001113600004,0.0,0.23924100765571202,1843.6856790979448,34.800001113600004,0.503999582744,0.38528101232899203,1684,0.0,98,P-GPS,
0.0805034565601979,36.878457154650896,11700,2018-04-11 08:47:10,1844.285679117145,35.40000113280001,0.0,0.240002007680064,1844.285679117145,35.40000113280001,0.503999582744,0.38528101232899203,1684,0.0,98,P-GPS,
0.0805034690471064,36.8784571459871,11800,2018-04-11 08:47:10,1844.7856791331449,35.9000011488,0.0,0.239646007668672,1844.7856791331449,35.9000011488,0.503999582744,0.38528101232899203,1684,0.0,98,P-GPS,
0.0805035097396828,36.8784571184196,11900,2018-04-11 08:47:10,1845.2856791491447,36.4000011648,0.0,0.238632007636224,1845.2856791491447,36.4000011648,0.503999582744,0.38528101232899203,1684,0.0,98,P-GPS,
0.0805035714542498,36.8784570929214,12000,2018-04-11 08:47:10,1845.785679165145,36.900001180800004,0.0,0.23895800764665603,1845.785679165145,36.900001180800004,0.503999582744,0.38528101232899203,1684,0.0,98,P-GPS,
0.0805036559753786,36.8784570512181,12100,2018-04-11 08:47:11,1846.3856791843448,37.5000012,0.0,0.23911400765164803,1846.3856791843448,37.5000012,0.503999582744,0.38528101232899203,1684,0.0,98,P-GPS,
0.0805037302491164,36.8784569673564,12300,2018-04-11 08:47:11,1847.385679216345,38.500001232,0.0,0.235123007523936,1847.385679216345,38.500001232,0.503999582744,0.38528101232899203,1684,0.0,98,P-GPS,
0.0805037175521386,36.878456948739704,12400,2018-04-11 08:47:11,1847.8856792323447,39.000001248000004,0.0,0.23262100744387196,1847.8856792323447,39.000001248000004,0.503999582744,0.38528101232899203,1684,0.0,98,P-GPS,
0.0805037208863777,36.8784569431851,12500,2018-04-11 08:47:11,1848.3856792483448,39.500001264000005,0.0,0.23228500743312,1848.3856792483448,39.500001264000005,0.503999582744,0.38528101232899203,1684,0.0,98,P-GPS,
0.0805037337299155,36.8784569209932,12600,2018-04-11 08:47:11,1848.9856792675448,40.10000128320001,0.0,0.230934007389888,1848.9856792675448,40.10000128320001,0.503999582744,0.38528101232899203,1684,0.0,98,P-GPS,
0.080503830577144,36.878456800859794,12800,2018-04-11 08:47:11,1849.985679299545,41.100001315200004,0.0,0.225884007228288,1849.985679299545,41.100001315200004,0.503999582744,0.38528101232899203,1684,0.0,98,P-GPS,
0.0805039365489513,36.878456698170204,13000,2018-04-11 08:47:11,1850.9856793315448,42.1000013472,0.0,0.224184007173888,1850.9856793315448,42.1000013472,0.503999582744,0.38528101232899203,1684,0.0,98,P-GPS,
0.0805039481678992,36.878456639351505,13100,2018-04-11 08:47:12,1851.4856793475449,42.60000136320001,0.0,0.220087007042784,1851.4856793475449,42.60000136320001,0.503999582744,0.38528101232899203,1684,0.0,98,P-GPS,
0.0805039258859,36.8784565986642,13200,2018-04-11 08:47:12,1851.985679363545,43.1000013792,0.0,0.215061006881952,1851.985679363545,43.1000013792,0.503999582744,0.38528101232899203,1684,0.0,98,P-GPS,
0.080503909806644,36.8784565624849,13300,2018-04-11 08:47:12,1852.4856793795448,43.6000013952,0.0,0.210877006748064,1852.4856793795448,43.6000013952,0.503999582744,0.38528101232899203,1684,0.0,98,P-GPS,
0.0805038647769106,36.8784565331965,13400,2018-04-11 08:47:12,1852.9856793955448,44.100001411200004,0.0,0.20510400656332803,1852.9856793955448,44.100001411200004,0.503999582744,0.38528101232899203,1684,0.0,98,P-GPS,
0.0805038032921577,36.8784565135598,13500,2018-04-11 08:47:12,1853.4856794115449,44.6000014272,0.35999970196000003,0.19894900636636803,1853.4856794115449,44.6000014272,0.503999582744,0.38528101232899203,1684,0.0,98,P-GPS,
0.0805037179030683,36.878456504034204,13600,2018-04-11 08:47:12,1853.985679427545,45.10000144320001,0.35999970196000003,0.192053006145696,1853.985679427545,45.10000144320001,0.503999582744,0.38528101232899203,1684,0.0,98,P-GPS,
0.0805036498056114,36.8784564844636,13700,2018-04-11 08:47:12,1854.4856794435448,45.6000014592,0.35999970196000003,0.185662005941184,1854.4856794435448,45.6000014592,0.503999582744,0.38528101232899203,1684,0.0,98,P-GPS,
0.0805035679954348,36.878456443031794,13900,2018-04-11 08:47:12,1855.4856794755449,46.600001491200004,0.35999970196000003,0.176527005648864,1855.4856794755449,46.600001491200004,0.503999582744,0.38528101232899203,1684,0.0,98,P-GPS,
0.0805035254099958,36.8784564392618,14000,2018-04-11 08:47:13,1855.9856794915447,47.1000015072,0.35999970196000003,0.17344000555008,1855.9856794915447,47.1000015072,0.503999582744,0.38528101232899203,1684,0.0,98,P-GPS,
0.0805034829705062,36.8784564148381,14100,2018-04-11 08:47:13,1856.485679507545,47.60000152320001,0.35999970196000003,0.16853000539296004,1856.485679507545,47.60000152320001,0.503999582744,0.38528101232899203,1684,-0.1,98,P-GPS,
0.0805034079796423,36.87845637832871,14200,2018-04-11 08:47:13,1856.9856795235448,48.1000015392,0.35999970196000003,0.160564005138048,1856.9856795235448,48.1000015392,0.503999582744,0.38528101232899203,1684,-0.8,98,P-GPS,
0.0805033450575841,36.878456347870205,14300,2018-04-11 08:47:13,1857.485679539545,48.6000015552,0.35999970196000003,0.15400900492828803,1857.485679539545,48.6000015552,0.503999582744,0.38528101232899203,1684,-2.6,98,P-GPS,
0.0805032953552342,36.8784563359242,14400,2018-04-11 08:47:13,1857.985679555545,49.1000015712,0.0,0.150087004802784,1857.985679555545,49.1000015712,0.503999582744,0.38528101232899203,1684,-5.3,98,P-GPS,
0.0805032822318075,36.878456294359104,14500,2018-04-11 08:47:13,1858.485679571545,49.6000015872,0.0,0.14534600465107197,1858.485679571545,49.6000015872,0.503999582744,0.38528101232899203,1684,-8.2,98,P-GPS,
0.0805032874670514,36.878456252126206,14600,2018-04-11 08:47:13,1858.9856795875448,50.100001603200006,0.0,0.141584004530688,1858.9856795875448,50.100001603200006,0.503999582744,0.38528101232899203,1684,-8.4,98,P-GPS,
0.0805032987981719,36.8784562026568,14700,2018-04-11 08:47:13,1859.4856796035447,50.6000016192,0.0,0.137563004402016,1859.4856796035447,50.6000016192,0.503999582744,0.38528101232899203,1684,-8.4,98,P-GPS,
0.0805032876974763,36.878456174811795,14800,2018-04-11 08:47:13,1859.985679619545,51.1000016352,0.0,0.13429000429728,1859.985679619545,51.1000016352,0.503999582744,0.38528101232899203,1684,-8.4,98,P-GPS,
0.0805032877074505,36.878456159927104,14900,2018-04-11 08:47:13,1860.4856796355448,51.600001651199996,0.0,0.132901004252832,1860.4856796355448,51.600001651199996,0.503999582744,0.38528101232899203,1684,-8.4,98,P-GPS,
0.0805032992997326,36.878456181732204,15000,2018-04-11 08:47:13,1861.085679654745,52.200001670400006,0.0,0.135637004340384,1861.085679654745,52.200001670400006,0.503999582744,0.38528101232899203,1684,-8.4,98,P-GPS,
0.080503317239893,36.8784561832586,15100,2018-04-11 08:47:14,1861.5856796707449,52.7000016864,0.0,0.136876004380032,1861.5856796707449,52.7000016864,0.503999582744,0.38528101232899203,1684,-8.4,98,P-GPS,
0.0805033095803031,36.8784561934009,15200,2018-04-11 08:47:14,1862.0856796867447,53.2000017024,0.0,0.137348004395136,1862.0856796867447,53.2000017024,0.503999582744,0.38528101232899203,1684,-8.4,98,P-GPS,
0.0805032895286615,36.878456194990704,15300,2018-04-11 08:47:14,1862.585679702745,53.7000017184,0.0,0.136291004361312,1862.585679702745,53.7000017184,0.503999582744,0.38528101232899203,1684,-8.4,98,P-GPS,
0.0805032375312234,36.8784561895281,15400,2018-04-11 08:47:14,1863.0856797187448,54.200001734400004,0.0,0.13276500424848,1863.0856797187448,54.200001734400004,0.503999582744,0.38528101232899203,1684,-8.4,98,P-GPS,
0.0805031904115857,36.8784561746557,15500,2018-04-11 08:47:14,1863.5856797347449,54.700001750400006,0.0,0.128743004119776,1863.5856797347449,54.700001750400006,0.503999582744,0.38528101232899203,1684,-8.5,98,P-GPS,
0.0805031921572776,36.8784561882584,15600,2018-04-11 08:47:14,1864.0856797507447,55.2000017664,0.0,0.13016500416527998,1864.0856797507447,55.2000017664,0.503999582744,0.38528101232899203,1684,-10.2,98,P-GPS,
0.0805032562872342,36.878456209878,15700,2018-04-11 08:47:14,1864.585679766745,55.7000017824,0.0,0.135773004344736,1864.585679766745,55.7000017824,0.503999582744,0.38528101232899203,1684,-13.2,98,P-GPS,
0.0805033671830491,36.8784562332702,15800,2018-04-11 08:47:14,1865.0856797827448,56.2000017984,0.0,0.144592004626944,1865.0856797827448,56.2000017984,0.503999582744,0.38528101232899203,1684,-16.6,98,P-GPS,
0.0805035104903955,36.87845625190079,15900,2018-04-11 08:47:14,1865.6856798019448,56.80000181760001,0.35999970196000003,0.155748004983936,1865.6856798019448,56.80000181760001,0.503999582744,0.38528101232899203,1684,-17.2,98,P-GPS,
0.0805036542567595,36.8784562851067,16000,2018-04-11 08:47:14,1866.185679817945,57.3000018336,0.35999970196000003,0.168936005405952,1866.185679817945,57.3000018336,0.503999582744,0.38528101232899203,1684,-17.2,98,P-GPS,
0.08050381425606401,36.8784563086129,16100,2018-04-11 08:47:15,1866.6856798339447,57.8000018496,0.35999970196000003,0.183176005861632,1866.6856798339447,57.8000018496,0.503999582744,0.38528101232899203,1684,-17.2,98,P-GPS,
0.0805039516723107,36.8784563138493,16200,2018-04-11 08:47:15,1867.185679849945,58.30000186560001,0.0,0.194798006233536,1867.185679849945,58.30000186560001,0.503999582744,0.38528101232899203,1684,-17.2,98,P-GPS,
0.0805040843351293,36.8784563151795,16300,2018-04-11 08:47:15,1867.6856798659448,58.8000018816,0.0,0.20621400659884806,1867.6856798659448,58.8000018816,0.503999582744,0.38528101232899203,1684,-17.2,98,P-GPS,
0.0805041896832426,36.8784563206413,16400,2018-04-11 08:47:15,1868.185679881945,59.30000189760001,0.0,0.21586100690755203,1868.185679881945,59.30000189760001,0.503999582744,0.38528101232899203,1684,-17.2,98,P-GPS,
0.0805043106664538,36.878456321172294,16500,2018-04-11 08:47:15,1868.6856798979447,59.800001913600006,0.0,0.22681800725817602,1868.6856798979447,59.800001913600006,0.503999582744,0.38528101232899203,1684,-17.2,98,P-GPS,
0.0805044345686509,36.878456338201296,16600,2018-04-11 08:47:15,1869.185679913945,60.30000192960001,0.35999970196000003,0.239304007657728,1869.185679913945,60.30000192960001,0.503999582744,0.38528101232899203,1684,-17.2,98,P-GPS,
0.0805045938719991,36.8784563429274,16700,2018-04-11 08:47:15,1869.7856799331448,60.9000019488,0.35999970196000003,0.25458000814656,1869.7856799331448,60.9000019488,0.503999582744,0.38528101232899203,1684,-17.2,98,P-GPS,
0.0805047282153719,36.8784563366924,16800,2018-04-11 08:47:15,1870.2856799491449,61.400001964800005,0.0,0.267139008548448,1870.2856799491449,61.400001964800005,0.503999582744,0.38528101232899203,1684,-17.2,98,P-GPS,
0.0805048366811412,36.878456348649294,16900,2018-04-11 08:47:15,1870.785679965145,61.9000019808,0.0,0.27834500890704006,1870.785679965145,61.9000019808,0.503999582744,0.38528101232899203,1684,-17.2,98,P-GPS,
0.0805048843375548,36.8784563830445,17000,2018-04-11 08:47:15,1871.2856799811448,62.4000019968,0.0,0.284827009114464,1871.2856799811448,62.4000019968,0.503999582744,0.38528101232899203,1684,-17.2,98,P-GPS,
0.0805049098809202,36.8784564222194,17100,2018-04-11 08:47:16,1871.785679997145,62.9000020128,0.0,0.289414009261248,1871.785679997145,62.9000020128,0.503999582744,0.38528101232899203,1684,-17.2,98,P-GPS,
0.0805049031045576,36.878456454918606,17200,2018-04-11 08:47:16,1872.2856800131449,63.4000020288,0.0,0.290542009297344,1872.2856800131449,63.4000020288,0.503999582744,0.38528101232899203,1684,-17.2,98,P-GPS,
0.0805049199088784,36.878456502078,17300,2018-04-11 08:47:16,1872.7856800291447,63.900002044800004,0.0,0.29478800943321604,1872.7856800291447,63.900002044800004,0.503999582744,0.38528101232899203,1684,-17.2,98,P-GPS,
0.0805049340677918,36.8784565429106,17400,2018-04-11 08:47:16,1873.2856800451448,64.4000020608,0.0,0.298462009550784,1873.2856800451448,64.4000020608,0.503999582744,0.38528101232899203,1684,-17.2,98,P-GPS,
0.080504982005112,36.878456567944,17500,2018-04-11 08:47:16,1873.7856800611448,64.9000020768,0.0,0.30446500974288004,1873.7856800611448,64.9000020768,0.503999582744,0.38528101232899203,1684,-17.2,98,P-GPS,
0.0805050265552686,36.8784565823364,17600,2018-04-11 08:47:16,1874.285680077145,65.40000209280001,0.0,0.3095390099052481,1874.285680077145,65.40000209280001,0.503999582744,0.38528101232899203,1684,-17.2,98,P-GPS,
0.0805050933137374,36.8784566073115,17700,2018-04-11 08:47:16,1874.7856800931447,65.90000210880001,0.0,0.317342010154944,1874.7856800931447,65.90000210880001,0.503999582744,0.38528101232899203,1684,-17.2,98,P-GPS,
0.0805051287869472,36.8784566421146,17800,2018-04-11 08:47:16,1875.1856801059448,66.3000021216,0.0,0.322708010326656,1875.1856801059448,66.3000021216,0.503999582744,0.38528101232899203,1684,-17.2,98,P-GPS,
0.0805051931511962,36.8784566587754,17900,2018-04-11 08:47:16,1875.6856801219449,66.8000021376,0.0,0.329814010554048,1875.6856801219449,66.8000021376,0.503999582744,0.38528101232899203,1684,-17.2,98,P-GPS,
0.0805052599711387,36.87845664009421,18000,2018-04-11 08:47:16,1876.185680137945,67.30000215359999,0.0,0.335221010727072,1876.185680137945,67.30000215359999,0.503999582744,0.38528101232899203,1684,-17.2,98,P-GPS,
0.0805053721004999,36.878456619706796,18100,2018-04-11 08:47:17,1876.6856801539448,67.8000021696,0.0,0.3450630110420161,1876.6856801539448,67.8000021696,0.503999582744,0.38528101232899203,1684,-17.2,98,P-GPS,
0.0805054554031454,36.878456606454,18200,2018-04-11 08:47:17,1877.185680169945,68.30000218560001,0.0,0.352588011282816,1877.185680169945,68.30000218560001,0.503999582744,0.38528101232899203,1684,-17.2,98,P-GPS,
0.0805055527987524,36.87845658189,18300,2018-04-11 08:47:17,1877.6856801859449,68.8000022016,0.0,0.361054011553728,1877.6856801859449,68.8000022016,0.503999582744,0.38528101232899203,1684,-17.2,98,P-GPS,
0.0805056207268511,36.8784565529504,18400,2018-04-11 08:47:17,1878.1856802019447,69.30000221760001,0.0,0.3664860117275521,1878.1856802019447,69.30000221760001,0.503999582744,0.38528101232899203,1684,-17.2,98,P-GPS,
0.0805056985237275,36.8784565086574,18500,2018-04-11 08:47:17,1878.685680217945,69.8000022336,0.0,0.372331011914592,1878.685680217945,69.8000022336,0.503999582744,0.38528101232899203,1684,-17.2,98,P-GPS,
0.0805057413021371,36.878456441954,18600,2018-04-11 08:47:17,1879.1856802339448,70.30000224960001,0.0,0.37379701196150406,1879.1856802339448,70.30000224960001,0.503999582744,0.38528101232899203,1684,-17.2,98,P-GPS,
0.0805057921954902,36.8784563606945,18700,2018-04-11 08:47:17,1879.6856802499449,70.80000226560001,0.0,0.375727012023264,1879.6856802499449,70.80000226560001,0.503999582744,0.38528101232899203,1684,-17.2,98,P-GPS,
0.0805058293871155,36.878456289226,18800,2018-04-11 08:47:17,1880.185680265945,71.3000022816,0.0,0.376871012059872,1880.185680265945,71.3000022816,0.503999582744,0.38528101232899203,1684,-17.2,98,P-GPS,
0.0805058714363893,36.8784562219682,18900,2018-04-11 08:47:17,1880.685680281945,71.8000022976,0.0,0.37888301212425607,1880.685680281945,71.8000022976,0.503999582744,0.38528101232899203,1684,-17.2,98,P-GPS,
0.0805058911299768,36.8784561011462,19100,2018-04-11 08:47:18,1881.6856803139447,72.8000023296,0.0,0.37701301206441606,1881.6856803139447,72.8000023296,0.503999582744,0.38528101232899203,1684,-17.2,98,P-GPS,
0.0805059127190731,36.8784560310816,19200,2018-04-11 08:47:18,1882.185680329945,73.3000023456,0.0,0.3772430120717761,1882.185680329945,73.3000023456,0.503999582744,0.38528101232899203,1684,-17.2,98,P-GPS,
0.0805060112847171,36.8784559127813,19400,2018-04-11 08:47:18,1883.1856803619448,74.30000237760001,0.0,0.384768012312576,1883.1856803619448,74.30000237760001,0.503999582744,0.38528101232899203,1684,-17.2,98,P-GPS,
0.0805060723619519,36.8784558685507,19500,2018-04-11 08:47:18,1883.685680377945,74.8000023936,0.0,0.39037601249203197,1883.685680377945,74.8000023936,0.503999582744,0.39037601249203197,1684,-17.2,98,P-GPS,
0.0805061147658193,36.878455844194995,19600,2018-04-11 08:47:18,1884.185680393945,75.30000240960001,0.0,0.3944640126228481,1884.185680393945,75.30000240960001,0.503999582744,0.3944640126228481,1684,-17.2,98,P-GPS,
0.0805061538944788,36.8784558220805,19700,2018-04-11 08:47:18,1884.6856804099448,75.80000242560001,0.0,0.398272012744704,1884.6856804099448,75.80000242560001,0.503999582744,0.398272012744704,1684,-17.2,98,P-GPS,
0.0805061488275753,36.8784557962214,19800,2018-04-11 08:47:18,1885.185680425945,76.3000024416,0.0,0.39719501271024005,1885.185680425945,76.3000024416,0.503999582744,0.398272012744704,1684,-17.2,98,P-GPS,
0.0805061393634659,36.878455769038,19900,2018-04-11 08:47:18,1885.685680441945,76.8000024576,0.0,0.39563001266016,1885.685680441945,76.8000024576,0.503999582744,0.398272012744704,1684,-17.2,98,P-GPS,
0.0805061796096451,36.8784557098005,20000,2018-04-11 08:47:18,1886.1856804579447,77.3000024736,0.0,0.39897601276723205,1886.1856804579447,77.3000024736,0.503999582744,0.39897601276723205,1684,-17.2,98,P-GPS,
0.0805062008433334,36.878455651057,20100,2018-04-11 08:47:19,1886.6856804739448,77.8000024896,0.0,0.40036501281168,1886.6856804739448,77.8000024896,0.503999582744,0.40036501281168,1684,-17.2,98,P-GPS,
0.0805061911317006,36.8784556065569,20200,2018-04-11 08:47:19,1887.1856804899448,78.3000025056,0.0,0.39864701275670394,1887.1856804899448,78.3000025056,0.503999582744,0.40036501281168,1684,-17.2,98,P-GPS,
0.0805061798274494,36.8784555640001,20300,2018-04-11 08:47:19,1887.685680505945,78.8000025216,0.0,0.39683601269875196,1887.685680505945,78.8000025216,0.503999582744,0.40036501281168,1684,-17.2,98,P-GPS,
0.0805061521080757,36.878455546309794,20400,2018-04-11 08:47:19,1888.1856805219447,79.30000253760001,0.0,0.39355301259369607,1888.1856805219447,79.30000253760001,0.503999582744,0.40036501281168,1684,-17.2,98,P-GPS,
0.08050615178279401,36.878455527703295,20500,2018-04-11 08:47:19,1888.7856805411448,79.9000025568,0.0,0.393296012585472,1888.7856805411448,79.9000025568,0.503999582744,0.40036501281168,1684,-17.2,98,P-GPS,
0.0805061513032173,36.878455517241704,20600,2018-04-11 08:47:19,1889.1856805539448,80.30000256960001,0.0,0.39312401257996804,1889.1856805539448,80.30000256960001,0.503999582744,0.40036501281168,1684,-17.2,98,P-GPS,
0.0805061546973017,36.8784554956435,20700,2018-04-11 08:47:19,1889.7856805731449,80.9000025888,0.0,0.3932630125844161,1889.7856805731449,80.9000025888,0.503999582744,0.40036501281168,1684,-17.2,98,P-GPS,
0.0805061385809986,36.8784554794142,20800,2018-04-11 08:47:19,1890.285680589145,81.4000026048,0.0,0.391311012521952,1890.285680589145,81.4000026048,0.503999582744,0.40036501281168,1684,-17.2,98,P-GPS,
0.0805061321168901,36.8784554469748,20900,2018-04-11 08:47:19,1890.7856806051448,81.9000026208,0.0,0.3902830124890561,1890.7856806051448,81.9000026208,0.503999582744,0.40036501281168,1684,-17.2,98,P-GPS,
0.0805061117450557,36.8784554217319,21000,2018-04-11 08:47:19,1891.285680621145,82.40000263680001,0.0,0.38780301240969606,1891.285680621145,82.40000263680001,0.503999582744,0.40036501281168,1684,-17.2,98,P-GPS,
0.0805061053407926,36.878455391396706,21100,2018-04-11 08:47:20,1891.7856806371449,82.9000026528,0.0,0.38685401237932804,1891.7856806371449,82.9000026528,0.503999582744,0.40036501281168,1684,-17.2,98,P-GPS,
0.0805060780810472,36.8784553706191,21200,2018-04-11 08:47:20,1892.285680653145,83.4000026688,0.0,0.38368001227776005,1892.285680653145,83.4000026688,0.503999582744,0.40036501281168,1684,-17.2,98,P-GPS,
0.0805060563763314,36.87845536343129,21300,2018-04-11 08:47:20,1892.7856806691448,83.9000026848,0.35999970196000003,0.38122301219913607,1892.7856806691448,83.9000026848,0.503999582744,0.40036501281168,1684,-17.2,98,P-GPS,
0.0805060139122115,36.8784553949567,21400,2018-04-11 08:47:20,1893.2856806851448,84.4000027008,0.35999970196000003,0.37673701205558396,1893.2856806851448,84.4000027008,0.503999582744,0.40036501281168,1684,-17.2,98,P-GPS,
0.0805059861224076,36.8784554287232,21500,2018-04-11 08:47:20,1893.685680697945,84.8000027136,0.35999970196000003,0.373936011965952,1893.685680697945,84.8000027136,0.503999582744,0.40036501281168,1684,-17.2,98,P-GPS,
0.0805059410979666,36.8784554517723,21600,2018-04-11 08:47:20,1894.1856807139447,85.30000272960001,0.35999970196000003,0.369162011813184,1894.1856807139447,85.30000272960001,0.503999582744,0.40036501281168,1684,-17.2,98,P-GPS,
0.0805059235767234,36.878455457642204,21700,2018-04-11 08:47:20,1894.6856807299448,85.80000274560001,0.0,0.36728001175296,1894.6856807299448,85.80000274560001,0.503999582744,0.40036501281168,1684,-17.2,98,P-GPS,
0.0805059215220342,36.878455460421705,21800,2018-04-11 08:47:20,1895.1856807459449,86.3000027616,0.0,0.36708101174659197,1895.1856807459449,86.3000027616,0.503999582744,0.40036501281168,1684,-17.2,98,P-GPS,
0.0805059404531028,36.878455447300794,21900,2018-04-11 08:47:20,1895.685680761945,86.80000277760001,0.0,0.36904801180953606,1895.685680761945,86.80000277760001,0.503999582744,0.40036501281168,1684,-17.2,98,P-GPS,
0.0805059339267064,36.8784554349828,22000,2018-04-11 08:47:20,1896.1856807779448,87.3000027936,0.0,0.36820801178265605,1896.1856807779448,87.3000027936,0.503999582744,0.40036501281168,1684,-17.2,98,P-GPS,
0.0805059431038025,36.8784554046469,22100,2018-04-11 08:47:21,1896.685680793945,87.8000028096,0.0,0.36896001180672,1896.685680793945,87.8000028096,0.503999582744,0.40036501281168,1684,-17.2,98,P-GPS,
0.0805059407352307,36.878455388583,22200,2018-04-11 08:47:21,1897.1856808099449,88.3000028256,0.0,0.368569011794208,1897.1856808099449,88.3000028256,0.503999582744,0.40036501281168,1684,-17.2,98,P-GPS,
0.080505955979095,36.8784553720949,22300,2018-04-11 08:47:21,1897.6856808259447,88.8000028416,0.0,0.37013901184444803,1897.6856808259447,88.8000028416,0.503999582744,0.40036501281168,1542,-17.2,98,P-GPS,
0.0805059605688644,36.878455363945996,22400,2018-04-11 08:47:21,1898.185680841945,89.3000028576,0.0,0.370591011858912,1898.185680841945,89.3000028576,0.503999582744,0.40036501281168,1024,-17.2,98,P-GPS,
0.0805059789222424,36.8784553301173,22500,2018-04-11 08:47:21,1898.6856808579448,89.8000028736,0.0,0.372418011917376,1898.6856808579448,89.8000028736,0.503999582744,0.40036501281168,1024,-17.2,98,P-GPS,
0.0805059875354898,36.878455272412,22600,2018-04-11 08:47:21,1899.1856808739449,90.30000288960001,0.0,0.373103011939296,1899.1856808739449,90.30000288960001,0.503999582744,0.40036501281168,994,-17.2,98,P-GPS,
0.080505998201798,36.8784552037286,22700,2018-04-11 08:47:21,1899.5856808867447,90.7000029024,0.0,0.37410901197148805,1899.5856808867447,90.7000029024,0.503999582744,0.40036501281168,859,-17.2,98,P-GPS,
0.0805059854950495,36.8784551665817,22800,2018-04-11 08:47:21,1899.8856808963449,91.00000291200001,0.0,0.372664011925248,1899.8856808963449,91.00000291200001,0.503999582744,0.40036501281168,821,-17.2,98,P-GPS,
0.0805060043263759,36.8784551314699,22900,2018-04-11 08:47:21,1900.185680905945,91.3000029216,0.0,0.37477001199264004,1900.185680905945,91.3000029216,0.503999582744,0.40036501281168,1024,-17.2,98,P-GPS,
0.0805060405678042,36.8784550979303,23000,2018-04-11 08:47:21,1900.3856809123447,91.50000292800001,0.0,0.378849012123168,1900.3856809123447,91.50000292800001,0.503999582744,0.40036501281168,1228,-17.2,98,P-GPS,
0.0805061024079649,36.8784550703634,23100,2018-04-11 08:47:22,1900.485680915545,91.60000293120001,0.0,0.385791012345312,1900.485680915545,91.60000293120001,0.503999582744,0.40036501281168,1349,-17.2,98,P-GPS,
0.0805061384893986,36.8784550671688,23200,2018-04-11 08:47:22,1900.485680915545,91.60000293120001,0.0,0.389812012473984,1900.485680915545,91.60000293120001,0.503999582744,0.40036501281168,1423,-17.2,98,P-GPS,
0.08050619522275901,36.8784550587025,23300,2018-04-11 08:47:22,1900.5856809187449,91.7000029344,0.0,0.39614401267660804,1900.5856809187449,91.7000029344,0.503999582744,0.40036501281168,1445,-17.2,98,P-GPS,
0.0805062486841683,36.8784550230983,23400,2018-04-11 08:47:22,1900.6856809219448,91.8000029376,0.35999970196000003,0.40221701287094397,1900.6856809219448,91.8000029376,0.503999582744,0.40221701287094397,1424,-17.2,98,P-GPS,
0.0805063147652044,36.878454983508604,23500,2018-04-11 08:47:22,1900.885680928345,92.00000294399999,0.35999970196000003,0.40974601311187203,1900.885680928345,92.00000294399999,0.503999582744,0.40974601311187203,1292,-17.2,98,P-GPS,
0.0805063176231236,36.8784549669643,23600,2018-04-11 08:47:22,1901.085680934745,92.2000029504,0.35999970196000003,0.41015601312499206,1901.085680934745,92.2000029504,0.503999582744,0.41015601312499206,1292,-17.2,98,P-GPS,
0.0805062616636812,36.87845494381379,23700,2018-04-11 08:47:22,1901.285680941145,92.40000295680002,0.35999970196000003,0.404086012930752,1901.285680941145,92.40000295680002,0.503999582744,0.41015601312499206,1024,-17.2,98,P-GPS,
0.0805061266322907,36.878454909131996,23800,2018-04-11 08:47:22,1901.4856809475448,92.6000029632,0.0,0.38935301245929604,1901.4856809475448,92.6000029632,0.503999582744,0.41015601312499206,1024,-17.2,98,P-GPS,
0.0805059680776196,36.8784548752142,23900,2018-04-11 08:47:22,1901.685680953945,92.8000029696,0.0,0.372069011906208,1901.685680953945,92.8000029696,0.503999582744,0.41015601312499206,1024,-17.2,98,P-GPS,
0.0805057673633477,36.878454856329,24000,2018-04-11 08:47:22,1901.785680957145,92.9000029728,0.0,0.35003001120096,1901.785680957145,92.9000029728,0.503999582744,0.41015601312499206,1113,-17.2,98,P-GPS,
0.0805055239011995,36.8784548364041,24100,2018-04-11 08:47:23,1901.785680957145,92.9000029728,0.0,0.32333001034656,1901.785680957145,92.9000029728,0.503999582744,0.41015601312499206,1326,-17.2,98,P-GPS,
0.080505005966444,36.8784547083927,24300,2018-04-11 08:47:23,1901.8856809603449,93.00000297600002,0.35999970196000003,0.268457008590624,1901.8856809603449,93.00000297600002,0.503999582744,0.41015601312499206,1421,-17.2,98,P-GPS,
0.0805047006584355,36.878454614187795,24400,2018-04-11 08:47:23,1901.9856809635448,93.10000297920001,0.35999970196000003,0.237641007604512,1901.9856809635448,93.10000297920001,0.503999582744,0.41015601312499206,1421,-17.2,98,P-GPS,
0.0805044297863179,36.878454499309996,24500,2018-04-11 08:47:23,1902.1856809699448,93.3000029856,0.35999970196000003,0.212719006807008,1902.1856809699448,93.3000029856,0.503999582744,0.41015601312499206,1181,-17.2,98,P-GPS,
0.0805041838843535,36.8784543937331,24600,2018-04-11 08:47:23,1902.2856809731447,93.4000029888,0.35999970196000003,0.192194006150208,1902.2856809731447,93.4000029888,0.503999582744,0.41015601312499206,1181,-17.2,98,P-GPS,
0.0805039149044879,36.87845429634061,24700,2018-04-11 08:47:23,1902.485680979545,93.60000299520001,0.35999970196000003,0.17171400549484803,1902.485680979545,93.60000299520001,0.503999582744,0.41015601312499206,1024,-17.2,98,P-GPS,
0.0805036829631739,36.87845419839,24800,2018-04-11 08:47:23,1902.5856809827449,93.70000299840001,0.35999970196000003,0.15815900506108801,1902.5856809827449,93.70000299840001,0.503999582744,0.41015601312499206,1024,-17.2,98,P-GPS,
0.0805034078597481,36.8784541074573,24900,2018-04-11 08:47:23,1902.6856809859448,93.8000030016,0.7199994039200001,0.14518500464592,1902.6856809859448,93.8000030016,0.7199994039200001,0.41015601312499206,1024,-17.2,98,P-GPS,
0.0805030706906221,36.8784540230817,25000,2018-04-11 08:47:23,1902.785680989145,93.9000030048,0.7199994039200001,0.13534100433091198,1902.785680989145,93.9000030048,0.7199994039200001,0.41015601312499206,1201,-17.2,98,P-GPS,
0.0805027671606709,36.878453918813705,25100,2018-04-11 08:47:24,1902.785680989145,93.9000030048,0.7199994039200001,0.13872800443929598,1902.785680989145,93.9000030048,0.7199994039200001,0.41015601312499206,1389,-17.2,98,P-GPS,
0.0805024805447568,36.8784537981495,25200,2018-04-11 08:47:24,1902.885680992345,94.00000300800001,0.7199994039200001,0.152323004874336,1902.885680992345,94.00000300800001,0.7199994039200001,0.41015601312499206,1407,-17.2,98,P-GPS,
0.0805022234726843,36.8784536729408,25300,2018-04-11 08:47:24,1902.885680992345,94.00000300800001,0.35999970196000003,0.17148400548748802,1902.885680992345,94.00000300800001,0.7199994039200001,0.41015601312499206,1227,-17.2,98,P-GPS,
0.0805021217049087,36.878453533846,25400,2018-04-11 08:47:24,1903.0856809987447,94.2000030144,0.0,0.18953000606496004,1903.0856809987447,94.2000030144,0.7199994039200001,0.41015601312499206,1024,-17.2,97,P-GPS,
0.0805019318691515,36.878453283197,25600,2018-04-11 08:47:24,1903.1856810019449,94.3000030176,0.35999970196000003,0.222773007128736,1903.1856810019449,94.3000030176,0.7199994039200001,0.41015601312499206,1033,-17.2,97,P-GPS,
0.0805016689503545,36.8784531224839,25800,2018-04-11 08:47:24,1903.3856810083448,94.50000302400001,0.35999970196000003,0.25065500802095997,1903.3856810083448,94.50000302400001,0.7199994039200001,0.41015601312499206,1274,-17.2,97,P-GPS,
0.0805015169803985,36.8784530706976,25900,2018-04-11 08:47:24,1903.3856810083448,94.50000302400001,0.35999970196000003,0.26340900842908804,1903.3856810083448,94.50000302400001,0.7199994039200001,0.41015601312499206,1435,-17.2,97,P-GPS,
0.0805014232850233,36.878453002004,26000,2018-04-11 08:47:24,1903.3856810083448,94.50000302400001,0.35999970196000003,0.275116008803712,1903.3856810083448,94.50000302400001,0.7199994039200001,0.41015601312499206,1417,-17.2,97,P-GPS,
0.0805013825506163,36.878452916489294,26100,2018-04-11 08:47:25,1903.4856810115448,94.60000302720002,0.0,0.285627009140064,1903.4856810115448,94.60000302720002,0.7199994039200001,0.41015601312499206,1219,-17.2,97,P-GPS,
0.0805013565691994,36.8784528336359,26200,2018-04-11 08:47:25,1903.685681017945,94.80000303359999,0.0,0.295087009442784,1903.685681017945,94.80000303359999,0.7199994039200001,0.41015601312499206,1024,-17.2,97,P-GPS,
0.0805013408381251,36.8784527673413,26300,2018-04-11 08:47:25,1903.785681021145,94.9000030368,0.0,0.3023980096767361,1903.785681021145,94.9000030368,0.7199994039200001,0.41015601312499206,1024,-17.2,97,P-GPS,
0.0805013943396348,36.878452719379894,26400,2018-04-11 08:47:25,1903.8856810243446,95.00000304000001,0.0,0.30435800973945604,1903.8856810243446,95.00000304000001,0.7199994039200001,0.41015601312499206,1024,-17.2,97,P-GPS,
0.0805013641675191,36.8784526885656,26500,2018-04-11 08:47:25,1903.8856810243446,95.00000304000001,0.0,0.30893600988595205,1903.8856810243446,95.00000304000001,0.7199994039200001,0.41015601312499206,1024,-17.2,97,P-GPS,
0.0805013801625032,36.878452619179605,26600,2018-04-11 08:47:25,1903.9856810275448,95.1000030432,0.0,0.315027010080864,1903.9856810275448,95.1000030432,0.7199994039200001,0.41015601312499206,1024,-17.2,97,P-GPS,
0.0805013476618143,36.878452571597,26700,2018-04-11 08:47:25,1903.9856810275448,95.1000030432,0.0,0.32137301028393606,1903.9856810275448,95.1000030432,0.7199994039200001,0.41015601312499206,1035,-17.2,97,P-GPS,
0.0805013815147224,36.878452516419,26800,2018-04-11 08:47:25,1903.9856810275448,95.1000030432,0.0,0.32524801040793605,1903.9856810275448,95.1000030432,0.7199994039200001,0.41015601312499206,1025,-17.2,97,P-GPS,
0.0805013745147541,36.878452480202206,26900,2018-04-11 08:47:25,1903.9856810275448,95.1000030432,0.0,0.32922301053513603,1903.9856810275448,95.1000030432,0.7199994039200001,0.41015601312499206,1024,-17.2,97,P-GPS,
0.0805014353384605,36.8784524330294,27000,2018-04-11 08:47:25,1903.9856810275448,95.1000030432,0.0,0.331197010598304,1903.9856810275448,95.1000030432,0.7199994039200001,0.41015601312499206,1024,-17.2,97,P-GPS,
0.0805014504014656,36.8784524102833,27100,2018-04-11 08:47:26,1903.9856810275448,95.1000030432,0.0,0.33284801065113606,1903.9856810275448,95.1000030432,0.7199994039200001,0.41015601312499206,1024,-17.2,97,P-GPS,
0.0805015315815362,36.878452354695895,27300,2018-04-11 08:47:26,1903.9856810275448,95.1000030432,0.0,0.335126010724032,1903.9856810275448,95.1000030432,0.7199994039200001,0.41015601312499206,1024,-17.2,97,P-GPS,
0.0805016161304503,36.87845231258029,27400,2018-04-11 08:47:26,1903.9856810275448,95.1000030432,0.0,0.336207010758624,1903.9856810275448,95.1000030432,0.7199994039200001,0.41015601312499206,1024,-17.2,97,P-GPS,
0.0805016445295976,36.8784522945815,27500,2018-04-11 08:47:26,1903.9856810275448,95.1000030432,0.0,0.337047010785504,1903.9856810275448,95.1000030432,0.7199994039200001,0.41015601312499206,1024,-17.2,97,P-GPS,
0.0805017214310334,36.878452279207394,27600,2018-04-11 08:47:26,1903.9856810275448,95.1000030432,0.0,0.335981010751392,1903.9856810275448,95.1000030432,0.7199994039200001,0.41015601312499206,1024,-17.2,97,P-GPS,
0.0805016478386976,36.8784522797026,27700,2018-04-11 08:47:26,1903.9856810275448,95.1000030432,0.7199994039200001,0.338492010831744,1903.9856810275448,95.1000030432,0.7199994039200001,0.41015601312499206,1024,-17.2,97,P-GPS,
0.08050142407420799,36.8784522955781,27800,2018-04-11 08:47:26,1903.9856810275448,95.1000030432,1.4399988078400001,0.345729011063328,1903.9856810275448,95.1000030432,1.4399988078400001,0.41015601312499206,1024,-17.2,97,P-GPS,
0.0805009364149236,36.8784523365353,27900,2018-04-11 08:47:26,1903.9856810275448,95.1000030432,2.5559978839159996,0.36631601172211203,1903.9856810275448,95.1000030432,2.5559978839159996,0.41015601312499206,1024,-17.2,97,P-GPS,
0.0805001507854756,36.8784524082916,28000,2018-04-11 08:47:26,1903.9856810275448,95.1000030432,3.5999970196000004,0.41215101318883196,1903.9856810275448,95.1000030432,3.5999970196000004,0.41215101318883196,1024,-17.2,97,P-GPS,
0.0804990920378787,36.878452510032,28100,2018-04-11 08:47:27,1903.9856810275448,95.1000030432,4.679996125480001,0.4919090157410881,1903.9856810275448,95.1000030432,4.679996125480001,0.4919090157410881,1024,-17.2,97,P-GPS,
0.0804977500519386,36.8784526783993,28200,2018-04-11 08:47:27,1903.9856810275448,95.1000030432,5.7599952313600005,0.60921501949488,1903.9856810275448,95.1000030432,5.7599952313600005,0.60921501949488,1024,-17.2,97,P-GPS,
0.0804960879777234,36.8784528725883,28300,2018-04-11 08:47:27,1903.9856810275448,95.1000030432,7.235994009396001,0.771134024676288,1903.9856810275448,95.1000030432,7.235994009396001,0.771134024676288,1024,-17.2,97,P-GPS,
0.0804941004536829,36.878453093187,28400,2018-04-11 08:47:27,1903.9856810275448,95.1000030432,7.235994009396001,0.9764410312461123,1903.9856810275448,95.1000030432,7.235994009396001,0.9764410312461123,1024,-17.2,97,P-GPS,
0.0804917286730405,36.8784533545023,28500,2018-04-11 08:47:27,1903.9856810275448,95.1000030432,10.151991595272,1.22928003933696,1903.9856810275448,95.1000030432,10.151991595272,1.22928003933696,1024,-17.2,97,P-GPS,
0.0804890154231622,36.8784536806441,28600,2018-04-11 08:47:27,1903.9856810275448,95.1000030432,11.195990730956002,1.52341004874912,1903.9856810275448,95.1000030432,11.195990730956002,1.52341004874912,1024,-17.2,97,P-GPS,
0.0804859787854758,36.8784540426987,28700,2018-04-11 08:47:27,1903.9856810275448,95.1000030432,12.671989508991999,1.8563600594035201,1903.9856810275448,95.1000030432,12.671989508991999,1.8563600594035201,1024,-17.2,97,P-GPS,
0.0804826222464801,36.8784544291884,28800,2018-04-11 08:47:27,1903.9856810275448,95.1000030432,13.751988614872003,2.2269500712624,1903.9856810275448,95.1000030432,13.751988614872003,2.2269500712624,1024,-17.2,97,P-GPS,
0.0804789673895716,36.87845485353571,28900,2018-04-11 08:47:27,1903.9856810275448,95.1000030432,14.831987720752002,2.6321300842281596,1903.9856810275448,95.1000030432,14.831987720752002,2.6321300842281596,1024,-17.2,97,P-GPS,
0.0804750311554534,36.8784553193434,29000,2018-04-11 08:47:27,1903.9856810275448,95.1000030432,16.307986498787997,3.0697000982304,1903.9856810275448,95.1000030432,16.307986498787997,3.0697000982304,1024,-17.2,97,P-GPS,
0.0804707979387466,36.8784558194421,29100,2018-04-11 08:47:28,1904.0856810307448,95.20000304640001,17.387985604668,3.54117011331744,1904.0856810307448,95.20000304640001,17.387985604668,3.54117011331744,1024,-17.2,97,P-GPS,
0.0804662679104377,36.8784563483945,29200,2018-04-11 08:47:28,1904.0856810307448,95.20000304640001,18.431984740352,4.04634012948288,1904.0856810307448,95.20000304640001,18.431984740352,4.04634012948288,1024,-17.2,97,P-GPS,
0.080461463678215,36.8784569117427,29300,2018-04-11 08:47:28,1904.0856810307448,95.20000304640001,19.547983816427998,4.58258014664256,1904.0856810307448,95.20000304640001,19.547983816427998,4.58258014664256,1024,-17.2,97,P-GPS,
0.0804564794768754,36.8784574944896,29400,2018-04-11 08:47:28,1904.1856810339448,95.30000304960001,20.663982892504,5.13927016445664,1904.1856810339448,95.30000304960001,20.663982892504,5.13927016445664,1024,-17.2,97,P-GPS,
0.0804512019308911,36.878458139917896,29500,2018-04-11 08:47:28,1904.1856810339448,95.30000304960001,21.743981998384,5.729200183334401,1904.1856810339448,95.30000304960001,21.743981998384,5.729200183334401,1024,-17.2,97,P-GPS,
0.0804456123392113,36.8784588612495,29600,2018-04-11 08:47:28,1904.1856810339448,95.30000304960001,22.823981104263996,6.3545502033456005,1904.1856810339448,95.30000304960001,22.823981104263996,6.3545502033456005,1024,-17.2,97,P-GPS,
0.0804397544418416,36.8784596056926,29700,2018-04-11 08:47:28,1904.1856810339448,95.30000304960001,23.93998018034,7.01009022432288,1904.1856810339448,95.30000304960001,23.93998018034,7.01009022432288,1024,-17.2,97,P-GPS,
