latitude,longitude,time_millisecond,datetime_utc,altitude_m,ascent_m,speed_kph,distance_m,max_altitude_m,max_ascent_m,max_speed_kph,max_distance_m,rc_throttle,gimbal_pitch_degrees,battery_percent,flycState,message
0.357680384798382,36.8938345807028,100,2017-11-07 07:28:56,1771.0902666748868,0.0,0.0,0.0,1771.0902666748868,0.0,0.0,0.0,1024,0.0,99,Motors_Started,
0.357680425783315,36.8938345047596,200,2017-11-07 07:28:56,1771.0902666748868,0.0,0.0,0.00959659030709088,1771.0902666748868,0.0,0.0,0.00959659030709088,1024,0.0,99,Motors_Started,
0.357680449609334,36.8938344414804,300,2017-11-07 07:28:56,1771.0902666748868,0.0,0.0,0.017077500546480003,1771.0902666748868,0.0,0.0,0.017077500546480003,1024,0.0,99,Motors_Started,
0.357680463029086,36.8938343803333,400,2017-11-07 07:28:57,1771.0902666748868,0.0,0.0,0.02392000076544,1771.0902666748868,0.0,0.0,0.02392000076544,1024,0.0,99,Motors_Started,
0.35768047134555,36.8938343273164,500,2017-11-07 07:28:57,1771.0902666748868,0.0,0.0,0.029776000952832,1771.0902666748868,0.0,0.0,0.029776000952832,1024,0.0,99,Motors_Started,
0.357680490706222,36.8938342793323,600,2017-11-07 07:28:57,1771.0902666748868,0.0,0.0,0.0355228011367296,1771.0902666748868,0.0,0.0,0.0355228011367296,1024,0.0,99,Motors_Started,
0.357680521926445,36.893834227455,700,2017-11-07 07:28:57,1771.0902666748868,0.0,0.0,0.04213860134843521,1771.0902666748868,0.0,0.0,0.04213860134843521,1024,0.0,99,Motors_Started,Setting new Return-To-Home altitude to 30m (98 ft). Setting new Maximum Flight Altitude to 100m (328 ft)
0.357680562482334,36.8938341686975,800,2017-11-07 07:28:57,1771.0902666748868,0.0,0.0,0.049895901596668804,1771.0902666748868,0.0,0.0,0.049895901596668804,1024,0.0,99,Motors_Started,
0.357680603998089,36.8938340936718,900,2017-11-07 07:28:57,1771.0902666748868,0.0,0.0,0.0593926019005632,1771.0902666748868,0.0,0.0,0.0593926019005632,511,0.0,99,Motors_Started,
0.35768065788839,36.8938340389948,1000,2017-11-07 07:28:57,1771.0902666748868,0.0,0.0,0.0674623021587936,1771.0902666748868,0.0,0.0,0.0674623021587936,873,0.0,99,Motors_Started,
0.35768070802187,36.893834008727,1100,2017-11-07 07:28:57,1771.0902666748868,0.0,0.0,0.07305970233791041,1771.0902666748868,0.0,0.0,0.07305970233791041,1024,0.0,99,Motors_Started,
0.357680775015547,36.8938339837767,1200,2017-11-07 07:28:57,1771.0902666748868,0.0,0.0,0.0793061025377952,1771.0902666748868,0.0,0.0,0.0793061025377952,1024,0.0,99,Motors_Started,
0.357680831285514,36.8938339544504,1300,2017-11-07 07:28:57,1771.0902666748868,0.0,0.0,0.085529502736944,1771.0902666748868,0.0,0.0,0.085529502736944,1024,0.0,99,Motors_Started,
0.357680874753569,36.8938339194173,1400,2017-11-07 07:28:58,1771.0902666748868,0.0,0.0,0.09152320292874241,1771.0902666748868,0.0,0.0,0.09152320292874241,1024,0.0,99,Motors_Started,
0.357680902199771,36.8938338845829,1500,2017-11-07 07:28:58,1771.0902666748868,0.0,0.0,0.0964528030864896,1771.0902666748868,0.0,0.0,0.0964528030864896,1024,0.0,99,Motors_Started,
0.357680934784325,36.8938338446309,1600,2017-11-07 07:28:58,1771.0902666748868,0.0,0.0,0.10218100326979201,1771.0902666748868,0.0,0.0,0.10218100326979201,1024,0.0,99,Assisted_Takeoff,
0.35768097506348,36.8938338110303,1700,2017-11-07 07:28:58,1771.0902666748868,0.0,0.0,0.10786300345161601,1771.0902666748868,0.0,0.0,0.10786300345161601,1024,0.0,99,Assisted_Takeoff,
0.357681023631415,36.8938337923398,1800,2017-11-07 07:28:58,1771.0902666748868,0.0,0.0,0.11284000361088001,1771.0902666748868,0.0,0.0,0.11284000361088001,1024,0.0,99,Assisted_Takeoff,
0.357681069976728,36.8938337819861,1900,2017-11-07 07:28:58,1771.0902666748868,0.0,0.0,0.1170250037448,1771.0902666748868,0.0,0.0,0.1170250037448,1024,0.0,99,Assisted_Takeoff,
0.357681100571628,36.8938337616533,2000,2017-11-07 07:28:58,1771.0902666748868,0.0,0.0,0.120962003870784,1771.0902666748868,0.0,0.0,0.120962003870784,1024,0.0,99,Assisted_Takeoff,
0.357681118667509,36.8938337298861,2100,2017-11-07 07:28:58,1771.0902666748868,0.0,0.0,0.12494900399836802,1771.0902666748868,0.0,0.0,0.12494900399836802,1024,0.0,99,Assisted_Takeoff,
0.357681145037208,36.8938336952148,2200,2017-11-07 07:28:58,1771.0902666748868,0.0,0.0,0.129784004153088,1771.0902666748868,0.0,0.0,0.129784004153088,1024,0.0,99,Assisted_Takeoff,
0.357681178709359,36.8938336586417,2300,2017-11-07 07:28:58,1771.0902666748868,0.0,0.0,0.13530900432988802,1771.0902666748868,0.0,0.0,0.13530900432988802,1024,0.0,99,Assisted_Takeoff,
0.357681198371497,36.8938336110104,2400,2017-11-07 07:28:59,1771.0902666748868,0.0,0.0,0.140761004504352,1771.0902666748868,0.0,0.0,0.140761004504352,1024,0.0,99,Assisted_Takeoff,
0.357681212433823,36.893833570575,2500,2017-11-07 07:28:59,1771.0902666748868,0.0,0.0,0.145221004647072,1771.0902666748868,0.0,0.0,0.145221004647072,1024,0.0,99,Assisted_Takeoff,
0.357681233876156,36.8938335399721,2600,2017-11-07 07:28:59,1771.0902666748868,0.0,0.0,0.14936500477968,1771.0902666748868,0.0,0.0,0.14936500477968,1024,0.0,99,Assisted_Takeoff,
0.357681265266348,36.8938335259093,2700,2017-11-07 07:28:59,1771.0902666748868,0.0,0.0,0.152793004889376,1771.0902666748868,0.0,0.0,0.152793004889376,1025,0.0,99,Assisted_Takeoff,
0.357681307077767,36.8938335238361,2800,2017-11-07 07:28:59,1771.0902666748868,0.0,0.0,0.155987004991584,1771.0902666748868,0.0,0.0,0.155987004991584,1053,0.0,99,Assisted_Takeoff,
0.357681350269394,36.8938335248494,2900,2017-11-07 07:28:59,1771.0902666748868,0.0,0.0,0.15910300509129602,1771.0902666748868,0.0,0.0,0.15910300509129602,1130,0.0,99,Assisted_Takeoff,
0.357681381426922,36.8938335144678,3000,2017-11-07 07:28:59,1771.0902666748868,0.0,0.0,0.162303005193696,1771.0902666748868,0.0,0.0,0.162303005193696,1267,0.0,99,Assisted_Takeoff,
0.357681401671941,36.8938334942919,3100,2017-11-07 07:28:59,1771.0902666748868,0.0,0.0,0.16548000529536003,1771.0902666748868,0.0,0.0,0.16548000529536003,1379,0.0,99,Assisted_Takeoff,
0.357681407105041,36.8938334795755,3200,2017-11-07 07:28:59,1771.0902666748868,0.0,0.0,0.167089005346848,1771.0902666748868,0.0,0.0,0.167089005346848,1464,0.0,99,Assisted_Takeoff,
0.357681410919162,36.893833473198,3300,2017-11-07 07:28:59,1771.0902666748868,0.0,0.0,0.167897005372704,1771.0902666748868,0.0,0.0,0.167897005372704,1528,0.0,99,Assisted_Takeoff,
0.357681423989054,36.8938334514617,3400,2017-11-07 07:29:00,1771.0902666748868,0.0,0.0,0.170659005461088,1771.0902666748868,0.0,0.0,0.170659005461088,1528,0.0,99,Assisted_Takeoff,
0.357681450139015,36.8938334242535,3500,2017-11-07 07:29:00,1771.0902666748868,0.0,0.0,0.17485500559536,1771.0902666748868,0.0,0.0,0.17485500559536,1639,0.0,99,Assisted_Takeoff,
0.357681466253689,36.8938333851281,3600,2017-11-07 07:29:00,1771.0902666748868,0.0,0.0,0.179276005736832,1771.0902666748868,0.0,0.0,0.179276005736832,1666,0.0,99,Assisted_Takeoff,
0.357681479235645,36.8938333131857,3700,2017-11-07 07:29:00,1771.0902666748868,0.0,0.0,0.186227005959264,1771.0902666748868,0.0,0.0,0.186227005959264,1684,0.0,99,GPS_Atti,
0.357681495983784,36.8938331566785,3800,2017-11-07 07:29:00,1771.0902666748868,0.0,0.35999970196000003,0.20086500642768002,1771.0902666748868,0.0,0.35999970196000003,0.20086500642768002,1684,0.0,99,GPS_Atti,Home Point Recorded. RTH Altitude:  30m.
0.357681524984743,36.8938329441145,3900,2017-11-07 07:29:00,1771.1902666780868,0.1000000032,0.35999970196000003,0.221809007097888,1771.1902666780868,0.1000000032,0.35999970196000003,0.221809007097888,1684,0.0,99,GPS_Atti,
0.357681546352371,36.8938327166086,4000,2017-11-07 07:29:00,1771.290266681287,0.2000000064,0.35999970196000003,0.24424700781590403,1771.290266681287,0.2000000064,0.35999970196000003,0.24424700781590403,1684,0.0,99,GPS_Atti,
0.357681547820617,36.8938324879685,4100,2017-11-07 07:29:00,1771.3902666844867,0.3000000096,0.35999970196000003,0.26624500851984,1771.3902666844867,0.3000000096,0.35999970196000003,0.26624500851984,1684,0.0,99,GPS_Atti,
0.357681511354871,36.8938322337305,4200,2017-11-07 07:29:00,1771.5902666908867,0.500000016,0.8063993323904,0.289503009264096,1771.5902666908867,0.500000016,0.8063993323904,0.289503009264096,1684,0.0,99,GPS_Atti,
0.357681379920102,36.893831710388,4400,2017-11-07 07:29:01,1772.1902667100867,1.1000000352000001,0.35999970196000003,0.33783001081056,1772.1902667100867,1.1000000352000001,0.8063993323904,0.33783001081056,1684,0.0,99,GPS_Atti,
0.357681437866043,36.8938314999175,4500,2017-11-07 07:29:01,1772.4902667196868,1.4000000448,0.7199994039200001,0.36205801158585604,1772.4902667196868,1.4000000448,0.8063993323904,0.36205801158585604,1684,0.0,99,GPS_Atti,
0.357681552588905,36.8938312964091,4600,2017-11-07 07:29:01,1772.890266732487,1.8000000576000001,0.7199994039200001,0.38762801240409606,1772.890266732487,1.8000000576000001,0.8063993323904,0.38762801240409606,1684,0.0,99,GPS_Atti,
0.357681653102778,36.8938310949573,4700,2017-11-07 07:29:01,1773.2902667452868,2.2000000704000002,0.7199994039200001,0.41249101319971204,1773.2902667452868,2.2000000704000002,0.8063993323904,0.41249101319971204,1684,0.0,99,GPS_Atti,
0.357681775945266,36.8938309441757,4800,2017-11-07 07:29:01,1773.7902667612868,2.7000000864,0.7199994039200001,0.432978013855296,1773.7902667612868,2.7000000864,0.8063993323904,0.432978013855296,1684,0.0,99,GPS_Atti,
0.357681909408668,36.8938308380443,4900,2017-11-07 07:29:01,1774.290266777287,3.2000001024,0.7199994039200001,0.44940701438102404,1774.290266777287,3.2000001024,0.8063993323904,0.44940701438102404,1684,0.0,99,GPS_Atti,
0.357682048315144,36.8938307503786,5000,2017-11-07 07:29:01,1774.790266793287,3.7000001184,0.35999970196000003,0.46438501486032,1774.790266793287,3.7000001184,0.8063993323904,0.46438501486032,1684,0.0,99,GPS_Atti,
0.357682126873115,36.8938306555721,5100,2017-11-07 07:29:01,1775.2902668092868,4.200000134400001,0.35999970196000003,0.477551015281632,1775.2902668092868,4.200000134400001,0.8063993323904,0.477551015281632,1684,0.0,99,GPS_Atti,
0.357682172274948,36.8938306046342,5200,2017-11-07 07:29:01,1775.7902668252866,4.7000001504,0.0,0.484782015513024,1775.7902668252866,4.7000001504,0.8063993323904,0.484782015513024,1684,0.0,99,GPS_Atti,
0.357682182091208,36.8938305439325,5300,2017-11-07 07:29:01,1776.3902668444869,5.3000001696000005,0.35999970196000003,0.49138901572444804,1776.3902668444869,5.3000001696000005,0.8063993323904,0.49138901572444804,1684,0.0,99,GPS_Atti,
0.357682222894519,36.8938304787814,5400,2017-11-07 07:29:02,1776.8902668604867,5.8000001856,0.35999970196000003,0.49985501599536003,1776.8902668604867,5.8000001856,0.8063993323904,0.49985501599536003,1684,0.0,99,GPS_Atti,
0.357682279568441,36.8938304234359,5500,2017-11-07 07:29:02,1777.390266876487,6.3000002016,0.35999970196000003,0.5080590162578881,1777.390266876487,6.3000002016,0.8063993323904,0.5080590162578881,1684,0.0,99,GPS_Atti,
0.357682355732599,36.8938303674491,5600,2017-11-07 07:29:02,1777.8902668924868,6.800000217600001,0.35999970196000003,0.517263016552416,1777.8902668924868,6.800000217600001,0.8063993323904,0.517263016552416,1684,0.0,99,GPS_Atti,
0.357682466830137,36.8938303653796,5700,2017-11-07 07:29:02,1778.3902669084866,7.3000002336000005,0.0,0.522824016730368,1778.3902669084866,7.3000002336000005,0.8063993323904,0.522824016730368,1684,0.0,99,GPS_Atti,
0.357682567675399,36.893830364854,5800,2017-11-07 07:29:02,1778.890266924487,7.8000002496,0.0,0.527938016894016,1778.890266924487,7.8000002496,0.8063993323904,0.527938016894016,1684,0.0,99,GPS_Atti,
0.357682678074335,36.8938304190614,5900,2017-11-07 07:29:02,1779.3902669404868,8.300000265600001,0.0,0.528407016909024,1779.3902669404868,8.300000265600001,0.8063993323904,0.528407016909024,1684,0.0,99,GPS_Atti,
0.357682819138907,36.8938304783403,6000,2017-11-07 07:29:02,1779.8902669564868,8.800000281600001,0.0,0.530474016975168,1779.8902669564868,8.800000281600001,0.8063993323904,0.530474016975168,1684,0.0,99,GPS_Atti,
0.357683012604975,36.8938305821763,6100,2017-11-07 07:29:02,1780.3902669724866,9.3000002976,0.0,0.532083017026656,1780.3902669724866,9.3000002976,0.8063993323904,0.532083017026656,1684,0.0,99,GPS_Atti,
0.357683202258041,36.8938306949785,6200,2017-11-07 07:29:02,1780.890266988487,9.8000003136,0.0,0.533747017079904,1780.890266988487,9.8000003136,0.8063993323904,0.533747017079904,1684,0.0,99,GPS_Atti,
0.357683322863453,36.8938307797301,6300,2017-11-07 07:29:02,1781.3902670044868,10.3000003296,0.0,0.534241017095712,1781.3902670044868,10.3000003296,0.8063993323904,0.534241017095712,1684,0.0,99,GPS_Atti,
0.357683439091608,36.8938308689257,6400,2017-11-07 07:29:03,1781.8902670204868,10.8000003456,0.0,0.534547017105504,1781.8902670204868,10.8000003456,0.8063993323904,0.534547017105504,1684,0.0,99,GPS_Atti,
0.357683583848066,36.893830988372,6500,2017-11-07 07:29:03,1782.3902670364869,11.3000003616,0.0,0.534926017117632,1782.3902670364869,11.3000003616,0.8063993323904,0.534926017117632,1684,0.0,99,GPS_Atti,
0.357683728604931,36.8938310972698,6600,2017-11-07 07:29:03,1782.8902670524867,11.8000003776,0.35999970196000003,0.536964017182848,1782.8902670524867,11.8000003776,0.8063993323904,0.536964017182848,1684,0.0,99,GPS_Atti,
0.357683861206683,36.8938312309486,6700,2017-11-07 07:29:03,1783.3902670684868,12.300000393600001,0.35999970196000003,0.53686001717952,1783.3902670684868,12.300000393600001,0.8063993323904,0.536964017182848,1684,0.0,99,GPS_Atti,
0.35768397822504,36.8938313681979,6800,2017-11-07 07:29:03,1783.8902670844868,12.8000004096,0.0,0.53601501715248,1783.8902670844868,12.8000004096,0.8063993323904,0.536964017182848,1684,0.0,99,GPS_Atti,
0.35768409299248,36.893831538671,6900,2017-11-07 07:29:03,1784.3902671004869,13.3000004256,0.35999970196000003,0.5333760170680321,1784.3902671004869,13.3000004256,0.8063993323904,0.536964017182848,1684,0.0,99,GPS_Atti,
0.357684185403827,36.8938317342452,7000,2017-11-07 07:29:03,1784.8902671164867,13.800000441600002,0.35999970196000003,0.528043016897376,1784.8902671164867,13.800000441600002,0.8063993323904,0.536964017182848,1684,0.0,99,GPS_Atti,
0.357684314957946,36.8938321277586,7200,2017-11-07 07:29:03,1785.8902671484868,14.8000004736,0.35999970196000003,0.515196016486272,1785.8902671484868,14.8000004736,0.8063993323904,0.536964017182848,1684,0.0,99,GPS_Atti,
0.357684315425717,36.8938323134342,7300,2017-11-07 07:29:03,1786.3902671644869,15.3000004896,0.35999970196000003,0.504613016147616,1786.3902671644869,15.3000004896,0.8063993323904,0.536964017182848,1684,0.0,99,GPS_Atti,
0.357684274521239,36.8938324813014,7400,2017-11-07 07:29:04,1786.8902671804867,15.8000005056,0.0,0.49154201572934403,1786.8902671804867,15.8000005056,0.8063993323904,0.536964017182848,1684,0.0,99,GPS_Atti,
0.357684228708631,36.8938326153469,7500,2017-11-07 07:29:04,1787.4902671996867,16.400000524800003,0.0,0.480098015363136,1787.4902671996867,16.400000524800003,0.8063993323904,0.536964017182848,1684,0.0,99,GPS_Atti,
0.35768419234507,36.8938327432194,7600,2017-11-07 07:29:04,1787.9902672156868,16.9000005408,0.0,0.470148015044736,1787.9902672156868,16.9000005408,0.8063993323904,0.536964017182848,1684,0.0,99,GPS_Atti,
0.357684145980012,36.8938328778093,7700,2017-11-07 07:29:04,1788.4902672316869,17.400000556800002,0.0,0.459137014692384,1788.4902672316869,17.400000556800002,0.8063993323904,0.536964017182848,1684,0.0,99,GPS_Atti,
0.357684074181102,36.8938330210866,7800,2017-11-07 07:29:04,1788.990267247687,17.9000005728,0.35999970196000003,0.44543401425388807,1788.990267247687,17.9000005728,0.8063993323904,0.536964017182848,1684,0.0,99,GPS_Atti,
0.357683999728643,36.8938331330575,7900,2017-11-07 07:29:04,1789.4902672636867,18.4000005888,0.35999970196000003,0.433038013857216,1789.4902672636867,18.4000005888,0.8063993323904,0.536964017182848,1684,0.0,99,GPS_Atti,
0.357683931740292,36.8938332549298,8000,2017-11-07 07:29:04,1789.990267279687,18.900000604800002,0.0,0.421094013475008,1789.990267279687,18.900000604800002,0.8063993323904,0.536964017182848,1684,0.0,99,GPS_Atti,
0.357683892590463,36.8938333803639,8100,2017-11-07 07:29:04,1790.4902672956869,19.4000006208,0.0,0.412294013193408,1790.4902672956869,19.4000006208,0.8063993323904,0.536964017182848,1684,0.0,99,GPS_Atti,
0.357683862242373,36.8938334959122,8200,2017-11-07 07:29:04,1791.0902673148867,20.00000064,0.0,0.405092012962944,1791.0902673148867,20.00000064,0.8063993323904,0.536964017182848,1684,0.0,99,GPS_Atti,
0.357683835290404,36.8938335662862,8300,2017-11-07 07:29:04,1791.590267330887,20.500000656,0.0,0.39995401279852805,1791.590267330887,20.500000656,0.8063993323904,0.536964017182848,1684,0.0,99,GPS_Atti,
0.357683811711349,36.8938336289064,8400,2017-11-07 07:29:05,1792.0902673468868,21.000000672,0.0,0.395519012656608,1792.0902673468868,21.000000672,0.8063993323904,0.536964017182848,1684,0.0,99,GPS_Atti,
0.357683796016405,36.8938336731879,8500,2017-11-07 07:29:05,1792.5902673628868,21.500000688,0.0,0.39254301256137597,1792.5902673628868,21.500000688,0.8063993323904,0.536964017182848,1684,0.0,99,GPS_Atti,
0.3576837650548,36.8938336981231,8600,2017-11-07 07:29:05,1793.090267378887,22.000000703999998,0.0,0.388507012432224,1793.090267378887,22.000000703999998,0.8063993323904,0.536964017182848,1684,0.0,99,GPS_Atti,
0.357683731177872,36.8938337017535,8700,2017-11-07 07:29:05,1793.5902673948867,22.50000072,0.0,0.38476001231232004,1793.5902673948867,22.50000072,0.8063993323904,0.536964017182848,1684,0.0,99,GPS_Atti,
0.357683680234444,36.8938336925202,8800,2017-11-07 07:29:05,1794.0902674108868,23.000000736000004,0.0,0.37954901214556797,1794.0902674108868,23.000000736000004,0.8063993323904,0.536964017182848,1684,0.0,99,GPS_Atti,
0.357683643357923,36.8938336755234,8900,2017-11-07 07:29:05,1794.5902674268868,23.500000752000002,0.0,0.376093012034976,1794.5902674268868,23.500000752000002,0.8063993323904,0.536964017182848,1684,0.0,99,GPS_Atti,
0.357683591745205,36.8938336402499,9000,2017-11-07 07:29:05,1795.1902674460869,24.100000771200005,0.0,0.3716500118928,1795.1902674460869,24.100000771200005,0.8063993323904,0.536964017182848,1684,0.0,99,GPS_Atti,
0.357683545692809,36.8938335864894,9100,2017-11-07 07:29:05,1795.6902674620867,24.600000787200003,0.0,0.36848801179161605,1795.6902674620867,24.600000787200003,0.8063993323904,0.536964017182848,1684,0.0,99,GPS_Atti,
0.357683476962294,36.8938334879716,9200,2017-11-07 07:29:05,1796.190267478087,25.100000803200004,0.0,0.364707011670624,1796.190267478087,25.100000803200004,0.8063993323904,0.536964017182848,1684,0.0,99,GPS_Atti,
0.357683427289053,36.8938333782645,9300,2017-11-07 07:29:05,1796.6902674940868,25.6000008192,0.0,0.36380801164185606,1796.6902674940868,25.6000008192,0.8063993323904,0.536964017182848,1684,0.0,99,GPS_Atti,
0.357683380186717,36.8938332641803,9400,2017-11-07 07:29:06,1797.1902675100866,26.100000835200003,0.0,0.36385801164345605,1797.1902675100866,26.100000835200003,0.8063993323904,0.536964017182848,1684,0.0,99,GPS_Atti,
0.357683361297174,36.8938331897958,9500,2017-11-07 07:29:06,1797.790267529287,26.700000854400002,0.0,0.365361011691552,1797.790267529287,26.700000854400002,0.8063993323904,0.536964017182848,1684,0.0,99,GPS_Atti,
0.357683343383069,36.8938331196215,9600,2017-11-07 07:29:06,1798.2902675452867,27.200000870400004,0.0,0.36694501174224003,1798.2902675452867,27.200000870400004,0.8063993323904,0.536964017182848,1684,0.0,99,GPS_Atti,
0.35768333528156,36.893833071381,9700,2017-11-07 07:29:06,1798.790267561287,27.7000008864,0.0,0.368549011793568,1798.790267561287,27.7000008864,0.8063993323904,0.536964017182848,1684,0.0,99,GPS_Atti,
0.357683277579682,36.893833029783,9800,2017-11-07 07:29:06,1799.2902675772868,28.200000902400003,0.0,0.36501101168035205,1799.2902675772868,28.200000902400003,0.8063993323904,0.536964017182848,1684,0.0,99,GPS_Atti,
0.35768321603712,36.8938330191033,9900,2017-11-07 07:29:06,1799.7902675932867,28.7000009184,0.0,0.359566011506112,1799.7902675932867,28.7000009184,0.8063993323904,0.536964017182848,1684,0.0,99,GPS_Atti,
0.357683134117837,36.8938329950636,10000,2017-11-07 07:29:06,1800.390267612487,29.300000937600004,0.0,0.352944011294208,1800.390267612487,29.300000937600004,0.8063993323904,0.536964017182848,1684,0.0,99,GPS_Atti,
0.357683058990591,36.8938329652266,10100,2017-11-07 07:29:06,1800.8902676284868,29.8000009536,0.0,0.347436011117952,1800.8902676284868,29.8000009536,0.8063993323904,0.536964017182848,1684,0.0,99,GPS_Atti,
0.357683005670246,36.8938329468167,10200,2017-11-07 07:29:06,1801.3902676444868,30.300000969600003,0.0,0.343453010990496,1801.3902676444868,30.300000969600003,0.8063993323904,0.536964017182848,1684,0.0,99,GPS_Atti,
0.357682958557733,36.8938329029774,10300,2017-11-07 07:29:06,1801.8902676604869,30.8000009856,0.0,0.341656010932992,1801.8902676604869,30.8000009856,0.8063993323904,0.536964017182848,1684,0.0,99,GPS_Atti,
0.357682919761276,36.8938328582447,10400,2017-11-07 07:29:07,1802.390267676487,31.300001001600002,0.0,0.34082101090627204,1802.390267676487,31.300001001600002,0.8063993323904,0.536964017182848,1684,0.0,99,GPS_Atti,
0.357682906816571,36.8938328367819,10500,2017-11-07 07:29:07,1802.8902676924868,31.800001017600003,0.0,0.34098301091145605,1802.8902676924868,31.800001017600003,0.8063993323904,0.536964017182848,1684,0.0,99,GPS_Atti,
0.357682887468824,36.8938327933339,10600,2017-11-07 07:29:07,1803.4902677116868,32.4000010368,0.0,0.34200001094400007,1803.4902677116868,32.4000010368,0.8063993323904,0.536964017182848,1684,0.0,99,GPS_Atti,
0.357682879818394,36.8938327589941,10700,2017-11-07 07:29:07,1803.9902677276868,32.9000010528,0.0,0.343546010993472,1803.9902677276868,32.9000010528,0.8063993323904,0.536964017182848,1684,0.0,99,GPS_Atti,
0.357682842780046,36.8938327025576,10800,2017-11-07 07:29:07,1804.3902677404867,33.3000010656,0.0,0.34400201100806405,1804.3902677404867,33.3000010656,0.8063993323904,0.536964017182848,1684,0.0,99,GPS_Atti,
0.357682800442131,36.8938326661627,10900,2017-11-07 07:29:07,1804.8902677564868,33.8000010816,0.0,0.34277201096870397,1804.8902677564868,33.8000010816,0.8063993323904,0.536964017182848,1684,0.0,99,GPS_Atti,
0.357682755989477,36.8938326157896,11000,2017-11-07 07:29:07,1805.4902677756868,34.4000011008,0.0,0.342458010958656,1805.4902677756868,34.4000011008,0.8063993323904,0.536964017182848,1684,0.0,99,GPS_Atti,
0.357682739969049,36.8938325962775,11100,2017-11-07 07:29:07,1805.9902677916866,34.900001116800006,0.0,0.34248301095945605,1805.9902677916866,34.900001116800006,0.8063993323904,0.536964017182848,1684,0.0,99,GPS_Atti,
0.357682711735901,36.8938325674576,11200,2017-11-07 07:29:07,1806.490267807687,35.4000011328,0.0,0.342176010949632,1806.490267807687,35.4000011328,0.8063993323904,0.536964017182848,1684,0.0,99,GPS_Atti,
0.357682692668654,36.8938325726275,11300,2017-11-07 07:29:07,1806.9902678236867,35.9000011488,0.0,0.34019801088633606,1806.9902678236867,35.9000011488,0.8063993323904,0.536964017182848,1684,0.0,99,GPS_Atti,
0.357682681654062,36.8938325593435,11400,2017-11-07 07:29:08,1807.4902678396868,36.4000011648,0.0,0.34024801088793605,1807.4902678396868,36.4000011648,0.8063993323904,0.536964017182848,1684,0.0,99,GPS_Atti,
0.357682695401997,36.8938325459188,11500,2017-11-07 07:29:08,1807.9902678556869,36.900001180800004,0.0,0.342382010956224,1807.9902678556869,36.900001180800004,0.8063993323904,0.536964017182848,1684,0.0,99,GPS_Atti,
0.357682705270164,36.893832529582,11600,2017-11-07 07:29:08,1808.490267871687,37.400001196800005,0.0,0.344407011021024,1808.490267871687,37.400001196800005,0.8063993323904,0.536964017182848,1684,0.0,99,GPS_Atti,
0.357682688495766,36.8938324720242,11700,2017-11-07 07:29:08,1808.9902678876867,37.9000012128,0.0,0.34730101111363204,1808.9902678876867,37.9000012128,0.8063993323904,0.536964017182848,1684,0.0,99,GPS_Atti,
0.357682679689344,36.8938324615585,11800,2017-11-07 07:29:08,1809.590267906887,38.500001232,0.0,0.34736801111577603,1809.590267906887,38.500001232,0.8063993323904,0.536964017182848,1684,0.0,99,GPS_Atti,
0.357682659660094,36.8938324412654,11900,2017-11-07 07:29:08,1810.0902679228868,39.000001248000004,0.0,0.347277011112864,1810.0902679228868,39.000001248000004,0.8063993323904,0.536964017182848,1684,0.0,99,GPS_Atti,
0.357682657535381,36.8938324258151,12000,2017-11-07 07:29:08,1810.5902679388867,39.500001264,0.0,0.34828501114512006,1810.5902679388867,39.500001264,0.8063993323904,0.536964017182848,1684,0.0,99,GPS_Atti,
0.357682674372271,36.8938324232366,12100,2017-11-07 07:29:08,1811.090267954887,40.00000128,0.0,0.349842011194944,1811.090267954887,40.00000128,0.8063993323904,0.536964017182848,1684,0.0,99,GPS_Atti,
0.357682689141037,36.8938324216981,12200,2017-11-07 07:29:08,1811.5902679708868,40.500001296,0.0,0.351156011236992,1811.5902679708868,40.500001296,0.8063993323904,0.536964017182848,1684,0.0,99,GPS_Atti,
0.35768272807184,36.8938323876195,12300,2017-11-07 07:29:08,1812.190267990087,41.100001315200004,0.0,0.35690701142102405,1812.190267990087,41.100001315200004,0.8063993323904,0.536964017182848,1684,0.0,99,GPS_Atti,
0.357682776175262,36.8938323504479,12400,2017-11-07 07:29:09,1812.6902680060869,41.600001331200005,0.0,0.363638011636416,1812.6902680060869,41.600001331200005,0.8063993323904,0.536964017182848,1684,0.0,99,GPS_Atti,
0.357682825591209,36.8938323427128,12500,2017-11-07 07:29:09,1813.1902680220867,42.100001347200006,0.0,0.36825601178419204,1813.1902680220867,42.100001347200006,0.8063993323904,0.536964017182848,1684,0.0,99,GPS_Atti,
0.357682887117487,36.8938323146396,12600,2017-11-07 07:29:09,1813.6902680380867,42.6000013632,0.0,0.37541601201331204,1813.6902680380867,42.6000013632,0.8063993323904,0.536964017182848,1684,0.0,99,GPS_Atti,
0.357682948579645,36.8938322980026,12700,2017-11-07 07:29:09,1814.1902680540868,43.1000013792,0.0,0.381738012215616,1814.1902680540868,43.1000013792,0.8063993323904,0.536964017182848,1684,0.0,98,GPS_Atti,
0.357683005174385,36.8938322892607,12800,2017-11-07 07:29:09,1814.6902680700869,43.6000013952,0.0,0.387101012387232,1814.6902680700869,43.6000013952,0.8063993323904,0.536964017182848,1684,0.0,98,GPS_Atti,
0.357683049013725,36.893832314432,12900,2017-11-07 07:29:09,1815.1902680860867,44.100001411200004,0.0,0.38896401244684803,1815.1902680860867,44.100001411200004,0.8063993323904,0.536964017182848,1684,0.0,98,GPS_Atti,
0.357683095127188,36.8938323514178,13000,2017-11-07 07:29:09,1815.690268102087,44.600001427200006,0.0,0.39025901248828804,1815.690268102087,44.600001427200006,0.8063993323904,0.536964017182848,1684,0.0,98,GPS_Atti,
0.357683145689967,36.8938324080764,13100,2017-11-07 07:29:09,1816.1902681180868,45.1000014432,0.0,0.39069001250208,1816.1902681180868,45.1000014432,0.8063993323904,0.536964017182848,1684,0.0,98,GPS_Atti,
0.357683190009292,36.8938324722784,13200,2017-11-07 07:29:09,1816.6902681340866,45.6000014592,0.0,0.39024401248780805,1816.6902681340866,45.6000014592,0.8063993323904,0.536964017182848,1684,0.0,98,GPS_Atti,
0.357683236302291,36.893832548834,13300,2017-11-07 07:29:09,1817.290268153287,46.2000014784,0.0,0.389371012459872,1817.290268153287,46.2000014784,0.8063993323904,0.536964017182848,1684,0.0,98,GPS_Atti,
0.357683297267977,36.8938325975713,13400,2017-11-07 07:29:10,1817.7902681692867,46.7000014944,0.0,0.39183601253875205,1817.7902681692867,46.7000014944,0.8063993323904,0.536964017182848,1684,0.0,98,GPS_Atti,
0.357683360771594,36.893832625843,13500,2017-11-07 07:29:10,1818.2902681852868,47.2000015104,0.0,0.395958012670656,1818.2902681852868,47.2000015104,0.8063993323904,0.536964017182848,1684,0.0,98,GPS_Atti,
0.357683406644454,36.893832619283,13600,2017-11-07 07:29:10,1818.8902682044868,47.8000015296,0.0,0.400629012820128,1818.8902682044868,47.8000015296,0.8063993323904,0.536964017182848,1684,0.0,98,GPS_Atti,
0.357683440601989,36.8938326185951,13700,2017-11-07 07:29:10,1819.3902682204866,48.300001545600004,0.0,0.40384301292297603,1819.3902682204866,48.300001545600004,0.8063993323904,0.536964017182848,1684,0.0,98,GPS_Atti,
0.357683493684785,36.8938326100898,13800,2017-11-07 07:29:10,1819.890268236487,48.800001561600006,0.0,0.40932801309849604,1819.890268236487,48.800001561600006,0.8063993323904,0.536964017182848,1684,0.0,98,GPS_Atti,
0.357683542769344,36.8938326250508,13900,2017-11-07 07:29:10,1820.3902682524867,49.3000015776,0.0,0.41307001321824,1820.3902682524867,49.3000015776,0.8063993323904,0.536964017182848,1684,0.0,98,GPS_Atti,
0.357683580462531,36.893832633857,14000,2017-11-07 07:29:10,1820.8902682684868,49.8000015936,0.0,0.41613001331616,1820.8902682684868,49.8000015936,0.8063993323904,0.536964017182848,1684,0.0,98,GPS_Atti,
0.357683600238354,36.8938326738667,14100,2017-11-07 07:29:10,1821.3902682844869,50.3000016096,0.0,0.415722013303104,1821.3902682844869,50.3000016096,0.8063993323904,0.536964017182848,1684,0.0,98,GPS_Atti,
0.357683624121928,36.8938326741365,14200,2017-11-07 07:29:10,1821.890268300487,50.800001625600004,0.0,0.417994013375808,1821.890268300487,50.800001625600004,0.8063993323904,0.536964017182848,1684,0.0,98,GPS_Atti,
0.35768365323525,36.8938326489037,14300,2017-11-07 07:29:10,1822.3902683164868,51.300001641600005,0.0,0.422208013510656,1822.3902683164868,51.300001641600005,0.8063993323904,0.536964017182848,1684,0.0,98,GPS_Atti,
0.357683710082602,36.893832590849,14400,2017-11-07 07:29:11,1822.8902683324866,51.8000016576,0.0,0.430942013790144,1822.8902683324866,51.8000016576,0.8063993323904,0.536964017182848,1684,0.0,98,GPS_Atti,
0.357683783037707,36.8938325566724,14500,2017-11-07 07:29:11,1823.4902683516868,52.40000167680001,0.0,0.439856014075392,1823.4902683516868,52.40000167680001,0.8063993323904,0.536964017182848,1684,0.0,98,GPS_Atti,
0.357683875653831,36.893832515819,14600,2017-11-07 07:29:11,1823.9902683676867,52.9000016928,0.0,0.451032014433024,1823.9902683676867,52.9000016928,0.8063993323904,0.536964017182848,1684,0.0,98,GPS_Atti,
0.357683958197621,36.893832503558,14700,2017-11-07 07:29:11,1824.490268383687,53.400001708800005,0.0,0.45964001470848004,1824.490268383687,53.400001708800005,0.8063993323904,0.536964017182848,1684,0.0,98,GPS_Atti,
0.357684041383833,36.8938324772005,14800,2017-11-07 07:29:11,1824.9902683996868,53.900001724800006,0.0,0.46911501501168,1824.9902683996868,53.900001724800006,0.8063993323904,0.536964017182848,1684,0.0,98,GPS_Atti,
0.357684106844432,36.8938324633288,14900,2017-11-07 07:29:11,1825.4902684156868,54.40000174080001,0.0,0.4762000152384,1825.4902684156868,54.40000174080001,0.8063993323904,0.536964017182848,1684,0.0,98,GPS_Atti,
0.357684193036344,36.893832439455,15000,2017-11-07 07:29:11,1825.990268431687,54.9000017568,0.0,0.48585001554720003,1825.990268431687,54.9000017568,0.8063993323904,0.536964017182848,1684,0.0,98,GPS_Atti,
0.357684278089974,36.8938324479374,15100,2017-11-07 07:29:11,1826.490268447687,55.4000017728,0.0,0.49366301579721605,1826.490268447687,55.4000017728,0.8063993323904,0.536964017182848,1684,0.0,98,GPS_Atti,
0.357684344826459,36.8938324537309,15200,2017-11-07 07:29:11,1826.9902684636868,55.900001788800004,0.0,0.499879015996128,1826.9902684636868,55.900001788800004,0.8063993323904,0.536964017182848,1684,0.0,98,GPS_Atti,
0.357684386895681,36.8938324763306,15300,2017-11-07 07:29:11,1827.4902684796866,56.400001804800006,0.0,0.502831016090592,1827.4902684796866,56.400001804800006,0.8063993323904,0.536964017182848,1684,0.0,98,GPS_Atti,
0.357684421018097,36.8938324947079,15400,2017-11-07 07:29:12,1827.990268495687,56.90000182080001,0.0,0.505251016168032,1827.990268495687,56.90000182080001,0.8063993323904,0.536964017182848,1684,0.0,98,GPS_Atti,
0.35768444739034,36.893832529271,15500,2017-11-07 07:29:12,1828.4902685116867,57.4000018368,0.0,0.506114016195648,1828.4902685116867,57.4000018368,0.8063993323904,0.536964017182848,1684,0.0,98,GPS_Atti,
0.357684474882546,36.8938325608868,15600,2017-11-07 07:29:12,1828.8902685244868,57.8000018496,0.0,0.507279016232928,1828.8902685244868,57.8000018496,0.8063993323904,0.536964017182848,1684,0.0,98,GPS_Atti,
0.357684498391578,36.8938326162537,15700,2017-11-07 07:29:12,1829.4902685436869,58.400001868800004,0.0,0.506941016222112,1829.4902685436869,58.400001868800004,0.8063993323904,0.536964017182848,1684,0.0,98,GPS_Atti,
0.357684493087736,36.8938326496772,15800,2017-11-07 07:29:12,1829.990268559687,58.900001884800005,0.0,0.504816016154112,1829.990268559687,58.900001884800005,0.8063993323904,0.536964017182848,1684,0.0,98,GPS_Atti,
0.357684450901673,36.8938326696304,15900,2017-11-07 07:29:12,1830.4902685756867,59.40000190080001,0.0,0.499627015988064,1830.4902685756867,59.40000190080001,0.8063993323904,0.536964017182848,1684,0.0,98,GPS_Atti,
0.357684402332516,36.8938326755593,16000,2017-11-07 07:29:12,1830.990268591687,59.9000019168,0.0,0.49446101582275204,1830.990268591687,59.9000019168,0.8063993323904,0.536964017182848,1684,0.0,98,GPS_Atti,
0.357684362992159,36.8938326987891,16100,2017-11-07 07:29:12,1831.4902686076869,60.4000019328,0.0,0.48940101566083205,1831.4902686076869,60.4000019328,0.8063993323904,0.536964017182848,1684,0.0,98,GPS_Atti,
0.357684343752907,36.8938327338827,16200,2017-11-07 07:29:12,1831.9902686236867,60.9000019488,0.0,0.485806015545792,1831.9902686236867,60.9000019488,0.8063993323904,0.536964017182848,1684,0.0,98,GPS_Atti,
0.357684329514607,36.8938327229048,16300,2017-11-07 07:29:12,1832.490268639687,61.400001964800005,0.0,0.48489001551648003,1832.490268639687,61.400001964800005,0.8063993323904,0.536964017182848,1684,0.0,98,GPS_Atti,
0.357684311848433,36.8938327155841,16400,2017-11-07 07:29:13,1832.9902686556868,61.900001980800006,0.0,0.48346201547078405,1832.9902686556868,61.900001980800006,0.8063993323904,0.536964017182848,1684,0.0,98,GPS_Atti,
0.357684280575387,36.8938327624601,16500,2017-11-07 07:29:13,1833.4902686716869,62.4000019968,0.0,0.47809501529904,1833.4902686716869,62.4000019968,0.8063993323904,0.536964017182848,1684,0.0,98,GPS_Atti,
0.357684233118865,36.8938328188966,16600,2017-11-07 07:29:13,1833.9902686876867,62.9000020128,0.0,0.470671015061472,1833.9902686876867,62.9000020128,0.8063993323904,0.536964017182848,1684,0.0,98,GPS_Atti,
0.357684190606706,36.8938329008983,16700,2017-11-07 07:29:13,1834.490268703687,63.4000020288,0.0,0.46262001480384,1834.490268703687,63.4000020288,0.8063993323904,0.536964017182848,1684,0.0,98,GPS_Atti,
0.357684147049493,36.8938329675182,16800,2017-11-07 07:29:13,1835.0902687228868,64.000002048,0.0,0.455223014567136,1835.0902687228868,64.000002048,0.8063993323904,0.536964017182848,1684,0.0,98,GPS_Atti,
0.357684111708594,36.8938330121958,16900,2017-11-07 07:29:13,1835.5902687388868,64.500002064,0.0,0.449663014389216,1835.5902687388868,64.500002064,0.8063993323904,0.536964017182848,1684,0.0,98,GPS_Atti,
0.357684076754451,36.8938330369239,17000,2017-11-07 07:29:13,1836.090268754887,65.00000208,0.0,0.44501501424048,1836.090268754887,65.00000208,0.8063993323904,0.536964017182848,1684,0.0,98,GPS_Atti,
0.357684042974009,36.8938330717412,17100,2017-11-07 07:29:13,1836.5902687708867,65.500002096,0.0,0.44006001408192,1836.5902687708867,65.500002096,0.8063993323904,0.536964017182848,1684,0.0,98,GPS_Atti,
0.357683996299954,36.8938331129945,17200,2017-11-07 07:29:13,1837.090268786887,66.000002112,0.0,0.433519013872608,1837.090268786887,66.000002112,0.8063993323904,0.536964017182848,1684,0.0,98,GPS_Atti,
0.35768394454149,36.8938331938148,17300,2017-11-07 07:29:13,1837.5902688028868,66.500002128,0.0,0.424847013595104,1837.5902688028868,66.500002128,0.8063993323904,0.536964017182848,1684,0.0,98,GPS_Atti,
0.357683875075326,36.8938332624534,17400,2017-11-07 07:29:14,1838.0902688188867,67.000002144,0.0,0.41490101327683204,1838.0902688188867,67.000002144,0.8063993323904,0.536964017182848,1684,0.0,98,GPS_Atti,
0.357683802912866,36.8938333101714,17500,2017-11-07 07:29:14,1838.5902688348867,67.50000216000001,0.0,0.40552401297676804,1838.5902688348867,67.50000216000001,0.8063993323904,0.536964017182848,1684,0.0,98,GPS_Atti,
0.357683724883936,36.8938333528711,17600,2017-11-07 07:29:14,1839.0902688508868,68.000002176,0.0,0.395739012663648,1839.0902688508868,68.000002176,0.8063993323904,0.536964017182848,1684,0.0,98,GPS_Atti,
0.357683659109862,36.8938334195766,17700,2017-11-07 07:29:14,1839.5902688668868,68.500002192,0.0,0.38634001236288,1839.5902688668868,68.500002192,0.8063993323904,0.536964017182848,1684,0.0,98,GPS_Atti,
0.357683575630123,36.8938334631874,17800,2017-11-07 07:29:14,1840.1902688860869,69.1000022112,0.0,0.37597201203110403,1840.1902688860869,69.1000022112,0.8063993323904,0.536964017182848,1684,0.0,98,GPS_Atti,
0.357683488892275,36.8938334909169,17900,2017-11-07 07:29:14,1840.690268902087,69.60000222720001,0.0,0.365849011707168,1840.690268902087,69.60000222720001,0.8063993323904,0.536964017182848,1684,0.0,98,GPS_Atti,
0.357683407991991,36.8938335089799,18000,2017-11-07 07:29:14,1841.1902689180868,70.10000224320001,0.0,0.35669701141430404,1841.1902689180868,70.10000224320001,0.8063993323904,0.536964017182848,1684,0.0,98,GPS_Atti,
0.357683350940677,36.8938335470519,18100,2017-11-07 07:29:14,1841.690268934087,70.60000225920001,0.0,0.34930701117782403,1841.690268934087,70.60000225920001,0.8063993323904,0.536964017182848,1684,0.0,98,GPS_Atti,
0.35768329848931,36.8938335857946,18200,2017-11-07 07:29:14,1842.1902689500869,71.1000022752,0.0,0.342388010956416,1842.1902689500869,71.1000022752,0.8063993323904,0.536964017182848,1684,0.0,98,GPS_Atti,
0.357683222319249,36.8938335531554,18300,2017-11-07 07:29:14,1842.6902689660867,71.6000022912,0.0,0.335602010739264,1842.6902689660867,71.6000022912,0.8063993323904,0.536964017182848,1684,0.0,98,GPS_Atti,
0.35768316363827,36.8938335209524,18400,2017-11-07 07:29:15,1843.1902689820868,72.1000023072,0.0,0.33073301058345606,1843.1902689820868,72.1000023072,0.8063993323904,0.536964017182848,1684,0.0,98,GPS_Atti,
0.357683124652914,36.8938335235786,18500,2017-11-07 07:29:15,1843.6902689980868,72.6000023232,0.0,0.32658001045056,1843.6902689980868,72.6000023232,0.8063993323904,0.536964017182848,1684,0.0,98,GPS_Atti,
0.357683082339628,36.8938335377865,18600,2017-11-07 07:29:15,1844.1902690140869,73.1000023392,0.0,0.321621010291872,1844.1902690140869,73.1000023392,0.8063993323904,0.536964017182848,1684,0.0,98,GPS_Atti,
0.357683045364993,36.8938335792153,18700,2017-11-07 07:29:15,1844.6902690300867,73.6000023552,0.0,0.316137010116384,1844.6902690300867,73.6000023552,0.8063993323904,0.536964017182848,1684,0.0,98,GPS_Atti,
0.357682999850594,36.8938336096593,18800,2017-11-07 07:29:15,1845.190269046087,74.1000023712,0.0,0.310211009926752,1845.190269046087,74.1000023712,0.8063993323904,0.536964017182848,1684,0.0,98,GPS_Atti,
0.357682959492256,36.8938336296398,18900,2017-11-07 07:29:15,1845.6902690620868,74.6000023872,0.0,0.305231009767392,1845.6902690620868,74.6000023872,0.8063993323904,0.536964017182848,1684,0.0,98,GPS_Atti,
0.357682913060636,36.8938336359932,19000,2017-11-07 07:29:15,1846.1902690780867,75.10000240320001,0.0,0.300144009604608,1846.1902690780867,75.10000240320001,0.8063993323904,0.536964017182848,1684,0.0,98,GPS_Atti,
0.357682877786503,36.8938336446742,19100,2017-11-07 07:29:15,1846.690269094087,75.60000241920001,0.0,0.29613200947622403,1846.690269094087,75.60000241920001,0.8063993323904,0.536964017182848,1684,0.0,98,GPS_Atti,
0.357682829765318,36.8938336471258,19200,2017-11-07 07:29:15,1847.1902691100868,76.1000024352,0.0,0.291041009313312,1847.1902691100868,76.1000024352,0.8063993323904,0.536964017182848,1684,0.0,98,GPS_Atti,
0.357682787738435,36.8938336630253,19300,2017-11-07 07:29:15,1847.6902691260868,76.6000024512,0.0,0.286044009153408,1847.6902691260868,76.6000024512,0.8063993323904,0.536964017182848,1684,0.0,98,GPS_Atti,
0.357682749067369,36.8938336481113,19400,2017-11-07 07:29:16,1848.190269142087,77.1000024672,0.0,0.28263600904435204,1848.190269142087,77.1000024672,0.8063993323904,0.536964017182848,1684,0.0,98,GPS_Atti,
0.357682723309252,36.8938336198535,19500,2017-11-07 07:29:16,1848.690269158087,77.6000024832,0.0,0.281152008996864,1848.690269158087,77.6000024832,0.8063993323904,0.536964017182848,1684,0.0,98,GPS_Atti,
0.357682670988364,36.8938335686619,19600,2017-11-07 07:29:16,1849.1902691740868,78.1000024992,0.0,0.278034008897088,1849.1902691740868,78.1000024992,0.8063993323904,0.536964017182848,1684,0.0,98,GPS_Atti,
0.357682614937933,36.8938335352738,19700,2017-11-07 07:29:16,1849.6902691900866,78.6000025152,0.0,0.27390100876483203,1849.6902691900866,78.6000025152,0.8063993323904,0.536964017182848,1684,0.0,98,GPS_Atti,
0.357682557522865,36.8938334846073,19800,2017-11-07 07:29:16,1850.190269206087,79.1000025312,0.0,0.27062400865996805,1850.190269206087,79.1000025312,0.8063993323904,0.536964017182848,1684,0.0,98,GPS_Atti,
0.357682524593692,36.8938334561509,19900,2017-11-07 07:29:16,1850.7902692252867,79.70000255040001,0.0,0.268817008602144,1850.7902692252867,79.70000255040001,0.8063993323904,0.536964017182848,1684,0.0,98,GPS_Atti,
0.357682489269892,36.893833413311,20000,2017-11-07 07:29:16,1851.290269241287,80.20000256640002,0.0,0.267625008564,1851.290269241287,80.20000256640002,0.8063993323904,0.536964017182848,1684,0.0,98,GPS_Atti,
0.357682466184663,36.893833380403,20100,2017-11-07 07:29:16,1851.7902692572868,80.7000025824,0.0,0.267192008550144,1851.7902692572868,80.7000025824,0.8063993323904,0.536964017182848,1684,0.0,98,GPS_Atti,
0.357682446456471,36.8938333287463,20200,2017-11-07 07:29:16,1852.2902692732866,81.2000025984,0.0,0.26823000858336005,1852.2902692732866,81.2000025984,0.8063993323904,0.536964017182848,1684,0.0,98,GPS_Atti,
0.357682430833993,36.8938332930451,20300,2017-11-07 07:29:16,1852.790269289287,81.7000026144,0.0,0.26884000860288,1852.790269289287,81.7000026144,0.8063993323904,0.536964017182848,1684,0.0,98,GPS_Atti,
0.357682417771226,36.8938332501003,20400,2017-11-07 07:29:17,1853.2902693052868,82.20000263040001,0.0,0.270197008646304,1853.2902693052868,82.20000263040001,0.8063993323904,0.536964017182848,1684,0.0,98,GPS_Atti,
0.357682416090265,36.8938332200342,20500,2017-11-07 07:29:17,1853.8902693244868,82.8000026496,0.0,0.271887008700384,1853.8902693244868,82.8000026496,0.8063993323904,0.536964017182848,1684,0.0,98,GPS_Atti,
0.357682396741297,36.8938331707462,20600,2017-11-07 07:29:17,1854.2902693372866,83.20000266240001,0.0,0.27321000874272,1854.2902693372866,83.20000266240001,0.8063993323904,0.536964017182848,1684,0.0,98,GPS_Atti,
0.357682375767345,36.8938331379768,20700,2017-11-07 07:29:17,1854.790269353287,83.70000267840001,0.0,0.2734250087496,1854.790269353287,83.70000267840001,0.8063993323904,0.536964017182848,1684,0.0,98,GPS_Atti,
0.357682347574094,36.8938330701948,20800,2017-11-07 07:29:17,1855.2902693692868,84.20000269440001,0.0,0.27542400881356804,1855.2902693692868,84.20000269440001,0.8063993323904,0.536964017182848,1684,0.0,98,GPS_Atti,
0.35768232790534,36.8938330108763,20900,2017-11-07 07:29:17,1855.890269388487,84.80000271360001,0.0,0.277791008889312,1855.890269388487,84.80000271360001,0.8063993323904,0.536964017182848,1684,0.0,98,GPS_Atti,
0.357682291516742,36.8938329353559,21000,2017-11-07 07:29:17,1856.3902694044868,85.30000272960001,0.0,0.28006800896217604,1856.3902694044868,85.30000272960001,0.8063993323904,0.536964017182848,1684,0.0,98,GPS_Atti,
0.357682256183782,36.8938328953403,21100,2017-11-07 07:29:17,1856.8902694204867,85.80000274560001,0.0,0.280063008962016,1856.8902694204867,85.80000274560001,0.8063993323904,0.536964017182848,1684,0.0,98,GPS_Atti,
0.357682209752161,36.8938328569718,21200,2017-11-07 07:29:17,1857.390269436487,86.3000027616,0.0,0.27916000893312004,1857.390269436487,86.3000027616,0.8063993323904,0.536964017182848,1684,0.0,98,GPS_Atti,
0.357682172253574,36.8938328462749,21300,2017-11-07 07:29:17,1857.8902694524868,86.8000027776,0.0,0.276971008863072,1857.8902694524868,86.8000027776,0.8063993323904,0.536964017182848,1684,0.0,98,GPS_Atti,
0.357682146424824,36.8938328238663,21400,2017-11-07 07:29:18,1858.3902694684868,87.3000027936,0.0,0.27667000885344,1858.3902694684868,87.3000027936,0.8063993323904,0.536964017182848,1684,0.0,98,GPS_Atti,
0.357682149956309,36.8938328198108,21500,2017-11-07 07:29:18,1858.8902694844867,87.8000028096,0.0,0.277267008872544,1858.8902694844867,87.8000028096,0.8063993323904,0.536964017182848,1684,0.0,98,GPS_Atti,
0.357682163008491,36.893832806521,21600,2017-11-07 07:29:18,1859.390269500487,88.3000028256,0.0,0.279338008938816,1859.390269500487,88.3000028256,0.8063993323904,0.536964017182848,1684,0.0,98,GPS_Atti,
0.35768218527563,36.8938328120688,21700,2017-11-07 07:29:18,1859.8902695164868,88.8000028416,0.0,0.280664008981248,1859.8902695164868,88.8000028416,0.8063993323904,0.536964017182848,1684,0.0,98,GPS_Atti,
0.357682191750527,36.8938328221148,21800,2017-11-07 07:29:18,1860.3902695324866,89.3000028576,0.0,0.28039800897273603,1860.3902695324866,89.3000028576,0.8063993323904,0.536964017182848,1684,0.0,98,GPS_Atti,
0.357682189879445,36.8938328445095,21900,2017-11-07 07:29:18,1860.890269548487,89.80000287360001,0.0,0.278517008912544,1860.890269548487,89.80000287360001,0.8063993323904,0.536964017182848,1684,0.0,98,GPS_Atti,
0.357682193120863,36.8938328594673,22000,2017-11-07 07:29:18,1861.3902695644867,90.30000288960001,0.0,0.277627008884064,1861.3902695644867,90.30000288960001,0.8063993323904,0.536964017182848,1684,0.0,98,GPS_Atti,
0.357682213804951,36.893832879556,22100,2017-11-07 07:29:18,1861.8902695804868,90.8000029056,0.0,0.277772008888704,1861.8902695804868,90.8000029056,0.8063993323904,0.536964017182848,1684,0.0,98,GPS_Atti,
0.357682230614565,36.8938329063819,22200,2017-11-07 07:29:18,1862.3902695964869,91.3000029216,0.0,0.27713000886816,1862.3902695964869,91.3000029216,0.8063993323904,0.536964017182848,1684,0.0,98,GPS_Atti,
0.35768223305377,36.8938329028692,22300,2017-11-07 07:29:18,1862.890269612487,91.8000029376,0.0,0.277594008883008,1862.890269612487,91.8000029376,0.8063993323904,0.536964017182848,1684,0.0,98,GPS_Atti,
0.357682241957084,36.8938329197536,22400,2017-11-07 07:29:19,1863.2902696252868,92.2000029504,0.0,0.277072008866304,1863.2902696252868,92.2000029504,0.8063993323904,0.536964017182848,1684,0.0,98,GPS_Atti,
0.357682246048143,36.8938329096852,22500,2017-11-07 07:29:19,1863.7902696412868,92.7000029664,0.0,0.278158008901056,1863.7902696412868,92.7000029664,0.8063993323904,0.536964017182848,1684,0.0,98,GPS_Atti,
0.357682247199249,36.8938329156045,22600,2017-11-07 07:29:19,1864.1902696540867,93.10000297920001,0.0,0.27781500889008,1864.1902696540867,93.10000297920001,0.8063993323904,0.536964017182848,1684,0.0,98,GPS_Atti,
0.35768223775692,36.8938329452713,22700,2017-11-07 07:29:19,1864.690269670087,93.6000029952,0.0,0.274839008794848,1864.690269670087,93.6000029952,0.8063993323904,0.536964017182848,1684,0.0,98,GPS_Atti,
0.357682213732689,36.8938329539008,22800,2017-11-07 07:29:19,1865.0902696828869,94.00000300800001,0.0,0.272202008710464,1865.0902696828869,94.00000300800001,0.8063993323904,0.536964017182848,1684,0.0,98,GPS_Atti,
0.357682190922871,36.8938329576752,22900,2017-11-07 07:29:19,1865.490269695687,94.4000030208,0.0,0.270032008641024,1865.490269695687,94.4000030208,0.8063993323904,0.536964017182848,1684,0.0,98,GPS_Atti,
0.357682170312266,36.8938329423314,23000,2017-11-07 07:29:19,1865.8902697084868,94.8000030336,0.0,0.26948200862342403,1865.8902697084868,94.8000030336,0.8063993323904,0.536964017182848,1684,0.0,98,GPS_Atti,
0.357682157349241,36.8938329315714,23100,2017-11-07 07:29:19,1866.290269721287,95.2000030464,0.0,0.26923500861552,1866.290269721287,95.2000030464,0.8063993323904,0.536964017182848,1229,0.0,98,GPS_Atti,
0.357682122393673,36.8938328915268,23200,2017-11-07 07:29:19,1866.590269730887,95.50000305600001,0.0,0.26948700862358405,1866.590269730887,95.50000305600001,0.8063993323904,0.536964017182848,1229,0.0,98,GPS_Atti,
0.357682065992311,36.8938328399964,23300,2017-11-07 07:29:19,1866.990269743687,95.90000306880002,0.0,0.269118008611776,1866.990269743687,95.90000306880002,0.8063993323904,0.536964017182848,1024,0.0,98,GPS_Atti,
0.357681995515291,36.8938327623332,23400,2017-11-07 07:29:20,1867.1902697500868,96.10000307520001,0.0,0.270136008644352,1867.1902697500868,96.10000307520001,0.8063993323904,0.536964017182848,1024,0.0,98,GPS_Atti,
0.357681928378819,36.8938327024275,23500,2017-11-07 07:29:20,1867.390269756487,96.3000030816,0.0,0.27035700865142404,1867.390269756487,96.3000030816,0.8063993323904,0.536964017182848,1024,0.0,98,GPS_Atti,
0.357681852407632,36.8938326284826,23600,2017-11-07 07:29:20,1867.4902697596867,96.40000308480002,0.0,0.27160000869120005,1867.4902697596867,96.40000308480002,0.8063993323904,0.536964017182848,1024,0.0,98,GPS_Atti,
0.357681789446491,36.8938325939414,23700,2017-11-07 07:29:20,1867.4902697596867,96.40000308480002,0.0,0.270578008658496,1867.4902697596867,96.40000308480002,0.8063993323904,0.536964017182848,1024,0.0,98,GPS_Atti,
0.357681727477073,36.8938325403051,23800,2017-11-07 07:29:20,1867.4902697596867,96.40000308480002,0.0,0.271622008691904,1867.4902697596867,96.40000308480002,0.8063993323904,0.536964017182848,1024,0.0,98,GPS_Atti,
0.35768167368,36.8938324595453,23900,2017-11-07 07:29:20,1867.4902697596867,96.40000308480002,0.0,0.276014008832448,1867.4902697596867,96.40000308480002,0.8063993323904,0.536964017182848,1024,0.0,98,GPS_Atti,
0.357681599771848,36.8938323344971,24000,2017-11-07 07:29:20,1867.4902697596867,96.40000308480002,0.0,0.283987009087584,1867.4902697596867,96.40000308480002,0.8063993323904,0.536964017182848,1024,0.0,98,GPS_Atti,
0.357681508711703,36.8938322221611,24100,2017-11-07 07:29:20,1867.4902697596867,96.40000308480002,0.0,0.290537009297184,1867.4902697596867,96.40000308480002,0.8063993323904,0.536964017182848,1024,0.0,98,GPS_Atti,
0.357681416318676,36.8938321210653,24200,2017-11-07 07:29:20,1867.4902697596867,96.40000308480002,0.0,0.29660200949126403,1867.4902697596867,96.40000308480002,0.8063993323904,0.536964017182848,1024,0.0,98,GPS_Atti,
0.357681331923344,36.8938320004177,24300,2017-11-07 07:29:20,1867.4902697596867,96.40000308480002,0.0,0.30565800978105606,1867.4902697596867,96.40000308480002,0.8063993323904,0.536964017182848,1024,0.0,98,GPS_Atti,
0.35768123829616,36.893831897132,24400,2017-11-07 07:29:21,1867.5902697628867,96.50000308800001,0.0,0.31315401002092796,1867.5902697628867,96.50000308800001,0.8063993323904,0.536964017182848,1024,0.0,98,GPS_Atti,
0.357681139610622,36.8938318358062,24500,2017-11-07 07:29:21,1867.5902697628867,96.50000308800001,0.0,0.316574010130368,1867.5902697628867,96.50000308800001,0.8063993323904,0.536964017182848,1024,0.0,98,GPS_Atti,
0.357681023113468,36.893831776038,24600,2017-11-07 07:29:21,1867.5902697628867,96.50000308800001,0.0,0.31986601023571204,1867.5902697628867,96.50000308800001,0.8063993323904,0.536964017182848,1024,0.0,98,GPS_Atti,
0.357680907018134,36.8938317372814,24700,2017-11-07 07:29:21,1867.5902697628867,96.50000308800001,0.0,0.32148801028761603,1867.5902697628867,96.50000308800001,0.8063993323904,0.536964017182848,1024,0.0,98,GPS_Atti,
0.357680781654205,36.893831679041,24800,2017-11-07 07:29:21,1867.5902697628867,96.50000308800001,0.0,0.32568001042176,1867.5902697628867,96.50000308800001,0.8063993323904,0.536964017182848,1024,0.0,98,GPS_Atti,
0.357680663727583,36.8938316267403,24900,2017-11-07 07:29:21,1867.5902697628867,96.50000308800001,0.0,0.329953010558496,1867.5902697628867,96.50000308800001,0.8063993323904,0.536964017182848,1024,0.0,98,GPS_Atti,
0.357680545594912,36.8938315598099,25000,2017-11-07 07:29:21,1867.4902697596867,96.40000308480002,0.0,0.336411010765152,1867.5902697628867,96.50000308800001,0.8063993323904,0.536964017182848,1024,0.0,98,GPS_Atti,
0.357680447096441,36.8938315212759,25100,2017-11-07 07:29:21,1867.5902697628867,96.50000308800001,0.0,0.340291010889312,1867.5902697628867,96.50000308800001,0.8063993323904,0.536964017182848,1024,0.0,98,GPS_Atti,
0.357680358835235,36.8938314944821,25200,2017-11-07 07:29:21,1867.5902697628867,96.50000308800001,0.0,0.34321201098278403,1867.5902697628867,96.50000308800001,0.8063993323904,0.536964017182848,1024,0.0,98,GPS_Atti,
0.357680289053458,36.8938313893839,25300,2017-11-07 07:29:21,1867.5902697628867,96.50000308800001,0.0,0.355047011361504,1867.5902697628867,96.50000308800001,0.8063993323904,0.536964017182848,1024,0.0,98,GPS_Atti,
0.357680227586058,36.893831269216,25400,2017-11-07 07:29:22,1867.4902697596867,96.40000308480002,0.0,0.36866501179728006,1867.5902697628867,96.50000308800001,0.8063993323904,0.536964017182848,1024,0.0,98,GPS_Atti,
0.357680167930658,36.8938311895187,25500,2017-11-07 07:29:22,1867.5902697628867,96.50000308800001,0.0,0.377883012092256,1867.5902697628867,96.50000308800001,0.8063993323904,0.536964017182848,1024,0.0,98,GPS_Atti,
0.35768008274001,36.8938310953106,25600,2017-11-07 07:29:22,1867.4902697596867,96.40000308480002,0.0,0.389042012449344,1867.5902697628867,96.50000308800001,0.8063993323904,0.536964017182848,1024,0.0,98,GPS_Atti,
0.357679990261006,36.8938310373689,25700,2017-11-07 07:29:22,1867.5902697628867,96.50000308800001,0.0,0.39646801268697607,1867.5902697628867,96.50000308800001,0.8063993323904,0.536964017182848,1024,0.0,97,GPS_Atti,
0.35767989406845,36.8938309436768,25800,2017-11-07 07:29:22,1867.5902697628867,96.50000308800001,0.0,0.408117013059744,1867.5902697628867,96.50000308800001,0.8063993323904,0.536964017182848,1024,0.0,97,GPS_Atti,
0.357679832017393,36.8938308692329,25900,2017-11-07 07:29:22,1867.5902697628867,96.50000308800001,0.0,0.41728301335305606,1867.5902697628867,96.50000308800001,0.8063993323904,0.536964017182848,1024,0.0,97,GPS_Atti,
0.357679758883509,36.8938307807739,26000,2017-11-07 07:29:22,1867.5902697628867,96.50000308800001,0.0,0.42826101370435204,1867.5902697628867,96.50000308800001,0.8063993323904,0.536964017182848,1024,0.0,97,GPS_Atti,
0.357679698096158,36.8938307333829,26100,2017-11-07 07:29:22,1867.4902697596867,96.40000308480002,0.0,0.43459901390716804,1867.5902697628867,96.50000308800001,0.8063993323904,0.536964017182848,1024,0.0,97,GPS_Atti,
0.357679642205834,36.8938306654986,26200,2017-11-07 07:29:22,1867.5902697628867,96.50000308800001,0.0,0.44314901418076796,1867.5902697628867,96.50000308800001,0.8063993323904,0.536964017182848,1024,0.0,97,GPS_Atti,
0.357679608424781,36.8938306041503,26300,2017-11-07 07:29:22,1867.5902697628867,96.50000308800001,0.0,0.45055801441785603,1867.5902697628867,96.50000308800001,0.8063993323904,0.536964017182848,1024,0.0,97,GPS_Atti,
0.357679572065952,36.8938305402753,26400,2017-11-07 07:29:23,1867.5902697628867,96.50000308800001,0.0,0.45831101466595203,1867.5902697628867,96.50000308800001,0.8063993323904,0.536964017182848,1024,0.0,97,GPS_Atti,
0.357679544828089,36.8938305315168,26500,2017-11-07 07:29:23,1867.5902697628867,96.50000308800001,0.0,0.459872014715904,1867.5902697628867,96.50000308800001,0.8063993323904,0.536964017182848,1024,0.0,97,GPS_Atti,
0.357679501333533,36.8938305023955,26600,2017-11-07 07:29:23,1867.5902697628867,96.50000308800001,0.0,0.46404301484937605,1867.5902697628867,96.50000308800001,0.8063993323904,0.536964017182848,1024,0.0,97,GPS_Atti,
0.357679463643769,36.893830492818,26700,2017-11-07 07:29:23,1867.5902697628867,96.50000308800001,0.0,0.465988014911616,1867.5902697628867,96.50000308800001,0.8063993323904,0.536964017182848,1024,0.0,97,GPS_Atti,
0.357679410250805,36.8938304600449,26800,2017-11-07 07:29:23,1867.5902697628867,96.50000308800001,0.0,0.470875015068,1867.5902697628867,96.50000308800001,0.8063993323904,0.536964017182848,1024,0.0,97,GPS_Atti,
0.357679364464456,36.8938304403663,26900,2017-11-07 07:29:23,1867.5902697628867,96.50000308800001,0.0,0.474197015174304,1867.5902697628867,96.50000308800001,0.8063993323904,0.536964017182848,1024,0.0,97,GPS_Atti,
0.357679302043831,36.8938304070065,27000,2017-11-07 07:29:23,1867.5902697628867,96.50000308800001,0.0,0.47949601534387204,1867.5902697628867,96.50000308800001,0.8063993323904,0.536964017182848,1024,0.0,97,GPS_Atti,
0.357679251401971,36.8938304076382,27100,2017-11-07 07:29:23,1867.5902697628867,96.50000308800001,0.0,0.48087301538793603,1867.5902697628867,96.50000308800001,0.8063993323904,0.536964017182848,1024,0.0,97,GPS_Atti,
0.357679191348468,36.8938303968284,27200,2017-11-07 07:29:23,1867.5902697628867,96.50000308800001,0.0,0.483823015482336,1867.5902697628867,96.50000308800001,0.8063993323904,0.536964017182848,1024,0.0,97,GPS_Atti,
0.357679155429777,36.8938304063438,27300,2017-11-07 07:29:23,1867.5902697628867,96.50000308800001,0.0,0.48391801548537605,1867.5902697628867,96.50000308800001,0.8063993323904,0.536964017182848,1024,-3.8,97,GPS_Atti,
0.357679132777917,36.8938304028591,27400,2017-11-07 07:29:24,1867.5902697628867,96.50000308800001,0.0,0.485007015520224,1867.5902697628867,96.50000308800001,0.8063993323904,0.536964017182848,1024,-9.4,97,GPS_Atti,
0.357679147995167,36.8938304191235,27500,2017-11-07 07:29:24,1867.4902697596867,96.40000308480002,0.0,0.48279001544928,1867.5902697628867,96.50000308800001,0.8063993323904,0.536964017182848,1024,-15.0,97,GPS_Atti,
0.357679158245255,36.8938304248544,27600,2017-11-07 07:29:24,1867.5902697628867,96.50000308800001,0.0,0.48185501541936004,1867.5902697628867,96.50000308800001,0.8063993323904,0.536964017182848,1024,-20.6,97,GPS_Atti,
0.357679165181205,36.8938304503592,27700,2017-11-07 07:29:24,1867.5902697628867,96.50000308800001,0.35999970196000003,0.47891701532534403,1867.5902697628867,96.50000308800001,0.8063993323904,0.536964017182848,1024,-26.3,97,GPS_Atti,
0.3576791738029,36.8938304745226,27800,2017-11-07 07:29:24,1867.5902697628867,96.50000308800001,0.0,0.476068015234176,1867.5902697628867,96.50000308800001,0.8063993323904,0.536964017182848,1024,-31.5,97,GPS_Atti,
0.357679196349114,36.8938305211641,27900,2017-11-07 07:29:24,1867.5902697628867,96.50000308800001,0.0,0.47038501505232,1867.5902697628867,96.50000308800001,0.8063993323904,0.536964017182848,1024,-35.6,97,GPS_Atti,
0.357679201922158,36.8938305425825,28000,2017-11-07 07:29:24,1867.5902697628867,96.50000308800001,0.0,0.4679250149736,1867.5902697628867,96.50000308800001,0.8063993323904,0.536964017182848,1024,-35.6,97,GPS_Atti,
0.357679202883347,36.8938305668122,28100,2017-11-07 07:29:24,1867.5902697628867,96.50000308800001,0.0,0.46531001488992,1867.5902697628867,96.50000308800001,0.8063993323904,0.536964017182848,1024,-35.6,97,GPS_Atti,
0.357679205984566,36.8938306059799,28200,2017-11-07 07:29:24,1867.5902697628867,96.50000308800001,0.0,0.46103501475312003,1867.5902697628867,96.50000308800001,0.8063993323904,0.536964017182848,1024,-35.6,97,GPS_Atti,
0.357679188638737,36.8938305909359,28300,2017-11-07 07:29:24,1867.5902697628867,96.50000308800001,0.0,0.463189014822048,1867.5902697628867,96.50000308800001,0.8063993323904,0.536964017182848,1024,-35.6,97,GPS_Atti,
0.357679184276085,36.893830568644,28400,2017-11-07 07:29:25,1867.5902697628867,96.50000308800001,0.0,0.465703014902496,1867.5902697628867,96.50000308800001,0.8063993323904,0.536964017182848,1024,-35.6,97,GPS_Atti,
0.357679210638507,36.8938305811988,28500,2017-11-07 07:29:25,1867.5902697628867,96.50000308800001,0.0,0.46353101483299197,1867.5902697628867,96.50000308800001,0.8063993323904,0.536964017182848,1024,-35.6,97,GPS_Atti,
0.357679237385954,36.8938305851365,28600,2017-11-07 07:29:25,1867.5902697628867,96.50000308800001,0.0,0.462282014793024,1867.5902697628867,96.50000308800001,0.8063993323904,0.536964017182848,1024,-35.6,97,GPS_Atti,
0.35767925857486,36.8938306204865,28700,2017-11-07 07:29:25,1867.5902697628867,96.50000308800001,0.0,0.457854014651328,1867.5902697628867,96.50000308800001,0.8063993323904,0.536964017182848,1024,-35.6,97,GPS_Atti,
0.357679282761502,36.8938306378783,28800,2017-11-07 07:29:25,1867.5902697628867,96.50000308800001,0.0,0.45526301456841606,1867.5902697628867,96.50000308800001,0.8063993323904,0.536964017182848,1024,-35.6,97,GPS_Atti,
0.357679328832804,36.8938306551203,29000,2017-11-07 07:29:25,1867.5902697628867,96.50000308800001,0.0,0.45205901446588803,1867.5902697628867,96.50000308800001,0.8063993323904,0.536964017182848,1024,-35.6,97,GPS_Atti,
0.357679351810047,36.8938306650436,29100,2017-11-07 07:29:25,1867.5902697628867,96.50000308800001,0.0,0.45033501441072005,1867.5902697628867,96.50000308800001,0.8063993323904,0.536964017182848,1024,-35.6,97,GPS_Atti,
