latitude,longitude,time_millisecond,datetime_utc,altitude_m,ascent_m,speed_kph,distance_m,max_altitude_m,max_ascent_m,max_speed_kph,max_distance_m,rc_throttle,gimbal_pitch_degrees,battery_percent,flycState,message
0.354614112996047,36.8888804864309,0,2018-04-03 04:58:22,1771.589167990854,0.0,0.0,0.0,1771.589167990854,0.0,0.0,0.0,364,0.0,100,P-GPS,
0.354614109916252,36.8888804509979,100,2018-04-03 04:58:22,1771.589167990854,0.0,0.0,0.0039551501265648,1771.589167990854,0.0,0.0,0.0039551501265648,364,0.0,100,Motors_Started,
0.354614109928059,36.8888804316287,200,2018-04-03 04:58:22,1771.589167990854,0.0,0.0,0.00610377019532064,1771.589167990854,0.0,0.0,0.00610377019532064,364,0.0,100,Motors_Started,
0.354614110679178,36.8888804151399,300,2018-04-03 04:58:22,1771.589167990854,0.0,0.0,0.00793203025382496,1771.589167990854,0.0,0.0,0.00793203025382496,364,0.0,100,Motors_Started,
0.35461411332255,36.8888804130238,400,2018-04-03 04:58:22,1771.589167990854,0.0,0.0,0.00816324026122368,1771.589167990854,0.0,0.0,0.00816324026122368,364,0.0,100,Motors_Started,
0.354614116207339,36.8888804095744,500,2018-04-03 04:58:22,1771.589167990854,0.0,0.0,0.00855421027373472,1771.589167990854,0.0,0.0,0.00855421027373472,364,0.0,100,Motors_Started,
0.35461412036557,36.8888803849948,600,2018-04-03 04:58:23,1771.589167990854,0.0,0.0,0.011309800361913602,1771.589167990854,0.0,0.0,0.011309800361913602,364,0.0,100,Motors_Started,Setting new Return-To-Home altitude to 30m (98 ft). Setting new Maximum Flight Altitude to 150m (492 ft)
0.354614124221319,36.8888803587213,700,2018-04-03 04:58:23,1771.589167990854,0.0,0.0,0.0142566004562112,1771.589167990854,0.0,0.0,0.0142566004562112,364,0.0,100,Motors_Started,
0.354614127727359,36.8888803449513,800,2018-04-03 04:58:23,1771.589167990854,0.0,0.0,0.0158182005061824,1771.589167990854,0.0,0.0,0.0158182005061824,364,0.0,100,Motors_Started,
0.354614131166632,36.8888803334533,900,2018-04-03 04:58:23,1771.589167990854,0.0,0.0,0.0171313005482016,1771.589167990854,0.0,0.0,0.0171313005482016,364,0.0,100,Motors_Started,
0.354614133731432,36.8888803344693,1000,2018-04-03 04:58:23,1771.589167990854,0.0,0.0,0.017055300545769602,1771.589167990854,0.0,0.0,0.0171313005482016,364,0.0,100,Motors_Started,
0.354614138906627,36.8888803345817,1100,2018-04-03 04:58:23,1771.589167990854,0.0,0.0,0.0171303005481696,1771.589167990854,0.0,0.0,0.0171313005482016,364,0.0,100,Motors_Started,
0.354614142145195,36.8888803103793,1200,2018-04-03 04:58:23,1771.589167990854,0.0,0.0,0.0198442006350144,1771.589167990854,0.0,0.0,0.0198442006350144,364,0.0,100,Motors_Started,
0.354614137832261,36.8888802809103,1300,2018-04-03 04:58:23,1771.589167990854,0.0,0.0,0.023021000736672004,1771.589167990854,0.0,0.0,0.023021000736672004,364,0.0,100,Motors_Started,
0.354614141040295,36.8888802647818,1400,2018-04-03 04:58:24,1771.589167990854,0.0,0.0,0.0248448007950336,1771.589167990854,0.0,0.0,0.0248448007950336,682,0.0,100,Motors_Started,
0.354614142019397,36.8888802511729,1600,2018-04-03 04:58:24,1771.589167990854,0.0,0.0,0.026360000843520002,1771.589167990854,0.0,0.0,0.026360000843520002,1024,0.0,100,Assisted_Takeoff,
0.35461414375654,36.8888802478034,1700,2018-04-03 04:58:24,1771.589167990854,0.0,0.0,0.0267559008561888,1771.589167990854,0.0,0.0,0.0267559008561888,1024,0.0,100,Assisted_Takeoff,
0.354614139006776,36.8888802505511,1800,2018-04-03 04:58:24,1771.589167990854,0.0,0.0,0.0263898008444736,1771.589167990854,0.0,0.0,0.0267559008561888,1024,0.0,100,Assisted_Takeoff,
0.354614142685431,36.8888802558543,1900,2018-04-03 04:58:24,1771.589167990854,0.0,0.0,0.025852700827286402,1771.589167990854,0.0,0.0,0.0267559008561888,1024,0.0,100,Assisted_Takeoff,
0.354614139571439,36.8888802624968,2000,2018-04-03 04:58:24,1771.589167990854,0.0,0.0,0.025077100802467202,1771.589167990854,0.0,0.0,0.0267559008561888,1024,0.0,100,Assisted_Takeoff,
0.354614144127011,36.8888802698719,2100,2018-04-03 04:58:24,1771.589167990854,0.0,0.0,0.024329800778553602,1771.589167990854,0.0,0.0,0.0267559008561888,1024,0.0,100,Assisted_Takeoff,
0.35461414262925,36.8888802786101,2200,2018-04-03 04:58:24,1771.589167990854,0.0,0.0,0.0233443007470176,1771.589167990854,0.0,0.0,0.0267559008561888,1024,0.0,100,Assisted_Takeoff,
0.354614143614458,36.888880285323,2300,2018-04-03 04:58:24,1771.589167990854,0.0,0.0,0.0226217007238944,1771.589167990854,0.0,0.0,0.0267559008561888,1024,0.0,100,Assisted_Takeoff,
0.354614113592465,36.8888802927765,2400,2018-04-03 04:58:24,1771.589167990854,0.0,0.0,0.021535200689126403,1771.589167990854,0.0,0.0,0.0267559008561888,1024,0.0,100,Assisted_Takeoff,
0.354614082564093,36.8888802996581,2500,2018-04-03 04:58:24,1771.589167990854,0.0,0.0,0.0210438006734016,1771.589167990854,0.0,0.0,0.0267559008561888,1024,0.0,100,Assisted_Takeoff,
0.35461404988285,36.8888803400726,2600,2018-04-03 04:58:25,1771.589167990854,0.0,0.0,0.017724500567184002,1771.589167990854,0.0,0.0,0.0267559008561888,1024,0.0,100,Assisted_Takeoff,
0.354614032154795,36.8888803751855,2700,2018-04-03 04:58:25,1771.589167990854,0.0,0.0,0.015292500489360001,1771.589167990854,0.0,0.0,0.0267559008561888,1024,0.0,100,Assisted_Takeoff,
0.354614019194416,36.8888804055425,2800,2018-04-03 04:58:25,1771.589167990854,0.0,0.0,0.013774000440768,1771.589167990854,0.0,0.0,0.0267559008561888,1024,0.0,100,Assisted_Takeoff,
0.35461401058809,36.888880429177,2900,2018-04-03 04:58:25,1771.589167990854,0.0,0.0,0.013047300417513601,1771.589167990854,0.0,0.0,0.0267559008561888,1024,0.0,100,Assisted_Takeoff,
0.354614006937932,36.8888804093091,3000,2018-04-03 04:58:25,1771.589167990854,0.0,0.0,0.014582800466649599,1771.589167990854,0.0,0.0,0.0267559008561888,1024,0.0,100,Assisted_Takeoff,
0.354614005085577,36.8888803925628,3100,2018-04-03 04:58:25,1771.589167990854,0.0,0.0,0.01590500050896,1771.589167990854,0.0,0.0,0.0267559008561888,1024,0.0,100,Assisted_Takeoff,
0.35461400667046,36.8888803688668,3200,2018-04-03 04:58:25,1771.589167990854,0.0,0.0,0.017627500564080002,1771.589167990854,0.0,0.0,0.0267559008561888,1024,0.0,100,Assisted_Takeoff,
0.354614008156416,36.8888803555242,3300,2018-04-03 04:58:25,1771.589167990854,0.0,0.0,0.0186506005968192,1771.589167990854,0.0,0.0,0.0267559008561888,1024,0.0,100,Assisted_Takeoff,
0.354614012032112,36.8888803394088,3400,2018-04-03 04:58:25,1771.589167990854,0.0,0.0,0.019833500634672,1771.589167990854,0.0,0.0,0.0267559008561888,1024,0.0,100,Assisted_Takeoff,
0.354614015277601,36.8888803304195,3500,2018-04-03 04:58:26,1771.589167990854,0.0,0.0,0.0204714006550848,1771.589167990854,0.0,0.0,0.0267559008561888,1024,0.0,100,Assisted_Takeoff,
0.354614018526754,36.8888803210199,3600,2018-04-03 04:58:26,1771.589167990854,0.0,0.0,0.021183000677856,1771.589167990854,0.0,0.0,0.0267559008561888,1024,0.0,100,Assisted_Takeoff,
0.354614021017052,36.888880316468,3700,2018-04-03 04:58:26,1771.589167990854,0.0,0.0,0.0214908006877056,1771.589167990854,0.0,0.0,0.0267559008561888,1024,0.0,100,Assisted_Takeoff,
0.354613989382085,36.8888803122807,3800,2018-04-03 04:58:26,1771.589167990854,0.0,0.0,0.023749100759971203,1771.589167990854,0.0,0.0,0.0267559008561888,1024,0.0,100,Assisted_Takeoff,
0.354613960416951,36.8888803104114,3900,2018-04-03 04:58:26,1771.589167990854,0.0,0.0,0.025904600828947202,1771.589167990854,0.0,0.0,0.0267559008561888,1024,0.0,100,Assisted_Takeoff,
0.354613933657138,36.888880307751,4000,2018-04-03 04:58:26,1771.589167990854,0.0,0.0,0.0281524009008768,1771.589167990854,0.0,0.0,0.0281524009008768,1024,0.0,100,Assisted_Takeoff,
0.354613915033031,36.8888803068246,4100,2018-04-03 04:58:26,1771.589167990854,0.0,0.0,0.0297248009511936,1771.589167990854,0.0,0.0,0.0297248009511936,1024,0.0,100,Assisted_Takeoff,
0.354613901036555,36.8888803049722,4200,2018-04-03 04:58:26,1771.589167990854,0.0,0.0,0.0310289009929248,1771.589167990854,0.0,0.0,0.0310289009929248,1024,0.0,100,Assisted_Takeoff,
0.354613890158956,36.8888803048438,4300,2018-04-03 04:58:26,1771.589167990854,0.0,0.0,0.031966501022928,1771.589167990854,0.0,0.0,0.031966501022928,1024,0.0,100,Assisted_Takeoff,
0.354613886291402,36.8888802728677,4400,2018-04-03 04:58:26,1771.589167990854,0.0,0.0,0.034635401108332804,1771.589167990854,0.0,0.0,0.034635401108332804,1024,0.0,100,Assisted_Takeoff,
0.354613882631474,36.8888802433396,4500,2018-04-03 04:58:26,1771.589167990854,0.0,0.0,0.037243101191779204,1771.589167990854,0.0,0.0,0.037243101191779204,1024,0.0,100,Assisted_Takeoff,
0.354613851991893,36.8888802157693,4600,2018-04-03 04:58:27,1771.589167990854,0.0,0.0,0.0418138013380416,1771.589167990854,0.0,0.0,0.0418138013380416,1024,0.0,100,Assisted_Takeoff,
0.354613821922268,36.8888801980686,4700,2018-04-03 04:58:27,1771.589167990854,0.0,0.0,0.045563801458041606,1771.589167990854,0.0,0.0,0.045563801458041606,1024,0.0,100,Assisted_Takeoff,
0.354613798646917,36.8888801846152,4800,2018-04-03 04:58:27,1771.589167990854,0.0,0.0,0.0484614015507648,1771.589167990854,0.0,0.0,0.0484614015507648,1024,0.0,100,Assisted_Takeoff,
0.354613780722227,36.888880174884,4900,2018-04-03 04:58:27,1771.589167990854,0.0,0.0,0.050652301620873606,1771.589167990854,0.0,0.0,0.050652301620873606,1024,0.0,100,Assisted_Takeoff,
0.354613772299508,36.8888801714147,5000,2018-04-03 04:58:27,1771.589167990854,0.0,0.0,0.0516008016512256,1771.589167990854,0.0,0.0,0.0516008016512256,1024,0.0,100,Assisted_Takeoff,
0.354613763598324,36.8888801687971,5100,2018-04-03 04:58:27,1771.589167990854,0.0,0.0,0.05251070168034241,1771.589167990854,0.0,0.0,0.05251070168034241,1024,0.0,100,Assisted_Takeoff,
0.35461373187135,36.8888801387259,5200,2018-04-03 04:58:27,1771.589167990854,0.0,0.0,0.0573709018358688,1771.589167990854,0.0,0.0,0.0573709018358688,1024,0.0,100,Assisted_Takeoff,
0.354613699701846,36.8888801107553,5300,2018-04-03 04:58:27,1771.589167990854,0.0,0.0,0.0621103019875296,1771.589167990854,0.0,0.0,0.0621103019875296,1024,0.0,100,Assisted_Takeoff,
0.354613678451466,36.8888801220977,5400,2018-04-03 04:58:27,1771.589167990854,0.0,0.0,0.0630611020179552,1771.589167990854,0.0,0.0,0.0630611020179552,1024,0.0,100,Assisted_Takeoff,
0.354613661139885,36.8888801368923,5500,2018-04-03 04:58:28,1771.589167990854,0.0,0.0,0.0635284020329088,1771.589167990854,0.0,0.0,0.0635284020329088,1024,0.0,100,Assisted_Takeoff,
0.354613656072167,36.8888801565142,5600,2018-04-03 04:58:28,1771.589167990854,0.0,0.0,0.0626733020055456,1771.589167990854,0.0,0.0,0.0635284020329088,1024,0.0,99,Assisted_Takeoff,
0.354613649368678,36.8888801693889,5700,2018-04-03 04:58:28,1771.589167990854,0.0,0.0,0.062460001998720004,1771.589167990854,0.0,0.0,0.0635284020329088,1024,0.0,99,Assisted_Takeoff,
0.354613620779308,36.8888801836913,5800,2018-04-03 04:58:28,1771.589167990854,0.0,0.0,0.0642618020563776,1771.589167990854,0.0,0.0,0.0642618020563776,1024,0.0,99,Assisted_Takeoff,
0.354613590306235,36.8888801940158,5900,2018-04-03 04:58:28,1771.589167990854,0.0,0.0,0.0666038021313216,1771.589167990854,0.0,0.0,0.0666038021313216,1024,0.0,99,Assisted_Takeoff,
0.354613571440712,36.8888802033429,6000,2018-04-03 04:58:28,1771.589167990854,0.0,0.0,0.0679557021745824,1771.589167990854,0.0,0.0,0.0679557021745824,1024,0.0,99,Assisted_Takeoff,
0.354613555064264,36.8888802111146,6100,2018-04-03 04:58:28,1771.589167990854,0.0,0.0,0.0691881022140192,1771.589167990854,0.0,0.0,0.0691881022140192,1024,0.0,99,Assisted_Takeoff,
0.354613517157345,36.8888802162612,6200,2018-04-03 04:58:28,1771.589167990854,0.0,0.0,0.07275400232812801,1771.589167990854,0.0,0.0,0.07275400232812801,1024,0.0,99,Assisted_Takeoff,
0.354613480664729,36.8888802218741,6300,2018-04-03 04:58:28,1771.589167990854,0.0,0.0,0.07622530243920961,1771.589167990854,0.0,0.0,0.07622530243920961,1024,0.0,99,Assisted_Takeoff,
0.354613459470531,36.8888802244302,6400,2018-04-03 04:58:28,1771.589167990854,0.0,0.0,0.0782987025055584,1771.589167990854,0.0,0.0,0.0782987025055584,1024,0.0,99,Assisted_Takeoff,
0.35461344119084,36.8888802277322,6500,2018-04-03 04:58:28,1771.589167990854,0.0,0.0,0.08005640256180481,1771.589167990854,0.0,0.0,0.08005640256180481,1024,0.0,99,Assisted_Takeoff,
0.354613437305372,36.8888802281079,6600,2018-04-03 04:58:29,1771.589167990854,0.0,0.0,0.0804448025742336,1771.589167990854,0.0,0.0,0.0804448025742336,1024,0.0,99,Assisted_Takeoff,
0.354613431238197,36.8888802305732,6700,2018-04-03 04:58:29,1771.589167990854,0.0,0.0,0.0809787025913184,1771.589167990854,0.0,0.0,0.0809787025913184,1024,0.0,99,Assisted_Takeoff,
0.3546134380455,36.8888802294505,6800,2018-04-03 04:58:29,1771.589167990854,0.0,0.0,0.0803147025700704,1771.589167990854,0.0,0.0,0.0809787025913184,1024,0.0,99,Assisted_Takeoff,
0.354613438488844,36.8888802306075,6900,2018-04-03 04:58:29,1771.589167990854,0.0,0.0,0.08022290256713281,1771.589167990854,0.0,0.0,0.0809787025913184,1024,0.0,99,Assisted_Takeoff,
0.354613448852669,36.8888802287275,7000,2018-04-03 04:58:29,1771.589167990854,0.0,0.0,0.0792218025350976,1771.589167990854,0.0,0.0,0.0809787025913184,1024,0.0,99,Assisted_Takeoff,
0.354613453870312,36.8888802291467,7100,2018-04-03 04:58:29,1771.589167990854,0.0,0.0,0.0786848025179136,1771.589167990854,0.0,0.0,0.0809787025913184,1024,0.0,99,Assisted_Takeoff,
0.354613434352596,36.8888802265422,7200,2018-04-03 04:58:29,1771.589167990854,0.0,0.0,0.0808137025860384,1771.589167990854,0.0,0.0,0.0809787025913184,1024,0.0,99,Assisted_Takeoff,
0.354613410757664,36.8888802267451,7300,2018-04-03 04:58:29,1771.589167990854,0.0,0.0,0.0832616026643712,1771.589167990854,0.0,0.0,0.0832616026643712,1024,0.0,99,Assisted_Takeoff,
0.354613394860387,36.8888802235737,7400,2018-04-03 04:58:29,1771.589167990854,0.0,0.0,0.08504250272136,1771.589167990854,0.0,0.0,0.08504250272136,1024,0.0,99,Assisted_Takeoff,
0.35461338160526,36.8888802225044,7500,2018-04-03 04:58:30,1771.589167990854,0.0,0.0,0.086468502766992,1771.589167990854,0.0,0.0,0.086468502766992,1024,0.0,99,Assisted_Takeoff,
0.354613377509723,36.8888802185288,7600,2018-04-03 04:58:30,1771.589167990854,0.0,0.0,0.0870474027855168,1771.589167990854,0.0,0.0,0.0870474027855168,1024,0.0,99,Assisted_Takeoff,
0.354613371792256,36.8888802156574,7700,2018-04-03 04:58:30,1771.589167990854,0.0,0.0,0.08775410280813122,1771.589167990854,0.0,0.0,0.08775410280813122,1024,0.0,99,Assisted_Takeoff,
0.354613374105868,36.8888802109481,7800,2018-04-03 04:58:30,1771.589167990854,0.0,0.0,0.0876941028062112,1771.589167990854,0.0,0.0,0.08775410280813122,1024,0.0,99,Assisted_Takeoff,
0.354613372896341,36.8888802073715,7900,2018-04-03 04:58:30,1771.589167990854,0.0,0.0,0.0879596028147072,1771.589167990854,0.0,0.0,0.0879596028147072,1024,0.0,99,Assisted_Takeoff,
0.354613378317024,36.8888802028012,8000,2018-04-03 04:58:30,1771.589167990854,0.0,0.0,0.0875776028024832,1771.589167990854,0.0,0.0,0.0879596028147072,1024,0.0,99,Assisted_Takeoff,
0.354613379952796,36.8888801990177,8100,2018-04-03 04:58:30,1771.589167990854,0.0,0.0,0.08756060280193921,1771.589167990854,0.0,0.0,0.0879596028147072,1024,0.0,99,Assisted_Takeoff,
0.3546133868403,36.8888801610235,8200,2018-04-03 04:58:30,1771.589167990854,0.0,0.0,0.0884902028316864,1771.589167990854,0.0,0.0,0.0884902028316864,1024,0.0,99,Assisted_Takeoff,
0.354613389679492,36.8888801275138,8300,2018-04-03 04:58:30,1771.589167990854,0.0,0.0,0.0897953028734496,1771.589167990854,0.0,0.0,0.0897953028734496,1024,0.0,99,Assisted_Takeoff,
0.354613394417857,36.8888801007401,8400,2018-04-03 04:58:30,1771.589167990854,0.0,0.0,0.0906931029021792,1771.589167990854,0.0,0.0,0.0906931029021792,1024,0.0,99,Assisted_Takeoff,
0.354613397288397,36.8888800783652,8500,2018-04-03 04:58:30,1771.589167990854,0.0,0.0,0.09161850293179201,1771.589167990854,0.0,0.0,0.09161850293179201,1024,0.0,99,Assisted_Takeoff,
0.354613402664297,36.8888800610132,8600,2018-04-03 04:58:31,1771.589167990854,0.0,0.0,0.092076002946432,1771.589167990854,0.0,0.0,0.092076002946432,1024,0.0,99,Assisted_Takeoff,
0.354613404054174,36.8888800465583,8700,2018-04-03 04:58:31,1771.589167990854,0.0,0.0,0.09278080296898561,1771.589167990854,0.0,0.0,0.09278080296898561,1024,0.0,99,Assisted_Takeoff,
0.354613406739479,36.8888800402998,8800,2018-04-03 04:58:31,1771.589167990854,0.0,0.0,0.0928969029727008,1771.589167990854,0.0,0.0,0.0928969029727008,1024,0.0,99,Assisted_Takeoff,
0.354613407004508,36.8888800310857,8900,2018-04-03 04:58:31,1771.589167990854,0.0,0.0,0.0934234029895488,1771.589167990854,0.0,0.0,0.0934234029895488,1024,0.0,99,Assisted_Takeoff,
0.354613408277951,36.8888799961238,9000,2018-04-03 04:58:31,1771.589167990854,0.0,0.0,0.0954702030550464,1771.589167990854,0.0,0.0,0.0954702030550464,1024,0.0,99,Assisted_Takeoff,
0.354613408702975,36.8888799619083,9100,2018-04-03 04:58:31,1771.589167990854,0.0,0.0,0.0976553031249696,1771.589167990854,0.0,0.0,0.0976553031249696,1024,0.0,99,Assisted_Takeoff,
0.354613410574464,36.8888799392175,9200,2018-04-03 04:58:31,1771.589167990854,0.0,0.0,0.0990188031686016,1771.589167990854,0.0,0.0,0.0990188031686016,1024,0.0,99,Assisted_Takeoff,
0.354613410706775,36.8888799182135,9300,2018-04-03 04:58:31,1771.589167990854,0.0,0.0,0.10046000321472001,1771.589167990854,0.0,0.0,0.10046000321472001,1024,0.0,99,Assisted_Takeoff,
0.354613346856707,36.8888798988882,9500,2018-04-03 04:58:32,1771.589167990854,0.0,0.0,0.10736800343577602,1771.589167990854,0.0,0.0,0.10736800343577602,1024,0.0,99,Assisted_Takeoff,
0.354613321272631,36.8888799007652,9600,2018-04-03 04:58:32,1771.589167990854,0.0,0.0,0.10951500350448,1771.589167990854,0.0,0.0,0.10951500350448,1024,0.0,99,Assisted_Takeoff,
0.354613301808247,36.8888798956975,9700,2018-04-03 04:58:32,1771.589167990854,0.0,0.0,0.111593003570976,1771.589167990854,0.0,0.0,0.111593003570976,1025,0.0,99,Assisted_Takeoff,
0.354613290094849,36.8888799023095,9800,2018-04-03 04:58:32,1771.589167990854,0.0,0.0,0.112222003591104,1771.589167990854,0.0,0.0,0.112222003591104,1024,0.0,99,Assisted_Takeoff,
0.354613278876499,36.8888799008425,9900,2018-04-03 04:58:32,1771.589167990854,0.0,0.0,0.11333500362672001,1771.589167990854,0.0,0.0,0.11333500362672001,1024,0.0,99,Assisted_Takeoff,
0.354613276131756,36.888879909346,10000,2018-04-03 04:58:32,1771.589167990854,0.0,0.0,0.11304600361747201,1771.589167990854,0.0,0.0,0.11333500362672001,1024,0.0,99,Assisted_Takeoff,
0.354613271243574,36.8888799091712,10100,2018-04-03 04:58:32,1771.589167990854,0.0,0.0,0.11350500363216,1771.589167990854,0.0,0.0,0.11350500363216,1024,0.0,99,Assisted_Takeoff,
0.35461327352421,36.8888799164219,10200,2018-04-03 04:58:32,1771.589167990854,0.0,0.0,0.11284100361091201,1771.589167990854,0.0,0.0,0.11350500363216,1024,0.0,99,Assisted_Takeoff,
0.35461327310855,36.8888799176555,10300,2018-04-03 04:58:32,1771.589167990854,0.0,0.0,0.11280200360966401,1771.589167990854,0.0,0.0,0.11350500363216,1024,0.0,99,Assisted_Takeoff,
0.35461324629622,36.8888799259098,10400,2018-04-03 04:58:32,1771.589167990854,0.0,0.0,0.114782003673024,1771.589167990854,0.0,0.0,0.114782003673024,1024,0.0,99,Assisted_Takeoff,
0.354613217612807,36.8888799255618,10500,2018-04-03 04:58:32,1771.589167990854,0.0,0.0,0.117494003759808,1771.589167990854,0.0,0.0,0.117494003759808,1024,0.0,99,Assisted_Takeoff,
0.354613195356049,36.8888798976198,10600,2018-04-03 04:58:33,1771.589167990854,0.0,0.0,0.121248003879936,1771.589167990854,0.0,0.0,0.121248003879936,1024,0.0,99,Assisted_Takeoff,
0.354613176679017,36.8888798660704,10700,2018-04-03 04:58:33,1771.589167990854,0.0,0.0,0.12490400399692801,1771.589167990854,0.0,0.0,0.12490400399692801,1024,0.0,99,Assisted_Takeoff,
0.354613167277196,36.8888798436098,10800,2018-04-03 04:58:33,1771.589167990854,0.0,0.0,0.127164004069248,1771.589167990854,0.0,0.0,0.127164004069248,1024,0.0,99,Assisted_Takeoff,
0.354613155367571,36.8888798211859,10900,2018-04-03 04:58:33,1771.589167990854,0.0,0.0,0.12966800414937601,1771.589167990854,0.0,0.0,0.12966800414937601,1024,0.0,99,Assisted_Takeoff,
0.354613152630971,36.8888798104566,11000,2018-04-03 04:58:33,1771.589167990854,0.0,0.0,0.130601004179232,1771.589167990854,0.0,0.0,0.130601004179232,1024,0.0,99,Assisted_Takeoff,
0.354613145987733,36.8888797959208,11100,2018-04-03 04:58:33,1771.589167990854,0.0,0.0,0.132138004228416,1771.589167990854,0.0,0.0,0.132138004228416,1024,0.0,99,Assisted_Takeoff,
0.354613149730712,36.8888797944402,11200,2018-04-03 04:58:33,1771.589167990854,0.0,0.0,0.13189600422067202,1771.589167990854,0.0,0.0,0.132138004228416,1024,0.0,99,Assisted_Takeoff,
0.354613147086119,36.8888797847904,11300,2018-04-03 04:58:33,1771.589167990854,0.0,0.0,0.132763004248416,1771.589167990854,0.0,0.0,0.132763004248416,1024,0.0,99,Assisted_Takeoff,
0.354613154218704,36.8888797529704,11400,2018-04-03 04:58:33,1771.589167990854,0.0,0.0,0.134242004295744,1771.589167990854,0.0,0.0,0.134242004295744,1024,0.0,99,Assisted_Takeoff,
0.354613153911335,36.8888797163758,11500,2018-04-03 04:58:34,1771.589167990854,0.0,0.0,0.136779004376928,1771.589167990854,0.0,0.0,0.136779004376928,1024,0.0,99,Assisted_Takeoff,
0.354613161345996,36.8888796960028,11600,2018-04-03 04:58:34,1771.589167990854,0.0,0.0,0.137572004402304,1771.589167990854,0.0,0.0,0.137572004402304,1024,0.0,99,Assisted_Takeoff,
0.354613162344639,36.8888796722185,11700,2018-04-03 04:58:34,1771.589167990854,0.0,0.0,0.139192004454144,1771.589167990854,0.0,0.0,0.139192004454144,1024,0.0,99,Assisted_Takeoff,
0.354613135691489,36.8888796659429,11800,2018-04-03 04:58:34,1771.589167990854,0.0,0.0,0.141904004540928,1771.589167990854,0.0,0.0,0.141904004540928,1024,0.0,99,Assisted_Takeoff,
0.354613107027618,36.8888796510212,11900,2018-04-03 04:58:34,1771.589167990854,0.0,0.0,0.14541500465328,1771.589167990854,0.0,0.0,0.14541500465328,1024,0.0,99,Assisted_Takeoff,
0.354613086744127,36.888879653596,12000,2018-04-03 04:58:34,1771.589167990854,0.0,0.0,0.14697600470323202,1771.589167990854,0.0,0.0,0.14697600470323202,1024,0.0,99,Assisted_Takeoff,
0.354613068799488,36.8888796449739,12100,2018-04-03 04:58:34,1771.589167990854,0.0,0.0,0.14913100477219202,1771.589167990854,0.0,0.0,0.14913100477219202,1024,0.0,99,Assisted_Takeoff,
0.354613060929625,36.888879618346,12200,2018-04-03 04:58:34,1771.589167990854,0.0,0.0,0.15168100485379202,1771.589167990854,0.0,0.0,0.15168100485379202,1024,0.0,99,Assisted_Takeoff,
0.354613050765285,36.8888795834531,12300,2018-04-03 04:58:34,1771.589167990854,0.0,0.0,0.155039004961248,1771.589167990854,0.0,0.0,0.155039004961248,1024,0.0,99,Assisted_Takeoff,
0.354613049936814,36.8888795670548,12400,2018-04-03 04:58:34,1771.589167990854,0.0,0.0,0.15629600500147203,1771.589167990854,0.0,0.0,0.15629600500147203,1024,0.0,99,Assisted_Takeoff,
0.354613045062474,36.8888795456589,12500,2018-04-03 04:58:34,1771.589167990854,0.0,0.0,0.15826900506460803,1771.589167990854,0.0,0.0,0.15826900506460803,1024,0.0,99,Assisted_Takeoff,
0.354613050080931,36.8888795441844,12600,2018-04-03 04:58:35,1771.589167990854,0.0,0.0,0.15795900505468802,1771.589167990854,0.0,0.0,0.15826900506460803,1024,0.0,99,Assisted_Takeoff,
0.354613047600404,36.888879529839,12700,2018-04-03 04:58:35,1771.589167990854,0.0,0.0,0.159227005095264,1771.589167990854,0.0,0.0,0.159227005095264,1024,0.0,99,Assisted_Takeoff,
0.35461305362239,36.8888795345044,12800,2018-04-03 04:58:35,1771.589167990854,0.0,0.0,0.158382005068224,1771.589167990854,0.0,0.0,0.159227005095264,1024,0.0,99,Assisted_Takeoff,
0.354613054102781,36.8888795272915,12900,2018-04-03 04:58:35,1771.589167990854,0.0,0.0,0.15888000508416,1771.589167990854,0.0,0.0,0.159227005095264,1024,0.0,99,Assisted_Takeoff,
0.35461306194211,36.8888795378417,13000,2018-04-03 04:58:35,1771.589167990854,0.0,0.0,0.15744600503827202,1771.589167990854,0.0,0.0,0.159227005095264,1024,0.0,99,Assisted_Takeoff,
0.354613063209854,36.8888795333441,13100,2018-04-03 04:58:35,1771.589167990854,0.0,0.0,0.157677005045664,1771.589167990854,0.0,0.0,0.159227005095264,1024,0.0,99,Assisted_Takeoff,
0.354613070504062,36.8888795442607,13200,2018-04-03 04:58:35,1771.589167990854,0.0,0.0,0.156261005000352,1771.589167990854,0.0,0.0,0.159227005095264,1024,0.0,99,Assisted_Takeoff,
0.354613072059226,36.8888795401287,13300,2018-04-03 04:58:35,1771.589167990854,0.0,0.0,0.15644100500611202,1771.589167990854,0.0,0.0,0.159227005095264,1024,0.0,99,Assisted_Takeoff,
0.354613078348683,36.8888795505767,13400,2018-04-03 04:58:35,1771.589167990854,0.0,0.0,0.155143004964576,1771.589167990854,0.0,0.0,0.159227005095264,1024,0.0,99,Assisted_Takeoff,
0.354613078740731,36.8888795462662,13500,2018-04-03 04:58:36,1771.589167990854,0.0,0.0,0.155433004973856,1771.589167990854,0.0,0.0,0.159227005095264,1024,0.0,99,Assisted_Takeoff,
0.354613082918097,36.8888795214426,13600,2018-04-03 04:58:36,1771.589167990854,0.0,0.0,0.156963005022816,1771.589167990854,0.0,0.0,0.159227005095264,1024,0.0,99,Assisted_Takeoff,
0.354613082073749,36.8888794865673,13700,2018-04-03 04:58:36,1771.589167990854,0.0,0.0,0.15970700511062402,1771.589167990854,0.0,0.0,0.15970700511062402,1024,0.0,99,Assisted_Takeoff,
0.354613085184484,36.8888794687253,13800,2018-04-03 04:58:36,1771.589167990854,0.0,0.0,0.16084900514716802,1771.589167990854,0.0,0.0,0.16084900514716802,1024,0.0,99,Assisted_Takeoff,
0.354613083569882,36.8888794446101,13900,2018-04-03 04:58:36,1771.589167990854,0.0,0.0,0.162873005211936,1771.589167990854,0.0,0.0,0.162873005211936,1024,0.0,99,Assisted_Takeoff,
0.354613086018655,36.888879440336,14000,2018-04-03 04:58:36,1771.589167990854,0.0,0.0,0.16302100521667204,1771.589167990854,0.0,0.0,0.16302100521667204,1024,0.0,99,Assisted_Takeoff,
0.354613083521436,36.8888794232257,14100,2018-04-03 04:58:36,1771.589167990854,0.0,0.0,0.16457700526646402,1771.589167990854,0.0,0.0,0.16457700526646402,1024,0.0,99,Assisted_Takeoff,
0.354613084377183,36.8888794249687,14200,2018-04-03 04:58:36,1771.589167990854,0.0,0.0,0.16437100525987203,1771.589167990854,0.0,0.0,0.16457700526646402,1024,0.0,99,Assisted_Takeoff,
0.354613080842645,36.8888794139536,14300,2018-04-03 04:58:36,1771.589167990854,0.0,0.0,0.1655250052968,1771.589167990854,0.0,0.0,0.1655250052968,1024,0.0,99,Assisted_Takeoff,
0.354613080381796,36.8888794465607,14400,2018-04-03 04:58:36,1771.589167990854,0.0,0.0,0.16296800521497604,1771.589167990854,0.0,0.0,0.1655250052968,1024,0.0,99,Assisted_Takeoff,
0.354613077459553,36.8888794728297,14500,2018-04-03 04:58:36,1771.589167990854,0.0,0.0,0.16114100515651203,1771.589167990854,0.0,0.0,0.1655250052968,1024,0.0,99,Assisted_Takeoff,
0.354613078913754,36.8888795190905,14600,2018-04-03 04:58:37,1771.589167990854,0.0,0.0,0.157467005038944,1771.589167990854,0.0,0.0,0.1655250052968,1024,0.0,99,Assisted_Takeoff,
0.354613073729195,36.8888795299377,14700,2018-04-03 04:58:37,1771.589167990854,0.0,0.0,0.157069005026208,1771.589167990854,0.0,0.0,0.1655250052968,1024,0.0,99,Assisted_Takeoff,
0.354613073346511,36.8888795515799,14800,2018-04-03 04:58:37,1771.589167990854,0.0,0.0,0.155481004975392,1771.589167990854,0.0,0.0,0.1655250052968,1024,0.0,99,Assisted_Takeoff,
0.354613068390341,36.8888795551733,14900,2018-04-03 04:58:37,1771.589167990854,0.0,0.0,0.15562500497999998,1771.589167990854,0.0,0.0,0.1655250052968,1024,0.0,99,Assisted_Takeoff,
0.354613069187058,36.8888795688614,15000,2018-04-03 04:58:37,1771.589167990854,0.0,0.0,0.15455000494560003,1771.589167990854,0.0,0.0,0.1655250052968,1024,0.0,99,Assisted_Takeoff,
0.354613064503653,36.8888795670213,15100,2018-04-03 04:58:37,1771.589167990854,0.0,0.0,0.155076004962432,1771.589167990854,0.0,0.0,0.1655250052968,1024,0.0,99,Assisted_Takeoff,
0.354613066656048,36.8888795749743,15200,2018-04-03 04:58:37,1771.589167990854,0.0,0.0,0.154314004938048,1771.589167990854,0.0,0.0,0.1655250052968,1024,0.0,99,Assisted_Takeoff,
0.354613063016069,36.8888795674646,15300,2018-04-03 04:58:37,1771.589167990854,0.0,0.0,0.155168004965376,1771.589167990854,0.0,0.0,0.1655250052968,1024,0.0,99,Assisted_Takeoff,
0.354613066283949,36.888879570125,15400,2018-04-03 04:58:37,1771.589167990854,0.0,0.0,0.1547000049504,1771.589167990854,0.0,0.0,0.1655250052968,1024,0.0,99,Assisted_Takeoff,
0.354613064094506,36.8888795605137,15500,2018-04-03 04:58:38,1771.589167990854,0.0,0.0,0.155589004978848,1771.589167990854,0.0,0.0,0.1655250052968,1024,0.0,99,Assisted_Takeoff,
0.354613067845627,36.8888795627673,15600,2018-04-03 04:58:38,1771.589167990854,0.0,0.0,0.15511000496352,1771.589167990854,0.0,0.0,0.1655250052968,1024,0.0,99,Assisted_Takeoff,
0.354613065661476,36.8888795514209,15700,2018-04-03 04:58:38,1771.589167990854,0.0,0.0,0.15613000499616,1771.589167990854,0.0,0.0,0.1655250052968,1024,0.0,99,Assisted_Takeoff,
0.354613069242018,36.8888795187621,15800,2018-04-03 04:58:38,1771.589167990854,0.0,0.0,0.158279005064928,1771.589167990854,0.0,0.0,0.1655250052968,1024,0.0,99,Assisted_Takeoff,
0.354613066797316,36.8888794762936,15900,2018-04-03 04:58:38,1771.589167990854,0.0,0.0,0.16172200517510402,1771.589167990854,0.0,0.0,0.1655250052968,1034,0.0,99,Assisted_Takeoff,
0.354613069817265,36.8888794862472,16000,2018-04-03 04:58:38,1771.589167990854,0.0,0.0,0.160713005142816,1771.589167990854,0.0,0.0,0.1655250052968,1031,0.0,99,Assisted_Takeoff,
0.354613067725122,36.8888794843705,16100,2018-04-03 04:58:38,1771.589167990854,0.0,0.0,0.1610250051528,1771.589167990854,0.0,0.0,0.1655250052968,1119,0.0,99,Assisted_Takeoff,
0.354613071053254,36.8888795008745,16200,2018-04-03 04:58:38,1771.589167990854,0.0,0.0,0.159492005103744,1771.589167990854,0.0,0.0,0.1655250052968,1255,0.0,99,Assisted_Takeoff,
0.354613067890409,36.888879496518,16300,2018-04-03 04:58:38,1771.589167990854,0.0,0.0,0.16008000512256002,1771.589167990854,0.0,0.0,0.1655250052968,1462,0.0,99,Assisted_Takeoff,
0.354613069984995,36.8888795077997,16400,2018-04-03 04:58:38,1771.589167990854,0.0,0.0,0.15905000508960002,1771.589167990854,0.0,0.0,0.1655250052968,1662,0.0,99,Assisted_Takeoff,
0.354613071119206,36.8888795065567,16500,2018-04-03 04:58:38,1771.589167990854,0.0,0.0,0.159053005089696,1771.589167990854,0.0,0.0,0.1655250052968,1684,0.0,99,Assisted_Takeoff,
0.354613073592406,36.888879523899,16600,2018-04-03 04:58:39,1771.589167990854,0.0,0.0,0.157536005041152,1771.589167990854,0.0,0.0,0.1655250052968,1684,0.0,99,Assisted_Takeoff,
0.354613065005213,36.8888795245633,16700,2018-04-03 04:58:39,1771.589167990854,0.0,0.0,0.15818800506201602,1771.589167990854,0.0,0.0,0.1655250052968,1684,0.0,99,Assisted_Takeoff,
0.354613110758383,36.8888795556915,16800,2018-04-03 04:58:39,1771.589167990854,0.0,0.0,0.152101004867232,1771.589167990854,0.0,0.0,0.1655250052968,1684,0.0,99,P-GPS,
0.354613189593392,36.8888796130806,16900,2018-04-03 04:58:39,1771.589167990854,0.0,0.35999970196000003,0.14134000452288,1771.589167990854,0.0,0.35999970196000003,0.1655250052968,1684,0.0,99,P-GPS,
0.354613293758848,36.8888797116432,17000,2018-04-03 04:58:39,1771.689167994054,0.1000000032,0.35999970196000003,0.12539300401257603,1771.689167994054,0.1000000032,0.35999970196000003,0.1655250052968,1684,0.0,99,P-GPS,
0.354613388118221,36.8888797925474,17100,2018-04-03 04:58:39,1771.789167997254,0.2000000064,0.0,0.11158900357084801,1771.789167997254,0.2000000064,0.35999970196000003,0.1655250052968,1684,0.0,99,P-GPS,
0.354613468765689,36.8888798873924,17200,2018-04-03 04:58:39,1771.8891680004542,0.3000000096,0.0,0.0978276031304832,1771.8891680004542,0.3000000096,0.35999970196000003,0.1655250052968,1684,0.0,99,P-GPS,
0.354613535313274,36.8888799463424,17300,2018-04-03 04:58:39,1772.0891680068542,0.500000016,0.0,0.0879444028142208,1772.0891680068542,0.500000016,0.35999970196000003,0.1655250052968,1684,0.0,99,P-GPS,
0.354613587492691,36.888880019269,17400,2018-04-03 04:58:39,1772.2891680132543,0.7000000224,0.0,0.0781919025021408,1772.2891680132543,0.7000000224,0.35999970196000003,0.1655250052968,1684,0.0,99,P-GPS,
0.354613637038914,36.8888800532412,17500,2018-04-03 04:58:40,1772.589168022854,1.000000032,0.0,0.07156880229020161,1772.589168022854,1.000000032,0.35999970196000003,0.1655250052968,1684,0.0,99,P-GPS,
0.354613679969583,36.8888801202638,17600,2018-04-03 04:58:40,1772.889168032454,1.3000000416000002,0.0,0.0630633020180256,1772.889168032454,1.3000000416000002,0.35999970196000003,0.1655250052968,1684,0.0,99,P-GPS,
0.3546137290403,36.8888801763443,17700,2018-04-03 04:58:40,1773.289168045254,1.7000000544000002,0.0,0.0548836017562752,1773.289168045254,1.7000000544000002,0.35999970196000003,0.1655250052968,1684,0.0,99,P-GPS,Home Point Recorded. RTH Altitude:  30m.
0.354613781896743,36.8888802355791,17800,2018-04-03 04:58:40,1773.689168058054,2.1000000672000003,0.35999970196000003,0.0461942014782144,1773.689168058054,2.1000000672000003,0.35999970196000003,0.1655250052968,1684,0.0,99,P-GPS,
0.354613837364802,36.888880259975,17900,2018-04-03 04:58:40,1774.1891680740541,2.6000000832000003,0.35999970196000003,0.03967000126944001,1774.1891680740541,2.6000000832000003,0.35999970196000003,0.1655250052968,1684,0.0,99,P-GPS,
0.354613902991502,36.8888802912284,18000,2018-04-03 04:58:40,1774.6891680900542,3.1000000992000003,0.0,0.0318843010202976,1774.6891680900542,3.1000000992000003,0.35999970196000003,0.1655250052968,1684,0.0,99,P-GPS,
0.354613936586302,36.8888802724272,18100,2018-04-03 04:58:40,1775.189168106054,3.6000001152000003,0.0,0.030841700986934402,1775.189168106054,3.6000001152000003,0.35999970196000003,0.1655250052968,1684,0.0,99,P-GPS,
0.354613965821757,36.8888802249901,18200,2018-04-03 04:58:40,1775.689168122054,4.100000131200001,0.0,0.033363501067632,1775.689168122054,4.100000131200001,0.35999970196000003,0.1655250052968,1684,0.0,99,P-GPS,
0.354613985333366,36.8888801728635,18300,2018-04-03 04:58:40,1776.1891681380541,4.6000001472,0.0,0.0376492012047744,1776.1891681380541,4.6000001472,0.35999970196000003,0.1655250052968,1684,0.0,99,P-GPS,
0.354613998542082,36.8888801503952,18400,2018-04-03 04:58:40,1776.689168154054,5.1000001632,0.0,0.0394767012632544,1776.689168154054,5.1000001632,0.35999970196000003,0.1655250052968,1684,0.0,99,P-GPS,
0.354613999381138,36.8888801057922,18500,2018-04-03 04:58:41,1777.189168170054,5.6000001792,0.0,0.044174001413568004,1777.189168170054,5.6000001792,0.35999970196000003,0.1655250052968,1684,0.0,99,P-GPS,
0.354614024705478,36.8888800996909,18600,2018-04-03 04:58:41,1777.789168189254,6.200000198400001,0.0,0.04411360141163521,1777.789168189254,6.200000198400001,0.35999970196000003,0.1655250052968,1684,0.0,99,P-GPS,
0.354614037840507,36.8888800848452,18700,2018-04-03 04:58:41,1778.289168205254,6.7000002144,0.0,0.0454333014538656,1778.289168205254,6.7000002144,0.35999970196000003,0.1655250052968,1684,0.0,99,P-GPS,
0.354614045563403,36.888880099127,18800,2018-04-03 04:58:41,1778.7891682212542,7.200000230400001,0.0,0.0437177013989664,1778.7891682212542,7.200000230400001,0.35999970196000003,0.1655250052968,1684,0.0,99,P-GPS,
0.354614035826529,36.8888801089944,18900,2018-04-03 04:58:41,1779.2891682372542,7.7000002464,0.0,0.0428408013709056,1779.2891682372542,7.7000002464,0.35999970196000003,0.1655250052968,1684,0.0,99,P-GPS,
0.354614026944588,36.8888801354574,19000,2018-04-03 04:58:41,1779.789168253254,8.200000262400001,0.0,0.0401857012859424,1779.789168253254,8.200000262400001,0.35999970196000003,0.1655250052968,1684,0.0,99,P-GPS,
0.354614011738178,36.8888801197756,19100,2018-04-03 04:58:41,1780.2891682692539,8.700000278400001,0.0,0.0422999013535968,1780.2891682692539,8.700000278400001,0.35999970196000003,0.1655250052968,1684,0.0,99,P-GPS,
0.35461400766259,36.8888800960613,19200,2018-04-03 04:58:41,1780.7891682852542,9.2000002944,0.0,0.0449633014388256,1780.7891682852542,9.2000002944,0.35999970196000003,0.1655250052968,1684,0.0,99,P-GPS,
0.354613985899657,36.8888800580048,19300,2018-04-03 04:58:41,1781.289168301254,9.7000003104,0.0,0.04969500159024,1781.289168301254,9.7000003104,0.35999970196000003,0.1655250052968,1684,0.0,99,P-GPS,
0.354613967418853,36.8888800866909,19400,2018-04-03 04:58:41,1781.789168317254,10.2000003264,0.0,0.0473088015138816,1781.789168317254,10.2000003264,0.35999970196000003,0.1655250052968,1684,0.0,99,P-GPS,
0.354613923849427,36.8888800943427,19500,2018-04-03 04:58:41,1782.289168333254,10.700000342400001,0.0,0.0484103015491296,1782.289168333254,10.700000342400001,0.35999970196000003,0.1655250052968,1684,0.0,99,P-GPS,
0.354613856606903,36.8888801326886,19600,2018-04-03 04:58:42,1782.7891683492542,11.2000003584,0.0,0.04858370155467841,1782.7891683492542,11.2000003584,0.35999970196000003,0.1655250052968,1684,0.0,99,P-GPS,
0.354613780076956,36.8888801431205,19700,2018-04-03 04:58:42,1783.289168365254,11.7000003744,0.0,0.0531808017017856,1783.289168365254,11.7000003744,0.35999970196000003,0.1655250052968,1684,0.0,99,P-GPS,
0.354613679100808,36.8888801715555,19800,2018-04-03 04:58:42,1783.7891683812543,12.200000390400001,0.0,0.0596181019077792,1783.7891683812543,12.200000390400001,0.35999970196000003,0.1655250052968,1684,0.0,99,P-GPS,
0.354613582235667,36.8888801773844,19900,2018-04-03 04:58:42,1784.2891683972541,12.700000406400001,0.0,0.0683002021856064,1784.2891683972541,12.700000406400001,0.35999970196000003,0.1655250052968,1684,0.0,99,P-GPS,
0.354613506242699,36.8888801965315,20000,2018-04-03 04:58:42,1784.789168413254,13.2000004224,0.0,0.074780502392976,1784.789168413254,13.2000004224,0.35999970196000003,0.1655250052968,1684,0.0,99,P-GPS,
0.354613419331829,36.8888801783918,20100,2018-04-03 04:58:42,1785.2891684292542,13.7000004384,0.0,0.084403502700912,1785.2891684292542,13.7000004384,0.35999970196000003,0.1655250052968,1684,0.0,99,P-GPS,
0.354613308572803,36.8888801299746,20200,2018-04-03 04:58:42,1785.789168445254,14.2000004544,0.0,0.09784580313106561,1785.789168445254,14.2000004544,0.35999970196000003,0.1655250052968,1684,0.0,99,P-GPS,
0.354613178311125,36.8888800582489,20300,2018-04-03 04:58:42,1786.2891684612541,14.7000004704,0.0,0.11433000365856001,1786.2891684612541,14.7000004704,0.35999970196000003,0.1655250052968,1684,0.0,99,P-GPS,
0.354613043491026,36.8888800143721,20400,2018-04-03 04:58:42,1786.689168474054,15.1000004832,0.0,0.13000500416016,1786.689168474054,15.1000004832,0.35999970196000003,0.1655250052968,1684,0.0,99,P-GPS,
0.35461292005782,36.8888799882811,20500,2018-04-03 04:58:43,1787.1891684900543,15.6000004992,0.0,0.143764004600448,1787.1891684900543,15.6000004992,0.35999970196000003,0.1655250052968,1684,0.0,99,P-GPS,
0.35461283404748,36.8888800310994,20600,2018-04-03 04:58:43,1787.789168509254,16.2000005184,0.0,0.150971004831072,1787.789168509254,16.2000005184,0.35999970196000003,0.1655250052968,1684,0.0,99,P-GPS,
0.35461276963967,36.8888800582489,20700,2018-04-03 04:58:43,1788.289168525254,16.7000005344,0.0,0.156794005017408,1788.289168525254,16.7000005344,0.35999970196000003,0.1655250052968,1684,0.0,99,P-GPS,
0.354612731194142,36.8888801031085,20800,2018-04-03 04:58:43,1788.7891685412542,17.2000005504,0.0,0.159468005102976,1788.7891685412542,17.2000005504,0.35999970196000003,0.1655250052968,1684,0.0,99,P-GPS,
0.35461269398664,36.8888801062448,20900,2018-04-03 04:58:43,1789.289168557254,17.7000005664,0.0,0.163368005227776,1789.289168557254,17.7000005664,0.35999970196000003,0.1655250052968,1684,0.0,99,P-GPS,
0.354612672761094,36.8888801114252,21000,2018-04-03 04:58:43,1789.789168573254,18.2000005824,0.0,0.16550300529609602,1789.789168573254,18.2000005824,0.35999970196000003,0.1655250052968,1684,0.0,99,P-GPS,
0.354612649511392,36.8888800972896,21100,2018-04-03 04:58:43,1790.2891685892541,18.700000598400003,0.0,0.16840300538889602,1790.2891685892541,18.700000598400003,0.35999970196000003,0.16840300538889602,1684,0.0,99,P-GPS,
0.35461262577967,36.8888801341936,21200,2018-04-03 04:58:43,1790.7891686052542,19.2000006144,0.0,0.169963005438816,1790.7891686052542,19.2000006144,0.35999970196000003,0.169963005438816,1684,0.0,99,P-GPS,
0.35461255022394,36.8888801925357,21400,2018-04-03 04:58:43,1791.889168640454,20.3000006496,0.0,0.17683600565875202,1791.889168640454,20.3000006496,0.35999970196000003,0.17683600565875202,1684,0.0,99,P-GPS,
0.354612518909369,36.8888802061725,21500,2018-04-03 04:58:43,1792.389168656454,20.800000665600002,0.0,0.179991005759712,1792.389168656454,20.800000665600002,0.35999970196000003,0.179991005759712,1684,0.0,99,P-GPS,
0.354612488566165,36.8888802295942,21600,2018-04-03 04:58:44,1792.889168672454,21.3000006816,0.0,0.18289000585248,1792.889168672454,21.3000006816,0.35999970196000003,0.18289000585248,1684,0.0,99,P-GPS,
0.354612475747054,36.8888802312659,21700,2018-04-03 04:58:44,1793.3891686884542,21.8000006976,0.0,0.18427000589664003,1793.3891686884542,21.8000006976,0.35999970196000003,0.18427000589664003,1684,0.0,99,P-GPS,
0.354612489311178,36.8888802805053,21800,2018-04-03 04:58:44,1793.989168707654,22.4000007168,0.0,0.18201000582432003,1793.989168707654,22.4000007168,0.35999970196000003,0.18427000589664003,1684,0.0,99,P-GPS,
0.354612510191901,36.8888803041878,21900,2018-04-03 04:58:44,1794.4891687236543,22.900000732800002,0.0,0.17939000574048003,1794.4891687236543,22.900000732800002,0.35999970196000003,0.18427000589664003,1684,0.0,99,P-GPS,
0.354612544632677,36.888880332823,22000,2018-04-03 04:58:44,1794.9891687396541,23.4000007488,0.0,0.175246005607872,1794.9891687396541,23.4000007488,0.35999970196000003,0.18427000589664003,1684,0.0,99,P-GPS,
0.354612575478663,36.8888803364526,22100,2018-04-03 04:58:44,1795.489168755654,23.9000007648,0.0,0.17179300549737603,1795.489168755654,23.9000007648,0.35999970196000003,0.18427000589664003,1684,0.0,99,P-GPS,
0.354612594606367,36.8888803752922,22200,2018-04-03 04:58:44,1795.989168771654,24.400000780800003,0.0,0.16930600541779203,1795.989168771654,24.400000780800003,0.35999970196000003,0.18427000589664003,1684,0.0,99,P-GPS,
0.354612610773559,36.8888803961148,22300,2018-04-03 04:58:44,1796.489168787654,24.9000007968,0.0,0.167358005355456,1796.489168787654,24.9000007968,0.35999970196000003,0.18427000589664003,1684,0.0,99,P-GPS,
0.354612657132102,36.8888804655634,22400,2018-04-03 04:58:44,1796.9891688036541,25.400000812800002,0.0,0.161918005181376,1796.9891688036541,25.400000812800002,0.35999970196000003,0.18427000589664003,1684,0.0,99,P-GPS,
0.35461271425059,36.8888805159331,22500,2018-04-03 04:58:45,1797.489168819654,25.9000008288,0.0,0.155584004978688,1797.489168819654,25.9000008288,0.35999970196000003,0.18427000589664003,1684,0.0,99,P-GPS,
0.354612819742413,36.8888805805736,22600,2018-04-03 04:58:45,1798.089168838854,26.500000848000003,0.0,0.14419800461433602,1798.089168838854,26.500000848000003,0.35999970196000003,0.18427000589664003,1684,0.0,99,P-GPS,
0.354612900755874,36.8888806309534,22700,2018-04-03 04:58:45,1798.589168854854,27.000000864,0.0,0.135763004344416,1798.589168854854,27.000000864,0.35999970196000003,0.18427000589664003,1684,0.0,99,P-GPS,
0.354612969103297,36.8888807169925,22800,2018-04-03 04:58:45,1799.089168870854,27.50000088,0.0,0.12976600415251202,1799.089168870854,27.50000088,0.35999970196000003,0.18427000589664003,1684,0.0,99,P-GPS,
0.354613013276061,36.8888807819841,22900,2018-04-03 04:58:45,1799.5891688868542,28.000000896,0.0,0.12663500405232,1799.5891688868542,28.000000896,0.35999970196000003,0.18427000589664003,1684,0.0,99,P-GPS,
0.354613057873443,36.8888808556629,23000,2018-04-03 04:58:45,1800.089168902854,28.500000912,0.0,0.124313003978016,1800.089168902854,28.500000912,0.35999970196000003,0.18427000589664003,1684,0.0,99,P-GPS,
0.35461309009465,36.8888808990582,23100,2018-04-03 04:58:45,1800.589168918854,29.000000928000002,0.0,0.12265900392508801,1800.589168918854,29.000000928000002,0.35999970196000003,0.18427000589664003,1684,0.0,99,P-GPS,
0.354613172308681,36.8888809750732,23200,2018-04-03 04:58:45,1801.189168938054,29.6000009472,0.0,0.117881003772192,1801.189168938054,29.6000009472,0.35999970196000003,0.18427000589664003,1684,0.0,99,P-GPS,
0.354613245430294,36.8888810255867,23300,2018-04-03 04:58:45,1801.689168954054,30.1000009632,0.0,0.11359100363491201,1801.689168954054,30.1000009632,0.35999970196000003,0.18427000589664003,1684,0.0,99,P-GPS,
0.354613326261776,36.8888811305723,23400,2018-04-03 04:58:45,1802.1891689700542,30.6000009792,0.0,0.11307300361833601,1802.1891689700542,30.6000009792,0.35999970196000003,0.18427000589664003,1684,0.0,99,P-GPS,
0.354613430170345,36.888881308501,23600,2018-04-03 04:58:46,1803.2891690052543,31.7000010144,0.0,0.11884100380291202,1803.2891690052543,31.7000010144,0.35999970196000003,0.18427000589664003,1684,0.0,99,P-GPS,
0.354613463379203,36.8888813799359,23700,2018-04-03 04:58:46,1803.789169021254,32.2000010304,0.0,0.122847003931104,1803.789169021254,32.2000010304,0.35999970196000003,0.18427000589664003,1684,0.0,99,P-GPS,
0.354613504245006,36.8888814931355,23800,2018-04-03 04:58:46,1804.289169037254,32.700001046400004,0.0,0.130826004186432,1804.289169037254,32.700001046400004,0.35999970196000003,0.18427000589664003,1684,0.0,99,P-GPS,
0.354613527797191,36.8888815610676,23900,2018-04-03 04:58:46,1804.789169053254,33.200001062400005,0.0,0.1360750043544,1804.789169053254,33.200001062400005,0.35999970196000003,0.18427000589664003,1684,0.0,99,P-GPS,
0.354613565494448,36.8888816501005,24000,2018-04-03 04:58:46,1805.389169072454,33.8000010816,0.0,0.143013004576416,1805.389169072454,33.8000010816,0.35999970196000003,0.18427000589664003,1684,0.0,99,P-GPS,
0.354613568451295,36.8888816915223,24100,2018-04-03 04:58:46,1805.889169088454,34.3000010976,0.0,0.147058004705856,1805.889169088454,34.3000010976,0.35999970196000003,0.18427000589664003,1684,0.0,99,P-GPS,
0.354613582571126,36.8888817572995,24200,2018-04-03 04:58:46,1806.3891691044541,34.800001113600004,0.0,0.153142004900544,1806.3891691044541,34.800001113600004,0.35999970196000003,0.18427000589664003,1684,0.0,99,P-GPS,
0.354613583104035,36.8888817850269,24300,2018-04-03 04:58:46,1806.8891691204542,35.300001129600005,0.0,0.155969004991008,1806.8891691204542,35.300001129600005,0.35999970196000003,0.18427000589664003,1684,0.0,99,P-GPS,
0.354613593958021,36.8888818412542,24400,2018-04-03 04:58:46,1807.4891691396542,35.9000011488,0.0,0.16134000516288002,1807.4891691396542,35.9000011488,0.35999970196000003,0.18427000589664003,1684,0.0,99,P-GPS,
0.354613587437731,36.8888818720431,24500,2018-04-03 04:58:47,1807.989169155654,36.4000011648,0.0,0.164797005273504,1807.989169155654,36.4000011648,0.35999970196000003,0.18427000589664003,1684,0.0,99,P-GPS,
0.354613623567611,36.8888819497959,24600,2018-04-03 04:58:47,1808.489169171654,36.900001180800004,0.0,0.171593005490976,1808.489169171654,36.900001180800004,0.35999970196000003,0.18427000589664003,1684,0.0,99,P-GPS,
0.354613632389299,36.8888819957286,24700,2018-04-03 04:58:47,1808.989169187654,37.400001196800005,0.0,0.176144005636608,1808.989169187654,37.400001196800005,0.35999970196000003,0.18427000589664003,1684,0.0,99,P-GPS,
0.354613640679301,36.8888820395667,24800,2018-04-03 04:58:47,1809.4891692036542,37.9000012128,0.0,0.1805250057768,1809.4891692036542,37.9000012128,0.35999970196000003,0.18427000589664003,1684,0.0,99,P-GPS,
0.354613630769812,36.8888820454466,24900,2018-04-03 04:58:47,1809.989169219654,38.4000012288,0.0,0.181473005807136,1809.989169219654,38.4000012288,0.35999970196000003,0.18427000589664003,1684,0.0,99,P-GPS,
0.354613648196198,36.8888820918358,25000,2018-04-03 04:58:47,1810.5891692388543,39.000001248000004,0.0,0.18585900594748803,1810.5891692388543,39.000001248000004,0.35999970196000003,0.18585900594748803,1684,0.0,99,P-GPS,
0.354613650236638,36.888882118165,25100,2018-04-03 04:58:47,1811.0891692548541,39.500001264,0.0,0.188612006035584,1811.0891692548541,39.500001264,0.35999970196000003,0.188612006035584,1684,0.0,99,P-GPS,
0.354613672620822,36.888882212115,25200,2018-04-03 04:58:47,1811.589169270854,40.00000128,0.0,0.19805300633769599,1811.589169270854,40.00000128,0.35999970196000003,0.19805300633769599,1684,0.0,99,P-GPS,
0.354613682623947,36.8888822647728,25300,2018-04-03 04:58:47,1812.1891692900542,40.6000012992,0.0,0.203468006510976,1812.1891692900542,40.6000012992,0.35999970196000003,0.203468006510976,1684,0.0,99,P-GPS,
0.354613713633999,36.8888823318402,25400,2018-04-03 04:58:47,1812.689169306054,41.100001315200004,0.0,0.209967006718944,1812.689169306054,41.100001315200004,0.35999970196000003,0.209967006718944,1684,0.0,99,P-GPS,
0.354613734332336,36.8888823429419,25500,2018-04-03 04:58:47,1813.1891693220539,41.600001331200005,0.0,0.21070200674246403,1813.1891693220539,41.600001331200005,0.35999970196000003,0.21070200674246403,1684,0.0,99,P-GPS,
0.354613768558972,36.8888823432736,25600,2018-04-03 04:58:48,1813.6891693380542,42.100001347200006,0.0,0.21001100672035203,1813.6891693380542,42.100001347200006,0.35999970196000003,0.21070200674246403,1684,0.0,99,P-GPS,
0.354613783677039,36.888882305384,25700,2018-04-03 04:58:48,1814.289169357254,42.7000013664,0.35999970196000003,0.20556300657801602,1814.289169357254,42.7000013664,0.35999970196000003,0.21070200674246403,1684,0.0,99,P-GPS,
0.35461377775276,36.8888822825125,25800,2018-04-03 04:58:48,1814.7891693732543,43.2000013824,0.35999970196000003,0.20318100650179202,1814.7891693732543,43.2000013824,0.35999970196000003,0.21070200674246403,1684,0.0,99,P-GPS,
0.35461374452436,36.888882236957,25900,2018-04-03 04:58:48,1815.289169389254,43.7000013984,0.35999970196000003,0.198931006365792,1815.289169389254,43.7000013984,0.35999970196000003,0.21070200674246403,1684,0.0,99,P-GPS,
0.35461370954579,36.8888822356271,26000,2018-04-03 04:58:48,1815.7891694052541,44.2000014144,0.0,0.19962500638800001,1815.7891694052541,44.2000014144,0.35999970196000003,0.21070200674246403,1684,0.0,99,P-GPS,
0.354613665232165,36.8888822216963,26100,2018-04-03 04:58:48,1816.2891694212542,44.7000014304,0.0,0.199289006377248,1816.2891694212542,44.7000014304,0.35999970196000003,0.21070200674246403,1684,0.0,99,P-GPS,
0.354613645034167,36.8888822645655,26200,2018-04-03 04:58:48,1816.889169440454,45.3000014496,0.0,0.20446900654300804,1816.889169440454,45.3000014496,0.35999970196000003,0.21070200674246403,1684,0.0,99,P-GPS,
0.354613613524997,36.8888822793186,26300,2018-04-03 04:58:48,1817.389169456454,45.800001465600005,0.0,0.20696900662300802,1817.389169456454,45.800001465600005,0.35999970196000003,0.21070200674246403,1684,0.0,99,P-GPS,
0.354613614313571,36.8888823134623,26400,2018-04-03 04:58:48,1817.8891694724541,46.300001481600006,0.0,0.210606006739392,1817.8891694724541,46.300001481600006,0.35999970196000003,0.21070200674246403,1684,0.0,99,P-GPS,
0.354613615118836,36.8888823281955,26500,2018-04-03 04:58:49,1818.3891694884542,46.8000014976,0.0,0.212163006789216,1818.3891694884542,46.8000014976,0.35999970196000003,0.212163006789216,1684,0.0,99,P-GPS,
0.354613618348448,36.8888824034101,26600,2018-04-03 04:58:49,1818.889169504454,47.3000015136,0.0,0.220158007045056,1818.889169504454,47.3000015136,0.35999970196000003,0.220158007045056,1684,0.0,99,P-GPS,
0.354613608599768,36.8888824394945,26700,2018-04-03 04:58:49,1819.489169523654,47.9000015328,0.0,0.22431500717808,1819.489169523654,47.9000015328,0.35999970196000003,0.22431500717808,1684,0.0,99,P-GPS,
0.354613619552682,36.8888824867178,26800,2018-04-03 04:58:49,1819.989169539654,48.4000015488,0.0,0.22910800733145603,1819.989169539654,48.4000015488,0.35999970196000003,0.22910800733145603,1684,0.0,99,P-GPS,
0.354613616082875,36.8888825077733,26900,2018-04-03 04:58:49,1820.489169555654,48.9000015648,0.0,0.231474007407168,1820.489169555654,48.9000015648,0.35999970196000003,0.231474007407168,1684,0.0,99,P-GPS,
0.354613615435976,36.8888825620455,27000,2018-04-03 04:58:49,1820.9891695716542,49.4000015808,0.0,0.237356007595392,1820.9891695716542,49.4000015808,0.35999970196000003,0.237356007595392,1684,0.0,99,P-GPS,
0.354613587226848,36.8888825622361,27100,2018-04-03 04:58:49,1821.489169587654,49.9000015968,0.0,0.238127007620064,1821.489169587654,49.9000015968,0.35999970196000003,0.238127007620064,1684,0.0,99,P-GPS,
0.354613532342992,36.8888825847672,27200,2018-04-03 04:58:49,1821.989169603654,50.4000016128,0.0,0.24211300774761602,1821.989169603654,50.4000016128,0.35999970196000003,0.24211300774761602,1684,0.0,99,P-GPS,
0.354613471184743,36.8888825747348,27300,2018-04-03 04:58:49,1822.4891696196541,50.9000016288,0.0,0.242948007774336,1822.4891696196541,50.9000016288,0.35999970196000003,0.242948007774336,1684,0.0,99,P-GPS,
0.35461343607834,36.8888825783335,27400,2018-04-03 04:58:49,1823.089169638854,51.500001648,0.35999970196000003,0.244504007824128,1823.089169638854,51.500001648,0.35999970196000003,0.244504007824128,1684,0.0,99,P-GPS,
0.354613394932038,36.8888825453826,27500,2018-04-03 04:58:50,1823.5891696548542,52.000001664,0.0,0.24248900775964802,1823.5891696548542,52.000001664,0.35999970196000003,0.244504007824128,1684,0.0,99,P-GPS,
0.354613358615702,36.8888825790904,27600,2018-04-03 04:58:50,1824.089169670854,52.500001680000004,0.0,0.24737200791590402,1824.089169670854,52.500001680000004,0.35999970196000003,0.24737200791590402,1684,0.0,99,P-GPS,
0.354613315696025,36.8888825912408,27700,2018-04-03 04:58:50,1824.5891696868541,53.000001696000005,0.0,0.25029400800940804,1824.5891696868541,53.000001696000005,0.35999970196000003,0.25029400800940804,1684,0.0,99,P-GPS,
0.354613278828867,36.8888826499612,27800,2018-04-03 04:58:50,1825.089169702854,53.500001712,0.0,0.257857008251424,1825.089169702854,53.500001712,0.35999970196000003,0.257857008251424,1684,0.0,99,P-GPS,
0.354613242412381,36.8888826671338,27900,2018-04-03 04:58:50,1825.5891697188542,54.000001728,0.0,0.261114008355648,1825.5891697188542,54.000001728,0.35999970196000003,0.261114008355648,1684,0.0,99,P-GPS,
0.35461325864756,36.8888827245452,28000,2018-04-03 04:58:50,1826.189169738054,54.6000017472,0.35999970196000003,0.26640500852496,1826.189169738054,54.6000017472,0.35999970196000003,0.26640500852496,1684,0.0,99,P-GPS,
0.354613271898616,36.8888827218808,28100,2018-04-03 04:58:50,1826.689169754054,55.1000017632,0.35999970196000003,0.26560500849936003,1826.689169754054,55.1000017632,0.35999970196000003,0.26640500852496,1684,0.0,99,P-GPS,
0.354613268785845,36.8888827569236,28200,2018-04-03 04:58:50,1827.1891697700541,55.6000017792,0.35999970196000003,0.26937700862006403,1827.1891697700541,55.6000017792,0.35999970196000003,0.26937700862006403,1684,0.0,99,P-GPS,
0.354613251916387,36.8888827289104,28300,2018-04-03 04:58:50,1827.7891697892542,56.2000017984,0.35999970196000003,0.26712600854803203,1827.7891697892542,56.2000017984,0.35999970196000003,0.26937700862006403,1684,0.0,99,P-GPS,
0.354613249882867,36.8888827323827,28400,2018-04-03 04:58:50,1828.2891698052542,56.700001814400004,0.35999970196000003,0.26756700856214405,1828.2891698052542,56.700001814400004,0.35999970196000003,0.26937700862006403,1684,0.0,99,P-GPS,
0.354613258697228,36.8888827104869,28500,2018-04-03 04:58:51,1828.789169821254,57.200001830400005,0.35999970196000003,0.26494300847817603,1828.789169821254,57.200001830400005,0.35999970196000003,0.26937700862006403,1684,0.0,99,P-GPS,
0.354613291639021,36.8888827100566,28600,2018-04-03 04:58:51,1829.389169840454,57.8000018496,0.35999970196000003,0.263607008435424,1829.389169840454,57.8000018496,0.35999970196000003,0.26937700862006403,1684,0.0,99,P-GPS,
0.354613318149275,36.8888826740757,28700,2018-04-03 04:58:51,1829.8891698564541,58.30000186560001,0.35999970196000003,0.25883500828272,1829.8891698564541,58.30000186560001,0.35999970196000003,0.26937700862006403,1684,0.0,99,P-GPS,
0.354613375635384,36.8888826913835,28800,2018-04-03 04:58:51,1830.389169872454,58.8000018816,0.35999970196000003,0.258547008273504,1830.389169872454,58.8000018816,0.35999970196000003,0.26937700862006403,1684,0.0,99,P-GPS,
0.354613416615177,36.8888826821578,28900,2018-04-03 04:58:51,1830.8891698884543,59.3000018976,0.35999970196000003,0.25616000819712004,1830.8891698884543,59.3000018976,0.35999970196000003,0.26937700862006403,1684,0.0,99,P-GPS,
0.354613468274306,36.8888827513292,29000,2018-04-03 04:58:51,1831.389169904454,59.800001913600006,0.0,0.26187200837990404,1831.389169904454,59.800001913600006,0.35999970196000003,0.26937700862006403,1684,0.0,99,P-GPS,
0.354613492121647,36.8888827904454,29100,2018-04-03 04:58:51,1831.889169920454,60.30000192960001,0.0,0.265356008491392,1831.889169920454,60.30000192960001,0.35999970196000003,0.26937700862006403,1684,0.0,99,P-GPS,
0.354613500613168,36.8888828675198,29200,2018-04-03 04:58:51,1832.3891699364542,60.80000194560001,0.0,0.273404008748928,1832.3891699364542,60.80000194560001,0.35999970196000003,0.273404008748928,1684,0.0,99,P-GPS,
0.35461349726468,36.8888829047045,29300,2018-04-03 04:58:51,1832.889169952454,61.3000019616,0.0,0.27750200888006404,1832.889169952454,61.3000019616,0.35999970196000003,0.27750200888006404,1684,0.0,99,P-GPS,
0.354613528085833,36.888882999216,29400,2018-04-03 04:58:51,1833.389169968454,61.800001977600004,0.0,0.286902009180864,1833.389169968454,61.800001977600004,0.35999970196000003,0.286902009180864,1684,0.0,99,P-GPS,
0.354613551719033,36.8888830712819,29500,2018-04-03 04:58:51,1833.889169984454,62.300001993600006,0.0,0.294144009412608,1833.889169984454,62.300001993600006,0.35999970196000003,0.294144009412608,1684,0.0,99,P-GPS,
0.354613577680909,36.8888831836822,29600,2018-04-03 04:58:52,1834.3891700004542,62.80000200960001,0.0,0.30579500978544,1834.3891700004542,62.80000200960001,0.35999970196000003,0.30579500978544,1684,0.0,99,P-GPS,
0.354613583435016,36.8888832495417,29700,2018-04-03 04:58:52,1834.989170019654,63.4000020288,0.0,0.31286101001155203,1834.989170019654,63.4000020288,0.35999970196000003,0.31286101001155203,1684,0.0,99,P-GPS,
0.354613617728011,36.8888833321025,29800,2018-04-03 04:58:52,1835.4891700356543,63.900002044800004,0.0,0.32120701027862403,1835.4891700356543,63.900002044800004,0.35999970196000003,0.32120701027862403,1684,0.0,99,P-GPS,
0.354613631543323,36.8888833729746,29900,2018-04-03 04:58:52,1835.9891700516541,64.4000020608,0.0,0.32543001041376,1835.9891700516541,64.4000020608,0.35999970196000003,0.32543001041376,1684,0.0,99,P-GPS,
0.354613637813646,36.8888834252463,30000,2018-04-03 04:58:52,1836.489170067654,64.9000020768,0.0,0.331053010593696,1836.489170067654,64.9000020768,0.35999970196000003,0.331053010593696,1684,0.0,99,P-GPS,
0.354613636450231,36.8888834537897,30100,2018-04-03 04:58:52,1836.9891700836542,65.40000209280001,0.0,0.33421001069472,1836.9891700836542,65.40000209280001,0.35999970196000003,0.33421001069472,1684,0.0,99,P-GPS,
0.354613698609974,36.8888835503852,30200,2018-04-03 04:58:52,1837.489170099654,65.90000210880001,0.0,0.34382601100243204,1837.489170099654,65.90000210880001,0.35999970196000003,0.34382601100243204,1684,0.0,99,P-GPS,
0.354613765539837,36.8888836108239,30300,2018-04-03 04:58:52,1838.0891701188539,66.500002128,0.0,0.349587011186784,1838.0891701188539,66.500002128,0.35999970196000003,0.349587011186784,1684,0.0,99,P-GPS,
0.354613833456944,36.8888836953451,30400,2018-04-03 04:58:52,1838.5891701348542,67.000002144,0.0,0.35819501146224,1838.5891701348542,67.000002144,0.35999970196000003,0.35819501146224,1684,0.0,99,P-GPS,
0.354613881556294,36.8888837526209,30500,2018-04-03 04:58:53,1839.089170150854,67.50000216000001,0.0,0.36412401165196806,1839.089170150854,67.50000216000001,0.35999970196000003,0.36412401165196806,1684,0.0,99,P-GPS,
0.354613952133871,36.8888838572011,30600,2018-04-03 04:58:53,1839.589170166854,68.000002176,0.0,0.37527001200864,1839.589170166854,68.000002176,0.35999970196000003,0.37527001200864,1684,0.0,99,P-GPS,
0.354614005020847,36.8888839190942,30700,2018-04-03 04:58:53,1840.089170182854,68.500002192,0.0,0.38191501222128,1840.089170182854,68.500002192,0.35999970196000003,0.38191501222128,1684,0.0,99,P-GPS,
0.354614080595304,36.8888840153838,30800,2018-04-03 04:58:53,1840.6891702020541,69.1000022112,0.0,0.3924500125584,1840.6891702020541,69.1000022112,0.35999970196000003,0.3924500125584,1684,0.0,99,P-GPS,
0.354614123237739,36.8888840491147,30900,2018-04-03 04:58:53,1841.1891702180542,69.60000222720001,0.0,0.396186012677952,1841.1891702180542,69.60000222720001,0.35999970196000003,0.396186012677952,1684,0.0,99,P-GPS,
0.354614174894832,36.8888841132052,31000,2018-04-03 04:58:53,1841.6891702340542,70.10000224320001,0.0,0.40337001290784,1841.6891702340542,70.10000224320001,0.35999970196000003,0.40337001290784,1684,0.0,99,P-GPS,
