latitude,longitude,time_millisecond,datetime_utc,altitude_m,ascent_m,speed_kph,distance_m,max_altitude_m,max_ascent_m,max_speed_kph,max_distance_m,rc_throttle,gimbal_pitch_degrees,battery_percent,flycState,message
0.353937386374985,36.9197217292131,0,2018-04-04 07:06:14,1671.9049607009424,0.0,0.0,0.0,1671.9049607009424,0.0,0.0,0.0,364,0.0,98,Motors_Started,
0.353937412807481,36.9197217219774,100,2018-04-04 07:06:14,1671.9049607009424,0.0,0.0,0.0030476000975232,1671.9049607009424,0.0,0.0,0.0030476000975232,364,0.0,98,Motors_Started,
0.3539374315067,36.9197217183871,200,2018-04-04 07:06:14,1671.9049607009424,0.0,0.0,0.00516129016516128,1671.9049607009424,0.0,0.0,0.00516129016516128,364,0.0,98,Motors_Started,
0.353937441676332,36.9197217167549,300,2018-04-04 07:06:14,1671.9049607009424,0.0,0.0,0.00630396020172672,1671.9049607009424,0.0,0.0,0.00630396020172672,364,0.0,98,Motors_Started,
0.353937450206122,36.9197217173604,400,2018-04-04 07:06:15,1671.9049607009424,0.0,0.0,0.007219750231032,1671.9049607009424,0.0,0.0,0.007219750231032,364,0.0,98,Motors_Started,
0.353937449674028,36.9197217186531,500,2018-04-04 07:06:15,1671.9049607009424,0.0,0.0,0.007136520228368641,1671.9049607009424,0.0,0.0,0.007219750231032,364,0.0,98,Motors_Started,
0.353937452598917,36.9197217210422,600,2018-04-04 07:06:15,1671.9049607009424,0.0,0.0,0.0074203502374512,1671.9049607009424,0.0,0.0,0.0074203502374512,364,0.0,98,Motors_Started,
0.353937473968173,36.9197217239521,700,2018-04-04 07:06:15,1671.9049607009424,0.0,0.0,0.009758450312270399,1671.9049607009424,0.0,0.0,0.009758450312270399,364,0.0,98,Motors_Started,
0.353937502436631,36.9197217271656,800,2018-04-04 07:06:15,1671.9049607009424,0.0,0.0,0.0129088004130816,1671.9049607009424,0.0,0.0,0.0129088004130816,364,0.0,98,Motors_Started,Setting new Return-To-Home altitude to 45m (148 ft). Setting new Maximum Flight Altitude to 150m (492 ft)
0.353937523473889,36.9197217300343,900,2018-04-04 07:06:15,1671.9049607009424,0.0,0.0,0.015246500487888002,1671.9049607009424,0.0,0.0,0.015246500487888002,364,0.0,98,Motors_Started,
0.353937539665507,36.9197217321878,1000,2018-04-04 07:06:15,1671.9049607009424,0.0,0.0,0.0170501005456032,1671.9049607009424,0.0,0.0,0.0170501005456032,364,0.0,98,Motors_Started,
0.353937546611228,36.9197217337525,1100,2018-04-04 07:06:15,1671.9049607009424,0.0,0.0,0.0178264005704448,1671.9049607009424,0.0,0.0,0.0178264005704448,364,0.0,98,Motors_Started,
0.353937554571062,36.9197217407431,1200,2018-04-04 07:06:15,1671.9049607009424,0.0,0.0,0.0187483005999456,1671.9049607009424,0.0,0.0,0.0187483005999456,364,0.0,98,Motors_Started,
0.353937552331952,36.9197217431386,1300,2018-04-04 07:06:16,1671.9049607009424,0.0,0.0,0.0185203005926496,1671.9049607009424,0.0,0.0,0.0187483005999456,364,0.0,98,Motors_Started,
0.353937553400618,36.9197217486908,1400,2018-04-04 07:06:16,1671.9049607009424,0.0,0.0,0.0187001005984032,1671.9049607009424,0.0,0.0,0.0187483005999456,419,0.0,98,Motors_Started,
0.353937545183897,36.919721746708,1500,2018-04-04 07:06:16,1671.9049607009424,0.0,0.0,0.0177674005685568,1671.9049607009424,0.0,0.0,0.0187483005999456,572,0.0,98,Motors_Started,
0.35393754294153,36.9197217503898,1600,2018-04-04 07:06:16,1671.9049607009424,0.0,0.0,0.017569700562230398,1671.9049607009424,0.0,0.0,0.0187483005999456,1020,0.0,98,Assisted_Takeoff,
0.353937530930941,36.9197217564506,1800,2018-04-04 07:06:16,1671.9049607009424,0.0,0.0,0.0163584005234688,1671.9049607009424,0.0,0.0,0.0187483005999456,1024,0.0,98,Assisted_Takeoff,
0.353937548834868,36.9197217292238,1900,2018-04-04 07:06:16,1671.9049607009424,0.0,0.0,0.018066500578128,1671.9049607009424,0.0,0.0,0.0187483005999456,1024,0.0,98,Assisted_Takeoff,
0.353937574466577,36.9197217007113,2000,2018-04-04 07:06:16,1671.9049607009424,0.0,0.0,0.0211557006769824,1671.9049607009424,0.0,0.0,0.0211557006769824,1024,0.0,98,Assisted_Takeoff,
0.353937610841945,36.9197215934632,2200,2018-04-04 07:06:16,1671.9049607009424,0.0,0.0,0.029171800933497603,1671.9049607009424,0.0,0.0,0.029171800933497603,1024,0.0,98,Assisted_Takeoff,
0.353937644571091,36.9197215210433,2300,2018-04-04 07:06:16,1671.9049607009424,0.0,0.0,0.0368826011802432,1671.9049607009424,0.0,0.0,0.0368826011802432,1024,0.0,98,Assisted_Takeoff,
0.353937681534734,36.9197214626473,2400,2018-04-04 07:06:17,1671.9049607009424,0.0,0.0,0.04422790141529281,1671.9049607009424,0.0,0.0,0.04422790141529281,1024,0.0,98,Assisted_Takeoff,
0.353937711353172,36.919721382892,2500,2018-04-04 07:06:17,1671.9049607009424,0.0,0.0,0.052813501690032,1671.9049607009424,0.0,0.0,0.052813501690032,1024,0.0,98,Assisted_Takeoff,
0.353937732637342,36.9197213201788,2600,2018-04-04 07:06:17,1671.9049607009424,0.0,0.0,0.059596501907088005,1671.9049607009424,0.0,0.0,0.059596501907088005,1024,0.0,98,Assisted_Takeoff,
0.353937743820681,36.9197212665727,2700,2018-04-04 07:06:17,1671.9049607009424,0.0,0.0,0.0650147020804704,1671.9049607009424,0.0,0.0,0.0650147020804704,1024,0.0,98,Assisted_Takeoff,
0.353937753925991,36.9197212324908,2800,2018-04-04 07:06:17,1671.9049607009424,0.0,0.0,0.0687158021989056,1671.9049607009424,0.0,0.0,0.0687158021989056,1024,0.0,98,Assisted_Takeoff,
0.353937754344501,36.9197211889426,2900,2018-04-04 07:06:17,1671.9049607009424,0.0,0.0,0.0726919023261408,1671.9049607009424,0.0,0.0,0.0726919023261408,1024,0.0,98,Assisted_Takeoff,
0.35393775677821,36.9197211452075,3000,2018-04-04 07:06:17,1671.9049607009424,0.0,0.0,0.0769051024609632,1671.9049607009424,0.0,0.0,0.0769051024609632,1024,0.0,98,Assisted_Takeoff,
0.353937750656889,36.9197211176013,3100,2018-04-04 07:06:17,1671.9049607009424,0.0,0.0,0.07916410253325121,1671.9049607009424,0.0,0.0,0.07916410253325121,1024,0.0,98,Assisted_Takeoff,
0.353937749279226,36.919721096211,3200,2018-04-04 07:06:17,1671.9049607009424,0.0,0.0,0.081140502596496,1671.9049607009424,0.0,0.0,0.081140502596496,1024,0.0,98,Assisted_Takeoff,
0.353937741150033,36.9197210932315,3300,2018-04-04 07:06:18,1671.9049607009424,0.0,0.0,0.0809839025914848,1671.9049607009424,0.0,0.0,0.081140502596496,1024,0.0,98,Assisted_Takeoff,
0.353937738229419,36.9197210875695,3400,2018-04-04 07:06:18,1671.9049607009424,0.0,0.0,0.0813777026040864,1671.9049607009424,0.0,0.0,0.0813777026040864,1024,0.0,98,Assisted_Takeoff,
0.353937730350193,36.9197210732908,3500,2018-04-04 07:06:18,1671.9049607009424,0.0,0.0,0.0823629026356128,1671.9049607009424,0.0,0.0,0.0823629026356128,1024,0.0,98,Assisted_Takeoff,
0.353937727402302,36.9197210474184,3600,2018-04-04 07:06:18,1671.9049607009424,0.0,0.0,0.0847742027127744,1671.9049607009424,0.0,0.0,0.0847742027127744,1024,0.0,98,Assisted_Takeoff,
0.353937720166718,36.9197210349398,3700,2018-04-04 07:06:18,1671.9049607009424,0.0,0.0,0.0856658027413056,1671.9049607009424,0.0,0.0,0.0856658027413056,1024,0.0,98,Assisted_Takeoff,
0.353937717888118,36.9197210246047,3800,2018-04-04 07:06:18,1671.9049607009424,0.0,0.0,0.08659490277103682,1671.9049607009424,0.0,0.0,0.08659490277103682,1043,0.0,98,Assisted_Takeoff,
0.353937712979581,36.9197210278711,3900,2018-04-04 07:06:18,1671.9049607009424,0.0,0.0,0.08603450275310401,1671.9049607009424,0.0,0.0,0.08659490277103682,1078,0.0,98,Assisted_Takeoff,
0.35393771064887,36.9197210372154,4100,2018-04-04 07:06:18,1671.9049607009424,0.0,0.0,0.0849833027194656,1671.9049607009424,0.0,0.0,0.08659490277103682,1145,0.0,98,Assisted_Takeoff,
0.353937710752276,36.9197210435427,4200,2018-04-04 07:06:18,1671.9049607009424,0.0,0.0,0.08435160269925121,1671.9049607009424,0.0,0.0,0.08659490277103682,1224,0.0,98,Assisted_Takeoff,
0.353937708218417,36.9197210585586,4300,2018-04-04 07:06:19,1671.9049607009424,0.0,0.0,0.0827229026471328,1671.9049607009424,0.0,0.0,0.08659490277103682,1339,0.0,98,Assisted_Takeoff,
0.353937707079321,36.9197210802524,4500,2018-04-04 07:06:19,1671.9049607009424,0.0,0.0,0.0804986025759552,1671.9049607009424,0.0,0.0,0.08659490277103682,1360,0.0,98,Assisted_Takeoff,
0.353937709883094,36.919721070103,4600,2018-04-04 07:06:19,1671.9049607009424,0.0,0.0,0.0816488026127616,1671.9049607009424,0.0,0.0,0.08659490277103682,1377,0.0,98,Assisted_Takeoff,
0.353937702041322,36.9197210034601,4700,2018-04-04 07:06:19,1671.9049607009424,0.0,0.35999970196000003,0.088010502816336,1671.9049607009424,0.0,0.35999970196000003,0.088010502816336,1394,0.0,98,Assisted_Takeoff,
0.353937653343519,36.9197209210069,4800,2018-04-04 07:06:19,1671.9049607009424,0.0,0.0,0.0946523030288736,1671.9049607009424,0.0,0.35999970196000003,0.0946523030288736,1398,0.0,98,P-GPS,Home Point Recorded. RTH Altitude:  45m.
0.353937547992149,36.9197208560716,4900,2018-04-04 07:06:19,1671.9049607009424,0.0,0.0,0.0987462031598784,1671.9049607009424,0.0,0.35999970196000003,0.0987462031598784,1403,0.0,98,P-GPS,
0.353937419127879,36.9197207965413,5000,2018-04-04 07:06:19,1672.0049607041424,0.1000000032,0.35999970196000003,0.10378100332099201,1672.0049607041424,0.1000000032,0.35999970196000003,0.10378100332099201,1420,0.0,98,P-GPS,
0.353937267011872,36.9197207297672,5100,2018-04-04 07:06:19,1672.1049607073423,0.2000000064,0.35999970196000003,0.11193200358182401,1672.1049607073423,0.2000000064,0.35999970196000003,0.11193200358182401,1420,0.0,98,P-GPS,
0.353937119981699,36.9197206723824,5200,2018-04-04 07:06:19,1672.2049607105425,0.3000000096,0.35999970196000003,0.1212000038784,1672.2049607105425,0.3000000096,0.35999970196000003,0.1212000038784,1418,0.0,98,P-GPS,
0.353937002076858,36.9197206253472,5300,2018-04-04 07:06:20,1672.4049607169425,0.500000016,0.0,0.129981004159392,1672.4049607169425,0.500000016,0.35999970196000003,0.129981004159392,1420,0.0,98,P-GPS,
0.353936914092843,36.91972058891,5400,2018-04-04 07:06:20,1672.6049607233426,0.7000000224,0.0,0.137252004392064,1672.6049607233426,0.7000000224,0.35999970196000003,0.137252004392064,1421,0.0,98,P-GPS,
0.353936828666096,36.9197205569645,5500,2018-04-04 07:06:20,1672.8049607297423,0.9000000288000001,0.0,0.14436000461952,1672.8049607297423,0.9000000288000001,0.35999970196000003,0.14436000461952,1422,0.0,98,P-GPS,
0.353936748713974,36.9197205457118,5600,2018-04-04 07:06:20,1673.0049607361425,1.1000000352000001,0.0,0.14949800478393602,1673.0049607361425,1.1000000352000001,0.35999970196000003,0.14949800478393602,1425,0.0,98,P-GPS,
0.353936666508899,36.9197205448698,5700,2018-04-04 07:06:20,1673.3049607457426,1.4000000448,0.0,0.15412500493200001,1673.3049607457426,1.4000000448,0.35999970196000003,0.15412500493200001,1437,0.0,98,P-GPS,
0.353936584779941,36.9197205528394,5800,2018-04-04 07:06:20,1673.5049607521426,1.6000000512,0.0,0.158302005065664,1673.5049607521426,1.6000000512,0.35999970196000003,0.158302005065664,1438,0.0,98,P-GPS,
0.353936518122436,36.919720534699,5900,2018-04-04 07:06:20,1673.8049607617424,1.9000000608000003,0.0,0.16421900525500802,1673.8049607617424,1.9000000608000003,0.35999970196000003,0.16421900525500802,1452,0.0,98,P-GPS,
0.353936471646441,36.919720519326,6000,2018-04-04 07:06:20,1674.0049607681424,2.1000000672000003,0.0,0.168671005397472,1674.0049607681424,2.1000000672000003,0.35999970196000003,0.168671005397472,1451,0.0,98,P-GPS,
0.353936420815783,36.9197205171452,6100,2018-04-04 07:06:20,1674.3049607777425,2.4000000768,0.0,0.172328005514496,1674.3049607777425,2.4000000768,0.35999970196000003,0.172328005514496,1452,0.0,98,P-GPS,
0.353936369966805,36.9197205215915,6200,2018-04-04 07:06:20,1674.5049607841427,2.6000000832000003,0.0,0.175529005616928,1674.5049607841427,2.6000000832000003,0.35999970196000003,0.175529005616928,1452,0.0,98,P-GPS,
0.353936322146325,36.9197205408213,6300,2018-04-04 07:06:20,1674.8049607937423,2.9000000928,0.0,0.177401005676832,1674.8049607937423,2.9000000928,0.35999970196000003,0.177401005676832,1452,0.0,98,P-GPS,
0.35393627713593,36.9197205599702,6400,2018-04-04 07:06:21,1675.1049608033425,3.2000001024,0.0,0.17922800573529601,1675.1049608033425,3.2000001024,0.35999970196000003,0.17922800573529601,1453,0.0,98,P-GPS,
0.353936198256749,36.9197205847249,6500,2018-04-04 07:06:21,1675.3049608097426,3.4000001088000005,0.0,0.18345400587052801,1675.3049608097426,3.4000001088000005,0.35999970196000003,0.18345400587052801,1455,0.0,98,P-GPS,
0.353936131627945,36.9197206251994,6600,2018-04-04 07:06:21,1675.6049608193425,3.7000001184,0.0,0.18585700594742402,1675.6049608193425,3.7000001184,0.35999970196000003,0.18585700594742402,1456,0.0,98,P-GPS,
0.353936064721695,36.9197206847849,6700,2018-04-04 07:06:21,1675.9049608289424,4.000000128,0.0,0.187327005994464,1675.9049608289424,4.000000128,0.35999970196000003,0.187327005994464,1457,0.0,98,P-GPS,
0.353936013716793,36.9197207398245,6800,2018-04-04 07:06:21,1676.1049608353426,4.200000134400001,0.0,0.188167006021344,1676.1049608353426,4.200000134400001,0.35999970196000003,0.188167006021344,1461,0.0,98,P-GPS,
0.353935965536224,36.9197207855081,6900,2018-04-04 07:06:21,1676.4049608449425,4.500000144,0.0,0.18968100606979202,1676.4049608449425,4.500000144,0.35999970196000003,0.18968100606979202,1459,0.0,98,P-GPS,
0.353935938142947,36.9197208182768,7000,2018-04-04 07:06:21,1676.7049608545424,4.8000001536,0.0,0.190262006088384,1676.7049608545424,4.8000001536,0.35999970196000003,0.190262006088384,1460,0.0,98,P-GPS,
0.353935937339309,36.9197208440818,7100,2018-04-04 07:06:21,1676.9049608609425,5.00000016,0.0,0.18882600604243202,1676.9049608609425,5.00000016,0.35999970196000003,0.190262006088384,1462,0.0,98,P-GPS,
0.353935946297787,36.9197208622223,7200,2018-04-04 07:06:21,1677.2049608705427,5.3000001696000005,0.0,0.186928005981696,1677.2049608705427,5.3000001696000005,0.35999970196000003,0.190262006088384,1461,0.0,98,P-GPS,
0.35393593484433,36.9197208619899,7300,2018-04-04 07:06:22,1677.5049608801426,5.6000001792,0.0,0.18803300601705603,1677.5049608801426,5.6000001792,0.35999970196000003,0.190262006088384,1461,0.0,98,P-GPS,
0.353935920864138,36.9197208490676,7400,2018-04-04 07:06:22,1677.7049608865425,5.8000001856,0.0,0.19010500608336,1677.7049608865425,5.8000001856,0.35999970196000003,0.190262006088384,1462,0.0,98,P-GPS,
0.353935935719008,36.9197208458296,7500,2018-04-04 07:06:22,1678.0049608961426,6.100000195200001,0.0,0.18887800604409602,1678.0049608961426,6.100000195200001,0.35999970196000003,0.190262006088384,1460,0.0,98,P-GPS,
0.353935964508269,36.9197208426793,7600,2018-04-04 07:06:22,1678.3049609057425,6.4000002048,0.0,0.18633600596275202,1678.3049609057425,6.4000002048,0.35999970196000003,0.190262006088384,1466,0.0,98,P-GPS,
0.353935991470213,36.9197208108002,7700,2018-04-04 07:06:22,1678.5049609121425,6.6000002112,0.0,0.185724005943168,1678.5049609121425,6.6000002112,0.35999970196000003,0.190262006088384,1478,0.0,98,P-GPS,
0.353936009417498,36.9197207692771,7800,2018-04-04 07:06:22,1678.8049609217426,6.900000220800001,0.0,0.186662005973184,1678.8049609217426,6.900000220800001,0.35999970196000003,0.190262006088384,1480,0.0,98,P-GPS,
0.35393602283669,36.9197207184787,7900,2018-04-04 07:06:22,1679.1049609313425,7.200000230400001,0.0,0.188749006039968,1679.1049609313425,7.200000230400001,0.35999970196000003,0.190262006088384,1483,0.0,98,P-GPS,
0.353936031692983,36.9197206814216,8000,2018-04-04 07:06:22,1679.3049609377424,7.4000002368,0.0,0.19045100609443202,1679.3049609377424,7.4000002368,0.35999970196000003,0.19045100609443202,1484,0.0,98,P-GPS,
0.353936019729416,36.9197206641231,8100,2018-04-04 07:06:22,1679.6049609473425,7.7000002464,0.0,0.192682006165824,1679.6049609473425,7.7000002464,0.35999970196000003,0.192682006165824,1499,0.0,98,P-GPS,
0.353935991357239,36.9197206690206,8200,2018-04-04 07:06:22,1679.9049609569427,8.000000256,0.0,0.1948500062352,1679.9049609569427,8.000000256,0.35999970196000003,0.1948500062352,1517,0.0,98,P-GPS,
0.353935958431527,36.9197206689184,8300,2018-04-04 07:06:22,1680.2049609665426,8.300000265600001,0.0,0.19778400632908802,1680.2049609665426,8.300000265600001,0.35999970196000003,0.19778400632908802,1538,0.0,98,P-GPS,
0.353935936091311,36.919720673067,8400,2018-04-04 07:06:23,1680.5049609761425,8.6000002752,0.0,0.19951300638441602,1680.5049609761425,8.6000002752,0.35999970196000003,0.19951300638441602,1542,0.0,98,P-GPS,
0.353935886755157,36.9197207172062,8500,2018-04-04 07:06:23,1680.8049609857424,8.9000002848,0.0,0.201187006437984,1680.8049609857424,8.9000002848,0.35999970196000003,0.201187006437984,1543,0.0,98,P-GPS,
0.353935843605666,36.9197207661343,8600,2018-04-04 07:06:23,1681.1049609953425,9.2000002944,0.0,0.202249006471968,1681.1049609953425,9.2000002944,0.35999970196000003,0.202249006471968,1543,0.0,98,P-GPS,
0.353935781406433,36.9197208165628,8700,2018-04-04 07:06:23,1681.4049610049426,9.500000304,0.0,0.20532000657024,1681.4049610049426,9.500000304,0.35999970196000003,0.20532000657024,1543,0.0,98,P-GPS,
0.353935735741301,36.9197208369959,8800,2018-04-04 07:06:23,1681.8049610177425,9.900000316800002,0.0,0.208659006677088,1681.8049610177425,9.900000316800002,0.35999970196000003,0.208659006677088,1544,0.0,98,P-GPS,
0.353935673337495,36.9197208415193,8900,2018-04-04 07:06:23,1682.1049610273426,10.2000003264,0.0,0.214558006865856,1682.1049610273426,10.2000003264,0.35999970196000003,0.214558006865856,1543,0.0,98,P-GPS,
0.353935629576523,36.9197208259328,9000,2018-04-04 07:06:23,1682.4049610369425,10.500000336,0.0,0.219677007029664,1682.4049610369425,10.500000336,0.35999970196000003,0.219677007029664,1543,0.0,98,P-GPS,
0.353935543384713,36.9197208466175,9100,2018-04-04 07:06:23,1682.8049610497424,10.9000003488,0.0,0.227241007271712,1682.8049610497424,10.9000003488,0.35999970196000003,0.227241007271712,1544,0.0,98,P-GPS,
0.353935474894089,36.9197208711057,9200,2018-04-04 07:06:23,1683.1049610593425,11.2000003584,0.0,0.23300500745616,1683.1049610593425,11.2000003584,0.35999970196000003,0.23300500745616,1542,0.0,98,P-GPS,
0.353935394142604,36.9197209098281,9300,2018-04-04 07:06:24,1683.5049610721424,11.6000003712,0.0,0.23955400766572799,1683.5049610721424,11.6000003712,0.35999970196000003,0.23955400766572799,1541,0.0,98,P-GPS,
0.353935336689268,36.9197209312692,9400,2018-04-04 07:06:24,1683.8049610817425,11.9000003808,0.0,0.2446000078272,1683.8049610817425,11.9000003808,0.35999970196000003,0.2446000078272,1541,0.0,98,P-GPS,
0.353935256845743,36.9197209501035,9500,2018-04-04 07:06:24,1684.2049610945426,12.300000393600001,0.0,0.252168008069376,1684.2049610945426,12.300000393600001,0.35999970196000003,0.252168008069376,1544,0.0,98,P-GPS,
0.353935186736547,36.9197209606715,9600,2018-04-04 07:06:24,1684.5049611041425,12.6000004032,0.0,0.259114008291648,1684.5049611041425,12.6000004032,0.35999970196000003,0.259114008291648,1542,-0.1,98,P-GPS,
0.353935111691435,36.9197209955124,9700,2018-04-04 07:06:24,1684.9049611169426,13.000000416,0.0,0.265791008505312,1684.9049611169426,13.000000416,0.35999970196000003,0.265791008505312,1543,-0.6,98,P-GPS,
0.353935068952516,36.9197210168952,9800,2018-04-04 07:06:24,1685.2049611265427,13.3000004256,0.0,0.269611008627552,1685.2049611265427,13.3000004256,0.35999970196000003,0.269611008627552,1540,-0.6,98,P-GPS,
0.353935032378071,36.9197210489964,9900,2018-04-04 07:06:24,1685.6049611393425,13.7000004384,0.0,0.27248900871964804,1685.6049611393425,13.7000004384,0.35999970196000003,0.27248900871964804,1537,-1.9,98,P-GPS,
0.353935013417894,36.9197210622993,10000,2018-04-04 07:06:24,1686.0049611521426,14.100000451200001,0.0,0.27411100877155203,1686.0049611521426,14.100000451200001,0.35999970196000003,0.27411100877155203,1536,-2.8,98,P-GPS,
0.353934990366862,36.9197210807181,10100,2018-04-04 07:06:24,1686.3049611617423,14.400000460800001,0.0,0.27603700883318405,1686.3049611617423,14.400000460800001,0.35999970196000003,0.27603700883318405,1533,-3.9,98,P-GPS,
0.353934970152986,36.9197210823958,10200,2018-04-04 07:06:25,1686.7049611745426,14.8000004736,0.0,0.278159008901088,1686.7049611745426,14.8000004736,0.35999970196000003,0.278159008901088,1526,-5.1,98,P-GPS,
0.353934807583692,36.9197210692299,10500,2018-04-04 07:06:25,1687.8049612097423,15.900000508800002,0.0,0.29602000947264,1687.8049612097423,15.900000508800002,0.35999970196000003,0.29602000947264,1523,-7.3,98,P-GPS,
0.353934762915117,36.9197210522147,10600,2018-04-04 07:06:25,1688.2049612225424,16.3000005216,0.0,0.301302009641664,1688.2049612225424,16.3000005216,0.35999970196000003,0.301302009641664,1521,-8.5,98,P-GPS,
0.353934687514496,36.9197210337236,10700,2018-04-04 07:06:25,1688.5049612321425,16.600000531200003,0.0,0.30993500991792006,1688.5049612321425,16.600000531200003,0.35999970196000003,0.30993500991792006,1521,-9.6,98,P-GPS,
0.353934607574791,36.9197210145388,10800,2018-04-04 07:06:25,1688.9049612449423,17.000000544,0.0,0.319076010210432,1688.9049612449423,17.000000544,0.35999970196000003,0.319076010210432,1520,-10.8,98,P-GPS,
0.353934480783022,36.9197210250447,10900,2018-04-04 07:06:25,1689.3049612577424,17.400000556800002,0.0,0.33247301063913604,1689.3049612577424,17.400000556800002,0.35999970196000003,0.33247301063913604,1517,-11.9,98,P-GPS,
0.353934359382013,36.9197210532114,11000,2018-04-04 07:06:25,1689.6049612673426,17.7000005664,0.0,0.34491201103718405,1689.6049612673426,17.7000005664,0.35999970196000003,0.34491201103718405,1518,-13.0,98,P-GPS,
0.353934229343241,36.9197210867045,11100,2018-04-04 07:06:25,1690.0049612801424,18.1000005792,0.0,0.3582780114648961,1690.0049612801424,18.1000005792,0.35999970196000003,0.3582780114648961,1515,-14.1,98,P-GPS,
0.353934135779105,36.9197210964181,11200,2018-04-04 07:06:25,1690.4049612929425,18.500000592000003,0.0,0.36827201178470403,1690.4049612929425,18.500000592000003,0.35999970196000003,0.36827201178470403,1514,-15.2,98,P-GPS,
0.353934017419186,36.9197210790817,11300,2018-04-04 07:06:26,1690.7049613025424,18.8000006016,0.0,0.38156001220992003,1690.7049613025424,18.8000006016,0.35999970196000003,0.38156001220992003,1513,-16.3,98,P-GPS,
0.353933910003019,36.9197210420294,11400,2018-04-04 07:06:26,1691.1049613153425,19.2000006144,0.0,0.394074012610368,1691.1049613153425,19.2000006144,0.35999970196000003,0.394074012610368,1513,-17.4,98,P-GPS,
0.353933797381512,36.9197210272079,11500,2018-04-04 07:06:26,1691.5049613281424,19.6000006272,0.0,0.406681013013792,1691.5049613281424,19.6000006272,0.35999970196000003,0.406681013013792,1514,-18.5,98,P-GPS,
0.3539336204126,36.9197210062399,11700,2018-04-04 07:06:26,1692.2049613505426,20.3000006496,0.0,0.42644501364624005,1692.2049613505426,20.3000006496,0.35999970196000003,0.42644501364624005,1516,-19.6,98,P-GPS,
0.353933541381617,36.919720970937,11800,2018-04-04 07:06:26,1692.6049613633425,20.7000006624,0.0,0.43582201394630404,1692.6049613633425,20.7000006624,0.35999970196000003,0.43582201394630404,1512,-20.7,98,P-GPS,
0.35393342581344,36.919720908644,11900,2018-04-04 07:06:26,1693.0049613761425,21.1000006752,0.0,0.44979201439334404,1693.0049613761425,21.1000006752,0.35999970196000003,0.44979201439334404,1507,-21.7,98,P-GPS,
0.353933316678737,36.9197208386656,12000,2018-04-04 07:06:26,1693.3049613857424,21.400000684800002,0.0,0.463283014825056,1693.3049613857424,21.400000684800002,0.35999970196000003,0.463283014825056,1504,-22.0,98,P-GPS,
0.35393319125715,36.9197207740482,12100,2018-04-04 07:06:26,1693.7049613985425,21.8000006976,0.0,0.47846201531078403,1693.7049613985425,21.8000006976,0.35999970196000003,0.47846201531078403,1498,-22.0,98,P-GPS,
0.353933097782328,36.9197207273155,12200,2018-04-04 07:06:26,1694.1049614113426,22.2000007104,0.0,0.48975901567228797,1694.1049614113426,22.2000007104,0.35999970196000003,0.48975901567228797,1500,-22.0,98,P-GPS,
0.353933008987958,36.9197207065954,12300,2018-04-04 07:06:27,1694.5049614241425,22.6000007232,0.0,0.499899015996768,1694.5049614241425,22.6000007232,0.35999970196000003,0.499899015996768,1490,-22.0,98,P-GPS,
0.353932964020513,36.9197207077945,12400,2018-04-04 07:06:27,1694.8049614337426,22.900000732800002,0.0,0.504739016151648,1694.8049614337426,22.900000732800002,0.35999970196000003,0.504739016151648,1485,-22.0,98,P-GPS,
0.353932917995393,36.9197207399005,12500,2018-04-04 07:06:27,1695.2049614465425,23.300000745600002,0.0,0.508944016286208,1695.2049614465425,23.300000745600002,0.35999970196000003,0.508944016286208,1489,-22.0,98,P-GPS,
0.353932893661351,36.9197207802722,12600,2018-04-04 07:06:27,1695.5049614561426,23.6000007552,0.0,0.5106400163404801,1695.5049614561426,23.6000007552,0.35999970196000003,0.5106400163404801,1490,-22.0,98,P-GPS,
0.353932861504264,36.9197208201927,12700,2018-04-04 07:06:27,1695.9049614689427,24.000000768000003,0.0,0.513246016423872,1695.9049614689427,24.000000768000003,0.35999970196000003,0.513246016423872,1493,-22.0,98,P-GPS,
0.353932860344303,36.9197208500317,12800,2018-04-04 07:06:27,1696.2049614785424,24.3000007776,0.0,0.51273001640736,1696.2049614785424,24.3000007776,0.35999970196000003,0.513246016423872,1503,-22.0,98,P-GPS,
0.353932817082449,36.9197209641617,13100,2018-04-04 07:06:27,1697.2049615105425,25.3000008096,0.0,0.515206016486592,1697.2049615105425,25.3000008096,0.35999970196000003,0.515206016486592,1502,-22.0,98,P-GPS,
0.35393282892083,36.9197209686352,13200,2018-04-04 07:06:27,1697.6049615233426,25.7000008224,0.0,0.5138260164424321,1697.6049615233426,25.7000008224,0.35999970196000003,0.515206016486592,1504,-22.0,98,P-GPS,
0.353932817405898,36.9197209729535,13300,2018-04-04 07:06:28,1697.9049615329425,26.000000832,0.0,0.5150100164803201,1697.9049615329425,26.000000832,0.35999970196000003,0.515206016486592,1507,-22.0,98,P-GPS,
0.353932821334316,36.9197209776177,13400,2018-04-04 07:06:28,1698.3049615457426,26.4000008448,0.0,0.51449501646384,1698.3049615457426,26.4000008448,0.35999970196000003,0.515206016486592,1511,-22.0,98,P-GPS,
0.353932811167737,36.9197209551294,13500,2018-04-04 07:06:28,1698.7049615585424,26.8000008576,0.0,0.516021016512672,1698.7049615585424,26.8000008576,0.35999970196000003,0.516021016512672,1524,-22.0,98,P-GPS,
0.353932826283768,36.9197209185611,13600,2018-04-04 07:06:28,1699.0049615681426,27.100000867200002,0.0,0.51506001648192,1699.0049615681426,27.100000867200002,0.35999970196000003,0.516021016512672,1539,-22.0,98,P-GPS,
0.35393282760983,36.9197209063609,13700,2018-04-04 07:06:28,1699.4049615809427,27.50000088,0.0,0.5151540164849281,1699.4049615809427,27.50000088,0.35999970196000003,0.516021016512672,1542,-22.0,98,P-GPS,
0.353932852415103,36.9197208953561,13800,2018-04-04 07:06:28,1699.8049615937425,27.9000008928,0.0,0.51266001640512,1699.8049615937425,27.9000008928,0.35999970196000003,0.516021016512672,1544,-22.0,98,P-GPS,
0.353932867768073,36.9197208692192,13900,2018-04-04 07:06:28,1700.1049616033426,28.200000902400003,0.0,0.5115160163685121,1700.1049616033426,28.200000902400003,0.35999970196000003,0.516021016512672,1544,-22.0,98,P-GPS,
0.353932910339467,36.9197208246341,14000,2018-04-04 07:06:28,1700.5049616161425,28.600000915200003,0.0,0.5078250162504,1700.5049616161425,28.600000915200003,0.35999970196000003,0.516021016512672,1547,-22.0,98,P-GPS,
0.353932961393934,36.9197207723331,14100,2018-04-04 07:06:28,1700.9049616289426,29.000000928000002,0.0,0.503458016110656,1700.9049616289426,29.000000928000002,0.35999970196000003,0.516021016512672,1556,-22.0,98,P-GPS,
0.35393303955314,36.9197207135153,14200,2018-04-04 07:06:28,1701.3049616417425,29.4000009408,0.35999970196000003,0.4964140158852481,1701.3049616417425,29.4000009408,0.35999970196000003,0.516021016512672,1557,-22.0,98,P-GPS,
0.353933079200153,36.9197206853304,14300,2018-04-04 07:06:29,1701.6049616513424,29.700000950400003,0.35999970196000003,0.4928500157712,1701.6049616513424,29.700000950400003,0.35999970196000003,0.516021016512672,1562,-22.0,98,P-GPS,
0.353933124590994,36.9197206612812,14400,2018-04-04 07:06:29,1702.0049616641425,30.1000009632,0.35999970196000003,0.488589015634848,1702.0049616641425,30.1000009632,0.35999970196000003,0.516021016512672,1567,-22.0,98,P-GPS,
0.353933121666309,36.9197206846473,14500,2018-04-04 07:06:29,1702.4049616769425,30.500000976,0.35999970196000003,0.48828001562496004,1702.4049616769425,30.500000976,0.35999970196000003,0.516021016512672,1571,-22.0,98,P-GPS,
0.353933126934834,36.9197207036394,14600,2018-04-04 07:06:29,1702.8049616897426,30.900000988800002,0.0,0.48721201559078403,1702.8049616897426,30.900000988800002,0.35999970196000003,0.516021016512672,1574,-22.0,98,P-GPS,
0.353933081214029,36.9197207733529,14700,2018-04-04 07:06:29,1703.2049617025425,31.300001001600002,0.0,0.490418015693376,1703.2049617025425,31.300001001600002,0.35999970196000003,0.516021016512672,1574,-22.0,98,P-GPS,
0.353933064782724,36.9197208227932,14800,2018-04-04 07:06:29,1703.6049617153426,31.7000010144,0.0,0.491044015713408,1703.6049617153426,31.7000010144,0.35999970196000003,0.516021016512672,1575,-22.0,98,P-GPS,
0.353933064203202,36.9197208973298,14900,2018-04-04 07:06:29,1704.0049617281425,32.1000010272,0.0,0.489473015663136,1704.0049617281425,32.1000010272,0.35999970196000003,0.516021016512672,1576,-22.0,98,P-GPS,
0.353933113003495,36.9197209426193,15000,2018-04-04 07:06:29,1704.4049617409426,32.50000104,0.35999970196000003,0.483208015462656,1704.4049617409426,32.50000104,0.35999970196000003,0.516021016512672,1583,-22.0,98,P-GPS,
0.353933132505435,36.9197210221546,15100,2018-04-04 07:06:29,1704.8049617537426,32.9000010528,0.35999970196000003,0.47954601534547203,1704.8049617537426,32.9000010528,0.35999970196000003,0.516021016512672,1588,-22.0,98,P-GPS,
0.353933156997742,36.9197210820221,15200,2018-04-04 07:06:29,1705.2049617665425,33.3000010656,0.0,0.475807015225824,1705.2049617665425,33.3000010656,0.35999970196000003,0.516021016512672,1588,-22.0,98,P-GPS,
0.353933136422759,36.9197211880877,15300,2018-04-04 07:06:29,1705.6049617793426,33.7000010784,0.0,0.476436015245952,1705.6049617793426,33.7000010784,0.35999970196000003,0.516021016512672,1595,-22.0,98,P-GPS,
0.353933128703731,36.9197212789361,15400,2018-04-04 07:06:30,1706.0049617921425,34.1000010912,0.0,0.476119015235808,1706.0049617921425,34.1000010912,0.35999970196000003,0.516021016512672,1595,-22.0,98,P-GPS,
0.353933086517668,36.9197213973073,15500,2018-04-04 07:06:30,1706.4049618049426,34.500001104,0.0,0.47959301534697607,1706.4049618049426,34.500001104,0.35999970196000003,0.516021016512672,1602,-22.0,98,P-GPS,
0.353933035610982,36.9197215928503,15700,2018-04-04 07:06:30,1707.3049618337425,35.4000011328,0.0,0.484069015490208,1707.3049618337425,35.4000011328,0.35999970196000003,0.516021016512672,1603,-22.0,98,P-GPS,
0.35393302775262,36.9197216640669,15800,2018-04-04 07:06:30,1707.7049618465423,35.8000011456,0.0,0.48476001551232,1707.7049618465423,35.8000011456,0.35999970196000003,0.516021016512672,1604,-22.0,98,P-GPS,
0.353933006119047,36.9197217551642,15900,2018-04-04 07:06:30,1708.1049618593424,36.2000011584,0.0,0.48712001558784007,1708.1049618593424,36.2000011584,0.35999970196000003,0.516021016512672,1607,-22.0,98,P-GPS,
0.353932965204697,36.9197218950852,16100,2018-04-04 07:06:30,1709.0049618881426,37.10000118720001,0.0,0.49200701574422406,1709.0049618881426,37.10000118720001,0.35999970196000003,0.516021016512672,1604,-22.0,98,P-GPS,
0.353932934892535,36.9197219379541,16200,2018-04-04 07:06:30,1709.4049619009425,37.5000012,0.0,0.49557601585843203,1709.4049619009425,37.5000012,0.35999970196000003,0.516021016512672,1599,-22.0,98,P-GPS,
0.353932860759658,36.9197220107424,16300,2018-04-04 07:06:31,1709.9049619169425,38.000001216,0.0,0.5042490161359681,1709.9049619169425,38.000001216,0.35999970196000003,0.516021016512672,1600,-22.0,98,P-GPS,
0.353932805634284,36.919722074925,16400,2018-04-04 07:06:31,1710.3049619297424,38.4000012288,0.0,0.51085501634736,1710.3049619297424,38.4000012288,0.35999970196000003,0.516021016512672,1603,-22.0,98,P-GPS,
0.353932713720834,36.9197221748054,16500,2018-04-04 07:06:31,1710.7049619425425,38.8000012416,0.0,0.52198501670352,1710.7049619425425,38.8000012416,0.35999970196000003,0.52198501670352,1603,-22.0,98,P-GPS,
0.353932648549487,36.9197222559436,16600,2018-04-04 07:06:31,1711.2049619585425,39.3000012576,0.0,0.530121016963872,1711.2049619585425,39.3000012576,0.35999970196000003,0.530121016963872,1597,-22.0,98,P-GPS,
0.353932565911654,36.9197223430863,16700,2018-04-04 07:06:31,1711.6049619713426,39.7000012704,0.0,0.540394017292608,1711.6049619713426,39.7000012704,0.35999970196000003,0.540394017292608,1595,-22.0,98,P-GPS,
0.353932520237769,36.9197223960482,16800,2018-04-04 07:06:31,1712.0049619841425,40.10000128320001,0.0,0.5462010174784321,1712.0049619841425,40.10000128320001,0.35999970196000003,0.5462010174784321,1595,-22.0,98,P-GPS,
0.353932462142317,36.9197224750369,16900,2018-04-04 07:06:31,1712.5049620001425,40.6000012992,0.0,0.5538500177232,1712.5049620001425,40.6000012992,0.35999970196000003,0.5538500177232,1577,-22.0,98,P-GPS,
0.353932355115685,36.9197226020259,17100,2018-04-04 07:06:31,1713.3049620257425,41.4000013248,0.0,0.5678630181716161,1713.3049620257425,41.4000013248,0.35999970196000003,0.5678630181716161,1574,-22.0,98,P-GPS,
0.353932301800632,36.9197226466638,17200,2018-04-04 07:06:31,1713.7049620385424,41.80000133760001,0.0,0.574566018386112,1713.7049620385424,41.80000133760001,0.35999970196000003,0.574566018386112,1570,-22.0,98,P-GPS,
0.353932227869682,36.9197227094166,17300,2018-04-04 07:06:32,1714.1049620513425,42.2000013504,0.0,0.5839210186854721,1714.1049620513425,42.2000013504,0.35999970196000003,0.5839210186854721,1574,-22.0,98,P-GPS,
0.353932192296323,36.9197227568648,17400,2018-04-04 07:06:32,1714.5049620641425,42.6000013632,0.0,0.5888100188419201,1714.5049620641425,42.6000013632,0.35999970196000003,0.5888100188419201,1575,-22.0,98,P-GPS,
0.353932112207615,36.9197228452797,17500,2018-04-04 07:06:32,1714.9049620769424,43.000001376,0.0,0.599507019184224,1714.9049620769424,43.000001376,0.35999970196000003,0.599507019184224,1576,-22.0,98,P-GPS,
0.353932058229989,36.9197229107188,17600,2018-04-04 07:06:32,1715.3049620897425,43.4000013888,0.0,0.60691501942128,1715.3049620897425,43.4000013888,0.35999970196000003,0.60691501942128,1574,-22.0,98,P-GPS,
0.353931983232408,36.9197229758564,17700,2018-04-04 07:06:32,1715.7049621025424,43.80000140160001,0.0,0.6166480197327361,1715.7049621025424,43.80000140160001,0.35999970196000003,0.6166480197327361,1575,-22.0,98,P-GPS,
0.353931953296111,36.9197229978155,17800,2018-04-04 07:06:32,1716.1049621153425,44.2000014144,0.0,0.6204430198541759,1716.1049621153425,44.2000014144,0.35999970196000003,0.6204430198541759,1574,-22.0,98,P-GPS,
0.353931891807287,36.919723024292,17900,2018-04-04 07:06:32,1716.5049621281423,44.600001427200006,0.0,0.627772020088704,1716.5049621281423,44.600001427200006,0.35999970196000003,0.627772020088704,1574,-22.0,98,P-GPS,
0.353931861478739,36.9197230196169,18000,2018-04-04 07:06:32,1716.9049621409424,45.00000144,0.0,0.6309370201899841,1716.9049621409424,45.00000144,0.35999970196000003,0.6309370201899841,1574,-22.0,98,P-GPS,
0.353931800097596,36.919723016048,18100,2018-04-04 07:06:32,1717.3049621537423,45.4000014528,0.0,0.6374970203999041,1717.3049621537423,45.4000014528,0.35999970196000003,0.6374970203999041,1571,-22.0,98,P-GPS,
0.353931772248354,36.9197229908118,18200,2018-04-04 07:06:33,1717.7049621665426,45.800001465600005,0.0,0.639894020476608,1717.7049621665426,45.800001465600005,0.35999970196000003,0.639894020476608,1572,-22.0,98,P-GPS,
0.353931687671044,36.9197229646709,18400,2018-04-04 07:06:33,1718.5049621921426,46.600001491200004,0.0,0.648452020750464,1718.5049621921426,46.600001491200004,0.35999970196000003,0.648452020750464,1571,-22.0,98,P-GPS,
0.353931634471407,36.9197229886344,18500,2018-04-04 07:06:33,1718.9049622049426,47.000001504000004,0.0,0.6548000209536,1718.9049622049426,47.000001504000004,0.35999970196000003,0.6548000209536,1574,-22.0,98,P-GPS,
0.35393161070162,36.9197230063702,18600,2018-04-04 07:06:33,1719.3049622177425,47.4000015168,0.0,0.65780502104976,1719.3049622177425,47.4000015168,0.35999970196000003,0.65780502104976,1578,-22.0,98,P-GPS,
0.353931531090657,36.9197230513531,18800,2018-04-04 07:06:33,1720.1049622433425,48.20000154240001,0.0,0.6675360213611521,1720.1049622433425,48.20000154240001,0.35999970196000003,0.6675360213611521,1593,-22.0,98,P-GPS,
0.353931472459549,36.9197230944736,18900,2018-04-04 07:06:33,1720.4049622529426,48.50000155200001,0.0,0.67496002159872,1720.4049622529426,48.50000155200001,0.35999970196000003,0.67496002159872,1602,-22.0,98,P-GPS,
0.353931448886804,36.9197231185701,19000,2018-04-04 07:06:33,1720.8049622657427,48.9000015648,0.0,0.6781200216998401,1720.8049622657427,48.9000015648,0.35999970196000003,0.6781200216998401,1607,-22.0,98,P-GPS,
0.353931386114359,36.9197231579499,19100,2018-04-04 07:06:33,1721.2049622785426,49.3000015776,0.0,0.68592002194944,1721.2049622785426,49.3000015776,0.35999970196000003,0.68592002194944,1608,-22.0,98,P-GPS,
0.353931360988283,36.9197231642199,19200,2018-04-04 07:06:33,1721.7049622945426,49.8000015936,0.0,0.6888000220416001,1721.7049622945426,49.8000015936,0.35999970196000003,0.6888000220416001,1616,-22.0,98,P-GPS,
0.353931326605113,36.9197232238565,19400,2018-04-04 07:06:34,1722.5049623201426,50.6000016192,0.0,0.6940780222104961,1722.5049623201426,50.6000016192,0.35999970196000003,0.6940780222104961,1620,-22.0,98,P-GPS,
0.353931291814221,36.9197232529317,19500,2018-04-04 07:06:34,1722.9049623329424,51.00000163200001,0.0,0.6986120223555841,1722.9049623329424,51.00000163200001,0.35999970196000003,0.6986120223555841,1620,-22.0,98,P-GPS,
0.353931288427261,36.9197232414437,19600,2018-04-04 07:06:34,1723.4049623489425,51.500001648,0.0,0.698669022357408,1723.4049623489425,51.500001648,0.35999970196000003,0.698669022357408,1623,-22.0,98,P-GPS,
0.353931262699678,36.9197232420449,19700,2018-04-04 07:06:34,1723.8049623617424,51.90000166080001,0.0,0.701463022446816,1723.8049623617424,51.90000166080001,0.35999970196000003,0.701463022446816,1626,-22.0,98,P-GPS,
0.353931265521771,36.9197232226754,19800,2018-04-04 07:06:34,1724.3049623777426,52.40000167680001,0.0,0.700644022420608,1724.3049623777426,52.40000167680001,0.35999970196000003,0.701463022446816,1622,-22.0,98,P-GPS,
0.353931217759712,36.9197232253364,19900,2018-04-04 07:06:34,1724.7049623905425,52.8000016896,0.0,0.7058750225880001,1724.7049623905425,52.8000016896,0.35999970196000003,0.7058750225880001,1623,-22.0,98,P-GPS,
0.353931195354155,36.9197232057937,20000,2018-04-04 07:06:34,1725.2049624065426,53.3000017056,0.0,0.707789022649248,1725.2049624065426,53.3000017056,0.35999970196000003,0.707789022649248,1627,-22.0,98,P-GPS,
0.353931089564123,36.9197232483671,20200,2018-04-04 07:06:34,1726.0049624321425,54.1000017312,0.0,0.720334023050688,1726.0049624321425,54.1000017312,0.35999970196000003,0.720334023050688,1626,-22.0,98,P-GPS,
0.353931012713576,36.9197232884313,20300,2018-04-04 07:06:35,1726.5049624481424,54.6000017472,0.0,0.72969002335008,1726.5049624481424,54.6000017472,0.35999970196000003,0.72969002335008,1626,-22.0,98,P-GPS,
0.353930979600185,36.919723291061,20400,2018-04-04 07:06:35,1726.9049624609427,55.00000176,0.0,0.733337023466784,1726.9049624609427,55.00000176,0.35999970196000003,0.733337023466784,1621,-22.0,98,P-GPS,
0.3539308779464,36.9197233395637,20500,2018-04-04 07:06:35,1727.4049624769425,55.500001776000005,0.0,0.745602023859264,1727.4049624769425,55.500001776000005,0.35999970196000003,0.745602023859264,1625,-22.0,98,P-GPS,
0.353930818167646,36.9197233575048,20600,2018-04-04 07:06:35,1727.8049624897426,55.900001788800004,0.0,0.7525340240810879,1727.8049624897426,55.900001788800004,0.35999970196000003,0.7525340240810879,1621,-22.0,98,P-GPS,
0.353930720222032,36.9197234166283,20700,2018-04-04 07:06:35,1728.3049625057424,56.400001804800006,0.0,0.7646970244703041,1728.3049625057424,56.400001804800006,0.35999970196000003,0.7646970244703041,1621,-22.0,98,P-GPS,
0.353930663953185,36.9197234540132,20800,2018-04-04 07:06:35,1728.7049625185425,56.8000018176,0.0,0.771788024697216,1728.7049625185425,56.8000018176,0.35999970196000003,0.771788024697216,1622,-22.0,98,P-GPS,
0.353930560052352,36.9197235446363,20900,2018-04-04 07:06:35,1729.2049625345426,57.3000018336,0.0,0.785514025136448,1729.2049625345426,57.3000018336,0.35999970196000003,0.785514025136448,1621,-22.0,98,P-GPS,
0.353930505872391,36.9197235990847,21000,2018-04-04 07:06:35,1729.6049625473427,57.700001846400006,0.0,0.79290502537296,1729.6049625473427,57.700001846400006,0.35999970196000003,0.79290502537296,1621,-22.0,98,P-GPS,
0.353930400494152,36.9197236866838,21100,2018-04-04 07:06:35,1730.1049625633425,58.2000018624,0.0,0.8067930258173761,1730.1049625633425,58.2000018624,0.35999970196000003,0.8067930258173761,1622,-22.0,98,P-GPS,
0.353930333728762,36.9197237221896,21200,2018-04-04 07:06:35,1730.5049625761426,58.60000187520001,0.0,0.81501002608032,1730.5049625761426,58.60000187520001,0.35999970196000003,0.81501002608032,1621,-22.0,98,P-GPS,
0.35393022012281,36.9197237793348,21300,2018-04-04 07:06:36,1731.0049625921424,59.10000189120001,0.0,0.8289000265248,1731.0049625921424,59.10000189120001,0.35999970196000003,0.8289000265248,1622,-22.0,98,P-GPS,
0.353930075152211,36.9197238623097,21500,2018-04-04 07:06:36,1731.9049626209426,60.00000192,0.0,0.8469490271023681,1731.9049626209426,60.00000192,0.35999970196000003,0.8469490271023681,1622,-22.0,98,P-GPS,
0.353930042042281,36.91972389939,21600,2018-04-04 07:06:36,1732.3049626337427,60.4000019328,0.0,0.8516440272526081,1732.3049626337427,60.4000019328,0.35999970196000003,0.8516440272526081,1622,-22.0,98,P-GPS,
0.353929979895158,36.9197239583845,21700,2018-04-04 07:06:36,1732.8049626497425,60.9000019488,0.0,0.860141027524512,1732.8049626497425,60.9000019488,0.35999970196000003,0.860141027524512,1622,-22.0,98,P-GPS,
0.353929964253547,36.91972398394,21800,2018-04-04 07:06:36,1733.2049626625426,61.3000019616,0.35999970196000003,0.8626290276041281,1733.2049626625426,61.3000019616,0.35999970196000003,0.8626290276041281,1622,-22.0,98,P-GPS,
0.353929911952811,36.9197240465098,21900,2018-04-04 07:06:36,1733.6049626753424,61.7000019744,0.35999970196000003,0.87023002784736,1733.6049626753424,61.7000019744,0.35999970196000003,0.87023002784736,1622,-22.0,98,P-GPS,
0.353929900385159,36.9197240842626,22000,2018-04-04 07:06:36,1734.1049626913423,62.200001990400004,0.35999970196000003,0.87271002792672,1734.1049626913423,62.200001990400004,0.35999970196000003,0.87271002792672,1622,-22.0,98,P-GPS,
0.353929848588426,36.9197241530443,22100,2018-04-04 07:06:36,1734.5049627041424,62.600002003200004,0.35999970196000003,0.8805170281765441,1734.5049627041424,62.600002003200004,0.35999970196000003,0.8805170281765441,1622,-22.0,98,P-GPS,
0.353929833494786,36.9197241855751,22200,2018-04-04 07:06:37,1734.9049627169425,63.000002015999996,0.35999970196000003,0.883228028263296,1734.9049627169425,63.000002015999996,0.35999970196000003,0.883228028263296,1623,-22.0,98,P-GPS,
0.353929745885313,36.9197242586257,22400,2018-04-04 07:06:37,1735.8049627457426,63.900002044800004,0.35999970196000003,0.8950180286405761,1735.8049627457426,63.900002044800004,0.35999970196000003,0.8950180286405761,1622,-22.0,98,P-GPS,
0.353929683119382,36.9197243086626,22500,2018-04-04 07:06:37,1736.3049627617424,64.4000020608,0.35999970196000003,0.903398028908736,1736.3049627617424,64.4000020608,0.35999970196000003,0.903398028908736,1622,-22.0,98,P-GPS,
0.35392966684227,36.9197243280043,22600,2018-04-04 07:06:37,1736.7049627745425,64.8000020736,0.35999970196000003,0.9057980289855361,1736.7049627745425,64.8000020736,0.35999970196000003,0.9057980289855361,1622,-22.0,98,P-GPS,
0.353929602676691,36.9197243863215,22700,2018-04-04 07:06:37,1737.2049627905424,65.3000020896,0.35999970196000003,0.914638029268416,1737.2049627905424,65.3000020896,0.35999970196000003,0.914638029268416,1621,-22.0,98,P-GPS,
0.353929581460916,36.9197244133614,22800,2018-04-04 07:06:37,1737.6049628033425,65.7000021024,0.35999970196000003,0.9178450293710401,1737.6049628033425,65.7000021024,0.35999970196000003,0.9178450293710401,1622,-22.0,97,P-GPS,
0.353929507381777,36.9197244460592,22900,2018-04-04 07:06:37,1738.0049628161426,66.10000211520001,0.35999970196000003,0.9268180296581761,1738.0049628161426,66.10000211520001,0.35999970196000003,0.9268180296581761,1622,-22.0,97,P-GPS,
0.353929484474862,36.9197244387999,23000,2018-04-04 07:06:37,1738.5049628321426,66.6000021312,0.35999970196000003,0.928964029726848,1738.5049628321426,66.6000021312,0.35999970196000003,0.928964029726848,1622,-22.0,97,P-GPS,
0.353929438420024,36.9197244402477,23100,2018-04-04 07:06:37,1738.9049628449425,67.000002144,0.35999970196000003,0.9338630298836161,1738.9049628449425,67.000002144,0.35999970196000003,0.9338630298836161,1622,-22.0,97,P-GPS,
0.353929443467793,36.9197244106889,23200,2018-04-04 07:06:37,1739.4049628609425,67.50000216000001,0.35999970196000003,0.9322750298328001,1739.4049628609425,67.50000216000001,0.35999970196000003,0.9338630298836161,1622,-22.0,97,P-GPS,
0.353929403016023,36.9197244007603,23300,2018-04-04 07:06:38,1739.8049628737424,67.9000021728,0.503999582744,0.9361870299579841,1739.8049628737424,67.9000021728,0.503999582744,0.9361870299579841,1621,-22.0,97,P-GPS,
0.353929392283355,36.9197243727765,23400,2018-04-04 07:06:38,1740.2049628865425,68.3000021856,0.503999582744,0.936337029962784,1740.2049628865425,68.3000021856,0.503999582744,0.936337029962784,1622,-22.0,97,P-GPS,
0.35392931748078,36.9197244058828,23500,2018-04-04 07:06:38,1740.7049629025425,68.8000022016,0.35999970196000003,0.945391030252512,1740.7049629025425,68.8000022016,0.503999582744,0.945391030252512,1621,-22.0,97,P-GPS,
0.353929281291869,36.9197244278128,23600,2018-04-04 07:06:38,1741.1049629153426,69.2000022144,0.35999970196000003,0.9499800303993601,1741.1049629153426,69.2000022144,0.503999582744,0.9499800303993601,1620,-22.0,97,P-GPS,
0.353929188583738,36.9197244819027,23700,2018-04-04 07:06:38,1741.5049629281425,69.60000222720001,0.0,0.96166503077328,1741.5049629281425,69.60000222720001,0.503999582744,0.96166503077328,1621,-22.0,97,P-GPS,
0.353929145869652,36.9197244951397,23800,2018-04-04 07:06:38,1742.0049629441426,70.10000224320001,0.35999970196000003,0.966636030932352,1742.0049629441426,70.10000224320001,0.503999582744,0.966636030932352,1620,-22.0,97,P-GPS,
0.353929073017546,36.9197245553883,23900,2018-04-04 07:06:38,1742.4049629569424,70.500002256,0.35999970196000003,0.9764560312465921,1742.4049629569424,70.500002256,0.503999582744,0.9764560312465921,1621,-22.0,97,P-GPS,
0.353929054472826,36.9197245990037,24000,2018-04-04 07:06:38,1742.9049629729425,71.000002272,0.35999970196000003,0.9799770313592641,1742.9049629729425,71.000002272,0.503999582744,0.9799770313592641,1619,-22.0,97,P-GPS,
0.353929016621274,36.919724688665,24100,2018-04-04 07:06:38,1743.3049629857423,71.40000228480001,0.35999970196000003,0.987237031591584,1743.3049629857423,71.40000228480001,0.503999582744,0.987237031591584,1618,-22.0,97,P-GPS,
0.353929026948865,36.9197247439458,24200,2018-04-04 07:06:38,1743.8049630017426,71.9000023008,0.35999970196000003,0.9882230316231361,1743.8049630017426,71.9000023008,0.503999582744,0.9882230316231361,1618,-22.0,97,P-GPS,
0.353929002063391,36.9197248156801,24300,2018-04-04 07:06:39,1744.2049630145425,72.3000023136,0.35999970196000003,0.993554031793728,1744.2049630145425,72.3000023136,0.503999582744,0.993554031793728,1616,-22.0,97,P-GPS,
0.353929005118352,36.9197248541997,24400,2018-04-04 07:06:39,1744.6049630273426,72.7000023264,0.35999970196000003,0.9947240318311681,1744.6049630273426,72.7000023264,0.503999582744,0.9947240318311681,1617,-22.0,97,P-GPS,
0.353928957113045,36.9197249789473,24600,2018-04-04 07:06:39,1745.5049630561425,73.6000023552,0.35999970196000003,1.00463003214816,1745.5049630561425,73.6000023552,0.503999582744,1.00463003214816,1614,-22.0,97,P-GPS,
0.353928924220919,36.9197250150831,24700,2018-04-04 07:06:39,1746.0049630721423,74.1000023712,0.35999970196000003,1.0095000323040002,1746.0049630721423,74.1000023712,0.503999582744,1.0095000323040002,1613,-22.0,97,P-GPS,
0.353928934724789,36.9197250027054,24800,2018-04-04 07:06:39,1746.4049630849424,74.50000238400001,0.35999970196000003,1.00791003225312,1746.4049630849424,74.50000238400001,0.503999582744,1.0095000323040002,1614,-22.0,97,P-GPS,
0.353928905523532,36.9197250284408,24900,2018-04-04 07:06:39,1746.8049630977425,74.9000023968,0.35999970196000003,1.01197003238304,1746.8049630977425,74.9000023968,0.503999582744,1.01197003238304,1614,-22.0,97,P-GPS,
0.353928926054139,36.9197250273121,25000,2018-04-04 07:06:39,1747.2049631105426,75.3000024096,0.35999970196000003,1.0098000323136,1747.2049631105426,75.3000024096,0.503999582744,1.01197003238304,1614,-22.0,97,P-GPS,
0.353928902234075,36.9197250428241,25100,2018-04-04 07:06:39,1747.7049631265425,75.8000024256,0.503999582744,1.01289003241248,1747.7049631265425,75.8000024256,0.503999582744,1.01289003241248,1615,-22.0,97,P-GPS,
0.353928920303697,36.9197250210869,25200,2018-04-04 07:06:39,1748.1049631393425,76.2000024384,0.35999970196000003,1.01014003232448,1748.1049631393425,76.2000024384,0.503999582744,1.01289003241248,1615,-22.0,97,P-GPS,
0.353928924201377,36.9197250281437,25300,2018-04-04 07:06:40,1748.5049631521424,76.6000024512,0.35999970196000003,1.01002003232064,1748.5049631521424,76.6000024512,0.503999582744,1.01289003241248,1614,-22.0,97,P-GPS,
0.353928995429111,36.919725010236,25400,2018-04-04 07:06:40,1748.9049631649425,77.000002464,0.35999970196000003,1.00192003206144,1748.9049631649425,77.000002464,0.503999582744,1.01289003241248,1615,-22.0,97,P-GPS,
0.353929029317437,36.9197250534839,25500,2018-04-04 07:06:40,1749.3049631777424,77.4000024768,0.35999970196000003,1.0001800320057601,1749.3049631777424,77.4000024768,0.503999582744,1.01289003241248,1616,-22.0,97,P-GPS,
0.35392909230443,36.9197250768872,25600,2018-04-04 07:06:40,1749.8049631937424,77.9000024928,0.35999970196000003,0.9946460318286721,1749.8049631937424,77.9000024928,0.503999582744,1.01289003241248,1616,-22.0,97,P-GPS,
0.353929108964633,36.9197251320567,25700,2018-04-04 07:06:40,1750.2049632065423,78.3000025056,0.35999970196000003,0.9952440318478081,1750.2049632065423,78.3000025056,0.503999582744,1.01289003241248,1618,-22.0,97,P-GPS,
0.353929159888112,36.919725145736,25800,2018-04-04 07:06:40,1750.6049632193424,78.70000251840001,0.35999970196000003,0.990591031698912,1750.6049632193424,78.70000251840001,0.503999582744,1.01289003241248,1615,-22.0,97,P-GPS,
0.353929148215426,36.919725202621,25900,2018-04-04 07:06:40,1751.1049632353427,79.20000253440001,0.35999970196000003,0.994231031815392,1751.1049632353427,79.20000253440001,0.503999582744,1.01289003241248,1615,-22.0,97,P-GPS,
0.35392916850136,36.9197252100078,26000,2018-04-04 07:06:40,1751.5049632481425,79.60000254719999,0.503999582744,0.992473031759136,1751.5049632481425,79.60000254719999,0.503999582744,1.01289003241248,1613,-22.0,97,P-GPS,
0.353929136010238,36.9197252434341,26100,2018-04-04 07:06:40,1751.9049632609426,80.00000256,0.503999582744,0.997251031912032,1751.9049632609426,80.00000256,0.503999582744,1.01289003241248,1609,-22.0,97,P-GPS,
0.353929153052719,36.9197252279463,26200,2018-04-04 07:06:41,1752.4049632769425,80.500002576,0.503999582744,0.994833031834656,1752.4049632769425,80.500002576,0.503999582744,1.01289003241248,1586,-22.0,97,P-GPS,
0.353929084655221,36.9197252519635,26400,2018-04-04 07:06:41,1753.2049633025424,81.3000026016,0.503999582744,1.00288003209216,1753.2049633025424,81.3000026016,0.503999582744,1.01289003241248,1454,-22.0,97,P-GPS,
0.353929021260303,36.9197253208749,26500,2018-04-04 07:06:41,1753.7049633185427,81.8000026176,0.503999582744,1.01237003239584,1753.7049633185427,81.8000026176,0.503999582744,1.01289003241248,1024,-22.0,97,P-GPS,
0.353929014031233,36.9197253615287,26600,2018-04-04 07:06:41,1754.1049633313426,82.20000263040001,0.35999970196000003,1.0149000324768,1754.1049633313426,82.20000263040001,0.503999582744,1.0149000324768,1024,-22.0,97,P-GPS,
0.353928936048714,36.9197254739563,26700,2018-04-04 07:06:41,1754.5049633441427,82.60000264320001,0.35999970196000003,1.0278600328915202,1754.5049633441427,82.60000264320001,0.503999582744,1.0278600328915202,1024,-22.0,97,P-GPS,
0.353928901894137,36.9197255392068,26800,2018-04-04 07:06:41,1754.8049633537423,82.9000026528,0.35999970196000003,1.0342900330972802,1754.8049633537423,82.9000026528,0.503999582744,1.0342900330972802,1024,-22.0,97,P-GPS,
0.353928825441134,36.9197256480871,26900,2018-04-04 07:06:41,1755.1049633633424,83.20000266240001,0.35999970196000003,1.04703003350496,1755.1049633633424,83.20000266240001,0.503999582744,1.04703003350496,1024,-22.0,97,P-GPS,
0.353928797248697,36.9197257063265,27000,2018-04-04 07:06:41,1755.2049633665424,83.3000026656,0.0,1.05259003368288,1755.2049633665424,83.3000026656,0.503999582744,1.05259003368288,880,-22.0,97,P-GPS,
0.353928655204006,36.9197258632363,27200,2018-04-04 07:06:42,1755.4049633729426,83.500002672,0.0,1.07429003437728,1755.4049633729426,83.500002672,0.503999582744,1.07429003437728,735,-22.0,97,P-GPS,
0.353928504120636,36.9197260264006,27500,2018-04-04 07:06:42,1755.3049633697426,83.4000026688,0.0,1.09728003511296,1755.4049633729426,83.500002672,0.503999582744,1.09728003511296,665,-22.0,97,P-GPS,
0.353928499737679,36.9197260171219,27600,2018-04-04 07:06:42,1755.3049633697426,83.4000026688,0.0,1.09727003511264,1755.4049633729426,83.500002672,0.503999582744,1.09728003511296,696,-22.0,97,P-GPS,
0.353928496860218,36.9197260139843,27700,2018-04-04 07:06:42,1755.2049633665424,83.3000026656,0.0,1.09741003511712,1755.4049633729426,83.500002672,0.503999582744,1.09741003511712,724,-22.0,97,P-GPS,
0.353928563788859,36.9197259721953,27800,2018-04-04 07:06:42,1755.1049633633424,83.20000266240001,0.0,1.0886900348380801,1755.4049633729426,83.500002672,0.503999582744,1.09741003511712,759,-22.0,97,P-GPS,
0.353928626852796,36.9197259226937,27900,2018-04-04 07:06:42,1755.0049633601425,83.10000265920002,0.35999970196000003,1.07998003455936,1755.4049633729426,83.500002672,0.503999582744,1.09741003511712,875,-22.0,97,P-GPS,
0.353928742851747,36.9197258342729,28000,2018-04-04 07:06:42,1754.9049633569425,83.000002656,0.503999582744,1.06411003405152,1755.4049633729426,83.500002672,0.503999582744,1.09741003511712,900,-22.0,97,P-GPS,
0.353928851418887,36.9197257899537,28100,2018-04-04 07:06:42,1754.8049633537423,82.9000026528,0.503999582744,1.05109003363488,1755.4049633729426,83.500002672,0.503999582744,1.09741003511712,900,-22.0,97,P-GPS,
0.353929005726576,36.9197257330377,28200,2018-04-04 07:06:43,1754.8049633537423,82.9000026528,0.503999582744,1.03287003305184,1755.4049633729426,83.500002672,0.503999582744,1.09741003511712,920,-22.0,97,P-GPS,
0.353929133414498,36.9197256956637,28300,2018-04-04 07:06:43,1754.7049633505424,82.8000026496,0.503999582744,1.01827003258464,1755.4049633729426,83.500002672,0.503999582744,1.09741003511712,920,-22.0,97,P-GPS,
0.353929302960759,36.9197256110554,28400,2018-04-04 07:06:43,1754.7049633505424,82.8000026496,0.503999582744,0.9972010319104321,1755.4049633729426,83.500002672,0.503999582744,1.09741003511712,824,-22.0,97,P-GPS,
0.353929411689522,36.9197255715676,28500,2018-04-04 07:06:43,1754.7049633505424,82.8000026496,0.503999582744,0.984402031500864,1755.4049633729426,83.500002672,0.503999582744,1.09741003511712,789,-22.0,97,P-GPS,
0.353929548930304,36.9197255032605,28600,2018-04-04 07:06:43,1754.6049633473426,82.70000264640001,0.503999582744,0.96735503095536,1755.4049633729426,83.500002672,0.503999582744,1.09741003511712,789,-22.0,97,P-GPS,
0.353929609989626,36.9197254948249,28700,2018-04-04 07:06:43,1754.6049633473426,82.70000264640001,0.503999582744,0.960833030746656,1755.4049633729426,83.500002672,0.503999582744,1.09741003511712,735,-22.0,97,P-GPS,
0.353929713572506,36.9197254519247,28800,2018-04-04 07:06:43,1754.6049633473426,82.70000264640001,0.7919993443119999,0.9483860303483521,1755.4049633729426,83.500002672,0.7919993443119999,1.09741003511712,713,-22.0,97,P-GPS,
0.353929755257008,36.9197254780196,28900,2018-04-04 07:06:43,1754.5049633441427,82.60000264320001,0.7919993443119999,0.945494030255808,1755.4049633729426,83.500002672,0.7919993443119999,1.09741003511712,748,-22.0,97,P-GPS,
0.353929856333306,36.9197254621924,29000,2018-04-04 07:06:43,1754.4049633409425,82.50000264,0.7919993443119999,0.93463502990832,1755.4049633729426,83.500002672,0.7919993443119999,1.09741003511712,847,-22.0,97,P-GPS,
0.353929855354204,36.9197255104117,29100,2018-04-04 07:06:43,1754.3049633377425,82.4000026368,0.7919993443119999,0.937126029988032,1755.4049633729426,83.500002672,0.7919993443119999,1.09741003511712,923,-22.0,97,P-GPS,
0.353929893365751,36.9197255116569,29200,2018-04-04 07:06:43,1754.3049633377425,82.4000026368,0.503999582744,0.933413029869216,1755.4049633729426,83.500002672,0.7919993443119999,1.09741003511712,945,-22.0,97,P-GPS,
0.353929853301143,36.919725574899,29300,2018-04-04 07:06:44,1754.2049633345425,82.3000026336,0.503999582744,0.9405690300982081,1755.4049633729426,83.500002672,0.7919993443119999,1.09741003511712,1005,-22.0,97,P-GPS,
0.353929881743953,36.9197255857967,29400,2018-04-04 07:06:44,1754.2049633345425,82.3000026336,0.503999582744,0.938306030025792,1755.4049633729426,83.500002672,0.7919993443119999,1.09741003511712,1024,-22.0,97,P-GPS,
0.353929826060939,36.9197256608352,29500,2018-04-04 07:06:44,1754.2049633345425,82.3000026336,0.503999582744,0.947639030324448,1755.4049633729426,83.500002672,0.7919993443119999,1.09741003511712,1024,-22.0,97,P-GPS,
0.353929832632525,36.9197256873652,29600,2018-04-04 07:06:44,1754.2049633345425,82.3000026336,0.503999582744,0.948357030347424,1755.4049633729426,83.500002672,0.7919993443119999,1.09741003511712,1024,-22.0,97,P-GPS,
0.35392974740913,36.9197257757373,29700,2018-04-04 07:06:44,1754.2049633345425,82.3000026336,0.503999582744,0.961322030762304,1755.4049633729426,83.500002672,0.7919993443119999,1.09741003511712,1024,-22.0,97,P-GPS,
0.353929725311145,36.9197258094944,29800,2018-04-04 07:06:44,1754.2049633345425,82.3000026336,0.503999582744,0.965253030888096,1755.4049633729426,83.500002672,0.7919993443119999,1.09741003511712,1024,-22.0,97,P-GPS,
0.353929617669775,36.9197259221596,29900,2018-04-04 07:06:44,1754.2049633345425,82.3000026336,0.503999582744,0.9817230314151361,1755.4049633729426,83.500002672,0.7919993443119999,1.09741003511712,1024,-22.0,97,P-GPS,
0.353929578806959,36.9197259828874,30000,2018-04-04 07:06:44,1754.2049633345425,82.3000026336,0.503999582744,0.9887410316397119,1755.4049633729426,83.500002672,0.7919993443119999,1.09741003511712,966,-22.0,97,P-GPS,
0.353929429953743,36.9197261177937,30100,2018-04-04 07:06:44,1754.2049633345425,82.3000026336,0.503999582744,1.0104700323350402,1755.4049633729426,83.500002672,0.7919993443119999,1.09741003511712,856,-22.0,97,P-GPS,
0.35392934256696,36.9197261907806,30200,2018-04-04 07:06:45,1754.1049633313426,82.20000263040001,0.503999582744,1.0229000327328,1755.4049633729426,83.500002672,0.7919993443119999,1.09741003511712,753,-22.0,97,P-GPS,
0.353929169349372,36.9197263306708,30300,2018-04-04 07:06:45,1754.1049633313426,82.20000263040001,0.503999582744,1.0473000335136,1755.4049633729426,83.500002672,0.7919993443119999,1.09741003511712,726,-22.0,97,P-GPS,
0.353929062587362,36.9197264204664,30400,2018-04-04 07:06:45,1754.1049633313426,82.20000263040001,0.503999582744,1.06254003400128,1755.4049633729426,83.500002672,0.7919993443119999,1.09741003511712,652,-22.0,97,P-GPS,
0.353928779756359,36.9197266785389,30600,2018-04-04 07:06:45,1754.0049633281424,82.10000262720001,0.503999582744,1.1040700353302402,1755.4049633729426,83.500002672,0.7919993443119999,1.1040700353302402,630,-22.0,97,P-GPS,
0.353928606892958,36.91972683031,30700,2018-04-04 07:06:45,1753.9049633249424,82.000002624,0.35999970196000003,1.12916003613312,1755.4049633729426,83.500002672,0.7919993443119999,1.12916003613312,684,-22.0,97,P-GPS,
0.353928294470685,36.9197270935338,30900,2018-04-04 07:06:45,1753.7049633185427,81.8000026176,0.35999970196000003,1.17394003756608,1755.4049633729426,83.500002672,0.7919993443119999,1.17394003756608,708,-22.0,97,P-GPS,
0.353928187752643,36.9197271826885,31000,2018-04-04 07:06:45,1753.6049633153425,81.7000026144,0.35999970196000003,1.1892000380544,1755.4049633729426,83.500002672,0.7919993443119999,1.1892000380544,739,-22.0,97,P-GPS,
