latitude,longitude,time_millisecond,datetime_utc,altitude_m,ascent_m,speed_kph,distance_m,max_altitude_m,max_ascent_m,max_speed_kph,max_distance_m,rc_throttle,gimbal_pitch_degrees,battery_percent,flycState,message
0.350453079881089,36.8961519396905,100,2018-04-05 06:03:18,1765.4362136939426,0.0,0.0,0.0,1765.4362136939426,0.0,0.0,0.0,364,0.0,99,Motors_Started,
0.35045307940354803,36.8961519368224,200,2018-04-05 06:03:18,1765.4362136939426,0.0,0.0,0.000323338010346816,1765.4362136939426,0.0,0.0,0.000323338010346816,364,0.0,99,Motors_Started,
0.35045307881079396,36.8961519296601,300,2018-04-05 06:03:18,1765.4362136939426,0.0,0.0,0.0011217600358963203,1765.4362136939426,0.0,0.0,0.0011217600358963203,364,0.0,99,Motors_Started,
0.35045307734153097,36.8961519262759,400,2018-04-05 06:03:18,1765.4362136939426,0.0,0.0,0.001518250048584,1765.4362136939426,0.0,0.0,0.001518250048584,364,0.0,99,Motors_Started,
0.35045307696739597,36.8961519418975,500,2018-04-05 06:03:19,1765.4362136939426,0.0,0.0,0.00040648001300736,1765.4362136939426,0.0,0.0,0.001518250048584,364,0.0,99,Motors_Started,
0.350453074516994,36.896151968705794,600,2018-04-05 06:03:19,1765.4362136939426,0.0,0.0,0.0032813001050016003,1765.4362136939426,0.0,0.0,0.0032813001050016003,364,0.0,99,Motors_Started,
0.35045307413431,36.896151995109996,700,2018-04-05 06:03:19,1765.4362136939426,0.0,0.0,0.0061959101982691205,1765.4362136939426,0.0,0.0,0.0061959101982691205,364,0.0,99,Motors_Started,
0.35045307142865,36.896152012399604,800,2018-04-05 06:03:19,1765.4362136939426,0.0,0.0,0.00813999026047968,1765.4362136939426,0.0,0.0,0.00813999026047968,364,0.0,99,Motors_Started,Setting new Return-To-Home altitude to 45m (148 ft). Setting new Maximum Flight Altitude to 150m (492 ft)
0.350453070394181,36.896152025785206,900,2018-04-05 06:03:19,1765.4362136939426,0.0,0.0,0.009632030308224961,1765.4362136939426,0.0,0.0,0.009632030308224961,364,0.0,99,Motors_Started,
0.35045306773859597,36.896152034851106,1000,2018-04-05 06:03:19,1765.4362136939426,0.0,0.0,0.010668000341376,1765.4362136939426,0.0,0.0,0.010668000341376,364,0.0,99,Motors_Started,
0.350453089105817,36.896152038878704,1100,2018-04-05 06:03:19,1765.4362136939426,0.0,0.0,0.011077700354486401,1765.4362136939426,0.0,0.0,0.011077700354486401,364,0.0,99,Motors_Started,
0.350453120933348,36.8961520416617,1200,2018-04-05 06:03:19,1765.4362136939426,0.0,0.0,0.012224100391171201,1765.4362136939426,0.0,0.0,0.012224100391171201,364,0.0,99,Motors_Started,
0.3504531294896,36.8961520395815,1300,2018-04-05 06:03:19,1765.4362136939426,0.0,0.0,0.0124028003968896,1765.4362136939426,0.0,0.0,0.0124028003968896,364,0.0,99,Motors_Started,
0.350453120498553,36.896152038833705,1400,2018-04-05 06:03:19,1765.4362136939426,0.0,0.0,0.011914500381264001,1765.4362136939426,0.0,0.0,0.0124028003968896,364,0.0,99,Motors_Started,
0.35045310443273203,36.8961520327757,1500,2018-04-05 06:03:20,1765.4362136939426,0.0,0.0,0.010705500342576,1765.4362136939426,0.0,0.0,0.0124028003968896,364,0.0,99,Motors_Started,
0.35045310020732695,36.89615203075179,1600,2018-04-05 06:03:20,1765.4362136939426,0.0,0.0,0.010375600332019199,1765.4362136939426,0.0,0.0,0.0124028003968896,364,0.0,99,Assisted_Takeoff,
0.35045309572625605,36.896152025152,1700,2018-04-05 06:03:20,1765.4362136939426,0.0,0.0,0.00966564030930048,1765.4362136939426,0.0,0.0,0.0124028003968896,364,0.0,99,Assisted_Takeoff,
0.350453093205018,36.8961520212315,1800,2018-04-05 06:03:20,1765.4362136939426,0.0,0.0,0.00918794029401408,1765.4362136939426,0.0,0.0,0.0124028003968896,364,0.0,99,Assisted_Takeoff,
0.35045308986182205,36.8961520375875,1900,2018-04-05 06:03:20,1765.4362136939426,0.0,0.0,0.010943000350175999,1765.4362136939426,0.0,0.0,0.0124028003968896,364,0.0,99,Assisted_Takeoff,
0.350453089059406,36.896152063762,2000,2018-04-05 06:03:20,1765.4362136939426,0.0,0.0,0.01383500044272,1765.4362136939426,0.0,0.0,0.01383500044272,364,0.0,99,Assisted_Takeoff,
0.35045310836420296,36.896152089546796,2100,2018-04-05 06:03:20,1765.4362136939426,0.0,0.0,0.016963000542816003,1765.4362136939426,0.0,0.0,0.016963000542816003,364,0.0,99,Assisted_Takeoff,
0.350453139572111,36.8961521059575,2200,2018-04-05 06:03:20,1765.4362136939426,0.0,0.0,0.01964500062864,1765.4362136939426,0.0,0.0,0.01964500062864,364,0.0,99,Assisted_Takeoff,
0.3504531463541731,36.896152118587295,2300,2018-04-05 06:03:20,1765.4362136939426,0.0,0.0,0.021223000679136003,1765.4362136939426,0.0,0.0,0.021223000679136003,849,0.0,99,Assisted_Takeoff,
0.350453137377375,36.8961521268721,2400,2018-04-05 06:03:20,1765.4362136939426,0.0,0.0,0.0217752006968064,1765.4362136939426,0.0,0.0,0.0217752006968064,1024,0.0,99,Assisted_Takeoff,
0.350453144082086,36.8961521300689,2500,2018-04-05 06:03:21,1765.4362136939426,0.0,0.0,0.022342300714953602,1765.4362136939426,0.0,0.0,0.022342300714953602,1024,0.0,99,Assisted_Takeoff,
0.35045316761920897,36.8961521323343,2600,2018-04-05 06:03:21,1765.4362136939426,0.0,0.0,0.0235401007532832,1765.4362136939426,0.0,0.0,0.0235401007532832,1024,0.0,99,Assisted_Takeoff,
0.35045318731279607,36.896152130524996,2700,2018-04-05 06:03:21,1765.4362136939426,0.0,0.0,0.0243534007793088,1765.4362136939426,0.0,0.0,0.0243534007793088,1024,0.0,99,Assisted_Takeoff,
0.35045320215646997,36.8961521295149,2800,2018-04-05 06:03:21,1765.4362136939426,0.0,0.0,0.025109700803510403,1765.4362136939426,0.0,0.0,0.025109700803510403,1024,0.0,99,Assisted_Takeoff,
0.350453211277385,36.896152124922,2900,2018-04-05 06:03:21,1765.4362136939426,0.0,0.0,0.025254900808156802,1765.4362136939426,0.0,0.0,0.025254900808156802,1024,0.0,99,Assisted_Takeoff,
0.350453217945863,36.8961521227209,3000,2018-04-05 06:03:21,1765.4362136939426,0.0,0.0,0.0254953008158496,1765.4362136939426,0.0,0.0,0.0254953008158496,1024,0.0,99,Assisted_Takeoff,
0.35045321968463505,36.8961521375401,3100,2018-04-05 06:03:21,1765.4362136939426,0.0,0.0,0.026940400862092803,1765.4362136939426,0.0,0.0,0.026940400862092803,1024,0.0,99,Assisted_Takeoff,
0.350453220951971,36.8961521653162,3200,2018-04-05 06:03:21,1765.4362136939426,0.0,0.0,0.0295913009469216,1765.4362136939426,0.0,0.0,0.0295913009469216,1024,0.0,99,Assisted_Takeoff,
0.350453218371294,36.8961521938551,3300,2018-04-05 06:03:21,1765.4362136939426,0.0,0.0,0.032187701030006406,1765.4362136939426,0.0,0.0,0.032187701030006406,1024,0.0,99,Assisted_Takeoff,
0.35045321734944607,36.896152211093295,3400,2018-04-05 06:03:22,1765.4362136939426,0.0,0.0,0.033831901082620804,1765.4362136939426,0.0,0.0,0.033831901082620804,1024,0.0,99,Assisted_Takeoff,
0.350453213860097,36.896152225154,3500,2018-04-05 06:03:22,1765.4362136939426,0.0,0.0,0.0350673011221536,1765.4362136939426,0.0,0.0,0.0350673011221536,1024,0.0,99,Assisted_Takeoff,
0.35045321148908304,36.896152234321,3600,2018-04-05 06:03:22,1765.4362136939426,0.0,0.0,0.035884401148300805,1765.4362136939426,0.0,0.0,0.035884401148300805,1024,0.0,99,Assisted_Takeoff,
0.35045320678573,36.8961522386216,3700,2018-04-05 06:03:22,1765.4362136939426,0.0,0.0,0.036114001155648,1765.4362136939426,0.0,0.0,0.036114001155648,1024,0.0,99,Assisted_Takeoff,
0.350453204818976,36.8961522422311,3800,2018-04-05 06:03:22,1765.4362136939426,0.0,0.0,0.036399701164790396,1765.4362136939426,0.0,0.0,0.036399701164790396,1024,0.0,99,Assisted_Takeoff,
0.35045320133573493,36.896152261976106,3900,2018-04-05 06:03:22,1765.4362136939426,0.0,0.0,0.0383000012256,1765.4362136939426,0.0,0.0,0.0383000012256,1024,0.0,99,Assisted_Takeoff,
0.350453200383095,36.8961522913924,4000,2018-04-05 06:03:22,1765.4362136939426,0.0,0.0,0.041342701322966406,1765.4362136939426,0.0,0.0,0.041342701322966406,1024,0.0,99,Assisted_Takeoff,
0.35045319814887005,36.89615231679821,4100,2018-04-05 06:03:22,1765.4362136939426,0.0,0.0,0.0439499014063968,1765.4362136939426,0.0,0.0,0.0439499014063968,1049,0.0,99,Assisted_Takeoff,
0.35045319880961107,36.896152332766206,4200,2018-04-05 06:03:22,1765.4362136939426,0.0,0.0,0.0456686014613952,1765.4362136939426,0.0,0.0,0.0456686014613952,1123,0.0,99,Assisted_Takeoff,
0.35045319841104905,36.8961523424695,4300,2018-04-05 06:03:22,1765.4362136939426,0.0,0.0,0.0466899014940768,1765.4362136939426,0.0,0.0,0.0466899014940768,1181,0.0,99,Assisted_Takeoff,
0.350453199354325,36.896152349084204,4400,2018-04-05 06:03:22,1765.4362136939426,0.0,0.0,0.047425301517609604,1765.4362136939426,0.0,0.0,0.047425301517609604,1220,0.0,99,Assisted_Takeoff,
0.35045319969752,36.8961523488706,4500,2018-04-05 06:03:23,1765.4362136939426,0.0,0.0,0.047413201517222406,1765.4362136939426,0.0,0.0,0.047425301517609604,1279,0.0,99,Assisted_Takeoff,
0.35045319947035203,36.896152348704206,4600,2018-04-05 06:03:23,1765.4362136939426,0.0,0.0,0.0473883015164256,1765.4362136939426,0.0,0.0,0.047425301517609604,1328,0.0,99,Assisted_Takeoff,
0.350453197738095,36.8961523421382,4700,2018-04-05 06:03:23,1765.4362136939426,0.0,0.0,0.046633501492272,1765.4362136939426,0.0,0.0,0.047425301517609604,1346,0.0,99,Assisted_Takeoff,
0.350453181363276,36.8961523365652,4800,2018-04-05 06:03:23,1765.4362136939426,0.0,0.0,0.0455541014577312,1765.4362136939426,0.0,0.0,0.047425301517609604,1358,0.0,99,Assisted_Takeoff,
0.35045310969667703,36.896152346240704,4900,2018-04-05 06:03:23,1765.4362136939426,0.0,0.0,0.045331401450604804,1765.4362136939426,0.0,0.0,0.047425301517609604,1389,0.0,99,Assisted_Takeoff,
0.35045301254370803,36.8961523729361,5000,2018-04-05 06:03:23,1765.4362136939426,0.0,0.0,0.0487571015602272,1765.4362136939426,0.0,0.0,0.0487571015602272,1402,0.0,99,P-GPS,Obstacle Avoided. Revise Flight Route
0.350452874665391,36.8961524215321,5100,2018-04-05 06:03:23,1765.4362136939426,0.0,0.35999970196000003,0.058240201863686406,1765.4362136939426,0.0,0.35999970196000003,0.058240201863686406,1429,0.0,99,P-GPS,
0.350452727926709,36.8961524747311,5200,2018-04-05 06:03:23,1765.5362136971426,0.10000000320000002,0.35999970196000003,0.0712179022789728,1765.5362136971426,0.10000000320000002,0.35999970196000003,0.0712179022789728,1460,0.0,99,P-GPS,
0.35045259099696,36.8961525216008,5300,2018-04-05 06:03:23,1765.6362137003425,0.20000000640000004,0.35999970196000003,0.08451770270456642,1765.6362137003425,0.20000000640000004,0.35999970196000003,0.08451770270456642,1474,0.0,99,P-GPS,
0.350452477428462,36.896152552534105,5400,2018-04-05 06:03:23,1765.7362137035427,0.3000000096,0.35999970196000003,0.0955669030581408,1765.7362137035427,0.3000000096,0.35999970196000003,0.0955669030581408,1508,0.0,99,P-GPS,
0.35045236176822697,36.8961525703173,5500,2018-04-05 06:03:24,1765.9362137099426,0.500000016,0.0,0.10628000340096001,1765.9362137099426,0.500000016,0.35999970196000003,0.10628000340096001,1539,0.0,99,P-GPS,
0.350452267745942,36.8961525716041,5600,2018-04-05 06:03:24,1766.1362137163428,0.7000000224000001,0.0,0.11443200366182402,1766.1362137163428,0.7000000224000001,0.35999970196000003,0.11443200366182402,1558,0.0,99,P-GPS,
0.35045218361034697,36.8961525506027,5700,2018-04-05 06:03:24,1766.3362137227425,0.9000000288000001,0.0,0.12062200385990401,1766.3362137227425,0.9000000288000001,0.35999970196000003,0.12062200385990401,1599,0.0,99,P-GPS,
0.35045211846729496,36.8961525263264,5800,2018-04-05 06:03:24,1766.6362137323426,1.2000000384,0.0,0.12524600400787203,1766.6362137323426,1.2000000384,0.35999970196000003,0.12524600400787203,1627,0.0,99,P-GPS,Home Point Recorded. RTH Altitude:  45m.
0.35045206207020807,36.8961524987248,5900,2018-04-05 06:03:24,1766.9362137419428,1.5000000480000002,0.0,0.12913500413232,1766.9362137419428,1.5000000480000002,0.35999970196000003,0.12913500413232,1668,0.0,99,P-GPS,
0.350452020515981,36.896152478211604,6000,2018-04-05 06:03:24,1767.3362137547426,1.9000000607999998,0.0,0.13215500422896,1767.3362137547426,1.9000000607999998,0.35999970196000003,0.13215500422896,1668,0.0,99,P-GPS,
0.35045197393922606,36.89615246575521,6100,2018-04-05 06:03:24,1767.7362137675427,2.3000000736,0.0,0.136192004358144,1767.7362137675427,2.3000000736,0.35999970196000003,0.136192004358144,1684,0.0,99,P-GPS,
0.35045191905537104,36.896152462726,6200,2018-04-05 06:03:24,1768.1362137803426,2.7000000863999998,0.0,0.14158900453084802,1768.1362137803426,2.7000000863999998,0.35999970196000003,0.14158900453084802,1684,0.0,99,P-GPS,
0.35045185459789296,36.896152467410396,6300,2018-04-05 06:03:24,1768.6362137963426,3.2000001024000007,0.0,0.148359004747488,1768.6362137963426,3.2000001024000007,0.35999970196000003,0.148359004747488,1684,0.0,99,P-GPS,
0.3504517849106681,36.8961524643891,6400,2018-04-05 06:03:24,1769.1362138123427,3.7000001184,0.0,0.15538000497216,1769.1362138123427,3.7000001184,0.35999970196000003,0.15538000497216,1684,0.0,99,P-GPS,
0.35045172409032,36.8961524521164,6500,2018-04-05 06:03:25,1769.6362138283428,4.2000001344,0.0,0.161181005157792,1769.6362138283428,4.2000001344,0.35999970196000003,0.161181005157792,1684,0.0,99,P-GPS,
0.35045167024785495,36.8961524285156,6600,2018-04-05 06:03:25,1770.1362138443426,4.700000150400001,0.0,0.16591700530934403,1770.1362138443426,4.700000150400001,0.35999970196000003,0.16591700530934403,1684,0.0,99,P-GPS,
0.35045162425896803,36.8961523979286,6700,2018-04-05 06:03:25,1770.6362138603424,5.200000166400001,0.0,0.16970500543056,1770.6362138603424,5.200000166400001,0.35999970196000003,0.16970500543056,1684,0.0,99,P-GPS,
0.35045158040782104,36.89615238510179,6800,2018-04-05 06:03:25,1771.1362138763427,5.7000001824,0.0,0.17395200556646404,1771.1362138763427,5.7000001824,0.35999970196000003,0.17395200556646404,1684,0.0,99,P-GPS,
0.35045151803678803,36.8961523920623,6900,2018-04-05 06:03:25,1771.6362138923425,6.2000001984,0.0,0.1808250057864,1771.6362138923425,6.2000001984,0.35999970196000003,0.1808250057864,1684,0.0,99,P-GPS,
0.350451442357703,36.896152396767505,7000,2018-04-05 06:03:25,1772.0362139051426,6.6000002112,0.0,0.189063006050016,1772.0362139051426,6.6000002112,0.35999970196000003,0.189063006050016,1684,0.0,99,P-GPS,
0.350451368038775,36.8961523841452,7100,2018-04-05 06:03:25,1772.5362139211425,7.100000227200002,0.0,0.19667900629372803,1772.5362139211425,7.100000227200002,0.35999970196000003,0.19667900629372803,1684,0.0,99,P-GPS,
0.35045130126687196,36.8961523685718,7200,2018-04-05 06:03:25,1773.0362139371427,7.600000243199999,0.0,0.203462006510784,1773.0362139371427,7.600000243199999,0.35999970196000003,0.203462006510784,1684,0.0,99,P-GPS,
0.350451221067226,36.8961523468772,7300,2018-04-05 06:03:25,1773.5362139531426,8.1000002592,0.0,0.211613006771616,1773.5362139531426,8.1000002592,0.35999970196000003,0.211613006771616,1684,0.0,99,P-GPS,
0.35045113638651,36.896152317024104,7400,2018-04-05 06:03:25,1774.0362139691426,8.6000002752,0.0,0.22016400704524802,1774.0362139691426,8.6000002752,0.35999970196000003,0.22016400704524802,1684,0.0,99,P-GPS,
0.35045105860551096,36.8961522883316,7500,2018-04-05 06:03:26,1774.4362139819425,9.000000287999999,0.0,0.228097007299104,1774.4362139819425,9.000000287999999,0.35999970196000003,0.228097007299104,1684,0.0,99,P-GPS,
0.350450998668187,36.8961522774623,7600,2018-04-05 06:03:26,1774.9362139979428,9.500000304,0.0,0.23447200750310404,1774.9362139979428,9.500000304,0.35999970196000003,0.23447200750310404,1684,0.0,99,P-GPS,
0.350450929018009,36.8961522712234,7700,2018-04-05 06:03:26,1775.4362140139426,10.00000032,0.0,0.242014007744448,1775.4362140139426,10.00000032,0.35999970196000003,0.242014007744448,1684,0.0,99,P-GPS,
0.35045085815891497,36.8961522706389,7800,2018-04-05 06:03:26,1775.9362140299424,10.500000336,0.0,0.24979500799344004,1775.9362140299424,10.500000336,0.35999970196000003,0.24979500799344004,1684,0.0,99,P-GPS,
0.350450786869097,36.896152273832506,7900,2018-04-05 06:03:26,1776.3362140427425,10.9000003488,0.0,0.25769000824607996,1776.3362140427425,10.9000003488,0.35999970196000003,0.25769000824607996,1684,0.0,99,P-GPS,
0.350450725901375,36.8961522815943,8000,2018-04-05 06:03:26,1776.8362140587428,11.4000003648,0.0,0.26452400846476803,1776.8362140587428,11.4000003648,0.35999970196000003,0.26452400846476803,1684,0.0,99,P-GPS,
0.350450657286684,36.8961523015449,8100,2018-04-05 06:03:26,1777.3362140747427,11.900000380800002,0.0,0.272396008716672,1777.3362140747427,11.900000380800002,0.35999970196000003,0.272396008716672,1684,0.0,99,P-GPS,
0.350450596730958,36.896152328248796,8200,2018-04-05 06:03:26,1777.8362140907425,12.4000003968,0.0,0.279502008944064,1777.8362140907425,12.4000003968,0.35999970196000003,0.279502008944064,1684,0.0,99,P-GPS,
0.35045054524647995,36.8961523513721,8300,2018-04-05 06:03:26,1778.2362141035426,12.800000409600003,0.0,0.28556000913792007,1778.2362141035426,12.800000409600003,0.35999970196000003,0.28556000913792007,1684,0.0,99,P-GPS,
0.350450510868195,36.896152359879,8400,2018-04-05 06:03:26,1778.7362141195426,13.3000004256,0.0,0.289486009263552,1778.7362141195426,13.3000004256,0.35999970196000003,0.289486009263552,1684,0.0,99,P-GPS,
0.350450469439765,36.896152357236794,8500,2018-04-05 06:03:27,1779.2362141355427,13.8000004416,0.0,0.293987009407584,1779.2362141355427,13.8000004416,0.35999970196000003,0.293987009407584,1684,0.0,99,P-GPS,
0.350450431381808,36.8961523537477,8600,2018-04-05 06:03:27,1779.7362141515425,14.300000457600001,0.0,0.298107009539424,1779.7362141515425,14.300000457600001,0.35999970196000003,0.298107009539424,1684,0.0,99,P-GPS,
0.35045040673714006,36.8961523500263,8700,2018-04-05 06:03:27,1780.2362141675428,14.8000004736,0.0,0.300752009624064,1780.2362141675428,14.8000004736,0.35999970196000003,0.300752009624064,1684,0.0,99,P-GPS,
0.350450393117852,36.8961523548028,8800,2018-04-05 06:03:27,1780.8362141867426,15.4000004928,0.0,0.302329009674528,1780.8362141867426,15.4000004928,0.35999970196000003,0.302329009674528,1684,0.0,99,P-GPS,
0.350450364171853,36.8961523793634,8900,2018-04-05 06:03:27,1781.3362142027424,15.900000508800002,0.0,0.305936009789952,1781.3362142027424,15.900000508800002,0.35999970196000003,0.305936009789952,1684,0.0,99,P-GPS,
0.35045031865033,36.8961524180938,9000,2018-04-05 06:03:27,1781.8362142187427,16.400000524800003,0.0,0.31164000997248004,1781.8362142187427,16.400000524800003,0.35999970196000003,0.31164000997248004,1684,0.0,99,P-GPS,
0.350450261442685,36.89615245081129,9100,2018-04-05 06:03:27,1782.4362142379425,17.000000544000002,0.0,0.31854001019328004,1782.4362142379425,17.000000544000002,0.35999970196000003,0.31854001019328004,1684,0.0,99,P-GPS,
0.35045019790365,36.8961524660379,9200,2018-04-05 06:03:27,1782.9362142539428,17.50000056,0.0,0.325794010425408,1782.9362142539428,17.50000056,0.35999970196000003,0.325794010425408,1684,0.0,99,P-GPS,
0.350450059087959,36.8961525052356,9400,2018-04-05 06:03:27,1784.0362142891424,18.6000005952,0.0,0.34176701093654394,1784.0362142891424,18.6000005952,0.35999970196000003,0.34176701093654394,1684,0.0,99,P-GPS,
0.35045000490392797,36.8961525065161,9500,2018-04-05 06:03:28,1784.6362143083427,19.2000006144,0.0,0.3477170111269439,1784.6362143083427,19.2000006144,0.35999970196000003,0.3477170111269439,1684,0.0,99,P-GPS,
0.35044996610055,36.8961525037202,9600,2018-04-05 06:03:28,1785.1362143243425,19.7000006304,0.0,0.35190601126099197,1785.1362143243425,19.7000006304,0.35999970196000003,0.35190601126099197,1684,0.0,99,P-GPS,
0.350449953044907,36.8961525185159,9700,2018-04-05 06:03:28,1785.6362143403428,20.200000646400003,0.0,0.35363101131619196,1785.6362143403428,20.200000646400003,0.35999970196000003,0.35363101131619196,1684,0.0,99,P-GPS,
0.35044994534460605,36.896152547845396,9800,2018-04-05 06:03:28,1786.2362143595426,20.800000665600002,0.0,0.355079011362528,1786.2362143595426,20.800000665600002,0.35999970196000003,0.355079011362528,1684,0.0,99,P-GPS,
0.35044993366153904,36.896152570255204,9900,2018-04-05 06:03:28,1786.7362143755427,21.300000681600004,0.0,0.35683601141875204,1786.7362143755427,21.300000681600004,0.35999970196000003,0.35683601141875204,1684,0.0,99,P-GPS,
0.35044991368765505,36.8961525855893,10000,2018-04-05 06:03:28,1787.2362143915427,21.8000006976,0.0,0.359351011499232,1787.2362143915427,21.8000006976,0.35999970196000003,0.359351011499232,1684,0.0,99,P-GPS,
0.35044987881228806,36.8961526067053,10100,2018-04-05 06:03:28,1787.8362144107425,22.400000716800005,0.0,0.363624011635968,1787.8362144107425,22.400000716800005,0.35999970196000003,0.363624011635968,1684,0.0,99,P-GPS,
0.35044977910144104,36.8961526395935,10300,2018-04-05 06:03:28,1788.8362144427426,23.400000748800004,0.0,0.37522801200729605,1788.8362144427426,23.400000748800004,0.35999970196000003,0.37522801200729605,1684,0.0,99,P-GPS,
0.350449719482681,36.896152642437,10400,2018-04-05 06:03:28,1789.3362144587425,23.9000007648,0.0,0.381781012216992,1789.3362144587425,23.9000007648,0.35999970196000003,0.381781012216992,1684,0.0,99,P-GPS,
0.350449654992838,36.8961526462504,10500,2018-04-05 06:03:29,1789.8362144747427,24.4000007808,0.0,0.38888901244444796,1789.8362144747427,24.4000007808,0.35999970196000003,0.38888901244444796,1684,0.0,99,P-GPS,
0.350449610953606,36.896152656433394,10600,2018-04-05 06:03:29,1790.3362144907426,24.9000007968,0.0,0.39391401260524805,1790.3362144907426,24.9000007968,0.35999970196000003,0.39391401260524805,1684,0.0,99,P-GPS,
0.350449570838924,36.8961526805754,10700,2018-04-05 06:03:29,1790.8362145067426,25.400000812800002,0.0,0.39883001276255997,1790.8362145067426,25.400000812800002,0.35999970196000003,0.39883001276255997,1684,0.0,99,P-GPS,
0.35044954523428806,36.8961527169334,10800,2018-04-05 06:03:29,1791.3362145227427,25.900000828800003,0.0,0.40246501287888004,1791.3362145227427,25.900000828800003,0.35999970196000003,0.40246501287888004,1684,0.0,99,P-GPS,
0.350449538554818,36.8961527643031,10900,2018-04-05 06:03:29,1791.9362145419427,26.500000848000003,0.0,0.404352012939264,1791.9362145419427,26.500000848000003,0.35999970196000003,0.404352012939264,1684,0.0,99,P-GPS,
0.35044955143418105,36.896152799282106,11000,2018-04-05 06:03:29,1792.4362145579425,27.000000864000004,0.0,0.40386001292352,1792.4362145579425,27.000000864000004,0.35999970196000003,0.404352012939264,1684,0.0,99,P-GPS,
0.350449553763467,36.8961528185218,11100,2018-04-05 06:03:29,1792.9362145739426,27.50000088,0.0,0.404121012931872,1792.9362145739426,27.50000088,0.35999970196000003,0.404352012939264,1684,0.0,99,P-GPS,
0.350449548246706,36.896152816599106,11200,2018-04-05 06:03:29,1793.4362145899427,28.000000896,0.0,0.40466501294928,1793.4362145899427,28.000000896,0.35999970196000003,0.40466501294928,1684,0.0,99,P-GPS,
0.35044954031231607,36.896152804755,11300,2018-04-05 06:03:29,1793.9362146059425,28.500000912,0.0,0.405206012966592,1793.9362146059425,28.500000912,0.35999970196000003,0.405206012966592,1684,0.0,99,P-GPS,
0.350449535773843,36.8961527862963,11400,2018-04-05 06:03:29,1794.4362146219428,29.000000928,0.0,0.40521501296688006,1794.4362146219428,29.000000928,0.35999970196000003,0.40521501296688006,1684,0.0,99,P-GPS,
0.350449513686442,36.8961527586444,11500,2018-04-05 06:03:30,1794.9362146379426,29.500000944,0.0,0.40690501302096005,1794.9362146379426,29.500000944,0.35999970196000003,0.40690501302096005,1684,0.0,99,P-GPS,
0.35044949533184305,36.8961527292854,11600,2018-04-05 06:03:30,1795.4362146539427,30.00000096,0.0,0.40818001306176,1795.4362146539427,30.00000096,0.35999970196000003,0.40818001306176,1684,0.0,99,P-GPS,
0.35044948823467703,36.8961526934905,11700,2018-04-05 06:03:30,1795.9362146699427,30.500000976,0.0,0.40811501305968,1795.9362146699427,30.500000976,0.35999970196000003,0.40818001306176,1684,0.0,99,P-GPS,
0.350449498537231,36.8961526637643,11800,2018-04-05 06:03:30,1796.4362146859428,31.000000992,0.0,0.40632501300240004,1796.4362146859428,31.000000992,0.35999970196000003,0.40818001306176,1684,0.0,99,P-GPS,
0.350449552525849,36.896152655729,11900,2018-04-05 06:03:30,1796.9362147019426,31.500001007999998,0.0,0.400264012808448,1796.9362147019426,31.500001007999998,0.35999970196000003,0.40818001306176,1684,0.0,99,P-GPS,
0.3504496317983,36.896152662857,12000,2018-04-05 06:03:30,1797.4362147179424,32.000001024,0.0,0.39179001253727996,1797.4362147179424,32.000001024,0.35999970196000003,0.40818001306176,1684,0.0,99,P-GPS,
0.350449700489732,36.8961526750094,12100,2018-04-05 06:03:30,1798.0362147371427,32.6000010432,0.0,0.38460201230726393,1798.0362147371427,32.6000010432,0.35999970196000003,0.40818001306176,1684,0.0,99,P-GPS,
0.35044974820253,36.896152678326104,12200,2018-04-05 06:03:30,1798.5362147531425,33.100001059200004,0.0,0.3794990121439681,1798.5362147531425,33.100001059200004,0.35999970196000003,0.40818001306176,1684,0.0,99,P-GPS,
0.35044984847946503,36.896152679124704,12400,2018-04-05 06:03:30,1799.5362147851426,34.1000010912,0.0,0.36863901179644804,1799.5362147851426,34.1000010912,0.35999970196000003,0.40818001306176,1684,0.0,99,P-GPS,
0.350449917540961,36.896152690594604,12500,2018-04-05 06:03:31,1800.0362148011425,34.6000011072,0.0,0.36144901156636805,1800.0362148011425,34.6000011072,0.35999970196000003,0.40818001306176,1684,0.0,99,P-GPS,
0.350449988443616,36.896152693972894,12600,2018-04-05 06:03:31,1800.5362148171428,35.1000011232,0.0,0.353871011323872,1800.5362148171428,35.1000011232,0.35999970196000003,0.40818001306176,1684,0.0,99,P-GPS,
0.350450049139388,36.896152684366896,12700,2018-04-05 06:03:31,1801.0362148331426,35.6000011392,0.0,0.347061011105952,1801.0362148331426,35.6000011392,0.35999970196000003,0.40818001306176,1684,0.0,99,P-GPS,
0.35045008453667104,36.8961526698865,12800,2018-04-05 06:03:31,1801.5362148491427,36.1000011552,0.0,0.34285501097135995,1801.5362148491427,36.1000011552,0.35999970196000003,0.40818001306176,1684,0.0,99,P-GPS,
0.35045014050812295,36.89615260759761,13000,2018-04-05 06:03:31,1802.5362148811428,37.1000011872,0.0,0.335208010726656,1802.5362148811428,37.1000011872,0.35999970196000003,0.40818001306176,1684,0.0,99,P-GPS,
0.35045016374785104,36.8961525871701,13100,2018-04-05 06:03:31,1803.0362148971426,37.60000120320001,0.0,0.332189010630048,1803.0362148971426,37.60000120320001,0.35999970196000003,0.40818001306176,1684,0.0,99,P-GPS,
0.350450182351806,36.896152583198706,13200,2018-04-05 06:03:31,1803.5362149131424,38.1000012192,0.0,0.330074010562368,1803.5362149131424,38.1000012192,0.35999970196000003,0.40818001306176,1684,0.0,99,P-GPS,
0.35045020517811304,36.896152579806,13300,2018-04-05 06:03:31,1804.0362149291427,38.600001235200004,0.0,0.32751401048044804,1804.0362149291427,38.600001235200004,0.35999970196000003,0.40818001306176,1684,0.0,99,P-GPS,
0.350450231940776,36.8961525733192,13400,2018-04-05 06:03:31,1804.5362149451425,39.100001251200005,0.0,0.32445201038246396,1804.5362149451425,39.100001251200005,0.35999970196000003,0.40818001306176,1684,0.0,99,P-GPS,
0.350450251541338,36.8961525673116,13500,2018-04-05 06:03:32,1805.1362149643428,39.7000012704,0.0,0.322179010309728,1805.1362149643428,39.7000012704,0.35999970196000003,0.40818001306176,1684,0.0,99,P-GPS,
0.350450271561429,36.8961525690534,13600,2018-04-05 06:03:32,1805.6362149803426,40.2000012864,0.0,0.320048010241536,1805.6362149803426,40.2000012864,0.35999970196000003,0.40818001306176,1684,0.0,99,P-GPS,
0.35045031103022906,36.8961525627246,13700,2018-04-05 06:03:32,1806.1362149963427,40.7000013024,0.0,0.31561201009958395,1806.1362149963427,40.7000013024,0.35999970196000003,0.40818001306176,1684,0.0,99,P-GPS,
0.350450359313187,36.8961525468631,13800,2018-04-05 06:03:32,1806.6362150123427,41.200001318400005,0.0,0.309987009919584,1806.6362150123427,41.200001318400005,0.35999970196000003,0.40818001306176,1684,0.0,99,P-GPS,
0.35045039150141805,36.896152528042606,13900,2018-04-05 06:03:32,1807.1362150283428,41.7000013344,0.0,0.30604000979328,1807.1362150283428,41.7000013344,0.35999970196000003,0.40818001306176,1684,0.0,99,P-GPS,
0.350450404525917,36.8961525172172,14000,2018-04-05 06:03:32,1807.6362150443426,42.2000013504,0.0,0.304369009739808,1807.6362150443426,42.2000013504,0.35999970196000003,0.40818001306176,1684,0.0,99,P-GPS,
0.350450411786741,36.89615250834571,14100,2018-04-05 06:03:32,1808.1362150603425,42.7000013664,0.0,0.303372009707904,1808.1362150603425,42.7000013664,0.35999970196000003,0.40818001306176,1684,0.0,99,P-GPS,
0.350450424418581,36.896152506949704,14300,2018-04-05 06:03:32,1809.1362150923426,43.700001398400005,0.0,0.301966009662912,1809.1362150923426,43.700001398400005,0.35999970196000003,0.40818001306176,1684,0.0,99,P-GPS,
0.35045042341301696,36.8961525154192,14400,2018-04-05 06:03:33,1809.7362151115428,44.30000141760001,0.0,0.302274009672768,1809.7362151115428,44.30000141760001,0.35999970196000003,0.40818001306176,1684,0.0,99,P-GPS,
0.35045041812220296,36.8961525262648,14500,2018-04-05 06:03:33,1810.2362151275427,44.80000143360001,0.0,0.303106009699392,1810.2362151275427,44.80000143360001,0.35999970196000003,0.40818001306176,1684,0.0,99,P-GPS,
0.350450416873593,36.8961525414577,14600,2018-04-05 06:03:33,1810.7362151435425,45.3000014496,0.0,0.303609009715488,1810.7362151435425,45.3000014496,0.35999970196000003,0.40818001306176,1684,0.0,99,P-GPS,
0.350450431932629,36.8961525546014,14700,2018-04-05 06:03:33,1811.2362151595428,45.800001465600005,0.0,0.302303009673696,1811.2362151595428,45.800001465600005,0.35999970196000003,0.40818001306176,1684,0.0,99,P-GPS,
0.35045045447843604,36.8961525612664,14800,2018-04-05 06:03:33,1811.7362151755426,46.3000014816,0.0,0.300032009601024,1811.7362151755426,46.3000014816,0.35999970196000003,0.40818001306176,1684,0.0,98,P-GPS,
0.350450473370219,36.8961525574856,14900,2018-04-05 06:03:33,1812.2362151915427,46.80000149760001,0.0,0.29789000953248,1812.2362151915427,46.80000149760001,0.35999970196000003,0.40818001306176,1684,0.0,98,P-GPS,
0.35045047831051096,36.8961525581237,15000,2018-04-05 06:03:33,1812.7362152075425,47.30000151360001,0.0,0.297372009515904,1812.7362152075425,47.30000151360001,0.35999970196000003,0.40818001306176,1684,0.0,98,P-GPS,
0.350450475704186,36.896152555711105,15100,2018-04-05 06:03:33,1813.2362152235428,47.8000015296,0.0,0.29759200952294396,1813.2362152235428,47.8000015296,0.35999970196000003,0.40818001306176,1684,0.0,98,P-GPS,
0.35045045898271193,36.896152541940005,15200,2018-04-05 06:03:33,1813.8362152427426,48.4000015488,0.0,0.29905500956976006,1813.8362152427426,48.4000015488,0.35999970196000003,0.40818001306176,1684,0.0,98,P-GPS,
0.35045041610476396,36.89615252897129,15300,2018-04-05 06:03:33,1814.3362152587426,48.9000015648,0.0,0.30339000970848,1814.3362152587426,48.9000015648,0.35999970196000003,0.40818001306176,1684,0.0,98,P-GPS,
0.350450362957645,36.896152529409704,15400,2018-04-05 06:03:33,1814.8362152747427,49.4000015808,0.0,0.309174009893568,1814.8362152747427,49.4000015808,0.35999970196000003,0.40818001306176,1684,0.0,98,P-GPS,
0.350450315529824,36.896152524506896,15500,2018-04-05 06:03:34,1815.3362152907425,49.900001596799996,0.0,0.314216010054912,1815.3362152907425,49.900001596799996,0.35999970196000003,0.40818001306176,1684,0.0,98,P-GPS,
0.350450289603367,36.8961525088725,15600,2018-04-05 06:03:34,1815.8362153067428,50.40000161280001,0.0,0.31668601013395203,1815.8362153067428,50.40000161280001,0.35999970196000003,0.40818001306176,1684,0.0,98,P-GPS,
0.35045026653360806,36.896152500753104,15700,2018-04-05 06:03:34,1816.3362153227426,50.9000016288,0.0,0.31902201020870397,1816.3362153227426,50.9000016288,0.35999970196000003,0.40818001306176,1684,0.0,98,P-GPS,
0.350450241667675,36.896152504789704,15800,2018-04-05 06:03:34,1816.8362153387427,51.4000016448,0.0,0.32182201029830404,1816.8362153387427,51.4000016448,0.35999970196000003,0.40818001306176,1684,0.0,98,P-GPS,
0.35045020214452505,36.8961525104414,15900,2018-04-05 06:03:34,1817.3362153547425,51.90000166080001,0.0,0.32625501044016003,1817.3362153547425,51.90000166080001,0.35999970196000003,0.40818001306176,1684,0.0,98,P-GPS,
0.35045016833131,36.8961525163062,16000,2018-04-05 06:03:34,1817.8362153707428,52.400001676799995,0.0,0.33007001056224,1817.8362153707428,52.400001676799995,0.35999970196000003,0.40818001306176,1684,0.0,98,P-GPS,
0.35045012508614803,36.896152522789706,16100,2018-04-05 06:03:34,1818.3362153867427,52.90000169280001,0.0,0.334928010717696,1818.3362153867427,52.90000169280001,0.35999970196000003,0.40818001306176,1684,0.0,98,P-GPS,
0.35045008013254403,36.8961525362889,16200,2018-04-05 06:03:34,1818.8362154027425,53.400001708800005,0.0,0.34012401088396804,1818.8362154027425,53.400001708800005,0.35999970196000003,0.40818001306176,1684,0.0,98,P-GPS,
0.35045004943149,36.8961525565708,16300,2018-04-05 06:03:34,1819.3362154187428,53.900001724800006,0.0,0.343916011005312,1819.3362154187428,53.900001724800006,0.35999970196000003,0.40818001306176,1684,0.0,98,P-GPS,
0.350450046929589,36.89615258890711,16400,2018-04-05 06:03:34,1819.9362154379426,54.500001744,0.0,0.34492301103753603,1819.9362154379426,54.500001744,0.35999970196000003,0.40818001306176,1684,0.0,98,P-GPS,
0.350450042472945,36.8961526358512,16500,2018-04-05 06:03:35,1820.4362154539429,55.00000176,0.0,0.346536011089152,1820.4362154539429,55.00000176,0.35999970196000003,0.40818001306176,1684,0.0,98,P-GPS,
0.350450028661704,36.8961527401461,16700,2018-04-05 06:03:35,1821.4362154859425,56.000001792,0.0,0.350796011225472,1821.4362154859425,56.000001792,0.35999970196000003,0.40818001306176,1684,0.0,98,P-GPS,
0.35045001714880897,36.896152792295396,16800,2018-04-05 06:03:35,1821.9362155019426,56.50000180800001,0.0,0.35354501131344,1821.9362155019426,56.50000180800001,0.35999970196000003,0.40818001306176,1684,0.0,98,P-GPS,
0.350449967380711,36.8961528882568,17000,2018-04-05 06:03:35,1822.9362155339427,57.50000184,0.0,0.36184601157907204,1822.9362155339427,57.50000184,0.35999970196000003,0.40818001306176,1684,0.0,98,P-GPS,
0.35044992384018897,36.8961529225272,17100,2018-04-05 06:03:35,1823.4362155499425,58.000001856,0.0,0.36759501176304,1823.4362155499425,58.000001856,0.35999970196000003,0.40818001306176,1684,0.0,98,P-GPS,
0.350449880555537,36.8961529304116,17200,2018-04-05 06:03:35,1824.0362155691425,58.60000187520001,0.0,0.372452011918464,1824.0362155691425,58.60000187520001,0.35999970196000003,0.40818001306176,1684,0.0,98,P-GPS,
0.350449834832901,36.8961528882814,17400,2018-04-05 06:03:35,1825.0362156011427,59.6000019072,0.0,0.37597101203107197,1825.0362156011427,59.6000019072,0.35999970196000003,0.40818001306176,1684,0.0,98,P-GPS,
0.350449818812269,36.8961528767265,17500,2018-04-05 06:03:36,1825.5362156171427,60.100001923200004,0.0,0.377324012074368,1825.5362156171427,60.100001923200004,0.35999970196000003,0.40818001306176,1684,0.0,98,P-GPS,
0.350449800373601,36.8961528745473,17600,2018-04-05 06:03:36,1826.0362156331425,60.600001939200006,0.0,0.37922901213532806,1826.0362156331425,60.600001939200006,0.35999970196000003,0.40818001306176,1684,0.0,98,P-GPS,
0.350449769227167,36.8961528960454,17700,2018-04-05 06:03:36,1826.5362156491426,61.10000195520001,0.0,0.3832180122629761,1826.5362156491426,61.10000195520001,0.35999970196000003,0.40818001306176,1684,0.0,98,P-GPS,
0.35044973533008694,36.8961529230919,17800,2018-04-05 06:03:36,1827.0362156651427,61.6000019712,0.0,0.38767801240569605,1827.0362156651427,61.6000019712,0.35999970196000003,0.40818001306176,1684,0.0,98,P-GPS,
0.35044968729322806,36.896152951393105,17900,2018-04-05 06:03:36,1827.5362156811427,62.1000019872,0.0,0.3936940125982081,1827.5362156811427,62.1000019872,0.35999970196000003,0.40818001306176,1684,0.0,98,P-GPS,
0.35044963301026893,36.8961529589259,18000,2018-04-05 06:03:36,1828.0362156971426,62.600002003200004,0.0,0.399719012791008,1828.0362156971426,62.600002003200004,0.35999970196000003,0.40818001306176,1684,0.0,98,P-GPS,
0.350449571862197,36.896152965179795,18100,2018-04-05 06:03:36,1828.6362157163426,63.2000020224,0.0,0.40643901300604807,1828.6362157163426,63.2000020224,0.35999970196000003,0.40818001306176,1684,0.0,98,P-GPS,
0.35044952353344,36.8961529576599,18200,2018-04-05 06:03:36,1829.1362157323426,63.7000020384,0.0,0.41137001316384003,1829.1362157323426,63.7000020384,0.35999970196000003,0.41137001316384003,1684,0.0,98,P-GPS,
0.350449479456957,36.8961529457024,18300,2018-04-05 06:03:36,1829.6362157483427,64.2000020544,0.0,0.41572501330320005,1829.6362157483427,64.2000020544,0.35999970196000003,0.41572501330320005,1684,0.0,98,P-GPS,
0.350449451425125,36.8961529249505,18400,2018-04-05 06:03:36,1830.1362157643428,64.7000020704,0.0,0.41811701337974394,1830.1362157643428,64.7000020704,0.35999970196000003,0.41811701337974394,1684,0.0,98,P-GPS,
0.35044943650267496,36.8961528928363,18500,2018-04-05 06:03:37,1830.6362157803426,65.2000020864,0.0,0.41880101340163206,1830.6362157803426,65.2000020864,0.35999970196000003,0.41880101340163206,1684,0.0,98,P-GPS,
0.350449430652083,36.8961528596333,18600,2018-04-05 06:03:37,1831.1362157963424,65.7000021024,0.0,0.418512013392384,1831.1362157963424,65.7000021024,0.35999970196000003,0.41880101340163206,1684,0.0,98,P-GPS,
0.350449401722368,36.8961528312512,18700,2018-04-05 06:03:37,1831.6362158123427,66.20000211840001,0.0,0.42087801346809606,1831.6362158123427,66.20000211840001,0.35999970196000003,0.42087801346809606,1684,0.0,98,P-GPS,
0.35044935214886896,36.8961528120795,18800,2018-04-05 06:03:37,1832.1362158283425,66.7000021344,0.0,0.42574701362390405,1832.1362158283425,66.7000021344,0.35999970196000003,0.42574701362390405,1684,0.0,98,P-GPS,
0.350449306609433,36.896152806620606,18900,2018-04-05 06:03:37,1832.6362158443426,67.2000021504,0.0,0.4305430137773761,1832.6362158443426,67.2000021504,0.35999970196000003,0.4305430137773761,1684,0.0,98,P-GPS,
0.350449275329161,36.896152809539,19000,2018-04-05 06:03:37,1833.1362158603426,67.70000216640001,0.0,0.43400601388819204,1833.1362158603426,67.70000216640001,0.35999970196000003,0.43400601388819204,1684,0.0,98,P-GPS,
0.350449248100865,36.8961528071484,19100,2018-04-05 06:03:37,1833.7362158795427,68.30000218560001,0.0,0.43690001398080003,1833.7362158795427,68.30000218560001,0.35999970196000003,0.43690001398080003,1684,0.0,98,P-GPS,
0.35044920985716305,36.8961527639471,19300,2018-04-05 06:03:37,1834.7362159115426,69.30000221760001,0.0,0.4400230140807361,1834.7362159115426,69.30000221760001,0.35999970196000003,0.4400230140807361,1684,0.0,98,P-GPS,
0.35044919090237997,36.8961527328671,19400,2018-04-05 06:03:38,1835.2362159275426,69.8000022336,0.0,0.44138101412419206,1835.2362159275426,69.8000022336,0.35999970196000003,0.44138101412419206,1684,0.0,98,P-GPS,
0.35044917937411607,36.896152701922,19500,2018-04-05 06:03:38,1835.7362159435427,70.30000224960001,0.0,0.44196501414288003,1835.7362159435427,70.30000224960001,0.35999970196000003,0.44196501414288003,1684,0.0,98,P-GPS,
0.35044918911149897,36.8961526808104,19600,2018-04-05 06:03:38,1836.2362159595427,70.80000226560001,0.0,0.44045701409462396,1836.2362159595427,70.80000226560001,0.35999970196000003,0.44196501414288003,1684,0.0,98,P-GPS,
0.35044919428679494,36.896152664772295,19700,2018-04-05 06:03:38,1836.7362159755426,71.3000022816,0.0,0.43956101406595194,1836.7362159755426,71.3000022816,0.35999970196000003,0.44196501414288003,1684,0.0,98,P-GPS,
0.350449197834462,36.896152654539,19800,2018-04-05 06:03:38,1837.2362159915426,71.8000022976,0.0,0.43896501404688004,1837.2362159915426,71.8000022976,0.35999970196000003,0.44196501414288003,1684,0.0,98,P-GPS,
0.350449192673516,36.8961526351628,19900,2018-04-05 06:03:38,1837.7362160075427,72.3000023136,0.0,0.43914501405264006,1837.7362160075427,72.3000023136,0.35999970196000003,0.44196501414288003,1684,0.0,98,P-GPS,
0.350449190602848,36.896152612475206,20000,2018-04-05 06:03:38,1838.2362160235427,72.8000023296,0.0,0.43893501404592,1838.2362160235427,72.8000023296,0.35999970196000003,0.44196501414288003,1684,0.0,98,P-GPS,
0.350449177592802,36.896152596869705,20100,2018-04-05 06:03:38,1838.7362160395426,73.3000023456,0.0,0.44006901408220805,1838.7362160395426,73.3000023456,0.35999970196000003,0.44196501414288003,1684,0.0,98,P-GPS,
0.35044917052240304,36.8961525988155,20200,2018-04-05 06:03:38,1839.3362160587426,73.9000023648,0.0,0.44088001410815997,1839.3362160587426,73.9000023648,0.35999970196000003,0.44196501414288003,1684,0.0,98,P-GPS,
0.35044915768191903,36.896152607706796,20300,2018-04-05 06:03:38,1839.8362160747427,74.4000023808,0.0,0.4424530141584961,1839.8362160747427,74.4000023808,0.35999970196000003,0.4424530141584961,1684,0.0,98,P-GPS,
0.35044914737732896,36.896152622395896,20400,2018-04-05 06:03:38,1840.3362160907427,74.9000023968,0.0,0.44385901420348806,1840.3362160907427,74.9000023968,0.35999970196000003,0.44385901420348806,1684,0.0,98,P-GPS,
0.35044913266504996,36.8961526309661,20500,2018-04-05 06:03:39,1840.8362161067428,75.40000241279999,0.0,0.44563501426032004,1840.8362161067428,75.40000241279999,0.35999970196000003,0.44563501426032004,1684,0.0,98,P-GPS,
0.350449118135055,36.8961526259187,20600,2018-04-05 06:03:39,1841.3362161227426,75.90000242880001,0.0,0.44713001430815996,1841.3362161227426,75.90000242880001,0.35999970196000003,0.44713001430815996,1684,0.0,98,P-GPS,
0.35044908538358505,36.8961526023736,20700,2018-04-05 06:03:39,1841.8362161387424,76.4000024448,0.0,0.45028401440908805,1841.8362161387424,76.4000024448,0.35999970196000003,0.45028401440908805,1684,0.0,98,P-GPS,
0.350449041018359,36.896152570045295,20800,2018-04-05 06:03:39,1842.3362161547427,76.9000024608,0.0,0.45458301454665606,1842.3362161547427,76.9000024608,0.35999970196000003,0.45458301454665606,1684,0.0,98,P-GPS,
0.35044895417364397,36.896152504576705,21000,2018-04-05 06:03:39,1843.4362161899428,78.00000249600001,0.0,0.46308401481868805,1843.4362161899428,78.00000249600001,0.35999970196000003,0.46308401481868805,1684,0.0,98,P-GPS,
0.35044890253884003,36.8961524486417,21100,2018-04-05 06:03:39,1843.9362162059426,78.500002512,0.0,0.467981014975392,1843.9362162059426,78.500002512,0.35999970196000003,0.467981014975392,1684,0.0,98,P-GPS,
0.350448844401354,36.896152378366104,21200,2018-04-05 06:03:39,1844.4362162219427,79.00000252800001,0.0,0.47353101515299206,1844.4362162219427,79.00000252800001,0.35999970196000003,0.47353101515299206,1684,0.0,98,P-GPS,
0.350448786662938,36.8961523007505,21300,2018-04-05 06:03:39,1844.9362162379427,79.500002544,0.0,0.479117015331744,1844.9362162379427,79.500002544,0.35999970196000003,0.479117015331744,1684,0.0,98,P-GPS,
0.350448753679823,36.8961522468866,21400,2018-04-05 06:03:39,1845.4362162539426,80.00000256,0.0,0.48231101543395194,1845.4362162539426,80.00000256,0.35999970196000003,0.48231101543395194,1684,0.0,98,P-GPS,
0.350448737377979,36.896152209541995,21500,2018-04-05 06:03:40,1845.9362162699426,80.500002576,0.0,0.483844015483008,1845.9362162699426,80.500002576,0.35999970196000003,0.483844015483008,1684,0.0,98,P-GPS,
0.35044873420149497,36.8961521906524,21600,2018-04-05 06:03:40,1846.4362162859425,81.000002592,0.0,0.484071015490272,1846.4362162859425,81.000002592,0.35999970196000003,0.484071015490272,1684,0.0,98,P-GPS,
0.350448738783122,36.8961521664869,21700,2018-04-05 06:03:40,1846.9362163019427,81.500002608,0.0,0.48341501546928006,1846.9362163019427,81.500002608,0.35999970196000003,0.484071015490272,1684,0.0,98,P-GPS,
0.350448745166623,36.896152134698205,21800,2018-04-05 06:03:40,1847.4362163179426,82.00000262399999,0.0,0.48253401544108804,1847.4362163179426,82.00000262399999,0.35999970196000003,0.484071015490272,1684,0.0,98,P-GPS,
0.35044870618462504,36.896152044791606,22000,2018-04-05 06:03:40,1848.4362163499427,83.000002656,0.0,0.486522015568704,1848.4362163499427,83.000002656,0.35999970196000003,0.486522015568704,1684,0.0,98,P-GPS,
0.35044866345812203,36.896151992769106,22100,2018-04-05 06:03:40,1849.0362163691425,83.60000267520002,0.0,0.49116901571740806,1849.0362163691425,83.60000267520002,0.35999970196000003,0.49116901571740806,1684,0.0,98,P-GPS,
0.350448625562704,36.896151947642394,22200,2018-04-05 06:03:40,1849.5362163851428,84.10000269119999,0.0,0.495348015851136,1849.5362163851428,84.10000269119999,0.35999970196000003,0.495348015851136,1684,0.0,98,P-GPS,
0.350448593659857,36.8961519174087,22300,2018-04-05 06:03:40,1850.0362164011426,84.60000270720002,0.0,0.49890101596483194,1850.0362164011426,84.60000270720002,0.35999970196000003,0.49890101596483194,1684,0.0,98,P-GPS,
0.35044858387565697,36.896151900793,22400,2018-04-05 06:03:40,1850.5362164171427,85.1000027232,0.0,0.500002016000064,1850.5362164171427,85.1000027232,0.35999970196000003,0.500002016000064,1481,0.0,98,P-GPS,
0.35044858493353503,36.896151871689895,22500,2018-04-05 06:03:41,1851.0362164331425,85.60000273920001,0.0,0.4999230159975361,1851.0362164331425,85.60000273920001,0.35999970196000003,0.500002016000064,1530,0.0,98,P-GPS,
0.350448589199448,36.896151834812606,22600,2018-04-05 06:03:41,1851.5362164491428,86.10000275520001,0.0,0.49952701598486404,1851.5362164491428,86.10000275520001,0.35999970196000003,0.500002016000064,1627,0.0,98,P-GPS,
0.35044858938682,36.896151803840795,22700,2018-04-05 06:03:41,1851.9362164619426,86.500002768,0.0,0.49959901598716805,1851.9362164619426,86.500002768,0.35999970196000003,0.500002016000064,1642,0.0,98,P-GPS,
0.350448595369418,36.8961517926761,22800,2018-04-05 06:03:41,1852.3362164747427,86.9000027808,0.0,0.498973015967136,1852.3362164747427,86.9000027808,0.35999970196000003,0.500002016000064,1635,0.0,98,P-GPS,
0.350448589756783,36.8961518033965,22900,2018-04-05 06:03:41,1852.8362164907426,87.40000279680001,0.0,0.49955901598588803,1852.8362164907426,87.40000279680001,0.35999970196000003,0.500002016000064,1573,0.0,98,P-GPS,
0.35044857804715096,36.896151822645294,23000,2018-04-05 06:03:41,1853.2362165035427,87.8000028096,0.0,0.5008010160256321,1853.2362165035427,87.8000028096,0.35999970196000003,0.5008010160256321,1640,0.0,98,P-GPS,
0.35044856590689694,36.8961518395292,23100,2018-04-05 06:03:41,1853.6362165163425,88.20000282240001,0.0,0.50210501606736,1853.6362165163425,88.20000282240001,0.35999970196000003,0.50210501606736,1642,0.0,98,P-GPS,
0.35044857233935306,36.896151882107894,23300,2018-04-05 06:03:41,1854.5362165451427,89.1000028512,0.0,0.501307016041824,1854.5362165451427,89.1000028512,0.35999970196000003,0.50210501606736,1647,0.0,98,P-GPS,
0.350448587696292,36.896151924882005,23400,2018-04-05 06:03:41,1855.0362165611427,89.60000286720002,0.0,0.49956101598595193,1855.0362165611427,89.60000286720002,0.35999970196000003,0.50210501606736,1650,0.0,98,P-GPS,
0.35044859412834006,36.89615195478861,23500,2018-04-05 06:03:42,1855.4362165739426,90.00000288,0.0,0.49884601596307204,1855.4362165739426,90.00000288,0.35999970196000003,0.50210501606736,1538,0.0,98,P-GPS,
0.350448603956204,36.8961519638913,23600,2018-04-05 06:03:42,1855.9362165899427,90.50000289600001,0.0,0.497757015928224,1855.9362165899427,90.50000289600001,0.35999970196000003,0.50210501606736,1024,0.0,98,P-GPS,
0.350448626200647,36.8961519791265,23700,2018-04-05 06:03:42,1856.4362166059427,91.00000291200001,0.0,0.49529601584947197,1856.4362166059427,91.00000291200001,0.35999970196000003,0.50210501606736,1024,0.0,98,P-GPS,
0.35044866181878803,36.8961519962973,23800,2018-04-05 06:03:42,1856.8362166187428,91.40000292479999,0.0,0.491356015723392,1856.8362166187428,91.40000292479999,0.35999970196000003,0.50210501606736,1024,0.0,98,P-GPS,
0.350448687953991,36.8961520251429,23900,2018-04-05 06:03:42,1857.2362166315427,91.8000029376,0.0,0.48850201563206397,1857.2362166315427,91.8000029376,0.35999970196000003,0.50210501606736,1024,0.0,98,P-GPS,
0.350448711740469,36.896152051865,24000,2018-04-05 06:03:42,1857.5362166411426,92.10000294720001,0.0,0.48592401554956804,1857.5362166411426,92.10000294720001,0.35999970196000003,0.50210501606736,1024,0.0,98,P-GPS,
0.350448723419364,36.8961520769817,24100,2018-04-05 06:03:42,1857.8362166507425,92.40000295680002,0.0,0.48470601551059195,1857.8362166507425,92.40000295680002,0.35999970196000003,0.50210501606736,1024,0.0,98,P-GPS,
0.35044873372487,36.8961520879934,24200,2018-04-05 06:03:42,1858.0362166571426,92.6000029632,0.0,0.48360001547520004,1858.0362166571426,92.6000029632,0.35999970196000003,0.50210501606736,869,0.0,98,P-GPS,
0.350448751127542,36.896152097652795,24300,2018-04-05 06:03:42,1858.0362166571426,92.6000029632,0.0,0.48170401541452806,1858.0362166571426,92.6000029632,0.35999970196000003,0.50210501606736,814,0.0,98,P-GPS,
0.35044878842481303,36.8961521006591,24400,2018-04-05 06:03:42,1858.1362166603426,92.7000029664,0.0,0.4775720152823039,1858.1362166603426,92.7000029664,0.35999970196000003,0.50210501606736,735,0.0,98,P-GPS,
0.350448818325385,36.8961521186804,24500,2018-04-05 06:03:43,1858.1362166603426,92.7000029664,0.0,0.47432901517852805,1858.1362166603426,92.7000029664,0.35999970196000003,0.50210501606736,688,0.0,98,P-GPS,
0.350448848906037,36.896152141323,24600,2018-04-05 06:03:43,1858.1362166603426,92.7000029664,0.0,0.4710440150734081,1858.1362166603426,92.7000029664,0.35999970196000003,0.50210501606736,714,0.0,98,P-GPS,
0.35044891188162997,36.8961521661063,24700,2018-04-05 06:03:43,1858.0362166571426,92.6000029632,0.0,0.46419001485408,1858.1362166603426,92.7000029664,0.35999970196000003,0.50210501606736,712,0.0,98,P-GPS,
0.35044900381177196,36.8961521720358,24800,2018-04-05 06:03:43,1858.0362166571426,92.6000029632,0.0,0.45402001452864005,1858.1362166603426,92.7000029664,0.35999970196000003,0.50210501606736,718,0.0,98,P-GPS,
0.350449091761386,36.8961521754424,24900,2018-04-05 06:03:43,1857.9362166539424,92.50000296000002,0.0,0.44427701421686405,1858.1362166603426,92.7000029664,0.35999970196000003,0.50210501606736,721,0.0,98,P-GPS,
0.35044917788694,36.896152166302706,25000,2018-04-05 06:03:43,1857.8362166507425,92.40000295680002,0.0,0.434657013909024,1858.1362166603426,92.7000029664,0.35999970196000003,0.50210501606736,724,0.0,98,P-GPS,
0.35044928943626896,36.8961521492915,25100,2018-04-05 06:03:43,1857.7362166475427,92.3000029536,0.0,0.4221650135092801,1858.1362166603426,92.7000029664,0.35999970196000003,0.50210501606736,730,0.0,98,P-GPS,
0.3504494308448499,36.896152119576,25200,2018-04-05 06:03:43,1857.6362166443428,92.2000029504,0.0,0.40628801300121603,1858.1362166603426,92.7000029664,0.35999970196000003,0.50210501606736,730,0.0,98,P-GPS,
0.350449589531832,36.8961520857794,25300,2018-04-05 06:03:43,1857.6362166443428,92.2000029504,0.0,0.38848801243161607,1858.1362166603426,92.7000029664,0.35999970196000003,0.50210501606736,730,0.0,98,P-GPS,
0.35044976263278305,36.896152039243205,25400,2018-04-05 06:03:43,1857.5362166411426,92.10000294720001,0.0,0.369064011810048,1858.1362166603426,92.7000029664,0.35999970196000003,0.50210501606736,741,0.0,98,P-GPS,
0.350449950415174,36.896151979642504,25500,2018-04-05 06:03:44,1857.4362166379426,92.00000294399999,0.0,0.34804401113740807,1858.1362166603426,92.7000029664,0.35999970196000003,0.50210501606736,748,0.0,98,P-GPS,
0.350450155835649,36.896151905031,25600,2018-04-05 06:03:44,1857.3362166347426,91.9000029408,0.0,0.32519501040624,1858.1362166603426,92.7000029664,0.35999970196000003,0.50210501606736,753,0.0,98,P-GPS,
0.35045037899985304,36.8961518254401,25700,2018-04-05 06:03:44,1857.3362166347426,91.9000029408,0.0,0.30062300961993604,1858.1362166603426,92.7000029664,0.35999970196000003,0.50210501606736,758,0.0,98,P-GPS,
0.350450614284363,36.8961517401392,25800,2018-04-05 06:03:44,1857.2362166315427,91.8000029376,0.0,0.275086008802752,1858.1362166603426,92.7000029664,0.35999970196000003,0.50210501606736,758,0.0,98,P-GPS,
0.350450871118276,36.8961516645224,25900,2018-04-05 06:03:44,1857.2362166315427,91.8000029376,0.35999970196000003,0.24752700792086405,1858.1362166603426,92.7000029664,0.35999970196000003,0.50210501606736,758,0.0,98,P-GPS,
0.35045113485210905,36.8961515928801,26000,2018-04-05 06:03:44,1857.1362166283425,91.7000029344,0.35999970196000003,0.21971000703072002,1858.1362166603426,92.7000029664,0.35999970196000003,0.50210501606736,759,0.0,98,P-GPS,
0.35045138383061103,36.896151518862794,26100,2018-04-05 06:03:44,1857.0362166251425,91.60000293120001,0.35999970196000003,0.19433000621856003,1858.1362166603426,92.7000029664,0.35999970196000003,0.50210501606736,764,0.0,98,P-GPS,
0.35045161044080697,36.8961514336995,26200,2018-04-05 06:03:44,1857.0362166251425,91.60000293120001,0.35999970196000003,0.172827005530464,1858.1362166603426,92.7000029664,0.35999970196000003,0.50210501606736,898,0.0,98,P-GPS,
0.350451830787599,36.896151347472504,26300,2018-04-05 06:03:44,1856.9362166219428,91.50000292800001,0.35999970196000003,0.15372800491929597,1858.1362166603426,92.7000029664,0.35999970196000003,0.50210501606736,898,0.0,98,P-GPS,
0.350452046312162,36.8961512632973,26400,2018-04-05 06:03:44,1856.9362166219428,91.50000292800001,0.35999970196000003,0.137363004395616,1858.1362166603426,92.7000029664,0.35999970196000003,0.50210501606736,1024,0.0,98,P-GPS,
0.350452254042992,36.8961512006085,26500,2018-04-05 06:03:45,1856.8362166187428,91.40000292479999,0.35999970196000003,0.12324500394384,1858.1362166603426,92.7000029664,0.35999970196000003,0.50210501606736,1024,0.0,98,P-GPS,
0.35045244359346694,36.8961511605189,26600,2018-04-05 06:03:45,1856.8362166187428,91.40000292479999,0.0,0.11186800357977601,1858.1362166603426,92.7000029664,0.35999970196000003,0.50210501606736,1024,0.0,98,P-GPS,
0.350452627106485,36.8961511165061,26700,2018-04-05 06:03:45,1856.8362166187428,91.40000292479999,0.0,0.1044750033432,1858.1362166603426,92.7000029664,0.35999970196000003,0.50210501606736,1024,0.0,98,P-GPS,
0.35045279345610997,36.896151064129796,26800,2018-04-05 06:03:45,1856.8362166187428,91.40000292479999,0.0,0.10244400327820799,1858.1362166603426,92.7000029664,0.35999970196000003,0.50210501606736,1024,0.0,98,P-GPS,
0.350452940143495,36.896150995679,26900,2018-04-05 06:03:45,1856.8362166187428,91.40000292479999,0.0,0.10612200339590402,1858.1362166603426,92.7000029664,0.35999970196000003,0.50210501606736,1024,0.0,98,P-GPS,
0.350453065099703,36.89615092173771,27000,2018-04-05 06:03:45,1856.8362166187428,91.40000292479999,0.0,0.113212003622784,1858.1362166603426,92.7000029664,0.35999970196000003,0.50210501606736,1024,0.0,98,P-GPS,
0.35045319833654803,36.8961508488702,27100,2018-04-05 06:03:45,1856.8362166187428,91.40000292479999,0.0,0.12201700390454401,1858.1362166603426,92.7000029664,0.35999970196000003,0.50210501606736,983,0.0,98,P-GPS,
0.350453328484642,36.896150795601,27200,2018-04-05 06:03:45,1856.8362166187428,91.40000292479999,0.0,0.130196004166272,1858.1362166603426,92.7000029664,0.35999970196000003,0.50210501606736,792,0.0,98,P-GPS,
0.35045346327135896,36.8961507457492,27300,2018-04-05 06:03:45,1856.8362166187428,91.40000292479999,0.0,0.13944900446236802,1858.1362166603426,92.7000029664,0.35999970196000003,0.50210501606736,716,0.0,98,P-GPS,
0.350453573573606,36.8961507115457,27400,2018-04-05 06:03:45,1856.8362166187428,91.40000292479999,0.0,0.14719700471030403,1858.1362166603426,92.7000029664,0.35999970196000003,0.50210501606736,709,0.0,98,P-GPS,
0.35045369244065394,36.896150672998296,27500,2018-04-05 06:03:46,1856.7362166155426,91.3000029216,0.0,0.15646800500697602,1858.1362166603426,92.7000029664,0.35999970196000003,0.50210501606736,736,0.0,98,P-GPS,
0.35045388811774203,36.896150576886,27700,2018-04-05 06:03:46,1856.6362166123427,91.2000029184,0.0,0.176198005638336,1858.1362166603426,92.7000029664,0.35999970196000003,0.50210501606736,740,0.0,98,P-GPS,
0.35045394013797804,36.8961505176424,27800,2018-04-05 06:03:46,1856.5362166091427,91.10000291520001,0.0,0.184823005914336,1858.1362166603426,92.7000029664,0.35999970196000003,0.50210501606736,777,0.0,97,P-GPS,
0.350453966511036,36.896150455527895,27900,2018-04-05 06:03:46,1856.4362166059427,91.00000291200001,0.0,0.19225400615212804,1858.1362166603426,92.7000029664,0.35999970196000003,0.50210501606736,1024,0.0,97,P-GPS,
0.350453955941213,36.896150416968204,28000,2018-04-05 06:03:46,1856.3362166027425,90.9000029088,0.0,0.19535800625145602,1858.1362166603426,92.7000029664,0.35999970196000003,0.50210501606736,1024,0.0,97,P-GPS,
0.350453945399888,36.896150389222605,28100,2018-04-05 06:03:46,1856.2362165995426,90.80000290560001,0.0,0.19746500631888,1858.1362166603426,92.7000029664,0.35999970196000003,0.50210501606736,1024,0.0,97,P-GPS,
0.35045392493523203,36.89615039412921,28200,2018-04-05 06:03:46,1856.2362165995426,90.80000290560001,0.0,0.195887006268384,1858.1362166603426,92.7000029664,0.35999970196000003,0.50210501606736,1024,0.0,97,P-GPS,
0.350453903036731,36.8961503872757,28300,2018-04-05 06:03:46,1856.2362165995426,90.80000290560001,0.0,0.195403006252896,1858.1362166603426,92.7000029664,0.35999970196000003,0.50210501606736,1024,0.0,97,P-GPS,
0.350453871256425,36.8961503793319,28400,2018-04-05 06:03:46,1856.2362165995426,90.80000290560001,0.0,0.19456000622592,1858.1362166603426,92.7000029664,0.35999970196000003,0.50210501606736,1024,0.0,97,P-GPS,
0.350453836494845,36.89615036800279,28500,2018-04-05 06:03:47,1856.2362165995426,90.80000290560001,0.0,0.19397700620726402,1858.1362166603426,92.7000029664,0.35999970196000003,0.50210501606736,1024,0.0,97,P-GPS,
0.35045376913426,36.896150320403,28700,2018-04-05 06:03:47,1856.2362165995426,90.80000290560001,0.0,0.19570600626259202,1858.1362166603426,92.7000029664,0.35999970196000003,0.50210501606736,1024,0.0,97,P-GPS,
0.350453742388288,36.8961502352375,28900,2018-04-05 06:03:47,1856.2362165995426,90.80000290560001,0.0,0.20335700650742403,1858.1362166603426,92.7000029664,0.35999970196000003,0.50210501606736,1024,0.0,97,P-GPS,
0.350453715099638,36.8961502132041,29000,2018-04-05 06:03:47,1856.3362166027425,90.9000029088,0.0,0.20457500654639998,1858.1362166603426,92.7000029664,0.35999970196000003,0.50210501606736,1024,0.0,97,P-GPS,
0.3504536844091681,36.8961501778846,29100,2018-04-05 06:03:47,1856.3362166027425,90.9000029088,0.0,0.20713300662825596,1858.1362166603426,92.7000029664,0.35999970196000003,0.50210501606736,1024,0.0,97,P-GPS,
0.350453646456652,36.896150142747004,29200,2018-04-05 06:03:47,1856.3362166027425,90.9000029088,0.0,0.20952500670479998,1858.1362166603426,92.7000029664,0.35999970196000003,0.50210501606736,1024,0.0,97,P-GPS,
0.35045360091762295,36.8961501103277,29300,2018-04-05 06:03:47,1856.3362166027425,90.9000029088,0.0,0.211523006768736,1858.1362166603426,92.7000029664,0.35999970196000003,0.50210501606736,1024,0.0,97,P-GPS,
0.35045355339189194,36.8961500942153,29400,2018-04-05 06:03:47,1856.3362166027425,90.9000029088,0.0,0.211872006779904,1858.1362166603426,92.7000029664,0.35999970196000003,0.50210501606736,1024,0.0,97,P-GPS,
0.350453502252644,36.8961500810683,29500,2018-04-05 06:03:48,1856.3362166027425,90.9000029088,0.0,0.211956006782592,1858.1362166603426,92.7000029664,0.35999970196000003,0.50210501606736,1024,0.0,97,P-GPS,
0.35045345536974104,36.8961500762779,29600,2018-04-05 06:03:48,1856.3362166027425,90.9000029088,0.0,0.211384006764288,1858.1362166603426,92.7000029664,0.35999970196000003,0.50210501606736,1024,0.0,97,P-GPS,
0.35045340728667496,36.8961500809821,29700,2018-04-05 06:03:48,1856.3362166027425,90.9000029088,0.0,0.20987800671609602,1858.1362166603426,92.7000029664,0.35999970196000003,0.50210501606736,1024,0.0,97,P-GPS,
0.35045336860054604,36.8961500917604,29800,2018-04-05 06:03:48,1856.3362166027425,90.9000029088,0.0,0.20799000665568,1858.1362166603426,92.7000029664,0.35999970196000003,0.50210501606736,1024,0.0,97,P-GPS,
0.350453328942642,36.896150102182105,29900,2018-04-05 06:03:48,1856.3362166027425,90.9000029088,0.0,0.206207006598624,1858.1362166603426,92.7000029664,0.35999970196000003,0.50210501606736,1024,0.0,97,P-GPS,
0.350453294023917,36.896150110953,30000,2018-04-05 06:03:48,1856.3362166027425,90.9000029088,0.0,0.204753006552096,1858.1362166603426,92.7000029664,0.35999970196000003,0.50210501606736,1024,0.0,97,P-GPS,
0.350453252865809,36.8961501171217,30100,2018-04-05 06:03:48,1856.3362166027425,90.9000029088,0.0,0.203588006514816,1858.1362166603426,92.7000029664,0.35999970196000003,0.50210501606736,1039,0.0,97,P-GPS,
0.350453216729009,36.896150119668704,30200,2018-04-05 06:03:48,1856.3362166027425,90.9000029088,0.0,0.20296500649488,1858.1362166603426,92.7000029664,0.35999970196000003,0.50210501606736,1045,0.0,97,P-GPS,
0.350453172818831,36.89615012099679,30300,2018-04-05 06:03:48,1856.3362166027425,90.9000029088,0.0,0.20251000648032003,1858.1362166603426,92.7000029664,0.35999970196000003,0.50210501606736,1024,0.0,97,P-GPS,
