latitude,longitude,time_millisecond,datetime_utc,altitude_m,ascent_m,speed_kph,distance_m,max_altitude_m,max_ascent_m,max_speed_kph,max_distance_m,rc_throttle,gimbal_pitch_degrees,battery_percent,flycState,message
0.352654472646933,36.8960321455987,100,2017-11-08 05:47:15,1769.1527666128866,0.0,0.0,0.0,1769.1527666128866,0.0,0.0,0.0,1024,0.0,100,Motors_Started,
0.352654517102436,36.896032164484,200,2017-11-08 05:47:15,1769.1527666128866,0.0,0.0,0.005371300171881601,1769.1527666128866,0.0,0.0,0.005371300171881601,1024,0.0,100,Motors_Started,
0.352654527771187,36.8960321876659,300,2017-11-08 05:47:15,1769.1527666128866,0.0,0.0,0.007711220246759041,1769.1527666128866,0.0,0.0,0.007711220246759041,1024,0.0,100,Motors_Started,
0.352654541160254,36.8960322165544,400,2017-11-08 05:47:15,1769.1527666128866,0.0,0.0,0.0109687003509984,1769.1527666128866,0.0,0.0,0.0109687003509984,1024,0.0,100,Motors_Started,
0.352654550434242,36.8960322263263,500,2017-11-08 05:47:16,1769.1527666128866,0.0,0.0,0.012466800398937602,1769.1527666128866,0.0,0.0,0.012466800398937602,1024,0.0,100,Motors_Started,
0.352654576342786,36.8960322342543,600,2017-11-08 05:47:16,1769.1527666128866,0.0,0.0,0.015171500485488,1769.1527666128866,0.0,0.0,0.015171500485488,1024,0.0,100,Motors_Started,
0.352654603242035,36.8960322519068,700,2017-11-08 05:47:16,1769.1527666128866,0.0,0.0,0.018726300599241602,1769.1527666128866,0.0,0.0,0.018726300599241602,1024,0.0,100,Motors_Started,Setting new Return-To-Home altitude to 30m (98 ft). Setting new Maximum Flight Altitude to 100m (328 ft)
0.35265463910831,36.8960322769783,800,2017-11-08 05:47:16,1769.1527666128866,0.0,0.0,0.0235823007546336,1769.1527666128866,0.0,0.0,0.0235823007546336,1024,0.0,100,Motors_Started,
0.352654676522829,36.8960322886596,900,2017-11-08 05:47:16,1769.1527666128866,0.0,0.0,0.027697000886304002,1769.1527666128866,0.0,0.0,0.027697000886304002,1024,0.0,100,Motors_Started,
0.352654717510357,36.8960322944253,1000,2017-11-08 05:47:16,1769.1527666128866,0.0,0.0,0.0318653010196896,1769.1527666128866,0.0,0.0,0.0318653010196896,1024,0.0,100,Motors_Started,
0.352654737552635,36.896032313472,1100,2017-11-08 05:47:16,1769.1527666128866,0.0,0.0,0.0348761011160352,1769.1527666128866,0.0,0.0,0.0348761011160352,1024,0.0,100,Motors_Started,
0.352654757256197,36.8960323394699,1200,2017-11-08 05:47:16,1769.1527666128866,0.0,0.0,0.038295501225456004,1769.1527666128866,0.0,0.0,0.038295501225456004,1024,0.0,100,Motors_Started,
0.352654814417024,36.8960323674194,1400,2017-11-08 05:47:16,1769.1527666128866,0.0,0.0,0.0453101014499232,1769.1527666128866,0.0,0.0,0.0453101014499232,1024,0.0,100,Motors_Started,
0.352654827293945,36.896032394058,1500,2017-11-08 05:47:17,1769.1527666128866,0.0,0.0,0.04815420154093441,1769.1527666128866,0.0,0.0,0.04815420154093441,1024,0.0,100,Assisted_Takeoff,
0.352654839830928,36.8960324261148,1600,2017-11-08 05:47:17,1769.1527666128866,0.0,0.0,0.0513852016443264,1769.1527666128866,0.0,0.0,0.0513852016443264,463,0.0,100,Assisted_Takeoff,
0.352654859086057,36.8960324478637,1700,2017-11-08 05:47:17,1769.1527666128866,0.0,0.0,0.05455860174587521,1769.1527666128866,0.0,0.0,0.05455860174587521,616,0.0,100,Assisted_Takeoff,
0.35265488817251,36.8960324619276,1800,2017-11-08 05:47:17,1769.1527666128866,0.0,0.0,0.0580749018583968,1769.1527666128866,0.0,0.0,0.0580749018583968,839,0.0,100,Assisted_Takeoff,
0.35265492615963,36.8960324932873,1900,2017-11-08 05:47:17,1769.1527666128866,0.0,0.0,0.06354890203356481,1769.1527666128866,0.0,0.0,0.06354890203356481,953,0.0,100,Assisted_Takeoff,
0.352654967050266,36.8960325257357,2000,2017-11-08 05:47:17,1769.1527666128866,0.0,0.0,0.0693531022192992,1769.1527666128866,0.0,0.0,0.0693531022192992,1024,0.0,100,Assisted_Takeoff,
0.352655016752819,36.8960325483569,2100,2017-11-08 05:47:17,1769.1527666128866,0.0,0.0,0.0752808024089856,1769.1527666128866,0.0,0.0,0.0752808024089856,1024,0.0,100,Assisted_Takeoff,
0.352655064610753,36.8960325631635,2200,2017-11-08 05:47:17,1769.1527666128866,0.0,0.0,0.0805592025778944,1769.1527666128866,0.0,0.0,0.0805592025778944,1024,0.0,100,Assisted_Takeoff,
0.352655118908368,36.8960325673897,2300,2017-11-08 05:47:17,1769.1527666128866,0.0,0.0,0.0858202027462464,1769.1527666128866,0.0,0.0,0.0858202027462464,1024,0.0,100,Assisted_Takeoff,
0.35265517066846,36.8960325699278,2400,2017-11-08 05:47:17,1769.1527666128866,0.0,0.0,0.0908413029069216,1769.1527666128866,0.0,0.0,0.0908413029069216,1024,0.0,100,Assisted_Takeoff,
0.352655203104622,36.8960325892997,2500,2017-11-08 05:47:18,1769.1527666128866,0.0,0.0,0.09504260304136321,1769.1527666128866,0.0,0.0,0.09504260304136321,1024,0.0,100,Assisted_Takeoff,
0.352655227965262,36.8960326142098,2600,2017-11-08 05:47:18,1769.1527666128866,0.0,0.0,0.098848003163136,1769.1527666128866,0.0,0.0,0.098848003163136,1024,0.0,100,Assisted_Takeoff,
0.352655257689251,36.896032632486,2700,2017-11-08 05:47:18,1769.1527666128866,0.0,0.0,0.102728003287296,1769.1527666128866,0.0,0.0,0.102728003287296,1024,0.0,100,Assisted_Takeoff,
0.352655293181595,36.8960326438338,2800,2017-11-08 05:47:18,1769.1527666128866,0.0,0.0,0.10675200341606401,1769.1527666128866,0.0,0.0,0.10675200341606401,1024,0.0,100,Assisted_Takeoff,
0.352655335061103,36.896032647428,2900,2017-11-08 05:47:18,1769.1527666128866,0.0,0.0,0.11096000355072001,1769.1527666128866,0.0,0.0,0.11096000355072001,1024,0.0,100,Assisted_Takeoff,
0.352655378144439,36.8960326494496,3000,2017-11-08 05:47:18,1769.1527666128866,0.0,0.0,0.115236003687552,1769.1527666128866,0.0,0.0,0.115236003687552,1024,0.0,100,Assisted_Takeoff,
0.352655401547215,36.8960326451613,3100,2017-11-08 05:47:18,1769.1527666128866,0.0,0.0,0.11729000375328,1769.1527666128866,0.0,0.0,0.11729000375328,1024,0.0,100,Assisted_Takeoff,
0.352655420005627,36.8960326418754,3200,2017-11-08 05:47:18,1769.1527666128866,0.0,0.0,0.118932003805824,1769.1527666128866,0.0,0.0,0.118932003805824,1024,0.0,100,Assisted_Takeoff,
0.352655443814293,36.8960326355551,3300,2017-11-08 05:47:18,1769.1527666128866,0.0,0.0,0.12096500387088001,1769.1527666128866,0.0,0.0,0.12096500387088001,1024,0.0,100,Assisted_Takeoff,
0.352655473724331,36.8960326290154,3400,2017-11-08 05:47:18,1769.1527666128866,0.0,0.0,0.12362600395603202,1769.1527666128866,0.0,0.0,0.12362600395603202,1024,0.0,100,Assisted_Takeoff,
0.35265551258104,36.8960326189748,3500,2017-11-08 05:47:19,1769.1527666128866,0.0,0.0,0.127064004066048,1769.1527666128866,0.0,0.0,0.127064004066048,1024,0.0,100,Assisted_Takeoff,
0.35265555511844,36.8960326117844,3600,2017-11-08 05:47:19,1769.1527666128866,0.0,0.0,0.131066004194112,1769.1527666128866,0.0,0.0,0.131066004194112,1024,0.0,100,Assisted_Takeoff,
0.352655582079773,36.896032628467,3700,2017-11-08 05:47:19,1769.1527666128866,0.0,0.0,0.13455500430576,1769.1527666128866,0.0,0.0,0.13455500430576,1024,0.0,100,Assisted_Takeoff,
0.352655602098235,36.8960326507723,3800,2017-11-08 05:47:19,1769.1527666128866,0.0,0.0,0.137593004402976,1769.1527666128866,0.0,0.0,0.137593004402976,1024,0.0,100,Assisted_Takeoff,
0.352655629640923,36.896032674114,3900,2017-11-08 05:47:19,1769.1527666128866,0.0,0.0,0.141453004526496,1769.1527666128866,0.0,0.0,0.141453004526496,1024,0.0,100,Assisted_Takeoff,
0.352655664138694,36.8960326865161,4000,2017-11-08 05:47:19,1769.1527666128866,0.0,0.0,0.14551600465651202,1769.1527666128866,0.0,0.0,0.14551600465651202,1024,0.0,100,Assisted_Takeoff,
0.352655682909768,36.8960326967526,4100,2017-11-08 05:47:19,1769.1527666128866,0.0,0.0,0.147887004732384,1769.1527666128866,0.0,0.0,0.147887004732384,1036,0.0,100,Assisted_Takeoff,
0.352655697819802,36.8960327007801,4200,2017-11-08 05:47:19,1769.1527666128866,0.0,0.0,0.149582004786624,1769.1527666128866,0.0,0.0,0.149582004786624,1046,0.0,100,Assisted_Takeoff,
0.352655721868663,36.8960327280812,4300,2017-11-08 05:47:19,1769.1527666128866,0.0,0.0,0.15328000490496002,1769.1527666128866,0.0,0.0,0.15328000490496002,1056,0.0,100,Assisted_Takeoff,
0.352655753376204,36.8960327566586,4400,2017-11-08 05:47:19,1769.1527666128866,0.0,0.0,0.15780500504976003,1769.1527666128866,0.0,0.0,0.15780500504976003,1080,0.0,100,Assisted_Takeoff,
0.352655770142664,36.8960327836277,4500,2017-11-08 05:47:20,1769.1527666128866,0.0,0.0,0.16079000514528,1769.1527666128866,0.0,0.0,0.16079000514528,1113,0.0,100,Assisted_Takeoff,
0.352655782836792,36.8960327980626,4600,2017-11-08 05:47:20,1769.1527666128866,0.0,0.0,0.162768005208576,1769.1527666128866,0.0,0.0,0.162768005208576,1146,0.0,100,Assisted_Takeoff,
0.352655805689153,36.8960328091213,4700,2017-11-08 05:47:20,1769.1527666128866,0.0,0.0,0.165591005298912,1769.1527666128866,0.0,0.0,0.165591005298912,1156,0.0,100,Assisted_Takeoff,
0.352655835738016,36.8960328137152,4800,2017-11-08 05:47:20,1769.1527666128866,0.0,0.0,0.16881300540201602,1769.1527666128866,0.0,0.0,0.16881300540201602,1161,0.0,100,Assisted_Takeoff,
0.352655852682383,36.8960328403016,4900,2017-11-08 05:47:20,1769.1527666128866,0.0,0.0,0.17181600549811202,1769.1527666128866,0.0,0.0,0.17181600549811202,1174,0.0,100,Assisted_Takeoff,
0.352655864761774,36.896032869048,5000,2017-11-08 05:47:20,1769.1527666128866,0.0,0.0,0.17446800558297604,1769.1527666128866,0.0,0.0,0.17446800558297604,1181,0.0,100,Assisted_Takeoff,
0.352655889147315,36.8960328944875,5100,2017-11-08 05:47:20,1769.1527666128866,0.0,0.0,0.17818300570185602,1769.1527666128866,0.0,0.0,0.17818300570185602,1186,0.0,100,Assisted_Takeoff,
0.352655919891524,36.8960329076052,5200,2017-11-08 05:47:20,1769.1527666128866,0.0,0.0,0.181887005820384,1769.1527666128866,0.0,0.0,0.181887005820384,1194,0.0,100,Assisted_Takeoff,
0.352655938960196,36.8960329428699,5300,2017-11-08 05:47:20,1769.1527666128866,0.0,0.0,0.185607005939424,1769.1527666128866,0.0,0.0,0.185607005939424,1216,0.0,100,Assisted_Takeoff,
0.35265595468323,36.8960329729502,5400,2017-11-08 05:47:20,1769.1527666128866,0.0,0.0,0.188753006040096,1769.1527666128866,0.0,0.0,0.188753006040096,1227,0.0,100,Assisted_Takeoff,
0.352655993488643,36.8960329835156,5500,2017-11-08 05:47:21,1769.1527666128866,0.0,0.0,0.19309700617910402,1769.1527666128866,0.0,0.0,0.19309700617910402,1241,0.0,100,Assisted_Takeoff,
0.35265603606024,36.8960329601919,5600,2017-11-08 05:47:21,1769.1527666128866,0.0,0.0,0.19604500627344001,1769.1527666128866,0.0,0.0,0.19604500627344001,1271,0.0,100,GPS_Atti,
0.352656052251045,36.8960329155429,5700,2017-11-08 05:47:21,1769.1527666128866,0.0,0.0,0.19541700625334402,1769.1527666128866,0.0,0.0,0.19604500627344001,1298,0.0,100,GPS_Atti,Home Point Recorded. RTH Altitude:  30m.
0.352656047510644,36.8960328621678,5800,2017-11-08 05:47:21,1769.1527666128866,0.0,0.0,0.192411006157152,1769.1527666128866,0.0,0.0,0.19604500627344001,1300,0.0,100,GPS_Atti,
0.352656047942182,36.896032795608,5900,2017-11-08 05:47:21,1769.2527666160868,0.1000000032,0.0,0.189509006064288,1769.2527666160868,0.1000000032,0.0,0.19604500627344001,1300,0.0,100,GPS_Atti,
0.352656103864984,36.8960327222676,6000,2017-11-08 05:47:21,1769.2527666160868,0.1000000032,0.0,0.192403006156896,1769.2527666160868,0.1000000032,0.0,0.19604500627344001,1290,0.0,100,GPS_Atti,Obstacle Avoided. Revise Flight Route
0.352656238859328,36.8960326534686,6100,2017-11-08 05:47:21,1769.3527666192867,0.2000000064,0.0,0.204372006539904,1769.3527666192867,0.2000000064,0.0,0.204372006539904,1276,0.0,100,GPS_Atti,
0.352656360781337,36.896032576156,6200,2017-11-08 05:47:21,1769.4527666224867,0.3000000096,0.0,0.215362006891584,1769.4527666224867,0.3000000096,0.0,0.215362006891584,1269,0.0,100,GPS_Atti,
0.352656429772809,36.8960325070273,6300,2017-11-08 05:47:21,1769.552766625687,0.4000000128,0.0,0.22132400708236802,1769.552766625687,0.4000000128,0.0,0.22132400708236802,1251,0.0,100,GPS_Atti,
0.352656449025903,36.8960324456455,6400,2017-11-08 05:47:21,1769.6527666288869,0.500000016,0.0,0.22230400711372802,1769.6527666288869,0.500000016,0.0,0.22230400711372802,1251,0.0,100,GPS_Atti,
0.352656449521764,36.8960324014114,6500,2017-11-08 05:47:22,1769.8527666352868,0.7000000224,0.0,0.22167300709353602,1769.8527666352868,0.7000000224,0.0,0.22230400711372802,1245,0.0,100,GPS_Atti,
0.352656438314812,36.8960323578172,6600,2017-11-08 05:47:22,1769.952766638487,0.8000000256,0.0,0.219864007035648,1769.952766638487,0.8000000256,0.0,0.22230400711372802,1237,0.0,100,GPS_Atti,
0.352656460118863,36.8960323177033,6700,2017-11-08 05:47:22,1770.052766641687,0.9000000288000001,0.0,0.22184600709907198,1770.052766641687,0.9000000288000001,0.0,0.22230400711372802,1237,0.0,100,GPS_Atti,
0.352656501597775,36.8960322706003,6800,2017-11-08 05:47:22,1770.1527666448867,1.000000032,0.0,0.226059007233888,1770.1527666448867,1.000000032,0.0,0.226059007233888,1231,0.0,100,GPS_Atti,
0.352656534079126,36.8960322262197,6900,2017-11-08 05:47:22,1770.2527666480867,1.1000000352000001,0.0,0.229419007341408,1770.2527666480867,1.1000000352000001,0.0,0.229419007341408,1231,0.0,100,GPS_Atti,
0.352656571257723,36.8960321695169,7000,2017-11-08 05:47:22,1770.3527666512869,1.2000000384,0.0,0.23339300746857602,1770.3527666512869,1.2000000384,0.0,0.23339300746857602,1228,0.0,100,GPS_Atti,
0.352656638847513,36.8960321090884,7100,2017-11-08 05:47:22,1770.4527666544868,1.3000000416000002,0.35999970196000003,0.240929007709728,1770.4527666544868,1.3000000416000002,0.35999970196000003,0.240929007709728,1220,0.0,100,GPS_Atti,
0.352656724107141,36.8960320370509,7200,2017-11-08 05:47:22,1770.5527666576868,1.4000000448,0.35999970196000003,0.250667008021344,1770.5527666576868,1.4000000448,0.35999970196000003,0.250667008021344,1220,0.0,100,GPS_Atti,
0.35265681446502,36.8960319468683,7300,2017-11-08 05:47:22,1770.6527666608868,1.5000000480000002,0.0,0.26136000836352,1770.6527666608868,1.5000000480000002,0.35999970196000003,0.26136000836352,1226,0.0,100,GPS_Atti,
0.352656893954664,36.8960318548068,7400,2017-11-08 05:47:22,1770.752766664087,1.6000000512,0.0,0.271199008678368,1770.752766664087,1.6000000512,0.35999970196000003,0.271199008678368,1228,0.0,100,GPS_Atti,
0.352656943816805,36.8960317681908,7500,2017-11-08 05:47:23,1770.852766667287,1.7000000544000002,0.0,0.27799500889584,1770.852766667287,1.7000000544000002,0.35999970196000003,0.27799500889584,1235,0.0,100,GPS_Atti,
0.352656973396269,36.8960316942889,7600,2017-11-08 05:47:23,1770.9527666704867,1.8000000576000001,0.0,0.282591009042912,1770.9527666704867,1.8000000576000001,0.35999970196000003,0.282591009042912,1244,0.0,100,GPS_Atti,
0.352656967956859,36.89603163104,7700,2017-11-08 05:47:23,1770.9527666704867,1.8000000576000001,0.0,0.283332009066624,1770.9527666704867,1.8000000576000001,0.35999970196000003,0.283332009066624,1253,0.0,100,GPS_Atti,
0.352656948290141,36.8960316043784,7800,2017-11-08 05:47:23,1771.0527666736866,1.9000000608000003,0.0,0.281809009017888,1771.0527666736866,1.9000000608000003,0.35999970196000003,0.283332009066624,1272,0.0,100,GPS_Atti,
0.352656940965807,36.8960316260207,7900,2017-11-08 05:47:23,1771.1527666768868,2.000000064,0.0,0.280507008976224,1771.1527666768868,2.000000064,0.35999970196000003,0.283332009066624,1282,0.0,100,GPS_Atti,
0.352656944182798,36.8960316723553,8000,2017-11-08 05:47:23,1771.2527666800868,2.1000000672000003,0.0,0.279843008954976,1771.2527666800868,2.1000000672000003,0.35999970196000003,0.283332009066624,1287,0.0,100,GPS_Atti,
0.352656905141667,36.8960317204599,8100,2017-11-08 05:47:23,1771.3527666832867,2.2000000704000002,0.0,0.274609008787488,1771.3527666832867,2.2000000704000002,0.35999970196000003,0.283332009066624,1289,0.0,100,GPS_Atti,
0.352656844364473,36.8960317636248,8200,2017-11-08 05:47:23,1771.552766689687,2.4000000768,0.0,0.267148008548736,1771.552766689687,2.4000000768,0.35999970196000003,0.283332009066624,1294,0.0,100,GPS_Atti,
0.352656761280853,36.8960318187563,8300,2017-11-08 05:47:23,1771.6527666928869,2.50000008,0.0,0.257092008226944,1771.6527666928869,2.50000008,0.35999970196000003,0.283332009066624,1297,0.0,100,GPS_Atti,
0.352656684072659,36.8960318740416,8400,2017-11-08 05:47:23,1771.7527666960868,2.6000000832000003,0.0,0.247771007928672,1771.7527666960868,2.6000000832000003,0.35999970196000003,0.283332009066624,1296,0.0,100,GPS_Atti,
0.352656579856722,36.8960319711704,8600,2017-11-08 05:47:24,1772.0527667056867,2.9000000928,0.0,0.23513600752435201,1772.0527667056867,2.9000000928,0.35999970196000003,0.283332009066624,1296,0.0,100,GPS_Atti,
0.352656554063797,36.8960320502818,8700,2017-11-08 05:47:24,1772.1527667088867,3.0000000960000004,0.0,0.231709007414688,1772.1527667088867,3.0000000960000004,0.35999970196000003,0.283332009066624,1300,0.0,100,GPS_Atti,
0.352656551997709,36.8960321466873,8800,2017-11-08 05:47:24,1772.3527667152869,3.2000001024,0.0,0.23123700739958403,1772.3527667152869,3.2000001024,0.35999970196000003,0.283332009066624,1324,0.0,100,GPS_Atti,
0.352656568849662,36.8960322542836,8900,2017-11-08 05:47:24,1772.4527667184868,3.3000001056,0.0,0.233424007469568,1772.4527667184868,3.3000001056,0.35999970196000003,0.283332009066624,1334,0.0,100,GPS_Atti,
0.352656608825926,36.8960323299003,9000,2017-11-08 05:47:24,1772.5527667216868,3.4000001088000005,0.0,0.23843900763004802,1772.5527667216868,3.4000001088000005,0.35999970196000003,0.283332009066624,1331,0.0,100,GPS_Atti,
0.352656630147551,36.8960323992356,9100,2017-11-08 05:47:24,1772.752766728087,3.6000001152000003,0.0,0.241579007730528,1772.752766728087,3.6000001152000003,0.35999970196000003,0.283332009066624,1330,0.0,100,GPS_Atti,
0.352656647265754,36.8960324597027,9200,2017-11-08 05:47:24,1772.8527667312867,3.7000001184,0.0,0.24434000781888002,1772.8527667312867,3.7000001184,0.35999970196000003,0.283332009066624,1331,0.0,100,GPS_Atti,
0.352656643108744,36.8960325311562,9300,2017-11-08 05:47:24,1773.0527667376869,3.9000001248,0.0,0.24514700784470403,1773.0527667376869,3.9000001248,0.35999970196000003,0.283332009066624,1332,0.0,100,GPS_Atti,
0.352656650304431,36.8960326008373,9400,2017-11-08 05:47:24,1773.2527667440868,4.100000131200001,0.0,0.24740400791692801,1773.2527667440868,4.100000131200001,0.35999970196000003,0.283332009066624,1331,0.0,100,GPS_Atti,
0.352656670099796,36.8960326721393,9500,2017-11-08 05:47:25,1773.3527667472868,4.200000134400001,0.0,0.25128700804118403,1773.3527667472868,4.200000134400001,0.35999970196000003,0.283332009066624,1332,0.0,100,GPS_Atti,
0.352656706710881,36.8960327238668,9600,2017-11-08 05:47:25,1773.552766753687,4.4000001408000005,0.0,0.25662900821212803,1773.552766753687,4.4000001408000005,0.35999970196000003,0.283332009066624,1333,0.0,100,GPS_Atti,
0.352656714001425,36.8960327705606,9700,2017-11-08 05:47:25,1773.7527667600866,4.6000001472,0.0,0.25876000828032003,1773.7527667600866,4.6000001472,0.35999970196000003,0.283332009066624,1334,0.0,99,GPS_Atti,
0.352656712627018,36.896032806356,9800,2017-11-08 05:47:25,1773.8527667632868,4.7000001504,0.0,0.259711008310752,1773.8527667632868,4.7000001504,0.35999970196000003,0.283332009066624,1335,0.0,99,GPS_Atti,
0.35265670894307,36.8960327962798,9900,2017-11-08 05:47:25,1774.0527667696867,4.9000001568,0.0,0.259003008288096,1774.0527667696867,4.9000001568,0.35999970196000003,0.283332009066624,1335,0.0,99,GPS_Atti,
0.352656702748877,36.8960327510629,10000,2017-11-08 05:47:25,1774.252766776087,5.1000001632,0.0,0.25697800822329603,1774.252766776087,5.1000001632,0.35999970196000003,0.283332009066624,1335,0.0,99,GPS_Atti,
0.352656680871546,36.8960327031574,10100,2017-11-08 05:47:25,1774.3527667792869,5.200000166400001,0.0,0.2532750081048,1774.3527667792869,5.200000166400001,0.35999970196000003,0.283332009066624,1338,0.0,99,GPS_Atti,
0.352656664277701,36.8960326667031,10200,2017-11-08 05:47:25,1774.552766785687,5.4000001728,0.0,0.25051700801654403,1774.552766785687,5.4000001728,0.35999970196000003,0.283332009066624,1336,0.0,99,GPS_Atti,
0.352656657018505,36.8960326493318,10300,2017-11-08 05:47:25,1774.7527667920867,5.6000001792,0.0,0.24929100797731202,1774.7527667920867,5.6000001792,0.35999970196000003,0.283332009066624,1345,0.0,99,GPS_Atti,
0.352656660546122,36.8960326396127,10400,2017-11-08 05:47:25,1774.8527667952867,5.7000001824,0.0,0.24943300798185603,1774.8527667952867,5.7000001824,0.35999970196000003,0.283332009066624,1354,0.0,99,GPS_Atti,
0.352656661064374,36.8960326271571,10500,2017-11-08 05:47:26,1775.0527668016869,5.9000001888,0.0,0.249188007974016,1775.0527668016869,5.9000001888,0.35999970196000003,0.283332009066624,1371,0.0,99,GPS_Atti,
0.352656635115119,36.896032615827,10600,2017-11-08 05:47:26,1775.2527668080868,6.100000195200001,0.0,0.24609900787516803,1775.2527668080868,6.100000195200001,0.35999970196000003,0.283332009066624,1384,0.0,99,GPS_Atti,
0.352656585701615,36.8960326171168,10700,2017-11-08 05:47:26,1775.4527668144867,6.3000002016,0.35999970196000003,0.240764007704448,1775.4527668144867,6.3000002016,0.35999970196000003,0.283332009066624,1376,0.0,99,GPS_Atti,
0.352656517562225,36.8960326449614,10800,2017-11-08 05:47:26,1775.5527668176867,6.4000002048,0.35999970196000003,0.234089007490848,1775.5527668176867,6.4000002048,0.35999970196000003,0.283332009066624,1376,0.0,99,GPS_Atti,
0.352656460924943,36.8960327194639,10900,2017-11-08 05:47:26,1775.7527668240868,6.6000002112,0.0,0.23013400736428802,1775.7527668240868,6.6000002112,0.35999970196000003,0.283332009066624,1366,0.0,99,GPS_Atti,
0.352656456288763,36.8960328072504,11000,2017-11-08 05:47:26,1775.9527668304868,6.800000217600001,0.0,0.23254000744128,1775.9527668304868,6.800000217600001,0.35999970196000003,0.283332009066624,1359,0.0,99,GPS_Atti,
0.352656468990219,36.8960328825541,11100,2017-11-08 05:47:26,1776.152766836887,7.000000224,0.0,0.23664900757276802,1776.152766836887,7.000000224,0.35999970196000003,0.283332009066624,1359,0.0,99,GPS_Atti,
0.352656448462461,36.8960329596274,11200,2017-11-08 05:47:26,1776.3527668432866,7.200000230400001,0.0,0.23764000760448,1776.3527668432866,7.200000230400001,0.35999970196000003,0.283332009066624,1366,0.0,99,GPS_Atti,
0.352656386767639,36.8960330508931,11300,2017-11-08 05:47:26,1776.5527668496868,7.4000002368,0.35999970196000003,0.23546800753497601,1776.5527668496868,7.4000002368,0.35999970196000003,0.283332009066624,1366,0.0,99,GPS_Atti,
0.352656308315314,36.8960331395457,11400,2017-11-08 05:47:26,1776.7527668560867,7.600000243200001,0.35999970196000003,0.23214000742848,1776.7527668560867,7.600000243200001,0.35999970196000003,0.283332009066624,1366,0.0,99,GPS_Atti,
0.352656215509476,36.8960332203664,11500,2017-11-08 05:47:27,1776.952766862487,7.8000002496,0.0,0.22770500728656,1776.952766862487,7.8000002496,0.35999970196000003,0.283332009066624,1365,0.0,99,GPS_Atti,
0.352656124596705,36.8960332673091,11600,2017-11-08 05:47:27,1777.1527668688866,8.000000256,0.0,0.222054007105728,1777.1527668688866,8.000000256,0.35999970196000003,0.283332009066624,1365,0.0,99,GPS_Atti,
0.352655996430834,36.896033292467,11700,2017-11-08 05:47:27,1777.3527668752868,8.200000262400001,0.0,0.21208500678672002,1777.3527668752868,8.200000262400001,0.35999970196000003,0.283332009066624,1371,0.0,99,GPS_Atti,
0.352655858535011,36.8960333075255,11800,2017-11-08 05:47:27,1777.5527668816867,8.400000268800001,0.35999970196000003,0.201117006435744,1777.5527668816867,8.400000268800001,0.35999970196000003,0.283332009066624,1372,0.0,99,GPS_Atti,
0.352655708523971,36.8960333089194,11900,2017-11-08 05:47:27,1777.7527668880869,8.6000002752,0.35999970196000003,0.188744006039808,1777.7527668880869,8.6000002752,0.35999970196000003,0.283332009066624,1372,0.0,99,GPS_Atti,
0.352655582685147,36.8960332915479,12000,2017-11-08 05:47:27,1777.9527668944868,8.800000281600001,0.35999970196000003,0.17741900567740804,1777.9527668944868,8.800000281600001,0.35999970196000003,0.283332009066624,1376,0.0,99,GPS_Atti,
0.352655453128585,36.8960332895799,12100,2017-11-08 05:47:27,1778.1527669008867,9.000000288,0.0,0.167548005361536,1778.1527669008867,9.000000288,0.35999970196000003,0.283332009066624,1376,0.0,99,GPS_Atti,
0.352655349653183,36.8960332894375,12200,2017-11-08 05:47:27,1778.3527669072869,9.2000002944,0.0,0.160286005129152,1778.3527669072869,9.2000002944,0.35999970196000003,0.283332009066624,1375,0.0,99,GPS_Atti,
0.352655266314711,36.8960332682804,12300,2017-11-08 05:47:27,1778.5527669136868,9.4000003008,0.0,0.15289400489260802,1778.5527669136868,9.4000003008,0.35999970196000003,0.283332009066624,1365,0.0,99,GPS_Atti,
0.352655218413217,36.8960332329721,12400,2017-11-08 05:47:27,1778.752766920087,9.6000003072,0.0,0.146628004692096,1778.752766920087,9.6000003072,0.35999970196000003,0.283332009066624,1362,0.0,99,GPS_Atti,
0.352655177472506,36.8960332085408,12500,2017-11-08 05:47:28,1778.952766926487,9.8000003136,0.0,0.14183000453856,1778.952766926487,9.8000003136,0.35999970196000003,0.283332009066624,1365,0.0,99,GPS_Atti,
0.352655155810537,36.896033194042,12600,2017-11-08 05:47:28,1779.1527669328868,10.00000032,0.0,0.13915900445308801,1779.1527669328868,10.00000032,0.35999970196000003,0.283332009066624,1364,0.0,99,GPS_Atti,
0.352655163372624,36.8960331956329,12700,2017-11-08 05:47:28,1779.3527669392868,10.2000003264,0.0,0.139768004472576,1779.3527669392868,10.2000003264,0.35999970196000003,0.283332009066624,1363,0.0,99,GPS_Atti,
0.352655204675663,36.8960331937867,12800,2017-11-08 05:47:28,1779.552766945687,10.400000332800001,0.0,0.1421750045496,1779.552766945687,10.400000332800001,0.35999970196000003,0.283332009066624,1364,0.0,99,GPS_Atti,
0.352655284639999,36.8960331749672,12900,2017-11-08 05:47:28,1779.7527669520869,10.600000339200001,0.0,0.145798004665536,1779.7527669520869,10.600000339200001,0.35999970196000003,0.283332009066624,1363,0.0,99,GPS_Atti,
0.352655384050805,36.8960331463887,13000,2017-11-08 05:47:28,1779.9527669584868,10.8000003456,0.0,0.150527004816864,1779.9527669584868,10.8000003456,0.35999970196000003,0.283332009066624,1363,0.0,99,GPS_Atti,
0.352655475358881,36.8960331324214,13100,2017-11-08 05:47:28,1780.1527669648867,11.000000351999999,0.0,0.1564500050064,1780.1527669648867,11.000000351999999,0.35999970196000003,0.283332009066624,1366,0.0,99,GPS_Atti,
0.352655559123191,36.896033130614,13200,2017-11-08 05:47:28,1780.3527669712869,11.2000003584,0.0,0.16308500521872002,1780.3527669712869,11.2000003584,0.35999970196000003,0.283332009066624,1370,0.0,99,GPS_Atti,
0.352655632814353,36.8960331626192,13300,2017-11-08 05:47:28,1780.5527669776868,11.4000003648,0.0,0.17157000549024,1780.5527669776868,11.4000003648,0.35999970196000003,0.283332009066624,1371,0.0,99,GPS_Atti,
0.352655703488822,36.8960332111534,13400,2017-11-08 05:47:28,1780.752766984087,11.6000003712,0.0,0.181042005793344,1780.752766984087,11.6000003712,0.35999970196000003,0.283332009066624,1371,0.0,99,GPS_Atti,
0.352655773677608,36.8960332682836,13500,2017-11-08 05:47:29,1780.9527669904867,11.8000003776,0.0,0.191102006115264,1780.9527669904867,11.8000003776,0.35999970196000003,0.283332009066624,1371,0.0,99,GPS_Atti,
0.352655859904532,36.8960333089256,13600,2017-11-08 05:47:29,1781.1527669968868,12.000000384000002,0.0,0.201334006442688,1781.1527669968868,12.000000384000002,0.35999970196000003,0.283332009066624,1372,0.0,99,GPS_Atti,
0.352655956731812,36.8960333671631,13700,2017-11-08 05:47:29,1781.3527670032868,12.200000390400001,0.0,0.21375500684016002,1781.3527670032868,12.200000390400001,0.35999970196000003,0.283332009066624,1374,0.0,99,GPS_Atti,
0.35265605899606,36.8960334260117,13800,2017-11-08 05:47:29,1781.552767009687,12.400000396800001,0.0,0.22670500725456,1781.552767009687,12.400000396800001,0.35999970196000003,0.283332009066624,1374,0.0,99,GPS_Atti,
0.35265613481397,36.8960335023447,13900,2017-11-08 05:47:29,1781.8527670192868,12.700000406400001,0.0,0.238601007635232,1781.8527670192868,12.700000406400001,0.35999970196000003,0.283332009066624,1374,0.0,99,GPS_Atti,
0.352656195895275,36.8960335780128,14000,2017-11-08 05:47:29,1782.0527670256868,12.9000004128,0.0,0.24919400797420801,1782.0527670256868,12.9000004128,0.35999970196000003,0.283332009066624,1375,0.0,99,GPS_Atti,
0.352656275380034,36.8960336630005,14100,2017-11-08 05:47:29,1782.1527670288867,13.000000416,0.0,0.262038008385216,1782.1527670288867,13.000000416,0.35999970196000003,0.283332009066624,1376,0.0,99,GPS_Atti,
0.35265637225861,36.8960337432626,14200,2017-11-08 05:47:29,1782.352767035287,13.2000004224,0.0,0.276028008832896,1782.352767035287,13.2000004224,0.35999970196000003,0.283332009066624,1377,0.0,99,GPS_Atti,
0.352656452871473,36.8960338206769,14300,2017-11-08 05:47:29,1782.6527670448868,13.500000432,0.0,0.28843100922979203,1782.6527670448868,13.500000432,0.35999970196000003,0.28843100922979203,1377,0.0,99,GPS_Atti,
0.352656515667531,36.8960338919316,14400,2017-11-08 05:47:29,1782.8527670512867,13.7000004384,0.0,0.298884009564288,1782.8527670512867,13.7000004384,0.35999970196000003,0.298884009564288,1379,0.0,99,GPS_Atti,
0.352656557691156,36.8960339803053,14500,2017-11-08 05:47:30,1783.0527670576869,13.9000004448,0.0,0.308853009883296,1783.0527670576869,13.9000004448,0.35999970196000003,0.308853009883296,1381,0.0,99,GPS_Atti,
0.352656595615582,36.8960340713916,14600,2017-11-08 05:47:30,1783.2527670640868,14.100000451200001,0.0,0.31874701019990404,1783.2527670640868,14.100000451200001,0.35999970196000003,0.31874701019990404,1380,0.0,99,GPS_Atti,
0.352656602477437,36.8960341504009,14700,2017-11-08 05:47:30,1783.5527670736867,14.400000460800001,0.0,0.325271010408672,1783.5527670736867,14.400000460800001,0.35999970196000003,0.325271010408672,1380,0.0,99,GPS_Atti,
0.352656610000035,36.8960342151481,14800,2017-11-08 05:47:30,1783.7527670800869,14.600000467200001,0.0,0.33084801058713603,1783.7527670800869,14.600000467200001,0.35999970196000003,0.33084801058713603,1380,0.0,99,GPS_Atti,
0.352656614146867,36.8960342880708,14900,2017-11-08 05:47:30,1783.9527670864868,14.8000004736,0.0,0.33686501077968,1783.9527670864868,14.8000004736,0.35999970196000003,0.33686501077968,1380,0.0,99,GPS_Atti,
0.352656630881572,36.8960343603692,15000,2017-11-08 05:47:30,1784.252767096087,15.1000004832,0.0,0.34389501100464,1784.252767096087,15.1000004832,0.35999970196000003,0.34389501100464,1380,0.0,99,GPS_Atti,
0.352656643256932,36.896034393623,15100,2017-11-08 05:47:30,1784.4527671024866,15.3000004896,0.0,0.34750701112022403,1784.4527671024866,15.3000004896,0.35999970196000003,0.34750701112022403,1380,0.0,99,GPS_Atti,
0.352656666003852,36.896034406035,15200,2017-11-08 05:47:30,1784.6527671088868,15.500000496,0.0,0.35025801120825606,1784.6527671088868,15.500000496,0.35999970196000003,0.35025801120825606,1378,0.0,99,GPS_Atti,
0.352656678615337,36.896034427274,15300,2017-11-08 05:47:30,1784.8527671152867,15.700000502400002,0.0,0.352931011293792,1784.8527671152867,15.700000502400002,0.35999970196000003,0.352931011293792,1378,0.0,99,GPS_Atti,
0.352656671171719,36.8960344620101,15400,2017-11-08 05:47:30,1785.0527671216869,15.900000508800002,0.0,0.355148011364736,1785.0527671216869,15.900000508800002,0.35999970196000003,0.355148011364736,1380,0.0,99,GPS_Atti,
0.35265661784832,36.8960344951236,15500,2017-11-08 05:47:31,1785.3527671312868,16.2000005184,0.0,0.35380201132166406,1785.3527671312868,16.2000005184,0.35999970196000003,0.355148011364736,1380,0.0,99,GPS_Atti,
0.352656576272517,36.8960345110723,15600,2017-11-08 05:47:31,1785.5527671376867,16.400000524800003,0.0,0.3520250112648,1785.5527671376867,16.400000524800003,0.35999970196000003,0.355148011364736,1380,0.0,99,GPS_Atti,
0.352656535439691,36.8960345021837,15700,2017-11-08 05:47:31,1785.7527671440869,16.600000531200003,0.0,0.34827901114492804,1785.7527671440869,16.600000531200003,0.35999970196000003,0.355148011364736,1381,0.0,99,GPS_Atti,
0.352656515240878,36.8960344748069,15800,2017-11-08 05:47:31,1786.052767153687,16.9000005408,0.0,0.344509011024288,1786.052767153687,16.9000005408,0.35999970196000003,0.355148011364736,1382,0.0,99,GPS_Atti,
0.352656489850587,36.8960344433951,15900,2017-11-08 05:47:31,1786.2527671600867,17.1000005472,0.0,0.34002101088067205,1786.2527671600867,17.1000005472,0.35999970196000003,0.355148011364736,1380,0.0,99,GPS_Atti,
0.352656468702392,36.8960344106107,16000,2017-11-08 05:47:31,1786.4527671664869,17.3000005536,0.0,0.33573001074336,1786.4527671664869,17.3000005536,0.35999970196000003,0.355148011364736,1381,0.0,99,GPS_Atti,
0.352656427862645,36.8960343881287,16100,2017-11-08 05:47:31,1786.7527671760868,17.600000563200002,0.0,0.330857010587424,1786.7527671760868,17.600000563200002,0.35999970196000003,0.355148011364736,1370,0.0,99,GPS_Atti,
0.352656393535859,36.896034372953,16200,2017-11-08 05:47:31,1786.952767182487,17.8000005696,0.0,0.32708101046659205,1786.952767182487,17.8000005696,0.35999970196000003,0.355148011364736,1368,0.0,99,GPS_Atti,
0.352656366844848,36.8960343770288,16300,2017-11-08 05:47:31,1787.1527671888866,18.000000576,0.0,0.32549501041584006,1787.1527671888866,18.000000576,0.35999970196000003,0.355148011364736,1379,0.0,99,GPS_Atti,
0.352656356846202,36.8960343853912,16400,2017-11-08 05:47:31,1787.4527671984868,18.3000005856,0.0,0.325488010415616,1787.4527671984868,18.3000005856,0.35999970196000003,0.355148011364736,1384,0.0,99,GPS_Atti,
0.352656319368785,36.8960343868097,16500,2017-11-08 05:47:32,1787.652767204887,18.500000592000003,0.0,0.322943010334176,1787.652767204887,18.500000592000003,0.35999970196000003,0.355148011364736,1386,0.0,99,GPS_Atti,
0.352656277005221,36.8960343793,16600,2017-11-08 05:47:32,1787.8527672112866,18.700000598400003,0.0,0.319317010218144,1787.8527672112866,18.700000598400003,0.35999970196000003,0.355148011364736,1394,0.0,99,GPS_Atti,
0.352656223727419,36.8960343730579,16700,2017-11-08 05:47:32,1788.0527672176868,18.900000604800002,0.0,0.31508201008262404,1788.0527672176868,18.900000604800002,0.35999970196000003,0.355148011364736,1390,0.0,99,GPS_Atti,
0.352656199645175,36.8960343717015,16800,2017-11-08 05:47:32,1788.2527672240867,19.1000006112,0.0,0.31331501002608003,1788.2527672240867,19.1000006112,0.35999970196000003,0.355148011364736,1383,0.0,99,GPS_Atti,
0.352656174909111,36.8960343468214,16900,2017-11-08 05:47:32,1788.5527672336868,19.4000006208,0.0,0.309443009902176,1788.5527672336868,19.4000006208,0.35999970196000003,0.355148011364736,1381,0.0,99,GPS_Atti,
0.35265616449399,36.8960343082055,17000,2017-11-08 05:47:32,1788.752767240087,19.6000006272,0.0,0.30534200977094406,1788.752767240087,19.6000006272,0.35999970196000003,0.355148011364736,1381,0.0,99,GPS_Atti,
0.352656127420427,36.8960342655577,17100,2017-11-08 05:47:32,1788.9527672464867,19.800000633600003,0.0,0.299066009570112,1788.9527672464867,19.800000633600003,0.35999970196000003,0.355148011364736,1409,0.0,99,GPS_Atti,
0.352656100236811,36.8960342350808,17200,2017-11-08 05:47:32,1789.2527672560868,20.1000006432,0.0,0.29453500942512,1789.2527672560868,20.1000006432,0.35999970196000003,0.355148011364736,1420,0.0,99,GPS_Atti,
0.35265607383607,36.8960341953298,17300,2017-11-08 05:47:32,1789.452767262487,20.3000006496,0.0,0.289244009255808,1789.452767262487,20.3000006496,0.35999970196000003,0.355148011364736,1437,0.0,99,GPS_Atti,
0.352656077149953,36.8960341493412,17400,2017-11-08 05:47:32,1789.6527672688867,20.500000656,0.0,0.285461009134752,1789.6527672688867,20.500000656,0.35999970196000003,0.355148011364736,1437,0.0,99,GPS_Atti,
0.35265609004723,36.8960340853734,17500,2017-11-08 05:47:33,1789.9527672784868,20.800000665600002,0.0,0.28086000898752,1789.9527672784868,20.800000665600002,0.35999970196000003,0.355148011364736,1440,0.0,99,GPS_Atti,
0.352656120881003,36.8960340318746,17600,2017-11-08 05:47:33,1790.1527672848867,21.000000672,0.0,0.278561008913952,1790.1527672848867,21.000000672,0.35999970196000003,0.355148011364736,1440,0.0,99,GPS_Atti,
0.352656110479317,36.8960340002591,17700,2017-11-08 05:47:33,1790.352767291287,21.200000678400002,0.0,0.27515700880502403,1790.352767291287,21.200000678400002,0.35999970196000003,0.355148011364736,1432,0.0,99,GPS_Atti,
0.352656082578371,36.8960339913581,17800,2017-11-08 05:47:33,1790.6527673008868,21.500000688,0.0,0.27236600871571204,1790.6527673008868,21.500000688,0.35999970196000003,0.355148011364736,1432,0.0,99,GPS_Atti,
0.352656020581473,36.8960339760371,17900,2017-11-08 05:47:33,1790.9527673104867,21.8000006976,0.0,0.266581008530592,1790.9527673104867,21.8000006976,0.35999970196000003,0.355148011364736,1431,0.0,99,GPS_Atti,
0.352655975381974,36.8960339554913,18000,2017-11-08 05:47:33,1791.1527673168869,22.000000703999998,0.0,0.261602008371264,1791.1527673168869,22.000000703999998,0.35999970196000003,0.355148011364736,1431,0.0,99,GPS_Atti,
0.352655935465555,36.8960339463733,18100,2017-11-08 05:47:33,1791.452767326487,22.300000713600003,0.0,0.258001008256032,1791.452767326487,22.300000713600003,0.35999970196000003,0.355148011364736,1432,0.0,99,GPS_Atti,
0.352655923605597,36.8960339479224,18200,2017-11-08 05:47:33,1791.6527673328867,22.50000072,0.0,0.25730500823376,1791.6527673328867,22.50000072,0.35999970196000003,0.355148011364736,1434,0.0,99,GPS_Atti,
0.35265589140841,36.8960339341123,18300,2017-11-08 05:47:33,1791.9527673424868,22.8000007296,0.0,0.25387000812384003,1791.9527673424868,22.8000007296,0.35999970196000003,0.355148011364736,1438,0.0,99,GPS_Atti,
0.352655858992196,36.8960339154237,18400,2017-11-08 05:47:33,1792.152767348887,23.000000736000004,0.0,0.250006008000192,1792.152767348887,23.000000736000004,0.35999970196000003,0.355148011364736,1438,0.0,99,GPS_Atti,
0.352655799151765,36.8960338704824,18500,2017-11-08 05:47:34,1792.4527673584867,23.300000745600002,0.0,0.241978007743296,1792.4527673584867,23.300000745600002,0.35999970196000003,0.355148011364736,1435,0.0,99,GPS_Atti,
0.352655750187304,36.8960338190938,18600,2017-11-08 05:47:34,1792.7527673680868,23.6000007552,0.0,0.23413000749216,1792.7527673680868,23.6000007552,0.35999970196000003,0.355148011364736,1435,0.0,99,GPS_Atti,
0.352655703605663,36.896033766771,18700,2017-11-08 05:47:34,1792.952767374487,23.8000007616,0.0,0.226363007243616,1792.952767374487,23.8000007616,0.35999970196000003,0.355148011364736,1437,0.0,99,GPS_Atti,
0.352655693460864,36.8960337363624,18800,2017-11-08 05:47:34,1793.2527673840866,24.100000771200005,0.0,0.22299000713568,1793.2527673840866,24.100000771200005,0.35999970196000003,0.355148011364736,1464,0.0,99,GPS_Atti,
0.352655683602264,36.8960337039415,18900,2017-11-08 05:47:34,1793.5527673936867,24.400000780800003,0.0,0.219467007022944,1793.5527673936867,24.400000780800003,0.35999970196000003,0.355148011364736,1455,0.0,99,GPS_Atti,
0.352655683812741,36.896033682642,19000,2017-11-08 05:47:34,1793.752767400087,24.600000787200003,0.0,0.217616006963712,1793.752767400087,24.600000787200003,0.35999970196000003,0.355148011364736,1434,0.0,99,GPS_Atti,
0.352655673213606,36.8960336776112,19100,2017-11-08 05:47:34,1794.052767409687,24.9000007968,0.0,0.216448006926336,1794.052767409687,24.9000007968,0.35999970196000003,0.355148011364736,1428,0.0,99,GPS_Atti,
0.352655675861456,36.8960336839575,19200,2017-11-08 05:47:34,1794.3527674192867,25.2000008064,0.0,0.21718500694992002,1794.3527674192867,25.2000008064,0.35999970196000003,0.355148011364736,1440,0.0,99,GPS_Atti,
0.352655649785996,36.8960336755758,19300,2017-11-08 05:47:34,1794.6527674288868,25.500000816000004,0.0,0.21467100686947202,1794.6527674288868,25.500000816000004,0.35999970196000003,0.355148011364736,1416,0.0,99,GPS_Atti,
0.352655619450527,36.8960336720827,19400,2017-11-08 05:47:34,1794.952767438487,25.8000008256,0.0,0.21232000679424,1794.952767438487,25.8000008256,0.35999970196000003,0.355148011364736,1402,0.0,99,GPS_Atti,
0.352655577240445,36.8960336598027,19500,2017-11-08 05:47:35,1795.2527674480868,26.100000835200003,0.0,0.208429006669728,1795.2527674480868,26.100000835200003,0.35999970196000003,0.355148011364736,1380,0.0,99,GPS_Atti,
0.35265556053953,36.8960336576221,19600,2017-11-08 05:47:35,1795.4527674544868,26.3000008416,0.0,0.207143006628576,1795.4527674544868,26.3000008416,0.35999970196000003,0.355148011364736,1387,0.0,99,GPS_Atti,
0.35265551941277,36.8960336709221,19700,2017-11-08 05:47:35,1795.752767464087,26.6000008512,0.0,0.20572400658316803,1795.752767464087,26.6000008512,0.35999970196000003,0.355148011364736,1390,0.0,99,GPS_Atti,
0.352655485877815,36.8960337043941,19800,2017-11-08 05:47:35,1795.9527674704866,26.8000008576,0.0,0.206747006615904,1795.9527674704866,26.8000008576,0.35999970196000003,0.355148011364736,1382,0.0,99,GPS_Atti,
0.352655424911315,36.8960337106043,19900,2017-11-08 05:47:35,1796.2527674800867,27.100000867200002,0.0,0.20372100651907202,1796.2527674800867,27.100000867200002,0.35999970196000003,0.355148011364736,1372,0.0,99,GPS_Atti,
0.352655383180809,36.8960336885136,20000,2017-11-08 05:47:35,1796.452767486487,27.3000008736,0.0,0.199229006375328,1796.452767486487,27.3000008736,0.35999970196000003,0.355148011364736,1384,0.0,99,GPS_Atti,
0.352655343844116,36.8960336436811,20100,2017-11-08 05:47:35,1796.6527674928868,27.50000088,0.0,0.19271600616691204,1796.6527674928868,27.50000088,0.35999970196000003,0.355148011364736,1391,0.0,99,GPS_Atti,
0.35265532814103,36.8960336141315,20200,2017-11-08 05:47:35,1796.8527674992868,27.7000008864,0.0,0.188997006047904,1796.8527674992868,27.7000008864,0.35999970196000003,0.355148011364736,1410,0.0,99,GPS_Atti,
0.352655293905845,36.8960335919164,20300,2017-11-08 05:47:35,1797.0527675056867,27.9000008928,0.0,0.18495800591865602,1797.0527675056867,27.9000008928,0.35999970196000003,0.355148011364736,1407,0.0,99,GPS_Atti,
0.352655280859566,36.8960335830891,20400,2017-11-08 05:47:35,1797.3527675152868,28.200000902400003,0.0,0.183389005868448,1797.3527675152868,28.200000902400003,0.35999970196000003,0.355148011364736,1385,0.0,99,GPS_Atti,
0.352655248660343,36.8960335762461,20500,2017-11-08 05:47:36,1797.552767521687,28.4000009088,0.0,0.18099200579174402,1797.552767521687,28.4000009088,0.35999970196000003,0.355148011364736,1405,0.0,99,GPS_Atti,
0.352655232753702,36.8960335693632,20600,2017-11-08 05:47:36,1797.7527675280867,28.600000915200003,0.0,0.17948000574336,1797.7527675280867,28.600000915200003,0.35999970196000003,0.355148011364736,1434,0.0,99,GPS_Atti,
0.352655219039354,36.8960335423065,20700,2017-11-08 05:47:36,1798.0527675376868,28.9000009248,0.0,0.17610700563542403,1798.0527675376868,28.9000009248,0.35999970196000003,0.355148011364736,1420,0.0,99,GPS_Atti,
0.352655232989012,36.8960335172996,20800,2017-11-08 05:47:36,1798.2527675440867,29.1000009312,0.0,0.174406005580992,1798.2527675440867,29.1000009312,0.35999970196000003,0.355148011364736,1416,0.0,99,GPS_Atti,
0.352655258266534,36.8960334889949,20900,2017-11-08 05:47:36,1798.452767550487,29.300000937600004,0.0,0.173062005537984,1798.452767550487,29.300000937600004,0.35999970196000003,0.355148011364736,1396,0.0,99,GPS_Atti,
0.352655298975191,36.8960334672264,21000,2017-11-08 05:47:36,1798.7527675600868,29.6000009472,0.0,0.173334005546688,1798.7527675600868,29.6000009472,0.35999970196000003,0.355148011364736,1394,0.0,99,GPS_Atti,
0.35265532955167,36.8960334574843,21100,2017-11-08 05:47:36,1798.9527675664867,29.8000009536,0.0,0.17425200557606402,1798.9527675664867,29.8000009536,0.35999970196000003,0.355148011364736,1406,0.0,99,GPS_Atti,
0.352655363616683,36.896033454428,21200,2017-11-08 05:47:36,1799.152767572887,30.00000096,0.0,0.176071005634272,1799.152767572887,30.00000096,0.35999970196000003,0.355148011364736,1413,0.0,99,GPS_Atti,
0.352655384582899,36.8960334515296,21300,2017-11-08 05:47:36,1799.452767582487,30.300000969600003,0.0,0.177129005668128,1799.452767582487,30.300000969600003,0.35999970196000003,0.355148011364736,1415,0.0,99,GPS_Atti,
0.352655402236861,36.8960334456975,21400,2017-11-08 05:47:36,1799.6527675888867,30.500000976,0.0,0.177733005687456,1799.6527675888867,30.500000976,0.35999970196000003,0.355148011364736,1409,0.0,99,GPS_Atti,
0.352655417504337,36.8960334314805,21500,2017-11-08 05:47:37,1799.8527675952869,30.700000982400002,0.0,0.177449005678368,1799.8527675952869,30.700000982400002,0.35999970196000003,0.355148011364736,1426,0.0,99,GPS_Atti,
0.3526554536676,36.89603342326,21600,2017-11-08 05:47:37,1800.1527676048868,31.000000992,0.0,0.17913400573228802,1800.1527676048868,31.000000992,0.35999970196000003,0.355148011364736,1429,0.0,99,GPS_Atti,
0.35265546566679,36.8960334318817,21700,2017-11-08 05:47:37,1800.3527676112867,31.2000009984,0.0,0.180707005782624,1800.3527676112867,31.2000009984,0.35999970196000003,0.355148011364736,1430,0.0,99,GPS_Atti,
0.352655481272169,36.8960334489414,21800,2017-11-08 05:47:37,1800.6527676208868,31.500001007999998,0.0,0.18327000586463998,1800.6527676208868,31.500001007999998,0.35999970196000003,0.355148011364736,1431,0.0,99,GPS_Atti,
0.352655466985015,36.8960334602062,21900,2017-11-08 05:47:37,1800.8527676272868,31.7000010144,0.0,0.183299005865568,1800.8527676272868,31.7000010144,0.35999970196000003,0.355148011364736,1414,0.0,99,GPS_Atti,
0.352655460049472,36.8960334671927,22000,2017-11-08 05:47:37,1801.152767636887,32.000001024,0.0,0.183457005870624,1801.152767636887,32.000001024,0.35999970196000003,0.355148011364736,1425,0.0,99,GPS_Atti,
0.352655436137401,36.8960334771698,22100,2017-11-08 05:47:37,1801.3527676432868,32.2000010304,0.0,0.18277500584880002,1801.3527676432868,32.2000010304,0.35999970196000003,0.355148011364736,1422,0.0,99,GPS_Atti,
0.352655425394149,36.8960334926244,22200,2017-11-08 05:47:37,1801.6527676528867,32.50000104,0.0,0.183478005871296,1801.6527676528867,32.50000104,0.35999970196000003,0.355148011364736,1434,0.0,99,GPS_Atti,
0.352655430705319,36.8960334951181,22300,2017-11-08 05:47:37,1801.8527676592869,32.700001046400004,0.0,0.184046005889472,1801.8527676592869,32.700001046400004,0.35999970196000003,0.355148011364736,1418,0.0,99,GPS_Atti,
0.352655460769652,36.8960334901163,22400,2017-11-08 05:47:37,1802.152767668887,33.000001056,0.0,0.18555200593766402,1802.152767668887,33.000001056,0.35999970196000003,0.355148011364736,1394,0.0,99,GPS_Atti,
0.352655482160892,36.896033477752,22500,2017-11-08 05:47:38,1802.3527676752867,33.200001062400005,0.0,0.18587300594793602,1802.3527676752867,33.200001062400005,0.35999970196000003,0.355148011364736,1425,0.0,99,GPS_Atti,
0.352655506488217,36.8960334755393,22600,2017-11-08 05:47:38,1802.6527676848868,33.500001072,0.0,0.1873250059944,1802.6527676848868,33.500001072,0.35999970196000003,0.355148011364736,1415,0.0,99,GPS_Atti,
0.352655517037684,36.8960334710021,22700,2017-11-08 05:47:38,1802.852767691287,33.7000010784,0.0,0.187651006004832,1802.852767691287,33.7000010784,0.35999970196000003,0.355148011364736,1406,0.0,99,GPS_Atti,
0.352655529776187,36.8960334890995,22800,2017-11-08 05:47:38,1803.0527676976867,33.9000010848,0.0,0.19010900608348802,1803.0527676976867,33.9000010848,0.35999970196000003,0.355148011364736,1394,0.0,99,GPS_Atti,
0.352655516610625,36.8960334932218,22900,2017-11-08 05:47:38,1803.3527677072868,34.2000010944,0.0,0.189569006066208,1803.3527677072868,34.2000010944,0.35999970196000003,0.355148011364736,1420,0.0,99,GPS_Atti,
0.352655503947844,36.8960335008081,23000,2017-11-08 05:47:38,1803.5527677136868,34.4000011008,0.0,0.189381006060192,1803.5527677136868,34.4000011008,0.35999970196000003,0.355148011364736,1415,0.0,99,GPS_Atti,
0.352655496759892,36.8960334963011,23100,2017-11-08 05:47:38,1803.752767720087,34.6000011072,0.0,0.188498006031936,1803.752767720087,34.6000011072,0.35999970196000003,0.355148011364736,1473,0.0,99,GPS_Atti,
0.352655500425113,36.8960334992201,23200,2017-11-08 05:47:38,1804.0527677296868,34.900001116800006,0.0,0.189003006048096,1804.0527677296868,34.900001116800006,0.35999970196000003,0.355148011364736,1434,0.0,99,GPS_Atti,
0.352655498290223,36.8960334866165,23300,2017-11-08 05:47:38,1804.2527677360868,35.1000011232,0.0,0.187744006007808,1804.2527677360868,35.1000011232,0.35999970196000003,0.355148011364736,1434,0.0,99,GPS_Atti,
0.352655494777262,36.8960334789192,23400,2017-11-08 05:47:38,1804.5527677456869,35.4000011328,0.0,0.18682700597846402,1804.5527677456869,35.4000011328,0.35999970196000003,0.355148011364736,1445,0.0,99,GPS_Atti,
0.35265548538399,36.8960334520031,23500,2017-11-08 05:47:39,1804.8527677552868,35.700001142400005,0.0,0.183819005882208,1804.8527677552868,35.700001142400005,0.35999970196000003,0.355148011364736,1485,0.0,99,GPS_Atti,
0.352655482244757,36.8960334450538,23600,2017-11-08 05:47:39,1805.0527677616867,35.9000011488,0.0,0.182994005855808,1805.0527677616867,35.9000011488,0.35999970196000003,0.355148011364736,1484,0.0,99,GPS_Atti,
0.352655459438806,36.8960334484639,23700,2017-11-08 05:47:39,1805.3527677712868,36.2000011584,0.0,0.181751005816032,1805.3527677712868,36.2000011584,0.35999970196000003,0.355148011364736,1484,0.0,99,GPS_Atti,
0.352655430919052,36.8960334550149,23800,2017-11-08 05:47:39,1805.652767780887,36.500001168000004,0.0,0.18044200577414402,1805.652767780887,36.500001168000004,0.35999970196000003,0.355148011364736,1500,0.0,99,GPS_Atti,
0.352655430836815,36.8960334336359,23900,2017-11-08 05:47:39,1805.9527677904869,36.8000011776,0.0,0.178523005712736,1805.9527677904869,36.8000011776,0.35999970196000003,0.355148011364736,1508,0.0,99,GPS_Atti,
0.352655460003876,36.8960334196622,24000,2017-11-08 05:47:39,1806.2527678000868,37.10000118720001,0.0,0.179247005735904,1806.2527678000868,37.10000118720001,0.35999970196000003,0.355148011364736,1501,0.0,99,GPS_Atti,
0.352655493764777,36.8960334035265,24100,2017-11-08 05:47:39,1806.5527678096867,37.400001196800005,0.0,0.1801750057656,1806.5527678096867,37.400001196800005,0.35999970196000003,0.355148011364736,1516,0.0,99,GPS_Atti,
0.352655522872399,36.8960333969744,24200,2017-11-08 05:47:39,1806.8527678192868,37.7000012064,0.0,0.18167300581353601,1806.8527678192868,37.7000012064,0.35999970196000003,0.355148011364736,1505,0.0,99,GPS_Atti,
0.352655532273406,36.8960333804835,24300,2017-11-08 05:47:39,1807.152767828887,38.000001216,0.0,0.18095200579046403,1807.152767828887,38.000001216,0.35999970196000003,0.355148011364736,1505,0.0,99,GPS_Atti,
0.352655530156836,36.8960333740278,24400,2017-11-08 05:47:39,1807.5527678416868,38.4000012288,0.0,0.180254005768128,1807.5527678416868,38.4000012288,0.35999970196000003,0.355148011364736,1500,0.0,99,GPS_Atti,
0.352655494021664,36.896033357824,24500,2017-11-08 05:47:40,1807.852767851287,38.7000012384,0.0,0.176276005640832,1807.852767851287,38.7000012384,0.35999970196000003,0.355148011364736,1510,0.0,99,GPS_Atti,
0.352655451268495,36.8960333501096,24600,2017-11-08 05:47:40,1808.1527678608868,39.000001248000004,0.0,0.17258400552268802,1808.1527678608868,39.000001248000004,0.35999970196000003,0.355148011364736,1509,0.0,99,GPS_Atti,
0.352655419415723,36.8960333137179,24700,2017-11-08 05:47:40,1808.5527678736867,39.4000012608,0.0,0.16721000535072,1808.5527678736867,39.4000012608,0.35999970196000003,0.355148011364736,1510,0.0,99,GPS_Atti,
0.352655417967223,36.8960332738627,24800,2017-11-08 05:47:40,1808.8527678832868,39.7000012704,0.0,0.163687005237984,1808.8527678832868,39.7000012704,0.35999970196000003,0.355148011364736,1515,0.0,99,GPS_Atti,
0.352655419979979,36.896033207634,24900,2017-11-08 05:47:40,1809.152767892887,40.00000128,0.0,0.158261005064352,1809.152767892887,40.00000128,0.35999970196000003,0.355148011364736,1500,0.0,99,GPS_Atti,
0.35265542526713,36.8960331664485,25000,2017-11-08 05:47:40,1809.5527679056868,40.400001292800006,0.0,0.155274004968768,1809.5527679056868,40.400001292800006,0.35999970196000003,0.355148011364736,1495,0.0,99,GPS_Atti,
0.352655402400112,36.8960331383359,25100,2017-11-08 05:47:40,1809.852767915287,40.700001302400004,0.0,0.151254004840128,1809.852767915287,40.700001302400004,0.35999970196000003,0.355148011364736,1495,0.0,99,GPS_Atti,
0.352655381166831,36.8960331368952,25200,2017-11-08 05:47:40,1810.152767924887,41.000001312,0.0,0.149531004784992,1810.152767924887,41.000001312,0.35999970196000003,0.355148011364736,1497,0.0,99,GPS_Atti,
0.35265536091998,36.8960331203004,25300,2017-11-08 05:47:40,1810.4527679344867,41.30000132160001,0.0,0.1466500046928,1810.4527679344867,41.30000132160001,0.35999970196000003,0.355148011364736,1501,0.0,99,GPS_Atti,
0.352655351444878,36.8960331084513,25400,2017-11-08 05:47:40,1810.7527679440868,41.600001331200005,0.0,0.144967004638944,1810.7527679440868,41.600001331200005,0.35999970196000003,0.355148011364736,1500,0.0,99,GPS_Atti,
0.352655334014421,36.8960330907257,25500,2017-11-08 05:47:41,1811.1527679568867,42.000001344,0.0,0.142204004550528,1811.1527679568867,42.000001344,0.35999970196000003,0.355148011364736,1516,0.0,99,GPS_Atti,
0.352655325971943,36.896033093388,25600,2017-11-08 05:47:41,1811.4527679664868,42.300001353599995,0.0,0.14182300453833602,1811.4527679664868,42.300001353599995,0.35999970196000003,0.355148011364736,1496,0.0,99,GPS_Atti,
0.35265529349222,36.8960330899123,25700,2017-11-08 05:47:41,1811.752767976087,42.6000013632,0.0,0.13914000445248,1811.752767976087,42.6000013632,0.35999970196000003,0.355148011364736,1487,0.0,98,GPS_Atti,
0.352655265064473,36.8960330967561,25800,2017-11-08 05:47:41,1812.0527679856868,42.900001372800006,0.0,0.137671004405472,1812.0527679856868,42.900001372800006,0.35999970196000003,0.355148011364736,1511,0.0,98,GPS_Atti,
0.352655227123764,36.8960330907691,25900,2017-11-08 05:47:41,1812.452767998487,43.300001385600005,0.0,0.13448800430361602,1812.452767998487,43.300001385600005,0.35999970196000003,0.355148011364736,1504,0.0,98,GPS_Atti,
0.352655210293795,36.8960331047454,26000,2017-11-08 05:47:41,1812.7527680080866,43.6000013952,0.0,0.134557004305824,1812.7527680080866,43.6000013952,0.35999970196000003,0.355148011364736,1501,0.0,98,GPS_Atti,
0.352655175584326,36.8960330853987,26100,2017-11-08 05:47:41,1813.0527680176867,43.9000014048,0.0,0.13051000417632,1813.0527680176867,43.9000014048,0.35999970196000003,0.355148011364736,1504,0.0,98,GPS_Atti,
0.352655152912721,36.8960330692704,26200,2017-11-08 05:47:41,1813.3527680272869,44.2000014144,0.0,0.127567004082144,1813.3527680272869,44.2000014144,0.35999970196000003,0.355148011364736,1503,-0.1,98,GPS_Atti,
0.352655140483215,36.896033038612,26300,2017-11-08 05:47:41,1813.7527680400867,44.600001427200006,0.0,0.124006003968192,1813.7527680400867,44.600001427200006,0.35999970196000003,0.355148011364736,1499,-0.5,98,GPS_Atti,
0.352655139202444,36.8960329601613,26500,2017-11-08 05:47:42,1814.352768059287,45.2000014464,0.0,0.117046003745472,1814.352768059287,45.2000014464,0.35999970196000003,0.355148011364736,1499,-1.0,98,GPS_Atti,
0.352655153159838,36.8960329241831,26600,2017-11-08 05:47:42,1814.7527680720868,45.6000014592,0.0,0.114993003679776,1814.7527680720868,45.6000014592,0.35999970196000003,0.355148011364736,1497,-1.6,98,GPS_Atti,
0.352655146362712,36.8960328874553,26700,2017-11-08 05:47:42,1815.0527680816867,45.9000014688,0.0,0.111441003566112,1815.0527680816867,45.9000014688,0.35999970196000003,0.355148011364736,1497,-2.2,98,GPS_Atti,
0.352655137930629,36.8960328772035,26800,2017-11-08 05:47:42,1815.3527680912869,46.2000014784,0.0,0.109966003518912,1815.3527680912869,46.2000014784,0.35999970196000003,0.355148011364736,1495,-2.8,98,GPS_Atti,
0.352655134419297,36.8960328424656,26900,2017-11-08 05:47:42,1815.6527681008868,46.500001487999995,0.0,0.106871003419872,1815.6527681008868,46.500001487999995,0.35999970196000003,0.355148011364736,1489,-3.4,98,GPS_Atti,
0.352655139009881,36.8960328215991,27000,2017-11-08 05:47:42,1815.9527681104869,46.8000014976,0.0,0.105558003377856,1815.9527681104869,46.8000014976,0.35999970196000003,0.355148011364736,1491,-4.0,98,GPS_Atti,
0.352655098232829,36.8960327945607,27100,2017-11-08 05:47:42,1816.2527681200868,47.100001507200005,0.0,0.100239003207648,1816.2527681200868,47.100001507200005,0.35999970196000003,0.355148011364736,1490,-4.7,98,GPS_Atti,
0.352655054284789,36.8960327862552,27200,2017-11-08 05:47:42,1816.5527681296867,47.4000015168,0.0,0.09622560307921921,1816.5527681296867,47.4000015168,0.35999970196000003,0.355148011364736,1488,-5.3,98,GPS_Atti,
0.352655018879974,36.8960327754647,27300,2017-11-08 05:47:42,1816.9527681424868,47.8000015296,0.0,0.0927146029668672,1816.9527681424868,47.8000015296,0.35999970196000003,0.355148011364736,1485,-5.9,98,GPS_Atti,
0.352654997215562,36.8960327686691,27400,2017-11-08 05:47:42,1817.2527681520867,48.1000015392,0.0,0.0905749028983968,1817.2527681520867,48.1000015392,0.35999970196000003,0.355148011364736,1486,-5.9,98,GPS_Atti,
0.35265497287236,36.8960327322493,27500,2017-11-08 05:47:43,1817.5527681616868,48.4000015488,0.0,0.08573490274351679,1817.5527681616868,48.4000015488,0.35999970196000003,0.355148011364736,1493,-6.6,98,GPS_Atti,
0.352654961024209,36.8960327045725,27600,2017-11-08 05:47:43,1817.852768171287,48.7000015584,0.0,0.082544002641408,1817.852768171287,48.7000015584,0.35999970196000003,0.355148011364736,1490,-7.2,98,GPS_Atti,
0.352654937729317,36.8960326581838,27700,2017-11-08 05:47:43,1818.1527681808866,49.000001568,0.0,0.07696840246298879,1818.1527681808866,49.000001568,0.35999970196000003,0.355148011364736,1490,-7.9,98,GPS_Atti,
0.352654922187448,36.8960326272703,27800,2017-11-08 05:47:43,1818.4527681904867,49.3000015776,0.0,0.0732683023445856,1818.4527681904867,49.3000015776,0.35999970196000003,0.355148011364736,1484,-8.7,98,GPS_Atti,
0.352654920598493,36.8960325691583,27900,2017-11-08 05:47:43,1818.8527682032868,49.70000159040001,0.0,0.0685571021938272,1818.8527682032868,49.70000159040001,0.35999970196000003,0.355148011364736,1477,-9.4,98,GPS_Atti,
0.352654935678699,36.8960325201796,28000,2017-11-08 05:47:43,1819.1527682128867,50.000001600000004,0.0,0.06623100211939201,1819.1527682128867,50.000001600000004,0.35999970196000003,0.355148011364736,1477,-10.1,98,GPS_Atti,
0.352654919631198,36.8960324456803,28100,2017-11-08 05:47:43,1819.4527682224868,50.3000016096,0.0,0.059869801915833604,1819.4527682224868,50.3000016096,0.35999970196000003,0.355148011364736,1479,-10.8,98,GPS_Atti,
0.352654891809436,36.8960323872091,28200,2017-11-08 05:47:43,1819.752768232087,50.6000016192,0.0,0.05380240172167681,1819.752768232087,50.6000016192,0.35999970196000003,0.355148011364736,1478,-12.3,98,GPS_Atti,
0.352654829923678,36.8960322924584,28400,2017-11-08 05:47:43,1820.3527682512868,51.2000016384,0.0,0.042956901374620805,1820.3527682512868,51.2000016384,0.35999970196000003,0.355148011364736,1477,-13.0,98,GPS_Atti,
0.35265480965464,36.8960322502129,28500,2017-11-08 05:47:44,1820.652768260887,51.500001648,0.0,0.039241401255724805,1820.652768260887,51.500001648,0.35999970196000003,0.355148011364736,1477,-13.7,98,GPS_Atti,
0.352654801898564,36.8960322222294,28600,2017-11-08 05:47:44,1820.9527682704868,51.8000016576,0.0,0.037593401202988805,1820.9527682704868,51.8000016576,0.35999970196000003,0.355148011364736,1477,-14.4,98,GPS_Atti,
0.352654799258246,36.8960321835056,28700,2017-11-08 05:47:44,1821.252768280087,52.1000016672,0.0,0.03656500117008,1821.252768280087,52.1000016672,0.35999970196000003,0.355148011364736,1476,-15.0,98,GPS_Atti,
0.352654813892869,36.8960321681618,28800,2017-11-08 05:47:44,1821.5527682896868,52.40000167680001,0.0,0.038031501217008004,1821.5527682896868,52.40000167680001,0.35999970196000003,0.355148011364736,1475,-15.3,98,GPS_Atti,
0.352654831226434,36.8960321175654,28900,2017-11-08 05:47:44,1821.8527682992867,52.70000168640001,0.0,0.0399979012799328,1821.8527682992867,52.70000168640001,0.35999970196000003,0.355148011364736,1475,-15.3,98,GPS_Atti,
0.352654853558507,36.896032078695,29000,2017-11-08 05:47:44,1822.1527683088868,53.000001696000005,0.0,0.043008101376259204,1822.1527683088868,53.000001696000005,0.35999970196000003,0.355148011364736,1479,-15.3,98,GPS_Atti,
0.35265486606455,36.8960320451972,29100,2017-11-08 05:47:44,1822.452768318487,53.3000017056,0.0,0.04515260144488321,1822.452768318487,53.3000017056,0.35999970196000003,0.355148011364736,1486,-15.3,98,GPS_Atti,
0.352654876898588,36.8960320498319,29200,2017-11-08 05:47:44,1822.7527683280866,53.6000017152,0.0,0.046199501478384,1822.7527683280866,53.6000017152,0.35999970196000003,0.355148011364736,1487,-15.3,98,GPS_Atti,
0.352654875230451,36.8960320320575,29300,2017-11-08 05:47:44,1823.0527683376868,53.900001724800006,0.0,0.0465161014885152,1823.0527683376868,53.900001724800006,0.35999970196000003,0.355148011364736,1490,-15.3,98,GPS_Atti,
