latitude,longitude,time_millisecond,datetime_utc,altitude_m,ascent_m,speed_kph,distance_m,max_altitude_m,max_ascent_m,max_speed_kph,max_distance_m,rc_throttle,gimbal_pitch_degrees,battery_percent,flycState,message
0.307705973765198,36.8794494429223,100,2017-11-08 12:33:11,1769.4299882217445,0.0,0.0,0.0,1769.4299882217445,0.0,0.0,0.0,1024,0.0,100,Motors_Started,
0.307705935992218,36.8794494671632,200,2017-11-08 12:33:11,1769.4299882217445,0.0,0.0,0.004991170159717439,1769.4299882217445,0.0,0.0,0.004991170159717439,1024,0.0,100,Motors_Started,
0.307705908667946,36.8794494792439,300,2017-11-08 12:33:11,1769.4299882217445,0.0,0.0,0.0082898002652736,1769.4299882217445,0.0,0.0,0.0082898002652736,1024,0.0,100,Motors_Started,
0.307705846330397,36.8794494626964,400,2017-11-08 12:33:11,1769.4299882217445,0.0,0.0,0.0143411004589152,1769.4299882217445,0.0,0.0,0.0143411004589152,1024,0.0,100,Motors_Started,
0.307705798590526,36.8794494422283,500,2017-11-08 12:33:11,1769.4299882217445,0.0,0.0,0.0194806006233792,1769.4299882217445,0.0,0.0,0.0194806006233792,1024,0.0,100,Motors_Started,
0.307705752160432,36.8794493940439,600,2017-11-08 12:33:11,1769.4299882217445,0.0,0.0,0.0252361008075552,1769.4299882217445,0.0,0.0,0.0252361008075552,1024,0.0,100,Motors_Started,
0.307705715875036,36.8794493408696,700,2017-11-08 12:33:11,1769.4299882217445,0.0,0.0,0.0308428009869696,1769.4299882217445,0.0,0.0,0.0308428009869696,1045,0.0,100,Motors_Started,
0.307705668591333,36.8794492819573,800,2017-11-08 12:33:11,1769.4299882217445,0.0,0.0,0.038368501227792,1769.4299882217445,0.0,0.0,0.038368501227792,1024,0.0,100,Motors_Started,
0.307705624140104,36.8794492271144,900,2017-11-08 12:33:11,1769.4299882217445,0.0,0.0,0.045690601462099203,1769.4299882217445,0.0,0.0,0.045690601462099203,1024,0.0,100,Motors_Started,Setting new Return-To-Home altitude to 30m (98 ft). Setting new Maximum Flight Altitude to 100m (328 ft)
0.3077055875909,36.8794491526791,1000,2017-11-08 12:33:12,1769.4299882217445,0.0,0.0,0.0537218017190976,1769.4299882217445,0.0,0.0,0.0537218017190976,1024,0.0,100,Motors_Started,
0.307705563255229,36.8794490918029,1100,2017-11-08 12:33:12,1769.4299882217445,0.0,0.0,0.06007180192229761,1769.4299882217445,0.0,0.0,0.06007180192229761,1024,0.0,100,Motors_Started,
0.307705522395737,36.8794490197034,1200,2017-11-08 12:33:12,1769.4299882217445,0.0,0.0,0.068808002201856,1769.4299882217445,0.0,0.0,0.068808002201856,1024,0.0,100,Motors_Started,
0.307705484018198,36.8794489586193,1300,2017-11-08 12:33:12,1769.4299882217445,0.0,0.0,0.07659470245103041,1769.4299882217445,0.0,0.0,0.07659470245103041,1024,0.0,100,Motors_Started,
0.307705455744135,36.8794488859649,1400,2017-11-08 12:33:12,1769.4299882217445,0.0,0.0,0.0845853027067296,1769.4299882217445,0.0,0.0,0.0845853027067296,1024,0.0,100,Motors_Started,
0.307705437015197,36.8794488266692,1500,2017-11-08 12:33:12,1769.4299882217445,0.0,0.0,0.090880502908176,1769.4299882217445,0.0,0.0,0.090880502908176,1024,0.0,100,Motors_Started,
0.307705401249885,36.8794487905794,1600,2017-11-08 12:33:12,1769.4299882217445,0.0,0.0,0.0965198030886336,1769.4299882217445,0.0,0.0,0.0965198030886336,1024,0.0,100,Assisted_Takeoff,
0.307705367656714,36.8794487629712,1700,2017-11-08 12:33:12,1769.4299882217445,0.0,0.0,0.10129500324144002,1769.4299882217445,0.0,0.0,0.10129500324144002,1024,0.0,100,Assisted_Takeoff,
0.307705345612264,36.879448728854,1800,2017-11-08 12:33:12,1769.4299882217445,0.0,0.0,0.10576000338432001,1769.4299882217445,0.0,0.0,0.10576000338432001,1024,0.0,100,Assisted_Takeoff,
0.307705330453079,36.8794486926935,1900,2017-11-08 12:33:12,1769.4299882217445,0.0,0.0,0.10990200351686401,1769.4299882217445,0.0,0.0,0.10990200351686401,1024,0.0,100,Assisted_Takeoff,
0.307705325600112,36.8794486752715,2000,2017-11-08 12:33:13,1769.4299882217445,0.0,0.0,0.11172700357526401,1769.4299882217445,0.0,0.0,0.11172700357526401,1024,0.0,100,Assisted_Takeoff,
0.307705326994875,36.8794486685365,2100,2017-11-08 12:33:13,1769.4299882217445,0.0,0.0,0.112201003590432,1769.4299882217445,0.0,0.0,0.112201003590432,1024,0.0,100,Assisted_Takeoff,
0.307705367519925,36.8794486539708,2200,2017-11-08 12:33:13,1769.4299882217445,0.0,0.0,0.110646003540672,1769.4299882217445,0.0,0.0,0.112201003590432,1024,0.0,100,Assisted_Takeoff,
0.30770540184386,36.8794486257743,2300,2017-11-08 12:33:13,1769.4299882217445,0.0,0.0,0.110917003549344,1769.4299882217445,0.0,0.0,0.112201003590432,1024,0.0,100,Assisted_Takeoff,
0.307705440746573,36.8794486124726,2400,2017-11-08 12:33:13,1769.4299882217445,0.0,0.0,0.10973600351155201,1769.4299882217445,0.0,0.0,0.112201003590432,1024,0.0,100,Assisted_Takeoff,
0.307705467721137,36.8794486031282,2500,2017-11-08 12:33:13,1769.4299882217445,0.0,0.0,0.10903400348908801,1769.4299882217445,0.0,0.0,0.112201003590432,1024,0.0,100,Assisted_Takeoff,
0.307705466878621,36.8794485801858,2600,2017-11-08 12:33:13,1769.4299882217445,0.0,0.0,0.111274003560768,1769.4299882217445,0.0,0.0,0.112201003590432,1024,0.0,100,Assisted_Takeoff,
0.307705455929371,36.8794485521338,2700,2017-11-08 12:33:13,1769.4299882217445,0.0,0.0,0.114582003666624,1769.4299882217445,0.0,0.0,0.114582003666624,1024,0.0,100,Assisted_Takeoff,
0.307705441706337,36.8794485364491,2800,2017-11-08 12:33:13,1769.4299882217445,0.0,0.0,0.116886003740352,1769.4299882217445,0.0,0.0,0.116886003740352,1024,0.0,100,Assisted_Takeoff,
0.307705434783822,36.8794485250165,2900,2017-11-08 12:33:13,1769.4299882217445,0.0,0.0,0.11837200378790401,1769.4299882217445,0.0,0.0,0.11837200378790401,1024,0.0,100,Assisted_Takeoff,
0.307705427125657,36.879448497365,3000,2017-11-08 12:33:14,1769.4299882217445,0.0,0.0,0.121458003886656,1769.4299882217445,0.0,0.0,0.121458003886656,1024,0.0,100,Assisted_Takeoff,
0.307705424706603,36.8794484671613,3100,2017-11-08 12:33:14,1769.4299882217445,0.0,0.0,0.124508003984256,1769.4299882217445,0.0,0.0,0.124508003984256,1024,0.0,100,Assisted_Takeoff,
0.307705421983845,36.8794484489673,3200,2017-11-08 12:33:14,1769.4299882217445,0.0,0.0,0.126422004045504,1769.4299882217445,0.0,0.0,0.126422004045504,1024,0.0,100,Assisted_Takeoff,
0.307705423156732,36.8794484364713,3300,2017-11-08 12:33:14,1769.4299882217445,0.0,0.0,0.127576004082432,1769.4299882217445,0.0,0.0,0.127576004082432,1024,0.0,100,Assisted_Takeoff,
0.307705394917681,36.879448407019,3400,2017-11-08 12:33:14,1769.4299882217445,0.0,0.0,0.131962004222784,1769.4299882217445,0.0,0.0,0.131962004222784,1024,0.0,100,Assisted_Takeoff,
0.307705367562875,36.8794483756959,3500,2017-11-08 12:33:14,1769.4299882217445,0.0,0.0,0.13649000436768002,1769.4299882217445,0.0,0.0,0.13649000436768002,1025,0.0,100,Assisted_Takeoff,
0.307705339931437,36.8794483547906,3600,2017-11-08 12:33:14,1769.4299882217445,0.0,0.0,0.140038004481216,1769.4299882217445,0.0,0.0,0.140038004481216,1025,0.0,100,Assisted_Takeoff,
0.307705324842886,36.8794483407688,3700,2017-11-08 12:33:14,1769.4299882217445,0.0,0.0,0.142231004551392,1769.4299882217445,0.0,0.0,0.142231004551392,1035,0.0,100,Assisted_Takeoff,
0.307705284461749,36.8794483096928,3800,2017-11-08 12:33:14,1769.4299882217445,0.0,0.0,0.147503004720096,1769.4299882217445,0.0,0.0,0.147503004720096,1061,0.0,100,Assisted_Takeoff,
0.307705249031897,36.8794482775605,3900,2017-11-08 12:33:14,1769.4299882217445,0.0,0.0,0.152611004883552,1769.4299882217445,0.0,0.0,0.152611004883552,1061,0.0,100,Assisted_Takeoff,
0.3077052182311,36.8794482557465,4000,2017-11-08 12:33:15,1769.4299882217445,0.0,0.0,0.156488005007616,1769.4299882217445,0.0,0.0,0.156488005007616,1364,0.0,100,Assisted_Takeoff,
0.307705199732383,36.8794482409712,4100,2017-11-08 12:33:15,1769.4299882217445,0.0,0.0,0.15898100508739202,1769.4299882217445,0.0,0.0,0.15898100508739202,1364,0.0,100,Assisted_Takeoff,
0.307705157284344,36.8794482090468,4200,2017-11-08 12:33:15,1769.4299882217445,0.0,0.0,0.164534005265088,1769.4299882217445,0.0,0.0,0.164534005265088,1472,0.0,100,Assisted_Takeoff,
0.307705120876408,36.8794481746479,4300,2017-11-08 12:33:15,1769.4299882217445,0.0,0.0,0.169963005438816,1769.4299882217445,0.0,0.0,0.169963005438816,1611,0.0,100,Assisted_Takeoff,
0.307705058543032,36.8794481510391,4400,2017-11-08 12:33:15,1769.4299882217445,0.0,0.0,0.176062005633984,1769.4299882217445,0.0,0.0,0.176062005633984,1661,0.0,100,Assisted_Takeoff,
0.307705004067305,36.8794481091408,4500,2017-11-08 12:33:15,1769.4299882217445,0.0,0.0,0.18338000586816,1769.4299882217445,0.0,0.0,0.18338000586816,1684,0.0,100,Assisted_Takeoff,
0.307704898520726,36.8794479853063,4600,2017-11-08 12:33:15,1769.4299882217445,0.0,0.35999970196000003,0.20142500644560002,1769.4299882217445,0.0,0.35999970196000003,0.20142500644560002,1684,0.0,100,GPS_Atti,
0.307704730281698,36.8794477200459,4700,2017-11-08 12:33:15,1769.4299882217445,0.0,1.1375990581936,0.23628300756105602,1769.4299882217445,0.0,1.1375990581936,0.23628300756105602,1684,0.0,100,GPS_Atti,
0.307704472829384,36.8794472701879,4800,2017-11-08 12:33:15,1769.5299882249444,0.1000000032,1.9403983935644,0.29366500939728,1769.5299882249444,0.1000000032,1.9403983935644,0.29366500939728,1684,0.0,100,GPS_Atti,
0.307704172719572,36.8794466931286,4900,2017-11-08 12:33:15,1769.6299882281444,0.2000000064,2.2751981163872,0.365544011697408,1769.6299882281444,0.2000000064,2.2751981163872,0.365544011697408,1684,0.0,100,GPS_Atti,Home Point Recorded. RTH Altitude:  30m.
0.307703820508305,36.879445947386,5000,2017-11-08 12:33:16,1769.7299882313446,0.3000000096,2.4155980001516,0.45655401460972805,1769.7299882313446,0.3000000096,2.4155980001516,0.45655401460972805,1684,0.0,100,GPS_Atti,
0.307703409519981,36.8794451726232,5100,2017-11-08 12:33:16,1769.9299882377445,0.500000016,2.9015975977976,0.553917017725344,1769.9299882377445,0.500000016,2.9015975977976,0.553917017725344,1684,0.0,100,GPS_Atti,
0.307702928214224,36.8794443687205,5200,2017-11-08 12:33:16,1770.1299882441444,0.7000000224,2.5955978511316,0.6581120210595841,1770.1299882441444,0.7000000224,2.9015975977976,0.6581120210595841,1684,0.0,100,GPS_Atti,
0.307701877489232,36.8794429563321,5400,2017-11-08 12:33:16,1770.7299882633445,1.3000000416000002,2.4155980001516,0.8531340273002881,1770.7299882633445,1.3000000416000002,2.9015975977976,0.8531340273002881,1684,0.0,100,GPS_Atti,
0.307701367068117,36.879442341384,5500,2017-11-08 12:33:16,1771.1299882761443,1.7000000544000002,2.0987982624268002,0.941332030122624,1771.1299882761443,1.7000000544000002,2.9015975977976,0.941332030122624,1684,0.0,100,GPS_Atti,
0.307700851747422,36.8794418409575,5600,2017-11-08 12:33:16,1771.5299882889444,2.1000000672000003,1.5263987363104,1.01936003261952,1771.5299882889444,2.1000000672000003,2.9015975977976,1.01936003261952,1684,0.0,100,GPS_Atti,
0.30770036169977,36.8794414759237,5700,2017-11-08 12:33:16,1772.0299883049445,2.6000000832000003,1.2995989240756,1.08371003467872,1772.0299883049445,2.6000000832000003,2.9015975977976,1.08371003467872,1684,0.0,100,GPS_Atti,
0.307699802176183,36.8794412498392,5800,2017-11-08 12:33:16,1772.4299883177446,3.0000000960000004,1.6091986677612,1.14068003650176,1772.4299883177446,3.0000000960000004,2.9015975977976,1.14068003650176,1684,0.0,100,GPS_Atti,
0.307699230566285,36.8794410597356,5900,2017-11-08 12:33:16,1772.9299883337444,3.500000112,1.6091986677612,1.19642003828544,1772.9299883337444,3.500000112,2.9015975977976,1.19642003828544,1684,0.0,100,GPS_Atti,
0.307698637986099,36.8794408871618,6000,2017-11-08 12:33:17,1773.4299883497445,4.000000128,1.6091986677612,1.25329004010528,1773.4299883497445,4.000000128,2.9015975977976,1.25329004010528,1684,0.0,100,GPS_Atti,
0.307698106426153,36.8794406915938,6100,2017-11-08 12:33:17,1774.0299883689445,4.6000001472,1.6091986677612,1.30864004187648,1774.0299883689445,4.6000001472,2.9015975977976,1.30864004187648,1684,0.0,100,GPS_Atti,
0.307697573815046,36.8794404327894,6200,2017-11-08 12:33:17,1774.5299883849443,5.1000001632,1.7999985098000002,1.3698600438355202,1774.5299883849443,5.1000001632,2.9015975977976,1.3698600438355202,1684,0.0,100,GPS_Atti,
0.307697074284151,36.8794401349533,6300,2017-11-08 12:33:17,1775.0299884009446,5.6000001792,1.7999985098000002,1.43208004582656,1775.0299884009446,5.6000001792,2.9015975977976,1.43208004582656,1684,0.0,100,GPS_Atti,
0.307696621084115,36.8794398411523,6400,2017-11-08 12:33:17,1775.5299884169444,6.100000195200001,1.7999985098000002,1.49059004769888,1775.5299884169444,6.100000195200001,2.9015975977976,1.49059004769888,1684,0.0,100,GPS_Atti,
0.307696195989395,36.8794395749555,6500,2017-11-08 12:33:17,1776.0299884329445,6.6000002112,1.5263987363104,1.54484004943488,1776.0299884329445,6.6000002112,2.9015975977976,1.54484004943488,1684,0.0,100,GPS_Atti,
0.307695788882466,36.8794393412478,6600,2017-11-08 12:33:17,1776.6299884521445,7.200000230400001,1.5263987363104,1.5952300510473603,1776.6299884521445,7.200000230400001,2.9015975977976,1.5952300510473603,1684,0.0,100,GPS_Atti,
0.307695355490824,36.8794391089618,6700,2017-11-08 12:33:17,1777.1299884681446,7.7000002464,1.7999985098000002,1.64771005272672,1777.1299884681446,7.7000002464,2.9015975977976,1.64771005272672,1684,0.0,100,GPS_Atti,
0.307694933912728,36.8794389338336,6800,2017-11-08 12:33:17,1777.6299884841444,8.200000262400001,1.7999985098000002,1.69499005423968,1777.6299884841444,8.200000262400001,2.9015975977976,1.69499005423968,1684,0.0,100,GPS_Atti,
0.307694506629379,36.8794387759226,6900,2017-11-08 12:33:17,1778.1299885001447,8.700000278400001,1.2995989240756,1.7416300557321602,1778.1299885001447,8.700000278400001,2.9015975977976,1.7416300557321602,1684,0.0,100,GPS_Atti,
0.307694042303,36.8794386035351,7000,2017-11-08 12:33:18,1778.7299885193445,9.3000002976,1.7999985098000002,1.79262005736384,1778.7299885193445,9.3000002976,2.9015975977976,1.79262005736384,1684,0.0,100,GPS_Atti,
0.307693544476271,36.8794383964027,7100,2017-11-08 12:33:18,1779.2299885353445,9.8000003136,1.7999985098000002,1.8492000591744,1779.2299885353445,9.8000003136,2.9015975977976,1.8492000591744,1684,0.0,100,GPS_Atti,
0.307693056076604,36.8794381681315,7200,2017-11-08 12:33:18,1779.7299885513446,10.3000003296,1.5263987363104,1.90674006101568,1779.7299885513446,10.3000003296,2.9015975977976,1.90674006101568,1684,0.0,100,GPS_Atti,
0.307692575459271,36.8794379369214,7300,2017-11-08 12:33:18,1780.3299885705444,10.9000003488,1.2995989240756,1.96397006284704,1780.3299885705444,10.9000003488,2.9015975977976,1.96397006284704,1684,-0.5,100,GPS_Atti,
0.307692076072493,36.8794377013049,7400,2017-11-08 12:33:18,1780.8299885865445,11.4000003648,1.2995989240756,2.02324006474368,1780.8299885865445,11.4000003648,2.9015975977976,2.02324006474368,1684,-2.3,100,GPS_Atti,
0.307691592567929,36.8794374725519,7500,2017-11-08 12:33:18,1781.3299886025445,11.9000003808,1.2995989240756,2.08079006658528,1781.3299886025445,11.9000003808,2.9015975977976,2.08079006658528,1684,-5.5,100,GPS_Atti,
0.307691136735514,36.8794372385948,7600,2017-11-08 12:33:18,1781.8299886185443,12.400000396800001,1.2995989240756,2.13643006836576,1781.8299886185443,12.400000396800001,2.9015975977976,2.13643006836576,1684,-9.5,100,GPS_Atti,
0.307690671134063,36.8794370518249,7700,2017-11-08 12:33:18,1782.4299886377446,13.000000416,1.6091986677612,2.18967007006944,1782.4299886377446,13.000000416,2.9015975977976,2.18967007006944,1684,-13.6,100,GPS_Atti,
0.307690169185742,36.8794368671342,7800,2017-11-08 12:33:18,1782.9299886537444,13.500000432,1.4831987720752,2.24606007187392,1782.9299886537444,13.500000432,2.9015975977976,2.24606007187392,1684,-16.7,100,GPS_Atti,
0.307689672596631,36.8794366832914,7900,2017-11-08 12:33:18,1783.5299886729445,14.100000451200001,1.6091986677612,2.30208007366656,1783.5299886729445,14.100000451200001,2.9015975977976,2.30208007366656,1684,-16.7,100,GPS_Atti,
0.307689204497147,36.879436499774,8000,2017-11-08 12:33:19,1784.0299886889445,14.600000467200001,1.2995989240756,2.3557000753824,1784.0299886889445,14.600000467200001,2.9015975977976,2.3557000753824,1684,-16.7,100,GPS_Atti,
0.307688791836411,36.8794362972612,8100,2017-11-08 12:33:19,1784.5299887049443,15.1000004832,1.2995989240756,2.40581007698592,1784.5299887049443,15.1000004832,2.9015975977976,2.40581007698592,1684,-16.7,100,GPS_Atti,
0.307688422673042,36.8794360330877,8200,2017-11-08 12:33:19,1785.1299887241446,15.700000502400002,1.2995989240756,2.45627007860064,1785.1299887241446,15.700000502400002,2.9015975977976,2.45627007860064,1684,-16.7,100,GPS_Atti,
0.307688064938093,36.8794357906055,8300,2017-11-08 12:33:19,1785.6299887401444,16.2000005184,1.2995989240756,2.5042500801360004,1785.6299887401444,16.2000005184,2.9015975977976,2.5042500801360004,1684,-16.7,100,GPS_Atti,
0.307687724990638,36.8794355583078,8400,2017-11-08 12:33:19,1786.2299887593445,16.800000537600003,1.2995989240756,2.54998008159936,1786.2299887593445,16.800000537600003,2.9015975977976,2.54998008159936,1684,-16.7,100,GPS_Atti,
0.307687391569987,36.8794353330684,8500,2017-11-08 12:33:19,1786.7299887753445,17.3000005536,1.2995989240756,2.59466008302912,1786.7299887753445,17.3000005536,2.9015975977976,2.59466008302912,1684,-16.7,100,GPS_Atti,
0.307687064226688,36.8794350769822,8600,2017-11-08 12:33:19,1787.3299887945445,17.9000005728,1.2995989240756,2.6408700845078403,1787.3299887945445,17.9000005728,2.9015975977976,2.6408700845078403,1684,-16.7,100,GPS_Atti,
0.307686732327003,36.8794348114919,8700,2017-11-08 12:33:19,1787.8299888105446,18.4000005888,1.2995989240756,2.68812008601984,1787.8299888105446,18.4000005888,2.9015975977976,2.68812008601984,1684,-16.7,100,GPS_Atti,
0.307686447469809,36.8794345325571,8800,2017-11-08 12:33:19,1788.4299888297446,19.000000608,1.2995989240756,2.7321200874278397,1788.4299888297446,19.000000608,2.9015975977976,2.7321200874278397,1684,-16.7,100,GPS_Atti,
0.307686163762296,36.879434283616,8900,2017-11-08 12:33:19,1788.9299888457444,19.500000624000002,1.2995989240756,2.77399008876768,1788.9299888457444,19.500000624000002,2.9015975977976,2.77399008876768,1684,-16.7,100,GPS_Atti,
0.30768593937574,36.8794340557355,9000,2017-11-08 12:33:20,1789.5299888649445,20.1000006432,1.0187991565468,2.8092200898950406,1789.5299888649445,20.1000006432,2.9015975977976,2.8092200898950406,1684,-16.7,100,GPS_Atti,
0.307685734155971,36.8794338359262,9100,2017-11-08 12:33:20,1790.0299888809445,20.6000006592,1.0187991565468,2.84221009095072,1790.0299888809445,20.6000006592,2.9015975977976,2.84221009095072,1684,-16.7,100,GPS_Atti,
0.307685577918169,36.879433598495,9200,2017-11-08 12:33:20,1790.6299889001443,21.200000678400002,0.8063993323904,2.87211009190752,1790.6299889001443,21.200000678400002,2.9015975977976,2.87211009190752,1684,-16.7,100,GPS_Atti,
0.307685444936175,36.8794333523621,9300,2017-11-08 12:33:20,1791.1299889161446,21.7000006944,0.8063993323904,2.9006100928195204,1791.1299889161446,21.7000006944,2.9015975977976,2.9006100928195204,1684,-16.7,100,GPS_Atti,
0.307685362501083,36.8794330963711,9400,2017-11-08 12:33:20,1791.7299889353444,22.300000713600003,0.8063993323904,2.9254300936137603,1791.7299889353444,22.300000713600003,2.9015975977976,2.9254300936137603,1684,-16.7,100,GPS_Atti,
0.307685267917799,36.8794328478454,9500,2017-11-08 12:33:20,1792.3299889545447,22.900000732800002,0.8063993323904,2.95088009442816,1792.3299889545447,22.900000732800002,2.9015975977976,2.95088009442816,1684,-16.7,100,GPS_Atti,
0.307685232606619,36.8794325845198,9600,2017-11-08 12:33:20,1792.8299889705445,23.4000007488,0.8063993323904,2.97233009511456,1792.8299889705445,23.4000007488,2.9015975977976,2.97233009511456,1684,-16.7,100,GPS_Atti,
0.307685177903928,36.8794323305887,9700,2017-11-08 12:33:20,1793.4299889897445,24.000000768000003,0.8063993323904,2.99492009583744,1793.4299889897445,24.000000768000003,2.9015975977976,2.99492009583744,1684,-16.7,100,GPS_Atti,
0.307685120639695,36.8794320937998,9800,2017-11-08 12:33:20,1793.9299890057446,24.500000784,0.8063993323904,3.01661009653152,1793.9299890057446,24.500000784,2.9015975977976,3.01661009653152,1684,-16.7,100,GPS_Atti,
0.307685006796804,36.8794318800426,9900,2017-11-08 12:33:20,1794.5299890249444,25.100000803200004,0.8063993323904,3.04156009732992,1794.5299890249444,25.100000803200004,2.9015975977976,3.04156009732992,1684,-16.7,99,GPS_Atti,
0.307684813808277,36.8794316579262,10000,2017-11-08 12:33:21,1795.0299890409447,25.6000008192,0.5075995797636,3.07388009836416,1795.0299890409447,25.6000008192,2.9015975977976,3.07388009836416,1684,-16.7,99,GPS_Atti,
0.307684611947988,36.8794314704016,10100,2017-11-08 12:33:21,1795.5299890569445,26.100000835200003,0.5075995797636,3.10448009934336,1795.5299890569445,26.100000835200003,2.9015975977976,3.10448009934336,1684,-16.7,99,GPS_Atti,
0.307684383408901,36.8794312688116,10200,2017-11-08 12:33:21,1796.1299890761445,26.700000854400002,0.5075995797636,3.13836010042752,1796.1299890761445,26.700000854400002,2.9015975977976,3.13836010042752,1684,-16.7,99,GPS_Atti,
0.307684167324153,36.8794311008274,10300,2017-11-08 12:33:21,1796.6299890921446,27.200000870400004,0.5075995797636,3.16878010140096,1796.6299890921446,27.200000870400004,2.9015975977976,3.16878010140096,1684,-16.7,99,GPS_Atti,
0.307683966455586,36.8794309139259,10400,2017-11-08 12:33:21,1797.2299891113446,27.8000008896,0.5075995797636,3.1992501023760003,1797.2299891113446,27.8000008896,2.9015975977976,3.1992501023760003,1684,-16.7,99,GPS_Atti,
0.307683801324851,36.8794307609065,10500,2017-11-08 12:33:21,1797.7299891273444,28.300000905600005,0.5075995797636,3.22426010317632,1797.7299891273444,28.300000905600005,2.9015975977976,3.22426010317632,1684,-16.7,99,GPS_Atti,
0.307683735216538,36.8794306274981,10600,2017-11-08 12:33:21,1798.3299891465444,28.9000009248,0.35999970196000003,3.2394501036624,1798.3299891465444,28.9000009248,2.9015975977976,3.2394501036624,1684,-16.7,99,GPS_Atti,
0.307683703005916,36.8794305136794,10700,2017-11-08 12:33:21,1798.8299891625445,29.4000009408,0.35999970196000003,3.2503601040115204,1798.8299891625445,29.4000009408,2.9015975977976,3.2503601040115204,1684,-16.7,99,GPS_Atti,
0.30768373289112,36.8794303873112,10800,2017-11-08 12:33:21,1799.3299891785446,29.900000956800003,0.0,3.25696010422272,1799.3299891785446,29.900000956800003,2.9015975977976,3.25696010422272,1684,-16.7,99,GPS_Atti,
0.307683728753244,36.8794302834425,10900,2017-11-08 12:33:21,1799.8299891945444,30.400000972800004,0.0,3.2648301044745605,1799.8299891945444,30.400000972800004,2.9015975977976,3.2648301044745605,1684,-16.7,99,GPS_Atti,
0.307683722607496,36.8794301784198,11000,2017-11-08 12:33:22,1800.4299892137444,31.000000992,0.0,3.27298010473536,1800.4299892137444,31.000000992,2.9015975977976,3.27298010473536,1684,-16.7,99,GPS_Atti,
0.307683695166587,36.8794300900554,11100,2017-11-08 12:33:22,1800.9299892297445,31.500001007999998,0.0,3.2817301050153604,1800.9299892297445,31.500001007999998,2.9015975977976,3.2817301050153604,1684,-16.7,99,GPS_Atti,
0.30768365311202,36.8794300035881,11200,2017-11-08 12:33:22,1801.4299892457445,32.000001024,0.0,3.29157010533024,1801.4299892457445,32.000001024,2.9015975977976,3.29157010533024,1684,-16.7,99,GPS_Atti,
0.307683599050937,36.8794299385733,11300,2017-11-08 12:33:22,1802.0299892649446,32.6000010432,0.0,3.3008501056272,1802.0299892649446,32.6000010432,2.9015975977976,3.3008501056272,1684,-16.7,99,GPS_Atti,
0.307683584276064,36.8794298467295,11400,2017-11-08 12:33:22,1802.5299892809444,33.100001059200004,0.0,3.3088001058816,1802.5299892809444,33.100001059200004,2.9015975977976,3.3088001058816,1684,-16.7,99,GPS_Atti,
0.307683556024189,36.8794297535882,11500,2017-11-08 12:33:22,1803.1299893001444,33.7000010784,0.0,3.318000106176,1803.1299893001444,33.7000010784,2.9015975977976,3.318000106176,1684,-16.7,99,GPS_Atti,
0.307683586941827,36.8794296513682,11600,2017-11-08 12:33:22,1803.6299893161445,34.2000010944,0.0,3.32293010633376,1803.6299893161445,34.2000010944,2.9015975977976,3.32293010633376,1684,-16.7,99,GPS_Atti,
0.307683628960567,36.8794295485702,11700,2017-11-08 12:33:22,1804.2299893353445,34.800001113600004,0.35999970196000003,3.3270201064646403,1804.2299893353445,34.800001113600004,2.9015975977976,3.3270201064646403,1684,-16.7,99,GPS_Atti,
0.307683745464336,36.879429413785,11800,2017-11-08 12:33:22,1804.7299893513446,35.300001129600005,0.5075995797636,3.3273701064758403,1804.7299893513446,35.300001129600005,2.9015975977976,3.3273701064758403,1684,-16.7,99,GPS_Atti,
0.307683892533999,36.8794292737026,11900,2017-11-08 12:33:22,1805.3299893705446,35.9000011488,0.5075995797636,3.3257301064233604,1805.3299893705446,35.9000011488,2.9015975977976,3.3273701064758403,1684,-16.7,99,GPS_Atti,
0.307684121512766,36.8794291264301,12000,2017-11-08 12:33:23,1805.8299893865444,36.4000011648,0.35999970196000003,3.3181001061792,1805.8299893865444,36.4000011648,2.9015975977976,3.3273701064758403,1684,-16.7,99,GPS_Atti,
0.307684299522865,36.879429053585,12100,2017-11-08 12:33:23,1806.3299894025445,36.900001180800004,0.35999970196000003,3.30917010589344,1806.3299894025445,36.900001180800004,2.9015975977976,3.3273701064758403,1684,-16.7,99,GPS_Atti,
0.307684431309581,36.8794290548183,12200,2017-11-08 12:33:23,1806.8299894185445,37.400001196800005,0.0,3.29842010554944,1806.8299894185445,37.400001196800005,2.9015975977976,3.3273701064758403,1684,-16.7,99,GPS_Atti,
0.307684470297787,36.8794290598543,12300,2017-11-08 12:33:23,1807.3299894345446,37.9000012128,0.0,3.29489010543648,1807.3299894345446,37.9000012128,2.9015975977976,3.3273701064758403,1684,-16.7,99,GPS_Atti,
0.307684515509906,36.8794290284047,12400,2017-11-08 12:33:23,1807.8299894505444,38.4000012288,0.0,3.2936501053968,1807.8299894505444,38.4000012288,2.9015975977976,3.3273701064758403,1684,-16.7,99,GPS_Atti,
0.307684544427815,36.8794289931951,12500,2017-11-08 12:33:23,1808.3299894665447,38.9000012448,0.0,3.29402010540864,1808.3299894665447,38.9000012448,2.9015975977976,3.3273701064758403,1684,-16.7,99,GPS_Atti,
0.307684627716211,36.8794289582746,12600,2017-11-08 12:33:23,1808.8299894825445,39.4000012608,0.0,3.29001010528032,1808.8299894825445,39.4000012608,2.9015975977976,3.3273701064758403,1684,-16.7,99,GPS_Atti,
0.307684690593691,36.8794289534355,12700,2017-11-08 12:33:23,1809.3299894985444,39.900001276800005,0.0,3.2853501051312,1809.3299894985444,39.900001276800005,2.9015975977976,3.3273701064758403,1684,-16.7,99,GPS_Atti,
0.307684786904754,36.8794289949123,12800,2017-11-08 12:33:23,1809.8299895145444,40.400001292800006,0.0,3.27443010478176,1809.8299895145444,40.400001292800006,2.9015975977976,3.3273701064758403,1684,-16.7,99,GPS_Atti,
0.307684830898797,36.8794290673313,12900,2017-11-08 12:33:23,1810.3299895305445,40.9000013088,0.0,3.26532010449024,1810.3299895305445,40.9000013088,2.9015975977976,3.3273701064758403,1684,-16.7,99,GPS_Atti,
0.307684842607309,36.8794291692451,13000,2017-11-08 12:33:24,1810.7299895433446,41.30000132160001,0.35999970196000003,3.2565301042089603,1810.7299895433446,41.30000132160001,2.9015975977976,3.3273701064758403,1684,-16.7,99,GPS_Atti,
0.307684785460324,36.8794292813402,13100,2017-11-08 12:33:24,1811.2299895593444,41.80000133760001,0.35999970196000003,3.2525101040803204,1811.2299895593444,41.80000133760001,2.9015975977976,3.3273701064758403,1684,-16.7,99,GPS_Atti,
0.307684726295697,36.8794294168341,13200,2017-11-08 12:33:24,1811.7299895753445,42.300001353599995,0.5075995797636,3.24693010390176,1811.7299895753445,42.300001353599995,2.9015975977976,3.3273701064758403,1684,-16.7,99,GPS_Atti,
0.307684643113149,36.8794295461935,13300,2017-11-08 12:33:24,1812.2299895913445,42.800001369600004,0.35999970196000003,3.24384010380288,1812.2299895913445,42.800001369600004,2.9015975977976,3.3273701064758403,1684,-16.7,99,GPS_Atti,
0.307684653685008,36.8794296949841,13400,2017-11-08 12:33:24,1812.7299896073446,43.300001385600005,0.35999970196000003,3.23171010341472,1812.7299896073446,43.300001385600005,2.9015975977976,3.3273701064758403,1684,-16.7,99,GPS_Atti,
0.307684666048154,36.8794298381113,13500,2017-11-08 12:33:24,1813.2299896233444,43.80000140160001,0.35999970196000003,3.2199001030368004,1813.2299896233444,43.80000140160001,2.9015975977976,3.3273701064758403,1684,-16.7,99,GPS_Atti,
0.307684748408338,36.8794299817138,13600,2017-11-08 12:33:24,1813.7299896393447,44.30000141760001,0.35999970196000003,3.20236010247552,1813.7299896393447,44.30000141760001,2.9015975977976,3.3273701064758403,1684,-16.7,99,GPS_Atti,
0.307684816013191,36.8794301054676,13700,2017-11-08 12:33:24,1814.2299896553445,44.8000014336,0.0,3.18752010200064,1814.2299896553445,44.8000014336,2.9015975977976,3.3273701064758403,1684,-16.7,99,GPS_Atti,
0.307684956404604,36.8794301997374,13800,2017-11-08 12:33:24,1814.7299896713444,45.3000014496,0.0,3.1689201014054404,1814.7299896713444,45.3000014496,2.9015975977976,3.3273701064758403,1684,-16.7,99,GPS_Atti,
0.307685056053978,36.8794302542732,13900,2017-11-08 12:33:24,1815.2299896873446,45.800001465600005,0.0,3.1566601010131206,1815.2299896873446,45.800001465600005,2.9015975977976,3.3273701064758403,1684,-16.7,99,GPS_Atti,
0.307685190778407,36.87943029305,14000,2017-11-08 12:33:25,1815.8299897065444,46.4000014848,0.0,3.1427101005667204,1815.8299897065444,46.4000014848,2.9015975977976,3.3273701064758403,1684,-16.7,99,GPS_Atti,
0.307685285338893,36.8794303166501,14100,2017-11-08 12:33:25,1816.3299897225443,46.9000015008,0.0,3.1332001002624,1816.3299897225443,46.9000015008,2.9015975977976,3.3273701064758403,1684,-16.7,99,GPS_Atti,
0.30768539211108,36.8794303180055,14200,2017-11-08 12:33:25,1816.8299897385446,47.4000015168,0.0,3.12439009998048,1816.8299897385446,47.4000015168,2.9015975977976,3.3273701064758403,1684,-16.7,99,GPS_Atti,
0.30768544051495,36.8794303121108,14300,2017-11-08 12:33:25,1817.3299897545444,47.9000015328,0.0,3.1209000998688006,1817.3299897545444,47.9000015328,2.9015975977976,3.3273701064758403,1684,-16.7,99,GPS_Atti,
0.307685477399206,36.8794303324285,14400,2017-11-08 12:33:25,1817.9299897737446,48.50000155200001,0.0,3.1163500997232,1817.9299897737446,48.50000155200001,2.9015975977976,3.3273701064758403,1684,-16.7,99,GPS_Atti,
0.307685480504649,36.8794303554868,14500,2017-11-08 12:33:25,1818.4299897897445,49.000001568,0.0,3.1143500996592,1818.4299897897445,49.000001568,2.9015975977976,3.3273701064758403,1684,-16.7,99,GPS_Atti,
0.307685507510764,36.8794303681476,14600,2017-11-08 12:33:25,1818.9299898057445,49.500001584,0.0,3.1112000995584004,1818.9299898057445,49.500001584,2.9015975977976,3.3273701064758403,1684,-16.7,99,GPS_Atti,
0.307685505740645,36.879430381787,14700,2017-11-08 12:33:25,1819.4299898217446,50.000001600000004,0.0,3.11031009952992,1819.4299898217446,50.000001600000004,2.9015975977976,3.3273701064758403,1684,-16.7,99,GPS_Atti,
0.307685508339642,36.8794304510413,14800,2017-11-08 12:33:25,1819.8299898345447,50.4000016128,0.0,3.1048500993552,1819.8299898345447,50.4000016128,2.9015975977976,3.3273701064758403,1684,-16.7,99,GPS_Atti,
0.307685493629907,36.8794305342797,14900,2017-11-08 12:33:25,1820.3299898505445,50.9000016288,0.0,3.0997600991923204,1820.3299898505445,50.9000016288,2.9015975977976,3.3273701064758403,1684,-16.7,99,GPS_Atti,
0.307685513540892,36.8794306118311,15000,2017-11-08 12:33:26,1820.8299898665443,51.4000016448,0.0,3.09229009895328,1820.8299898665443,51.4000016448,2.9015975977976,3.3273701064758403,1684,-16.7,99,GPS_Atti,
0.30768552972274,36.8794306625878,15100,2017-11-08 12:33:26,1821.3299898825444,51.90000166080001,0.0,3.0871500987888,1821.3299898825444,51.90000166080001,2.9015975977976,3.3273701064758403,1684,-16.7,99,GPS_Atti,
0.307685569279273,36.8794307339212,15200,2017-11-08 12:33:26,1821.9299899017444,52.500001680000004,0.0,3.07854009851328,1821.9299899017444,52.500001680000004,2.9015975977976,3.3273701064758403,1684,-16.7,99,GPS_Atti,
0.307685593995796,36.8794307972809,15300,2017-11-08 12:33:26,1822.4299899177445,53.000001696000005,0.0,3.071750098296,1822.4299899177445,53.000001696000005,2.9015975977976,3.3273701064758403,1684,-16.7,99,GPS_Atti,
0.307685652603496,36.8794308758044,15400,2017-11-08 12:33:26,1822.9299899337445,53.500001712,0.0,3.0610500979536,1822.9299899337445,53.500001712,2.9015975977976,3.3273701064758403,1684,-16.7,99,GPS_Atti,
0.307685701982803,36.8794309476174,15500,2017-11-08 12:33:26,1823.4299899497446,54.000001728,0.0,3.0516100976515204,1823.4299899497446,54.000001728,2.9015975977976,3.3273701064758403,1684,-16.7,99,GPS_Atti,
0.307685779355063,36.8794310194176,15600,2017-11-08 12:33:26,1823.8299899625445,54.40000174080001,0.0,3.03988009727616,1823.8299899625445,54.40000174080001,2.9015975977976,3.3273701064758403,1684,-16.7,99,GPS_Atti,
0.307685838267281,36.8794310774971,15700,2017-11-08 12:33:26,1824.3299899785443,54.9000017568,0.0,3.0306800969817598,1824.3299899785443,54.9000017568,2.9015975977976,3.3273701064758403,1684,-16.7,99,GPS_Atti,
0.307685922446437,36.8794311404457,15800,2017-11-08 12:33:26,1824.8299899945446,55.4000017728,0.0,3.0190500966096003,1824.8299899945446,55.4000017728,2.9015975977976,3.3273701064758403,1684,-16.7,99,GPS_Atti,
0.307685989338031,36.8794312024436,15900,2017-11-08 12:33:26,1825.3299900105444,55.900001788800004,0.0,3.00891009628512,1825.3299900105444,55.900001788800004,2.9015975977976,3.3273701064758403,1684,-16.7,99,GPS_Atti,
0.307686064363703,36.879431301077,16000,2017-11-08 12:33:27,1825.8299900265445,56.400001804800006,0.0,2.9953500958512,1825.8299900265445,56.400001804800006,2.9015975977976,3.3273701064758403,1684,-16.7,99,GPS_Atti,
0.307686124318125,36.879431413913,16100,2017-11-08 12:33:27,1826.2299900393443,56.8000018176,0.35999970196000003,2.98198009542336,1826.2299900393443,56.8000018176,2.9015975977976,3.3273701064758403,1684,-16.7,99,GPS_Atti,
0.307686200029372,36.8794315252886,16200,2017-11-08 12:33:27,1826.7299900553446,57.3000018336,0.0,2.9674200949574403,1826.7299900553446,57.3000018336,2.9015975977976,3.3273701064758403,1684,-16.7,99,GPS_Atti,
0.307686290981226,36.8794316001143,16300,2017-11-08 12:33:27,1827.2299900713444,57.8000018496,0.35999970196000003,2.95434009453888,1827.2299900713444,57.8000018496,2.9015975977976,3.3273701064758403,1684,-16.7,99,GPS_Atti,
0.307686418577955,36.8794316365904,16400,2017-11-08 12:33:27,1827.7299900873445,58.30000186560001,0.35999970196000003,2.94111009411552,1827.7299900873445,58.30000186560001,2.9015975977976,3.3273701064758403,1684,-16.7,99,GPS_Atti,
0.307686567924183,36.8794316017212,16500,2017-11-08 12:33:27,1828.3299901065445,58.900001884800005,0.35999970196000003,2.93147009380704,1828.3299901065445,58.900001884800005,2.9015975977976,3.3273701064758403,1684,-16.7,99,GPS_Atti,
0.307686803094294,36.8794314907706,16600,2017-11-08 12:33:27,1828.8299901225444,59.40000190080001,0.8063993323904,2.9206900934620803,1828.8299901225444,59.40000190080001,2.9015975977976,3.3273701064758403,1684,-16.7,99,GPS_Atti,
0.307687059497687,36.8794313625161,16700,2017-11-08 12:33:27,1829.2299901353445,59.800001913600006,0.8063993323904,2.9097800931129605,1829.2299901353445,59.800001913600006,2.9015975977976,3.3273701064758403,1684,-16.7,99,GPS_Atti,
0.307687296892253,36.8794312706873,16800,2017-11-08 12:33:27,1829.7299901513443,60.30000192960001,0.35999970196000003,2.89787009273184,1829.7299901513443,60.30000192960001,2.9015975977976,3.3273701064758403,1684,-16.7,99,GPS_Atti,
0.307687451027734,36.8794312183461,16900,2017-11-08 12:33:27,1830.2299901673446,60.80000194560001,0.0,2.88968009246976,1830.2299901673446,60.80000194560001,2.9015975977976,3.3273701064758403,1684,-16.7,99,GPS_Atti,
0.307687500714817,36.8794311845925,17000,2017-11-08 12:33:28,1830.7299901833444,61.3000019616,0.0,2.88839009242848,1830.7299901833444,61.3000019616,2.9015975977976,3.3273701064758403,1684,-16.7,99,GPS_Atti,
0.307687478224377,36.8794311801817,17100,2017-11-08 12:33:28,1831.2299901993445,61.800001977600004,0.0,2.8905100924963203,1831.2299901993445,61.800001977600004,2.9015975977976,3.3273701064758403,1684,-16.7,99,GPS_Atti,
0.307687383014142,36.8794311500574,17200,2017-11-08 12:33:28,1831.7299902153445,62.300001993600006,0.0,2.9004000928128,1831.7299902153445,62.300001993600006,2.9015975977976,3.3273701064758403,1684,-16.7,99,GPS_Atti,
0.307687284674037,36.8794310967292,17300,2017-11-08 12:33:28,1832.3299902345445,62.9000020128,0.0,2.9123600931955202,1832.3299902345445,62.9000020128,2.9015975977976,3.3273701064758403,1684,-16.7,99,GPS_Atti,
0.30768716058172,36.8794310017871,17400,2017-11-08 12:33:28,1832.8299902505446,63.4000020288,0.0,2.9296000937472,1832.8299902505446,63.4000020288,2.9015975977976,3.3273701064758403,1684,-16.7,99,GPS_Atti,
0.307687064339051,36.8794309156025,17500,2017-11-08 12:33:28,1833.4299902697444,64.000002048,0.0,2.9439600942067203,1833.4299902697444,64.000002048,2.9015975977976,3.3273701064758403,1684,-16.7,99,GPS_Atti,
0.307686991984027,36.8794308181167,17600,2017-11-08 12:33:28,1833.9299902857445,64.500002064,0.0,2.95729009463328,1833.9299902857445,64.500002064,2.9015975977976,3.3273701064758403,1684,-16.7,99,GPS_Atti,
0.307686936748835,36.8794307171429,17700,2017-11-08 12:33:28,1834.5299903049445,65.10000208320001,0.35999970196000003,2.96954009502528,1834.5299903049445,65.10000208320001,2.9015975977976,3.3273701064758403,1684,-16.7,99,GPS_Atti,
0.307686857700907,36.879430547039,17800,2017-11-08 12:33:28,1835.1299903241447,65.7000021024,0.35999970196000003,2.9890800956505603,1835.1299903241447,65.7000021024,2.9015975977976,3.3273701064758403,1684,-16.7,99,GPS_Atti,
0.307686728518073,36.8794303504444,17900,2017-11-08 12:33:28,1835.6299903401446,66.20000211840001,0.5075995797636,3.01467009646944,1835.6299903401446,66.20000211840001,2.9015975977976,3.3273701064758403,1684,-16.7,99,GPS_Atti,
0.307686533261124,36.8794301443986,18000,2017-11-08 12:33:29,1836.2299903593444,66.8000021376,0.5075995797636,3.0462300974793606,1836.2299903593444,66.8000021376,2.9015975977976,3.3273701064758403,1684,-16.7,99,GPS_Atti,
0.307686342420515,36.8794299988583,18100,2017-11-08 12:33:29,1836.7299903753446,67.3000021536,0.35999970196000003,3.0726900983260803,1836.7299903753446,67.3000021536,2.9015975977976,3.3273701064758403,1684,-16.7,99,GPS_Atti,
0.307686175832323,36.879429865831,18200,2017-11-08 12:33:29,1837.2299903913445,67.8000021696,0.35999970196000003,3.09627009908064,1837.2299903913445,67.8000021696,2.9015975977976,3.3273701064758403,1684,-16.7,99,GPS_Atti,
0.307686032304526,36.8794297622107,18300,2017-11-08 12:33:29,1837.7299904073443,68.3000021856,0.35999970196000003,3.11572009970304,1837.7299904073443,68.3000021856,2.9015975977976,3.3273701064758403,1684,-16.7,99,GPS_Atti,
0.307685769341761,36.8794296432896,18400,2017-11-08 12:33:29,1838.2299904233446,68.8000022016,0.35999970196000003,3.1458401006668804,1838.2299904233446,68.8000022016,2.9015975977976,3.3273701064758403,1684,-16.7,99,GPS_Atti,
0.307685521554465,36.8794295554348,18500,2017-11-08 12:33:29,1838.7299904393444,69.30000221760001,0.0,3.1723801015161603,1838.7299904393444,69.30000221760001,2.9015975977976,3.3273701064758403,1684,-16.7,99,GPS_Atti,
0.307685230463587,36.8794294560648,18600,2017-11-08 12:33:29,1839.2299904553445,69.80000223360001,0.0,3.2033301025065604,1839.2299904553445,69.80000223360001,2.9015975977976,3.3273701064758403,1684,-16.7,99,GPS_Atti,
0.307684977756762,36.8794293812219,18700,2017-11-08 12:33:29,1839.7299904713445,70.30000224960001,0.0,3.22937010333984,1839.7299904713445,70.30000224960001,2.9015975977976,3.3273701064758403,1684,-16.7,99,GPS_Atti,
0.307684634941617,36.8794292715036,18800,2017-11-08 12:33:29,1840.2299904873446,70.8000022656,0.0,3.2654101044931205,1840.2299904873446,70.8000022656,2.9015975977976,3.3273701064758403,1684,-16.7,99,GPS_Atti,
0.307684367982651,36.8794292248066,18900,2017-11-08 12:33:29,1840.7299905033444,71.3000022816,0.0,3.29059010529888,1840.7299905033444,71.3000022816,2.9015975977976,3.3273701064758403,1684,-16.7,99,GPS_Atti,
0.30768384894381,36.8794291916868,19100,2017-11-08 12:33:30,1841.7299905353445,72.3000023136,0.0,3.33546010673472,1841.7299905353445,72.3000023136,2.9015975977976,3.33546010673472,1684,-16.7,99,GPS_Atti,
0.307683601495231,36.8794290933916,19200,2017-11-08 12:33:30,1842.2299905513444,72.8000023296,0.0,3.3631501076208,1842.2299905513444,72.8000023296,2.9015975977976,3.3631501076208,1684,-16.7,99,GPS_Atti,
0.307683402212768,36.8794289953705,19300,2017-11-08 12:33:30,1842.7299905673444,73.3000023456,0.0,3.38689010838048,1842.7299905673444,73.3000023456,2.9015975977976,3.38689010838048,1684,-16.7,99,GPS_Atti,
0.307683197895157,36.8794288760147,19400,2017-11-08 12:33:30,1843.2299905833445,73.80000236160001,0.0,3.4126401092044802,1843.2299905833445,73.80000236160001,2.9015975977976,3.4126401092044802,1684,-16.7,99,GPS_Atti,
0.307683022883024,36.8794287959581,19500,2017-11-08 12:33:30,1843.8299906025445,74.4000023808,0.0,3.43306010985792,1843.8299906025445,74.4000023808,2.9015975977976,3.43306010985792,1684,-16.7,99,GPS_Atti,
0.307682864355629,36.8794287056988,19600,2017-11-08 12:33:30,1844.3299906185446,74.9000023968,0.0,3.4528801104921603,1844.3299906185446,74.9000023968,2.9015975977976,3.4528801104921603,1684,-16.7,99,GPS_Atti,
0.307682726108876,36.8794286317724,19700,2017-11-08 12:33:30,1844.8299906345446,75.4000024128,0.0,3.46982011103424,1844.8299906345446,75.4000024128,2.9015975977976,3.46982011103424,1684,-16.7,99,GPS_Atti,
0.307682609789121,36.8794285695861,19800,2017-11-08 12:33:30,1845.4299906537444,76.000002432,0.0,3.48407011149024,1845.4299906537444,76.000002432,2.9015975977976,3.48407011149024,1684,-16.7,99,GPS_Atti,
0.307682450423078,36.8794285462815,19900,2017-11-08 12:33:30,1845.9299906697445,76.500002448,0.0,3.49903011196896,1845.9299906697445,76.500002448,2.9015975977976,3.49903011196896,1684,-16.7,99,GPS_Atti,
0.307682096334215,36.8794285646678,20100,2017-11-08 12:33:31,1846.9299907017444,77.50000248,0.0,3.5272201128710403,1846.9299907017444,77.50000248,2.9015975977976,3.5272201128710403,1684,-16.7,99,GPS_Atti,
0.307681979089504,36.8794285834845,20200,2017-11-08 12:33:31,1847.4299907177447,78.00000249600001,0.0,3.5356701131414403,1847.4299907177447,78.00000249600001,2.9015975977976,3.5356701131414403,1684,-16.7,99,GPS_Atti,
0.307681888295609,36.8794285910622,20300,2017-11-08 12:33:31,1847.9299907337445,78.500002512,0.0,3.54274011336768,1847.9299907337445,78.500002512,2.9015975977976,3.54274011336768,1684,-16.7,99,GPS_Atti,
0.307681789419747,36.8794285681965,20400,2017-11-08 12:33:31,1848.4299907497443,79.000002528,0.0,3.55272011368704,1848.4299907497443,79.000002528,2.9015975977976,3.55272011368704,1684,-16.7,99,GPS_Atti,
0.307681670631271,36.8794285502406,20500,2017-11-08 12:33:31,1848.9299907657446,79.500002544,0.0,3.56404011404928,1848.9299907657446,79.500002544,2.9015975977976,3.56404011404928,1684,-16.7,99,GPS_Atti,
0.307681569171068,36.8794285461295,20600,2017-11-08 12:33:31,1849.4299907817444,80.00000256,0.0,3.5729001143328003,1849.4299907817444,80.00000256,2.9015975977976,3.5729001143328003,1684,-16.7,99,GPS_Atti,
0.307681493078765,36.8794285691814,20700,2017-11-08 12:33:31,1849.9299907977445,80.500002576,0.0,3.57767011448544,1849.9299907977445,80.500002576,2.9015975977976,3.57767011448544,1684,-16.7,99,GPS_Atti,
0.307681415996369,36.8794285911371,20800,2017-11-08 12:33:31,1850.5299908169445,81.1000025952,0.0,3.5826101146435203,1850.5299908169445,81.1000025952,2.9015975977976,3.5826101146435203,1684,-16.7,99,GPS_Atti,
0.307681324451761,36.8794286189767,20900,2017-11-08 12:33:31,1851.0299908329446,81.6000026112,0.0,3.58838011482816,1851.0299908329446,81.6000026112,2.9015975977976,3.58838011482816,1684,-16.7,99,GPS_Atti,
0.307681206780398,36.8794286171953,21000,2017-11-08 12:33:32,1851.5299908489444,82.10000262720001,0.0,3.59851011515232,1851.5299908489444,82.10000262720001,2.9015975977976,3.59851011515232,1684,-16.7,99,GPS_Atti,
0.30768107519398,36.8794286109473,21100,2017-11-08 12:33:32,1852.0299908649447,82.60000264320001,0.0,3.61017011552544,1852.0299908649447,82.60000264320001,2.9015975977976,3.61017011552544,1684,-16.7,99,GPS_Atti,
0.307680868642144,36.8794285827779,21200,2017-11-08 12:33:32,1852.5299908809445,83.10000265920002,0.0,3.6298201161542405,1852.5299908809445,83.10000265920002,2.9015975977976,3.6298201161542405,1684,-16.7,99,GPS_Atti,
0.307680663194392,36.8794285689224,21300,2017-11-08 12:33:32,1853.0299908969444,83.60000267520002,0.0,3.6484001167488005,1853.0299908969444,83.60000267520002,2.9015975977976,3.6484001167488005,1684,-16.7,99,GPS_Atti,
0.307680440675662,36.8794285554244,21400,2017-11-08 12:33:32,1853.6299909161446,84.20000269440001,0.0,3.6684801173913604,1853.6299909161446,84.20000269440001,2.9015975977976,3.6684801173913604,1412,-16.7,99,GPS_Atti,
0.307680203048229,36.8794285633574,21500,2017-11-08 12:33:32,1854.1299909321444,84.70000271040001,0.35999970196000003,3.68841011802912,1854.1299909321444,84.70000271040001,2.9015975977976,3.68841011802912,1107,-16.7,99,GPS_Atti,
0.307679993890882,36.8794285520777,21600,2017-11-08 12:33:32,1854.6299909481443,85.2000027264,0.35999970196000003,3.7073001186336003,1854.6299909481443,85.2000027264,2.9015975977976,3.7073001186336003,797,-16.7,99,GPS_Atti,
0.307679796113102,36.8794285091984,21700,2017-11-08 12:33:32,1855.1299909641446,85.7000027424,0.35999970196000003,3.72744011927808,1855.1299909641446,85.7000027424,2.9015975977976,3.72744011927808,625,-16.7,99,GPS_Atti,
0.307679625510795,36.8794284253391,21800,2017-11-08 12:33:32,1855.5299909769446,86.10000275520001,0.35999970196000003,3.7480901199388805,1855.5299909769446,86.10000275520001,2.9015975977976,3.7480901199388805,410,-16.7,99,GPS_Atti,
0.307679426957875,36.8794283241041,21900,2017-11-08 12:33:32,1855.8299909865445,86.4000027648,0.35999970196000003,3.77237012071584,1855.8299909865445,86.4000027648,2.9015975977976,3.77237012071584,364,-16.7,99,GPS_Atti,
0.307679248887524,36.8794281764033,22000,2017-11-08 12:33:33,1856.0299909929445,86.60000277120001,0.5075995797636,3.79809012153888,1856.0299909929445,86.60000277120001,2.9015975977976,3.79809012153888,364,-16.7,99,GPS_Atti,
0.307679046553357,36.8794279964136,22100,2017-11-08 12:33:33,1856.1299909961444,86.7000027744,0.5075995797636,3.8281601225011204,1856.1299909961444,86.7000027744,2.9015975977976,3.8281601225011204,364,-16.7,99,GPS_Atti,
0.307678875175911,36.8794277725896,22200,2017-11-08 12:33:33,1856.2299909993446,86.8000027776,0.5075995797636,3.8585801234745603,1856.2299909993446,86.8000027776,2.9015975977976,3.8585801234745603,364,-16.7,99,GPS_Atti,
0.307678686989666,36.8794275298354,22300,2017-11-08 12:33:33,1856.1299909961444,86.7000027744,0.5075995797636,3.8918001245376006,1856.2299909993446,86.8000027776,2.9015975977976,3.8918001245376006,364,-16.7,99,GPS_Atti,
0.30767852199572,36.8794272421507,22400,2017-11-08 12:33:33,1856.0299909929445,86.60000277120001,0.5075995797636,3.92616012563712,1856.2299909993446,86.8000027776,2.9015975977976,3.92616012563712,364,-16.7,99,GPS_Atti,
0.307678324621794,36.8794269505069,22500,2017-11-08 12:33:33,1855.8299909865445,86.4000027648,0.5075995797636,3.96363012683616,1856.2299909993446,86.8000027776,2.9015975977976,3.96363012683616,364,-16.7,99,GPS_Atti,
0.307678117916884,36.8794266530263,22600,2017-11-08 12:33:33,1855.6299909801444,86.2000027584,0.5075995797636,4.00236012807552,1856.2299909993446,86.8000027776,2.9015975977976,4.00236012807552,364,-16.7,99,GPS_Atti,
0.307677912599408,36.8794264010779,22700,2017-11-08 12:33:33,1855.3299909705445,85.9000027488,0.0,4.03778012920896,1856.2299909993446,86.8000027776,2.9015975977976,4.03778012920896,364,-16.7,99,GPS_Atti,
0.307677912224866,36.8794262613231,22800,2017-11-08 12:33:33,1854.9299909577444,85.500002736,0.0,4.047690129526081,1856.2299909993446,86.8000027776,2.9015975977976,4.047690129526081,364,-16.7,99,GPS_Atti,
0.30767797310913,36.879426186947,22900,2017-11-08 12:33:33,1854.6299909481443,85.2000027264,0.5075995797636,4.0477501295280005,1856.2299909993446,86.8000027776,2.9015975977976,4.0477501295280005,364,-16.7,99,GPS_Atti,
0.307678104693919,36.879426168884,23000,2017-11-08 12:33:34,1854.2299909353444,84.80000271360001,0.8063993323904,4.03779012920928,1856.2299909993446,86.8000027776,2.9015975977976,4.0477501295280005,364,-16.7,99,GPS_Atti,
0.307678188047453,36.8794261820266,23100,2017-11-08 12:33:34,1853.9299909257445,84.500002704,0.8063993323904,4.02974012895168,1856.2299909993446,86.8000027776,2.9015975977976,4.0477501295280005,364,-16.7,99,GPS_Atti,
0.30767830690758,36.8794262551222,23200,2017-11-08 12:33:34,1853.5299909129446,84.10000269119999,1.2995989240756,4.01439012846048,1856.2299909993446,86.8000027776,2.9015975977976,4.0477501295280005,364,-16.7,99,GPS_Atti,
0.307678391664833,36.8794263335686,23300,2017-11-08 12:33:34,1853.2299909033445,83.8000026816,1.2995989240756,4.0015601280499205,1856.2299909993446,86.8000027776,2.9015975977976,4.0477501295280005,364,-16.7,99,GPS_Atti,
0.307678458841405,36.8794263633203,23400,2017-11-08 12:33:34,1852.8299908905447,83.4000026688,1.2995989240756,3.99371012779872,1856.2299909993446,86.8000027776,2.9015975977976,4.0477501295280005,364,-16.7,99,GPS_Atti,
0.307678474767587,36.8794263747457,23500,2017-11-08 12:33:34,1852.5299908809445,83.10000265920002,1.1375990581936,3.99154012772928,1856.2299909993446,86.8000027776,2.9015975977976,4.0477501295280005,364,-16.7,99,GPS_Atti,
0.307678453610843,36.8794263905026,23600,2017-11-08 12:33:34,1852.2299908713444,82.8000026496,1.1375990581936,3.99222012775104,1856.2299909993446,86.8000027776,2.9015975977976,4.0477501295280005,364,-16.7,99,GPS_Atti,
0.307678409808956,36.8794264146273,23700,2017-11-08 12:33:34,1851.9299908617443,82.50000264,0.8063993323904,3.99423012781536,1856.2299909993446,86.8000027776,2.9015975977976,4.0477501295280005,364,-16.7,99,GPS_Atti,
0.307678342625871,36.8794263970011,23800,2017-11-08 12:33:34,1851.6299908521446,82.20000263040001,0.8063993323904,4.00122012803904,1856.2299909993446,86.8000027776,2.9015975977976,4.0477501295280005,364,-16.7,99,GPS_Atti,
0.307678267232171,36.8794263791201,23900,2017-11-08 12:33:34,1851.2299908393445,81.8000026176,0.8063993323904,4.00894012828608,1856.2299909993446,86.8000027776,2.9015975977976,4.0477501295280005,364,-16.7,98,GPS_Atti,
0.30767820286955,36.8794263257169,24000,2017-11-08 12:33:35,1850.9299908297446,81.500002608,0.7199994039200001,4.01824012858368,1856.2299909993446,86.8000027776,2.9015975977976,4.0477501295280005,364,-16.7,98,GPS_Atti,
0.307678144571255,36.8794262683526,24100,2017-11-08 12:33:35,1850.6299908201445,81.2000025984,0.35999970196000003,4.0273001288736,1856.2299909993446,86.8000027776,2.9015975977976,4.0477501295280005,364,-16.7,98,GPS_Atti,
0.307678086380437,36.8794261883688,24200,2017-11-08 12:33:35,1850.3299908105444,80.9000025888,0.35999970196000003,4.03797012921504,1856.2299909993446,86.8000027776,2.9015975977976,4.0477501295280005,364,-16.7,98,GPS_Atti,
0.307678012351373,36.87942612478,24300,2017-11-08 12:33:35,1850.1299908041447,80.7000025824,0.35999970196000003,4.04882012956224,1856.2299909993446,86.8000027776,2.9015975977976,4.04882012956224,364,-16.7,98,GPS_Atti,
0.307677968077238,36.8794260581914,24400,2017-11-08 12:33:35,1849.7299907913446,80.30000256960001,0.35999970196000003,4.05734012983488,1856.2299909993446,86.8000027776,2.9015975977976,4.05734012983488,364,-16.7,98,GPS_Atti,
0.307677919093642,36.8794260004352,24500,2017-11-08 12:33:35,1849.4299907817444,80.00000256,0.35999970196000003,4.065640130100481,1856.2299909993446,86.8000027776,2.9015975977976,4.065640130100481,364,-16.7,98,GPS_Atti,
0.307677884541318,36.8794259915643,24600,2017-11-08 12:33:35,1849.1299907721445,79.70000255040001,0.35999970196000003,4.06922013021504,1856.2299909993446,86.8000027776,2.9015975977976,4.06922013021504,364,-16.7,98,GPS_Atti,
0.307677837212221,36.8794260050559,24700,2017-11-08 12:33:35,1848.8299907625444,79.4000025408,0.35999970196000003,4.0723001303136,1856.2299909993446,86.8000027776,2.9015975977976,4.0723001303136,364,-16.7,98,GPS_Atti,
0.307677840358375,36.8794260376832,24800,2017-11-08 12:33:35,1848.5299907529445,79.1000025312,0.35999970196000003,4.06971013023072,1856.2299909993446,86.8000027776,2.9015975977976,4.0723001303136,364,-16.7,98,GPS_Atti,
0.307677833300699,36.8794260582128,24900,2017-11-08 12:33:35,1848.2299907433446,78.8000025216,0.35999970196000003,4.06886013020352,1856.2299909993446,86.8000027776,2.9015975977976,4.0723001303136,364,-16.7,98,GPS_Atti,
0.307677876034326,36.8794260703426,25000,2017-11-08 12:33:36,1847.9299907337445,78.500002512,0.35999970196000003,4.064340130058881,1856.2299909993446,86.8000027776,2.9015975977976,4.0723001303136,364,-16.7,98,GPS_Atti,
0.307677908244949,36.8794260804083,25100,2017-11-08 12:33:36,1847.6299907241444,78.20000250240001,0.35999970196000003,4.0608701299478405,1856.2299909993446,86.8000027776,2.9015975977976,4.0723001303136,364,-16.7,98,GPS_Atti,
0.307677963755347,36.8794261338714,25200,2017-11-08 12:33:36,1847.3299907145445,77.9000024928,0.35999970196000003,4.05232012967424,1856.2299909993446,86.8000027776,2.9015975977976,4.0723001303136,406,-16.7,98,GPS_Atti,
0.307677990269673,36.8794261966016,25300,2017-11-08 12:33:36,1846.9299907017444,77.50000248,0.35999970196000003,4.0456001294592,1856.2299909993446,86.8000027776,2.9015975977976,4.0723001303136,569,-16.7,98,GPS_Atti,
0.307678068640168,36.8794262929012,25400,2017-11-08 12:33:36,1846.6299906921447,77.20000247040001,0.35999970196000003,4.0320501290256,1856.2299909993446,86.8000027776,2.9015975977976,4.0723001303136,741,-16.7,98,GPS_Atti,
0.307678119577897,36.8794263830192,25500,2017-11-08 12:33:36,1846.4299906857445,77.000002464,0.35999970196000003,4.0213001286816,1856.2299909993446,86.8000027776,2.9015975977976,4.0723001303136,925,-16.7,98,GPS_Atti,
0.307678119463906,36.8794263970439,25600,2017-11-08 12:33:36,1846.1299906761444,76.7000024544,0.0,4.02031012864992,1856.2299909993446,86.8000027776,2.9015975977976,4.0723001303136,1024,-16.7,98,GPS_Atti,
0.307678027479618,36.8794262982499,25700,2017-11-08 12:33:36,1846.0299906729445,76.6000024512,0.5075995797636,4.0352001291264,1856.2299909993446,86.8000027776,2.9015975977976,4.0723001303136,1024,-16.7,98,GPS_Atti,
0.307677921275757,36.8794261690939,25800,2017-11-08 12:33:36,1846.0299906729445,76.6000024512,0.5075995797636,4.0534501297103995,1856.2299909993446,86.8000027776,2.9015975977976,4.0723001303136,1024,-16.7,98,GPS_Atti,
0.307677820595579,36.8794260340603,25900,2017-11-08 12:33:36,1846.0299906729445,76.6000024512,0.35999970196000003,4.07166013029312,1856.2299909993446,86.8000027776,2.9015975977976,4.0723001303136,1024,-16.7,98,GPS_Atti,
0.307677822145857,36.8794259309325,26000,2017-11-08 12:33:37,1846.2299906793446,76.8000024576,0.35999970196000003,4.07887013052384,1856.2299909993446,86.8000027776,2.9015975977976,4.07887013052384,1024,-16.7,98,GPS_Atti,
0.307677888075041,36.879425850756,26100,2017-11-08 12:33:37,1846.3299906825446,76.9000024608,0.0,4.07898013052736,1856.2299909993446,86.8000027776,2.9015975977976,4.07898013052736,1024,-16.7,98,GPS_Atti,
0.307678020044143,36.8794257920705,26200,2017-11-08 12:33:37,1846.4299906857445,77.000002464,0.35999970196000003,4.07196013030272,1856.2299909993446,86.8000027776,2.9015975977976,4.07898013052736,877,-16.7,98,GPS_Atti,
0.307678144854604,36.879425754101,26300,2017-11-08 12:33:37,1846.5299906889445,77.1000024672,0.0,4.06411013005152,1856.2299909993446,86.8000027776,2.9015975977976,4.07898013052736,750,-16.7,98,GPS_Atti,
0.307678274859802,36.8794257530432,26400,2017-11-08 12:33:37,1846.6299906921447,77.20000247040001,0.0,4.05319012970208,1856.2299909993446,86.8000027776,2.9015975977976,4.07898013052736,685,-16.7,98,GPS_Atti,
0.307678381672701,36.8794257548097,26500,2017-11-08 12:33:37,1846.6299906921447,77.20000247040001,0.0,4.0440401294092805,1856.2299909993446,86.8000027776,2.9015975977976,4.07898013052736,622,-16.7,98,GPS_Atti,
0.307678477584796,36.8794257860752,26600,2017-11-08 12:33:37,1846.5299906889445,77.1000024672,0.0,4.033690129078081,1856.2299909993446,86.8000027776,2.9015975977976,4.07898013052736,562,-16.7,98,GPS_Atti,
0.307678563856502,36.8794258372109,26700,2017-11-08 12:33:37,1846.4299906857445,77.000002464,0.0,4.02271012872672,1856.2299909993446,86.8000027776,2.9015975977976,4.07898013052736,568,-16.7,98,GPS_Atti,
0.307678695887484,36.879425886229,26800,2017-11-08 12:33:37,1846.3299906825446,76.9000024608,0.0,4.00803012825696,1856.2299909993446,86.8000027776,2.9015975977976,4.07898013052736,624,-16.7,98,GPS_Atti,
0.307678831491273,36.8794259349665,26900,2017-11-08 12:33:37,1846.1299906761444,76.7000024544,0.0,3.99307012777824,1856.2299909993446,86.8000027776,2.9015975977976,4.07898013052736,631,-16.7,98,GPS_Atti,
0.307678994081635,36.879426020421,27000,2017-11-08 12:33:38,1846.0299906729445,76.6000024512,0.35999970196000003,3.97319012714208,1856.2299909993446,86.8000027776,2.9015975977976,4.07898013052736,626,-16.7,98,GPS_Atti,
0.307679147402894,36.8794261004712,27100,2017-11-08 12:33:38,1845.8299906665443,76.4000024448,0.35999970196000003,3.95448012654336,1856.2299909993446,86.8000027776,2.9015975977976,4.07898013052736,620,-16.7,98,GPS_Atti,
0.307679330765688,36.8794261213819,27200,2017-11-08 12:33:38,1845.6299906601446,76.2000024384,0.35999970196000003,3.9375901260028803,1856.2299909993446,86.8000027776,2.9015975977976,4.07898013052736,625,-16.7,98,GPS_Atti,
0.307679490125218,36.8794261426803,27300,2017-11-08 12:33:38,1845.4299906537444,76.000002432,0.35999970196000003,3.92271012552672,1856.2299909993446,86.8000027776,2.9015975977976,4.07898013052736,638,-16.7,98,GPS_Atti,
0.307679671191906,36.8794261994001,27400,2017-11-08 12:33:38,1845.3299906505445,75.90000242880001,0.35999970196000003,3.90343012490976,1856.2299909993446,86.8000027776,2.9015975977976,4.07898013052736,663,-16.7,98,GPS_Atti,
0.307679820344348,36.8794262828505,27500,2017-11-08 12:33:38,1845.2299906473445,75.8000024256,0.35999970196000003,3.8848601243155203,1856.2299909993446,86.8000027776,2.9015975977976,4.07898013052736,884,-16.7,98,GPS_Atti,
0.307679994004873,36.8794263971724,27600,2017-11-08 12:33:38,1845.1299906441445,75.7000024224,0.5075995797636,3.86197012358304,1856.2299909993446,86.8000027776,2.9015975977976,4.07898013052736,1011,-16.7,98,GPS_Atti,
0.307680137001797,36.8794265172155,27700,2017-11-08 12:33:38,1845.0299906409443,75.60000241920001,0.5075995797636,3.8412201229190406,1856.2299909993446,86.8000027776,2.9015975977976,4.07898013052736,991,-16.7,98,GPS_Atti,
0.30768033091528,36.8794266342696,27800,2017-11-08 12:33:38,1844.9299906377444,75.500002416,0.35999970196000003,3.8164501221264002,1856.2299909993446,86.8000027776,2.9015975977976,4.07898013052736,961,-16.7,98,GPS_Atti,
0.307680632879279,36.8794266408922,28000,2017-11-08 12:33:39,1845.0299906409443,75.60000241920001,0.0,3.7909301213097604,1856.2299909993446,86.8000027776,2.9015975977976,4.07898013052736,981,-16.7,98,GPS_Atti,
0.307680750187499,36.8794265989743,28100,2017-11-08 12:33:39,1845.1299906441445,75.7000024224,0.0,3.7843701210998404,1856.2299909993446,86.8000027776,2.9015975977976,4.07898013052736,1024,-16.7,98,GPS_Atti,
0.307680888546615,36.8794265743979,28200,2017-11-08 12:33:39,1845.2299906473445,75.8000024256,0.0,3.77482012079424,1856.2299909993446,86.8000027776,2.9015975977976,4.07898013052736,1024,-16.7,98,GPS_Atti,
0.307680955304676,36.8794265894868,28300,2017-11-08 12:33:39,1845.2299906473445,75.8000024256,0.0,3.76821012058272,1856.2299909993446,86.8000027776,2.9015975977976,4.07898013052736,1024,-16.7,98,GPS_Atti,
0.307681063835584,36.8794266522384,28400,2017-11-08 12:33:39,1845.3299906505445,75.90000242880001,0.0,3.7545901201468803,1856.2299909993446,86.8000027776,2.9015975977976,4.07898013052736,1024,-16.7,98,GPS_Atti,
0.30768114027963,36.8794267365067,28500,2017-11-08 12:33:39,1845.4299906537444,76.000002432,0.0,3.7420001197440005,1856.2299909993446,86.8000027776,2.9015975977976,4.07898013052736,1024,-16.7,98,GPS_Atti,
0.307681266562205,36.8794268257403,28600,2017-11-08 12:33:39,1845.4299906537444,76.000002432,0.0,3.72494011919808,1856.2299909993446,86.8000027776,2.9015975977976,4.07898013052736,1024,-16.7,98,GPS_Atti,
