latitude,longitude,time_millisecond,datetime_utc,altitude_m,ascent_m,speed_kph,distance_m,max_altitude_m,max_ascent_m,max_speed_kph,max_distance_m,rc_throttle,gimbal_pitch_degrees,battery_percent,flycState,message
0.356699834640989,36.9196071703674,100,2017-11-13 12:27:16,1676.438774346043,0.0,0.0,0.0,1676.438774346043,0.0,0.0,0.0,1024,0.0,100,Motors_Started,
0.356699858887299,36.9196071971599,200,2017-11-13 12:27:16,1676.438774346043,0.0,0.0,0.00401836012858752,1676.438774346043,0.0,0.0,0.00401836012858752,1024,0.0,100,Motors_Started,
0.356699831952021,36.9196072112692,300,2017-11-13 12:27:16,1676.438774346043,0.0,0.0,0.004558250145864,1676.438774346043,0.0,0.0,0.004558250145864,1024,0.0,100,Motors_Started,
0.356699807932879,36.9196072116306,400,2017-11-13 12:27:16,1676.438774346043,0.0,0.0,0.00546599017491168,1676.438774346043,0.0,0.0,0.00546599017491168,1024,0.0,100,Motors_Started,
0.356699793945766,36.919607210998,500,2017-11-13 12:27:16,1676.438774346043,0.0,0.0,0.006394960204638721,1676.438774346043,0.0,0.0,0.006394960204638721,1024,0.0,100,Motors_Started,
0.356699769207259,36.9196072145961,600,2017-11-13 12:27:16,1676.438774346043,0.0,0.0,0.00878294028105408,1676.438774346043,0.0,0.0,0.00878294028105408,687,0.0,100,Motors_Started,Setting new Return-To-Home altitude to 30m (98 ft). Setting new Maximum Flight Altitude to 150m (492 ft)
0.356699734961896,36.9196072368102,700,2017-11-13 12:27:16,1676.438774346043,0.0,0.0,0.0133217004262944,1676.438774346043,0.0,0.0,0.0133217004262944,1024,0.0,100,Motors_Started,
0.35669968763565,36.9196072518996,800,2017-11-13 12:27:16,1676.438774346043,0.0,0.0,0.0186938005982016,1676.438774346043,0.0,0.0,0.0186938005982016,1024,0.0,100,Motors_Started,
0.356699639791965,36.9196072597232,900,2017-11-13 12:27:17,1676.438774346043,0.0,0.0,0.0238382007628224,1676.438774346043,0.0,0.0,0.0238382007628224,1024,0.0,100,Motors_Started,
0.356699562260932,36.9196072432039,1000,2017-11-13 12:27:17,1676.438774346043,0.0,0.0,0.0313546010033472,1676.438774346043,0.0,0.0,0.0313546010033472,1024,0.0,100,Motors_Started,
0.356699475281667,36.9196072127158,1100,2017-11-13 12:27:17,1676.438774346043,0.0,0.0,0.040239501287664,1676.438774346043,0.0,0.0,0.040239501287664,1024,0.0,100,Motors_Started,
0.356699392312853,36.9196071864408,1200,2017-11-13 12:27:17,1676.438774346043,0.0,0.0,0.049222001575104,1676.438774346043,0.0,0.0,0.049222001575104,1024,0.0,100,Motors_Started,
0.356699344923911,36.9196071900506,1300,2017-11-13 12:27:17,1676.438774346043,0.0,0.0,0.054503501744112004,1676.438774346043,0.0,0.0,0.054503501744112004,1024,0.0,100,Motors_Started,
0.356699292446082,36.9196072101813,1400,2017-11-13 12:27:17,1676.438774346043,0.0,0.0,0.060457701934646405,1676.438774346043,0.0,0.0,0.060457701934646405,1024,0.0,100,Motors_Started,
0.356699241348359,36.9196072404456,1500,2017-11-13 12:27:17,1676.438774346043,0.0,0.0,0.0664364021259648,1676.438774346043,0.0,0.0,0.0664364021259648,1024,0.0,100,Motors_Started,
0.35669918506567,36.9196072734725,1600,2017-11-13 12:27:17,1676.438774346043,0.0,0.0,0.073141002340512,1676.438774346043,0.0,0.0,0.073141002340512,1024,0.0,100,Assisted_Takeoff,
0.356699138227143,36.9196072870924,1700,2017-11-13 12:27:17,1676.438774346043,0.0,0.0,0.07852570251282241,1676.438774346043,0.0,0.0,0.07852570251282241,1024,0.0,100,Assisted_Takeoff,
0.356699062937256,36.9196073206388,1800,2017-11-13 12:27:17,1676.438774346043,0.0,0.0,0.08743000279776,1676.438774346043,0.0,0.0,0.08743000279776,1024,0.0,100,Assisted_Takeoff,
0.356698983141465,36.9196073538744,1900,2017-11-13 12:27:18,1676.438774346043,0.0,0.0,0.0968659030997088,1676.438774346043,0.0,0.0,0.0968659030997088,1024,0.0,100,Assisted_Takeoff,
0.356698894074534,36.9196074083353,2000,2017-11-13 12:27:18,1676.438774346043,0.0,0.0,0.10789200345254402,1676.438774346043,0.0,0.0,0.10789200345254402,1024,0.0,100,Assisted_Takeoff,
0.356698824266804,36.9196074553792,2100,2017-11-13 12:27:18,1676.438774346043,0.0,0.0,0.11674400373580801,1676.438774346043,0.0,0.0,0.11674400373580801,1024,0.0,100,Assisted_Takeoff,
0.35669875076617,36.9196075220978,2200,2017-11-13 12:27:18,1676.438774346043,0.0,0.0,0.126721004055072,1676.438774346043,0.0,0.0,0.126721004055072,1024,0.0,100,Assisted_Takeoff,
0.356698689130379,36.9196075778509,2300,2017-11-13 12:27:18,1676.438774346043,0.0,0.0,0.135207004326624,1676.438774346043,0.0,0.0,0.135207004326624,1024,0.0,100,Assisted_Takeoff,
0.356698627154243,36.9196076150041,2400,2017-11-13 12:27:18,1676.438774346043,0.0,0.0,0.143094004579008,1676.438774346043,0.0,0.0,0.143094004579008,1024,0.0,100,Assisted_Takeoff,
0.356698572219499,36.9196076146634,2500,2017-11-13 12:27:18,1676.438774346043,0.0,0.0,0.148829004762528,1676.438774346043,0.0,0.0,0.148829004762528,1024,0.0,100,Assisted_Takeoff,
0.356698503100194,36.9196076038381,2600,2017-11-13 12:27:18,1676.438774346043,0.0,0.0,0.15572400498316802,1676.438774346043,0.0,0.0,0.15572400498316802,1024,0.0,99,Assisted_Takeoff,
0.356698423116724,36.9196075968348,2700,2017-11-13 12:27:18,1676.438774346043,0.0,0.0,0.163978005247296,1676.438774346043,0.0,0.0,0.163978005247296,1024,0.0,99,Assisted_Takeoff,
0.356698328403165,36.9196075825122,2800,2017-11-13 12:27:18,1676.438774346043,0.0,0.0,0.17366000555712002,1676.438774346043,0.0,0.0,0.17366000555712002,1024,0.0,99,Assisted_Takeoff,
0.356698233414398,36.9196075729685,2900,2017-11-13 12:27:19,1676.438774346043,0.0,0.0,0.183608005875456,1676.438774346043,0.0,0.0,0.183608005875456,1024,0.0,99,Assisted_Takeoff,
0.35669813725478,36.919607555576,3000,2017-11-13 12:27:19,1676.438774346043,0.0,0.0,0.19355900619388802,1676.438774346043,0.0,0.0,0.19355900619388802,1024,0.0,99,Assisted_Takeoff,
0.356698061396159,36.9196075465498,3100,2017-11-13 12:27:19,1676.438774346043,0.0,0.0,0.20158400645068802,1676.438774346043,0.0,0.0,0.20158400645068802,1024,0.0,99,Assisted_Takeoff,
0.356697991853458,36.9196075330544,3200,2017-11-13 12:27:19,1676.438774346043,0.0,0.0,0.20886000668352003,1676.438774346043,0.0,0.0,0.20886000668352003,1024,0.0,99,Assisted_Takeoff,
0.356697931866466,36.9196075246898,3300,2017-11-13 12:27:19,1676.438774346043,0.0,0.0,0.21523700688758401,1676.438774346043,0.0,0.0,0.21523700688758401,1024,0.0,99,Assisted_Takeoff,
0.356697864996856,36.9196074979093,3400,2017-11-13 12:27:19,1676.438774346043,0.0,0.0,0.22204400710540803,1676.438774346043,0.0,0.0,0.22204400710540803,1024,0.0,99,Assisted_Takeoff,
0.356697783938614,36.9196074613313,3500,2017-11-13 12:27:19,1676.438774346043,0.0,0.0,0.23033500737072002,1676.438774346043,0.0,0.0,0.23033500737072002,1024,0.0,99,Assisted_Takeoff,
0.356697692793789,36.9196074193415,3600,2017-11-13 12:27:19,1676.438774346043,0.0,0.0,0.23979000767328001,1676.438774346043,0.0,0.0,0.23979000767328001,1024,0.0,99,Assisted_Takeoff,
0.356697598296812,36.9196073959109,3700,2017-11-13 12:27:19,1676.438774346043,0.0,0.0,0.249957007998624,1676.438774346043,0.0,0.0,0.249957007998624,1024,0.0,99,Assisted_Takeoff,
0.356697507888044,36.9196073720659,3800,2017-11-13 12:27:19,1676.438774346043,0.0,0.0,0.259719008311008,1676.438774346043,0.0,0.0,0.259719008311008,1024,0.0,99,Assisted_Takeoff,
0.356697434875943,36.9196073594868,3900,2017-11-13 12:27:20,1676.438774346043,0.0,0.0,0.267696008566272,1676.438774346043,0.0,0.0,0.267696008566272,1024,0.0,99,Assisted_Takeoff,
0.356697371847019,36.9196073662512,4000,2017-11-13 12:27:20,1676.438774346043,0.0,0.0,0.274743008791776,1676.438774346043,0.0,0.0,0.274743008791776,1024,0.0,99,Assisted_Takeoff,
0.356697314155319,36.9196073918249,4100,2017-11-13 12:27:20,1676.438774346043,0.0,0.0,0.281373009003936,1676.438774346043,0.0,0.0,0.281373009003936,1024,0.0,99,Assisted_Takeoff,
0.356697267612761,36.9196074240511,4200,2017-11-13 12:27:20,1676.438774346043,0.0,0.0,0.28686000917952004,1676.438774346043,0.0,0.0,0.28686000917952004,1024,0.0,99,Assisted_Takeoff,
0.356697219221105,36.9196074437117,4300,2017-11-13 12:27:20,1676.438774346043,0.0,0.0,0.29243500935792,1676.438774346043,0.0,0.0,0.29243500935792,1024,0.0,99,Assisted_Takeoff,
0.356697164840032,36.9196074649267,4400,2017-11-13 12:27:20,1676.438774346043,0.0,0.0,0.29870000955840004,1676.438774346043,0.0,0.0,0.29870000955840004,1024,0.0,99,Assisted_Takeoff,
0.356697090878548,36.919607478189,4500,2017-11-13 12:27:20,1676.438774346043,0.0,0.0,0.307037009825184,1676.438774346043,0.0,0.0,0.307037009825184,1024,0.0,99,Assisted_Takeoff,
0.356697037958189,36.9196075051017,4600,2017-11-13 12:27:20,1676.438774346043,0.0,0.0,0.31322801002329603,1676.438774346043,0.0,0.0,0.31322801002329603,1024,0.0,99,Assisted_Takeoff,
0.356697007485931,36.9196075439023,4700,2017-11-13 12:27:20,1676.438774346043,0.0,0.0,0.31712901014812805,1676.438774346043,0.0,0.0,0.31712901014812805,1024,0.0,99,Assisted_Takeoff,
0.356696988338687,36.9196075981903,4800,2017-11-13 12:27:20,1676.438774346043,0.0,0.0,0.32008201024262406,1676.438774346043,0.0,0.0,0.32008201024262406,1024,0.0,99,Assisted_Takeoff,
0.356696955777135,36.9196076511364,4900,2017-11-13 12:27:21,1676.438774346043,0.0,0.0,0.324581010386592,1676.438774346043,0.0,0.0,0.324581010386592,1024,0.0,99,Assisted_Takeoff,
0.356696930305828,36.9196077044037,5000,2017-11-13 12:27:21,1676.438774346043,0.0,0.0,0.32839401050860806,1676.438774346043,0.0,0.0,0.32839401050860806,1024,0.0,99,Assisted_Takeoff,
0.356696893454954,36.9196077351287,5100,2017-11-13 12:27:21,1676.438774346043,0.0,0.0,0.333053010657696,1676.438774346043,0.0,0.0,0.333053010657696,1024,0.0,99,Assisted_Takeoff,
0.356696875712243,36.9196077747476,5200,2017-11-13 12:27:21,1676.438774346043,0.0,0.0,0.33584501074704004,1676.438774346043,0.0,0.0,0.33584501074704004,1024,0.0,99,Assisted_Takeoff,
0.35669686416169,36.9196078188892,5300,2017-11-13 12:27:21,1676.438774346043,0.0,0.0,0.338116010819712,1676.438774346043,0.0,0.0,0.338116010819712,1024,0.0,99,Assisted_Takeoff,
0.356696855657955,36.9196078560742,5400,2017-11-13 12:27:21,1676.438774346043,0.0,0.0,0.339944010878208,1676.438774346043,0.0,0.0,0.339944010878208,1024,0.0,99,Assisted_Takeoff,
0.356696830356007,36.9196078771272,5500,2017-11-13 12:27:21,1676.438774346043,0.0,0.0,0.34321501098288,1676.438774346043,0.0,0.0,0.34321501098288,1024,0.0,99,Assisted_Takeoff,
0.356696818731359,36.9196078878779,5600,2017-11-13 12:27:21,1676.438774346043,0.0,0.0,0.34474801103193603,1676.438774346043,0.0,0.0,0.34474801103193603,1024,0.0,99,Assisted_Takeoff,
0.356696811502696,36.9196078938469,5700,2017-11-13 12:27:21,1676.438774346043,0.0,0.0,0.345684011061888,1676.438774346043,0.0,0.0,0.345684011061888,1024,0.0,99,Assisted_Takeoff,
0.356696803786314,36.9196078892111,5800,2017-11-13 12:27:21,1676.438774346043,0.0,0.0,0.346399011084768,1676.438774346043,0.0,0.0,0.346399011084768,1024,0.0,99,Assisted_Takeoff,
0.356696777269546,36.9196078866605,5900,2017-11-13 12:27:22,1676.438774346043,0.0,0.0,0.349204011174528,1676.438774346043,0.0,0.0,0.349204011174528,1024,0.0,99,Assisted_Takeoff,
0.356696759670138,36.9196078748098,6000,2017-11-13 12:27:22,1676.438774346043,0.0,0.0,0.35081401122604805,1676.438774346043,0.0,0.0,0.35081401122604805,1024,0.0,99,Assisted_Takeoff,
0.356696750042777,36.9196078674843,6100,2017-11-13 12:27:22,1676.438774346043,0.0,0.0,0.35167701125366396,1676.438774346043,0.0,0.0,0.35167701125366396,1024,0.0,99,Assisted_Takeoff,
0.356696736110624,36.9196078671335,6200,2017-11-13 12:27:22,1676.438774346043,0.0,0.0,0.35318001130176,1676.438774346043,0.0,0.0,0.35318001130176,1024,0.0,99,Assisted_Takeoff,
0.356696706568208,36.9196078869196,6300,2017-11-13 12:27:22,1676.438774346043,0.0,0.0,0.356871011419872,1676.438774346043,0.0,0.0,0.356871011419872,1024,0.0,99,Assisted_Takeoff,
0.356696676260422,36.9196079053874,6400,2017-11-13 12:27:22,1676.438774346043,0.0,0.0,0.360617011539744,1676.438774346043,0.0,0.0,0.360617011539744,1024,0.0,99,Assisted_Takeoff,
0.356696668222423,36.9196079128902,6500,2017-11-13 12:27:22,1676.438774346043,0.0,0.0,0.36167701157366405,1676.438774346043,0.0,0.0,0.36167701157366405,1024,0.0,99,Assisted_Takeoff,
0.356696650092141,36.9196079315053,6600,2017-11-13 12:27:22,1676.438774346043,0.0,0.0,0.36411601165171203,1676.438774346043,0.0,0.0,0.36411601165171203,1024,0.0,99,Assisted_Takeoff,
0.356696615626124,36.9196079639229,6700,2017-11-13 12:27:22,1676.438774346043,0.0,0.0,0.36869101179811203,1676.438774346043,0.0,0.0,0.36869101179811203,1024,0.0,99,Assisted_Takeoff,
0.356696580454991,36.9196079951728,6800,2017-11-13 12:27:22,1676.438774346043,0.0,0.0,0.373328011946496,1676.438774346043,0.0,0.0,0.373328011946496,1024,0.0,99,Assisted_Takeoff,
0.356696567538173,36.9196080548064,6900,2017-11-13 12:27:23,1676.438774346043,0.0,0.0,0.376399012044768,1676.438774346043,0.0,0.0,0.376399012044768,1024,0.0,99,Assisted_Takeoff,
0.35669654508763,36.9196081066568,7000,2017-11-13 12:27:23,1676.438774346043,0.0,0.0,0.380347012171104,1676.438774346043,0.0,0.0,0.380347012171104,1024,0.0,99,Assisted_Takeoff,
0.356696508135793,36.9196081328515,7100,2017-11-13 12:27:23,1676.438774346043,0.0,0.0,0.3851000123232,1676.438774346043,0.0,0.0,0.3851000123232,1024,0.0,99,Assisted_Takeoff,
0.356696470627028,36.9196081585556,7200,2017-11-13 12:27:23,1676.438774346043,0.0,0.0,0.38990501247696,1676.438774346043,0.0,0.0,0.38990501247696,1024,0.0,99,Assisted_Takeoff,
0.356696416714133,36.9196082053369,7300,2017-11-13 12:27:23,1676.438774346043,0.0,0.0,0.39713701270838403,1676.438774346043,0.0,0.0,0.39713701270838403,1024,0.0,99,Assisted_Takeoff,
0.356696368653051,36.9196082447141,7400,2017-11-13 12:27:23,1676.438774346043,0.0,0.0,0.40353001291296003,1676.438774346043,0.0,0.0,0.40353001291296003,1024,0.0,99,Assisted_Takeoff,
0.356696349730531,36.919608260499,7500,2017-11-13 12:27:23,1676.438774346043,0.0,0.0,0.40606101299395203,1676.438774346043,0.0,0.0,0.40606101299395203,1024,0.0,99,Assisted_Takeoff,
0.356696284512164,36.9196083191943,7700,2017-11-13 12:27:23,1676.438774346043,0.0,0.0,0.414952013278464,1676.438774346043,0.0,0.0,0.414952013278464,1024,0.0,99,Assisted_Takeoff,
0.356696244760217,36.9196083536104,7800,2017-11-13 12:27:23,1676.438774346043,0.0,0.0,0.420342013450944,1676.438774346043,0.0,0.0,0.420342013450944,1024,0.0,99,Assisted_Takeoff,
0.356696191777978,36.9196083657202,7900,2017-11-13 12:27:24,1676.438774346043,0.0,0.0,0.42636001364352,1676.438774346043,0.0,0.0,0.42636001364352,1024,0.0,99,Assisted_Takeoff,
0.356696148857893,36.9196083864393,8000,2017-11-13 12:27:24,1676.438774346043,0.0,0.0,0.43161401381164805,1676.438774346043,0.0,0.0,0.43161401381164805,1024,0.0,99,Assisted_Takeoff,
0.356696123165932,36.9196084196827,8100,2017-11-13 12:27:24,1676.438774346043,0.0,0.0,0.43549301393577605,1676.438774346043,0.0,0.0,0.43549301393577605,1024,0.0,99,Assisted_Takeoff,
0.35669609628195,36.9196084486757,8200,2017-11-13 12:27:24,1676.438774346043,0.0,0.0,0.43936001405952,1676.438774346043,0.0,0.0,0.43936001405952,1024,0.0,99,Assisted_Takeoff,
0.356696057047849,36.9196084642944,8300,2017-11-13 12:27:24,1676.438774346043,0.0,0.0,0.444051014209632,1676.438774346043,0.0,0.0,0.444051014209632,1024,0.0,99,Assisted_Takeoff,
0.356696027752142,36.919608471904,8400,2017-11-13 12:27:24,1676.438774346043,0.0,0.0,0.44740701431702407,1676.438774346043,0.0,0.0,0.44740701431702407,1024,0.0,99,Assisted_Takeoff,
0.356696009274188,36.9196084760662,8500,2017-11-13 12:27:24,1676.438774346043,0.0,0.0,0.449501014384032,1676.438774346043,0.0,0.0,0.449501014384032,1024,0.0,99,Assisted_Takeoff,
0.356695990792977,36.9196084847306,8600,2017-11-13 12:27:24,1676.438774346043,0.0,0.0,0.451758014456256,1676.438774346043,0.0,0.0,0.451758014456256,1024,0.0,99,Assisted_Takeoff,
0.356695955480983,36.9196085113648,8700,2017-11-13 12:27:24,1676.438774346043,0.0,0.0,0.456434014605888,1676.438774346043,0.0,0.0,0.456434014605888,1024,0.0,99,Assisted_Takeoff,
0.356695929450306,36.9196085343528,8800,2017-11-13 12:27:24,1676.438774346043,0.0,0.0,0.46000801472025604,1676.438774346043,0.0,0.0,0.46000801472025604,1024,0.0,99,Assisted_Takeoff,
0.356695912271036,36.9196085462908,8900,2017-11-13 12:27:25,1676.438774346043,0.0,0.0,0.46224901479196806,1676.438774346043,0.0,0.0,0.46224901479196806,1024,0.0,99,Assisted_Takeoff,
0.356695894719666,36.9196085518748,9000,2017-11-13 12:27:25,1676.438774346043,0.0,0.0,0.46429701485750396,1676.438774346043,0.0,0.0,0.46429701485750396,1024,0.0,99,Assisted_Takeoff,
0.356695859577031,36.9196085543468,9100,2017-11-13 12:27:25,1676.438774346043,0.0,0.0,0.46807701497846405,1676.438774346043,0.0,0.0,0.46807701497846405,1024,0.0,99,Assisted_Takeoff,
0.356695833688028,36.9196085495811,9200,2017-11-13 12:27:25,1676.438774346043,0.0,0.0,0.47062401505996804,1676.438774346043,0.0,0.0,0.47062401505996804,1024,0.0,99,Assisted_Takeoff,
0.356695815861452,36.9196085465047,9300,2017-11-13 12:27:25,1676.438774346043,0.0,0.0,0.47238701511638403,1676.438774346043,0.0,0.0,0.47238701511638403,1024,0.0,99,Assisted_Takeoff,
0.356695797066765,36.9196085372023,9400,2017-11-13 12:27:25,1676.438774346043,0.0,0.0,0.474032015169024,1676.438774346043,0.0,0.0,0.474032015169024,1024,0.0,99,Assisted_Takeoff,
0.356695759883689,36.9196085318311,9500,2017-11-13 12:27:25,1676.438774346043,0.0,0.0,0.477761015288352,1676.438774346043,0.0,0.0,0.477761015288352,1024,0.0,99,Assisted_Takeoff,
0.356695732499775,36.9196085213662,9600,2017-11-13 12:27:25,1676.438774346043,0.0,0.0,0.48028501536912,1676.438774346043,0.0,0.0,0.48028501536912,1024,0.0,99,Assisted_Takeoff,
0.356695712083972,36.9196085156334,9700,2017-11-13 12:27:25,1676.438774346043,0.0,0.0,0.482244015431808,1676.438774346043,0.0,0.0,0.482244015431808,1024,0.0,99,Assisted_Takeoff,
0.356695703066464,36.9196085206309,9800,2017-11-13 12:27:25,1676.438774346043,0.0,0.0,0.48337001546784,1676.438774346043,0.0,0.0,0.48337001546784,1024,0.0,99,Assisted_Takeoff,
0.356695695365552,36.9196085460117,9900,2017-11-13 12:27:26,1676.438774346043,0.0,0.0,0.48506701552214404,1676.438774346043,0.0,0.0,0.48506701552214404,1024,0.0,99,Assisted_Takeoff,
0.356695687246945,36.9196085743545,10000,2017-11-13 12:27:26,1676.438774346043,0.0,0.0,0.48692501558160006,1676.438774346043,0.0,0.0,0.48692501558160006,1024,0.0,99,Assisted_Takeoff,
0.356695656682679,36.9196085888388,10100,2017-11-13 12:27:26,1676.438774346043,0.0,0.0,0.490661015701152,1676.438774346043,0.0,0.0,0.490661015701152,1024,0.0,99,Assisted_Takeoff,
0.356695633452926,36.919608603182,10200,2017-11-13 12:27:26,1676.438774346043,0.0,0.0,0.49362101579587203,1676.438774346043,0.0,0.0,0.49362101579587203,1024,0.0,99,Assisted_Takeoff,
0.356695616898978,36.9196086097725,10300,2017-11-13 12:27:26,1676.438774346043,0.0,0.0,0.49559901585916805,1676.438774346043,0.0,0.0,0.49559901585916805,1024,0.0,99,Assisted_Takeoff,
0.356695610826511,36.919608613996,10400,2017-11-13 12:27:26,1676.438774346043,0.0,0.0,0.49639001588448,1676.438774346043,0.0,0.0,0.49639001588448,1024,0.0,99,Assisted_Takeoff,
0.356695603037663,36.9196086154337,10500,2017-11-13 12:27:26,1676.438774346043,0.0,0.0,0.497262015912384,1676.438774346043,0.0,0.0,0.497262015912384,1024,0.0,99,Assisted_Takeoff,
0.356695607046892,36.9196086272813,10600,2017-11-13 12:27:26,1676.438774346043,0.0,0.0,0.497267015912544,1676.438774346043,0.0,0.0,0.497267015912544,1024,0.0,99,Assisted_Takeoff,
0.356695604968183,36.9196086556297,10700,2017-11-13 12:27:26,1676.438774346043,0.0,0.0,0.498522015952704,1676.438774346043,0.0,0.0,0.498522015952704,1024,0.0,99,Assisted_Takeoff,
0.356695597903993,36.919608683776,10800,2017-11-13 12:27:26,1676.438774346043,0.0,0.0,0.5003070160098241,1676.438774346043,0.0,0.0,0.5003070160098241,1024,0.0,99,Assisted_Takeoff,
0.356695612420757,36.9196087018557,10900,2017-11-13 12:27:27,1676.438774346043,0.0,0.0,0.499469015983008,1676.438774346043,0.0,0.0,0.5003070160098241,1024,0.0,99,Assisted_Takeoff,
0.356695610312736,36.919608718202,11000,2017-11-13 12:27:27,1676.438774346043,0.0,0.0,0.500312016009984,1676.438774346043,0.0,0.0,0.500312016009984,1024,0.0,99,Assisted_Takeoff,
0.356695624754592,36.9196087236024,11100,2017-11-13 12:27:27,1676.438774346043,0.0,0.0,0.499012015968384,1676.438774346043,0.0,0.0,0.500312016009984,1024,0.0,99,Assisted_Takeoff,
0.356695623258052,36.9196087311854,11200,2017-11-13 12:27:27,1676.438774346043,0.0,0.0,0.49946001598272,1676.438774346043,0.0,0.0,0.500312016009984,1024,0.0,99,Assisted_Takeoff,
0.356695636731798,36.9196087698153,11300,2017-11-13 12:27:27,1676.438774346043,0.0,0.0,0.499569015986208,1676.438774346043,0.0,0.0,0.500312016009984,1024,0.0,99,Assisted_Takeoff,
0.356695635030074,36.9196088022659,11400,2017-11-13 12:27:27,1676.438774346043,0.0,0.0,0.501041016033312,1676.438774346043,0.0,0.0,0.501041016033312,1024,0.0,99,Assisted_Takeoff,
0.356695646698689,36.9196088218601,11500,2017-11-13 12:27:27,1676.438774346043,0.0,0.0,0.500627016020064,1676.438774346043,0.0,0.0,0.501041016033312,1024,0.0,99,Assisted_Takeoff,
0.35669564414936,36.9196088399109,11600,2017-11-13 12:27:27,1676.438774346043,0.0,0.0,0.5016310160521921,1676.438774346043,0.0,0.0,0.5016310160521921,1024,0.0,99,Assisted_Takeoff,
0.356695653543853,36.9196088839369,11700,2017-11-13 12:27:27,1676.438774346043,0.0,0.0,0.502496016079872,1676.438774346043,0.0,0.0,0.502496016079872,1024,0.0,99,Assisted_Takeoff,
0.356695649004566,36.9196089216815,11800,2017-11-13 12:27:27,1676.438774346043,0.0,0.0,0.5045690161462081,1676.438774346043,0.0,0.0,0.5045690161462081,1024,0.0,99,Assisted_Takeoff,
0.356695656332564,36.9196089416258,11900,2017-11-13 12:27:28,1676.438774346043,0.0,0.0,0.504678016149696,1676.438774346043,0.0,0.0,0.504678016149696,1024,0.0,99,Assisted_Takeoff,
0.356695650674535,36.9196089625746,12000,2017-11-13 12:27:28,1676.438774346043,0.0,0.0,0.506171016197472,1676.438774346043,0.0,0.0,0.506171016197472,1024,0.0,99,Assisted_Takeoff,
0.356695657405708,36.9196089661428,12100,2017-11-13 12:27:28,1676.438774346043,0.0,0.0,0.505639016180448,1676.438774346043,0.0,0.0,0.506171016197472,1024,0.0,99,Assisted_Takeoff,
0.356695651093045,36.9196089747921,12200,2017-11-13 12:27:28,1676.438774346043,0.0,0.0,0.506664016213248,1676.438774346043,0.0,0.0,0.506664016213248,1024,0.0,99,Assisted_Takeoff,
0.35669565727299,36.9196090099984,12300,2017-11-13 12:27:28,1676.438774346043,0.0,0.0,0.507598016243136,1676.438774346043,0.0,0.0,0.507598016243136,1024,0.0,99,Assisted_Takeoff,
0.356695648986653,36.9196090415312,12400,2017-11-13 12:27:28,1676.438774346043,0.0,0.0,0.509863016315616,1676.438774346043,0.0,0.0,0.509863016315616,1024,0.0,99,Assisted_Takeoff,
0.356695653446961,36.9196090546247,12500,2017-11-13 12:27:28,1676.438774346043,0.0,0.0,0.510007016320224,1676.438774346043,0.0,0.0,0.510007016320224,1024,0.0,99,Assisted_Takeoff,
0.356695645380464,36.919609070973,12600,2017-11-13 12:27:28,1676.438774346043,0.0,0.0,0.511573016370336,1676.438774346043,0.0,0.0,0.511573016370336,1024,0.0,99,Assisted_Takeoff,
0.356695651010809,36.9196091107051,12700,2017-11-13 12:27:28,1676.438774346043,0.0,0.0,0.5128460164110721,1676.438774346043,0.0,0.0,0.5128460164110721,1024,0.0,99,Assisted_Takeoff,
0.356695643355494,36.9196091471979,12800,2017-11-13 12:27:28,1676.438774346043,0.0,0.0,0.515337016490784,1676.438774346043,0.0,0.0,0.515337016490784,1024,0.0,99,Assisted_Takeoff,
0.356695649499613,36.9196092037232,12900,2017-11-13 12:27:29,1676.438774346043,0.0,0.0,0.517434016557888,1676.438774346043,0.0,0.0,0.517434016557888,1024,0.0,99,Assisted_Takeoff,
0.356695642451707,36.9196092523704,13000,2017-11-13 12:27:29,1676.438774346043,0.0,0.0,0.5205230166567361,1676.438774346043,0.0,0.0,0.5205230166567361,1024,0.0,99,Assisted_Takeoff,
0.356695689030905,36.9196092766664,13100,2017-11-13 12:27:29,1676.438774346043,0.0,0.0,0.517107016547424,1676.438774346043,0.0,0.0,0.5205230166567361,1029,0.0,99,Assisted_Takeoff,
0.356695712737793,36.9196093022988,13200,2017-11-13 12:27:29,1676.438774346043,0.0,0.0,0.5160610165139521,1676.438774346043,0.0,0.0,0.5205230166567361,1077,0.0,99,Assisted_Takeoff,
0.356695743458389,36.9196093444478,13300,2017-11-13 12:27:29,1676.438774346043,0.0,0.0,0.515212016486784,1676.438774346043,0.0,0.0,0.5205230166567361,1166,0.0,99,Assisted_Takeoff,
0.356695755515388,36.9196093838898,13400,2017-11-13 12:27:29,1676.438774346043,0.0,0.0,0.516106016515392,1676.438774346043,0.0,0.0,0.5205230166567361,1255,0.0,99,Assisted_Takeoff,
0.356695772109232,36.9196093979937,13500,2017-11-13 12:27:29,1676.438774346043,0.0,0.0,0.515237016487584,1676.438774346043,0.0,0.0,0.5205230166567361,1322,0.0,99,Assisted_Takeoff,
0.356695774355671,36.9196094171591,13600,2017-11-13 12:27:29,1676.438774346043,0.0,0.0,0.516047016513504,1676.438774346043,0.0,0.0,0.5205230166567361,1376,0.0,99,Assisted_Takeoff,
0.356695745318072,36.9196094104319,13700,2017-11-13 12:27:29,1676.438774346043,0.0,0.0,0.51851501659248,1676.438774346043,0.0,0.0,0.5205230166567361,1445,0.0,99,Assisted_Takeoff,
0.356695720894669,36.9196094109587,13800,2017-11-13 12:27:29,1676.438774346043,0.0,0.0,0.520926016669632,1676.438774346043,0.0,0.0,0.520926016669632,1571,0.0,99,Assisted_Takeoff,
0.356695741434233,36.9196094147877,13900,2017-11-13 12:27:30,1676.438774346043,0.0,0.0,0.519126016612032,1676.438774346043,0.0,0.0,0.520926016669632,1684,0.0,99,Assisted_Takeoff,
0.356695738442781,36.9196094475723,14000,2017-11-13 12:27:30,1676.438774346043,0.0,0.0,0.521179016677728,1676.438774346043,0.0,0.0,0.521179016677728,1684,0.0,99,Assisted_Takeoff,
0.356695744582829,36.9196094183982,14100,2017-11-13 12:27:30,1676.438774346043,0.0,0.0,0.519012016608384,1676.438774346043,0.0,0.0,0.521179016677728,1684,0.0,99,GPS_Atti,Obstacle Avoided. Revise Flight Route
0.356695744514435,36.9196093334428,14200,2017-11-13 12:27:30,1676.438774346043,0.0,0.35999970196000003,0.51453501646512,1676.438774346043,0.0,0.35999970196000003,0.521179016677728,1684,0.0,99,GPS_Atti,
0.356695758332596,36.9196091965095,14300,2017-11-13 12:27:30,1676.5387743492429,0.1000000032,0.35999970196000003,0.506218016198976,1676.5387743492429,0.1000000032,0.35999970196000003,0.521179016677728,1684,0.0,99,GPS_Atti,
0.356695767792227,36.9196090567205,14400,2017-11-13 12:27:30,1676.6387743524426,0.2000000064,0.35999970196000003,0.49853901595324807,1676.6387743524426,0.2000000064,0.35999970196000003,0.521179016677728,1684,0.0,99,GPS_Atti,
0.356695820443079,36.9196088791624,14500,2017-11-13 12:27:30,1676.8387743588428,0.4000000128,0.35999970196000003,0.48516501552528,1676.8387743588428,0.4000000128,0.35999970196000003,0.521179016677728,1684,0.0,99,GPS_Atti,
0.356695899881834,36.9196087298389,14600,2017-11-13 12:27:30,1677.0387743652427,0.6000000192,0.35999970196000003,0.47068201506182406,1677.0387743652427,0.6000000192,0.35999970196000003,0.521179016677728,1684,0.0,99,GPS_Atti,
0.356695948561724,36.9196086624893,14700,2017-11-13 12:27:30,1677.2387743716429,0.8000000256,0.0,0.462916014813312,1677.2387743716429,0.8000000256,0.35999970196000003,0.521179016677728,1684,0.0,99,GPS_Atti,Home Point Recorded. RTH Altitude:  30m.
0.356695977280149,36.9196086311863,14800,2017-11-13 12:27:30,1677.5387743812428,1.1000000352000001,0.0,0.458692014678144,1677.5387743812428,1.1000000352000001,0.35999970196000003,0.521179016677728,1684,0.0,99,GPS_Atti,
0.356696001981201,36.9196087230638,14900,2017-11-13 12:27:31,1677.9387743940429,1.5000000480000002,0.0,0.4598620147155841,1677.9387743940429,1.5000000480000002,0.35999970196000003,0.521179016677728,1684,0.0,99,GPS_Atti,
0.35669598554613,36.9196088029904,15000,2017-11-13 12:27:31,1678.338774406843,1.9000000608000003,0.0,0.464954014878528,1678.338774406843,1.9000000608000003,0.35999970196000003,0.521179016677728,1684,0.0,99,GPS_Atti,
0.356695923452746,36.9196089674246,15100,2017-11-13 12:27:31,1678.8387744228428,2.4000000768,0.0,0.47866001531712,1678.8387744228428,2.4000000768,0.35999970196000003,0.521179016677728,1684,0.0,99,GPS_Atti,
0.356695774297861,36.9196090719171,15200,2017-11-13 12:27:31,1679.3387744388426,2.9000000928,0.35999970196000003,0.49859701595510403,1679.3387744388426,2.9000000928,0.35999970196000003,0.521179016677728,1684,0.0,99,GPS_Atti,
0.356695614370005,36.9196091068906,15300,2017-11-13 12:27:31,1679.838774454843,3.4000001088000005,1.0187991565468,0.5163680165237761,1679.838774454843,3.4000001088000005,1.0187991565468,0.521179016677728,1684,0.0,99,GPS_Atti,
0.356695354597361,36.9196090480376,15400,2017-11-13 12:27:31,1680.3387744708427,3.9000001248,1.2995989240756,0.5401950172862401,1680.3387744708427,3.9000001248,1.2995989240756,0.5401950172862401,1684,0.0,99,GPS_Atti,
0.35669506791061,36.9196090077372,15500,2017-11-13 12:27:31,1680.8387744868428,4.4000001408000005,1.1375990581936,0.568104018179328,1680.8387744868428,4.4000001408000005,1.2995989240756,0.568104018179328,1684,0.0,99,GPS_Atti,
0.356694790850405,36.9196090159138,15600,2017-11-13 12:27:31,1681.3387745028429,4.9000001568,0.5075995797636,0.597268019112576,1681.3387745028429,4.9000001568,1.2995989240756,0.597268019112576,1684,0.0,99,GPS_Atti,
0.356694554962964,36.9196090405933,15700,2017-11-13 12:27:31,1681.9387745220426,5.5000001759999995,1.07999910588,0.622879019932128,1681.9387745220426,5.5000001759999995,1.2995989240756,0.622879019932128,1684,0.0,99,GPS_Atti,
0.356694374027366,36.9196089977268,15800,2017-11-13 12:27:31,1682.438774538043,6.000000192000001,1.4399988078400001,0.640352020491264,1682.438774538043,6.000000192000001,1.4399988078400001,0.640352020491264,1684,0.0,99,GPS_Atti,
0.356694302698262,36.919608881162,15900,2017-11-13 12:27:32,1682.9387745540428,6.500000208,1.4399988078400001,0.6439310206057921,1682.9387745540428,6.500000208,1.4399988078400001,0.6439310206057921,1684,0.0,99,GPS_Atti,
0.356694197501594,36.9196088041449,16000,2017-11-13 12:27:32,1683.4387745700428,7.000000224,0.8063993323904,0.652681020885792,1683.4387745700428,7.000000224,1.4399988078400001,0.652681020885792,1684,0.0,99,GPS_Atti,
0.356694063736319,36.9196087431699,16100,2017-11-13 12:27:32,1683.9387745860427,7.50000024,0.5075995797636,0.6651660212853121,1683.9387745860427,7.50000024,1.4399988078400001,0.6651660212853121,1684,-0.1,99,GPS_Atti,
0.356693908236202,36.9196087250977,16200,2017-11-13 12:27:32,1684.538774605243,8.1000002592,0.35999970196000003,0.6813530218032959,1684.538774605243,8.1000002592,1.4399988078400001,0.6813530218032959,1684,-0.8,99,GPS_Atti,
0.356693768614228,36.919608702692,16300,2017-11-13 12:27:32,1685.0387746212427,8.6000002752,0.35999970196000003,0.695768022264576,1685.0387746212427,8.6000002752,1.4399988078400001,0.695768022264576,1684,-1.7,99,GPS_Atti,
0.356693634021703,36.9196087032398,16400,2017-11-13 12:27:32,1685.538774637243,9.1000002912,0.35999970196000003,0.710304022729728,1685.538774637243,9.1000002912,1.4399988078400001,0.710304022729728,1684,-2.7,99,GPS_Atti,
0.356693526778895,36.9196086946788,16500,2017-11-13 12:27:32,1686.0387746532429,9.6000003072,0.35999970196000003,0.721663023093216,1686.0387746532429,9.6000003072,1.4399988078400001,0.721663023093216,1684,-3.8,99,GPS_Atti,
0.356693427166976,36.9196086809967,16600,2017-11-13 12:27:32,1686.6387746724427,10.2000003264,0.35999970196000003,0.73208502342672,1686.6387746724427,10.2000003264,1.4399988078400001,0.73208502342672,1684,-3.8,99,GPS_Atti,
0.356693346797565,36.9196086343751,16700,2017-11-13 12:27:32,1686.9387746820428,10.500000336,0.35999970196000003,0.7396280236680961,1686.9387746820428,10.500000336,1.4399988078400001,0.7396280236680961,1684,-4.9,99,GPS_Atti,
0.356693271385138,36.9196086395278,16800,2017-11-13 12:27:32,1687.3387746948426,10.9000003488,0.0,0.7479360239339521,1687.3387746948426,10.9000003488,1.4399988078400001,0.7479360239339521,1684,-6.0,99,GPS_Atti,
0.356693200375209,36.9196086240547,16900,2017-11-13 12:27:33,1687.7387747076427,11.3000003616,0.0,0.7552740241687681,1687.7387747076427,11.3000003616,1.4399988078400001,0.7552740241687681,1684,-7.0,99,GPS_Atti,
0.356693090111637,36.9196086869847,17000,2017-11-13 12:27:33,1688.2387747236428,11.8000003776,0.5075995797636,0.768761024600352,1688.2387747236428,11.8000003776,1.4399988078400001,0.768761024600352,1684,-8.1,99,GPS_Atti,
0.356692931885505,36.9196087922903,17100,2017-11-13 12:27:33,1688.7387747396428,12.300000393600001,0.5075995797636,0.7885330252330561,1688.7387747396428,12.300000393600001,1.4399988078400001,0.7885330252330561,1684,-9.2,99,GPS_Atti,
0.356692754685557,36.9196089495218,17200,2017-11-13 12:27:33,1689.1387747524427,12.700000406400001,0.5075995797636,0.8118120259779841,1689.1387747524427,12.700000406400001,1.4399988078400001,0.8118120259779841,1684,-10.2,99,GPS_Atti,
0.356692498389641,36.9196090906362,17300,2017-11-13 12:27:33,1689.6387747684428,13.2000004224,0.35999970196000003,0.8433200269862401,1689.6387747684428,13.2000004224,1.4399988078400001,0.8433200269862401,1684,-11.3,99,GPS_Atti,
0.356692230266337,36.9196092161559,17400,2017-11-13 12:27:33,1690.1387747844428,13.7000004384,0.35999970196000003,0.87572002802304,1690.1387747844428,13.7000004384,1.4399988078400001,0.87572002802304,1684,-12.3,99,GPS_Atti,
0.356691964926044,36.9196092712863,17500,2017-11-13 12:27:33,1690.638774800443,14.2000004544,0.35999970196000003,0.905808028985856,1690.638774800443,14.2000004544,1.4399988078400001,0.905808028985856,1684,-13.2,99,GPS_Atti,
0.356691705703001,36.9196093462738,17600,2017-11-13 12:27:33,1691.1387748164427,14.7000004704,0.5075995797636,0.9358110299459521,1691.1387748164427,14.7000004704,1.4399988078400001,0.9358110299459521,1684,-13.9,99,GPS_Atti,
0.356691448830616,36.9196093435766,17700,2017-11-13 12:27:33,1691.638774832443,15.200000486400002,0.35999970196000003,0.963359030827488,1691.638774832443,15.200000486400002,1.4399988078400001,0.963359030827488,1684,-14.5,99,GPS_Atti,
0.356691206633769,36.9196093212433,17800,2017-11-13 12:27:33,1692.1387748484428,15.700000502400002,0.35999970196000003,0.9888500316432001,1692.1387748484428,15.700000502400002,1.4399988078400001,0.9888500316432001,1684,-15.1,99,GPS_Atti,
0.356691011070672,36.9196092255702,17900,2017-11-13 12:27:34,1692.6387748644427,16.2000005184,0.35999970196000003,1.00750003224,1692.6387748644427,16.2000005184,1.4399988078400001,1.00750003224,1684,-15.7,99,GPS_Atti,
0.356690826729184,36.9196091470134,18000,2017-11-13 12:27:34,1693.1387748804427,16.7000005344,0.0,1.0255700328182402,1693.1387748804427,16.7000005344,1.4399988078400001,1.0255700328182402,1684,-15.7,99,GPS_Atti,
0.356690685661965,36.9196090184373,18100,2017-11-13 12:27:34,1693.7387748996427,17.3000005536,0.0,1.03797003321504,1693.7387748996427,17.3000005536,1.4399988078400001,1.03797003321504,1684,-16.3,99,GPS_Atti,
0.356690550963592,36.9196089270913,18200,2017-11-13 12:27:34,1694.2387749156428,17.8000005696,0.0,1.05072003362304,1694.2387749156428,17.8000005696,1.4399988078400001,1.05072003362304,1684,-16.9,99,GPS_Atti,
0.356690423552505,36.9196088032777,18300,2017-11-13 12:27:34,1694.7387749316429,18.3000005856,0.0,1.0622100339907201,1694.7387749316429,18.3000005856,1.4399988078400001,1.0622100339907201,1684,-17.6,99,GPS_Atti,
0.35669029726993,36.9196087255282,18400,2017-11-13 12:27:34,1695.238774947643,18.8000006016,0.0,1.07462003438784,1695.238774947643,18.8000006016,1.4399988078400001,1.07462003438784,1684,-18.1,99,GPS_Atti,
0.35669022388573,36.9196086064676,18500,2017-11-13 12:27:34,1695.7387749636428,19.300000617600002,0.0,1.08064003458048,1695.7387749636428,19.300000617600002,1.4399988078400001,1.08064003458048,1684,-18.8,99,GPS_Atti,
0.356690146687714,36.9196085118212,18600,2017-11-13 12:27:34,1696.3387749828428,19.900000636799998,0.0,1.08764003480448,1696.3387749828428,19.900000636799998,1.4399988078400001,1.08764003480448,1684,-19.3,99,GPS_Atti,
0.356690067564877,36.9196084026904,18700,2017-11-13 12:27:34,1696.8387749988428,20.4000006528,0.0,1.09477003503264,1696.8387749988428,20.4000006528,1.4399988078400001,1.09477003503264,1684,-20.0,99,GPS_Atti,
0.356689998012405,36.9196083189943,18800,2017-11-13 12:27:34,1697.3387750148427,20.900000668800004,0.0,1.10133003524256,1697.3387750148427,20.900000668800004,1.4399988078400001,1.10133003524256,1684,-20.5,99,GPS_Atti,
0.356689991798263,36.9196081477294,18900,2017-11-13 12:27:35,1697.938775034043,21.500000688,0.0,1.09997003519904,1697.938775034043,21.500000688,1.4399988078400001,1.10133003524256,1684,-20.9,99,GPS_Atti,
0.356689990642068,36.9196080021712,19000,2017-11-13 12:27:35,1698.4387750500428,22.000000703999998,0.0,1.0986100351555201,1698.4387750500428,22.000000703999998,1.4399988078400001,1.10133003524256,1684,-21.4,99,GPS_Atti,
0.356690023992601,36.91960783783,19100,2017-11-13 12:27:35,1698.9387750660428,22.50000072,0.0,1.0935300349929602,1698.9387750660428,22.50000072,1.4399988078400001,1.10133003524256,1684,-21.8,99,GPS_Atti,
0.356690061454955,36.9196077182903,19200,2017-11-13 12:27:35,1699.5387750852428,23.1000007392,0.0,1.08854003483328,1699.5387750852428,23.1000007392,1.4399988078400001,1.10133003524256,1684,-21.8,99,GPS_Atti,
0.356690133401239,36.919607585818,19300,2017-11-13 12:27:35,1700.0387751012427,23.6000007552,0.0,1.07983003455456,1700.0387751012427,23.6000007552,1.4399988078400001,1.10133003524256,1684,-21.8,99,GPS_Atti,
0.356690193269354,36.9196075153398,19400,2017-11-13 12:27:35,1700.538775117243,24.100000771200005,0.0,1.07287003433184,1700.538775117243,24.100000771200005,1.4399988078400001,1.10133003524256,1684,-21.8,99,GPS_Atti,
0.356690274106943,36.919607416902,19500,2017-11-13 12:27:35,1701.1387751364427,24.7000007904,0.0,1.0635400340332801,1701.1387751364427,24.7000007904,1.4399988078400001,1.10133003524256,1684,-21.8,99,GPS_Atti,
0.356690339793488,36.9196073576327,19600,2017-11-13 12:27:35,1701.6387751524428,25.2000008064,0.0,1.05609003379488,1701.6387751524428,25.2000008064,1.4399988078400001,1.10133003524256,1684,-21.8,99,GPS_Atti,
0.356690452675597,36.919607261555,19700,2017-11-13 12:27:35,1702.1387751684429,25.7000008224,0.0,1.0433800333881602,1702.1387751684429,25.7000008224,1.4399988078400001,1.10133003524256,1684,-21.8,99,GPS_Atti,
0.356690563020591,36.9196071906583,19800,2017-11-13 12:27:35,1702.738775187643,26.3000008416,0.0,1.03106003299392,1702.738775187643,26.3000008416,1.4399988078400001,1.10133003524256,1684,-21.8,99,GPS_Atti,
0.356690718165708,36.9196070602358,19900,2017-11-13 12:27:36,1703.238775203643,26.8000008576,0.0,1.0138800324441601,1703.238775203643,26.8000008576,1.4399988078400001,1.10133003524256,1684,-21.8,99,GPS_Atti,
0.356690842710733,36.9196069689698,20000,2017-11-13 12:27:36,1703.7387752196428,27.3000008736,0.0,1.0002100320067202,1703.7387752196428,27.3000008736,1.4399988078400001,1.10133003524256,1684,-21.8,99,GPS_Atti,
0.356690977041078,36.9196068493124,20100,2017-11-13 12:27:36,1704.3387752388428,27.9000008928,0.0,0.985666031541312,1704.3387752388428,27.9000008928,1.4399988078400001,1.10133003524256,1684,-21.8,99,GPS_Atti,
0.356691066471966,36.9196068208352,20200,2017-11-13 12:27:36,1704.8387752548429,28.4000009088,0.0,0.975848031227136,1704.8387752548429,28.4000009088,1.4399988078400001,1.10133003524256,1684,-21.8,99,GPS_Atti,
0.35669117783148,36.9196068047175,20300,2017-11-13 12:27:36,1705.3387752708427,28.9000009248,0.0,0.9635480308335361,1705.3387752708427,28.9000009248,1.4399988078400001,1.10133003524256,1684,-21.8,99,GPS_Atti,
0.356691268115672,36.9196068169144,20400,2017-11-13 12:27:36,1705.838775286843,29.4000009408,0.0,0.95346003051072,1705.838775286843,29.4000009408,1.4399988078400001,1.10133003524256,1684,-21.8,99,GPS_Atti,
0.356691384127651,36.9196067735208,20500,2017-11-13 12:27:36,1706.4387753060428,30.00000096,0.0,0.940784030105088,1706.4387753060428,30.00000096,1.4399988078400001,1.10133003524256,1684,-21.8,99,GPS_Atti,
0.356691474084526,36.9196067526849,20600,2017-11-13 12:27:36,1706.938775322043,30.500000976,0.0,0.9309040297889281,1706.938775322043,30.500000976,1.4399988078400001,1.10133003524256,1684,-21.8,99,GPS_Atti,
0.356691633001118,36.919606679571,20700,2017-11-13 12:27:36,1707.438775338043,31.000000992,0.0,0.913704029238528,1707.438775338043,31.000000992,1.4399988078400001,1.10133003524256,1684,-21.8,99,GPS_Atti,
0.356691784151662,36.9196066685633,20800,2017-11-13 12:27:36,1707.9387753540427,31.500001007999998,0.35999970196000003,0.8970010287040321,1707.9387753540427,31.500001007999998,1.4399988078400001,1.10133003524256,1684,-21.9,99,GPS_Atti,
0.356691993201531,36.9196066166063,20900,2017-11-13 12:27:37,1708.538775373243,32.1000010272,0.35999970196000003,0.8741880279740161,1708.538775373243,32.1000010272,1.4399988078400001,1.10133003524256,1684,-21.8,99,GPS_Atti,
0.35669215015992,36.9196066069134,21000,2017-11-13 12:27:37,1709.0387753892428,32.6000010432,0.0,0.85685502741936,1709.0387753892428,32.6000010432,1.4399988078400001,1.10133003524256,1684,-21.9,99,GPS_Atti,
0.356692326271253,36.9196065780631,21100,2017-11-13 12:27:37,1709.5387754052426,33.100001059200004,0.0,0.83757002680224,1709.5387754052426,33.100001059200004,1.4399988078400001,1.10133003524256,1684,-21.9,99,GPS_Atti,
0.356692448783166,36.9196065776143,21200,2017-11-13 12:27:37,1710.1387754244429,33.7000010784,0.0,0.823993026367776,1710.1387754244429,33.7000010784,1.4399988078400001,1.10133003524256,1684,-21.8,99,GPS_Atti,
0.356692605184627,36.9196065741452,21300,2017-11-13 12:27:37,1710.6387754404427,34.2000010944,0.0,0.8066890258140481,1710.6387754404427,34.2000010944,1.4399988078400001,1.10133003524256,1684,-21.8,99,GPS_Atti,
0.356692710382924,36.9196065877378,21400,2017-11-13 12:27:37,1711.1387754564428,34.7000011104,0.0,0.7949060254369921,1711.1387754564428,34.7000011104,1.4399988078400001,1.10133003524256,1684,-21.8,99,GPS_Atti,
0.356692852672289,36.9196065389119,21500,2017-11-13 12:27:37,1711.7387754756428,35.300001129600005,0.0,0.7796060249473921,1711.7387754756428,35.300001129600005,1.4399988078400001,1.10133003524256,1684,-21.8,99,GPS_Atti,
0.356692953157054,36.9196065288674,21600,2017-11-13 12:27:37,1712.2387754916426,35.8000011456,0.0,0.7685810245945921,1712.2387754916426,35.8000011456,1.4399988078400001,1.10133003524256,1684,-21.9,99,GPS_Atti,
0.356693081607903,36.9196065649946,21700,2017-11-13 12:27:37,1712.738775507643,36.3000011616,0.0,0.75399002412768,1712.738775507643,36.3000011616,1.4399988078400001,1.10133003524256,1684,-21.8,99,GPS_Atti,
0.356693154051676,36.9196066377446,21800,2017-11-13 12:27:37,1713.2387755236427,36.8000011776,0.35999970196000003,0.7452800238489601,1713.2387755236427,36.8000011776,1.4399988078400001,1.10133003524256,1684,-21.9,99,GPS_Atti,
0.356693279528172,36.9196066814811,21900,2017-11-13 12:27:38,1713.7387755396428,37.3000011936,0.0,0.7309930233917761,1713.7387755396428,37.3000011936,1.4399988078400001,1.10133003524256,1684,-21.8,99,GPS_Atti,
0.356693348001799,36.9196067135633,22000,2017-11-13 12:27:38,1714.3387755588428,37.9000012128,0.0,0.72314002314048,1714.3387755588428,37.9000012128,1.4399988078400001,1.10133003524256,1684,-21.8,99,GPS_Atti,
0.356693451274461,36.9196066913778,22100,2017-11-13 12:27:38,1714.8387755748427,38.4000012288,0.0,0.71186502277968,1714.8387755748427,38.4000012288,1.4399988078400001,1.10133003524256,1684,-21.8,99,GPS_Atti,
0.356693506133482,36.9196066717865,22200,2017-11-13 12:27:38,1715.3387755908427,38.9000012448,0.0,0.7059490225903681,1715.3387755908427,38.9000012448,1.4399988078400001,1.10133003524256,1684,-21.8,99,GPS_Atti,
0.356693574710515,36.9196066385138,22300,2017-11-13 12:27:38,1715.9387756100427,39.500001264,0.0,0.6986500223568,1715.9387756100427,39.500001264,1.4399988078400001,1.10133003524256,1684,-21.8,99,GPS_Atti,
0.356693600588933,36.9196066251059,22400,2017-11-13 12:27:38,1716.4387756260428,40.00000128,0.0,0.695911022269152,1716.4387756260428,40.00000128,1.4399988078400001,1.10133003524256,1684,-21.8,99,GPS_Atti,
0.356693652598992,36.9196066330753,22500,2017-11-13 12:27:38,1716.9387756420429,40.500001296,0.0,0.690072022082304,1716.9387756420429,40.500001296,1.4399988078400001,1.10133003524256,1684,-21.8,99,GPS_Atti,
0.356693672430997,36.919606673414,22600,2017-11-13 12:27:38,1717.438775658043,41.000001312,0.0,0.6875000219999999,1717.438775658043,41.000001312,1.4399988078400001,1.10133003524256,1684,-21.8,99,GPS_Atti,
0.356693731560613,36.9196067248956,22700,2017-11-13 12:27:38,1717.9387756740427,41.500001328,0.0,0.68050502177616,1717.9387756740427,41.500001328,1.4399988078400001,1.10133003524256,1684,-21.8,99,GPS_Atti,
0.356693754930413,36.9196067908461,22800,2017-11-13 12:27:38,1718.438775690043,42.000001344,0.0,0.6774170216773441,1718.438775690043,42.000001344,1.4399988078400001,1.10133003524256,1684,-21.9,99,GPS_Atti,
0.356693805173609,36.9196068737394,22900,2017-11-13 12:27:39,1718.9387757060429,42.50000136,0.35999970196000003,0.671324021482368,1718.9387757060429,42.50000136,1.4399988078400001,1.10133003524256,1684,-21.9,99,GPS_Atti,
0.356693843082157,36.9196069847601,23000,2017-11-13 12:27:39,1719.4387757220427,43.000001376,0.35999970196000003,0.666618021331776,1719.4387757220427,43.000001376,1.4399988078400001,1.10133003524256,1684,-22.0,99,GPS_Atti,
0.356693925546561,36.9196070929539,23100,2017-11-13 12:27:39,1719.9387757380428,43.500001392,0.35999970196000003,0.657184021029888,1719.9387757380428,43.500001392,1.4399988078400001,1.10133003524256,1684,-22.1,99,GPS_Atti,
0.356693949868187,36.9196072018354,23200,2017-11-13 12:27:39,1720.4387757540428,44.000001407999996,0.35999970196000003,0.6544320209418241,1720.4387757540428,44.000001407999996,1.4399988078400001,1.10133003524256,1684,-22.2,99,GPS_Atti,
0.356693999652976,36.9196072929641,23300,2017-11-13 12:27:39,1720.9387757700429,44.500001424,0.35999970196000003,0.649029020768928,1720.9387757700429,44.500001424,1.4399988078400001,1.10133003524256,1684,-22.2,99,GPS_Atti,
0.356694002040275,36.9196073749507,23400,2017-11-13 12:27:39,1721.538775789243,45.1000014432,0.0,0.64902002076864,1721.538775789243,45.1000014432,1.4399988078400001,1.10133003524256,1684,-22.3,99,GPS_Atti,
0.356694043457306,36.9196074204696,23500,2017-11-13 12:27:39,1722.0387758052427,45.6000014592,0.0,0.6446150206276801,1722.0387758052427,45.6000014592,1.4399988078400001,1.10133003524256,1684,-22.3,99,GPS_Atti,
0.356694051993609,36.9196074548396,23600,2017-11-13 12:27:39,1722.5387758212428,46.1000014752,0.0,0.6438430206029759,1722.5387758212428,46.1000014752,1.4399988078400001,1.10133003524256,1684,-22.3,99,GPS_Atti,
0.356694086611886,36.9196074578998,23700,2017-11-13 12:27:39,1723.0387758372428,46.600001491200004,0.0,0.6400150204804801,1723.0387758372428,46.600001491200004,1.4399988078400001,1.10133003524256,1684,-22.3,99,GPS_Atti,
0.356694087462748,36.9196074737481,23800,2017-11-13 12:27:39,1723.538775853243,47.100001507200005,0.0,0.6400110204803521,1723.538775853243,47.100001507200005,1.4399988078400001,1.10133003524256,1684,-22.3,99,GPS_Atti,
0.356694110551641,36.9196075000995,23900,2017-11-13 12:27:40,1724.0387758692427,47.6000015232,0.0,0.6376090204034881,1724.0387758692427,47.6000015232,1.4399988078400001,1.10133003524256,1684,-22.3,99,GPS_Atti,
0.356694109611215,36.919607545031,24000,2017-11-13 12:27:40,1724.5387758852428,48.1000015392,0.0,0.63802002041664,1724.5387758852428,48.1000015392,1.4399988078400001,1.10133003524256,1684,-22.3,99,GPS_Atti,
0.356694165672028,36.9196076109704,24100,2017-11-13 12:27:40,1725.1387759044428,48.7000015584,0.0,0.6323250202344001,1725.1387759044428,48.7000015584,1.4399988078400001,1.10133003524256,1684,-22.3,99,GPS_Atti,
0.356694181271707,36.9196076814611,24200,2017-11-13 12:27:40,1725.6387759204426,49.200001574400005,0.0,0.6312530202000961,1725.6387759204426,49.200001574400005,1.4399988078400001,1.10133003524256,1684,-22.3,99,GPS_Atti,
0.356694200278905,36.9196077552155,24300,2017-11-13 12:27:40,1726.138775936443,49.70000159040001,0.0,0.629942020158144,1726.138775936443,49.70000159040001,1.4399988078400001,1.10133003524256,1684,-22.3,99,GPS_Atti,
0.356694194419764,36.9196078344092,24400,2017-11-13 12:27:40,1726.6387759524428,50.20000160640001,0.0,0.631559020209888,1726.6387759524428,50.20000160640001,1.4399988078400001,1.10133003524256,1684,-22.3,99,GPS_Atti,
0.356694219333329,36.9196079355257,24500,2017-11-13 12:27:40,1727.1387759684428,50.7000016224,0.0,0.6302270201672641,1727.1387759684428,50.7000016224,1.4399988078400001,1.10133003524256,1684,-22.3,99,GPS_Atti,
0.356694232169538,36.9196080361645,24600,2017-11-13 12:27:40,1727.7387759876428,51.300001641600005,0.0,0.630424020173568,1727.7387759876428,51.300001641600005,1.4399988078400001,1.10133003524256,1684,-22.3,99,GPS_Atti,
0.356694276933835,36.9196081073029,24700,2017-11-13 12:27:40,1728.2387760036427,51.8000016576,0.0,0.6267720200567041,1728.2387760036427,51.8000016576,1.4399988078400001,1.10133003524256,1684,-22.3,99,GPS_Atti,
0.356694291607744,36.9196081711604,24800,2017-11-13 12:27:40,1728.7387760196427,52.3000016736,0.0,0.6263850200443201,1728.7387760196427,52.3000016736,1.4399988078400001,1.10133003524256,1684,-22.3,99,GPS_Atti,
0.356694342383442,36.9196082034822,24900,2017-11-13 12:27:41,1729.2387760356428,52.8000016896,0.0,0.6214840198874881,1729.2387760356428,52.8000016896,1.4399988078400001,1.10133003524256,1684,-22.3,99,GPS_Atti,
0.356694358104441,36.9196082397849,25000,2017-11-13 12:27:41,1729.7387760516428,53.3000017056,0.0,0.6205270198568641,1729.7387760516428,53.3000017056,1.4399988078400001,1.10133003524256,1684,-22.3,99,GPS_Atti,
0.356694367555115,36.9196082717585,25100,2017-11-13 12:27:41,1730.2387760676427,53.800001721600005,0.0,0.620188019846016,1730.2387760676427,53.800001721600005,1.4399988078400001,1.10133003524256,1684,-22.3,99,GPS_Atti,
0.356694351821904,36.9196083317165,25200,2017-11-13 12:27:41,1730.738776083643,54.3000017376,0.0,0.6232500199440001,1730.738776083643,54.3000017376,1.4399988078400001,1.10133003524256,1684,-22.3,99,GPS_Atti,
0.35669434936621,36.9196084064249,25300,2017-11-13 12:27:41,1731.2387760996428,54.8000017536,0.35999970196000003,0.625291020009312,1731.2387760996428,54.8000017536,1.4399988078400001,1.10133003524256,1684,-22.3,99,GPS_Atti,
0.356694325215571,36.9196084948945,25400,2017-11-13 12:27:41,1731.7387761156426,55.3000017696,0.35999970196000003,0.6301380201644161,1731.7387761156426,55.3000017696,1.4399988078400001,1.10133003524256,1684,-22.3,99,GPS_Atti,
0.356694331101582,36.9196085966445,25500,2017-11-13 12:27:41,1732.238776131643,55.8000017856,0.0,0.63224502023184,1732.238776131643,55.8000017856,1.4399988078400001,1.10133003524256,1684,-22.3,99,GPS_Atti,
0.356694326654302,36.9196086939935,25600,2017-11-13 12:27:41,1732.7387761476427,56.3000018016,0.0,0.635524020336768,1732.7387761476427,56.3000018016,1.4399988078400001,1.10133003524256,1684,-22.3,99,GPS_Atti,
0.356694356740619,36.9196087636158,25700,2017-11-13 12:27:41,1733.2387761636428,56.8000018176,0.35999970196000003,0.6344180203013761,1733.2387761636428,56.8000018176,1.4399988078400001,1.10133003524256,1684,-22.3,99,GPS_Atti,
0.356694371793141,36.9196088534947,25800,2017-11-13 12:27:41,1733.7387761796426,57.3000018336,0.35999970196000003,0.6356820203418241,1733.7387761796426,57.3000018336,1.4399988078400001,1.10133003524256,1684,-22.3,99,GPS_Atti,
0.356694447331773,36.9196089556628,25900,2017-11-13 12:27:42,1734.238776195643,57.8000018496,0.35999970196000003,0.63114002019648,1734.238776195643,57.8000018496,1.4399988078400001,1.10133003524256,1684,-22.3,99,GPS_Atti,
0.356694492429086,36.9196090570301,26000,2017-11-13 12:27:42,1734.7387762116427,58.30000186560001,0.35999970196000003,0.63004502016144,1734.7387762116427,58.30000186560001,1.4399988078400001,1.10133003524256,1684,-22.3,99,GPS_Atti,
0.356694565365465,36.9196091810512,26100,2017-11-13 12:27:42,1735.2387762276428,58.8000018816,0.0,0.6271860200699519,1735.2387762276428,58.8000018816,1.4399988078400001,1.10133003524256,1684,-22.3,99,GPS_Atti,
0.356694598616663,36.9196092884656,26200,2017-11-13 12:27:42,1735.7387762436429,59.3000018976,0.0,0.628114020099648,1735.7387762436429,59.3000018976,1.4399988078400001,1.10133003524256,1684,-22.3,99,GPS_Atti,
0.356694614792811,36.9196093712858,26300,2017-11-13 12:27:42,1736.2387762596427,59.800001913600006,0.0,0.6299670201589441,1736.2387762596427,59.800001913600006,1.4399988078400001,1.10133003524256,1684,-22.3,99,GPS_Atti,
0.356694593916159,36.9196094286053,26400,2017-11-13 12:27:42,1736.7387762756427,60.30000192960001,0.0,0.634602020307264,1736.7387762756427,60.30000192960001,1.4399988078400001,1.10133003524256,1684,-22.3,99,GPS_Atti,
0.35669457054066,36.9196094471558,26500,2017-11-13 12:27:42,1737.2387762916428,60.80000194560001,0.0,0.637807020409824,1737.2387762916428,60.80000194560001,1.4399988078400001,1.10133003524256,1684,-22.3,99,GPS_Atti,
0.356694536440228,36.9196094710904,26600,2017-11-13 12:27:42,1737.7387763076429,61.3000019616,0.0,0.642344020555008,1737.7387763076429,61.3000019616,1.4399988078400001,1.10133003524256,1684,-22.3,99,GPS_Atti,
0.356694523958205,36.9196094823676,26700,2017-11-13 12:27:42,1738.338776326843,61.900001980800006,0.0,0.644117020611744,1738.338776326843,61.900001980800006,1.4399988078400001,1.10133003524256,1684,-22.3,99,GPS_Atti,
0.356694478080052,36.9196094856861,26800,2017-11-13 12:27:42,1738.838776342843,62.4000019968,0.0,0.64894502076624,1738.838776342843,62.4000019968,1.4399988078400001,1.10133003524256,1684,-22.3,99,GPS_Atti,
0.356694488519192,36.9196094968474,26900,2017-11-13 12:27:43,1739.3387763588428,62.9000020128,0.0,0.648374020747968,1739.3387763588428,62.9000020128,1.4399988078400001,1.10133003524256,1684,-22.3,99,GPS_Atti,
0.356694445126045,36.9196095439659,27100,2017-11-13 12:27:43,1740.338776390843,63.900002044800004,0.0,0.654896020956672,1740.338776390843,63.900002044800004,1.4399988078400001,1.10133003524256,1684,-22.3,99,GPS_Atti,
0.356694393300001,36.9196095717304,27200,2017-11-13 12:27:43,1740.7387764036428,64.3000020576,0.0,0.66141502116528,1740.7387764036428,64.3000020576,1.4399988078400001,1.10133003524256,1684,-22.3,99,GPS_Atti,
0.356694350314779,36.9196095479101,27300,2017-11-13 12:27:43,1741.2387764196428,64.8000020736,0.0,0.664733021271456,1741.2387764196428,64.8000020736,1.4399988078400001,1.10133003524256,1684,-22.3,99,GPS_Atti,
0.356694291056516,36.9196095232892,27400,2017-11-13 12:27:43,1741.7387764356426,65.3000020896,0.0,0.66971002143072,1741.7387764356426,65.3000020896,1.4399988078400001,1.10133003524256,1684,-22.3,99,GPS_Atti,
0.356694250648307,36.9196094884706,27500,2017-11-13 12:27:43,1742.238776451643,65.8000021056,0.0,0.672354021515328,1742.238776451643,65.8000021056,1.4399988078400001,1.10133003524256,1684,-22.3,99,GPS_Atti,
0.356694195452197,36.919609459688,27600,2017-11-13 12:27:43,1742.7387764676428,66.3000021216,0.0,0.6768170216581441,1742.7387764676428,66.3000021216,1.4399988078400001,1.10133003524256,1684,-22.3,99,GPS_Atti,
0.356694162706631,36.9196094387017,27700,2017-11-13 12:27:43,1743.2387764836428,66.8000021376,0.0,0.679323021738336,1743.2387764836428,66.8000021376,1.4399988078400001,1.10133003524256,1684,-22.3,99,GPS_Atti,
0.356694121555851,36.9196094213257,27800,2017-11-13 12:27:43,1743.7387764996429,67.3000021536,0.0,0.682863021851616,1743.7387764996429,67.3000021536,1.4399988078400001,1.10133003524256,1684,-22.3,99,GPS_Atti,
0.356694144242519,36.9196094257528,27900,2017-11-13 12:27:44,1744.238776515643,67.8000021696,0.0,0.680698021782336,1744.238776515643,67.8000021696,1.4399988078400001,1.10133003524256,1684,-22.3,99,GPS_Atti,
0.356694138195292,36.9196094312782,28000,2017-11-13 12:27:44,1744.7387765316428,68.3000021856,0.0,0.6815490218095681,1744.7387765316428,68.3000021856,1.4399988078400001,1.10133003524256,1684,-22.3,99,GPS_Atti,
0.356694175590066,36.9196094037307,28100,2017-11-13 12:27:44,1745.2387765476428,68.8000022016,0.0,0.67655502164976,1745.2387765476428,68.8000022016,1.4399988078400001,1.10133003524256,1684,-22.3,99,GPS_Atti,
0.356694181304276,36.9196093753714,28200,2017-11-13 12:27:44,1745.738776563643,69.30000221760001,0.0,0.674812021593984,1745.738776563643,69.30000221760001,1.4399988078400001,1.10133003524256,1684,-22.3,99,GPS_Atti,
0.356694184040876,36.919609344081,28300,2017-11-13 12:27:44,1746.2387765796427,69.80000223360001,0.0,0.6732710215446721,1746.2387765796427,69.80000223360001,1.4399988078400001,1.10133003524256,1684,-22.3,99,GPS_Atti,
0.356694144196108,36.9196093192006,28400,2017-11-13 12:27:44,1746.838776598843,70.40000225280001,0.0,0.676426021645632,1746.838776598843,70.40000225280001,1.4399988078400001,1.10133003524256,1684,-22.3,99,GPS_Atti,
0.356694086643641,36.9196092716008,28500,2017-11-13 12:27:44,1747.3387766148428,70.90000226880001,0.0,0.680582021778624,1747.3387766148428,70.90000226880001,1.4399988078400001,1.10133003524256,1684,-22.3,99,GPS_Atti,
0.356694005810123,36.9196092365841,28600,2017-11-13 12:27:44,1747.8387766308426,71.40000228480001,0.0,0.6877210220070721,1747.8387766308426,71.40000228480001,1.4399988078400001,1.10133003524256,1684,-22.3,99,GPS_Atti,
0.356693971185333,36.9196091833643,28700,2017-11-13 12:27:44,1748.338776646843,71.9000023008,0.0,0.6894070220610241,1748.338776646843,71.9000023008,1.4399988078400001,1.10133003524256,1684,-22.3,99,GPS_Atti,
0.356693909283291,36.9196091422667,28800,2017-11-13 12:27:44,1748.8387766628427,72.4000023168,0.0,0.6944650222228801,1748.8387766628427,72.4000023168,1.4399988078400001,1.10133003524256,1684,-22.3,99,GPS_Atti,
0.356693873323176,36.9196090905673,28900,2017-11-13 12:27:45,1749.3387766788428,72.9000023328,0.0,0.696476022287232,1749.3387766788428,72.9000023328,1.4399988078400001,1.10133003524256,1684,-22.3,99,GPS_Atti,
0.356693826138197,36.9196090539533,29000,2017-11-13 12:27:45,1749.8387766948429,73.4000023488,0.0,0.700244022407808,1749.8387766948429,73.4000023488,1.4399988078400001,1.10133003524256,1684,-22.3,99,GPS_Atti,
0.356693812515449,36.9196090392353,29100,2017-11-13 12:27:45,1750.338776710843,73.9000023648,0.0,0.7012030224384961,1750.338776710843,73.9000023648,1.4399988078400001,1.10133003524256,1684,-22.3,99,GPS_Atti,
0.35669376782199,36.9196090403227,29200,2017-11-13 12:27:45,1750.8387767268428,74.4000023808,0.0,0.705987022591584,1750.8387767268428,74.4000023808,1.4399988078400001,1.10133003524256,1684,-22.3,99,GPS_Atti,
0.35669376496407,36.9196090299707,29300,2017-11-13 12:27:45,1751.3387767428426,74.9000023968,0.0,0.7059530225904961,1751.3387767428426,74.9000023968,1.4399988078400001,1.10133003524256,1684,-22.3,99,GPS_Atti,
0.356693736646243,36.919609031464,29400,2017-11-13 12:27:45,1751.8387767588429,75.4000024128,0.0,0.709013022688416,1751.8387767588429,75.4000024128,1.4399988078400001,1.10133003524256,1684,-22.3,99,GPS_Atti,
0.356693725280519,36.9196090043759,29500,2017-11-13 12:27:45,1752.3387767748427,75.90000242880001,0.0,0.7093500226992,1752.3387767748427,75.90000242880001,1.4399988078400001,1.10133003524256,1684,-22.3,99,GPS_Atti,
0.356693695865935,36.9196089915434,29600,2017-11-13 12:27:45,1752.8387767908428,76.4000024448,0.0,0.712076022786432,1752.8387767908428,76.4000024448,1.4399988078400001,1.10133003524256,1684,-22.3,99,GPS_Atti,
0.356693713436031,36.9196089781478,29700,2017-11-13 12:27:45,1753.2387768036426,76.8000024576,0.0,0.7097800227129601,1753.2387768036426,76.8000024576,1.4399988078400001,1.10133003524256,1684,-22.3,99,GPS_Atti,
0.356693699750588,36.9196089885539,29800,2017-11-13 12:27:45,1753.738776819643,77.3000024736,0.0,0.711567022770144,1753.738776819643,77.3000024736,1.4399988078400001,1.10133003524256,1684,-22.3,99,GPS_Atti,
0.356693678525449,36.9196089944515,29900,2017-11-13 12:27:46,1754.2387768356427,77.8000024896,0.0,0.714017022848544,1754.2387768356427,77.8000024896,1.4399988078400001,1.10133003524256,1684,-22.3,99,GPS_Atti,
0.356693612859259,36.9196090110384,30000,2017-11-13 12:27:46,1754.7387768516428,78.3000025056,0.0,0.7215430230893761,1754.7387768516428,78.3000025056,1.4399988078400001,1.10133003524256,1684,-22.3,99,GPS_Atti,
0.356693569395274,36.9196090104832,30100,2017-11-13 12:27:46,1755.3387768708428,78.9000025248,0.35999970196000003,0.726161023237152,1755.3387768708428,78.9000025248,1.4399988078400001,1.10133003524256,1684,-22.3,99,GPS_Atti,
0.356693479938332,36.9196090229512,30200,2017-11-13 12:27:46,1755.8387768868427,79.4000025408,0.35999970196000003,0.7360990235551681,1755.8387768868427,79.4000025408,1.4399988078400001,1.10133003524256,1684,-22.3,99,GPS_Atti,
