latitude,longitude,time_millisecond,datetime_utc,altitude_m,ascent_m,speed_kph,distance_m,max_altitude_m,max_ascent_m,max_speed_kph,max_distance_m,rc_throttle,gimbal_pitch_degrees,battery_percent,flycState,message
0.356698197484656,36.8968498357407,0,2017-11-14 07:28:37,1770.5206865566554,0.0,0.0,0.0,1770.5206865566554,0.0,0.0,0.0,1024,-89.9,99,GPS_Atti,
0.35669817820306504,36.8968498645938,100,2017-11-14 07:28:37,1770.5206865566554,0.0,0.0,0.0038591101234915206,1770.5206865566554,0.0,0.0,0.0038591101234915206,1024,-89.9,99,Motors_Started,
0.35669815887394396,36.8968498804536,200,2017-11-14 07:28:37,1770.5206865566554,0.0,0.0,0.00656959021022688,1770.5206865566554,0.0,0.0,0.00656959021022688,1024,-90.0,99,Motors_Started,
0.35669812721963795,36.8968498959403,300,2017-11-14 07:28:37,1770.5206865566554,0.0,0.0,0.0102894003292608,1770.5206865566554,0.0,0.0,0.0102894003292608,1024,-89.9,99,Motors_Started,
0.356698121243554,36.8968498975521,400,2017-11-14 07:28:38,1770.5206865566554,0.0,0.0,0.0109148003492736,1770.5206865566554,0.0,0.0,0.0109148003492736,1024,-89.9,99,Motors_Started,
0.35669811041501204,36.896849903516895,500,2017-11-14 07:28:38,1770.5206865566554,0.0,0.0,0.012270300392649602,1770.5206865566554,0.0,0.0,0.012270300392649602,1024,-90.0,99,Motors_Started,Setting new Return-To-Home altitude to 30m (98 ft). Setting new Maximum Flight Altitude to 120m (394 ft)
0.35669809538172603,36.896849924997895,600,2017-11-14 07:28:38,1770.5206865566554,0.0,0.0,0.015081300482601602,1770.5206865566554,0.0,0.0,0.015081300482601602,1024,-90.0,99,Motors_Started,
0.35669806850201896,36.8968499556395,700,2017-11-14 07:28:38,1770.5206865566554,0.0,0.0,0.019583500626672,1770.5206865566554,0.0,0.0,0.019583500626672,1024,-90.0,99,Motors_Started,
0.356698062216632,36.8968499741544,800,2017-11-14 07:28:38,1770.5206865566554,0.0,0.0,0.0215221006887072,1770.5206865566554,0.0,0.0,0.0215221006887072,1024,-90.0,99,Motors_Started,
0.356698053041775,36.89684999157671,900,2017-11-14 07:28:38,1770.5206865566554,0.0,0.0,0.0236291007561312,1770.5206865566554,0.0,0.0,0.0236291007561312,1024,-90.0,99,Motors_Started,
0.356698062868112,36.8968499956466,1000,2017-11-14 07:28:38,1770.5206865566554,0.0,0.0,0.023244600743827202,1770.5206865566554,0.0,0.0,0.0236291007561312,1024,-90.0,99,Motors_Started,
0.35669806412252203,36.896850003648794,1100,2017-11-14 07:28:38,1770.5206865566554,0.0,0.0,0.0238452007630464,1770.5206865566554,0.0,0.0,0.0238452007630464,836,-90.0,99,Motors_Started,
0.356698052408209,36.8968499982048,1200,2017-11-14 07:28:38,1770.5206865566554,0.0,0.0,0.0242217007750944,1770.5206865566554,0.0,0.0,0.0242217007750944,1019,-90.0,99,Motors_Started,
0.356698029204103,36.8968499991919,1300,2017-11-14 07:28:38,1770.5206865566554,0.0,0.0,0.026088100834819203,1770.5206865566554,0.0,0.0,0.026088100834819203,1024,-90.0,99,Motors_Started,
0.35669799236758,36.8968499891711,1400,2017-11-14 07:28:38,1770.5206865566554,0.0,0.0,0.028485500911536,1770.5206865566554,0.0,0.0,0.028485500911536,1024,-90.0,99,Motors_Started,
0.356697952733391,36.896849986148794,1500,2017-11-14 07:28:39,1770.5206865566554,0.0,0.0,0.031946301022281604,1770.5206865566554,0.0,0.0,0.031946301022281604,1024,-89.9,99,Motors_Started,
0.356697897230218,36.896850001188504,1600,2017-11-14 07:28:39,1770.5206865566554,0.0,0.0,0.03812350121995201,1770.5206865566554,0.0,0.0,0.03812350121995201,1024,-90.0,99,Assisted_Takeoff,
0.35669784768918605,36.896850026880706,1700,2017-11-14 07:28:39,1770.5206865566554,0.0,0.0,0.0443279014184928,1770.5206865566554,0.0,0.0,0.0443279014184928,1024,-89.9,99,Assisted_Takeoff,
0.35669778506452204,36.8968500442361,1800,2017-11-14 07:28:39,1770.5206865566554,0.0,0.0,0.05139110164451519,1770.5206865566554,0.0,0.0,0.05139110164451519,1024,-89.9,99,Assisted_Takeoff,
0.356697730023726,36.8968500593203,1900,2017-11-14 07:28:39,1770.5206865566554,0.0,0.0,0.057624301843977606,1770.5206865566554,0.0,0.0,0.057624301843977606,1024,-90.0,99,Assisted_Takeoff,
0.356697666956329,36.8968500649581,2000,2017-11-14 07:28:39,1770.5206865566554,0.0,0.0,0.0642689020566048,1770.5206865566554,0.0,0.0,0.0642689020566048,1024,-90.0,99,Assisted_Takeoff,
0.35669760994491206,36.896850072523996,2100,2017-11-14 07:28:39,1770.5206865566554,0.0,0.0,0.0704442022542144,1770.5206865566554,0.0,0.0,0.0704442022542144,1024,-90.0,99,Assisted_Takeoff,
0.35669754807564297,36.896850070650395,2200,2017-11-14 07:28:39,1770.5206865566554,0.0,0.0,0.0767977024575264,1770.5206865566554,0.0,0.0,0.0767977024575264,1024,-89.9,99,Assisted_Takeoff,
0.35669749098626397,36.896850073775,2300,2017-11-14 07:28:39,1770.5206865566554,0.0,0.0,0.0829062026529984,1770.5206865566554,0.0,0.0,0.0829062026529984,1025,-90.0,99,Assisted_Takeoff,
0.35669743059114295,36.8968500675998,2400,2017-11-14 07:28:40,1770.5206865566554,0.0,0.0,0.0890956028510592,1770.5206865566554,0.0,0.0,0.0890956028510592,1064,-90.0,99,Assisted_Takeoff,
0.35669737501967796,36.896850067230396,2500,2017-11-14 07:28:40,1770.5206865566554,0.0,0.0,0.09501670304053439,1770.5206865566554,0.0,0.0,0.09501670304053439,1094,-89.9,99,Assisted_Takeoff,
0.356697317937423,36.896850059121206,2600,2017-11-14 07:28:40,1770.5206865566554,0.0,0.0,0.100916003229312,1770.5206865566554,0.0,0.0,0.100916003229312,1139,-89.9,99,Assisted_Takeoff,
0.356697263492841,36.8968500569002,2700,2017-11-14 07:28:40,1770.5206865566554,0.0,0.0,0.10673800341561601,1770.5206865566554,0.0,0.0,0.10673800341561601,1159,-89.9,99,Assisted_Takeoff,
0.3566972085236961,36.896850048423794,2800,2017-11-14 07:28:40,1770.5206865566554,0.0,0.0,0.112493003599776,1770.5206865566554,0.0,0.0,0.112493003599776,1159,-90.0,99,Assisted_Takeoff,
0.356697102044221,36.896850038308294,3000,2017-11-14 07:28:40,1770.5206865566554,0.0,0.0,0.12388500396432002,1770.5206865566554,0.0,0.0,0.12388500396432002,1177,-90.0,99,Assisted_Takeoff,
0.35669705001034707,36.896850035393,3100,2017-11-14 07:28:40,1770.5206865566554,0.0,0.0,0.129523004144736,1770.5206865566554,0.0,0.0,0.129523004144736,1177,-89.9,99,Assisted_Takeoff,
0.35669702464305697,36.896850057125604,3200,2017-11-14 07:28:40,1770.5206865566554,0.0,0.0,0.13273000424736,1770.5206865566554,0.0,0.0,0.13273000424736,1271,-89.9,99,Assisted_Takeoff,
0.35669700129218695,36.8968500870033,3300,2017-11-14 07:28:40,1770.5206865566554,0.0,0.0,0.135927004349664,1770.5206865566554,0.0,0.0,0.135927004349664,1288,-89.9,99,Assisted_Takeoff,
0.35669697446479404,36.8968501146059,3400,2017-11-14 07:28:41,1770.5206865566554,0.0,0.0,0.13949800446393598,1770.5206865566554,0.0,0.0,0.13949800446393598,1291,-89.9,99,Assisted_Takeoff,
0.356696924818422,36.8968501612738,3500,2017-11-14 07:28:41,1770.5206865566554,0.0,0.0,0.14608500467472002,1770.5206865566554,0.0,0.0,0.14608500467472002,1296,-89.9,99,Assisted_Takeoff,
0.356696819069101,36.8968502290099,3600,2017-11-14 07:28:41,1770.5206865566554,0.0,0.35999970196000003,0.15940500510096,1770.5206865566554,0.0,0.35999970196000003,0.15940500510096,1296,-90.0,99,GPS_Atti,Home Point Recorded. RTH Altitude:  30m.
0.35669665097683706,36.896850302888495,3700,2017-11-14 07:28:41,1770.5206865566554,0.0,0.35999970196000003,0.179656005748992,1770.5206865566554,0.0,0.35999970196000003,0.179656005748992,1301,-90.0,99,GPS_Atti,
0.35669645730314203,36.8968503727722,3800,2017-11-14 07:28:41,1770.5206865566554,0.0,0.35999970196000003,0.20252400648076802,1770.5206865566554,0.0,0.35999970196000003,0.20252400648076802,1349,-90.0,99,GPS_Atti,
0.35669622950173996,36.89685039717379,3900,2017-11-14 07:28:41,1770.6206865598554,0.10000000320000002,0.35999970196000003,0.227583007282656,1770.6206865598554,0.10000000320000002,0.35999970196000003,0.227583007282656,1349,-90.0,99,GPS_Atti,
0.3566959314016321,36.8968503280861,4000,2017-11-14 07:28:41,1770.7206865630556,0.20000000640000004,0.5075995797636,0.257881008252192,1770.7206865630556,0.20000000640000004,0.5075995797636,0.257881008252192,1389,-90.0,99,GPS_Atti,
0.35669563956004097,36.8968501927054,4100,2017-11-14 07:28:41,1770.8206865662553,0.3000000096,0.5075995797636,0.28721300919081605,1770.8206865662553,0.3000000096,0.5075995797636,0.28721300919081605,1400,-90.0,99,GPS_Atti,
0.35669537885511293,36.8968500104636,4200,2017-11-14 07:28:41,1770.9206865694553,0.4000000128000001,0.5075995797636,0.31405001004960004,1770.9206865694553,0.4000000128000001,0.5075995797636,0.31405001004960004,1414,-90.0,99,GPS_Atti,
0.3566951503945979,36.8968498383631,4300,2017-11-14 07:28:41,1771.1206865758554,0.6000000192,0.5075995797636,0.33885501084336,1771.1206865758554,0.6000000192,0.5075995797636,0.33885501084336,1437,-90.0,99,GPS_Atti,
0.356694973053383,36.896849664616,4400,2017-11-14 07:28:42,1771.2206865790554,0.7000000224000001,0.35999970196000003,0.35908101149059196,1771.2206865790554,0.7000000224000001,0.5075995797636,0.35908101149059196,1457,-90.0,99,GPS_Atti,
0.35669480624657196,36.896849535419605,4500,2017-11-14 07:28:42,1771.4206865854553,0.9000000288000001,0.35999970196000003,0.37860201211526395,1771.4206865854553,0.9000000288000001,0.5075995797636,0.37860201211526395,1497,-90.0,99,GPS_Atti,
0.35669462417269104,36.8968494747302,4600,2017-11-14 07:28:42,1771.7206865950552,1.2000000384,0.35999970196000003,0.399397012780704,1771.7206865950552,1.2000000384,0.5075995797636,0.399397012780704,1551,-90.0,99,GPS_Atti,
0.35669444080175505,36.8968494742827,4700,2017-11-14 07:28:42,1771.9206866014554,1.4000000448000003,0.35999970196000003,0.41969501343023996,1771.9206866014554,1.4000000448000003,0.5075995797636,0.41969501343023996,1551,-90.0,99,GPS_Atti,
0.35669429699508703,36.8968494366983,4800,2017-11-14 07:28:42,1772.2206866110553,1.7000000544000002,0.35999970196000003,0.436022013952704,1772.2206866110553,1.7000000544000002,0.5075995797636,0.436022013952704,1677,-90.0,99,GPS_Atti,
0.35669413804022604,36.8968493429526,4900,2017-11-14 07:28:42,1772.6206866238551,2.1000000672,0.35999970196000003,0.4547490145519681,1772.6206866238551,2.1000000672,0.5075995797636,0.4547490145519681,1684,-90.0,99,GPS_Atti,
0.35669397139463105,36.8968491944893,5000,2017-11-14 07:28:42,1772.9206866334553,2.4000000768,0.35999970196000003,0.47534601521107206,1772.9206866334553,2.4000000768,0.5075995797636,0.47534601521107206,1684,-90.0,99,GPS_Atti,
0.3566937986965171,36.89684904694229,5100,2017-11-14 07:28:42,1773.3206866462554,2.8000000896000006,0.35999970196000003,0.4969740159031681,1773.3206866462554,2.8000000896000006,0.5075995797636,0.4969740159031681,1684,-90.0,99,GPS_Atti,
0.356693680286247,36.896848882571,5200,2017-11-14 07:28:42,1773.8206866622554,3.3000001056,0.0,0.513401016428832,1773.8206866622554,3.3000001056,0.5075995797636,0.513401016428832,1684,-90.0,99,GPS_Atti,
0.3566936229845589,36.89684874681829,5300,2017-11-14 07:28:42,1774.2206866750555,3.7000001184,0.0,0.522926016733632,1774.2206866750555,3.7000001184,0.5075995797636,0.522926016733632,1684,-90.0,99,GPS_Atti,
0.35669364652412494,36.8968486069668,5400,2017-11-14 07:28:43,1774.7206866910553,4.2000001344,0.0,0.524217016774944,1774.7206866910553,4.2000001344,0.5075995797636,0.524217016774944,1684,-89.9,99,GPS_Atti,
0.35669366868969,36.896848467924706,5500,2017-11-14 07:28:43,1775.2206867070552,4.700000150400001,0.0,0.526098016835136,1775.2206867070552,4.700000150400001,0.5075995797636,0.526098016835136,1684,-90.0,99,GPS_Atti,
0.35669370772349296,36.8968483074134,5600,2017-11-14 07:28:43,1775.7206867230555,5.200000166400001,0.0,0.527422016877504,1775.7206867230555,5.200000166400001,0.5075995797636,0.527422016877504,1684,-90.0,99,GPS_Atti,
0.356693745767608,36.8968481602015,5700,2017-11-14 07:28:43,1776.2206867390553,5.7000001824,0.0,0.5289610169267521,1776.2206867390553,5.7000001824,0.5075995797636,0.5289610169267521,1684,-90.0,99,GPS_Atti,
0.356693790991127,36.89684800524871,5800,2017-11-14 07:28:43,1776.7206867550553,6.2000001984,0.0,0.5306260169800321,1776.7206867550553,6.2000001984,0.5075995797636,0.5306260169800321,1684,-90.0,99,GPS_Atti,
0.356693814662596,36.896847847002,5900,2017-11-14 07:28:43,1777.2206867710552,6.7000002144,0.0,0.535224017127168,1777.2206867710552,6.7000002144,0.5075995797636,0.535224017127168,1684,-90.0,99,GPS_Atti,
0.356693805703711,36.896847692461705,6000,2017-11-14 07:28:43,1777.7206867870555,7.200000230400001,0.0,0.5434460173902721,1777.7206867870555,7.200000230400001,0.5075995797636,0.5434460173902721,1684,-90.0,99,GPS_Atti,
0.35669377058428103,36.896847556897704,6100,2017-11-14 07:28:43,1778.2206868030553,7.7000002464,0.0,0.5536940177182079,1778.2206868030553,7.7000002464,0.5075995797636,0.5536940177182079,1684,-90.0,99,GPS_Atti,
0.356693715760678,36.896847435744704,6200,2017-11-14 07:28:43,1778.6206868158554,8.1000002592,0.0,0.565356018091392,1778.6206868158554,8.1000002592,0.5075995797636,0.565356018091392,1684,-90.0,99,GPS_Atti,
0.35669366095743105,36.8968473216041,6300,2017-11-14 07:28:43,1779.1206868318552,8.6000002752,0.0,0.5767800184569601,1779.1206868318552,8.6000002752,0.5075995797636,0.5767800184569601,1684,-90.0,99,GPS_Atti,
0.35669360860092103,36.89684721207939,6400,2017-11-14 07:28:44,1779.6206868478555,9.1000002912,0.0,0.587829018810528,1779.6206868478555,9.1000002912,0.5075995797636,0.587829018810528,1684,-90.0,99,GPS_Atti,
0.35669357857566997,36.896847107465,6500,2017-11-14 07:28:44,1780.1206868638553,9.6000003072,0.0,0.5965620190899841,1780.1206868638553,9.6000003072,0.5075995797636,0.5965620190899841,1684,-90.0,99,GPS_Atti,
0.35669358177882,36.8968470199148,6600,2017-11-14 07:28:44,1780.5206868766552,10.00000032,0.0,0.601267019240544,1780.5206868766552,10.00000032,0.5075995797636,0.601267019240544,1684,-90.0,99,GPS_Atti,
0.356693606639867,36.896846940673,6700,2017-11-14 07:28:44,1781.0206868926552,10.500000336,0.0,0.603563019314016,1781.0206868926552,10.500000336,0.5075995797636,0.603563019314016,1684,-90.0,99,GPS_Atti,
0.356693617125011,36.896846826226,6800,2017-11-14 07:28:44,1781.5206869086553,11.000000352000002,0.0,0.609471019503072,1781.5206869086553,11.000000352000002,0.5075995797636,0.609471019503072,1684,-90.0,99,GPS_Atti,
0.356693610385695,36.8968466914874,6900,2017-11-14 07:28:44,1781.9206869214554,11.4000003648,0.35999970196000003,0.6184440197902079,1781.9206869214554,11.4000003648,0.5075995797636,0.6184440197902079,1684,-90.0,99,GPS_Atti,
0.356693590005719,36.8968465544933,7000,2017-11-14 07:28:44,1782.4206869374552,11.900000380800002,0.0,0.629028020128896,1782.4206869374552,11.900000380800002,0.5075995797636,0.629028020128896,1684,-90.0,99,GPS_Atti,
0.35669357642042493,36.8968464443287,7100,2017-11-14 07:28:44,1782.9206869534553,12.4000003968,0.0,0.6374300203977601,1782.9206869534553,12.4000003968,0.5075995797636,0.6374300203977601,1684,-90.0,99,GPS_Atti,
0.35669355174949796,36.8968463363486,7200,2017-11-14 07:28:44,1783.3206869662552,12.800000409600003,0.0,0.6467960206974721,1783.3206869662552,12.800000409600003,0.5075995797636,0.6467960206974721,1684,-90.0,99,GPS_Atti,
0.35669351484977097,36.896846231317205,7300,2017-11-14 07:28:44,1783.8206869822554,13.3000004256,0.0,0.657137021028384,1783.8206869822554,13.3000004256,0.5075995797636,0.657137021028384,1684,-90.0,99,GPS_Atti,
0.356693466246418,36.8968461154783,7400,2017-11-14 07:28:45,1784.3206869982553,13.8000004416,0.0,0.6693130214180161,1784.3206869982553,13.8000004416,0.5075995797636,0.6693130214180161,1684,-90.0,99,GPS_Atti,
0.356693427539932,36.8968460114666,7500,2017-11-14 07:28:45,1784.8206870142553,14.300000457600001,0.0,0.679877021756064,1784.8206870142553,14.300000457600001,0.5075995797636,0.679877021756064,1684,-90.0,99,GPS_Atti,
0.356693371438815,36.896845871788,7600,2017-11-14 07:28:45,1785.3206870302554,14.8000004736,0.0,0.6945090222242879,1785.3206870302554,14.8000004736,0.5075995797636,0.6945090222242879,1684,-90.0,99,GPS_Atti,
0.3566933367277171,36.896845723401206,7700,2017-11-14 07:28:45,1785.8206870462554,15.3000004896,0.35999970196000003,0.70804002265728,1785.8206870462554,15.3000004896,0.5075995797636,0.70804002265728,1684,-90.0,99,GPS_Atti,
0.356693301375826,36.8968455602576,7800,2017-11-14 07:28:45,1786.3206870622553,15.8000005056,0.35999970196000003,0.722848023131136,1786.3206870622553,15.8000005056,0.5075995797636,0.722848023131136,1684,-90.0,99,GPS_Atti,
0.3566931347229029,36.896845227069704,8000,2017-11-14 07:28:45,1787.3206870942554,16.8000005376,0.35999970196000003,0.7613400243628801,1787.3206870942554,16.8000005376,0.5075995797636,0.7613400243628801,1684,-90.0,99,GPS_Atti,
0.356693058714059,36.896845087120106,8100,2017-11-14 07:28:45,1787.8206871102552,17.3000005536,0.35999970196000003,0.7780890248988479,1787.8206871102552,17.3000005536,0.5075995797636,0.7780890248988479,1684,-90.0,99,GPS_Atti,
0.356693014724901,36.896844991260096,8200,2017-11-14 07:28:45,1788.3206871262553,17.8000005696,0.0,0.788929025245728,1788.3206871262553,17.8000005696,0.5075995797636,0.788929025245728,1684,-90.0,99,GPS_Atti,
0.35669298450871506,36.896844922636,8300,2017-11-14 07:28:45,1788.9206871454553,18.4000005888,0.0,0.796602025491264,1788.9206871454553,18.4000005888,0.5075995797636,0.796602025491264,1684,-90.0,99,GPS_Atti,
0.356692964796808,36.8968448213034,8400,2017-11-14 07:28:46,1789.4206871614551,18.900000604800002,0.0,0.805954025790528,1789.4206871614551,18.900000604800002,0.5075995797636,0.805954025790528,1684,-90.0,99,GPS_Atti,
0.35669290862322495,36.896844712675794,8500,2017-11-14 07:28:46,1790.0206871806554,19.500000624000002,0.35999970196000003,0.8188340262026881,1790.0206871806554,19.500000624000002,0.5075995797636,0.8188340262026881,1684,-90.0,99,GPS_Atti,
0.35669280350757204,36.8968445951415,8600,2017-11-14 07:28:46,1790.5206871966552,20.00000064,0.35999970196000003,0.8363250267624001,1790.5206871966552,20.00000064,0.5075995797636,0.8363250267624001,1684,-90.0,99,GPS_Atti,
0.356692694870816,36.8968444855302,8700,2017-11-14 07:28:46,1791.1206872158555,20.600000659200003,0.35999970196000003,0.8534830273114562,1791.1206872158555,20.600000659200003,0.5075995797636,0.8534830273114562,1684,-90.0,99,GPS_Atti,
0.35669257761552103,36.8968443933676,8800,2017-11-14 07:28:46,1791.6206872318553,21.1000006752,0.0,0.8699790278393281,1791.6206872318553,21.1000006752,0.5075995797636,0.8699790278393281,1684,-90.0,99,GPS_Atti,
0.35669247530038395,36.8968443349329,8900,2017-11-14 07:28:46,1792.2206872510553,21.700000694400003,0.0,0.8826790282457281,1792.2206872510553,21.700000694400003,0.5075995797636,0.8826790282457281,1684,-90.0,99,GPS_Atti,
0.356692361466449,36.896844295959895,9000,2017-11-14 07:28:46,1792.8206872702553,22.3000007136,0.0,0.894826028634432,1792.8206872702553,22.3000007136,0.5075995797636,0.894826028634432,1684,-90.0,99,GPS_Atti,
0.356692260637268,36.89684429021771,9100,2017-11-14 07:28:46,1793.3206872862554,22.8000007296,0.0,0.903427028909664,1793.3206872862554,22.8000007296,0.5075995797636,0.903427028909664,1684,-90.0,99,GPS_Atti,
0.35669217022361505,36.8968442993376,9200,2017-11-14 07:28:46,1793.9206873054552,23.400000748800004,0.0,0.9101150291236801,1793.9206873054552,23.400000748800004,0.5075995797636,0.9101150291236801,1684,-90.0,99,GPS_Atti,
0.35669212740937895,36.8968443285359,9300,2017-11-14 07:28:46,1794.5206873246555,24.000000768000003,0.0,0.9114420291661441,1794.5206873246555,24.000000768000003,0.5075995797636,0.9114420291661441,1684,-90.0,99,GPS_Atti,
0.35669208567236,36.8968443780815,9400,2017-11-14 07:28:47,1795.0206873406553,24.500000784000004,0.0,0.9112060291585921,1795.0206873406553,24.500000784000004,0.5075995797636,0.9114420291661441,1684,-90.0,99,GPS_Atti,
0.356692058349512,36.896844450767205,9500,2017-11-14 07:28:47,1795.6206873598555,25.100000803199997,0.0,0.9081240290599681,1795.6206873598555,25.100000803199997,0.5075995797636,0.9114420291661441,1684,-90.0,99,GPS_Atti,
0.35669204477154604,36.8968445621973,9600,2017-11-14 07:28:47,1796.2206873790553,25.7000008224,0.0,0.9011470288367041,1796.2206873790553,25.7000008224,0.5075995797636,0.9114420291661441,1684,-89.9,99,GPS_Atti,
0.35669207173369294,36.896844674008,9700,2017-11-14 07:28:47,1796.7206873950552,26.200000838399998,0.0,0.8908110285059521,1796.7206873950552,26.200000838399998,0.5075995797636,0.9114420291661441,1684,-89.9,99,GPS_Atti,
0.35669207935806796,36.8968447566051,9800,2017-11-14 07:28:47,1797.3206874142554,26.8000008576,0.0,0.8842670282965439,1797.3206874142554,26.8000008576,0.5075995797636,0.9114420291661441,1684,-89.9,99,GPS_Atti,
0.35669208844559996,36.896844809947794,9900,2017-11-14 07:28:47,1797.9206874334554,27.4000008768,0.0,0.8797100281507201,1797.9206874334554,27.4000008768,0.5075995797636,0.9114420291661441,1684,-89.9,99,GPS_Atti,
0.35669206311108204,36.896844820102295,10000,2017-11-14 07:28:47,1798.5206874526552,28.000000896,0.0,0.8811720281975041,1798.5206874526552,28.000000896,0.5075995797636,0.9114420291661441,1684,-89.9,99,GPS_Atti,
0.35669205859215,36.8968448110547,10100,2017-11-14 07:28:47,1799.0206874686553,28.500000912,0.0,0.8821980282303362,1799.0206874686553,28.500000912,0.5075995797636,0.9114420291661441,1684,-89.9,99,GPS_Atti,
0.356692047852562,36.8968448086899,10200,2017-11-14 07:28:47,1799.6206874878553,29.1000009312,0.0,0.8832890282652479,1799.6206874878553,29.1000009312,0.5075995797636,0.9114420291661441,1684,-89.9,99,GPS_Atti,
0.35669208263694,36.89684481508311,10300,2017-11-14 07:28:47,1800.2206875070553,29.7000009504,0.35999970196000003,0.8798460281550722,1800.2206875070553,29.7000009504,0.5075995797636,0.9114420291661441,1684,-89.9,99,GPS_Atti,
0.35669212674904494,36.8968448458054,10400,2017-11-14 07:28:48,1800.8206875262554,30.300000969600003,0.0,0.8738870279643841,1800.8206875262554,30.300000969600003,0.5075995797636,0.9114420291661441,1684,-89.9,99,GPS_Atti,
0.356692179473177,36.8968448996513,10500,2017-11-14 07:28:48,1801.4206875454554,30.900000988800006,0.0,0.865556027697792,1801.4206875454554,30.900000988800006,0.5075995797636,0.9114420291661441,1684,-89.9,99,GPS_Atti,
0.356692215425149,36.896844976601294,10600,2017-11-14 07:28:48,1801.9206875614552,31.400001004800004,0.0,0.8570470274255041,1801.9206875614552,31.400001004800004,0.5075995797636,0.9114420291661441,1684,-90.0,99,GPS_Atti,
0.356692253559236,36.8968450623618,10700,2017-11-14 07:28:48,1802.5206875806555,32.000001024,0.0,0.847756027128192,1802.5206875806555,32.000001024,0.5075995797636,0.9114420291661441,1684,-90.0,99,GPS_Atti,
0.356692321205614,36.896845108420294,10800,2017-11-14 07:28:48,1803.1206875998553,32.6000010432,0.35999970196000003,0.838684026837888,1803.1206875998553,32.6000010432,0.5075995797636,0.9114420291661441,1684,-89.9,99,GPS_Atti,
0.356692410537166,36.8968450997072,10900,2017-11-14 07:28:48,1803.620687615855,33.100001059200004,0.35999970196000003,0.8315800266105601,1803.620687615855,33.100001059200004,0.5075995797636,0.9114420291661441,1684,-89.9,99,GPS_Atti,
0.356692548897096,36.896845019348,11000,2017-11-14 07:28:48,1804.2206876350554,33.70000107840001,0.35999970196000003,0.8255000264160001,1804.2206876350554,33.70000107840001,0.5075995797636,0.9114420291661441,1684,-89.9,99,GPS_Atti,
0.3566926961564729,36.896844927261,11100,2017-11-14 07:28:48,1804.8206876542554,34.3000010976,0.35999970196000003,0.81989002623648,1804.8206876542554,34.3000010976,0.5075995797636,0.9114420291661441,1684,-89.9,99,GPS_Atti,
0.356692879851469,36.896844821882,11200,2017-11-14 07:28:48,1805.4206876734552,34.9000011168,0.35999970196000003,0.812756026008192,1805.4206876734552,34.9000011168,0.5075995797636,0.9114420291661441,1684,-89.9,99,GPS_Atti,
0.35669303788707396,36.896844744549206,11300,2017-11-14 07:28:48,1806.0206876926554,35.500001136,0.35999970196000003,0.806077025794464,1806.0206876926554,35.500001136,0.5075995797636,0.9114420291661441,1684,-90.0,99,GPS_Atti,
0.35669321304047497,36.8968446871189,11400,2017-11-14 07:28:49,1806.6206877118552,36.1000011552,0.35999970196000003,0.796906025500992,1806.6206877118552,36.1000011552,0.5075995797636,0.9114420291661441,1684,-90.0,99,GPS_Atti,
0.35669336149553604,36.896844656055,11500,2017-11-14 07:28:49,1807.2206877310555,36.7000011744,0.35999970196000003,0.788034025217088,1807.2206877310555,36.7000011744,0.5075995797636,0.9114420291661441,1684,-90.0,99,GPS_Atti,
0.356693521799156,36.8968446434395,11600,2017-11-14 07:28:49,1807.7206877470553,37.2000011904,0.0,0.7770190248646079,1807.7206877470553,37.2000011904,0.5075995797636,0.9114420291661441,1684,-90.0,99,GPS_Atti,
0.356693641143746,36.8968446611492,11700,2017-11-14 07:28:49,1808.3206877662553,37.800001209600005,0.0,0.766722024535104,1808.3206877662553,37.800001209600005,0.5075995797636,0.9114420291661441,1684,-90.0,99,GPS_Atti,
0.35669376367234995,36.8968447505383,11800,2017-11-14 07:28:49,1808.8206877822554,38.3000012256,0.0,0.7502660240085122,1808.8206877822554,38.3000012256,0.5075995797636,0.9114420291661441,1684,-90.0,99,GPS_Atti,
0.356693866359586,36.8968448814434,11900,2017-11-14 07:28:49,1809.4206878014554,38.9000012448,0.0,0.7317900234172802,1809.4206878014554,38.9000012448,0.5075995797636,0.9114420291661441,1684,-89.9,99,GPS_Atti,
0.356693960474692,36.896845018080505,12000,2017-11-14 07:28:49,1809.9206878174552,39.4000012608,0.35999970196000003,0.7134650228308801,1809.9206878174552,39.4000012608,0.5075995797636,0.9114420291661441,1684,-89.9,99,GPS_Atti,
0.356693999749912,36.896845177207396,12100,2017-11-14 07:28:49,1810.4206878334553,39.900001276800005,0.7199994039200001,0.6973440223150079,1810.4206878334553,39.900001276800005,0.7199994039200001,0.9114420291661441,1684,-90.0,99,GPS_Atti,
0.356694041319202,36.896845359957,12200,2017-11-14 07:28:49,1811.0206878526553,40.500001296,0.7199994039200001,0.6792280217352961,1811.0206878526553,40.500001296,0.7199994039200001,0.9114420291661441,1684,-90.0,99,GPS_Atti,
0.35669406830781103,36.896845551696,12300,2017-11-14 07:28:49,1811.5206878686554,41.000001311999995,0.7199994039200001,0.6616760211736321,1811.5206878686554,41.000001311999995,0.7199994039200001,0.9114420291661441,1684,-90.0,99,GPS_Atti,
0.35669411479378105,36.8968457190123,12400,2017-11-14 07:28:50,1812.0206878846552,41.500001328,0.35999970196000003,0.6447570206322241,1812.0206878846552,41.500001328,0.7199994039200001,0.9114420291661441,1684,-90.0,99,GPS_Atti,
0.35669415882772104,36.8968458636159,12500,2017-11-14 07:28:50,1812.6206879038552,42.1000013472,0.35999970196000003,0.62994002015808,1812.6206879038552,42.1000013472,0.7199994039200001,0.9114420291661441,1684,-89.9,99,GPS_Atti,
0.356694229712667,36.89684597766529,12600,2017-11-14 07:28:50,1813.1206879198553,42.60000136320001,0.35999970196000003,0.6154370196939841,1813.1206879198553,42.60000136320001,0.7199994039200001,0.9114420291661441,1684,-90.0,99,GPS_Atti,
0.35669427586561897,36.896846119099,12700,2017-11-14 07:28:50,1813.7206879390553,43.200001382399996,0.35999970196000003,0.6008420192269439,1813.7206879390553,43.200001382399996,0.7199994039200001,0.9114420291661441,1684,-90.0,99,GPS_Atti,
0.35669432071174606,36.8968462229534,12800,2017-11-14 07:28:50,1814.2206879550554,43.700001398400005,0.35999970196000003,0.5892990188575681,1814.2206879550554,43.700001398400005,0.7199994039200001,0.9114420291661441,1684,-90.0,99,GPS_Atti,
0.35669435215699896,36.8968463465329,12900,2017-11-14 07:28:50,1814.7206879710552,44.2000014144,0.35999970196000003,0.5774230184775361,1814.7206879710552,44.2000014144,0.7199994039200001,0.9114420291661441,1684,-90.0,99,GPS_Atti,
0.35669441487774106,36.8968464021269,13000,2017-11-14 07:28:50,1815.3206879902552,44.80000143360001,0.0,0.5681030181792961,1815.3206879902552,44.80000143360001,0.7199994039200001,0.9114420291661441,1684,-90.0,99,GPS_Atti,
0.356694472015363,36.89684640744721,13100,2017-11-14 07:28:50,1815.8206880062553,45.3000014496,0.0,0.563013018016416,1815.8206880062553,45.3000014496,0.7199994039200001,0.9114420291661441,1684,-90.0,99,GPS_Atti,
0.35669453375252397,36.8968463089301,13200,2017-11-14 07:28:50,1816.4206880254553,45.9000014688,0.0,0.565523018096736,1816.4206880254553,45.9000014688,0.7199994039200001,0.9114420291661441,1684,-90.0,99,GPS_Atti,
0.35669455649781606,36.8968462247558,13300,2017-11-14 07:28:50,1816.9206880414554,46.4000014848,0.0,0.57025501824816,1816.9206880414554,46.4000014848,0.7199994039200001,0.9114420291661441,1684,-90.0,99,GPS_Atti,
0.35669453540051,36.8968461242182,13400,2017-11-14 07:28:51,1817.5206880606554,47.000001504000004,0.0,0.5798280185544961,1817.5206880606554,47.000001504000004,0.7199994039200001,0.9114420291661441,1684,-90.0,99,GPS_Atti,
0.356694449016848,36.8968460678885,13500,2017-11-14 07:28:51,1818.0206880766552,47.500001520000005,0.0,0.5910390189132481,1818.0206880766552,47.500001520000005,0.7199994039200001,0.9114420291661441,1684,-90.0,99,GPS_Atti,
0.35669434644563897,36.8968460129316,13600,2017-11-14 07:28:51,1818.6206880958555,48.1000015392,0.35999970196000003,0.603428019309696,1818.6206880958555,48.1000015392,0.7199994039200001,0.9114420291661441,1684,-90.0,99,GPS_Atti,
0.356694233904281,36.896845984339,13700,2017-11-14 07:28:51,1819.1206881118553,48.6000015552,0.35999970196000003,0.61458501966672,1819.1206881118553,48.6000015552,0.7199994039200001,0.9114420291661441,1684,-90.0,99,GPS_Atti,
0.35669412916317106,36.8968459328942,13800,2017-11-14 07:28:51,1819.720688131055,49.200001574400005,0.35999970196000003,0.6269390200620479,1819.720688131055,49.200001574400005,0.7199994039200001,0.9114420291661441,1684,-90.0,99,GPS_Atti,
0.35669403760838503,36.8968459071384,13900,2017-11-14 07:28:51,1820.2206881470554,49.70000159040001,0.35999970196000003,0.636288020361216,1820.2206881470554,49.70000159040001,0.7199994039200001,0.9114420291661441,1684,-90.0,99,GPS_Atti,
0.356693920190245,36.8968458584741,14000,2017-11-14 07:28:51,1820.8206881662552,50.3000016096,0.0,0.6495170207845441,1820.8206881662552,50.3000016096,0.7199994039200001,0.9114420291661441,1684,-90.0,99,GPS_Atti,
0.35669380022562497,36.896845832112206,14100,2017-11-14 07:28:51,1821.3206881822555,50.800001625600004,0.35999970196000003,0.661319021162208,1821.3206881822555,50.800001625600004,0.7199994039200001,0.9114420291661441,1684,-90.0,99,GPS_Atti,
0.35669366703926203,36.8968458051497,14200,2017-11-14 07:28:51,1821.8206881982553,51.3000016416,0.35999970196000003,0.674334021578688,1821.8206881982553,51.3000016416,0.7199994039200001,0.9114420291661441,1684,-90.0,99,GPS_Atti,
0.35669354038743706,36.8968458107936,14300,2017-11-14 07:28:51,1822.3206882142551,51.800001657600006,0.35999970196000003,0.6845110219043521,1822.3206882142551,51.800001657600006,0.7199994039200001,0.9114420291661441,1684,-90.0,99,GPS_Atti,
0.35669339596277505,36.8968457852805,14400,2017-11-14 07:28:52,1822.8206882302554,52.3000016736,0.35999970196000003,0.6985670223541439,1822.8206882302554,52.3000016736,0.7199994039200001,0.9114420291661441,1684,-90.0,99,GPS_Atti,
0.356693276977664,36.8968457622097,14500,2017-11-14 07:28:52,1823.3206882462553,52.8000016896,0.0,0.710366022731712,1823.3206882462553,52.8000016896,0.7199994039200001,0.9114420291661441,1684,-90.0,99,GPS_Atti,
0.356693162091755,36.8968457275721,14600,2017-11-14 07:28:52,1823.9206882654553,53.400001708800005,0.0,0.722682023125824,1823.9206882654553,53.400001708800005,0.7199994039200001,0.9114420291661441,1684,-90.0,99,GPS_Atti,
0.35669309167702207,36.896845748584596,14700,2017-11-14 07:28:52,1824.3206882782551,53.8000017216,0.0,0.727304023273728,1824.3206882782551,53.8000017216,0.7199994039200001,0.9114420291661441,1684,-90.0,99,GPS_Atti,
0.35669302885694504,36.89684577570279,14800,2017-11-14 07:28:52,1824.9206882974554,54.40000174080001,0.0,0.730904023388928,1824.9206882974554,54.40000174080001,0.7199994039200001,0.9114420291661441,1684,-90.0,99,GPS_Atti,
0.356692967969017,36.8968458040976,14900,2017-11-14 07:28:52,1825.4206883134552,54.9000017568,0.0,0.734309023497888,1825.4206883134552,54.9000017568,0.7199994039200001,0.9114420291661441,1684,-90.0,99,GPS_Atti,
0.356692886824874,36.896845818043,15000,2017-11-14 07:28:52,1825.9206883294555,55.40000177280001,0.0,0.7405390236972481,1825.9206883294555,55.40000177280001,0.7199994039200001,0.9114420291661441,1684,-90.0,99,GPS_Atti,
0.35669282145546793,36.8968458543092,15100,2017-11-14 07:28:52,1826.4206883454553,55.900001788800004,0.0,0.743942023806144,1826.4206883454553,55.900001788800004,0.7199994039200001,0.9114420291661441,1684,-90.0,99,GPS_Atti,
0.356692738362484,36.896845894528,15200,2017-11-14 07:28:52,1826.9206883614552,56.400001804800006,0.0,0.7487610239603522,1826.9206883614552,56.400001804800006,0.7199994039200001,0.9114420291661441,1684,-90.0,99,GPS_Atti,
0.35669267750427497,36.896845949772,15300,2017-11-14 07:28:52,1827.4206883774555,56.90000182080001,0.0,0.750706024022592,1827.4206883774555,56.90000182080001,0.7199994039200001,0.9114420291661441,1684,-90.0,99,GPS_Atti,
0.356692605134596,36.8968459851723,15400,2017-11-14 07:28:53,1827.9206883934553,57.4000018368,0.0,0.7550610241619521,1827.9206883934553,57.4000018368,0.7199994039200001,0.9114420291661441,1684,-90.0,99,GPS_Atti,
0.356692557216003,36.8968460242009,15500,2017-11-14 07:28:53,1828.4206884094554,57.90000185280001,0.0,0.7570180242245761,1828.4206884094554,57.90000185280001,0.7199994039200001,0.9114420291661441,1684,-90.0,99,GPS_Atti,
0.35669247209886296,36.8968460596936,15600,2017-11-14 07:28:53,1828.9206884254554,58.400001868800004,0.0,0.762699024406368,1828.9206884254554,58.400001868800004,0.7199994039200001,0.9114420291661441,1684,-90.0,99,GPS_Atti,
0.35669240208472797,36.896846108253705,15700,2017-11-14 07:28:53,1829.4206884414555,58.900001884800005,0.0,0.7662760245208321,1829.4206884414555,58.900001884800005,0.7199994039200001,0.9114420291661441,1684,-90.0,99,GPS_Atti,
0.356692328599564,36.8968461808394,15800,2017-11-14 07:28:53,1829.9206884574553,59.4000019008,0.0,0.76886502460368,1829.9206884574553,59.4000019008,0.7199994039200001,0.9114420291661441,1684,-90.0,99,GPS_Atti,
0.356692300206829,36.896846262084296,15900,2017-11-14 07:28:53,1830.4206884734551,59.9000019168,0.0,0.7668260245384321,1830.4206884734551,59.9000019168,0.7199994039200001,0.9114420291661441,1684,-90.0,99,GPS_Atti,
0.356692268772974,36.8968463337173,16000,2017-11-14 07:28:53,1830.9206884894554,60.40000193280001,0.0,0.76573502450352,1830.9206884894554,60.40000193280001,0.7199994039200001,0.9114420291661441,1684,-90.0,99,GPS_Atti,
0.35669225961297707,36.8968464034223,16100,2017-11-14 07:28:53,1831.4206885054552,60.9000019488,0.0,0.762704024406528,1831.4206885054552,60.9000019488,0.7199994039200001,0.9114420291661441,1684,-90.0,99,GPS_Atti,
0.35669225017777206,36.8968464380713,16200,2017-11-14 07:28:53,1832.0206885246555,61.500001968,0.0,0.761694024374208,1832.0206885246555,61.500001968,0.7199994039200001,0.9114420291661441,1684,-90.0,99,GPS_Atti,
0.35669225884760797,36.8968464739315,16300,2017-11-14 07:28:53,1832.5206885406553,62.000001984,0.0,0.75888502428432,1832.5206885406553,62.000001984,0.7199994039200001,0.9114420291661441,1684,-90.0,99,GPS_Atti,
0.35669224742407396,36.8968465145349,16400,2017-11-14 07:28:53,1833.0206885566552,62.50000200000001,0.0,0.7577800242489601,1833.0206885566552,62.50000200000001,0.7199994039200001,0.9114420291661441,1684,-90.0,99,GPS_Atti,
0.35669222277024604,36.8968465915049,16500,2017-11-14 07:28:54,1833.5206885726554,63.000002015999996,0.35999970196000003,0.7560530241936961,1833.5206885726554,63.000002015999996,0.7199994039200001,0.9114420291661441,1684,-90.0,99,GPS_Atti,
0.35669221865353895,36.8968466306489,16600,2017-11-14 07:28:54,1834.1206885918552,63.600002035200006,0.0,0.7543890241404481,1834.1206885918552,63.600002035200006,0.7199994039200001,0.9114420291661441,1684,-90.0,99,GPS_Atti,
0.356692214787613,36.896846651827396,16700,2017-11-14 07:28:54,1834.6206886078553,64.1000020512,0.0,0.753659024117088,1834.6206886078553,64.1000020512,0.7199994039200001,0.9114420291661441,1684,-90.0,99,GPS_Atti,
0.35669218131657504,36.8968466401558,16800,2017-11-14 07:28:54,1835.1206886238554,64.60000206720001,0.0,0.75755502424176,1835.1206886238554,64.60000206720001,0.7199994039200001,0.9114420291661441,1684,-90.0,99,GPS_Atti,
0.35669213381079296,36.896846662113205,16900,2017-11-14 07:28:54,1835.6206886398554,65.1000020832,0.0,0.761089024354848,1835.6206886398554,65.1000020832,0.7199994039200001,0.9114420291661441,1684,-90.0,99,GPS_Atti,
0.35669209765037996,36.8968466686243,17000,2017-11-14 07:28:54,1836.1206886558552,65.60000209920001,0.0,0.76432002445824,1836.1206886558552,65.60000209920001,0.7199994039200001,0.9114420291661441,1684,-90.0,99,GPS_Atti,
0.356692078808468,36.896846680824794,17100,2017-11-14 07:28:54,1836.6206886718555,66.10000211520001,0.0,0.7655580244978561,1836.6206886718555,66.10000211520001,0.7199994039200001,0.9114420291661441,1684,-90.0,99,GPS_Atti,
0.35669209963708104,36.8968466269106,17200,2017-11-14 07:28:54,1837.1206886878554,66.6000021312,0.0,0.766273024520736,1837.1206886878554,66.6000021312,0.7199994039200001,0.9114420291661441,1684,-90.0,99,GPS_Atti,
0.35669210613375896,36.8968465663015,17300,2017-11-14 07:28:54,1837.7206887070552,67.2000021504,0.0,0.768798024601536,1837.7206887070552,67.2000021504,0.7199994039200001,0.9114420291661441,1684,-90.0,99,GPS_Atti,
0.356692105314651,36.8968464785723,17400,2017-11-14 07:28:55,1838.2206887230554,67.70000216640001,0.0,0.77354002475328,1838.2206887230554,67.70000216640001,0.7199994039200001,0.9114420291661441,1684,-90.0,99,GPS_Atti,
0.35669208611855296,36.8968464334525,17500,2017-11-14 07:28:55,1838.7206887390553,68.2000021824,0.0,0.7778380248908161,1838.7206887390553,68.2000021824,0.7199994039200001,0.9114420291661441,1684,-90.0,99,GPS_Atti,
0.35669212097458297,36.8968464267447,17600,2017-11-14 07:28:55,1839.3206887582555,68.8000022016,0.0,0.7748180247941762,1839.3206887582555,68.8000022016,0.7199994039200001,0.9114420291661441,1684,-90.0,99,GPS_Atti,
0.356692168206787,36.8968464443191,17700,2017-11-14 07:28:55,1839.8206887742554,69.30000221760001,0.0,0.769282024617024,1839.8206887742554,69.30000221760001,0.7199994039200001,0.9114420291661441,1684,-90.0,99,GPS_Atti,
0.3566922107384871,36.8968464442562,17800,2017-11-14 07:28:55,1840.3206887902552,69.8000022336,0.0,0.765166024485312,1840.3206887902552,69.8000022336,0.7199994039200001,0.9114420291661441,1684,-90.0,99,GPS_Atti,
0.356692214942315,36.896846444465204,17900,2017-11-14 07:28:55,1840.8206888062555,70.30000224960001,0.0,0.7647480244719361,1840.8206888062555,70.30000224960001,0.7199994039200001,0.9114420291661441,1684,-90.0,99,GPS_Atti,
0.356692243397746,36.8968464626279,18000,2017-11-14 07:28:55,1841.3206888222553,70.80000226560001,0.0,0.760999024351968,1841.3206888222553,70.80000226560001,0.7199994039200001,0.9114420291661441,1684,-90.0,99,GPS_Atti,
0.356692246127832,36.8968465145218,18100,2017-11-14 07:28:55,1841.8206888382554,71.3000022816,0.0,0.757906024252992,1841.8206888382554,71.3000022816,0.7199994039200001,0.9114420291661441,1684,-89.9,99,GPS_Atti,
0.356692244230695,36.896846560254005,18200,2017-11-14 07:28:55,1842.4206888574554,71.9000023008,0.0,0.755626024180032,1842.4206888574554,71.9000023008,0.7199994039200001,0.9114420291661441,1684,-90.0,99,GPS_Atti,
0.35669221985370203,36.8968465856185,18300,2017-11-14 07:28:55,1842.9206888734552,72.40000231680001,0.0,0.7566510242128321,1842.9206888734552,72.40000231680001,0.7199994039200001,0.9114420291661441,1684,-90.0,99,GPS_Atti,
0.35669225381245895,36.896846559261,18400,2017-11-14 07:28:56,1843.4206888894553,72.9000023328,0.0,0.7547460241518721,1843.4206888894553,72.9000023328,0.7199994039200001,0.9114420291661441,1684,-90.0,99,GPS_Atti,
0.356692287729691,36.8968465314504,18500,2017-11-14 07:28:56,1843.9206889054553,73.4000023488,0.0,0.752949024094368,1843.9206889054553,73.4000023488,0.7199994039200001,0.9114420291661441,1684,-90.0,99,GPS_Atti,
0.356692347170339,36.8968464887844,18600,2017-11-14 07:28:56,1844.4206889214554,73.9000023648,0.0,0.749531023984992,1844.4206889214554,73.9000023648,0.7199994039200001,0.9114420291661441,1684,-90.0,99,GPS_Atti,
0.356692386282307,36.8968464797435,18700,2017-11-14 07:28:56,1844.9206889374552,74.4000023808,0.0,0.7462610238803522,1844.9206889374552,74.4000023808,0.7199994039200001,0.9114420291661441,1684,-90.0,99,GPS_Atti,
0.35669246545725397,36.89684650722621,18800,2017-11-14 07:28:56,1845.4206889534555,74.9000023968,0.0,0.7371100235875201,1845.4206889534555,74.9000023968,0.7199994039200001,0.9114420291661441,1684,-90.0,99,GPS_Atti,
0.356692531571267,36.89684658437879,18900,2017-11-14 07:28:56,1845.9206889694553,75.40000241279999,0.35999970196000003,0.7264530232464961,1845.9206889694553,75.40000241279999,0.7199994039200001,0.9114420291661441,1684,-89.9,99,GPS_Atti,
0.35669263032173903,36.896846647630205,19000,2017-11-14 07:28:56,1846.4206889854552,75.90000242880001,0.35999970196000003,0.7134280228296961,1846.4206889854552,75.90000242880001,0.7199994039200001,0.9114420291661441,1684,-90.0,99,GPS_Atti,
0.35669273146521,36.8968467039743,19100,2017-11-14 07:28:56,1846.9206890014555,76.4000024448,0.0,0.700554022417728,1846.9206890014555,76.4000024448,0.7199994039200001,0.9114420291661441,1684,-90.0,99,GPS_Atti,
0.356692894195211,36.8968467327353,19200,2017-11-14 07:28:56,1847.4206890174553,76.9000024608,0.0,0.6832900218652801,1847.4206890174553,76.9000024608,0.7199994039200001,0.9114420291661441,1684,-90.0,99,GPS_Atti,
0.35669303624031,36.89684675775629,19300,2017-11-14 07:28:56,1847.9206890334553,77.40000247680001,0.0,0.668274021384768,1847.9206890334553,77.40000247680001,0.7199994039200001,0.9114420291661441,1684,-90.0,99,GPS_Atti,
0.356693230580852,36.896846728930996,19400,2017-11-14 07:28:56,1848.4206890494552,77.9000024928,0.0,0.6515010208480322,1848.4206890494552,77.9000024928,0.7199994039200001,0.9114420291661441,1684,-90.0,99,GPS_Atti,
0.35669340256692894,36.896846692677606,19500,2017-11-14 07:28:57,1848.9206890654555,78.4000025088,0.0,0.6375680204021761,1848.9206890654555,78.4000025088,0.7199994039200001,0.9114420291661441,1684,-90.0,98,GPS_Atti,
0.356693595078729,36.8968466408329,19600,2017-11-14 07:28:57,1849.4206890814553,78.9000025248,0.0,0.623044019937408,1849.4206890814553,78.9000025248,0.7199994039200001,0.9114420291661441,1684,-90.0,98,GPS_Atti,
0.35669373929739295,36.8968466244014,19700,2017-11-14 07:28:57,1849.8206890942554,79.30000253760001,0.0,0.6110040195521279,1849.8206890942554,79.30000253760001,0.7199994039200001,0.9114420291661441,1684,-90.0,98,GPS_Atti,
0.356693909728714,36.8968466163564,19800,2017-11-14 07:28:57,1850.4206891134554,79.9000025568,0.0,0.59626501908048,1850.4206891134554,79.9000025568,0.7199994039200001,0.9114420291661441,1684,-90.0,98,GPS_Atti,
0.3566940518743689,36.89684663595129,19900,2017-11-14 07:28:57,1850.8206891262555,80.30000256960001,0.0,0.582367018635744,1850.8206891262555,80.30000256960001,0.7199994039200001,0.9114420291661441,1684,-90.0,98,GPS_Atti,
0.356694238159813,36.8968466472632,20000,2017-11-14 07:28:57,1851.4206891454553,80.9000025888,0.0,0.565319018090208,1851.4206891454553,80.9000025888,0.7199994039200001,0.9114420291661441,1684,-90.0,98,GPS_Atti,
0.356694386692225,36.8968466664571,20100,2017-11-14 07:28:57,1851.8206891582552,81.3000026016,0.0,0.5511840176378879,1851.8206891582552,81.3000026016,0.7199994039200001,0.9114420291661441,1684,-90.0,98,GPS_Atti,
0.356694568610996,36.8968466601363,20200,2017-11-14 07:28:57,1852.3206891742554,81.80000261760001,0.0,0.536249017159968,1852.3206891742554,81.80000261760001,0.7199994039200001,0.9114420291661441,1684,-90.0,98,GPS_Atti,
0.35669471863221397,36.8968466617899,20300,2017-11-14 07:28:57,1852.8206891902553,82.3000026336,0.0,0.52368501675792,1852.8206891902553,82.3000026336,0.7199994039200001,0.9114420291661441,1684,-90.0,98,GPS_Atti,
0.356694917074806,36.896846624713,20400,2017-11-14 07:28:57,1853.3206892062553,82.8000026496,0.0,0.510476016335232,1853.3206892062553,82.8000026496,0.7199994039200001,0.9114420291661441,1684,-90.0,98,GPS_Atti,
0.356695065794897,36.8968466065846,20500,2017-11-14 07:28:58,1853.8206892222554,83.3000026656,0.0,0.500236016007552,1853.8206892222554,83.3000026656,0.7199994039200001,0.9114420291661441,1684,-90.0,98,GPS_Atti,
0.35669524933193497,36.8968465837442,20600,2017-11-14 07:28:58,1854.3206892382555,83.8000026816,0.0,0.488126015620032,1854.3206892382555,83.8000026816,0.7199994039200001,0.9114420291661441,1684,-90.0,98,GPS_Atti,
0.356695376016735,36.8968465928309,20700,2017-11-14 07:28:58,1854.8206892542553,84.30000269760001,0.0,0.47801501529648,1854.8206892542553,84.30000269760001,0.7199994039200001,0.9114420291661441,1684,-90.0,98,GPS_Atti,
0.35669553206482396,36.896846564646296,20800,2017-11-14 07:28:58,1855.3206892702551,84.8000027136,0.0,0.469233015015456,1855.3206892702551,84.8000027136,0.7199994039200001,0.9114420291661441,1684,-90.0,98,GPS_Atti,
0.35669564088844397,36.896846560494794,20900,2017-11-14 07:28:58,1855.8206892862554,85.30000272960001,0.0,0.46204801478553603,1855.8206892862554,85.30000272960001,0.7199994039200001,0.9114420291661441,1684,-90.0,98,GPS_Atti,
0.356695793175234,36.8968465723827,21000,2017-11-14 07:28:58,1856.3206893022552,85.80000274560001,0.0,0.4507590144242881,1856.3206893022552,85.80000274560001,0.7199994039200001,0.9114420291661441,1684,-90.0,98,GPS_Atti,
0.356695903632998,36.896846613685,21100,2017-11-14 07:28:58,1856.9206893214555,86.40000276479999,0.0,0.43983401407468803,1856.9206893214555,86.40000276479999,0.7199994039200001,0.9114420291661441,1684,-90.0,98,GPS_Atti,
0.35669606703880297,36.896846603251795,21200,2017-11-14 07:28:58,1857.4206893374553,86.9000027808,0.0,0.430518013776576,1857.4206893374553,86.9000027808,0.7199994039200001,0.9114420291661441,1684,-89.9,98,GPS_Atti,
0.3566961898475,36.896846596279,21300,2017-11-14 07:28:58,1857.9206893534551,87.40000279680001,0.0,0.42381501356208,1857.9206893534551,87.40000279680001,0.7199994039200001,0.9114420291661441,1684,-90.0,98,GPS_Atti,
0.35669636593481396,36.8968465850803,21400,2017-11-14 07:28:59,1858.4206893694554,87.9000028128,0.0,0.4149190132774081,1858.4206893694554,87.9000028128,0.7199994039200001,0.9114420291661441,1684,-90.0,98,GPS_Atti,
0.35669648341605603,36.896846585701795,21500,2017-11-14 07:28:59,1858.9206893854553,88.4000028288,0.0,0.40860301307529606,1858.9206893854553,88.4000028288,0.7199994039200001,0.9114420291661441,1684,-90.0,98,GPS_Atti,
0.356696631564359,36.896846538102004,21600,2017-11-14 07:28:59,1859.4206894014553,88.9000028448,0.0,0.40595701299062403,1859.4206894014553,88.9000028448,0.7199994039200001,0.9114420291661441,1684,-90.0,98,GPS_Atti,
0.356696730874406,36.8968464952548,21700,2017-11-14 07:28:59,1859.9206894174552,89.4000028608,0.0,0.40570201298246406,1859.9206894174552,89.4000028608,0.7199994039200001,0.9114420291661441,1684,-90.0,98,GPS_Atti,
0.35669687832736297,36.896846446789205,21800,2017-11-14 07:28:59,1860.4206894334554,89.9000028768,0.0,0.40441001294112006,1860.4206894334554,89.9000028768,0.7199994039200001,0.9114420291661441,1684,-90.0,98,GPS_Atti,
0.356696971516293,36.8968464238145,21900,2017-11-14 07:28:59,1860.9206894494553,90.4000028928,0.0,0.403171012901472,1860.9206894494553,90.4000028928,0.7199994039200001,0.9114420291661441,1684,-90.0,98,GPS_Atti,
0.356697096572649,36.896846347917204,22000,2017-11-14 07:28:59,1861.5206894686555,91.00000291200001,0.0,0.406723013015136,1861.5206894686555,91.00000291200001,0.7199994039200001,0.9114420291661441,1684,-90.0,98,GPS_Atti,
0.35669715487053705,36.896846249597395,22100,2017-11-14 07:28:59,1862.0206894846553,91.50000292800001,0.0,0.415306013289792,1862.0206894846553,91.50000292800001,0.7199994039200001,0.9114420291661441,1684,-90.0,98,GPS_Atti,
0.35669723175467105,36.8968460848793,22200,2017-11-14 07:28:59,1862.5206895006552,92.00000294399999,0.35999970196000003,0.430714013782848,1862.5206895006552,92.00000294399999,0.7199994039200001,0.9114420291661441,1684,-90.0,98,GPS_Atti,
0.356697241321169,36.8968459296987,22300,2017-11-14 07:28:59,1863.1206895198554,92.6000029632,0.35999970196000003,0.44719301431017605,1863.1206895198554,92.6000029632,0.7199994039200001,0.9114420291661441,1684,-90.0,98,GPS_Atti,
0.35669729455235705,36.896845738986,22400,2017-11-14 07:29:00,1863.6206895358553,93.10000297920001,0.35999970196000003,0.46651001492832006,1863.6206895358553,93.10000297920001,0.7199994039200001,0.9114420291661441,1684,-90.0,98,GPS_Atti,
0.35669729671370903,36.8968455890373,22500,2017-11-14 07:29:00,1864.120689551855,93.60000299520001,0.35999970196000003,0.482757015448224,1864.120689551855,93.60000299520001,0.7199994039200001,0.9114420291661441,1684,-90.0,98,GPS_Atti,
0.35669735007110104,36.8968454456845,22600,2017-11-14 07:29:00,1864.6206895678554,94.1000030112,0.35999970196000003,0.49720401591052804,1864.6206895678554,94.1000030112,0.7199994039200001,0.9114420291661441,1684,-90.0,98,GPS_Atti,
0.356697350496329,36.8968453420201,22700,2017-11-14 07:29:00,1865.1206895838552,94.60000302720002,0.35999970196000003,0.5085190162726081,1865.1206895838552,94.60000302720002,0.7199994039200001,0.9114420291661441,1684,-90.0,98,GPS_Atti,
0.356697389029385,36.8968452192204,22800,2017-11-14 07:29:00,1865.6206895998553,95.1000030432,0.35999970196000003,0.521188016678016,1865.6206895998553,95.1000030432,0.7199994039200001,0.9114420291661441,1684,-90.0,98,GPS_Atti,
0.35669739215375795,36.896845133365204,22900,2017-11-14 07:29:00,1866.1206896158553,95.6000030592,0.35999970196000003,0.530536016977152,1866.1206896158553,95.6000030592,0.7199994039200001,0.9114420291661441,1684,-90.0,98,GPS_Atti,
0.35669747278127706,36.8968450457935,23000,2017-11-14 07:29:00,1866.6206896318554,96.10000307520001,0.35999970196000003,0.538723017239136,1866.6206896318554,96.10000307520001,0.7199994039200001,0.9114420291661441,1684,-90.0,98,GPS_Atti,
0.356697522359255,36.896844999887,23100,2017-11-14 07:29:00,1867.1206896478552,96.60000309120001,0.0,0.5429820173754241,1867.1206896478552,96.60000309120001,0.7199994039200001,0.9114420291661441,1645,-90.0,98,GPS_Atti,
0.3566976369954021,36.896844908015204,23200,2017-11-14 07:29:00,1867.6206896638555,97.10000310720001,0.0,0.5515160176485121,1867.6206896638555,97.10000310720001,0.7199994039200001,0.9114420291661441,1498,-90.0,98,GPS_Atti,
0.356697685769335,36.896844837169205,23300,2017-11-14 07:29:00,1868.1206896798553,97.6000031232,0.35999970196000003,0.5587660178805121,1868.1206896798553,97.6000031232,0.7199994039200001,0.9114420291661441,1021,-90.0,98,GPS_Atti,
0.35669771598775996,36.896844722262394,23400,2017-11-14 07:29:01,1868.6206896958552,98.10000313920001,0.35999970196000003,0.571154018276928,1868.6206896958552,98.10000313920001,0.7199994039200001,0.9114420291661441,1024,-90.0,98,GPS_Atti,
0.356697692256649,36.8968446293963,23500,2017-11-14 07:29:01,1869.0206897086553,98.500003152,0.35999970196000003,0.5816860186139521,1869.0206897086553,98.500003152,0.7199994039200001,0.9114420291661441,1024,-90.0,98,GPS_Atti,
0.35669772278936296,36.8968444953141,23600,2017-11-14 07:29:01,1869.4206897214553,98.90000316480001,0.35999970196000003,0.5962180190789761,1869.4206897214553,98.90000316480001,0.7199994039200001,0.9114420291661441,1024,-90.0,98,GPS_Atti,
0.35669770518099797,36.8968443723337,23700,2017-11-14 07:29:01,1869.6206897278553,99.1000031712,0.35999970196000003,0.6100140195204481,1869.6206897278553,99.1000031712,0.7199994039200001,0.9114420291661441,1024,-90.0,98,GPS_Atti,
0.356697698196399,36.896844146565705,23800,2017-11-14 07:29:01,1869.8206897342552,99.3000031776,0.35999970196000003,0.63509002032288,1869.8206897342552,99.3000031776,0.7199994039200001,0.9114420291661441,1024,-90.0,98,GPS_Atti,
0.356697639292322,36.8968439326427,23900,2017-11-14 07:29:01,1869.9206897374554,99.40000318080001,0.7199994039200001,0.659376021100032,1869.9206897374554,99.40000318080001,0.7199994039200001,0.9114420291661441,1024,-89.9,98,GPS_Atti,
0.35669759406290097,36.8968436873296,24000,2017-11-14 07:29:01,1870.0206897406554,99.50000318400001,0.7199994039200001,0.6870130219844162,1870.0206897406554,99.50000318400001,0.7199994039200001,0.9114420291661441,1024,-89.9,98,GPS_Atti,
0.356697494375666,36.8968434917239,24100,2017-11-14 07:29:01,1870.0206897406554,99.50000318400001,0.7199994039200001,0.709799022713568,1870.0206897406554,99.50000318400001,0.7199994039200001,0.9114420291661441,1024,-89.9,98,GPS_Atti,
0.3566973963763139,36.896843260098,24200,2017-11-14 07:29:01,1870.0206897406554,99.50000318400001,0.7199994039200001,0.736644023572608,1870.0206897406554,99.50000318400001,0.7199994039200001,0.9114420291661441,1024,-89.9,98,GPS_Atti,
0.356697267949281,36.896843083663605,24300,2017-11-14 07:29:01,1870.0206897406554,99.50000318400001,1.07999910588,0.75794002425408,1870.0206897406554,99.50000318400001,1.07999910588,0.9114420291661441,1024,-89.9,98,GPS_Atti,
0.356697193354536,36.896842918870895,24400,2017-11-14 07:29:02,1870.1206897438553,99.6000031872,1.07999910588,0.7772460248718721,1870.1206897438553,99.6000031872,1.07999910588,0.9114420291661441,1024,-90.0,98,GPS_Atti,
0.35669711229609,36.8968428059194,24500,2017-11-14 07:29:02,1870.1206897438553,99.6000031872,1.07999910588,0.791004025312128,1870.1206897438553,99.6000031872,1.07999910588,0.9114420291661441,1024,-89.9,98,GPS_Atti,
0.356697079233995,36.896842690808704,24600,2017-11-14 07:29:02,1870.2206897470553,99.7000031904,0.7199994039200001,0.804217025734944,1870.2206897470553,99.7000031904,1.07999910588,0.9114420291661441,1024,-90.0,98,GPS_Atti,
0.356697043863581,36.8968426170417,24700,2017-11-14 07:29:02,1870.2206897470553,99.7000031904,0.7199994039200001,0.812934026013888,1870.2206897470553,99.7000031904,1.07999910588,0.9114420291661441,1024,-89.9,98,GPS_Atti,
0.35669711501722,36.896842521423004,24800,2017-11-14 07:29:02,1870.2206897470553,99.7000031904,0.7199994039200001,0.8222400263116801,1870.2206897470553,99.7000031904,1.07999910588,0.9114420291661441,1024,-89.9,98,GPS_Atti,
0.3566972009009489,36.8968424687212,24900,2017-11-14 07:29:02,1870.3206897502555,99.80000319359999,0.5075995797636,0.8267040264545279,1870.3206897502555,99.80000319359999,1.07999910588,0.9114420291661441,1024,-89.9,98,GPS_Atti,
0.35669738405591295,36.896842423635604,25000,2017-11-14 07:29:02,1870.3206897502555,99.80000319359999,0.5075995797636,0.829204026534528,1870.3206897502555,99.80000319359999,1.07999910588,0.9114420291661441,1024,-90.0,98,GPS_Atti,
0.3566975590196,36.896842425625294,25100,2017-11-14 07:29:02,1870.3206897502555,99.80000319359999,0.35999970196000003,0.8270870264667839,1870.3206897502555,99.80000319359999,1.07999910588,0.9114420291661441,1024,-89.9,98,GPS_Atti,
0.356697845595211,36.89684238897021,25200,2017-11-14 07:29:02,1870.3206897502555,99.80000319359999,0.35999970196000003,0.829034026529088,1870.3206897502555,99.80000319359999,1.07999910588,0.9114420291661441,1024,-90.0,98,GPS_Atti,
0.35669810297740007,36.8968423772778,25300,2017-11-14 07:29:02,1870.4206897534555,99.90000319680001,0.35999970196000003,0.8294770265432642,1870.4206897534555,99.90000319680001,1.07999910588,0.9114420291661441,1024,-90.0,98,GPS_Atti,
0.356698416819269,36.8968423477192,25400,2017-11-14 07:29:03,1870.4206897534555,99.90000319680001,0.35999970196000003,0.83305502665776,1870.4206897534555,99.90000319680001,1.07999910588,0.9114420291661441,1024,-90.0,98,GPS_Atti,
0.356698679018294,36.8968423425065,25500,2017-11-14 07:29:03,1870.4206897534555,99.90000319680001,0.35999970196000003,0.8349960267198722,1870.4206897534555,99.90000319680001,1.07999910588,0.9114420291661441,1024,-90.0,98,GPS_Atti,
0.35669901762986495,36.8968423147337,25600,2017-11-14 07:29:03,1870.4206897534555,99.90000319680001,0.35999970196000003,0.841324026922368,1870.4206897534555,99.90000319680001,1.07999910588,0.9114420291661441,1024,-90.0,98,GPS_Atti,
0.356699304360585,36.89684232008079,25700,2017-11-14 07:29:03,1870.4206897534555,99.90000319680001,0.35999970196000003,0.844787027033184,1870.4206897534555,99.90000319680001,1.07999910588,0.9114420291661441,1024,-90.0,98,GPS_Atti,
0.356699660100034,36.8968422836261,25800,2017-11-14 07:29:03,1870.4206897534555,99.90000319680001,0.35999970196000003,0.855431027373792,1870.4206897534555,99.90000319680001,1.07999910588,0.9114420291661441,1024,-90.0,98,GPS_Atti,
0.356699945913501,36.89684227072021,25900,2017-11-14 07:29:03,1870.4206897534555,99.90000319680001,0.35999970196000003,0.8634370276299841,1870.4206897534555,99.90000319680001,1.07999910588,0.9114420291661441,1024,-90.0,98,GPS_Atti,
0.356700301728743,36.8968422409894,26000,2017-11-14 07:29:03,1870.4206897534555,99.90000319680001,0.35999970196000003,0.87638502804432,1870.4206897534555,99.90000319680001,1.07999910588,0.9114420291661441,1024,-90.0,98,GPS_Atti,
0.356700595754179,36.896842237791,26100,2017-11-14 07:29:03,1870.4206897534555,99.90000319680001,0.35999970196000003,0.8860150283524799,1870.4206897534555,99.90000319680001,1.07999910588,0.9114420291661441,1024,-90.0,98,GPS_Atti,
0.356700953216364,36.896842222518394,26200,2017-11-14 07:29:03,1870.4206897534555,99.90000319680001,0.35999970196000003,0.9003780288120962,1870.4206897534555,99.90000319680001,1.07999910588,0.9114420291661441,1024,-90.0,98,GPS_Atti,
0.356701227332749,36.8968422425268,26300,2017-11-14 07:29:03,1870.4206897534555,99.90000319680001,0.35999970196000003,0.9091370290923841,1870.4206897534555,99.90000319680001,1.07999910588,0.9114420291661441,1024,-89.9,98,GPS_Atti,
0.356701595717925,36.896842223091795,26400,2017-11-14 07:29:04,1870.4206897534555,99.90000319680001,0.35999970196000003,0.9270760296664321,1870.4206897534555,99.90000319680001,1.07999910588,0.9270760296664321,1024,-90.0,98,GPS_Atti,
0.356701908970094,36.8968422102972,26500,2017-11-14 07:29:04,1870.4206897534555,99.90000319680001,0.35999970196000003,0.943092030178944,1870.4206897534555,99.90000319680001,1.07999910588,0.943092030178944,1024,-90.0,98,GPS_Atti,
0.35670231730100105,36.8968421580498,26600,2017-11-14 07:29:04,1870.4206897534555,99.90000319680001,0.0,0.968946031006272,1870.4206897534555,99.90000319680001,1.07999910588,0.968946031006272,1024,-90.0,98,GPS_Atti,
0.35670262598253494,36.8968421317467,26700,2017-11-14 07:29:04,1870.3206897502555,99.80000319359999,0.0,0.9881760316216321,1870.4206897534555,99.90000319680001,1.07999910588,0.9881760316216321,1024,-90.0,98,GPS_Atti,
0.356703023361139,36.8968421169928,26800,2017-11-14 07:29:04,1870.3206897502555,99.80000319359999,0.0,1.01232003239424,1870.4206897534555,99.90000319680001,1.07999910588,1.01232003239424,1024,-90.0,98,GPS_Atti,
0.35670330318888394,36.8968421521946,26900,2017-11-14 07:29:04,1870.3206897502555,99.80000319359999,0.35999970196000003,1.02589003282848,1870.4206897534555,99.90000319680001,1.07999910588,1.02589003282848,1024,-90.0,98,GPS_Atti,
0.35670367378324797,36.8968421643359,27000,2017-11-14 07:29:04,1870.2206897470553,99.7000031904,0.35999970196000003,1.04816003354112,1870.4206897534555,99.90000319680001,1.07999910588,1.04816003354112,1024,-90.0,98,GPS_Atti,
0.35670393951436796,36.8968421845228,27100,2017-11-14 07:29:04,1870.2206897470553,99.7000031904,0.35999970196000003,1.06381003404192,1870.4206897534555,99.90000319680001,1.07999910588,1.06381003404192,1024,-90.0,98,GPS_Atti,
0.35670430786229296,36.89684220738479,27200,2017-11-14 07:29:04,1870.2206897470553,99.7000031904,0.35999970196000003,1.0869000347808002,1870.4206897534555,99.90000319680001,1.07999910588,1.0869000347808002,1024,-90.0,98,GPS_Atti,
0.356704567545372,36.8968422508883,27300,2017-11-14 07:29:04,1870.2206897470553,99.7000031904,0.35999970196000003,1.1014800352473602,1870.4206897534555,99.90000319680001,1.07999910588,1.1014800352473602,1024,-89.9,98,GPS_Atti,
0.356704924610216,36.8968422604954,27400,2017-11-14 07:29:04,1870.2206897470553,99.7000031904,0.35999970196000003,1.1266200360518401,1870.4206897534555,99.90000319680001,1.07999910588,1.1266200360518401,1024,-89.7,98,GPS_Atti,
0.356705177353681,36.8968422938002,27500,2017-11-14 07:29:05,1870.2206897470553,99.7000031904,0.35999970196000003,1.14276003656832,1870.4206897534555,99.90000319680001,1.07999910588,1.14276003656832,1024,-89.5,98,GPS_Atti,
0.35670552650713705,36.896842326612294,27600,2017-11-14 07:29:05,1870.2206897470553,99.7000031904,0.35999970196000003,1.16687003733984,1870.4206897534555,99.90000319680001,1.07999910588,1.16687003733984,1024,-89.3,98,GPS_Atti,
