latitude,longitude,time_millisecond,datetime_utc,altitude_m,ascent_m,speed_kph,distance_m,max_altitude_m,max_ascent_m,max_speed_kph,max_distance_m,rc_throttle,gimbal_pitch_degrees,battery_percent,flycState,message
0.35454761089640296,36.887997035518,0,2018-04-19 05:32:03,1771.9742999031796,0.0,0.0,0.0,1771.9742999031796,0.0,0.0,0.0,364,0.0,100,P-GPS,
0.35454760371333705,36.8879969982436,100,2018-04-19 05:32:03,1771.9742999031796,0.0,0.0,0.00422134013508288,1771.9742999031796,0.0,0.0,0.00422134013508288,364,0.0,100,Motors_Started,
0.35454759718816203,36.887996970783796,200,2018-04-19 05:32:03,1771.9742999031796,0.0,0.0,0.007358350235467199,1771.9742999031796,0.0,0.0,0.007358350235467199,369,0.0,100,Motors_Started,
0.354547592133471,36.8879969458667,300,2018-04-19 05:32:03,1771.9742999031796,0.0,0.0,0.0101856003259392,1771.9742999031796,0.0,0.0,0.0101856003259392,993,0.0,100,Motors_Started,
0.35454758897266203,36.887996892704,400,2018-04-19 05:32:04,1771.9742999031796,0.0,0.0,0.01606750051416,1771.9742999031796,0.0,0.0,0.01606750051416,1024,0.0,100,Motors_Started,
0.354547586906166,36.887996847782794,500,2018-04-19 05:32:04,1771.9742999031796,0.0,0.0,0.0210467006734944,1771.9742999031796,0.0,0.0,0.0210467006734944,1024,0.0,100,Motors_Started,
0.35454758686382704,36.8879968213252,600,2018-04-19 05:32:04,1771.9742999031796,0.0,0.0,0.0239686007669952,1771.9742999031796,0.0,0.0,0.0239686007669952,1024,0.0,100,Motors_Started,
0.35454758654953705,36.8879967940838,700,2018-04-19 05:32:04,1771.9742999031796,0.0,0.0,0.0269846008635072,1771.9742999031796,0.0,0.0,0.0269846008635072,1024,0.0,100,Motors_Started,Setting new Return-To-Home altitude to 30m (98 ft). Data Recorder File Index is 324. Setting new Maximum Flight Altitude to 150m (492 ft)
0.354547587858806,36.8879967451591,800,2018-04-19 05:32:04,1771.9742999031796,0.0,0.0,0.032390501036496,1771.9742999031796,0.0,0.0,0.032390501036496,1024,0.0,100,Motors_Started,
0.354547588614404,36.887996700353,900,2018-04-19 05:32:04,1771.9742999031796,0.0,0.0,0.037354001195328,1771.9742999031796,0.0,0.0,0.037354001195328,1024,0.0,100,Motors_Started,
0.3545475908079179,36.8879966820463,1000,2018-04-19 05:32:04,1771.9742999031796,0.0,0.0,0.03937090125986881,1771.9742999031796,0.0,0.0,0.03937090125986881,1024,0.0,100,Motors_Started,
0.35454759255198204,36.887996658923996,1100,2018-04-19 05:32:04,1771.9742999031796,0.0,0.0,0.041928401341708804,1771.9742999031796,0.0,0.0,0.041928401341708804,1024,0.0,100,Motors_Started,
0.354547595908205,36.8879966611616,1200,2018-04-19 05:32:04,1771.9742999031796,0.0,0.0,0.04166330133322561,1771.9742999031796,0.0,0.0,0.041928401341708804,1024,0.0,100,Motors_Started,
0.354547597683209,36.8879966515171,1300,2018-04-19 05:32:05,1771.9742999031796,0.0,0.0,0.0427277013672864,1771.9742999031796,0.0,0.0,0.0427277013672864,1024,0.0,100,Motors_Started,
0.35454763934694794,36.887996664388396,1400,2018-04-19 05:32:05,1771.9742999031796,0.0,0.0,0.0413922013245504,1771.9742999031796,0.0,0.0,0.0427277013672864,1024,0.0,100,Motors_Started,
0.35454767189628705,36.887996664209,1500,2018-04-19 05:32:05,1771.9742999031796,0.0,0.0,0.041844501339024,1771.9742999031796,0.0,0.0,0.0427277013672864,1024,0.0,100,Motors_Started,
0.3545476976305871,36.887996680725706,1600,2018-04-19 05:32:05,1771.9742999031796,0.0,0.0,0.0406162012997184,1771.9742999031796,0.0,0.0,0.0427277013672864,1024,0.0,100,Assisted_Takeoff,
0.35454771746503494,36.8879966859957,1700,2018-04-19 05:32:05,1771.9742999031796,0.0,0.0,0.040634801300313605,1771.9742999031796,0.0,0.0,0.0427277013672864,1024,0.0,100,Assisted_Takeoff,
0.35454772910026794,36.8879967005189,1800,2018-04-19 05:32:05,1771.9742999031796,0.0,0.0,0.0395044012641408,1771.9742999031796,0.0,0.0,0.0427277013672864,1024,0.0,100,Assisted_Takeoff,
0.354547741351052,36.8879967056235,1900,2018-04-19 05:32:05,1771.9742999031796,0.0,0.0,0.0394499012623968,1771.9742999031796,0.0,0.0,0.0427277013672864,1024,0.0,100,Assisted_Takeoff,
0.354547779762789,36.887996719332,2000,2018-04-19 05:32:05,1771.9742999031796,0.0,0.0,0.0398617012755744,1771.9742999031796,0.0,0.0,0.0427277013672864,1024,0.0,100,Assisted_Takeoff,
0.35454781286905496,36.88799672552,2100,2018-04-19 05:32:05,1771.9742999031796,0.0,0.0,0.041144501316624005,1771.9742999031796,0.0,0.0,0.0427277013672864,1024,0.0,100,Assisted_Takeoff,
0.35454783265627793,36.8879967381675,2200,2018-04-19 05:32:05,1771.9742999031796,0.0,0.0,0.04125000132,1771.9742999031796,0.0,0.0,0.0427277013672864,1024,0.0,100,Assisted_Takeoff,
0.354547849777738,36.887996744077796,2300,2018-04-19 05:32:05,1771.9742999031796,0.0,0.0,0.041905401340972794,1771.9742999031796,0.0,0.0,0.0427277013672864,1024,0.0,100,Assisted_Takeoff,
0.354547853226783,36.887996754136,2400,2018-04-19 05:32:06,1771.9742999031796,0.0,0.0,0.0412958013214656,1771.9742999031796,0.0,0.0,0.0427277013672864,1024,0.0,100,Assisted_Takeoff,
0.35454785968193503,36.887996759564,2500,2018-04-19 05:32:06,1771.9742999031796,0.0,0.0,0.04131750132216001,1771.9742999031796,0.0,0.0,0.0427277013672864,1024,0.0,100,Assisted_Takeoff,
0.354547855472407,36.8879967671085,2600,2018-04-19 05:32:06,1771.9742999031796,0.0,0.0,0.040381501292208,1771.9742999031796,0.0,0.0,0.0427277013672864,1024,0.0,100,Assisted_Takeoff,
0.35454785612704204,36.8879967707715,2700,2018-04-19 05:32:06,1771.9742999031796,0.0,0.0,0.040130801284185606,1771.9742999031796,0.0,0.0,0.0427277013672864,1024,0.0,100,Assisted_Takeoff,
0.35454784827957003,36.8879967758445,2800,2018-04-19 05:32:06,1771.9742999031796,0.0,0.0,0.039124701251990406,1771.9742999031796,0.0,0.0,0.0427277013672864,1024,0.0,100,Assisted_Takeoff,
0.35454784578479404,36.887996777557504,2900,2018-04-19 05:32:06,1771.9742999031796,0.0,0.0,0.038797001241504,1771.9742999031796,0.0,0.0,0.0427277013672864,1034,0.0,100,Assisted_Takeoff,
0.35454779714154294,36.887996780337296,3000,2018-04-19 05:32:06,1771.9742999031796,0.0,0.0,0.0351316011242112,1771.9742999031796,0.0,0.0,0.0427277013672864,1024,0.0,100,Assisted_Takeoff,
0.354547763260137,36.8879967806146,3100,2018-04-19 05:32:06,1771.9742999031796,0.0,0.0,0.033024301056777595,1771.9742999031796,0.0,0.0,0.0427277013672864,1024,0.0,100,Assisted_Takeoff,
0.354547732077063,36.8879967429012,3200,2018-04-19 05:32:06,1771.9742999031796,0.0,0.0,0.0352202011270464,1771.9742999031796,0.0,0.0,0.0427277013672864,1035,0.0,100,Assisted_Takeoff,
0.354547708552561,36.8879967121793,3300,2018-04-19 05:32:07,1771.9742999031796,0.0,0.0,0.037560801201945604,1771.9742999031796,0.0,0.0,0.0427277013672864,1067,0.0,100,Assisted_Takeoff,
0.354547689952474,36.887996728187396,3400,2018-04-19 05:32:07,1771.9742999031796,0.0,0.0,0.035289001129247995,1771.9742999031796,0.0,0.0,0.0427277013672864,1082,0.0,100,Assisted_Takeoff,
0.35454767534370296,36.887996738174,3500,2018-04-19 05:32:07,1771.9742999031796,0.0,0.0,0.033833601082675205,1771.9742999031796,0.0,0.0,0.0427277013672864,1110,0.0,100,Assisted_Takeoff,
0.35454766797010795,36.887996713118206,3600,2018-04-19 05:32:07,1771.9742999031796,0.0,0.0,0.0364096011651072,1771.9742999031796,0.0,0.0,0.0427277013672864,1127,0.0,100,Assisted_Takeoff,
0.354547660909175,36.8879966914049,3700,2018-04-19 05:32:07,1771.9742999031796,0.0,0.0,0.0386688012374016,1771.9742999031796,0.0,0.0,0.0427277013672864,1172,0.0,100,Assisted_Takeoff,
0.35454766036039004,36.8879966764669,3800,2018-04-19 05:32:07,1771.9742999031796,0.0,0.0,0.040305001289759994,1771.9742999031796,0.0,0.0,0.0427277013672864,1207,0.0,100,Assisted_Takeoff,
0.3545476582320129,36.887996664134604,3900,2018-04-19 05:32:07,1771.9742999031796,0.0,0.0,0.0416334013322688,1771.9742999031796,0.0,0.0,0.0427277013672864,1247,0.0,100,Assisted_Takeoff,
0.35454762292897607,36.8879966987283,4000,2018-04-19 05:32:07,1771.9742999031796,0.0,0.0,0.037476201199238404,1771.9742999031796,0.0,0.0,0.0427277013672864,1276,0.0,100,Assisted_Takeoff,
0.35454759274413794,36.887996723027705,4100,2018-04-19 05:32:07,1771.9742999031796,0.0,0.0,0.0348088011138816,1771.9742999031796,0.0,0.0,0.0427277013672864,1286,0.0,100,Assisted_Takeoff,
0.354547611958149,36.887996758002,4200,2018-04-19 05:32:07,1771.9742999031796,0.0,0.0,0.030861100987555203,1771.9742999031796,0.0,0.0,0.0427277013672864,1303,0.0,100,Assisted_Takeoff,
0.354547634223863,36.8879967977131,4300,2018-04-19 05:32:07,1771.9742999031796,0.0,0.0,0.0265718008502976,1771.9742999031796,0.0,0.0,0.0427277013672864,1320,0.0,100,Assisted_Takeoff,
0.35454763916293397,36.8879968088543,4400,2018-04-19 05:32:08,1771.9742999031796,0.0,0.0,0.025401200812838403,1771.9742999031796,0.0,0.0,0.0427277013672864,1326,0.0,100,P-GPS,Obstacle Avoided. Revise Flight Route
0.35454766951713,36.8879967832103,4500,2018-04-19 05:32:08,1771.9742999031796,0.0,0.0,0.028805000921759995,1771.9742999031796,0.0,0.0,0.0427277013672864,1315,0.0,100,P-GPS,
0.354547765859134,36.8879967458978,4600,2018-04-19 05:32:08,1772.0742999063798,0.10000000320000002,0.0,0.036527501168880004,1772.0742999063798,0.10000000320000002,0.0,0.0427277013672864,1317,0.0,100,P-GPS,
0.35454788045762303,36.8879967269916,4700,2018-04-19 05:32:08,1772.1742999095795,0.20000000640000004,0.35999970196000003,0.0455603014579296,1772.1742999095795,0.20000000640000004,0.35999970196000003,0.0455603014579296,1349,0.0,100,P-GPS,
0.354548039341647,36.8879967416481,4800,2018-04-19 05:32:08,1772.2742999127795,0.3000000096,0.0,0.057776001848832005,1772.2742999127795,0.3000000096,0.35999970196000003,0.057776001848832005,1381,0.0,100,P-GPS,Home Point Recorded. RTH Altitude:  30m.
0.354548164170022,36.8879967526094,4900,2018-04-19 05:32:08,1772.3742999159797,0.4000000128000001,0.0,0.0691042022113344,1772.3742999159797,0.4000000128000001,0.35999970196000003,0.0691042022113344,1405,0.0,100,P-GPS,
0.354548267200045,36.887996840602895,5000,2018-04-19 05:32:08,1772.4742999191797,0.500000016,0.0,0.07613560243633921,1772.4742999191797,0.500000016,0.35999970196000003,0.07613560243633921,1431,0.0,100,P-GPS,
0.35454834220129,36.887996893947,5100,2018-04-19 05:32:08,1772.6742999255796,0.7000000224000001,0.0,0.08283540265073279,1772.6742999255796,0.7000000224000001,0.35999970196000003,0.08283540265073279,1460,0.0,100,P-GPS,Obstacle Avoided. Revise Flight Route
0.35454842043825396,36.887996982821605,5200,2018-04-19 05:32:08,1772.7742999287798,0.8000000256000002,0.0,0.09021650288692801,1772.7742999287798,0.8000000256000002,0.35999970196000003,0.09021650288692801,1508,0.0,100,P-GPS,
0.354548502695845,36.8879970585755,5300,2018-04-19 05:32:09,1773.0742999383795,1.1000000352,0.0,0.0992067031746144,1773.0742999383795,1.1000000352,0.35999970196000003,0.0992067031746144,1520,0.0,100,P-GPS,
0.35454865643398603,36.8879971195712,5400,2018-04-19 05:32:09,1773.2742999447796,1.3000000416000002,0.0,0.11664500373264002,1773.2742999447796,1.3000000416000002,0.35999970196000003,0.11664500373264002,1552,0.0,100,P-GPS,
0.35454880425599,36.8879971729298,5500,2018-04-19 05:32:09,1773.5742999543797,1.6000000512000003,0.0,0.133586004274752,1773.5742999543797,1.6000000512000003,0.35999970196000003,0.133586004274752,1566,0.0,100,P-GPS,
0.354548968901449,36.8879972884939,5600,2018-04-19 05:32:09,1773.8742999639794,1.9000000607999998,0.0,0.153616004915712,1773.8742999639794,1.9000000607999998,0.35999970196000003,0.153616004915712,1620,0.0,100,P-GPS,
0.35454911353984403,36.88799740806571,5700,2018-04-19 05:32:09,1774.1742999735795,2.2000000704,0.0,0.172162005509184,1774.1742999735795,2.2000000704,0.35999970196000003,0.172162005509184,1667,0.0,100,P-GPS,
0.35454927659919894,36.887997572122,5800,2018-04-19 05:32:09,1774.4742999831797,2.50000008,0.0,0.194611006227552,1774.4742999831797,2.50000008,0.35999970196000003,0.194611006227552,1667,0.0,100,P-GPS,
0.354549407879468,36.8879977095476,5900,2018-04-19 05:32:09,1774.8742999959795,2.9000000928,0.0,0.21343000682976004,1774.8742999959795,2.9000000928,0.35999970196000003,0.21343000682976004,1684,0.0,100,P-GPS,
0.354549598584917,36.887997808129896,6000,2018-04-19 05:32:09,1775.2743000087796,3.3000001056,0.0,0.23715400758892802,1775.2743000087796,3.3000001056,0.35999970196000003,0.23715400758892802,1684,0.0,100,P-GPS,
0.35454975748034,36.8879978787893,6100,2018-04-19 05:32:09,1775.7743000247794,3.8000001215999997,0.0,0.25647200820710403,1775.7743000247794,3.8000001215999997,0.35999970196000003,0.25647200820710403,1684,0.0,100,P-GPS,
0.354549859178296,36.88799791013,6200,2018-04-19 05:32:09,1776.1743000375795,4.2000001344,0.0,0.268274008584768,1776.1743000375795,4.2000001344,0.35999970196000003,0.268274008584768,1684,0.0,100,P-GPS,
0.35454995653319105,36.8879979592303,6300,2018-04-19 05:32:09,1776.6743000535796,4.700000150400001,0.0,0.28034600897107204,1776.6743000535796,4.700000150400001,0.35999970196000003,0.28034600897107204,1684,0.0,100,P-GPS,
0.354550046708278,36.8879980186533,6400,2018-04-19 05:32:10,1777.1743000695797,5.200000166400001,0.0,0.29210800934745607,1777.1743000695797,5.200000166400001,0.35999970196000003,0.29210800934745607,1684,0.0,100,P-GPS,
0.35455013657396006,36.887998107021495,6500,2018-04-19 05:32:10,1777.6743000855795,5.7000001824,0.0,0.305101009763232,1777.6743000855795,5.7000001824,0.35999970196000003,0.305101009763232,1684,0.0,100,P-GPS,
0.354550222640482,36.887998198286795,6600,2018-04-19 05:32:10,1778.1743001015798,6.2000001984,0.0,0.31792501017360003,1778.1743001015798,6.2000001984,0.35999970196000003,0.31792501017360003,1684,0.0,100,P-GPS,
0.354550309504942,36.8879982954986,6700,2018-04-19 05:32:10,1778.6743001175796,6.7000002144,0.0,0.3312000105984,1778.6743001175796,6.7000002144,0.35999970196000003,0.3312000105984,1684,0.0,100,P-GPS,
0.35455036836179293,36.8879983894045,6800,2018-04-19 05:32:10,1779.1743001335794,7.200000230400001,0.0,0.341614010931648,1779.1743001335794,7.200000230400001,0.35999970196000003,0.341614010931648,1684,0.0,100,P-GPS,
0.35455043811782,36.8879984811788,6900,2018-04-19 05:32:10,1779.6743001495797,7.7000002464,0.0,0.353122011299904,1779.6743001495797,7.7000002464,0.35999970196000003,0.353122011299904,1684,0.0,100,P-GPS,
0.354550483408104,36.88799856581711,7000,2018-04-19 05:32:10,1780.1743001655796,8.200000262400001,0.0,0.361942011582144,1780.1743001655796,8.200000262400001,0.35999970196000003,0.361942011582144,1684,0.0,100,P-GPS,
0.35455054350094495,36.887998651057,7100,2018-04-19 05:32:10,1780.6743001815796,8.700000278400001,0.0,0.372333011914656,1780.6743001815796,8.700000278400001,0.35999970196000003,0.372333011914656,1684,0.0,100,P-GPS,
0.354550621242861,36.8879987010962,7200,2018-04-19 05:32:10,1781.1743001975794,9.2000002944,0.0,0.382591012242912,1781.1743001975794,9.2000002944,0.35999970196000003,0.382591012242912,1684,-0.1,100,P-GPS,
0.3545507112534749,36.88799876008721,7300,2018-04-19 05:32:10,1781.6743002135797,9.7000003104,0.0,0.394527012624864,1781.6743002135797,9.7000003104,0.35999970196000003,0.394527012624864,1684,-0.3,100,P-GPS,
0.3545507830385429,36.8879988284095,7400,2018-04-19 05:32:11,1782.1743002295796,10.2000003264,0.0,0.405206012966592,1782.1743002295796,10.2000003264,0.35999970196000003,0.405206012966592,1684,-0.4,100,P-GPS,
0.35455087075305,36.8879989037534,7500,2018-04-19 05:32:11,1782.6743002455796,10.700000342400001,0.0,0.417828013370496,1782.6743002455796,10.700000342400001,0.35999970196000003,0.417828013370496,1684,-0.7,100,P-GPS,
0.35455093179690206,36.8879989599089,7600,2018-04-19 05:32:11,1783.1743002615797,11.200000358400002,0.0,0.426827013658464,1783.1743002615797,11.200000358400002,0.35999970196000003,0.426827013658464,1684,-1.3,100,P-GPS,
0.35455100882230295,36.887999026063795,7700,2018-04-19 05:32:11,1783.6743002775795,11.700000374400002,0.0,0.43793201401382403,1783.6743002775795,11.700000374400002,0.35999970196000003,0.43793201401382403,1684,-2.5,100,P-GPS,
0.354551090742807,36.8879991093799,7800,2018-04-19 05:32:11,1784.1743002935796,12.2000003904,0.0,0.45048901441564804,1784.1743002935796,12.2000003904,0.35999970196000003,0.45048901441564804,1684,-3.7,100,P-GPS,
0.35455118410313,36.8879991978557,7900,2018-04-19 05:32:11,1784.5743003063794,12.600000403200003,0.0,0.46445501486255997,1784.5743003063794,12.600000403200003,0.35999970196000003,0.46445501486255997,1684,-5.1,100,P-GPS,
0.35455131104359605,36.887999266079504,8000,2018-04-19 05:32:11,1785.0743003223797,13.100000419199999,0.0,0.48046101537475205,1785.0743003223797,13.100000419199999,0.35999970196000003,0.48046101537475205,1684,-6.6,100,P-GPS,
0.3545514351326571,36.887999341236,8100,2018-04-19 05:32:11,1785.5743003383795,13.600000435200002,0.0,0.49659401589100804,1785.5743003383795,13.600000435200002,0.35999970196000003,0.49659401589100804,1684,-8.0,100,P-GPS,
0.354551551105553,36.887999430913,8200,2018-04-19 05:32:11,1786.0743003543796,14.100000451200001,0.0,0.5127910164093121,1786.0743003543796,14.100000451200001,0.35999970196000003,0.5127910164093121,1684,-9.3,100,P-GPS,
0.35455166423355794,36.887999523188896,8300,2018-04-19 05:32:11,1786.5743003703797,14.600000467200001,0.0,0.5288760169240321,1786.5743003703797,14.600000467200001,0.35999970196000003,0.5288760169240321,1684,-10.1,100,P-GPS,
0.35455176466458393,36.8879996202964,8400,2018-04-19 05:32:12,1787.0743003863797,15.100000483200002,0.0,0.544054017409728,1787.0743003863797,15.100000483200002,0.35999970196000003,0.544054017409728,1684,-10.7,100,P-GPS,
0.35455186136647404,36.8879997136943,8500,2018-04-19 05:32:12,1787.5743004023795,15.6000004992,0.0,0.55868001787776,1787.5743004023795,15.6000004992,0.35999970196000003,0.55868001787776,1684,-10.9,100,P-GPS,
0.354551950027108,36.8879998103158,8600,2018-04-19 05:32:12,1788.0743004183798,16.1000005152,0.0,0.572763018328416,1788.0743004183798,16.1000005152,0.35999970196000003,0.572763018328416,1684,-10.9,100,P-GPS,
0.354552039531275,36.8879998948196,8700,2018-04-19 05:32:12,1788.5743004343797,16.6000005312,0.0,0.5862160187589122,1788.5743004343797,16.6000005312,0.35999970196000003,0.5862160187589122,1684,-11.0,100,P-GPS,
0.35455211522623703,36.8879999391038,8800,2018-04-19 05:32:12,1789.0743004503795,17.1000005472,0.0,0.59596001907072,1789.0743004503795,17.1000005472,0.35999970196000003,0.59596001907072,1684,-11.0,100,P-GPS,
0.3545521803737679,36.8879999804514,8900,2018-04-19 05:32:12,1789.5743004663796,17.6000005632,0.0,0.6045400193452801,1789.5743004663796,17.6000005632,0.35999970196000003,0.6045400193452801,1684,-11.1,100,P-GPS,
0.354552240316791,36.8880000354218,9000,2018-04-19 05:32:12,1790.0743004823796,18.100000579200003,0.0,0.613457019630624,1790.0743004823796,18.100000579200003,0.35999970196000003,0.613457019630624,1684,-11.3,100,P-GPS,
0.354552294912005,36.8880000931216,9100,2018-04-19 05:32:12,1790.5743004983797,18.6000005952,0.0,0.62204501990544,1790.5743004983797,18.6000005952,0.35999970196000003,0.62204501990544,1684,-11.7,100,P-GPS,
0.354552327619302,36.8880001484801,9200,2018-04-19 05:32:12,1791.0743005143795,19.1000006112,0.0,0.628463020110816,1791.0743005143795,19.1000006112,0.35999970196000003,0.628463020110816,1684,-12.2,100,P-GPS,
0.35455235788882,36.8880002044435,9300,2018-04-19 05:32:13,1791.6743005335798,19.7000006304,0.0,0.63471002031072,1791.6743005335798,19.7000006304,0.35999970196000003,0.63471002031072,1684,-12.7,100,P-GPS,
0.354552385788951,36.8880002553814,9400,2018-04-19 05:32:13,1792.1743005495796,20.200000646400003,0.0,0.640442020494144,1792.1743005495796,20.200000646400003,0.35999970196000003,0.640442020494144,1684,-13.4,100,P-GPS,
0.354552415211677,36.8880003045925,9500,2018-04-19 05:32:13,1792.6743005655796,20.7000006624,0.0,0.6462200206790399,1792.6743005655796,20.7000006624,0.35999970196000003,0.6462200206790399,1684,-13.9,100,P-GPS,
0.35455248249409704,36.8880003433706,9600,2018-04-19 05:32:13,1793.1743005815797,21.2000006784,0.0,0.654832020954624,1793.1743005815797,21.2000006784,0.35999970196000003,0.654832020954624,1684,-14.1,100,P-GPS,
0.354552535736074,36.888000381564204,9700,2018-04-19 05:32:13,1793.6743005975795,21.700000694400003,0.0,0.662117021187744,1793.6743005975795,21.700000694400003,0.35999970196000003,0.662117021187744,1684,-14.1,99,P-GPS,
0.35455258701903203,36.888000381202396,9800,2018-04-19 05:32:13,1794.2743006167798,22.3000007136,0.0,0.666819021338208,1794.2743006167798,22.3000007136,0.35999970196000003,0.666819021338208,1684,-14.1,99,P-GPS,
0.3545526150673521,36.8880003921824,9900,2018-04-19 05:32:13,1794.7743006327796,22.8000007296,0.0,0.670089021442848,1794.7743006327796,22.8000007296,0.35999970196000003,0.670089021442848,1684,-14.1,99,P-GPS,
0.354552611735555,36.8880004138224,10000,2018-04-19 05:32:13,1795.2743006487794,23.300000745600002,0.0,0.6711260214760322,1795.2743006487794,23.300000745600002,0.35999970196000003,0.6711260214760322,1684,-14.1,99,P-GPS,
0.35455260957949497,36.8880004374505,10100,2018-04-19 05:32:13,1795.8743006679797,23.9000007648,0.0,0.672402021516864,1795.8743006679797,23.9000007648,0.35999970196000003,0.672402021516864,1684,-14.1,99,P-GPS,
0.354552564144279,36.8880004327163,10200,2018-04-19 05:32:13,1796.3743006839795,24.4000007808,0.0,0.667933021373856,1796.3743006839795,24.4000007808,0.35999970196000003,0.672402021516864,1684,-14.1,99,P-GPS,
0.35455252976945506,36.8880004352269,10300,2018-04-19 05:32:13,1796.8743006999798,24.9000007968,0.0,0.6649430212781761,1796.8743006999798,24.9000007968,0.35999970196000003,0.672402021516864,1684,-14.1,99,P-GPS,
0.35455249707518505,36.888000420652794,10400,2018-04-19 05:32:14,1797.3743007159796,25.400000812800002,0.0,0.6610310211529921,1797.3743007159796,25.400000812800002,0.35999970196000003,0.672402021516864,1684,-14.1,99,P-GPS,
0.35455247152489794,36.888000419352004,10500,2018-04-19 05:32:14,1797.9743007351794,26.000000832,0.0,0.6586140210756479,1797.9743007351794,26.000000832,0.35999970196000003,0.672402021516864,1684,-14.1,99,P-GPS,
0.354552411435315,36.888000371769294,10600,2018-04-19 05:32:14,1798.4743007511797,26.500000848000003,0.0,0.650107020803424,1798.4743007511797,26.500000848000003,0.35999970196000003,0.672402021516864,1684,-14.1,99,P-GPS,
0.354552361002404,36.8880003430441,10700,2018-04-19 05:32:14,1798.9743007671796,27.000000864000004,0.0,0.643679020597728,1798.9743007671796,27.000000864000004,0.35999970196000003,0.672402021516864,1684,-14.1,99,P-GPS,
0.354552290399587,36.888000315204295,10800,2018-04-19 05:32:14,1799.5743007863798,27.6000008832,0.0,0.635469020335008,1799.5743007863798,27.6000008832,0.35999970196000003,0.672402021516864,1684,-14.1,99,P-GPS,
0.354552177084311,36.8880002741972,11000,2018-04-19 05:32:14,1800.6743008215794,28.7000009184,0.0,0.6225430199213761,1800.6743008215794,28.7000009184,0.35999970196000003,0.672402021516864,1684,-14.1,99,P-GPS,
0.354552129823609,36.888000253862295,11100,2018-04-19 05:32:14,1801.1743008375797,29.200000934400002,0.0,0.616949019742368,1801.1743008375797,29.200000934400002,0.35999970196000003,0.672402021516864,1684,-14.1,99,P-GPS,
0.354552105802432,36.8880002278714,11200,2018-04-19 05:32:14,1801.6743008535796,29.7000009504,0.0,0.613097019619104,1801.6743008535796,29.7000009504,0.35999970196000003,0.672402021516864,1684,-14.1,99,P-GPS,
0.35455208737170296,36.888000223508705,11300,2018-04-19 05:32:14,1802.1743008695796,30.200000966400005,0.0,0.6111450195566401,1802.1743008695796,30.200000966400005,0.35999970196000003,0.672402021516864,1684,-14.1,99,P-GPS,
0.35455205554865005,36.8880002163239,11400,2018-04-19 05:32:15,1802.7743008887796,30.8000009856,0.0,0.607801019449632,1802.7743008887796,30.8000009856,0.35999970196000003,0.672402021516864,1684,-14.1,99,P-GPS,
0.35455203150141795,36.8880002125714,11500,2018-04-19 05:32:15,1803.2743009047795,31.300001001600002,0.0,0.605384019372288,1803.2743009047795,31.300001001600002,0.35999970196000003,0.672402021516864,1684,-14.1,99,P-GPS,
0.35455199107040997,36.8880001623765,11600,2018-04-19 05:32:15,1803.7743009207798,31.800001017600003,0.0,0.598479019151328,1803.7743009207798,31.800001017600003,0.35999970196000003,0.672402021516864,1684,-14.1,99,P-GPS,
0.35455195908125603,36.888000133735794,11700,2018-04-19 05:32:15,1804.2743009367796,32.300001033600005,0.0,0.5937330189994561,1804.2743009367796,32.300001033600005,0.35999970196000003,0.672402021516864,1684,-14.1,99,P-GPS,
0.35455186814080103,36.8880001019915,11800,2018-04-19 05:32:15,1804.7743009527796,32.800001049600006,0.0,0.583456018670592,1804.7743009527796,32.800001049600006,0.35999970196000003,0.672402021516864,1684,-14.1,99,P-GPS,
0.354551796148921,36.8880000878918,11900,2018-04-19 05:32:15,1805.2743009687795,33.3000010656,0.0,0.5760540184337279,1805.2743009687795,33.3000010656,0.35999970196000003,0.672402021516864,1684,-14.1,99,P-GPS,
0.35455171239315997,36.888000034676104,12000,2018-04-19 05:32:15,1805.8743009879797,33.9000010848,0.0,0.565042018081344,1805.8743009879797,33.9000010848,0.35999970196000003,0.672402021516864,1684,-14.1,99,P-GPS,
0.354551653337639,36.8879999966619,12100,2018-04-19 05:32:15,1806.3743010039796,34.4000011008,0.0,0.55724501783184,1806.3743010039796,34.4000011008,0.35999970196000003,0.672402021516864,1684,-14.1,99,P-GPS,
0.35455155347493894,36.8879999611116,12200,2018-04-19 05:32:15,1806.8743010199796,34.9000011168,0.0,0.545961017470752,1806.8743010199796,34.9000011168,0.35999970196000003,0.672402021516864,1684,-14.1,99,P-GPS,
0.35455147808449605,36.887999944603,12300,2018-04-19 05:32:15,1807.3743010359797,35.40000113280001,0.0,0.5381460172206721,1807.3743010359797,35.40000113280001,0.35999970196000003,0.672402021516864,1684,-14.1,99,P-GPS,
0.354551395061536,36.8879999028534,12400,2018-04-19 05:32:16,1807.8743010519795,35.9000011488,0.0,0.52798001689536,1807.8743010519795,35.9000011488,0.35999970196000003,0.672402021516864,1684,-14.1,99,P-GPS,
0.354551334923099,36.8879998839204,12500,2018-04-19 05:32:16,1808.4743010711798,36.500001168000004,0.0,0.5213830166842561,1808.4743010711798,36.500001168000004,0.35999970196000003,0.672402021516864,1684,-14.1,99,P-GPS,
0.35455127284844207,36.8879998803371,12600,2018-04-19 05:32:16,1808.9743010871796,37.000001184000006,0.0,0.515672016501504,1808.9743010871796,37.000001184000006,0.35999970196000003,0.672402021516864,1684,-14.1,99,P-GPS,
0.354551230637545,36.8879998977638,12700,2018-04-19 05:32:16,1809.5743011063796,37.60000120320001,0.0,0.513173016421536,1809.5743011063796,37.60000120320001,0.35999970196000003,0.672402021516864,1684,-14.1,99,P-GPS,
0.354551216494509,36.8879999194621,12800,2018-04-19 05:32:16,1810.0743011223797,38.1000012192,0.0,0.513444016430208,1810.0743011223797,38.1000012192,0.35999970196000003,0.672402021516864,1684,-14.1,99,P-GPS,
0.35455120978532,36.8879999538535,12900,2018-04-19 05:32:16,1810.5743011383795,38.600001235200004,0.0,0.515262016488384,1810.5743011383795,38.600001235200004,0.35999970196000003,0.672402021516864,1684,-14.1,99,P-GPS,
0.354551184127556,36.887999970455205,13000,2018-04-19 05:32:16,1811.0743011543798,39.100001251200005,0.0,0.514219016455008,1811.0743011543798,39.100001251200005,0.35999970196000003,0.672402021516864,1684,-14.1,99,P-GPS,
0.35455115781027297,36.887999992774,13100,2018-04-19 05:32:16,1811.6743011735796,39.7000012704,0.0,0.513546016433472,1811.6743011735796,39.7000012704,0.35999970196000003,0.672402021516864,1684,-14.1,99,P-GPS,
0.354551110489319,36.8879999848783,13200,2018-04-19 05:32:16,1812.1743011895794,40.2000012864,0.0,0.508949016286368,1812.1743011895794,40.2000012864,0.35999970196000003,0.672402021516864,1684,-14.1,99,P-GPS,
0.354551075821375,36.887999986042104,13300,2018-04-19 05:32:17,1812.6743012055797,40.7000013024,0.0,0.506091016194912,1812.6743012055797,40.7000013024,0.35999970196000003,0.672402021516864,1684,-14.1,99,P-GPS,
0.35455102924299103,36.8879999683274,13400,2018-04-19 05:32:17,1813.1743012215795,41.200001318400005,0.0,0.500874016027968,1813.1743012215795,41.200001318400005,0.35999970196000003,0.672402021516864,1684,-14.1,99,P-GPS,
0.354551007609112,36.887999972749,13500,2018-04-19 05:32:17,1813.6743012375796,41.7000013344,0.0,0.49937201597990405,1813.6743012375796,41.7000013344,0.35999970196000003,0.672402021516864,1684,-14.1,99,P-GPS,
0.354551004936836,36.8880000057871,13600,2018-04-19 05:32:17,1814.1743012535796,42.2000013504,0.0,0.5015590160498881,1814.1743012535796,42.2000013504,0.35999970196000003,0.672402021516864,1684,-14.1,99,P-GPS,
0.354551013583873,36.888000054889496,13700,2018-04-19 05:32:17,1814.7743012727794,42.800001369600004,0.0,0.50589001618848,1814.7743012727794,42.800001369600004,0.35999970196000003,0.672402021516864,1684,-14.1,99,P-GPS,
0.354550989805334,36.8880000821951,13800,2018-04-19 05:32:17,1815.2743012887797,43.300001385600005,0.0,0.505944016190208,1815.2743012887797,43.300001385600005,0.35999970196000003,0.672402021516864,1684,-14.1,99,P-GPS,
0.354550980130748,36.8880001160335,13900,2018-04-19 05:32:17,1815.7743013047796,43.80000140159999,0.0,0.5076770162456641,1815.7743013047796,43.80000140159999,0.35999970196000003,0.672402021516864,1684,-14.1,99,P-GPS,
0.35455093202814103,36.8880001154243,14000,2018-04-19 05:32:17,1816.2743013207796,44.30000141760001,0.0,0.503696016118272,1816.2743013207796,44.30000141760001,0.35999970196000003,0.672402021516864,1684,-14.1,99,P-GPS,
0.35455089966281705,36.888000124581204,14100,2018-04-19 05:32:17,1816.7743013367794,44.80000143360001,0.0,0.501759016056288,1816.7743013367794,44.80000143360001,0.35999970196000003,0.672402021516864,1684,-14.1,99,P-GPS,
0.354550868982932,36.8880001449568,14200,2018-04-19 05:32:17,1817.2743013527797,45.3000014496,0.0,0.50084001602688,1817.2743013527797,45.3000014496,0.35999970196000003,0.672402021516864,1684,-14.1,99,P-GPS,
0.35455086072509207,36.888000185723,14300,2018-04-19 05:32:17,1817.7743013687796,45.800001465600005,0.0,0.50332001610624,1817.7743013687796,45.800001465600005,0.35999970196000003,0.672402021516864,1684,-14.1,99,P-GPS,
0.354550857215795,36.888000205558,14400,2018-04-19 05:32:18,1818.2743013847796,46.3000014816,0.0,0.504579016146528,1818.2743013847796,46.3000014816,0.35999970196000003,0.672402021516864,1684,-14.1,99,P-GPS,
0.35455086909855105,36.8880002355101,14500,2018-04-19 05:32:18,1818.7743014007797,46.80000149760001,0.0,0.5078530162512961,1818.7743014007797,46.80000149760001,0.35999970196000003,0.672402021516864,1684,-14.1,99,P-GPS,
0.35455087681574704,36.8880002684963,14600,2018-04-19 05:32:18,1819.3743014199795,47.400001516799996,0.0,0.5110400163532801,1819.3743014199795,47.400001516799996,0.35999970196000003,0.672402021516864,1684,-14.1,99,P-GPS,
0.354550892754957,36.888000307020604,14700,2018-04-19 05:32:18,1819.8743014359798,47.900001532800005,0.0,0.5153170164901439,1819.8743014359798,47.900001532800005,0.35999970196000003,0.672402021516864,1684,-14.1,99,P-GPS,
0.35455089564381703,36.888000309313895,14800,2018-04-19 05:32:18,1820.3743014519796,48.4000015488,0.0,0.5157240165031681,1820.3743014519796,48.4000015488,0.35999970196000003,0.672402021516864,1684,-14.1,99,P-GPS,
0.354550906624415,36.8880003248761,14900,2018-04-19 05:32:18,1820.8743014679796,48.9000015648,0.0,0.517811016569952,1820.8743014679796,48.9000015648,0.35999970196000003,0.672402021516864,1684,-14.1,99,P-GPS,
0.354550906344322,36.8880003458651,15000,2018-04-19 05:32:18,1821.3743014839795,49.4000015808,0.0,0.5194400166220801,1821.3743014839795,49.4000015808,0.35999970196000003,0.672402021516864,1684,-14.1,99,P-GPS,
0.354550916196409,36.8880003772979,15100,2018-04-19 05:32:18,1821.8743014999798,49.900001596799996,0.0,0.5226930167261761,1821.8743014999798,49.900001596799996,0.35999970196000003,0.672402021516864,1684,-14.2,99,P-GPS,
0.3545508769036829,36.8880003811435,15200,2018-04-19 05:32:18,1822.3743015159796,50.40000161280001,0.0,0.519936016637952,1822.3743015159796,50.40000161280001,0.35999970196000003,0.672402021516864,1684,-14.3,99,P-GPS,
0.35455085215622,36.888000395846,15300,2018-04-19 05:32:19,1822.8743015319794,50.9000016288,0.0,0.519192016614144,1822.8743015319794,50.9000016288,0.35999970196000003,0.672402021516864,1684,-14.5,99,P-GPS,
0.35455081623437396,36.888000430992705,15400,2018-04-19 05:32:19,1823.3743015479797,51.4000016448,0.0,0.519262016616384,1823.3743015479797,51.4000016448,0.35999970196000003,0.672402021516864,1684,-14.8,99,P-GPS,
0.354550807429377,36.8880004837175,15500,2018-04-19 05:32:19,1823.8743015639795,51.90000166080001,0.0,0.522875016732,1823.8743015639795,51.90000166080001,0.35999970196000003,0.672402021516864,1684,-15.2,99,P-GPS,
0.35455079469006,36.8880004944652,15600,2018-04-19 05:32:19,1824.3743015799796,52.400001676799995,0.0,0.5227920167293441,1824.3743015799796,52.400001676799995,0.35999970196000003,0.672402021516864,1684,-15.6,99,P-GPS,
0.354550790016426,36.888000497238004,15700,2018-04-19 05:32:19,1824.8743015959797,52.90000169280001,0.0,0.522667016725344,1824.8743015959797,52.90000169280001,0.35999970196000003,0.672402021516864,1684,-15.9,99,P-GPS,
0.3545507721654221,36.8880005039721,15800,2018-04-19 05:32:19,1825.3743016119797,53.400001708800005,0.0,0.521879016700128,1825.3743016119797,53.400001708800005,0.35999970196000003,0.672402021516864,1684,-16.3,99,P-GPS,
0.35455076527221896,36.888000527600205,15900,2018-04-19 05:32:19,1825.9743016311797,54.00000172800001,0.0,0.52331001674592,1825.9743016311797,54.00000172800001,0.35999970196000003,0.672402021516864,1684,-16.4,99,P-GPS,
0.35455078684421704,36.8880005389367,16000,2018-04-19 05:32:19,1826.4743016471796,54.500001744,0.0,0.52585501682736,1826.4743016471796,54.500001744,0.35999970196000003,0.672402021516864,1684,-16.4,99,P-GPS,
0.35455081689226503,36.8880005642639,16100,2018-04-19 05:32:19,1826.9743016631796,55.00000176,0.0,0.530186016965952,1826.9743016631796,55.00000176,0.35999970196000003,0.672402021516864,1684,-16.4,99,P-GPS,
0.35455084285454797,36.8880005762535,16200,2018-04-19 05:32:19,1827.4743016791795,55.500001776,0.0,0.5331160170597121,1827.4743016791795,55.500001776,0.35999970196000003,0.672402021516864,1684,-16.5,99,P-GPS,
0.354550872280531,36.888000596653704,16300,2018-04-19 05:32:19,1827.9743016951797,56.000001792,0.0,0.536998017183936,1827.9743016951797,56.000001792,0.35999970196000003,0.672402021516864,1684,-16.4,99,P-GPS,
0.354550886531044,36.888000590186294,16400,2018-04-19 05:32:20,1828.4743017111796,56.50000180800001,0.0,0.5375400172012801,1828.4743017111796,56.50000180800001,0.35999970196000003,0.672402021516864,1684,-16.4,99,P-GPS,
0.35455090612773904,36.8880005986279,16500,2018-04-19 05:32:20,1828.9743017271796,57.000001824,0.0,0.5397080172706561,1828.9743017271796,57.000001824,0.35999970196000003,0.672402021516864,1684,-16.5,99,P-GPS,
0.35455090170488596,36.8880005771367,16600,2018-04-19 05:32:20,1829.4743017431797,57.50000184,0.0,0.537621017203872,1829.4743017431797,57.50000184,0.35999970196000003,0.672402021516864,1684,-16.5,99,P-GPS,
0.3545508949663839,36.8880005641386,16700,2018-04-19 05:32:20,1829.9743017591795,58.000001856,0.0,0.536053017153696,1829.9743017591795,58.000001856,0.35999970196000003,0.672402021516864,1684,-16.5,99,P-GPS,
0.354550906415974,36.8880005320528,16800,2018-04-19 05:32:20,1830.4743017751796,58.500001872,0.0,0.534319017098208,1830.4743017751796,58.500001872,0.35999970196000003,0.672402021516864,1684,-16.6,99,P-GPS,
0.35455092834785795,36.8880005187346,16900,2018-04-19 05:32:20,1830.9743017911796,59.000001888,0.0,0.5349210171174721,1830.9743017911796,59.000001888,0.35999970196000003,0.672402021516864,1684,-16.6,99,P-GPS,
0.354550946545719,36.888000499906,17000,2018-04-19 05:32:20,1831.5743018103797,59.6000019072,0.0,0.534809017113888,1831.5743018103797,59.6000019072,0.35999970196000003,0.672402021516864,1684,-16.7,99,P-GPS,
0.35455096797929897,36.888000496786205,17100,2018-04-19 05:32:20,1832.0743018263795,60.100001923200004,0.0,0.53621501715888,1832.0743018263795,60.100001923200004,0.35999970196000003,0.672402021516864,1684,-16.7,99,P-GPS,
0.354550971613986,36.8880004558648,17200,2018-04-19 05:32:20,1832.5743018423798,60.600001939200006,0.0,0.533242017063744,1832.5743018423798,60.600001939200006,0.35999970196000003,0.672402021516864,1684,-16.8,99,P-GPS,
0.3545509786928321,36.8880004261825,17300,2018-04-19 05:32:20,1833.0743018583796,61.10000195520001,0.0,0.5314470170063039,1833.0743018583796,61.10000195520001,0.35999970196000003,0.672402021516864,1684,-16.9,99,P-GPS,
0.35455097065809005,36.8880003945955,17400,2018-04-19 05:32:21,1833.5743018743794,61.6000019712,0.0,0.528328016906496,1833.5743018743794,61.6000019712,0.35999970196000003,0.672402021516864,1684,-17.1,99,P-GPS,
0.35455096998879904,36.8880003852888,17500,2018-04-19 05:32:21,1834.0743018903797,62.1000019872,0.0,0.527544016881408,1834.0743018903797,62.1000019872,0.35999970196000003,0.672402021516864,1684,-17.4,99,P-GPS,
0.35455099447408295,36.888000340949,17600,2018-04-19 05:32:21,1834.5743019063796,62.600002003200004,0.0,0.526018016832576,1834.5743019063796,62.600002003200004,0.35999970196000003,0.672402021516864,1684,-17.7,99,P-GPS,
0.35455101784714,36.8880003148499,17700,2018-04-19 05:32:21,1835.0743019223796,63.100002019200005,0.0,0.5258640168276479,1835.0743019223796,63.100002019200005,0.35999970196000003,0.672402021516864,1684,-18.0,99,P-GPS,
0.354551032732746,36.8880002907829,17800,2018-04-19 05:32:21,1835.5743019383797,63.600002035200006,0.0,0.52521001680672,1835.5743019383797,63.600002035200006,0.35999970196000003,0.672402021516864,1684,-18.3,99,P-GPS,
0.35455104940149895,36.888000288741296,17900,2018-04-19 05:32:21,1836.0743019543797,64.1000020512,0.0,0.5263980168447361,1836.0743019543797,64.1000020512,0.35999970196000003,0.672402021516864,1684,-18.5,99,P-GPS,
0.35455101333960704,36.8880002572496,18000,2018-04-19 05:32:21,1836.5743019703796,64.60000206720001,0.0,0.521078016674496,1836.5743019703796,64.60000206720001,0.35999970196000003,0.672402021516864,1684,-18.6,99,P-GPS,
0.354550983042406,36.888000247514704,18100,2018-04-19 05:32:21,1837.0743019863799,65.1000020832,0.0,0.51789001657248,1837.0743019863799,65.1000020832,0.35999970196000003,0.672402021516864,1684,-18.6,99,P-GPS,
0.35455097587888107,36.8880001988175,18200,2018-04-19 05:32:21,1837.5743020023797,65.60000209920001,0.0,0.5135890164348481,1837.5743020023797,65.60000209920001,0.35999970196000003,0.672402021516864,1684,-18.6,99,P-GPS,
0.35455097267410296,36.88800017102479,18300,2018-04-19 05:32:21,1838.0743020183795,66.10000211520001,0.0,0.511216016358912,1838.0743020183795,66.10000211520001,0.35999970196000003,0.672402021516864,1684,-18.6,99,P-GPS,
0.354550932966125,36.8880001347358,18400,2018-04-19 05:32:22,1838.5743020343796,66.6000021312,0.0,0.5052350161675201,1838.5743020343796,66.6000021312,0.35999970196000003,0.672402021516864,1684,-18.6,99,P-GPS,
0.35455089916125604,36.8880001190836,18500,2018-04-19 05:32:22,1839.0743020503796,67.10000214720002,0.0,0.5013000160416,1839.0743020503796,67.10000214720002,0.35999970196000003,0.672402021516864,1684,-18.6,99,P-GPS,
0.35455087265995794,36.888000063105295,18600,2018-04-19 05:32:22,1839.5743020663797,67.60000216319999,0.0,0.494899015836768,1839.5743020663797,67.60000216319999,0.35999970196000003,0.672402021516864,1684,-18.6,99,P-GPS,
0.35455085162534705,36.8880000258442,18700,2018-04-19 05:32:22,1840.0743020823795,68.1000021792,0.0,0.490368015691776,1840.0743020823795,68.1000021792,0.35999970196000003,0.672402021516864,1684,-18.6,99,P-GPS,
0.35455083839586793,36.8879999539675,18800,2018-04-19 05:32:22,1840.5743020983798,68.6000021952,0.0,0.48389101548451197,1840.5743020983798,68.6000021952,0.35999970196000003,0.672402021516864,1684,-18.6,99,P-GPS,
0.35455082744132504,36.8879999137419,18900,2018-04-19 05:32:22,1841.0743021143796,69.1000022112,0.0,0.479993015359776,1841.0743021143796,69.1000022112,0.35999970196000003,0.672402021516864,1684,-18.6,99,P-GPS,
0.35455079593419103,36.8879998532376,19000,2018-04-19 05:32:22,1841.5743021303795,69.60000222720001,0.0,0.472903015132896,1841.5743021303795,69.60000222720001,0.35999970196000003,0.672402021516864,1684,-18.6,99,P-GPS,
0.35455077823137604,36.8879998290534,19100,2018-04-19 05:32:22,1842.0743021463798,70.1000022432,0.0,0.469647015028704,1842.0743021463798,70.1000022432,0.35999970196000003,0.672402021516864,1684,-18.6,99,P-GPS,
0.354550742929967,36.8879998146891,19200,2018-04-19 05:32:22,1842.5743021623796,70.60000225920001,0.0,0.46564901490076804,1842.5743021623796,70.60000225920001,0.35999970196000003,0.672402021516864,1684,-18.6,99,P-GPS,
0.35455071795940707,36.887999811313,19300,2018-04-19 05:32:22,1843.1743021815796,71.2000022784,0.0,0.4633250148264001,1843.1743021815796,71.2000022784,0.35999970196000003,0.672402021516864,1684,-18.6,99,P-GPS,
0.35455070090959795,36.887999763892005,19400,2018-04-19 05:32:23,1843.6743021975797,71.7000022944,0.0,0.45840601466899206,1843.6743021975797,71.7000022944,0.35999970196000003,0.672402021516864,1684,-18.6,99,P-GPS,
0.354550695964014,36.8879997346154,19500,2018-04-19 05:32:23,1844.1743022135797,72.2000023104,0.0,0.455843014586976,1844.1743022135797,72.2000023104,0.35999970196000003,0.672402021516864,1684,-18.6,99,P-GPS,
0.354550695301237,36.8879997061974,19600,2018-04-19 05:32:23,1844.6743022295796,72.70000232640001,0.0,0.45371301451881607,1844.6743022295796,72.70000232640001,0.35999970196000003,0.672402021516864,1684,-18.6,99,P-GPS,
0.35455069953682,36.887999703695996,19700,2018-04-19 05:32:23,1845.1743022455796,73.2000023424,0.0,0.45388701452438396,1845.1743022455796,73.2000023424,0.35999970196000003,0.672402021516864,1684,-18.6,99,P-GPS,
0.35455070531128297,36.8879996687849,19800,2018-04-19 05:32:23,1845.6743022615797,73.7000023584,0.0,0.451848014459136,1845.6743022615797,73.7000023584,0.35999970196000003,0.672402021516864,1684,-18.6,99,P-GPS,
0.35455071531807103,36.887999650604,19900,2018-04-19 05:32:23,1846.1743022775795,74.2000023744,0.0,0.45139101444451196,1846.1743022775795,74.2000023744,0.35999970196000003,0.672402021516864,1684,-18.6,99,P-GPS,
0.35455071753601203,36.8879995968552,20000,2018-04-19 05:32:23,1846.6743022935798,74.7000023904,0.0,0.44775301432809606,1846.6743022935798,74.7000023904,0.35999970196000003,0.672402021516864,1684,-18.6,99,P-GPS,
0.35455071861729803,36.8879995723529,20100,2018-04-19 05:32:23,1847.1743023095796,75.20000240640002,0.0,0.446118014275776,1847.1743023095796,75.20000240640002,0.35999970196000003,0.672402021516864,1684,-18.6,99,P-GPS,
0.35455068056870404,36.88799951580771,20200,2018-04-19 05:32:23,1847.6743023255797,75.7000024224,0.0,0.43887001404384,1847.6743023255797,75.7000024224,0.35999970196000003,0.672402021516864,1684,-18.6,99,P-GPS,
0.354550654259563,36.887999492015794,20300,2018-04-19 05:32:23,1848.1743023415795,76.2000024384,0.0,0.43493101391779204,1848.1743023415795,76.2000024384,0.35999970196000003,0.672402021516864,1684,-18.6,99,P-GPS,
0.35455063235699197,36.887999468389296,20400,2018-04-19 05:32:24,1848.6743023575798,76.70000245439999,0.0,0.431386013804352,1848.6743023575798,76.70000245439999,0.35999970196000003,0.672402021516864,1684,-18.6,99,P-GPS,
0.354550619689326,36.8879994692367,20500,2018-04-19 05:32:24,1849.1743023735796,77.20000247040001,0.0,0.4303490137711681,1849.1743023735796,77.20000247040001,0.35999970196000003,0.672402021516864,1684,-18.6,99,P-GPS,
0.354550566276363,36.8879994211519,20600,2018-04-19 05:32:24,1849.6743023895795,77.70000248640001,0.0,0.422368013515776,1849.6743023895795,77.70000248640001,0.35999970196000003,0.672402021516864,1684,-18.6,99,P-GPS,
0.35455051829426,36.8879993947317,20700,2018-04-19 05:32:24,1850.1743024055797,78.20000250240001,0.0,0.416372013323904,1850.1743024055797,78.20000250240001,0.35999970196000003,0.672402021516864,1684,-18.6,99,P-GPS,
0.3545504815679629,36.8879993260389,20800,2018-04-19 05:32:24,1850.7743024247795,78.8000025216,0.0,0.408401013068832,1850.7743024247795,78.8000025216,0.35999970196000003,0.672402021516864,1684,-18.6,99,P-GPS,
0.354550465967469,36.887999286957296,20900,2018-04-19 05:32:24,1851.2743024407798,79.30000253760001,0.0,0.40434101293891195,1851.2743024407798,79.30000253760001,0.35999970196000003,0.672402021516864,1684,-18.6,99,P-GPS,
0.35455043540483205,36.8879992120989,21000,2018-04-19 05:32:24,1851.7743024567797,79.80000255360001,0.0,0.396542012689344,1851.7743024567797,79.80000255360001,0.35999970196000003,0.672402021516864,1684,-18.6,99,P-GPS,
0.354550421118493,36.88799917376829,21100,2018-04-19 05:32:24,1852.2743024727795,80.30000256960001,0.0,0.39269001256608,1852.2743024727795,80.30000256960001,0.35999970196000003,0.672402021516864,1684,-18.6,99,P-GPS,
0.35455038383689597,36.88799910779171,21200,2018-04-19 05:32:24,1852.7743024887798,80.80000258560001,0.0,0.384962012318784,1852.7743024887798,80.80000258560001,0.35999970196000003,0.672402021516864,1684,-18.6,99,P-GPS,
0.35455036446492605,36.887999073704904,21300,2018-04-19 05:32:24,1853.2743025047796,81.3000026016,0.0,0.380971012191072,1853.2743025047796,81.3000026016,0.35999970196000003,0.672402021516864,1684,-18.6,99,P-GPS,
0.354550354915731,36.8879990102083,21400,2018-04-19 05:32:25,1853.7743025207797,81.80000261760001,0.0,0.3759510120304321,1853.7743025207797,81.80000261760001,0.35999970196000003,0.672402021516864,1684,-18.6,99,P-GPS,
0.3545503616737729,36.8879989828202,21500,2018-04-19 05:32:25,1854.2743025367795,82.3000026336,0.0,0.374793011993376,1854.2743025367795,82.3000026336,0.35999970196000003,0.672402021516864,1684,-18.6,99,P-GPS,
0.35455036326639205,36.8879989623467,21600,2018-04-19 05:32:25,1854.7743025527798,82.8000026496,0.0,0.373627011956064,1854.7743025527798,82.8000026496,0.35999970196000003,0.672402021516864,1684,-18.6,99,P-GPS,
0.35455037223586106,36.8879989775304,21700,2018-04-19 05:32:25,1855.2743025687796,83.3000026656,0.0,0.37541301201321603,1855.2743025687796,83.3000026656,0.35999970196000003,0.672402021516864,1684,-18.6,99,P-GPS,
0.35455036816963703,36.8879989866669,21800,2018-04-19 05:32:25,1855.6743025815797,83.70000267840001,0.0,0.37563001202016,1855.6743025815797,83.70000267840001,0.35999970196000003,0.672402021516864,1684,-18.6,99,P-GPS,
0.35455033220545096,36.887998969152996,22000,2018-04-19 05:32:25,1856.6743026135798,84.70000271040001,0.0,0.371241011879712,1856.6743026135798,84.70000271040001,0.35999970196000003,0.672402021516864,1684,-18.6,99,P-GPS,
0.354550308461109,36.887998953207,22100,2018-04-19 05:32:25,1857.2743026327796,85.30000272960001,0.0,0.368061011777952,1857.2743026327796,85.30000272960001,0.35999970196000003,0.672402021516864,1684,-18.6,99,P-GPS,
0.354550284623946,36.8879989201185,22200,2018-04-19 05:32:25,1857.7743026487797,85.80000274560001,0.0,0.363771011640672,1857.7743026487797,85.80000274560001,0.35999970196000003,0.672402021516864,1684,-18.6,99,P-GPS,
0.354550279276136,36.887998911019004,22300,2018-04-19 05:32:25,1858.2743026647797,86.3000027616,0.0,0.36270301160649604,1858.2743026647797,86.3000027616,0.35999970196000003,0.672402021516864,1684,-18.6,99,P-GPS,
0.354550272150065,36.887998881883796,22400,2018-04-19 05:32:26,1858.7743026807796,86.80000277760001,0.0,0.36019801152633607,1858.7743026807796,86.80000277760001,0.35999970196000003,0.672402021516864,1684,-18.6,99,P-GPS,
0.35455027802874794,36.88799887851779,22500,2018-04-19 05:32:26,1859.2743026967794,87.3000027936,0.0,0.360522011536704,1859.2743026967794,87.3000027936,0.35999970196000003,0.672402021516864,1684,-18.6,99,P-GPS,
0.35455027086522206,36.8879988359626,22600,2018-04-19 05:32:26,1859.7743027127797,87.8000028096,0.0,0.35719301143017607,1859.7743027127797,87.8000028096,0.35999970196000003,0.672402021516864,1684,-18.6,99,P-GPS,
0.354550273587981,36.8879988266789,22700,2018-04-19 05:32:26,1860.2743027287795,88.3000028256,0.0,0.356867011419744,1860.2743027287795,88.3000028256,0.35999970196000003,0.672402021516864,1684,-18.6,98,P-GPS,
0.35455023082178494,36.8879987747506,22800,2018-04-19 05:32:26,1860.7743027447796,88.8000028416,0.0,0.3497040111905281,1860.7743027447796,88.8000028416,0.35999970196000003,0.672402021516864,1684,-18.6,98,P-GPS,
0.35455019798258297,36.887998754048,22900,2018-04-19 05:32:26,1861.2743027607796,89.3000028576,0.0,0.34538801105241607,1861.2743027607796,89.3000028576,0.35999970196000003,0.672402021516864,1684,-18.6,98,P-GPS,
0.354550123403105,36.887998687563794,23000,2018-04-19 05:32:26,1861.7743027767797,89.8000028736,0.0,0.33439301070057603,1861.7743027767797,89.8000028736,0.35999970196000003,0.672402021516864,1684,-18.6,98,P-GPS,
0.354550074435794,36.8879986547784,23100,2018-04-19 05:32:26,1862.2743027927795,90.30000288960001,0.0,0.32784001049088,1862.2743027927795,90.30000288960001,0.35999970196000003,0.672402021516864,1684,-18.6,98,P-GPS,
0.35455000868573905,36.887998615863204,23200,2018-04-19 05:32:26,1862.7743028087798,90.80000290560001,0.0,0.319353010219296,1862.7743028087798,90.80000290560001,0.35999970196000003,0.672402021516864,1684,-18.6,98,P-GPS,
0.354549962742448,36.8879986090157,23300,2018-04-19 05:32:26,1863.2743028247796,91.3000029216,0.0,0.31467601006963203,1863.2743028247796,91.3000029216,0.35999970196000003,0.672402021516864,1684,-18.8,98,P-GPS,
0.35454991561039395,36.8879985589658,23400,2018-04-19 05:32:27,1863.7743028407795,91.8000029376,0.0,0.307229009831328,1863.7743028407795,91.8000029376,0.35999970196000003,0.672402021516864,1684,-19.5,98,P-GPS,
0.354549878617032,36.8879985424497,23500,2018-04-19 05:32:27,1864.2743028567797,92.3000029536,0.0,0.30278500968912,1864.2743028567797,92.3000029536,0.35999970196000003,0.672402021516864,1684,-20.3,98,P-GPS,
0.354549808452265,36.887998479093795,23600,2018-04-19 05:32:27,1864.7743028727796,92.8000029696,0.0,0.292391009356512,1864.7743028727796,92.8000029696,0.35999970196000003,0.672402021516864,1684,-21.3,98,P-GPS,
0.354549748001167,36.8879984495491,23700,2018-04-19 05:32:27,1865.3743028919796,93.4000029888,0.0,0.28497000911904,1865.3743028919796,93.4000029888,0.35999970196000003,0.672402021516864,1684,-22.4,98,P-GPS,
0.354549705510178,36.8879984015938,23800,2018-04-19 05:32:27,1865.8743029079797,93.9000030048,0.0,0.27809300889897604,1865.8743029079797,93.9000030048,0.35999970196000003,0.672402021516864,1684,-22.8,98,P-GPS,
0.354549678580599,36.8879983731721,23900,2018-04-19 05:32:27,1866.2743029207797,94.3000030176,0.0,0.27386000876352,1866.2743029207797,94.3000030176,0.35999970196000003,0.672402021516864,1684,-22.8,98,P-GPS,
0.35454965353838797,36.887998297526295,24000,2018-04-19 05:32:27,1866.8743029399795,94.9000030368,0.0,0.26701000854432,1866.8743029399795,94.9000030368,0.35999970196000003,0.672402021516864,1684,-22.8,98,P-GPS,
0.354549646226674,36.8879982530655,24100,2018-04-19 05:32:27,1867.3743029559798,95.40000305279999,0.0,0.263747008439904,1867.3743029559798,95.40000305279999,0.35999970196000003,0.672402021516864,1684,-22.8,98,P-GPS,
0.35454962653390104,36.8879981740564,24200,2018-04-19 05:32:27,1867.8743029719797,95.90000306880002,0.0,0.257437008237984,1867.8743029719797,95.90000306880002,0.35999970196000003,0.672402021516864,1684,-22.8,98,P-GPS,
0.354549611780198,36.88799813882421,24300,2018-04-19 05:32:27,1868.3743029879795,96.40000308479999,0.0,0.25409500813104,1868.3743029879795,96.40000308479999,0.35999970196000003,0.672402021516864,1684,-22.8,98,P-GPS,
0.354549598057301,36.8879980531196,24400,2018-04-19 05:32:28,1868.8743030039798,96.90000310079999,0.0,0.248273007944736,1868.8743030039798,96.90000310079999,0.35999970196000003,0.672402021516864,1684,-22.8,98,P-GPS,
0.354549589701754,36.887998014398704,24500,2018-04-19 05:32:28,1869.3743030199796,97.40000311680002,0.0,0.24550700785622404,1869.3743030199796,97.40000311680002,0.35999970196000003,0.672402021516864,1684,-22.8,98,P-GPS,
0.354549554686952,36.88799794912121,24600,2018-04-19 05:32:28,1869.8743030359797,97.9000031328,0.0,0.23884600764307198,1869.8743030359797,97.9000031328,0.35999970196000003,0.672402021516864,1684,-22.8,98,P-GPS,
0.35454954267391997,36.8879979134585,24700,2018-04-19 05:32:28,1870.3743030519795,98.40000314880001,0.0,0.23597000755104003,1870.3743030519795,98.40000314880001,0.35999970196000003,0.672402021516864,1684,-22.8,98,P-GPS,
0.35454951027602705,36.887997836078895,24800,2018-04-19 05:32:28,1870.8743030679798,98.90000316480001,0.0,0.22921700733494402,1870.8743030679798,98.90000316480001,0.35999970196000003,0.672402021516864,1684,-22.8,98,P-GPS,
0.354549496157418,36.8879977885374,24900,2018-04-19 05:32:28,1871.3743030839796,99.40000318080001,0.0,0.225757007224224,1871.3743030839796,99.40000318080001,0.35999970196000003,0.672402021516864,1684,-22.8,98,P-GPS,
0.35454948797611496,36.8879977083919,25000,2018-04-19 05:32:28,1871.8743030999794,99.90000319680001,0.0,0.22174900709596806,1871.8743030999794,99.90000319680001,0.35999970196000003,0.672402021516864,1684,-22.8,98,P-GPS,
0.35454949662315294,36.88799767037929,25100,2018-04-19 05:32:28,1872.4743031191797,100.50000321600001,0.0,0.221269007080608,1872.4743031191797,100.50000321600001,0.35999970196000003,0.672402021516864,1684,-22.8,98,P-GPS,
0.35454949252273105,36.8879976113438,25200,2018-04-19 05:32:28,1872.9743031351795,101.00000323200001,0.0,0.218827007002464,1872.9743031351795,101.00000323200001,0.35999970196000003,0.672402021516864,1684,-22.8,98,P-GPS,
0.354549488176414,36.887997590584995,25300,2018-04-19 05:32:28,1873.4743031511798,101.50000324800001,0.0,0.217699006966368,1873.4743031511798,101.50000324800001,0.35999970196000003,0.672402021516864,1684,-22.8,98,P-GPS,
0.354549462977871,36.8879975421955,25400,2018-04-19 05:32:29,1873.9743031671796,102.000003264,0.0,0.21353100683299203,1873.9743031671796,102.000003264,0.35999970196000003,0.672402021516864,1684,-22.8,98,P-GPS,
0.35454944506010205,36.8879975310726,25500,2018-04-19 05:32:29,1874.4743031831795,102.50000328,0.0,0.21128300676105602,1874.4743031831795,102.50000328,0.35999970196000003,0.672402021516864,1684,-22.8,98,P-GPS,
0.35454945682072403,36.8879974850759,25600,2018-04-19 05:32:29,1874.9743031991795,103.00000329600002,0.0,0.211278006760896,1874.9743031991795,103.00000329600002,0.35999970196000003,0.672402021516864,1684,-22.8,98,P-GPS,
0.354549472637801,36.8879974784002,25700,2018-04-19 05:32:29,1875.4743032151796,103.500003312,0.0,0.212814006810048,1875.4743032151796,103.500003312,0.35999970196000003,0.672402021516864,1684,-22.8,98,P-GPS,
0.3545494577603371,36.8879974223395,25800,2018-04-19 05:32:29,1875.9743032311796,104.000003328,0.0,0.20983900671484806,1875.9743032311796,104.000003328,0.35999970196000003,0.672402021516864,1684,-22.8,98,P-GPS,
0.354549451474543,36.8879974004532,25900,2018-04-19 05:32:29,1876.4743032471795,104.500003344,0.0,0.20866800667737603,1876.4743032471795,104.500003344,0.35999970196000003,0.672402021516864,1684,-22.8,98,P-GPS,
0.35454945286360495,36.887997332185996,26000,2018-04-19 05:32:29,1876.9743032631798,105.00000336000001,0.0,0.207478006639296,1876.9743032631798,105.00000336000001,0.35999970196000003,0.672402021516864,1684,-22.8,98,P-GPS,
0.35454946656859004,36.8879973091987,26100,2018-04-19 05:32:29,1877.4743032791796,105.50000337600001,0.0,0.20859400667500802,1877.4743032791796,105.50000337600001,0.35999970196000003,0.672402021516864,1684,-22.8,98,P-GPS,
0.35454951256887607,36.887997269638,26200,2018-04-19 05:32:29,1877.9743032951794,106.00000339200001,0.0,0.21307400681836802,1877.9743032951794,106.00000339200001,0.35999970196000003,0.672402021516864,1684,-22.8,98,P-GPS,
0.35454955963416496,36.8879972599608,26300,2018-04-19 05:32:29,1878.4743033111797,106.50000340800001,0.0,0.218144006980608,1878.4743033111797,106.50000340800001,0.35999970196000003,0.672402021516864,1684,-22.8,98,P-GPS,
0.35454958463078,36.8879972331424,26400,2018-04-19 05:32:30,1878.9743033271795,107.000003424,0.0,0.22058900705884804,1878.9743033271795,107.000003424,0.35999970196000003,0.672402021516864,1684,-22.8,98,P-GPS,
0.354549607355716,36.8879972379938,26500,2018-04-19 05:32:30,1879.4743033431796,107.50000344,0.0,0.22315700714102404,1879.4743033431796,107.50000344,0.35999970196000003,0.672402021516864,1684,-22.8,98,P-GPS,
0.35454961338747204,36.8879972028535,26600,2018-04-19 05:32:30,1880.0743033623796,108.10000345920001,0.0,0.22346500715088,1880.0743033623796,108.10000345920001,0.35999970196000003,0.672402021516864,1684,-22.8,98,P-GPS,
0.35454963131501205,36.8879972137549,26700,2018-04-19 05:32:30,1880.5743033783797,108.60000347520001,0.0,0.22555500721776003,1880.5743033783797,108.60000347520001,0.35999970196000003,0.672402021516864,1684,-22.8,98,P-GPS,
0.35454963009367896,36.8879971787512,26800,2018-04-19 05:32:30,1881.0743033943795,109.1000034912,0.0,0.225111007203552,1881.0743033943795,109.1000034912,0.35999970196000003,0.672402021516864,1684,-22.8,98,P-GPS,
0.35454964135274103,36.8879971954477,26900,2018-04-19 05:32:30,1881.5743034103798,109.6000035072,0.0,0.226498007247936,1881.5743034103798,109.6000035072,0.35999970196000003,0.672402021516864,1684,-22.8,98,P-GPS,
0.354549633129099,36.887997193524896,27000,2018-04-19 05:32:30,1882.0743034263796,110.1000035232,0.0,0.22557000721824,1882.0743034263796,110.1000035232,0.35999970196000003,0.672402021516864,1684,-22.8,98,P-GPS,
0.354549633396164,36.8879972248929,27100,2018-04-19 05:32:30,1882.5743034423795,110.6000035392,0.0,0.22589800722873601,1882.5743034423795,110.6000035392,0.35999970196000003,0.672402021516864,1684,-22.8,98,P-GPS,
0.35454961654502504,36.8879972087011,27200,2018-04-19 05:32:30,1883.0743034583797,111.1000035552,0.0,0.22387000716384,1883.0743034583797,111.1000035552,0.35999970196000003,0.672402021516864,1684,-22.8,98,P-GPS,
0.35454961491983794,36.8879972274291,27300,2018-04-19 05:32:30,1883.5743034743796,111.6000035712,0.0,0.22387900716412806,1883.5743034743796,111.6000035712,0.35999970196000003,0.672402021516864,1684,-22.8,98,P-GPS,
0.354549639440948,36.887997172122,27400,2018-04-19 05:32:31,1884.0743034903796,112.1000035872,0.0,0.226097007235104,1884.0743034903796,112.1000035872,0.35999970196000003,0.672402021516864,1684,-22.8,98,P-GPS,
0.35454967851546204,36.8879971661631,27500,2018-04-19 05:32:31,1884.5743035063797,112.6000036032,0.0,0.23039000737248003,1884.5743035063797,112.6000036032,0.35999970196000003,0.672402021516864,1684,-22.8,98,P-GPS,
0.35454974525723904,36.887997126673,27600,2018-04-19 05:32:31,1885.0743035223798,113.1000036192,0.0,0.23757000760224,1885.0743035223798,113.1000036192,0.35999970196000003,0.672402021516864,1684,-22.8,98,P-GPS,
0.354549818584444,36.8879971365182,27700,2018-04-19 05:32:31,1885.5743035383796,113.60000363520003,0.0,0.24576500786448005,1885.5743035383796,113.60000363520003,0.35999970196000003,0.672402021516864,1684,-22.8,98,P-GPS,
0.354549900483778,36.8879970751136,27800,2018-04-19 05:32:31,1886.0743035543794,114.1000036512,0.0,0.254654008148928,1886.0743035543794,114.1000036512,0.35999970196000003,0.672402021516864,1684,-22.8,98,P-GPS,
0.354549969396271,36.88799707101,27900,2018-04-19 05:32:31,1886.6743035735797,114.70000367040001,0.0,0.262309008393888,1886.6743035735797,114.70000367040001,0.35999970196000003,0.672402021516864,1684,-22.8,98,P-GPS,
0.354550020174411,36.887996998302995,28000,2018-04-19 05:32:31,1887.1743035895795,115.20000368640001,0.0,0.267958008574656,1887.1743035895795,115.20000368640001,0.35999970196000003,0.672402021516864,1684,-22.8,98,P-GPS,
0.35455005889066704,36.887996980644004,28100,2018-04-19 05:32:31,1887.6743036055798,115.70000370240001,0.0,0.2723000087136,1887.6743036055798,115.70000370240001,0.35999970196000003,0.672402021516864,1684,-22.8,98,P-GPS,
0.354550082449367,36.887996928393996,28200,2018-04-19 05:32:31,1888.1743036215796,116.20000371840001,0.0,0.27511000880352,1888.1743036215796,116.20000371840001,0.35999970196000003,0.672402021516864,1684,-22.8,98,P-GPS,
0.354550105112422,36.8879969288035,28300,2018-04-19 05:32:31,1888.6743036375794,116.70000373439998,0.0,0.277626008884032,1888.6743036375794,116.70000373439998,0.35999970196000003,0.672402021516864,1684,-22.8,98,P-GPS,
0.35455013635574795,36.887996896199496,28400,2018-04-19 05:32:32,1889.1743036535797,117.20000375040001,0.0,0.28127300900073604,1889.1743036535797,117.20000375040001,0.35999970196000003,0.672402021516864,1684,-22.8,98,P-GPS,
0.354550163910649,36.8879969062246,28500,2018-04-19 05:32:32,1889.6743036695796,117.70000376640002,0.0,0.28427500909680004,1889.6743036695796,117.70000376640002,0.35999970196000003,0.672402021516864,1684,-22.8,98,P-GPS,
