latitude,longitude,time_millisecond,datetime_utc,altitude_m,ascent_m,speed_kph,distance_m,max_altitude_m,max_ascent_m,max_speed_kph,max_distance_m,rc_throttle,gimbal_pitch_degrees,battery_percent,flycState,message
0.0656895062273718,36.9677207659382,100,2017-11-03 04:40:15,1806.8128019179946,0.0,0.0,0.0,1806.8128019179946,0.0,0.0,0.0,1024,-0.6,89,Motors_Started,
0.0656894780390062,36.9677207356646,200,2017-11-03 04:40:16,1806.8128019179946,0.0,0.0,0.0046000501472016,1806.8128019179946,0.0,0.0,0.0046000501472016,1024,-0.6,89,Motors_Started,
0.065689462168191,36.9677207202382,300,2017-11-03 04:40:16,1806.8128019179946,0.0,0.0,0.0070593502258992,1806.8128019179946,0.0,0.0,0.0070593502258992,1024,-0.6,89,Motors_Started,
0.0656894479217487,36.9677207062485,400,2017-11-03 04:40:16,1806.8128019179946,0.0,0.0,0.009279150296932801,1806.8128019179946,0.0,0.0,0.009279150296932801,1024,-0.6,89,Motors_Started,
0.0656894408266182,36.9677207012939,500,2017-11-03 04:40:16,1806.8128019179946,0.0,0.0,0.0102262003272384,1806.8128019179946,0.0,0.0,0.0102262003272384,1024,-0.6,89,Motors_Started,
0.0656894196397476,36.9677206802802,600,2017-11-03 04:40:16,1806.8128019179946,0.0,0.0,0.0135447004334304,1806.8128019179946,0.0,0.0,0.0135447004334304,1024,-0.6,89,Motors_Started,
0.0656893891984298,36.9677206518806,700,2017-11-03 04:40:16,1806.8128019179946,0.0,0.0,0.0181729005815328,1806.8128019179946,0.0,0.0,0.0181729005815328,1024,-0.6,89,Motors_Started,
0.0656893601640875,36.9677206228002,800,2017-11-03 04:40:16,1806.8128019179946,0.0,0.0,0.022742400727756802,1806.8128019179946,0.0,0.0,0.022742400727756802,1024,-0.6,89,Motors_Started,
0.065689344882769,36.9677206087821,900,2017-11-03 04:40:16,1806.8128019179946,0.0,0.0,0.025047300801513604,1806.8128019179946,0.0,0.0,0.025047300801513604,1024,-0.6,89,Motors_Started,
0.0656893339990636,36.9677205972039,1000,2017-11-03 04:40:16,1806.8128019179946,0.0,0.0,0.0268129008580128,1806.8128019179946,0.0,0.0,0.0268129008580128,1024,-0.6,89,Motors_Started,
0.0656893311053186,36.9677205943074,1100,2017-11-03 04:40:16,1806.8128019179946,0.0,0.0,0.027268100872579203,1806.8128019179946,0.0,0.0,0.027268100872579203,1024,-0.6,89,Motors_Started,
0.0656893298343181,36.9677205915052,1200,2017-11-03 04:40:17,1806.8128019179946,0.0,0.0,0.0275875008828,1806.8128019179946,0.0,0.0,0.0275875008828,1024,-0.6,89,Motors_Started,Setting new Return-To-Home altitude to 30m (98 ft). Setting new Maximum Flight Altitude to 100m (328 ft)
0.0656893319374535,36.9677205932374,1300,2017-11-03 04:40:17,1806.8128019179946,0.0,0.0,0.0272857008731424,1806.8128019179946,0.0,0.0,0.0275875008828,1024,-0.6,89,Motors_Started,
0.0656893396285945,36.9677205807465,1400,2017-11-03 04:40:17,1806.8128019179946,0.0,0.0,0.027701500886448002,1806.8128019179946,0.0,0.0,0.027701500886448002,1024,-0.6,89,Motors_Started,
0.0656893460422212,36.9677205568016,1500,2017-11-03 04:40:17,1806.8128019179946,0.0,0.0,0.029295400937452802,1806.8128019179946,0.0,0.0,0.029295400937452802,1024,-0.6,89,Assisted_Takeoff,
0.0656893518069129,36.9677205288078,1600,2017-11-03 04:40:17,1806.8128019179946,0.0,0.0,0.0314689010070048,1806.8128019179946,0.0,0.0,0.0314689010070048,1024,-0.6,89,Assisted_Takeoff,
0.0656893590477892,36.9677205171637,1700,2017-11-03 04:40:17,1806.8128019179946,0.0,0.0,0.0321442010286144,1806.8128019179946,0.0,0.0,0.0321442010286144,1024,-0.6,89,Assisted_Takeoff,
0.0656893651552684,36.9677205059628,1800,2017-11-03 04:40:17,1806.8128019179946,0.0,0.0,0.032893001052576004,1806.8128019179946,0.0,0.0,0.032893001052576004,1024,-0.6,89,Assisted_Takeoff,
0.0656893715811084,36.9677205030498,1900,2017-11-03 04:40:17,1806.8128019179946,0.0,0.0,0.0328463010510816,1806.8128019179946,0.0,0.0,0.032893001052576004,1024,-0.6,89,Assisted_Takeoff,
0.0656893783692772,36.9677205023299,2000,2017-11-03 04:40:17,1806.8128019179946,0.0,0.0,0.0325811010425952,1806.8128019179946,0.0,0.0,0.032893001052576004,474,-0.6,89,Assisted_Takeoff,
0.0656893844539582,36.967720505723,2100,2017-11-03 04:40:17,1806.8128019179946,0.0,0.0,0.0319494010223808,1806.8128019179946,0.0,0.0,0.032893001052576004,768,-0.6,89,Assisted_Takeoff,
0.0656893894288546,36.967720510334,2200,2017-11-03 04:40:18,1806.8128019179946,0.0,0.0,0.0312517010000544,1806.8128019179946,0.0,0.0,0.032893001052576004,1024,-0.6,89,Assisted_Takeoff,
0.0656893945095999,36.967720516812,2300,2017-11-03 04:40:18,1806.8128019179946,0.0,0.0,0.0303624009715968,1806.8128019179946,0.0,0.0,0.032893001052576004,1024,-0.6,89,Assisted_Takeoff,
0.0656893971102249,36.9677205234378,2400,2017-11-03 04:40:18,1806.8128019179946,0.0,0.0,0.0295718009462976,1806.8128019179946,0.0,0.0,0.032893001052576004,1024,-0.6,89,Assisted_Takeoff,
0.0656894012782273,36.967720531284,2500,2017-11-03 04:40:18,1806.8128019179946,0.0,0.0,0.028586000914752,1806.8128019179946,0.0,0.0,0.032893001052576004,1024,-0.6,89,Assisted_Takeoff,
0.0656894031248828,36.9677205377294,2600,2017-11-03 04:40:18,1806.8128019179946,0.0,0.0,0.027848000891136003,1806.8128019179946,0.0,0.0,0.032893001052576004,1024,-0.6,89,Assisted_Takeoff,
0.0656894074598007,36.9677205451072,2700,2017-11-03 04:40:18,1806.8128019179946,0.0,0.0,0.026902100860867202,1806.8128019179946,0.0,0.0,0.032893001052576004,1024,-0.6,89,Assisted_Takeoff,
0.0656894094611584,36.9677205488296,2800,2017-11-03 04:40:18,1806.8128019179946,0.0,0.0,0.0264333008458656,1806.8128019179946,0.0,0.0,0.032893001052576004,1024,-0.6,89,Assisted_Takeoff,
0.0656894139165812,36.9677205546075,2900,2017-11-03 04:40:18,1806.8128019179946,0.0,0.0,0.025645500820656,1806.8128019179946,0.0,0.0,0.032893001052576004,1024,-0.6,89,Assisted_Takeoff,
0.0656894146599659,36.9677205572057,3000,2017-11-03 04:40:18,1806.8128019179946,0.0,0.0,0.025347600811123205,1806.8128019179946,0.0,0.0,0.032893001052576004,1024,-0.6,89,Assisted_Takeoff,
0.0656894177987917,36.9677205627556,3100,2017-11-03 04:40:18,1806.8128019179946,0.0,0.0,0.024642300788553603,1806.8128019179946,0.0,0.0,0.032893001052576004,1024,-0.6,89,Assisted_Takeoff,
0.0656894169837555,36.9677205646751,3200,2017-11-03 04:40:19,1806.8128019179946,0.0,0.0,0.0244833007834656,1806.8128019179946,0.0,0.0,0.032893001052576004,1024,-0.6,88,Assisted_Takeoff,
0.0656894190934047,36.9677205704193,3300,2017-11-03 04:40:19,1806.8128019179946,0.0,0.0,0.0238043007617376,1806.8128019179946,0.0,0.0,0.032893001052576004,1024,-0.6,88,Assisted_Takeoff,
0.065689418764459,36.9677205599796,3400,2017-11-03 04:40:19,1806.8128019179946,0.0,0.0,0.024883500796272003,1806.8128019179946,0.0,0.0,0.032893001052576004,1024,-0.6,88,Assisted_Takeoff,
0.0656894202691412,36.9677205342687,3500,2017-11-03 04:40:19,1806.8128019179946,0.0,0.0,0.027479300879337604,1806.8128019179946,0.0,0.0,0.032893001052576004,1024,-0.6,88,Assisted_Takeoff,
0.0656894168396382,36.9677204969936,3600,2017-11-03 04:40:19,1806.8128019179946,0.0,0.0,0.0315169010085408,1806.8128019179946,0.0,0.0,0.032893001052576004,1024,-0.6,88,Assisted_Takeoff,
0.0656894184029444,36.9677204840017,3700,2017-11-03 04:40:19,1806.8128019179946,0.0,0.0,0.032839001050848,1806.8128019179946,0.0,0.0,0.032893001052576004,1024,-0.6,88,Assisted_Takeoff,
0.06568941510046,36.9677204664036,3800,2017-11-03 04:40:19,1806.8128019179946,0.0,0.0,0.0348174011141568,1806.8128019179946,0.0,0.0,0.0348174011141568,1024,-0.6,88,Assisted_Takeoff,
0.0656894152405062,36.967720461123,3900,2017-11-03 04:40:19,1806.8128019179946,0.0,0.0,0.0353752011320064,1806.8128019179946,0.0,0.0,0.0353752011320064,1024,-0.6,88,Assisted_Takeoff,
0.0656894114942707,36.9677204527753,4000,2017-11-03 04:40:19,1806.8128019179946,0.0,0.0,0.0363842011642944,1806.8128019179946,0.0,0.0,0.0363842011642944,1024,-0.6,88,Assisted_Takeoff,
0.0656894126048695,36.9677204541263,4100,2017-11-03 04:40:19,1806.8128019179946,0.0,0.0,0.0362047011585504,1806.8128019179946,0.0,0.0,0.0363842011642944,1024,-0.6,88,Assisted_Takeoff,
0.0656893945486825,36.9677204541691,4200,2017-11-03 04:40:20,1806.8128019179946,0.0,0.0,0.0368279011784928,1806.8128019179946,0.0,0.0,0.0368279011784928,1024,-0.6,88,Assisted_Takeoff,
0.0656893655143403,36.9677204592597,4300,2017-11-03 04:40:20,1806.8128019179946,0.0,0.0,0.0375231012007392,1806.8128019179946,0.0,0.0,0.0375231012007392,1024,-0.6,88,Assisted_Takeoff,
0.0656893463125429,36.9677204428607,4400,2017-11-03 04:40:20,1806.8128019179946,0.0,0.0,0.040088501282832,1806.8128019179946,0.0,0.0,0.040088501282832,1024,-0.6,88,Assisted_Takeoff,
0.0656893575089096,36.9677204202315,4500,2017-11-03 04:40:20,1806.8128019179946,0.0,0.0,0.0418511013392352,1806.8128019179946,0.0,0.0,0.0418511013392352,1024,-0.6,88,Assisted_Takeoff,
0.0656893519200898,36.9677203914604,4600,2017-11-03 04:40:20,1806.8128019179946,0.0,0.0,0.0450411014413152,1806.8128019179946,0.0,0.0,0.0450411014413152,1024,-0.6,88,Assisted_Takeoff,
0.0656893315140581,36.9677203808056,4700,2017-11-03 04:40:20,1806.8128019179946,0.0,0.0,0.047030001504960006,1806.8128019179946,0.0,0.0,0.047030001504960006,1024,-0.6,88,Assisted_Takeoff,
0.0656893077167917,36.9677203673565,4800,2017-11-03 04:40:20,1806.8128019179946,0.0,0.0,0.04951780158456961,1806.8128019179946,0.0,0.0,0.04951780158456961,1024,-0.6,88,Assisted_Takeoff,
0.065689295750171,36.9677203650489,4900,2017-11-03 04:40:20,1806.8128019179946,0.0,0.0,0.050352301611273596,1806.8128019179946,0.0,0.0,0.050352301611273596,1024,-0.6,88,Assisted_Takeoff,
0.0656892831484571,36.9677203602035,5000,2017-11-03 04:40:20,1806.8128019179946,0.0,0.0,0.0514903016476896,1806.8128019179946,0.0,0.0,0.0514903016476896,1024,-0.6,88,Assisted_Takeoff,
0.0656892783258202,36.9677203632782,5100,2017-11-03 04:40:20,1806.8128019179946,0.0,0.0,0.051453001646496,1806.8128019179946,0.0,0.0,0.0514903016476896,1024,-0.6,88,Assisted_Takeoff,
0.0656892738264295,36.9677203634811,5200,2017-11-03 04:40:21,1806.8128019179946,0.0,0.0,0.0516817016538144,1806.8128019179946,0.0,0.0,0.0516817016538144,1024,-0.6,88,Assisted_Takeoff,
0.0656892734575869,36.9677203697696,5300,2017-11-03 04:40:21,1806.8128019179946,0.0,0.0,0.051098101635139205,1806.8128019179946,0.0,0.0,0.0516817016538144,1024,-0.6,88,Assisted_Takeoff,
0.0656892736757984,36.9677203558645,5400,2017-11-03 04:40:21,1806.8128019179946,0.0,0.0,0.052425201677606406,1806.8128019179946,0.0,0.0,0.052425201677606406,1024,-0.6,88,Assisted_Takeoff,
0.0656892758611702,36.9677203353561,5500,2017-11-03 04:40:21,1806.8128019179946,0.0,0.0,0.0543056017377792,1806.8128019179946,0.0,0.0,0.0543056017377792,1024,-0.6,88,Assisted_Takeoff,
0.0656892784976211,36.9677203050049,5600,2017-11-03 04:40:21,1806.8128019179946,0.0,0.0,0.0571734018295488,1806.8128019179946,0.0,0.0,0.0571734018295488,1024,-0.6,88,Assisted_Takeoff,
0.065689282550004,36.9677202947643,5700,2017-11-03 04:40:21,1806.8128019179946,0.0,0.0,0.0580019018560608,1806.8128019179946,0.0,0.0,0.0580019018560608,1024,-0.6,88,Assisted_Takeoff,
0.0656892856367196,36.9677202807013,5800,2017-11-03 04:40:21,1806.8128019179946,0.0,0.0,0.059275501896816005,1806.8128019179946,0.0,0.0,0.059275501896816005,1024,-0.6,88,Assisted_Takeoff,
0.0656892891101906,36.9677202783787,5900,2017-11-03 04:40:21,1806.8128019179946,0.0,0.0,0.05935260189928321,1806.8128019179946,0.0,0.0,0.05935260189928321,1024,-0.6,88,Assisted_Takeoff,
0.06568929119867,36.9677202716865,6000,2017-11-03 04:40:21,1806.8128019179946,0.0,0.0,0.059940201918086404,1806.8128019179946,0.0,0.0,0.059940201918086404,1024,-0.6,88,Assisted_Takeoff,
0.0656892950450547,36.967720276313,6100,2017-11-03 04:40:21,1806.8128019179946,0.0,0.0,0.05929800189753601,1806.8128019179946,0.0,0.0,0.059940201918086404,1024,-0.6,88,Assisted_Takeoff,
0.0656892970171004,36.9677202777272,6200,2017-11-03 04:40:22,1806.8128019179946,0.0,0.0,0.059066901890140806,1806.8128019179946,0.0,0.0,0.059940201918086404,1024,-0.6,88,Assisted_Takeoff,
0.0656893007983474,36.9677202860242,6300,2017-11-03 04:40:22,1806.8128019179946,0.0,0.0,0.05805320185770241,1806.8128019179946,0.0,0.0,0.059940201918086404,1024,-0.6,88,Assisted_Takeoff,
0.0656893025481105,36.9677202900955,6400,2017-11-03 04:40:22,1806.8128019179946,0.0,0.0,0.057560401841932805,1806.8128019179946,0.0,0.0,0.059940201918086404,1024,-0.6,88,Assisted_Takeoff,
0.0656893065776951,36.9677202998501,6500,2017-11-03 04:40:22,1806.8128019179946,0.0,0.0,0.05638690180438081,1806.8128019179946,0.0,0.0,0.059940201918086404,1024,-0.6,88,Assisted_Takeoff,
0.0656892918060796,36.967720303679,6600,2017-11-03 04:40:22,1806.8128019179946,0.0,0.0,0.0566671018133472,1806.8128019179946,0.0,0.0,0.059940201918086404,1024,-0.6,88,Assisted_Takeoff,
0.065689266375484,36.9677203134485,6700,2017-11-03 04:40:22,1806.8128019179946,0.0,0.0,0.056951801822457605,1806.8128019179946,0.0,0.0,0.059940201918086404,1024,-0.6,88,Assisted_Takeoff,
0.065689235746895,36.9677203170429,6800,2017-11-03 04:40:22,1806.8128019179946,0.0,0.0,0.058281601865011204,1806.8128019179946,0.0,0.0,0.059940201918086404,1024,-0.6,88,Assisted_Takeoff,
0.0656892204558059,36.967720325722,6900,2017-11-03 04:40:22,1806.8128019179946,0.0,0.0,0.0583652018676864,1806.8128019179946,0.0,0.0,0.059940201918086404,1024,-0.6,88,Assisted_Takeoff,
0.0656892020519461,36.9677203429272,7000,2017-11-03 04:40:22,1806.8128019179946,0.0,0.0,0.057940501854096,1806.8128019179946,0.0,0.0,0.059940201918086404,1024,-0.6,88,Assisted_Takeoff,
0.0656891953606697,36.9677203830988,7100,2017-11-03 04:40:22,1806.8128019179946,0.0,0.0,0.054842101754947206,1806.8128019179946,0.0,0.0,0.059940201918086404,1024,-0.6,88,Assisted_Takeoff,
0.0656891880929241,36.9677204176991,7200,2017-11-03 04:40:23,1806.8128019179946,0.0,0.0,0.0524534016785088,1806.8128019179946,0.0,0.0,0.059940201918086404,1024,-0.6,88,Assisted_Takeoff,
0.0656891875840354,36.9677204467474,7300,2017-11-03 04:40:23,1806.8128019179946,0.0,0.0,0.0501558016049856,1806.8128019179946,0.0,0.0,0.059940201918086404,1024,-0.6,88,Assisted_Takeoff,
0.0656891870385067,36.9677204657629,7400,2017-11-03 04:40:23,1806.8128019179946,0.0,0.0,0.048726401559244806,1806.8128019179946,0.0,0.0,0.059940201918086404,1024,-0.6,88,Assisted_Takeoff,
0.0656891903849591,36.9677204834958,7500,2017-11-03 04:40:23,1806.8128019179946,0.0,0.0,0.0471191015078112,1806.8128019179946,0.0,0.0,0.059940201918086404,1024,-0.6,88,Assisted_Takeoff,
0.0656891938226043,36.9677204885045,7600,2017-11-03 04:40:23,1806.8128019179946,0.0,0.0,0.046463101486819196,1806.8128019179946,0.0,0.0,0.059940201918086404,1024,-0.6,88,Assisted_Takeoff,
0.0656891996117227,36.9677204995517,7700,2017-11-03 04:40:23,1806.8128019179946,0.0,0.0,0.045168701445398404,1806.8128019179946,0.0,0.0,0.059940201918086404,1024,-0.6,88,Assisted_Takeoff,
0.0656892036527065,36.9677204936368,7800,2017-11-03 04:40:23,1806.8128019179946,0.0,0.0,0.0452678014485696,1806.8128019179946,0.0,0.0,0.059940201918086404,1024,-0.6,88,Assisted_Takeoff,
0.065689210696541,36.9677205030134,7900,2017-11-03 04:40:23,1806.8128019179946,0.0,0.0,0.04398870140763841,1806.8128019179946,0.0,0.0,0.059940201918086404,1024,-0.6,88,Assisted_Takeoff,
0.0656892216641114,36.9677205039132,8100,2017-11-03 04:40:23,1806.8128019179946,0.0,0.0,0.0430172013765504,1806.8128019179946,0.0,0.0,0.059940201918086404,1024,-0.6,88,Assisted_Takeoff,
0.065689224435723,36.9677204936358,8200,2017-11-03 04:40:24,1806.8128019179946,0.0,0.0,0.0435773013944736,1806.8128019179946,0.0,0.0,0.059940201918086404,1025,-0.6,88,Assisted_Takeoff,
0.0656892300261713,36.9677204969679,8300,2017-11-03 04:40:24,1806.8128019179946,0.0,0.0,0.042873101371939205,1806.8128019179946,0.0,0.0,0.059940201918086404,1028,-0.6,88,Assisted_Takeoff,
0.0656892317173104,36.9677204871283,8400,2017-11-03 04:40:24,1806.8128019179946,0.0,0.0,0.0435114013923648,1806.8128019179946,0.0,0.0,0.059940201918086404,1033,-0.6,88,Assisted_Takeoff,
0.065689237136772,36.9677204915551,8500,2017-11-03 04:40:24,1806.8128019179946,0.0,0.0,0.0427378013676096,1806.8128019179946,0.0,0.0,0.059940201918086404,1041,-0.6,88,Assisted_Takeoff,
0.0656892377083558,36.9677204832823,8600,2017-11-03 04:40:24,1806.8128019179946,0.0,0.0,0.0433557013873824,1806.8128019179946,0.0,0.0,0.059940201918086404,1060,-0.6,88,Assisted_Takeoff,
0.0656892279409487,36.9677204844337,8800,2017-11-03 04:40:24,1806.8128019179946,0.0,0.0,0.0440196014086272,1806.8128019179946,0.0,0.0,0.059940201918086404,1101,-0.6,88,Assisted_Takeoff,
0.0656892021968776,36.9677204909149,8900,2017-11-03 04:40:24,1806.8128019179946,0.0,0.0,0.0455907014589024,1806.8128019179946,0.0,0.0,0.059940201918086404,1210,-0.6,88,Assisted_Takeoff,
0.0656891825619141,36.967720485705,9000,2017-11-03 04:40:24,1806.8128019179946,0.0,0.0,0.047610001523520004,1806.8128019179946,0.0,0.0,0.059940201918086404,1295,-0.6,88,Assisted_Takeoff,
0.0656891980931987,36.9677204931053,9100,2017-11-03 04:40:24,1806.8128019179946,0.0,0.0,0.045768401464588805,1806.8128019179946,0.0,0.0,0.059940201918086404,1329,-0.6,88,Assisted_Takeoff,
0.0656891984433142,36.9677205044951,9200,2017-11-03 04:40:25,1806.8128019179946,0.0,0.0,0.044909001437088,1806.8128019179946,0.0,0.0,0.059940201918086404,1371,-0.6,88,Assisted_Takeoff,
0.0656891848962886,36.9677205445146,9300,2017-11-03 04:40:25,1806.8128019179946,0.0,0.0,0.043396301388681606,1806.8128019179946,0.0,0.0,0.059940201918086404,1385,-0.6,88,Assisted_Takeoff,
0.0656891803553725,36.9677205967874,9400,2017-11-03 04:40:25,1806.8128019179946,0.0,0.0,0.0408301013065632,1806.8128019179946,0.0,0.0,0.059940201918086404,1417,-0.6,88,Assisted_Takeoff,
0.0656892402332583,36.9677206317539,9500,2017-11-03 04:40:25,1806.8128019179946,0.0,0.0,0.0331309010601888,1806.8128019179946,0.0,0.0,0.059940201918086404,1435,-0.6,88,Assisted_Takeoff,
0.065689358295448,36.9677206486769,9600,2017-11-03 04:40:25,1806.8128019179946,0.0,0.35999970196000003,0.020992400671756797,1806.8128019179946,0.0,0.35999970196000003,0.059940201918086404,1454,-0.6,88,GPS_Atti,Obstacle Avoided. Revise Flight Route
0.065689553009311,36.9677206399181,9700,2017-11-03 04:40:25,1806.8128019179946,0.0,0.7199994039200001,0.0149487004783584,1806.8128019179946,0.0,0.7199994039200001,0.059940201918086404,1494,-0.6,88,GPS_Atti,
0.0656898284101313,36.9677205928499,9800,2017-11-03 04:40:25,1806.9128019211946,0.1000000032,1.07999910588,0.0406718013014976,1806.9128019211946,0.1000000032,1.07999910588,0.059940201918086404,1495,-0.6,88,GPS_Atti,
0.0656901940984006,36.9677205529839,9900,2017-11-03 04:40:25,1807.0128019243944,0.2000000064,1.4399988078400001,0.0800774025624768,1807.0128019243944,0.2000000064,1.4399988078400001,0.0800774025624768,1492,-0.6,88,GPS_Atti,
0.0656906288009406,36.9677205010061,10000,2017-11-03 04:40:25,1807.1128019275943,0.3000000096,1.4399988078400001,0.128266004104512,1807.1128019275943,0.3000000096,1.4399988078400001,0.128266004104512,1478,-0.6,88,GPS_Atti,
0.0656910939842884,36.9677204914844,10100,2017-11-03 04:40:25,1807.3128019339945,0.500000016,1.4399988078400001,0.17918700573398402,1807.3128019339945,0.500000016,1.4399988078400001,0.17918700573398402,1476,-0.6,88,GPS_Atti,
0.0656915237477578,36.9677205243135,10200,2017-11-03 04:40:26,1807.5128019403944,0.7000000224,1.07999910588,0.225964007230848,1807.5128019403944,0.7000000224,1.4399988078400001,0.225964007230848,1481,-0.6,88,GPS_Atti,
0.0656918857655143,36.9677205836954,10300,2017-11-03 04:40:26,1807.8128019499945,1.000000032,1.07999910588,0.265394008492608,1807.8128019499945,1.000000032,1.4399988078400001,0.265394008492608,1490,-0.6,88,GPS_Atti,
0.065692248594643,36.967720611731,10400,2017-11-03 04:40:26,1808.0128019563945,1.2000000384,1.07999910588,0.30545000977440007,1808.0128019563945,1.2000000384,1.4399988078400001,0.30545000977440007,1499,-0.6,88,GPS_Atti,
0.0656926430131426,36.9677206136896,10500,2017-11-03 04:40:26,1808.3128019659946,1.5000000480000002,1.07999910588,0.34924001117568,1808.3128019659946,1.5000000480000002,1.4399988078400001,0.34924001117568,1501,-0.9,88,GPS_Atti,
0.0656930271105642,36.967720629602,10600,2017-11-03 04:40:26,1808.6128019755945,1.8000000576000001,1.07999910588,0.391837012538784,1808.6128019755945,1.8000000576000001,1.4399988078400001,0.391837012538784,1501,-3.9,88,GPS_Atti,
0.0656933898875827,36.9677206571709,10700,2017-11-03 04:40:26,1809.0128019883944,2.2000000704000002,1.07999910588,0.432056013825792,1809.0128019883944,2.2000000704000002,1.4399988078400001,0.432056013825792,1501,-9.5,88,GPS_Atti,
0.0656937280453778,36.9677207100357,10800,2017-11-03 04:40:26,1809.3128019979945,2.50000008,1.1375990581936,0.46953301502505607,1809.3128019979945,2.50000008,1.4399988078400001,0.46953301502505607,1497,-15.1,88,GPS_Atti,
0.065694038424768,36.9677208246799,10900,2017-11-03 04:40:26,1809.6128020075946,2.8000000896,1.1375990581936,0.5040500161296,1809.6128020075946,2.8000000896,1.4399988078400001,0.5040500161296,1497,-20.8,88,GPS_Atti,
0.0656943629817988,36.9677209311273,11000,2017-11-03 04:40:26,1810.0128020203945,3.2000001024,1.1375990581936,0.540413017293216,1810.0128020203945,3.2000001024,1.4399988078400001,0.540413017293216,1498,-26.4,88,GPS_Atti,
0.0656947033290369,36.9677210291917,11100,2017-11-03 04:40:26,1810.3128020299946,3.500000112,1.1375990581936,0.57869001851808,1810.3128020299946,3.500000112,1.4399988078400001,0.57869001851808,1498,-32.0,88,GPS_Atti,
0.0656950416732888,36.9677211126882,11200,2017-11-03 04:40:27,1810.6128020395947,3.8000001216000006,1.1375990581936,0.6167820197370241,1810.6128020395947,3.8000001216000006,1.4399988078400001,0.6167820197370241,1497,-37.7,88,GPS_Atti,
0.0656953796348563,36.9677212128631,11300,2017-11-03 04:40:27,1810.9128020491944,4.100000131200001,0.8063993323904,0.655047020961504,1810.9128020491944,4.100000131200001,1.4399988078400001,0.655047020961504,1499,-43.3,88,GPS_Atti,
0.0656957280805499,36.967721235563,11400,2017-11-03 04:40:27,1811.2128020587945,4.4000001408000005,1.07999910588,0.693876022204032,1811.2128020587945,4.4000001408000005,1.4399988078400001,0.693876022204032,1498,-48.9,88,GPS_Atti,
0.0656960655122625,36.9677212142875,11500,2017-11-03 04:40:27,1811.6128020715944,4.8000001536,0.7199994039200001,0.7311340233962881,1811.6128020715944,4.8000001536,1.4399988078400001,0.7311340233962881,1498,-54.6,88,GPS_Atti,
0.0656963807080812,36.9677211782922,11600,2017-11-03 04:40:27,1811.9128020811945,5.1000001632,0.7199994039200001,0.7658580245074561,1811.9128020811945,5.1000001632,1.4399988078400001,0.7658580245074561,1498,-60.3,88,GPS_Atti,
0.0656966815848901,36.9677211914538,11700,2017-11-03 04:40:27,1812.2128020907946,5.4000001728,0.7199994039200001,0.79934502557904,1812.2128020907946,5.4000001728,1.4399988078400001,0.79934502557904,1498,-65.9,88,GPS_Atti,
0.0656969831493094,36.9677211865073,11800,2017-11-03 04:40:27,1812.5128021003945,5.7000001824,0.7199994039200001,0.832794026649408,1812.5128021003945,5.7000001824,1.4399988078400001,0.832794026649408,1496,-65.9,88,GPS_Atti,
0.0656976100596389,36.9677211820901,12000,2017-11-03 04:40:27,1813.1128021195946,6.3000002016,0.7199994039200001,0.902383028876256,1813.1128021195946,6.3000002016,1.4399988078400001,0.902383028876256,1496,-77.1,88,GPS_Atti,
0.0656979328203688,36.9677210822294,12100,2017-11-03 04:40:27,1813.4128021291945,6.6000002112,0.7199994039200001,0.937748030007936,1813.4128021291945,6.6000002112,1.4399988078400001,0.937748030007936,1496,-82.7,88,GPS_Atti,
0.0656982763370423,36.9677209472132,12200,2017-11-03 04:40:28,1813.7128021387946,6.900000220800001,0.7199994039200001,0.975498031215936,1813.7128021387946,6.900000220800001,1.4399988078400001,0.975498031215936,1497,-88.4,88,GPS_Atti,
0.0656986335721605,36.9677208215383,12300,2017-11-03 04:40:28,1814.0128021483945,7.200000230400001,0.7199994039200001,1.01504003248128,1814.0128021483945,7.200000230400001,1.4399988078400001,1.01504003248128,1492,-89.9,88,GPS_Atti,
0.0656989954451382,36.967720688643,12400,2017-11-03 04:40:28,1814.3128021579944,7.50000024,0.7199994039200001,1.05529003376928,1814.3128021579944,7.50000024,1.4399988078400001,1.05529003376928,1491,-89.9,88,GPS_Atti,
0.0656993555487606,36.9677205979404,12500,2017-11-03 04:40:28,1814.6128021675945,7.8000002496,0.7199994039200001,1.0954600350547201,1814.6128021675945,7.8000002496,1.4399988078400001,1.0954600350547201,1488,-89.9,88,GPS_Atti,
0.0656996975744154,36.9677204976643,12600,2017-11-03 04:40:28,1814.9128021771946,8.1000002592,0.7199994039200001,1.13373003627936,1814.9128021771946,8.1000002592,1.4399988078400001,1.13373003627936,1478,-89.9,88,GPS_Atti,
0.0657000076026725,36.9677204335965,12700,2017-11-03 04:40:28,1815.2128021867945,8.400000268800001,0.7199994039200001,1.1684000373888002,1815.2128021867945,8.400000268800001,1.4399988078400001,1.1684000373888002,1480,-90.0,88,GPS_Atti,
0.0657003026948411,36.9677203395302,12800,2017-11-03 04:40:28,1815.5128021963944,8.700000278400001,0.7199994039200001,1.2015700384502401,1815.5128021963944,8.700000278400001,1.4399988078400001,1.2015700384502401,1498,-90.0,88,GPS_Atti,
0.0657005877433779,36.9677202607442,12900,2017-11-03 04:40:28,1815.8128022059946,9.000000288,0.8063993323904,1.23361003947552,1815.8128022059946,9.000000288,1.4399988078400001,1.23361003947552,1531,-90.0,88,GPS_Atti,
0.0657008606854513,36.9677201415533,13000,2017-11-03 04:40:28,1816.1128022155945,9.3000002976,0.7199994039200001,1.2645900404668802,1816.1128022155945,9.3000002976,1.4399988078400001,1.2645900404668802,1542,-90.0,88,GPS_Atti,
0.065701119060279,36.9677200273223,13100,2017-11-03 04:40:28,1816.5128022283945,9.7000003104,0.7199994039200001,1.2940300414089603,1816.5128022283945,9.7000003104,1.4399988078400001,1.2940300414089603,1515,-90.0,88,GPS_Atti,
0.0657015176555339,36.9677197792329,13300,2017-11-03 04:40:29,1817.1128022475946,10.3000003296,0.35999970196000003,1.3402400428876802,1817.1128022475946,10.3000003296,1.4399988078400001,1.3402400428876802,1431,-90.0,88,GPS_Atti,
0.0657016645700873,36.9677196191001,13400,2017-11-03 04:40:29,1817.5128022603947,10.700000342400001,0.5075995797636,1.35808004345856,1817.5128022603947,10.700000342400001,1.4399988078400001,1.35808004345856,1389,-90.0,88,GPS_Atti,
0.0657018074505778,36.9677194596337,13500,2017-11-03 04:40:29,1817.8128022699943,11.000000351999999,0.5075995797636,1.3756600440211202,1817.8128022699943,11.000000351999999,1.4399988078400001,1.3756600440211202,1399,-90.0,88,GPS_Atti,
0.0657019553047434,36.9677192659235,13600,2017-11-03 04:40:29,1818.1128022795945,11.3000003616,0.5075995797636,1.3944300446217601,1818.1128022795945,11.3000003616,1.4399988078400001,1.3944300446217601,1412,-90.0,88,GPS_Atti,
0.0657021005037311,36.967719100516,13700,2017-11-03 04:40:29,1818.4128022891946,11.6000003712,0.0,1.412750045208,1818.4128022891946,11.6000003712,1.4399988078400001,1.412750045208,1415,-90.0,88,GPS_Atti,
0.0657022472998152,36.9677189203945,13800,2017-11-03 04:40:29,1818.7128022987945,11.9000003808,0.5075995797636,1.43167004581344,1818.7128022987945,11.9000003808,1.4399988078400001,1.43167004581344,1415,-89.9,88,GPS_Atti,
0.0657024387555688,36.9677187539159,13900,2017-11-03 04:40:29,1818.9128023051944,12.1000003872,0.5075995797636,1.45548004657536,1818.9128023051944,12.1000003872,1.4399988078400001,1.45548004657536,1415,-90.0,88,GPS_Atti,
0.0657026590193109,36.9677185678731,14000,2017-11-03 04:40:29,1819.2128023147945,12.400000396800001,0.8063993323904,1.4829500474544,1819.2128023147945,12.400000396800001,1.4399988078400001,1.4829500474544,1421,-90.0,88,GPS_Atti,
0.0657028815250133,36.9677183866891,14100,2017-11-03 04:40:29,1819.4128023211947,12.6000004032,0.5075995797636,1.51076004834432,1819.4128023211947,12.6000004032,1.4399988078400001,1.51076004834432,1494,-90.0,88,GPS_Atti,
0.0657030545463737,36.9677181955654,14200,2017-11-03 04:40:30,1819.7128023307944,12.9000004128,0.35999970196000003,1.5335300490729602,1819.7128023307944,12.9000004128,1.4399988078400001,1.5335300490729602,1547,-90.0,88,GPS_Atti,Home Point Recorded. RTH Altitude:  30m.
0.0657031583165248,36.9677180791445,14300,2017-11-03 04:40:30,1819.9128023371945,13.100000419200002,0.0,1.54732004951424,1819.9128023371945,13.100000419200002,1.4399988078400001,1.54732004951424,1569,-90.0,88,GPS_Atti,
0.0657031894995989,36.9677179782619,14400,2017-11-03 04:40:30,1820.2128023467947,13.4000004288,0.35999970196000003,1.55292004969344,1820.2128023467947,13.4000004288,1.4399988078400001,1.55292004969344,1605,-90.0,88,GPS_Atti,
0.065703206169573,36.9677178972496,14500,2017-11-03 04:40:30,1820.5128023563943,13.7000004384,0.0,1.5565600498099201,1820.5128023563943,13.7000004384,1.4399988078400001,1.5565600498099201,1618,-89.9,88,GPS_Atti,
0.0657032174379983,36.9677177872517,14600,2017-11-03 04:40:30,1820.8128023659945,14.000000448,0.0,1.56034004993088,1820.8128023659945,14.000000448,1.4399988078400001,1.56034004993088,1637,-89.9,88,GPS_Atti,
0.0657032095713925,36.967717691442,14700,2017-11-03 04:40:30,1821.2128023787943,14.400000460800001,0.0,1.56178004997696,1821.2128023787943,14.400000460800001,1.4399988078400001,1.56178004997696,1649,-89.9,88,GPS_Atti,
0.065703166569479,36.9677175957972,14800,2017-11-03 04:40:30,1821.6128023915944,14.8000004736,0.0,1.55948004990336,1821.6128023915944,14.8000004736,1.4399988078400001,1.56178004997696,1684,-89.9,88,GPS_Atti,
0.0657031397213228,36.9677175427643,14900,2017-11-03 04:40:30,1822.0128024043945,15.200000486400002,0.0,1.5579200498534402,1822.0128024043945,15.200000486400002,1.4399988078400001,1.56178004997696,1684,-90.0,88,GPS_Atti,
0.0657030898734307,36.9677174940137,15000,2017-11-03 04:40:30,1822.5128024203946,15.700000502400002,0.0,1.55379004972128,1822.5128024203946,15.700000502400002,1.4399988078400001,1.56178004997696,1684,-89.9,88,GPS_Atti,
0.0657030607918636,36.9677174887422,15100,2017-11-03 04:40:30,1822.9128024331947,16.1000005152,0.35999970196000003,1.5507800496249602,1822.9128024331947,16.1000005152,1.4399988078400001,1.56178004997696,1684,-90.0,88,GPS_Atti,
0.0657030426571041,36.9677174549121,15200,2017-11-03 04:40:31,1823.4128024491945,16.600000531200003,0.0,1.5497100495907201,1823.4128024491945,16.600000531200003,1.4399988078400001,1.56178004997696,1684,-89.9,88,GPS_Atti,
0.0657030479751951,36.9677174239769,15300,2017-11-03 04:40:31,1823.9128024651943,17.1000005472,0.0,1.55111004963552,1823.9128024651943,17.1000005472,1.4399988078400001,1.56178004997696,1684,-90.0,88,GPS_Atti,
0.0657030386523532,36.9677173988667,15400,2017-11-03 04:40:31,1824.4128024811946,17.600000563200002,0.0,1.5507700496246402,1824.4128024811946,17.600000563200002,1.4399988078400001,1.56178004997696,1684,-90.0,88,GPS_Atti,
0.0657029520863059,36.9677173042207,15500,2017-11-03 04:40:31,1824.9128024971944,18.1000005792,0.0,1.54402004940864,1824.9128024971944,18.1000005792,1.4399988078400001,1.56178004997696,1684,-90.0,88,GPS_Atti,
0.0657028957197525,36.9677172412176,15600,2017-11-03 04:40:31,1825.4128025131945,18.6000005952,0.0,1.5397200492710401,1825.4128025131945,18.6000005952,1.4399988078400001,1.56178004997696,1684,-89.9,88,GPS_Atti,
0.0657028208467473,36.9677171317228,15700,2017-11-03 04:40:31,1825.9128025291946,19.1000006112,0.0,1.5348300491145601,1825.9128025291946,19.1000006112,1.4399988078400001,1.56178004997696,1684,-89.9,88,GPS_Atti,
0.0657027850482558,36.9677170775979,15800,2017-11-03 04:40:31,1826.4128025451946,19.6000006272,0.0,1.53259004904288,1826.4128025451946,19.6000006272,1.4399988078400001,1.56178004997696,1684,-90.0,88,GPS_Atti,
0.0657027686563385,36.9677169700462,15900,2017-11-03 04:40:31,1826.9128025611944,20.1000006432,0.35999970196000003,1.5340800490905602,1826.9128025611944,20.1000006432,1.4399988078400001,1.56178004997696,1684,-90.0,88,GPS_Atti,
0.0657027518862151,36.9677168744238,16000,2017-11-03 04:40:31,1827.4128025771943,20.6000006592,0.0,1.5352500491280001,1827.4128025771943,20.6000006592,1.4399988078400001,1.56178004997696,1684,-90.0,88,GPS_Atti,
0.0657027463873669,36.9677168222378,16100,2017-11-03 04:40:31,1827.9128025931946,21.1000006752,0.0,1.5363100491619202,1827.9128025931946,21.1000006752,1.4399988078400001,1.56178004997696,1684,-90.0,88,GPS_Atti,
0.0657027182865302,36.9677166159077,16300,2017-11-03 04:40:32,1828.9128026251944,22.1000007072,0.0,1.5400400492812802,1828.9128026251944,22.1000007072,1.4399988078400001,1.56178004997696,1684,-90.0,88,GPS_Atti,
0.0657027042432363,36.9677165158949,16400,2017-11-03 04:40:32,1829.4128026411945,22.6000007232,0.0,1.5419200493414402,1829.4128026411945,22.6000007232,1.4399988078400001,1.56178004997696,1684,-90.0,88,GPS_Atti,
0.0657026754047144,36.9677163536702,16500,2017-11-03 04:40:32,1829.9128026571946,23.1000007392,0.0,1.5445100494243202,1829.9128026571946,23.1000007392,1.4399988078400001,1.56178004997696,1684,-90.0,88,GPS_Atti,
0.0657026485480089,36.9677162042891,16600,2017-11-03 04:40:32,1830.4128026731944,23.6000007552,0.0,1.5470400495052798,1830.4128026731944,23.6000007552,1.4399988078400001,1.56178004997696,1684,-90.0,88,GPS_Atti,
0.0657026376687816,36.9677161089141,16700,2017-11-03 04:40:32,1830.9128026891947,24.100000771200005,0.0,1.54941004958112,1830.9128026891947,24.100000771200005,1.4399988078400001,1.56178004997696,1684,-89.9,88,GPS_Atti,
0.0657026335052575,36.9677159924241,16800,2017-11-03 04:40:32,1831.5128027083945,24.7000007904,0.0,1.5533500497072001,1831.5128027083945,24.7000007904,1.4399988078400001,1.56178004997696,1684,-89.9,88,GPS_Atti,
0.0657026472737515,36.967715902311,16900,2017-11-03 04:40:32,1832.0128027243943,25.2000008064,0.0,1.5582400498636801,1832.0128027243943,25.2000008064,1.4399988078400001,1.56178004997696,1684,-89.9,88,GPS_Atti,
0.065702624627795,36.9677157900958,17000,2017-11-03 04:40:32,1832.5128027403946,25.7000008224,0.0,1.5602600499283201,1832.5128027403946,25.7000008224,1.4399988078400001,1.56178004997696,1684,-89.9,88,GPS_Atti,
0.0657025739892934,36.9677157147833,17100,2017-11-03 04:40:32,1833.0128027563944,26.200000838400005,0.0,1.558000049856,1833.0128027563944,26.200000838400005,1.4399988078400001,1.56178004997696,1684,-89.9,88,GPS_Atti,
0.0657024930812747,36.9677156267095,17200,2017-11-03 04:40:33,1833.5128027723945,26.700000854400002,0.0,1.55319004970208,1833.5128027723945,26.700000854400002,1.4399988078400001,1.56178004997696,1684,-90.0,88,GPS_Atti,
0.0657024314251281,36.9677155845044,17300,2017-11-03 04:40:33,1834.0128027883945,27.200000870400004,0.0,1.5485500495536,1834.0128027883945,27.200000870400004,1.4399988078400001,1.56178004997696,1684,-90.0,88,GPS_Atti,
0.0657023927809307,36.9677155477678,17400,2017-11-03 04:40:33,1834.5128028043946,27.7000008864,0.0,1.54609004947488,1834.5128028043946,27.7000008864,1.4399988078400001,1.56178004997696,1684,-89.9,88,GPS_Atti,
0.0657023557484858,36.9677154345206,17500,2017-11-03 04:40:33,1835.0128028203944,28.200000902400003,0.0,1.5470600495059201,1835.0128028203944,28.200000902400003,1.4399988078400001,1.56178004997696,1684,-89.9,88,GPS_Atti,
0.0657023156602657,36.967715316458,17600,2017-11-03 04:40:33,1835.5128028363947,28.7000009184,0.0,1.5480400495372801,1835.5128028363947,28.7000009184,1.4399988078400001,1.56178004997696,1684,-90.0,88,GPS_Atti,
0.0657022763296792,36.9677152393544,17700,2017-11-03 04:40:33,1836.0128028523945,29.200000934400002,0.0,1.5474000495168,1836.0128028523945,29.200000934400002,1.4399988078400001,1.56178004997696,1684,-90.0,88,GPS_Atti,
0.0657022053099796,36.9677151282548,17800,2017-11-03 04:40:33,1836.5128028683944,29.700000950400003,0.0,1.54513004944416,1836.5128028683944,29.700000950400003,1.4399988078400001,1.56178004997696,1684,-90.0,88,GPS_Atti,
0.0657021309385351,36.96771503176,17900,2017-11-03 04:40:33,1837.1128028875946,30.300000969600003,0.0,1.5419800493433602,1837.1128028875946,30.300000969600003,1.4399988078400001,1.56178004997696,1684,-90.0,88,GPS_Atti,
0.065702068000396,36.9677149339954,18000,2017-11-03 04:40:33,1837.6128029035945,30.8000009856,0.0,1.5401500492848001,1837.6128029035945,30.8000009856,1.4399988078400001,1.56178004997696,1684,-89.9,88,GPS_Atti,
0.0657020594111681,36.9677149084473,18100,2017-11-03 04:40:33,1838.1128029195943,31.300001001600002,0.35999970196000003,1.5404900492956801,1838.1128029195943,31.300001001600002,1.4399988078400001,1.56178004997696,1684,-89.9,88,GPS_Atti,
0.065702058431252,36.9677148940449,18200,2017-11-03 04:40:34,1838.6128029355946,31.800001017600003,0.35999970196000003,1.54106004931392,1838.6128029355946,31.800001017600003,1.4399988078400001,1.56178004997696,1684,-89.9,88,GPS_Atti,
0.0657020673376193,36.9677149300386,18300,2017-11-03 04:40:34,1839.1128029515944,32.3000010336,0.35999970196000003,1.54027004928864,1839.1128029515944,32.3000010336,1.4399988078400001,1.56178004997696,1684,-90.0,88,GPS_Atti,
0.0657020688671353,36.9677149086871,18400,2017-11-03 04:40:34,1839.6128029675945,32.800001049600006,0.0,1.5414300493257602,1839.6128029675945,32.800001049600006,1.4399988078400001,1.56178004997696,1684,-90.0,88,GPS_Atti,
0.0657020806578841,36.9677148670376,18500,2017-11-03 04:40:34,1840.1128029835945,33.3000010656,0.0,1.54458004942656,1840.1128029835945,33.3000010656,1.4399988078400001,1.56178004997696,1684,-90.0,88,GPS_Atti,
0.0657020908474653,36.9677148304134,18600,2017-11-03 04:40:34,1840.6128029995946,33.8000010816,0.35999970196000003,1.5473400495148801,1840.6128029995946,33.8000010816,1.4399988078400001,1.56178004997696,1684,-89.9,88,GPS_Atti,
0.0657021319103091,36.9677148759105,18700,2017-11-03 04:40:34,1841.2128030187944,34.4000011008,0.35999970196000003,1.54932004957824,1841.2128030187944,34.4000011008,1.4399988078400001,1.56178004997696,1684,-89.9,88,GPS_Atti,
0.0657021684420075,36.9677149494405,18800,2017-11-03 04:40:34,1841.7128030347947,34.900001116800006,0.5075995797636,1.54957004958624,1841.7128030347947,34.900001116800006,1.4399988078400001,1.56178004997696,1684,-89.9,88,GPS_Atti,
0.0657022182573307,36.9677150561369,18900,2017-11-03 04:40:34,1842.2128030507945,35.4000011328,0.35999970196000003,1.5497100495907201,1842.2128030507945,35.4000011328,1.4399988078400001,1.56178004997696,1684,-89.9,88,GPS_Atti,
0.0657022439704614,36.9677151653094,19000,2017-11-03 04:40:34,1842.7128030667943,35.9000011488,0.35999970196000003,1.54739004951648,1842.7128030667943,35.9000011488,1.4399988078400001,1.56178004997696,1684,-89.9,88,GPS_Atti,
0.0657022818883728,36.9677152980463,19100,2017-11-03 04:40:34,1843.2128030827946,36.4000011648,0.35999970196000003,1.54539004945248,1843.2128030827946,36.4000011648,1.4399988078400001,1.56178004997696,1684,-89.9,88,GPS_Atti,
0.0657022878285294,36.96771541567,19200,2017-11-03 04:40:35,1843.7128030987944,36.900001180800004,0.35999970196000003,1.5409000493088,1843.7128030987944,36.900001180800004,1.4399988078400001,1.56178004997696,1684,-89.9,88,GPS_Atti,
0.0657022924467965,36.9677155311343,19300,2017-11-03 04:40:35,1844.2128031147945,37.400001196800005,0.35999970196000003,1.5364600491667202,1844.2128031147945,37.400001196800005,1.4399988078400001,1.56178004997696,1684,-90.0,88,GPS_Atti,
0.0657022903196416,36.9677156365556,19400,2017-11-03 04:40:35,1844.7128031307946,37.9000012128,0.35999970196000003,1.5318400490188802,1844.7128031307946,37.9000012128,1.4399988078400001,1.56178004997696,1684,-90.0,88,GPS_Atti,
0.0657022805884673,36.967715683604,19500,2017-11-03 04:40:35,1845.2128031467946,38.4000012288,0.35999970196000003,1.52889004892448,1845.2128031467946,38.4000012288,1.4399988078400001,1.56178004997696,1684,-90.0,88,GPS_Atti,
0.0657022693554607,36.9677157422627,19600,2017-11-03 04:40:35,1845.7128031627944,38.9000012448,0.35999970196000003,1.52533004881056,1845.7128031627944,38.9000012448,1.4399988078400001,1.56178004997696,1684,-89.9,88,GPS_Atti,
0.0657022686882057,36.9677158452153,19700,2017-11-03 04:40:35,1846.2128031787947,39.4000012608,0.35999970196000003,1.5211000486752,1846.2128031787947,39.4000012608,1.4399988078400001,1.56178004997696,1684,-89.9,88,GPS_Atti,
0.0657022636795191,36.9677159396471,19800,2017-11-03 04:40:35,1846.7128031947946,39.900001276800005,0.35999970196000003,1.51683004853856,1846.7128031947946,39.900001276800005,1.4399988078400001,1.56178004997696,1684,-89.9,88,GPS_Atti,
0.065702270585343,36.9677160458371,19900,2017-11-03 04:40:35,1847.2128032107944,40.400001292800006,0.35999970196000003,1.5134200484294402,1847.2128032107944,40.400001292800006,1.4399988078400001,1.56178004997696,1684,-89.9,88,GPS_Atti,
0.0657022587913373,36.9677161425835,20000,2017-11-03 04:40:35,1847.7128032267944,40.9000013088,0.35999970196000003,1.5084900482716799,1847.7128032267944,40.9000013088,1.4399988078400001,1.56178004997696,1684,-89.9,88,GPS_Atti,
0.065702240205906,36.9677162562942,20100,2017-11-03 04:40:35,1848.2128032427945,41.4000013248,0.35999970196000003,1.50227004807264,1848.2128032427945,41.4000013248,1.4399988078400001,1.56178004997696,1684,-89.9,88,GPS_Atti,
0.0657021876067578,36.9677163275846,20200,2017-11-03 04:40:36,1848.7128032587946,41.9000013408,0.35999970196000003,1.49412004781184,1848.7128032587946,41.9000013408,1.4399988078400001,1.56178004997696,1684,-90.0,88,GPS_Atti,
0.0657021421914903,36.9677163688851,20300,2017-11-03 04:40:36,1849.2128032747944,42.400001356800004,0.0,1.4878400476108802,1849.2128032747944,42.400001356800004,1.4399988078400001,1.56178004997696,1684,-90.0,88,GPS_Atti,
0.0657021178609085,36.9677163443284,20400,2017-11-03 04:40:36,1849.7128032907947,42.900001372800006,0.0,1.48619004755808,1849.7128032907947,42.900001372800006,1.4399988078400001,1.56178004997696,1684,-89.9,88,GPS_Atti,
0.0657021251844283,36.9677163216837,20500,2017-11-03 04:40:36,1850.2128033067945,43.4000013888,0.0,1.48779004760928,1850.2128033067945,43.4000013888,1.4399988078400001,1.56178004997696,1684,-90.0,88,GPS_Atti,
0.0657021306181388,36.9677162989854,20600,2017-11-03 04:40:36,1850.8128033259945,44.000001407999996,0.0,1.4892000476544,1850.8128033259945,44.000001407999996,1.4399988078400001,1.56178004997696,1684,-89.9,88,GPS_Atti,
0.0657021751255488,36.967716314696,20700,2017-11-03 04:40:36,1851.3128033419946,44.500001424,0.0,1.4932900477852802,1851.3128033419946,44.500001424,1.4399988078400001,1.56178004997696,1684,-89.9,88,GPS_Atti,
0.0657022252433554,36.9677163375741,20800,2017-11-03 04:40:36,1851.8128033579944,45.00000144,0.35999970196000003,1.4977100479267202,1851.8128033579944,45.00000144,1.4399988078400001,1.56178004997696,1684,-89.9,88,GPS_Atti,
0.0657022796907876,36.9677163752465,20900,2017-11-03 04:40:36,1852.3128033739943,45.50000145600001,0.0,1.50206004806592,1852.3128033739943,45.50000145600001,1.4399988078400001,1.56178004997696,1684,-90.0,88,GPS_Atti,
0.0657023739255848,36.9677163713057,21100,2017-11-03 04:40:36,1853.3128034059944,46.500001487999995,0.0,1.51212004838784,1853.3128034059944,46.500001487999995,1.4399988078400001,1.56178004997696,1684,-89.9,88,GPS_Atti,
0.0657024073156076,36.9677163340595,21200,2017-11-03 04:40:37,1853.8128034219944,47.000001504000004,0.0,1.51697004854304,1853.8128034219944,47.000001504000004,1.4399988078400001,1.56178004997696,1684,-89.9,88,GPS_Atti,
0.0657024508923619,36.9677162890098,21300,2017-11-03 04:40:37,1854.3128034379945,47.500001520000005,0.0,1.52319004874208,1854.3128034379945,47.500001520000005,1.4399988078400001,1.56178004997696,1684,-90.0,88,GPS_Atti,
0.0657025243600199,36.9677162139007,21400,2017-11-03 04:40:37,1854.8128034539945,48.000001536000006,0.0,1.5336500490768001,1854.8128034539945,48.000001536000006,1.4399988078400001,1.56178004997696,1684,-90.0,88,GPS_Atti,
0.0657025759992004,36.9677160674134,21500,2017-11-03 04:40:37,1855.3128034699944,48.50000155200001,0.0,1.544500049424,1855.3128034699944,48.50000155200001,1.4399988078400001,1.56178004997696,1684,-90.0,88,GPS_Atti,
0.0657026225503076,36.967715950113,21600,2017-11-03 04:40:37,1855.8128034859947,49.000001568,0.0,1.55382004972224,1855.8128034859947,49.000001568,1.4399988078400001,1.56178004997696,1684,-89.9,88,GPS_Atti,
0.0657026601014119,36.9677159133603,21700,2017-11-03 04:40:37,1856.4128035051945,49.600001587200005,0.0,1.5591500498928,1856.4128035051945,49.600001587200005,1.4399988078400001,1.56178004997696,1684,-89.9,88,GPS_Atti,
0.0657026420415609,36.9677158894523,21800,2017-11-03 04:40:37,1856.9128035211943,50.1000016032,0.0,1.55819004986208,1856.9128035211943,50.1000016032,1.4399988078400001,1.56178004997696,1684,-89.9,88,GPS_Atti,
0.0657025944046887,36.9677158768913,21900,2017-11-03 04:40:37,1857.4128035371946,50.6000016192,0.0,1.55372004971904,1857.4128035371946,50.6000016192,1.4399988078400001,1.56178004997696,1684,-90.0,88,GPS_Atti,
0.0657025321411324,36.9677158486336,22000,2017-11-03 04:40:37,1857.9128035531944,51.1000016352,0.0,1.5483400495468802,1857.9128035531944,51.1000016352,1.4399988078400001,1.56178004997696,1684,-89.9,88,GPS_Atti,
0.0657024943107499,36.9677158467248,22100,2017-11-03 04:40:37,1858.4128035691945,51.6000016512,0.0,1.5444800494233601,1858.4128035691945,51.6000016512,1.4399988078400001,1.56178004997696,1684,-89.9,88,GPS_Atti,
0.0657024340831558,36.9677158132319,22200,2017-11-03 04:40:38,1858.9128035851945,52.1000016672,0.0,1.5395500492656,1858.9128035851945,52.1000016672,1.4399988078400001,1.56178004997696,1684,-90.0,88,GPS_Atti,
0.0657023844897081,36.9677157752674,22300,2017-11-03 04:40:38,1859.4128036011946,52.6000016832,0.0,1.5359200491494402,1859.4128036011946,52.6000016832,1.4399988078400001,1.56178004997696,1684,-90.0,88,GPS_Atti,
0.065702353647793,36.9677156871626,22400,2017-11-03 04:40:38,1859.9128036171944,53.1000016992,0.0,1.5363000491616,1859.9128036171944,53.1000016992,1.4399988078400001,1.56178004997696,1684,-89.9,88,GPS_Atti,
0.0657023704004107,36.9677156259601,22500,2017-11-03 04:40:38,1860.4128036331947,53.6000017152,0.0,1.54054004929728,1860.4128036331947,53.6000017152,1.4399988078400001,1.56178004997696,1684,-89.9,88,GPS_Atti,
0.0657023742980914,36.9677155482549,22600,2017-11-03 04:40:38,1860.9128036491945,54.1000017312,0.0,1.54417004941344,1860.9128036491945,54.1000017312,1.4399988078400001,1.56178004997696,1684,-89.9,88,GPS_Atti,
0.0657023513529083,36.9677155002547,22700,2017-11-03 04:40:38,1861.4128036651944,54.6000017472,0.0,1.54382004940224,1861.4128036651944,54.6000017472,1.4399988078400001,1.56178004997696,1684,-89.9,88,GPS_Atti,
0.0657023019679015,36.967715413516,22800,2017-11-03 04:40:38,1861.9128036811946,55.1000017632,0.0,1.54244004935808,1861.9128036811946,55.1000017632,1.4399988078400001,1.56178004997696,1684,-89.9,88,GPS_Atti,
0.0657022576526479,36.9677153444085,22900,2017-11-03 04:40:38,1862.4128036971945,55.6000017792,0.0,1.5408800493081602,1862.4128036971945,55.6000017792,1.4399988078400001,1.56178004997696,1684,-90.0,88,GPS_Atti,
0.0657021904732263,36.96771523061,23000,2017-11-03 04:40:38,1862.9128037131945,56.10000179520001,0.0,1.53903004924896,1862.9128037131945,56.10000179520001,1.4399988078400001,1.56178004997696,1684,-90.0,88,GPS_Atti,
0.065702121325016,36.9677151277195,23100,2017-11-03 04:40:38,1863.4128037291944,56.60000181120001,0.0,1.53662004917184,1863.4128037291944,56.60000181120001,1.4399988078400001,1.56178004997696,1684,-90.0,88,GPS_Atti,
0.0657020180824808,36.9677149768322,23200,2017-11-03 04:40:39,1863.9128037451947,57.100001827199996,0.0,1.53311004905952,1863.9128037451947,57.100001827199996,1.4399988078400001,1.56178004997696,1684,-90.0,88,GPS_Atti,
0.0657019176420906,36.9677148270957,23300,2017-11-03 04:40:39,1864.5128037643944,57.700001846400006,0.0,1.5301000489632002,1864.5128037643944,57.700001846400006,1.4399988078400001,1.56178004997696,1684,-90.0,88,GPS_Atti,
0.0657018161281488,36.9677146419618,23400,2017-11-03 04:40:39,1865.0128037803945,58.2000018624,0.0,1.5289800489273602,1865.0128037803945,58.2000018624,1.4399988078400001,1.56178004997696,1684,-89.9,88,GPS_Atti,
0.0657017427997227,36.967714505494,23500,2017-11-03 04:40:39,1865.5128037963946,58.7000018784,0.0,1.52854004891328,1865.5128037963946,58.7000018784,1.4399988078400001,1.56178004997696,1684,-90.0,88,GPS_Atti,
0.0657016434756309,36.9677143545691,23600,2017-11-03 04:40:39,1866.0128038123944,59.2000018944,0.0,1.5264800488473602,1866.0128038123944,59.2000018944,1.4399988078400001,1.56178004997696,1684,-90.0,88,GPS_Atti,
0.0657015601794991,36.9677142461213,23700,2017-11-03 04:40:39,1866.5128038283947,59.700001910400005,0.0,1.5239900487676799,1866.5128038283947,59.700001910400005,1.4399988078400001,1.56178004997696,1684,-89.9,88,GPS_Atti,
0.0657014871853112,36.9677140926014,23800,2017-11-03 04:40:39,1867.0128038443945,60.2000019264,0.0,1.5250900488028802,1867.0128038443945,60.2000019264,1.4399988078400001,1.56178004997696,1684,-89.9,88,GPS_Atti,
0.0657014617433164,36.9677139453315,23900,2017-11-03 04:40:39,1867.5128038603943,60.7000019424,0.0,1.53067004898144,1867.5128038603943,60.7000019424,1.4399988078400001,1.56178004997696,1684,-89.9,88,GPS_Atti,
0.0657014338362645,36.9677137804946,24000,2017-11-03 04:40:39,1868.0128038763944,61.2000019584,0.0,1.5371600491891202,1868.0128038763944,61.2000019584,1.4399988078400001,1.56178004997696,1684,-89.9,88,GPS_Atti,
0.0657014211901755,36.967713680985,24100,2017-11-03 04:40:39,1868.5128038923945,61.7000019744,0.0,1.54157004933024,1868.5128038923945,61.7000019744,1.4399988078400001,1.56178004997696,1684,-89.9,88,GPS_Atti,
0.0657013725233125,36.9677134593928,24300,2017-11-03 04:40:40,1869.6128039275945,62.80000200960001,0.0,1.5497000495904,1869.6128039275945,62.80000200960001,1.4399988078400001,1.56178004997696,1684,-90.0,88,GPS_Atti,
0.0657013190498934,36.9677133409149,24400,2017-11-03 04:40:40,1870.1128039435946,63.30000202560001,0.0,1.5516100496515202,1870.1128039435946,63.30000202560001,1.4399988078400001,1.56178004997696,1684,-89.9,88,GPS_Atti,
0.0657012653486957,36.967713278856,24500,2017-11-03 04:40:40,1870.6128039595944,63.8000020416,0.0,1.550250049608,1870.6128039595944,63.8000020416,1.4399988078400001,1.56178004997696,1684,-89.9,88,GPS_Atti,
0.0657011717310788,36.9677132038379,24600,2017-11-03 04:40:40,1871.1128039755947,64.3000020576,0.0,1.546000049472,1871.1128039755947,64.3000020576,1.4399988078400001,1.56178004997696,1684,-90.0,88,GPS_Atti,
0.0657010771520692,36.9677131670059,24700,2017-11-03 04:40:40,1871.6128039915945,64.8000020736,0.0,1.53943004926176,1871.6128039915945,64.8000020736,1.4399988078400001,1.56178004997696,1684,-89.9,88,GPS_Atti,
0.0657009721086785,36.9677131064437,24800,2017-11-03 04:40:40,1872.1128040075944,65.3000020896,0.0,1.53341004906912,1872.1128040075944,65.3000020896,1.4399988078400001,1.56178004997696,1684,-89.9,88,GPS_Atti,
0.0657009285589971,36.9677130792566,24900,2017-11-03 04:40:40,1872.6128040235944,65.8000021056,0.35999970196000003,1.5310700489942402,1872.6128040235944,65.8000021056,1.4399988078400001,1.56178004997696,1684,-89.9,88,GPS_Atti,
0.0657008719300607,36.9677130119862,25000,2017-11-03 04:40:40,1873.1128040395945,66.3000021216,0.35999970196000003,1.53006004896192,1873.1128040395945,66.3000021216,1.4399988078400001,1.56178004997696,1684,-89.9,88,GPS_Atti,
0.0657008170034589,36.9677129704384,25100,2017-11-03 04:40:40,1873.6128040555946,66.8000021376,0.35999970196000003,1.52763004888416,1873.6128040555946,66.8000021376,1.4399988078400001,1.56178004997696,1684,-90.0,88,GPS_Atti,
0.0657007139038197,36.9677129053616,25200,2017-11-03 04:40:41,1874.1128040715944,67.3000021536,0.35999970196000003,1.5223500487152002,1874.1128040715944,67.3000021536,1.4399988078400001,1.56178004997696,1684,-90.0,88,GPS_Atti,
0.0657006075226623,36.9677129105913,25300,2017-11-03 04:40:41,1874.6128040875947,67.8000021696,0.35999970196000003,1.5123400483948801,1874.6128040875947,67.8000021696,1.4399988078400001,1.56178004997696,1684,-90.0,88,GPS_Atti,
0.0657005217818289,36.967712944356,25400,2017-11-03 04:40:41,1875.1128041035945,68.3000021856,0.35999970196000003,1.50239004807648,1875.1128041035945,68.3000021856,1.4399988078400001,1.56178004997696,1684,-90.0,88,GPS_Atti,
0.0657004105010906,36.9677129482626,25500,2017-11-03 04:40:41,1875.7128041227945,68.9000022048,0.35999970196000003,1.49207004774624,1875.7128041227945,68.9000022048,1.4399988078400001,1.56178004997696,1684,-89.9,88,GPS_Atti,
0.0657003130708792,36.9677129414163,25600,2017-11-03 04:40:41,1876.2128041387946,69.4000022208,0.35999970196000003,1.4837200474790402,1876.2128041387946,69.4000022208,1.4399988078400001,1.56178004997696,1684,-89.9,88,GPS_Atti,
0.0657002654057127,36.9677129725185,25700,2017-11-03 04:40:41,1876.7128041547944,69.9000022368,0.35999970196000003,1.4774000472768,1876.7128041547944,69.9000022368,1.4399988078400001,1.56178004997696,1684,-90.0,88,GPS_Atti,
0.0657001900893636,36.9677129635193,25800,2017-11-03 04:40:41,1877.2128041707945,70.40000225280001,0.35999970196000003,1.47121004707872,1877.2128041707945,70.40000225280001,1.4399988078400001,1.56178004997696,1684,-90.0,88,GPS_Atti,
0.0657001132532692,36.9677129640802,25900,2017-11-03 04:40:41,1877.7128041867945,70.90000226880001,0.35999970196000003,1.4642800468569601,1877.7128041867945,70.90000226880001,1.4399988078400001,1.56178004997696,1684,-90.0,88,GPS_Atti,
0.0657000199489242,36.967712937878,26000,2017-11-03 04:40:41,1878.2128042027944,71.40000228480001,0.35999970196000003,1.4576800466457602,1878.2128042027944,71.40000228480001,1.4399988078400001,1.56178004997696,1661,-89.9,88,GPS_Atti,
0.0656999594050048,36.9677129686505,26100,2017-11-03 04:40:41,1878.7128042187944,71.9000023008,0.35999970196000003,1.45023004640736,1878.7128042187944,71.9000023008,1.4399988078400001,1.56178004997696,1633,-89.9,88,GPS_Atti,
0.0656999008296707,36.9677129976887,26200,2017-11-03 04:40:42,1879.3128042379944,72.50000232,0.35999970196000003,1.44308004617856,1879.3128042379944,72.50000232,1.4399988078400001,1.56178004997696,1635,-90.0,88,GPS_Atti,
0.0656998856694677,36.9677130599585,26300,2017-11-03 04:40:42,1879.7128042507945,72.9000023328,0.35999970196000003,1.43759004600288,1879.7128042507945,72.9000023328,1.4399988078400001,1.56178004997696,1636,-90.0,88,GPS_Atti,
0.0656998296440734,36.9677130811515,26400,2017-11-03 04:40:42,1880.2128042667944,73.4000023488,0.35999970196000003,1.4311900457980802,1880.2128042667944,73.4000023488,1.4399988078400001,1.56178004997696,1645,-89.9,88,GPS_Atti,
0.0656997580086184,36.967713118493,26500,2017-11-03 04:40:42,1880.7128042827947,73.9000023648,0.35999970196000003,1.4223200455142402,1880.7128042827947,73.9000023648,1.4399988078400001,1.56178004997696,1647,-90.0,88,GPS_Atti,
0.0656996648589755,36.9677131531014,26600,2017-11-03 04:40:42,1881.1128042955945,74.30000237760001,0.35999970196000003,1.4117200451750402,1881.1128042955945,74.30000237760001,1.4399988078400001,1.56178004997696,1660,-89.9,88,GPS_Atti,
0.0656996145325245,36.9677132270885,26700,2017-11-03 04:40:42,1881.6128043115946,74.80000239360001,0.35999970196000003,1.40231004487392,1881.6128043115946,74.80000239360001,1.4399988078400001,1.56178004997696,1665,-90.0,88,GPS_Atti,
0.0656995562624218,36.9677132558237,26800,2017-11-03 04:40:42,1882.1128043275944,75.3000024096,0.35999970196000003,1.3952000446464001,1882.1128043275944,75.3000024096,1.4399988078400001,1.56178004997696,1666,-90.0,88,GPS_Atti,
0.0656995302503699,36.9677133072047,26900,2017-11-03 04:40:42,1882.6128043435947,75.8000024256,0.35999970196000003,1.3894700444630401,1882.6128043435947,75.8000024256,1.4399988078400001,1.56178004997696,1666,-89.9,88,GPS_Atti,
0.0656995026448855,36.9677133351766,27000,2017-11-03 04:40:42,1883.0128043563946,76.2000024384,0.35999970196000003,1.3851500443248002,1883.0128043563946,76.2000024384,1.4399988078400001,1.56178004997696,1667,-89.9,88,GPS_Atti,
0.0656995247556945,36.9677133633476,27100,2017-11-03 04:40:42,1883.5128043723946,76.7000024544,0.0,1.38526004432832,1883.5128043723946,76.7000024544,1.4399988078400001,1.56178004997696,1664,-90.0,88,GPS_Atti,
0.0656995183138754,36.967713358833,27200,2017-11-03 04:40:43,1884.0128043883944,77.20000247040001,0.35999970196000003,1.38498004431936,1884.0128043883944,77.20000247040001,1.4399988078400001,1.56178004997696,1660,-90.0,88,GPS_Atti,
0.0656994900879538,36.9677134053729,27300,2017-11-03 04:40:43,1884.5128044043947,77.70000248640001,0.35999970196000003,1.3793800441401602,1884.5128044043947,77.70000248640001,1.4399988078400001,1.56178004997696,1662,-90.0,88,GPS_Atti,
0.0656994634470171,36.9677134905861,27400,2017-11-03 04:40:43,1885.0128044203946,78.20000250240001,0.35999970196000003,1.3713900438844802,1885.0128044203946,78.20000250240001,1.4399988078400001,1.56178004997696,1662,-89.9,88,GPS_Atti,
0.0656994045579022,36.9677135589549,27500,2017-11-03 04:40:43,1885.5128044363944,78.70000251840001,0.35999970196000003,1.36162004357184,1885.5128044363944,78.70000251840001,1.4399988078400001,1.56178004997696,1661,-89.9,88,GPS_Atti,
0.0656993296393006,36.9677136089431,27600,2017-11-03 04:40:43,1886.0128044523944,79.20000253440001,0.35999970196000003,1.3516100432515201,1886.0128044523944,79.20000253440001,1.4399988078400001,1.56178004997696,1662,-90.0,88,GPS_Atti,
0.0656992740374034,36.9677136683319,27700,2017-11-03 04:40:43,1886.5128044683945,79.70000255040001,0.35999970196000003,1.34272004296704,1886.5128044683945,79.70000255040001,1.4399988078400001,1.56178004997696,1644,-90.0,88,GPS_Atti,
0.065699203310213,36.967713674962,27800,2017-11-03 04:40:43,1887.0128044843946,80.20000256640002,0.35999970196000003,1.33593004274976,1887.0128044843946,80.20000256640002,1.4399988078400001,1.56178004997696,1634,-89.9,88,GPS_Atti,
0.0656991645796064,36.9677136742308,27900,2017-11-03 04:40:43,1887.5128045003944,80.7000025824,0.0,1.33251004264032,1887.5128045003944,80.7000025824,1.4399988078400001,1.56178004997696,1630,-89.9,88,GPS_Atti,
0.0656991096887286,36.967713648749,28000,2017-11-03 04:40:43,1888.0128045163947,81.2000025984,0.0,1.32928004253696,1888.0128045163947,81.2000025984,1.4399988078400001,1.56178004997696,1614,-90.0,88,GPS_Atti,
0.0656990725528774,36.9677136502136,28100,2017-11-03 04:40:43,1888.4128045291945,81.6000026112,0.0,1.32586004242752,1888.4128045291945,81.6000026112,1.4399988078400001,1.56178004997696,1611,-90.0,88,GPS_Atti,
0.0656990339637418,36.9677136045901,28200,2017-11-03 04:40:44,1888.9128045451944,82.10000262720001,0.0,1.3254700424150403,1888.9128045451944,82.10000262720001,1.4399988078400001,1.56178004997696,1586,-90.0,87,GPS_Atti,
0.0656990144605805,36.9677135683309,28300,2017-11-03 04:40:44,1889.3128045579945,82.50000264,0.0,1.32616004243712,1889.3128045579945,82.50000264,1.4399988078400001,1.56178004997696,1567,-90.0,87,GPS_Atti,
0.0656989929632878,36.9677135122823,28400,2017-11-03 04:40:44,1889.8128045739943,83.000002656,0.0,1.32803004249696,1889.8128045739943,83.000002656,1.4399988078400001,1.56178004997696,1551,-90.0,87,GPS_Atti,
0.0656990122164829,36.9677134799307,28500,2017-11-03 04:40:44,1890.2128045867944,83.4000026688,0.0,1.33192004262144,1890.2128045867944,83.4000026688,1.4399988078400001,1.56178004997696,1539,-90.0,87,GPS_Atti,
0.0656990239613299,36.9677134237043,28600,2017-11-03 04:40:44,1890.6128045995943,83.8000026816,0.0,1.33677004277664,1890.6128045995943,83.8000026816,1.4399988078400001,1.56178004997696,1540,-89.9,87,GPS_Atti,
0.0656990604279923,36.9677133883647,28700,2017-11-03 04:40:44,1891.0128046123946,84.20000269440001,0.0,1.34238004295616,1891.0128046123946,84.20000269440001,1.4399988078400001,1.56178004997696,1540,-90.0,87,GPS_Atti,
0.0656990916837357,36.9677133124751,28800,2017-11-03 04:40:44,1891.4128046251947,84.60000270719999,0.0,1.3503000432096,1891.4128046251947,84.60000270719999,1.4399988078400001,1.56178004997696,1541,-90.0,87,GPS_Atti,
0.0656991307753481,36.9677132509269,28900,2017-11-03 04:40:44,1891.8128046379945,85.00000272,0.0,1.35793004345376,1891.8128046379945,85.00000272,1.4399988078400001,1.56178004997696,1538,-89.9,87,GPS_Atti,
0.0656991364531216,36.9677131886732,29000,2017-11-03 04:40:44,1892.1128046475944,85.30000272960001,0.0,1.3627000436064,1892.1128046475944,85.30000272960001,1.4399988078400001,1.56178004997696,1518,-89.9,87,GPS_Atti,
0.0656991079176939,36.9677131599819,29100,2017-11-03 04:40:44,1892.5128046603943,85.7000027424,0.0,1.3621900435900802,1892.5128046603943,85.7000027424,1.4399988078400001,1.56178004997696,1475,-90.0,87,GPS_Atti,
0.0656990094527081,36.9677130597208,29200,2017-11-03 04:40:45,1892.9128046731944,86.10000275520001,0.0,1.36061004353952,1892.9128046731944,86.10000275520001,1.4399988078400001,1.56178004997696,1442,-90.0,87,GPS_Atti,
