latitude,longitude,time_millisecond,datetime_utc,altitude_m,ascent_m,speed_kph,distance_m,max_altitude_m,max_ascent_m,max_speed_kph,max_distance_m,rc_throttle,gimbal_pitch_degrees,battery_percent,flycState,message
0.307705973765198,36.879449442922294,100,2017-11-08 12:33:11,1769.4299882217445,0.0,0.0,0.0,1769.4299882217445,0.0,0.0,0.0,1024,0.0,100,Motors_Started,
0.307705935992218,36.879449467163205,200,2017-11-08 12:33:11,1769.4299882217445,0.0,0.0,0.004991170159717439,1769.4299882217445,0.0,0.0,0.004991170159717439,1024,0.0,100,Motors_Started,
0.30770590866794606,36.879449479243895,300,2017-11-08 12:33:11,1769.4299882217445,0.0,0.0,0.0082898002652736,1769.4299882217445,0.0,0.0,0.0082898002652736,1024,0.0,100,Motors_Started,
0.307705846330397,36.8794494626964,400,2017-11-08 12:33:11,1769.4299882217445,0.0,0.0,0.0143411004589152,1769.4299882217445,0.0,0.0,0.0143411004589152,1024,0.0,100,Motors_Started,
0.307705798590526,36.8794494422283,500,2017-11-08 12:33:11,1769.4299882217445,0.0,0.0,0.0194806006233792,1769.4299882217445,0.0,0.0,0.0194806006233792,1024,0.0,100,Motors_Started,
0.307705752160432,36.879449394043895,600,2017-11-08 12:33:11,1769.4299882217445,0.0,0.0,0.0252361008075552,1769.4299882217445,0.0,0.0,0.0252361008075552,1024,0.0,100,Motors_Started,
0.30770571587503603,36.879449340869606,700,2017-11-08 12:33:11,1769.4299882217445,0.0,0.0,0.0308428009869696,1769.4299882217445,0.0,0.0,0.0308428009869696,1045,0.0,100,Motors_Started,
0.30770566859133297,36.8794492819573,800,2017-11-08 12:33:11,1769.4299882217445,0.0,0.0,0.038368501227792014,1769.4299882217445,0.0,0.0,0.038368501227792014,1024,0.0,100,Motors_Started,
0.307705624140104,36.8794492271144,900,2017-11-08 12:33:11,1769.4299882217445,0.0,0.0,0.045690601462099203,1769.4299882217445,0.0,0.0,0.045690601462099203,1024,0.0,100,Motors_Started,Setting new Return-To-Home altitude to 30m (98 ft). Setting new Maximum Flight Altitude to 100m (328 ft)
0.30770558759090005,36.8794491526791,1000,2017-11-08 12:33:12,1769.4299882217445,0.0,0.0,0.0537218017190976,1769.4299882217445,0.0,0.0,0.0537218017190976,1024,0.0,100,Motors_Started,
0.307705563255229,36.8794490918029,1100,2017-11-08 12:33:12,1769.4299882217445,0.0,0.0,0.06007180192229761,1769.4299882217445,0.0,0.0,0.06007180192229761,1024,0.0,100,Motors_Started,
0.307705522395737,36.8794490197034,1200,2017-11-08 12:33:12,1769.4299882217445,0.0,0.0,0.068808002201856,1769.4299882217445,0.0,0.0,0.068808002201856,1024,0.0,100,Motors_Started,
0.30770548401819797,36.8794489586193,1300,2017-11-08 12:33:12,1769.4299882217445,0.0,0.0,0.07659470245103041,1769.4299882217445,0.0,0.0,0.07659470245103041,1024,0.0,100,Motors_Started,
0.307705455744135,36.8794488859649,1400,2017-11-08 12:33:12,1769.4299882217445,0.0,0.0,0.0845853027067296,1769.4299882217445,0.0,0.0,0.0845853027067296,1024,0.0,100,Motors_Started,
0.30770543701519704,36.879448826669204,1500,2017-11-08 12:33:12,1769.4299882217445,0.0,0.0,0.090880502908176,1769.4299882217445,0.0,0.0,0.090880502908176,1024,0.0,100,Motors_Started,
0.307705401249885,36.8794487905794,1600,2017-11-08 12:33:12,1769.4299882217445,0.0,0.0,0.0965198030886336,1769.4299882217445,0.0,0.0,0.0965198030886336,1024,0.0,100,Assisted_Takeoff,
0.30770536765671397,36.8794487629712,1700,2017-11-08 12:33:12,1769.4299882217445,0.0,0.0,0.10129500324144002,1769.4299882217445,0.0,0.0,0.10129500324144002,1024,0.0,100,Assisted_Takeoff,
0.307705345612264,36.879448728854,1800,2017-11-08 12:33:12,1769.4299882217445,0.0,0.0,0.10576000338432001,1769.4299882217445,0.0,0.0,0.10576000338432001,1024,0.0,100,Assisted_Takeoff,
0.30770533045307896,36.8794486926935,1900,2017-11-08 12:33:12,1769.4299882217445,0.0,0.0,0.10990200351686401,1769.4299882217445,0.0,0.0,0.10990200351686401,1024,0.0,100,Assisted_Takeoff,
0.307705325600112,36.879448675271504,2000,2017-11-08 12:33:13,1769.4299882217445,0.0,0.0,0.11172700357526402,1769.4299882217445,0.0,0.0,0.11172700357526402,1024,0.0,100,Assisted_Takeoff,
0.307705326994875,36.879448668536504,2100,2017-11-08 12:33:13,1769.4299882217445,0.0,0.0,0.11220100359043202,1769.4299882217445,0.0,0.0,0.11220100359043202,1024,0.0,100,Assisted_Takeoff,
0.307705367519925,36.8794486539708,2200,2017-11-08 12:33:13,1769.4299882217445,0.0,0.0,0.110646003540672,1769.4299882217445,0.0,0.0,0.11220100359043202,1024,0.0,100,Assisted_Takeoff,
0.30770540184386,36.879448625774295,2300,2017-11-08 12:33:13,1769.4299882217445,0.0,0.0,0.11091700354934401,1769.4299882217445,0.0,0.0,0.11220100359043202,1024,0.0,100,Assisted_Takeoff,
0.30770544074657297,36.8794486124726,2400,2017-11-08 12:33:13,1769.4299882217445,0.0,0.0,0.10973600351155201,1769.4299882217445,0.0,0.0,0.11220100359043202,1024,0.0,100,Assisted_Takeoff,
0.30770546772113694,36.8794486031282,2500,2017-11-08 12:33:13,1769.4299882217445,0.0,0.0,0.10903400348908801,1769.4299882217445,0.0,0.0,0.11220100359043202,1024,0.0,100,Assisted_Takeoff,
0.307705466878621,36.879448580185795,2600,2017-11-08 12:33:13,1769.4299882217445,0.0,0.0,0.11127400356076801,1769.4299882217445,0.0,0.0,0.11220100359043202,1024,0.0,100,Assisted_Takeoff,
0.30770545592937104,36.8794485521338,2700,2017-11-08 12:33:13,1769.4299882217445,0.0,0.0,0.11458200366662401,1769.4299882217445,0.0,0.0,0.11458200366662401,1024,0.0,100,Assisted_Takeoff,
0.30770544170633696,36.879448536449104,2800,2017-11-08 12:33:13,1769.4299882217445,0.0,0.0,0.11688600374035202,1769.4299882217445,0.0,0.0,0.11688600374035202,1024,0.0,100,Assisted_Takeoff,
0.30770543478382206,36.8794485250165,2900,2017-11-08 12:33:13,1769.4299882217445,0.0,0.0,0.11837200378790401,1769.4299882217445,0.0,0.0,0.11837200378790401,1024,0.0,100,Assisted_Takeoff,
0.30770542712565696,36.879448497365,3000,2017-11-08 12:33:14,1769.4299882217445,0.0,0.0,0.121458003886656,1769.4299882217445,0.0,0.0,0.121458003886656,1024,0.0,100,Assisted_Takeoff,
0.307705424706603,36.879448467161296,3100,2017-11-08 12:33:14,1769.4299882217445,0.0,0.0,0.124508003984256,1769.4299882217445,0.0,0.0,0.124508003984256,1024,0.0,100,Assisted_Takeoff,
0.307705421983845,36.879448448967295,3200,2017-11-08 12:33:14,1769.4299882217445,0.0,0.0,0.126422004045504,1769.4299882217445,0.0,0.0,0.126422004045504,1024,0.0,100,Assisted_Takeoff,
0.307705423156732,36.87944843647129,3300,2017-11-08 12:33:14,1769.4299882217445,0.0,0.0,0.127576004082432,1769.4299882217445,0.0,0.0,0.127576004082432,1024,0.0,100,Assisted_Takeoff,
0.307705394917681,36.879448407019,3400,2017-11-08 12:33:14,1769.4299882217445,0.0,0.0,0.131962004222784,1769.4299882217445,0.0,0.0,0.131962004222784,1024,0.0,100,Assisted_Takeoff,
0.307705367562875,36.879448375695894,3500,2017-11-08 12:33:14,1769.4299882217445,0.0,0.0,0.13649000436768,1769.4299882217445,0.0,0.0,0.13649000436768,1025,0.0,100,Assisted_Takeoff,
0.307705339931437,36.879448354790604,3600,2017-11-08 12:33:14,1769.4299882217445,0.0,0.0,0.140038004481216,1769.4299882217445,0.0,0.0,0.140038004481216,1025,0.0,100,Assisted_Takeoff,
0.307705324842886,36.879448340768796,3700,2017-11-08 12:33:14,1769.4299882217445,0.0,0.0,0.142231004551392,1769.4299882217445,0.0,0.0,0.142231004551392,1035,0.0,100,Assisted_Takeoff,
0.307705284461749,36.8794483096928,3800,2017-11-08 12:33:14,1769.4299882217445,0.0,0.0,0.147503004720096,1769.4299882217445,0.0,0.0,0.147503004720096,1061,0.0,100,Assisted_Takeoff,
0.30770524903189694,36.8794482775605,3900,2017-11-08 12:33:14,1769.4299882217445,0.0,0.0,0.152611004883552,1769.4299882217445,0.0,0.0,0.152611004883552,1061,0.0,100,Assisted_Takeoff,
0.3077052182311,36.879448255746496,4000,2017-11-08 12:33:15,1769.4299882217445,0.0,0.0,0.156488005007616,1769.4299882217445,0.0,0.0,0.156488005007616,1364,0.0,100,Assisted_Takeoff,
0.30770519973238303,36.8794482409712,4100,2017-11-08 12:33:15,1769.4299882217445,0.0,0.0,0.15898100508739202,1769.4299882217445,0.0,0.0,0.15898100508739202,1364,0.0,100,Assisted_Takeoff,
0.307705157284344,36.8794482090468,4200,2017-11-08 12:33:15,1769.4299882217445,0.0,0.0,0.16453400526508805,1769.4299882217445,0.0,0.0,0.16453400526508805,1472,0.0,100,Assisted_Takeoff,
0.30770512087640806,36.8794481746479,4300,2017-11-08 12:33:15,1769.4299882217445,0.0,0.0,0.169963005438816,1769.4299882217445,0.0,0.0,0.169963005438816,1611,0.0,100,Assisted_Takeoff,
0.307705058543032,36.8794481510391,4400,2017-11-08 12:33:15,1769.4299882217445,0.0,0.0,0.176062005633984,1769.4299882217445,0.0,0.0,0.176062005633984,1661,0.0,100,Assisted_Takeoff,
0.307705004067305,36.879448109140796,4500,2017-11-08 12:33:15,1769.4299882217445,0.0,0.0,0.18338000586816,1769.4299882217445,0.0,0.0,0.18338000586816,1684,0.0,100,Assisted_Takeoff,
0.307704898520726,36.8794479853063,4600,2017-11-08 12:33:15,1769.4299882217445,0.0,0.35999970196000003,0.20142500644560002,1769.4299882217445,0.0,0.35999970196000003,0.20142500644560002,1684,0.0,100,GPS_Atti,
0.307704730281698,36.8794477200459,4700,2017-11-08 12:33:15,1769.4299882217445,0.0,1.1375990581936,0.23628300756105602,1769.4299882217445,0.0,1.1375990581936,0.23628300756105602,1684,0.0,100,GPS_Atti,
0.30770447282938396,36.879447270187896,4800,2017-11-08 12:33:15,1769.5299882249446,0.10000000320000002,1.9403983935644,0.29366500939728,1769.5299882249446,0.10000000320000002,1.9403983935644,0.29366500939728,1684,0.0,100,GPS_Atti,
0.307704172719572,36.8794466931286,4900,2017-11-08 12:33:15,1769.6299882281446,0.20000000640000004,2.2751981163872,0.365544011697408,1769.6299882281446,0.20000000640000004,2.2751981163872,0.365544011697408,1684,0.0,100,GPS_Atti,Home Point Recorded. RTH Altitude:  30m.
0.30770382050830497,36.879445947385996,5000,2017-11-08 12:33:16,1769.7299882313446,0.3000000096,2.4155980001516,0.45655401460972805,1769.7299882313446,0.3000000096,2.4155980001516,0.45655401460972805,1684,0.0,100,GPS_Atti,
0.30770340951998104,36.87944517262321,5100,2017-11-08 12:33:16,1769.9299882377447,0.500000016,2.9015975977976,0.553917017725344,1769.9299882377447,0.500000016,2.9015975977976,0.553917017725344,1684,0.0,100,GPS_Atti,
0.30770292821422396,36.8794443687205,5200,2017-11-08 12:33:16,1770.1299882441444,0.7000000224000001,2.5955978511316,0.658112021059584,1770.1299882441444,0.7000000224000001,2.9015975977976,0.658112021059584,1684,0.0,100,GPS_Atti,
0.307701877489232,36.8794429563321,5400,2017-11-08 12:33:16,1770.7299882633447,1.3000000416000002,2.4155980001516,0.8531340273002881,1770.7299882633447,1.3000000416000002,2.9015975977976,0.8531340273002881,1684,0.0,100,GPS_Atti,
0.307701367068117,36.879442341384,5500,2017-11-08 12:33:16,1771.1299882761446,1.7000000544000002,2.0987982624268002,0.9413320301226241,1771.1299882761446,1.7000000544000002,2.9015975977976,0.9413320301226241,1684,0.0,100,GPS_Atti,
0.307700851747422,36.8794418409575,5600,2017-11-08 12:33:16,1771.5299882889447,2.1000000672,1.5263987363104,1.0193600326195202,1771.5299882889447,2.1000000672,2.9015975977976,1.0193600326195202,1684,0.0,100,GPS_Atti,
0.30770036169977,36.879441475923706,5700,2017-11-08 12:33:16,1772.0299883049445,2.6000000832000003,1.2995989240756,1.08371003467872,1772.0299883049445,2.6000000832000003,2.9015975977976,1.08371003467872,1684,0.0,100,GPS_Atti,
0.307699802176183,36.8794412498392,5800,2017-11-08 12:33:16,1772.4299883177446,3.0000000960000004,1.6091986677612,1.1406800365017602,1772.4299883177446,3.0000000960000004,2.9015975977976,1.1406800365017602,1684,0.0,100,GPS_Atti,
0.30769923056628495,36.879441059735605,5900,2017-11-08 12:33:16,1772.9299883337449,3.500000112,1.6091986677612,1.19642003828544,1772.9299883337449,3.500000112,2.9015975977976,1.19642003828544,1684,0.0,100,GPS_Atti,
0.30769863798609903,36.8794408871618,6000,2017-11-08 12:33:17,1773.4299883497447,4.000000128,1.6091986677612,1.25329004010528,1773.4299883497447,4.000000128,2.9015975977976,1.25329004010528,1684,0.0,100,GPS_Atti,
0.307698106426153,36.87944069159379,6100,2017-11-08 12:33:17,1774.0299883689445,4.6000001472,1.6091986677612,1.30864004187648,1774.0299883689445,4.6000001472,2.9015975977976,1.30864004187648,1684,0.0,100,GPS_Atti,
0.30769757381504603,36.879440432789394,6200,2017-11-08 12:33:17,1774.5299883849448,5.1000001632,1.7999985098000002,1.3698600438355202,1774.5299883849448,5.1000001632,2.9015975977976,1.3698600438355202,1684,0.0,100,GPS_Atti,
0.307697074284151,36.8794401349533,6300,2017-11-08 12:33:17,1775.0299884009446,5.600000179200001,1.7999985098000002,1.4320800458265603,1775.0299884009446,5.600000179200001,2.9015975977976,1.4320800458265603,1684,0.0,100,GPS_Atti,
0.307696621084115,36.8794398411523,6400,2017-11-08 12:33:17,1775.5299884169444,6.1000001952,1.7999985098000002,1.49059004769888,1775.5299884169444,6.1000001952,2.9015975977976,1.49059004769888,1684,0.0,100,GPS_Atti,
0.307696195989395,36.879439574955505,6500,2017-11-08 12:33:17,1776.0299884329447,6.6000002112,1.5263987363104,1.54484004943488,1776.0299884329447,6.6000002112,2.9015975977976,1.54484004943488,1684,0.0,100,GPS_Atti,
0.307695788882466,36.879439341247796,6600,2017-11-08 12:33:17,1776.6299884521445,7.200000230400001,1.5263987363104,1.59523005104736,1776.6299884521445,7.200000230400001,2.9015975977976,1.59523005104736,1684,0.0,100,GPS_Atti,
0.307695355490824,36.8794391089618,6700,2017-11-08 12:33:17,1777.1299884681448,7.7000002464,1.7999985098000002,1.64771005272672,1777.1299884681448,7.7000002464,2.9015975977976,1.64771005272672,1684,0.0,100,GPS_Atti,
0.307694933912728,36.879438933833605,6800,2017-11-08 12:33:17,1777.6299884841446,8.200000262400001,1.7999985098000002,1.69499005423968,1777.6299884841446,8.200000262400001,2.9015975977976,1.69499005423968,1684,0.0,100,GPS_Atti,
0.30769450662937897,36.8794387759226,6900,2017-11-08 12:33:17,1778.1299885001447,8.700000278400001,1.2995989240756,1.7416300557321598,1778.1299885001447,8.700000278400001,2.9015975977976,1.7416300557321598,1684,0.0,100,GPS_Atti,
0.307694042303,36.87943860353511,7000,2017-11-08 12:33:18,1778.7299885193447,9.3000002976,1.7999985098000002,1.7926200573638402,1778.7299885193447,9.3000002976,2.9015975977976,1.7926200573638402,1684,0.0,100,GPS_Atti,
0.307693544476271,36.879438396402705,7100,2017-11-08 12:33:18,1779.2299885353445,9.8000003136,1.7999985098000002,1.8492000591744,1779.2299885353445,9.8000003136,2.9015975977976,1.8492000591744,1684,0.0,100,GPS_Atti,
0.307693056076604,36.8794381681315,7200,2017-11-08 12:33:18,1779.7299885513446,10.300000329600001,1.5263987363104,1.90674006101568,1779.7299885513446,10.300000329600001,2.9015975977976,1.90674006101568,1684,0.0,100,GPS_Atti,
0.307692575459271,36.8794379369214,7300,2017-11-08 12:33:18,1780.3299885705446,10.9000003488,1.2995989240756,1.96397006284704,1780.3299885705446,10.9000003488,2.9015975977976,1.96397006284704,1684,-0.5,100,GPS_Atti,
0.307692076072493,36.8794377013049,7400,2017-11-08 12:33:18,1780.8299885865445,11.4000003648,1.2995989240756,2.02324006474368,1780.8299885865445,11.4000003648,2.9015975977976,2.02324006474368,1684,-2.3,100,GPS_Atti,
0.30769159256792894,36.8794374725519,7500,2017-11-08 12:33:18,1781.3299886025447,11.900000380800002,1.2995989240756,2.08079006658528,1781.3299886025447,11.900000380800002,2.9015975977976,2.08079006658528,1684,-5.5,100,GPS_Atti,
0.307691136735514,36.8794372385948,7600,2017-11-08 12:33:18,1781.8299886185446,12.4000003968,1.2995989240756,2.13643006836576,1781.8299886185446,12.4000003968,2.9015975977976,2.13643006836576,1684,-9.5,100,GPS_Atti,
0.307690671134063,36.8794370518249,7700,2017-11-08 12:33:18,1782.4299886377446,13.000000416,1.6091986677612,2.18967007006944,1782.4299886377446,13.000000416,2.9015975977976,2.18967007006944,1684,-13.6,100,GPS_Atti,
0.307690169185742,36.8794368671342,7800,2017-11-08 12:33:18,1782.9299886537447,13.500000432000002,1.4831987720752,2.24606007187392,1782.9299886537447,13.500000432000002,2.9015975977976,2.24606007187392,1684,-16.7,100,GPS_Atti,
0.30768967259663105,36.879436683291395,7900,2017-11-08 12:33:18,1783.5299886729445,14.100000451200001,1.6091986677612,2.30208007366656,1783.5299886729445,14.100000451200001,2.9015975977976,2.30208007366656,1684,-16.7,100,GPS_Atti,
0.307689204497147,36.879436499773995,8000,2017-11-08 12:33:19,1784.0299886889447,14.600000467200001,1.2995989240756,2.3557000753824,1784.0299886889447,14.600000467200001,2.9015975977976,2.3557000753824,1684,-16.7,100,GPS_Atti,
0.307688791836411,36.87943629726121,8100,2017-11-08 12:33:19,1784.5299887049446,15.100000483200002,1.2995989240756,2.40581007698592,1784.5299887049446,15.100000483200002,2.9015975977976,2.40581007698592,1684,-16.7,100,GPS_Atti,
0.30768842267304203,36.8794360330877,8200,2017-11-08 12:33:19,1785.1299887241446,15.700000502400002,1.2995989240756,2.45627007860064,1785.1299887241446,15.700000502400002,2.9015975977976,2.45627007860064,1684,-16.7,100,GPS_Atti,
0.30768806493809303,36.879435790605505,8300,2017-11-08 12:33:19,1785.6299887401447,16.2000005184,1.2995989240756,2.5042500801360004,1785.6299887401447,16.2000005184,2.9015975977976,2.5042500801360004,1684,-16.7,100,GPS_Atti,
0.307687724990638,36.8794355583078,8400,2017-11-08 12:33:19,1786.2299887593445,16.8000005376,1.2995989240756,2.5499800815993603,1786.2299887593445,16.8000005376,2.9015975977976,2.5499800815993603,1684,-16.7,100,GPS_Atti,
0.30768739156998703,36.8794353330684,8500,2017-11-08 12:33:19,1786.7299887753447,17.3000005536,1.2995989240756,2.59466008302912,1786.7299887753447,17.3000005536,2.9015975977976,2.59466008302912,1684,-16.7,100,GPS_Atti,
0.307687064226688,36.879435076982205,8600,2017-11-08 12:33:19,1787.3299887945445,17.9000005728,1.2995989240756,2.6408700845078403,1787.3299887945445,17.9000005728,2.9015975977976,2.6408700845078403,1684,-16.7,100,GPS_Atti,
0.307686732327003,36.8794348114919,8700,2017-11-08 12:33:19,1787.8299888105448,18.4000005888,1.2995989240756,2.68812008601984,1787.8299888105448,18.4000005888,2.9015975977976,2.68812008601984,1684,-16.7,100,GPS_Atti,
0.30768644746980894,36.8794345325571,8800,2017-11-08 12:33:19,1788.4299888297446,19.000000608,1.2995989240756,2.7321200874278406,1788.4299888297446,19.000000608,2.9015975977976,2.7321200874278406,1684,-16.7,100,GPS_Atti,
0.307686163762296,36.879434283616,8900,2017-11-08 12:33:19,1788.9299888457444,19.500000624000002,1.2995989240756,2.77399008876768,1788.9299888457444,19.500000624000002,2.9015975977976,2.77399008876768,1684,-16.7,100,GPS_Atti,
0.30768593937574,36.8794340557355,9000,2017-11-08 12:33:20,1789.5299888649447,20.1000006432,1.0187991565468,2.8092200898950406,1789.5299888649447,20.1000006432,2.9015975977976,2.8092200898950406,1684,-16.7,100,GPS_Atti,
0.307685734155971,36.87943383592621,9100,2017-11-08 12:33:20,1790.0299888809445,20.600000659200003,1.0187991565468,2.84221009095072,1790.0299888809445,20.600000659200003,2.9015975977976,2.84221009095072,1684,-16.7,100,GPS_Atti,
0.30768557791816903,36.879433598495005,9200,2017-11-08 12:33:20,1790.6299889001448,21.2000006784,0.8063993323904,2.87211009190752,1790.6299889001448,21.2000006784,2.9015975977976,2.87211009190752,1684,-16.7,100,GPS_Atti,
0.307685444936175,36.879433352362106,9300,2017-11-08 12:33:20,1791.1299889161446,21.700000694400003,0.8063993323904,2.9006100928195204,1791.1299889161446,21.700000694400003,2.9015975977976,2.9006100928195204,1684,-16.7,100,GPS_Atti,
0.307685362501083,36.8794330963711,9400,2017-11-08 12:33:20,1791.7299889353446,22.3000007136,0.8063993323904,2.9254300936137603,1791.7299889353446,22.3000007136,2.9015975977976,2.9254300936137603,1684,-16.7,100,GPS_Atti,
0.30768526791779904,36.8794328478454,9500,2017-11-08 12:33:20,1792.3299889545447,22.900000732800002,0.8063993323904,2.95088009442816,1792.3299889545447,22.900000732800002,2.9015975977976,2.95088009442816,1684,-16.7,100,GPS_Atti,
0.30768523260661895,36.8794325845198,9600,2017-11-08 12:33:20,1792.8299889705447,23.400000748800004,0.8063993323904,2.9723300951145606,1792.8299889705447,23.400000748800004,2.9015975977976,2.9723300951145606,1684,-16.7,100,GPS_Atti,
0.30768517790392796,36.879432330588706,9700,2017-11-08 12:33:20,1793.4299889897445,24.000000768000003,0.8063993323904,2.99492009583744,1793.4299889897445,24.000000768000003,2.9015975977976,2.99492009583744,1684,-16.7,100,GPS_Atti,
0.307685120639695,36.8794320937998,9800,2017-11-08 12:33:20,1793.9299890057446,24.500000784000004,0.8063993323904,3.01661009653152,1793.9299890057446,24.500000784000004,2.9015975977976,3.01661009653152,1684,-16.7,100,GPS_Atti,
0.30768500679680394,36.8794318800426,9900,2017-11-08 12:33:20,1794.5299890249446,25.100000803199997,0.8063993323904,3.04156009732992,1794.5299890249446,25.100000803199997,2.9015975977976,3.04156009732992,1684,-16.7,99,GPS_Atti,
0.307684813808277,36.879431657926204,10000,2017-11-08 12:33:21,1795.0299890409447,25.600000819200005,0.5075995797636,3.07388009836416,1795.0299890409447,25.600000819200005,2.9015975977976,3.07388009836416,1684,-16.7,99,GPS_Atti,
0.3076846119479881,36.8794314704016,10100,2017-11-08 12:33:21,1795.5299890569447,26.100000835200003,0.5075995797636,3.1044800993433603,1795.5299890569447,26.100000835200003,2.9015975977976,3.1044800993433603,1684,-16.7,99,GPS_Atti,
0.307684383408901,36.8794312688116,10200,2017-11-08 12:33:21,1796.1299890761445,26.700000854400002,0.5075995797636,3.13836010042752,1796.1299890761445,26.700000854400002,2.9015975977976,3.13836010042752,1684,-16.7,99,GPS_Atti,
0.307684167324153,36.8794311008274,10300,2017-11-08 12:33:21,1796.6299890921448,27.200000870400004,0.5075995797636,3.16878010140096,1796.6299890921448,27.200000870400004,2.9015975977976,3.16878010140096,1684,-16.7,99,GPS_Atti,
0.307683966455586,36.8794309139259,10400,2017-11-08 12:33:21,1797.2299891113446,27.8000008896,0.5075995797636,3.1992501023760003,1797.2299891113446,27.8000008896,2.9015975977976,3.1992501023760003,1684,-16.7,99,GPS_Atti,
0.307683801324851,36.8794307609065,10500,2017-11-08 12:33:21,1797.7299891273444,28.300000905599997,0.5075995797636,3.2242601031763205,1797.7299891273444,28.300000905599997,2.9015975977976,3.2242601031763205,1684,-16.7,99,GPS_Atti,
0.307683735216538,36.8794306274981,10600,2017-11-08 12:33:21,1798.3299891465447,28.9000009248,0.35999970196000003,3.2394501036624,1798.3299891465447,28.9000009248,2.9015975977976,3.2394501036624,1684,-16.7,99,GPS_Atti,
0.307683703005916,36.8794305136794,10700,2017-11-08 12:33:21,1798.8299891625445,29.4000009408,0.35999970196000003,3.2503601040115204,1798.8299891625445,29.4000009408,2.9015975977976,3.2503601040115204,1684,-16.7,99,GPS_Atti,
0.30768373289112,36.8794303873112,10800,2017-11-08 12:33:21,1799.3299891785448,29.900000956800003,0.0,3.25696010422272,1799.3299891785448,29.900000956800003,2.9015975977976,3.25696010422272,1684,-16.7,99,GPS_Atti,
0.30768372875324396,36.8794302834425,10900,2017-11-08 12:33:21,1799.8299891945446,30.400000972799997,0.0,3.2648301044745605,1799.8299891945446,30.400000972799997,2.9015975977976,3.2648301044745605,1684,-16.7,99,GPS_Atti,
0.30768372260749605,36.879430178419796,11000,2017-11-08 12:33:22,1800.4299892137444,31.000000992,0.0,3.27298010473536,1800.4299892137444,31.000000992,2.9015975977976,3.27298010473536,1684,-16.7,99,GPS_Atti,
0.30768369516658695,36.8794300900554,11100,2017-11-08 12:33:22,1800.9299892297447,31.500001007999998,0.0,3.28173010501536,1800.9299892297447,31.500001007999998,2.9015975977976,3.28173010501536,1684,-16.7,99,GPS_Atti,
0.30768365311202,36.8794300035881,11200,2017-11-08 12:33:22,1801.4299892457445,32.000001024,0.0,3.2915701053302406,1801.4299892457445,32.000001024,2.9015975977976,3.2915701053302406,1684,-16.7,99,GPS_Atti,
0.307683599050937,36.879429938573296,11300,2017-11-08 12:33:22,1802.0299892649448,32.6000010432,0.0,3.3008501056272004,1802.0299892649448,32.6000010432,2.9015975977976,3.3008501056272004,1684,-16.7,99,GPS_Atti,
0.30768358427606396,36.8794298467295,11400,2017-11-08 12:33:22,1802.5299892809446,33.100001059200004,0.0,3.3088001058816006,1802.5299892809446,33.100001059200004,2.9015975977976,3.3088001058816006,1684,-16.7,99,GPS_Atti,
0.30768355602418895,36.879429753588205,11500,2017-11-08 12:33:22,1803.1299893001444,33.70000107840001,0.0,3.318000106176,1803.1299893001444,33.70000107840001,2.9015975977976,3.318000106176,1684,-16.7,99,GPS_Atti,
0.30768358694182696,36.879429651368206,11600,2017-11-08 12:33:22,1803.6299893161447,34.2000010944,0.0,3.3229301063337595,1803.6299893161447,34.2000010944,2.9015975977976,3.3229301063337595,1684,-16.7,99,GPS_Atti,
0.307683628960567,36.8794295485702,11700,2017-11-08 12:33:22,1804.2299893353445,34.800001113600004,0.35999970196000003,3.3270201064646403,1804.2299893353445,34.800001113600004,2.9015975977976,3.3270201064646403,1684,-16.7,99,GPS_Atti,
0.307683745464336,36.879429413785,11800,2017-11-08 12:33:22,1804.7299893513448,35.300001129600005,0.5075995797636,3.32737010647584,1804.7299893513448,35.300001129600005,2.9015975977976,3.32737010647584,1684,-16.7,99,GPS_Atti,
0.30768389253399897,36.879429273702605,11900,2017-11-08 12:33:22,1805.3299893705446,35.9000011488,0.5075995797636,3.3257301064233595,1805.3299893705446,35.9000011488,2.9015975977976,3.32737010647584,1684,-16.7,99,GPS_Atti,
0.307684121512766,36.879429126430104,12000,2017-11-08 12:33:23,1805.8299893865449,36.4000011648,0.35999970196000003,3.3181001061792004,1805.8299893865449,36.4000011648,2.9015975977976,3.32737010647584,1684,-16.7,99,GPS_Atti,
0.307684299522865,36.879429053585,12100,2017-11-08 12:33:23,1806.3299894025447,36.900001180800004,0.35999970196000003,3.30917010589344,1806.3299894025447,36.900001180800004,2.9015975977976,3.32737010647584,1684,-16.7,99,GPS_Atti,
0.307684431309581,36.879429054818296,12200,2017-11-08 12:33:23,1806.8299894185445,37.4000011968,0.0,3.29842010554944,1806.8299894185445,37.4000011968,2.9015975977976,3.32737010647584,1684,-16.7,99,GPS_Atti,
0.307684470297787,36.879429059854296,12300,2017-11-08 12:33:23,1807.3299894345446,37.90000121280001,0.0,3.29489010543648,1807.3299894345446,37.90000121280001,2.9015975977976,3.32737010647584,1684,-16.7,99,GPS_Atti,
0.307684515509906,36.8794290284047,12400,2017-11-08 12:33:23,1807.8299894505446,38.4000012288,0.0,3.2936501053968,1807.8299894505446,38.4000012288,2.9015975977976,3.32737010647584,1684,-16.7,99,GPS_Atti,
0.307684544427815,36.8794289931951,12500,2017-11-08 12:33:23,1808.3299894665447,38.9000012448,0.0,3.29402010540864,1808.3299894665447,38.9000012448,2.9015975977976,3.32737010647584,1684,-16.7,99,GPS_Atti,
0.307684627716211,36.8794289582746,12600,2017-11-08 12:33:23,1808.8299894825445,39.4000012608,0.0,3.29001010528032,1808.8299894825445,39.4000012608,2.9015975977976,3.32737010647584,1684,-16.7,99,GPS_Atti,
0.3076846905936911,36.8794289534355,12700,2017-11-08 12:33:23,1809.3299894985448,39.900001276800005,0.0,3.2853501051312004,1809.3299894985448,39.900001276800005,2.9015975977976,3.32737010647584,1684,-16.7,99,GPS_Atti,
0.307684786904754,36.879428994912296,12800,2017-11-08 12:33:23,1809.8299895145446,40.400001292800006,0.0,3.27443010478176,1809.8299895145446,40.400001292800006,2.9015975977976,3.32737010647584,1684,-16.7,99,GPS_Atti,
0.307684830898797,36.879429067331294,12900,2017-11-08 12:33:23,1810.3299895305445,40.90000130880001,0.0,3.26532010449024,1810.3299895305445,40.90000130880001,2.9015975977976,3.32737010647584,1684,-16.7,99,GPS_Atti,
0.30768484260730894,36.8794291692451,13000,2017-11-08 12:33:24,1810.7299895433446,41.30000132160001,0.35999970196000003,3.2565301042089603,1810.7299895433446,41.30000132160001,2.9015975977976,3.32737010647584,1684,-16.7,99,GPS_Atti,
0.30768478546032396,36.8794292813402,13100,2017-11-08 12:33:24,1811.2299895593446,41.80000133760001,0.35999970196000003,3.2525101040803204,1811.2299895593446,41.80000133760001,2.9015975977976,3.32737010647584,1684,-16.7,99,GPS_Atti,
0.30768472629569704,36.8794294168341,13200,2017-11-08 12:33:24,1811.7299895753447,42.30000135360001,0.5075995797636,3.24693010390176,1811.7299895753447,42.30000135360001,2.9015975977976,3.32737010647584,1684,-16.7,99,GPS_Atti,
0.30768464311314897,36.8794295461935,13300,2017-11-08 12:33:24,1812.2299895913445,42.800001369600004,0.35999970196000003,3.24384010380288,1812.2299895913445,42.800001369600004,2.9015975977976,3.32737010647584,1684,-16.7,99,GPS_Atti,
0.30768465368500797,36.879429694984104,13400,2017-11-08 12:33:24,1812.7299896073448,43.300001385600005,0.35999970196000003,3.23171010341472,1812.7299896073448,43.300001385600005,2.9015975977976,3.32737010647584,1684,-16.7,99,GPS_Atti,
0.307684666048154,36.87942983811129,13500,2017-11-08 12:33:24,1813.2299896233446,43.80000140159999,0.35999970196000003,3.2199001030368004,1813.2299896233446,43.80000140159999,2.9015975977976,3.32737010647584,1684,-16.7,99,GPS_Atti,
0.30768474840833804,36.8794299817138,13600,2017-11-08 12:33:24,1813.7299896393447,44.30000141760001,0.35999970196000003,3.20236010247552,1813.7299896393447,44.30000141760001,2.9015975977976,3.32737010647584,1684,-16.7,99,GPS_Atti,
0.30768481601319103,36.8794301054676,13700,2017-11-08 12:33:24,1814.2299896553445,44.80000143360001,0.0,3.18752010200064,1814.2299896553445,44.80000143360001,2.9015975977976,3.32737010647584,1684,-16.7,99,GPS_Atti,
0.307684956404604,36.8794301997374,13800,2017-11-08 12:33:24,1814.7299896713448,45.3000014496,0.0,3.16892010140544,1814.7299896713448,45.3000014496,2.9015975977976,3.32737010647584,1684,-16.7,99,GPS_Atti,
0.307685056053978,36.8794302542732,13900,2017-11-08 12:33:24,1815.2299896873446,45.800001465600005,0.0,3.1566601010131206,1815.2299896873446,45.800001465600005,2.9015975977976,3.32737010647584,1684,-16.7,99,GPS_Atti,
0.30768519077840695,36.87943029305,14000,2017-11-08 12:33:25,1815.8299897065447,46.4000014848,0.0,3.1427101005667204,1815.8299897065447,46.4000014848,2.9015975977976,3.32737010647584,1684,-16.7,99,GPS_Atti,
0.307685285338893,36.8794303166501,14100,2017-11-08 12:33:25,1816.3299897225447,46.9000015008,0.0,3.1332001002623997,1816.3299897225447,46.9000015008,2.9015975977976,3.32737010647584,1684,-16.7,99,GPS_Atti,
0.30768539211108004,36.8794303180055,14200,2017-11-08 12:33:25,1816.8299897385446,47.400001516799996,0.0,3.12439009998048,1816.8299897385446,47.400001516799996,2.9015975977976,3.32737010647584,1684,-16.7,99,GPS_Atti,
0.30768544051495,36.8794303121108,14300,2017-11-08 12:33:25,1817.3299897545448,47.900001532800005,0.0,3.1209000998688006,1817.3299897545448,47.900001532800005,2.9015975977976,3.32737010647584,1684,-16.7,99,GPS_Atti,
0.307685477399206,36.8794303324285,14400,2017-11-08 12:33:25,1817.9299897737446,48.500001552,0.0,3.1163500997232,1817.9299897737446,48.500001552,2.9015975977976,3.32737010647584,1684,-16.7,99,GPS_Atti,
0.307685480504649,36.8794303554868,14500,2017-11-08 12:33:25,1818.4299897897445,49.00000156800001,0.0,3.1143500996592,1818.4299897897445,49.00000156800001,2.9015975977976,3.32737010647584,1684,-16.7,99,GPS_Atti,
0.30768550751076396,36.8794303681476,14600,2017-11-08 12:33:25,1818.9299898057448,49.500001584,0.0,3.1112000995584,1818.9299898057448,49.500001584,2.9015975977976,3.32737010647584,1684,-16.7,99,GPS_Atti,
0.307685505740645,36.879430381787,14700,2017-11-08 12:33:25,1819.4299898217446,50.000001600000004,0.0,3.11031009952992,1819.4299898217446,50.000001600000004,2.9015975977976,3.32737010647584,1684,-16.7,99,GPS_Atti,
0.307685508339642,36.8794304510413,14800,2017-11-08 12:33:25,1819.8299898345447,50.40000161280001,0.0,3.1048500993552,1819.8299898345447,50.40000161280001,2.9015975977976,3.32737010647584,1684,-16.7,99,GPS_Atti,
0.307685493629907,36.879430534279706,14900,2017-11-08 12:33:25,1820.3299898505445,50.9000016288,0.0,3.0997600991923204,1820.3299898505445,50.9000016288,2.9015975977976,3.32737010647584,1684,-16.7,99,GPS_Atti,
0.30768551354089196,36.879430611831104,15000,2017-11-08 12:33:26,1820.8299898665448,51.4000016448,0.0,3.09229009895328,1820.8299898665448,51.4000016448,2.9015975977976,3.32737010647584,1684,-16.7,99,GPS_Atti,
0.30768552972274,36.879430662587794,15100,2017-11-08 12:33:26,1821.3299898825446,51.90000166080001,0.0,3.0871500987888,1821.3299898825446,51.90000166080001,2.9015975977976,3.32737010647584,1684,-16.7,99,GPS_Atti,
0.307685569279273,36.879430733921204,15200,2017-11-08 12:33:26,1821.9299899017446,52.500001680000004,0.0,3.07854009851328,1821.9299899017446,52.500001680000004,2.9015975977976,3.32737010647584,1684,-16.7,99,GPS_Atti,
0.30768559399579604,36.8794307972809,15300,2017-11-08 12:33:26,1822.4299899177447,53.000001696000005,0.0,3.071750098296,1822.4299899177447,53.000001696000005,2.9015975977976,3.32737010647584,1684,-16.7,99,GPS_Atti,
0.307685652603496,36.8794308758044,15400,2017-11-08 12:33:26,1822.9299899337445,53.500001712,0.0,3.0610500979536006,1822.9299899337445,53.500001712,2.9015975977976,3.32737010647584,1684,-16.7,99,GPS_Atti,
0.307685701982803,36.8794309476174,15500,2017-11-08 12:33:26,1823.4299899497448,54.00000172800001,0.0,3.0516100976515204,1823.4299899497448,54.00000172800001,2.9015975977976,3.32737010647584,1684,-16.7,99,GPS_Atti,
0.30768577935506297,36.8794310194176,15600,2017-11-08 12:33:26,1823.8299899625447,54.40000174080001,0.0,3.03988009727616,1823.8299899625447,54.40000174080001,2.9015975977976,3.32737010647584,1684,-16.7,99,GPS_Atti,
0.307685838267281,36.8794310774971,15700,2017-11-08 12:33:26,1824.3299899785447,54.9000017568,0.0,3.0306800969817598,1824.3299899785447,54.9000017568,2.9015975977976,3.32737010647584,1684,-16.7,99,GPS_Atti,
0.307685922446437,36.8794311404457,15800,2017-11-08 12:33:26,1824.8299899945446,55.40000177280001,0.0,3.0190500966096003,1824.8299899945446,55.40000177280001,2.9015975977976,3.32737010647584,1684,-16.7,99,GPS_Atti,
0.307685989338031,36.8794312024436,15900,2017-11-08 12:33:26,1825.3299900105444,55.900001788800004,0.0,3.0089100962851205,1825.3299900105444,55.900001788800004,2.9015975977976,3.32737010647584,1684,-16.7,99,GPS_Atti,
0.307686064363703,36.879431301077,16000,2017-11-08 12:33:27,1825.8299900265447,56.400001804800006,0.0,2.9953500958512,1825.8299900265447,56.400001804800006,2.9015975977976,3.32737010647584,1684,-16.7,99,GPS_Atti,
0.307686124318125,36.879431413913004,16100,2017-11-08 12:33:27,1826.2299900393448,56.80000181760001,0.35999970196000003,2.98198009542336,1826.2299900393448,56.80000181760001,2.9015975977976,3.32737010647584,1684,-16.7,99,GPS_Atti,
0.307686200029372,36.8794315252886,16200,2017-11-08 12:33:27,1826.7299900553446,57.3000018336,0.0,2.9674200949574403,1826.7299900553446,57.3000018336,2.9015975977976,3.32737010647584,1684,-16.7,99,GPS_Atti,
0.307686290981226,36.879431600114295,16300,2017-11-08 12:33:27,1827.2299900713444,57.8000018496,0.35999970196000003,2.95434009453888,1827.2299900713444,57.8000018496,2.9015975977976,3.32737010647584,1684,-16.7,99,GPS_Atti,
0.30768641857795503,36.8794316365904,16400,2017-11-08 12:33:27,1827.7299900873447,58.30000186560001,0.35999970196000003,2.94111009411552,1827.7299900873447,58.30000186560001,2.9015975977976,3.32737010647584,1684,-16.7,99,GPS_Atti,
0.307686567924183,36.8794316017212,16500,2017-11-08 12:33:27,1828.3299901065445,58.900001884800005,0.35999970196000003,2.93147009380704,1828.3299901065445,58.900001884800005,2.9015975977976,3.32737010647584,1684,-16.7,99,GPS_Atti,
0.30768680309429397,36.8794314907706,16600,2017-11-08 12:33:27,1828.8299901225448,59.4000019008,0.8063993323904,2.9206900934620803,1828.8299901225448,59.4000019008,2.9015975977976,3.32737010647584,1684,-16.7,99,GPS_Atti,
0.307687059497687,36.8794313625161,16700,2017-11-08 12:33:27,1829.2299901353447,59.800001913600006,0.8063993323904,2.9097800931129605,1829.2299901353447,59.800001913600006,2.9015975977976,3.32737010647584,1684,-16.7,99,GPS_Atti,
0.307687296892253,36.8794312706873,16800,2017-11-08 12:33:27,1829.7299901513447,60.30000192960001,0.35999970196000003,2.89787009273184,1829.7299901513447,60.30000192960001,2.9015975977976,3.32737010647584,1684,-16.7,99,GPS_Atti,
0.30768745102773404,36.8794312183461,16900,2017-11-08 12:33:27,1830.2299901673446,60.800001945599995,0.0,2.88968009246976,1830.2299901673446,60.800001945599995,2.9015975977976,3.32737010647584,1684,-16.7,99,GPS_Atti,
0.307687500714817,36.8794311845925,17000,2017-11-08 12:33:28,1830.7299901833449,61.3000019616,0.0,2.88839009242848,1830.7299901833449,61.3000019616,2.9015975977976,3.32737010647584,1684,-16.7,99,GPS_Atti,
0.307687478224377,36.879431180181705,17100,2017-11-08 12:33:28,1831.2299901993447,61.80000197760001,0.0,2.8905100924963203,1831.2299901993447,61.80000197760001,2.9015975977976,3.32737010647584,1684,-16.7,99,GPS_Atti,
0.30768738301414195,36.8794311500574,17200,2017-11-08 12:33:28,1831.7299902153445,62.300001993600006,0.0,2.9004000928128,1831.7299902153445,62.300001993600006,2.9015975977976,3.32737010647584,1684,-16.7,99,GPS_Atti,
0.307687284674037,36.8794310967292,17300,2017-11-08 12:33:28,1832.3299902345448,62.9000020128,0.0,2.9123600931955202,1832.3299902345448,62.9000020128,2.9015975977976,3.32737010647584,1684,-16.7,99,GPS_Atti,
0.30768716058171997,36.8794310017871,17400,2017-11-08 12:33:28,1832.8299902505446,63.4000020288,0.0,2.9296000937472,1832.8299902505446,63.4000020288,2.9015975977976,3.32737010647584,1684,-16.7,99,GPS_Atti,
0.307687064339051,36.8794309156025,17500,2017-11-08 12:33:28,1833.4299902697448,64.000002048,0.0,2.9439600942067203,1833.4299902697448,64.000002048,2.9015975977976,3.32737010647584,1684,-16.7,99,GPS_Atti,
0.307686991984027,36.8794308181167,17600,2017-11-08 12:33:28,1833.9299902857447,64.500002064,0.0,2.95729009463328,1833.9299902857447,64.500002064,2.9015975977976,3.32737010647584,1684,-16.7,99,GPS_Atti,
0.307686936748835,36.879430717142895,17700,2017-11-08 12:33:28,1834.5299903049447,65.1000020832,0.35999970196000003,2.96954009502528,1834.5299903049447,65.1000020832,2.9015975977976,3.32737010647584,1684,-16.7,99,GPS_Atti,
0.307686857700907,36.879430547039,17800,2017-11-08 12:33:28,1835.1299903241447,65.7000021024,0.35999970196000003,2.9890800956505603,1835.1299903241447,65.7000021024,2.9015975977976,3.32737010647584,1684,-16.7,99,GPS_Atti,
0.307686728518073,36.879430350444395,17900,2017-11-08 12:33:28,1835.6299903401446,66.20000211840001,0.5075995797636,3.01467009646944,1835.6299903401446,66.20000211840001,2.9015975977976,3.32737010647584,1684,-16.7,99,GPS_Atti,
0.307686533261124,36.879430144398604,18000,2017-11-08 12:33:29,1836.2299903593446,66.8000021376,0.5075995797636,3.0462300974793606,1836.2299903593446,66.8000021376,2.9015975977976,3.32737010647584,1684,-16.7,99,GPS_Atti,
0.307686342420515,36.8794299988583,18100,2017-11-08 12:33:29,1836.7299903753446,67.30000215359999,0.35999970196000003,3.0726900983260803,1836.7299903753446,67.30000215359999,2.9015975977976,3.32737010647584,1684,-16.7,99,GPS_Atti,
0.307686175832323,36.879429865831,18200,2017-11-08 12:33:29,1837.2299903913447,67.8000021696,0.35999970196000003,3.0962700990806398,1837.2299903913447,67.8000021696,2.9015975977976,3.32737010647584,1684,-16.7,99,GPS_Atti,
0.307686032304526,36.879429762210705,18300,2017-11-08 12:33:29,1837.7299904073448,68.30000218560001,0.35999970196000003,3.11572009970304,1837.7299904073448,68.30000218560001,2.9015975977976,3.32737010647584,1684,-16.7,99,GPS_Atti,
0.307685769341761,36.8794296432896,18400,2017-11-08 12:33:29,1838.2299904233446,68.8000022016,0.35999970196000003,3.1458401006668804,1838.2299904233446,68.8000022016,2.9015975977976,3.32737010647584,1684,-16.7,99,GPS_Atti,
0.30768552155446505,36.8794295554348,18500,2017-11-08 12:33:29,1838.7299904393444,69.30000221760001,0.0,3.1723801015161603,1838.7299904393444,69.30000221760001,2.9015975977976,3.32737010647584,1684,-16.7,99,GPS_Atti,
0.307685230463587,36.8794294560648,18600,2017-11-08 12:33:29,1839.2299904553447,69.8000022336,0.0,3.2033301025065604,1839.2299904553447,69.8000022336,2.9015975977976,3.32737010647584,1684,-16.7,99,GPS_Atti,
0.30768497775676196,36.8794293812219,18700,2017-11-08 12:33:29,1839.7299904713445,70.30000224960001,0.0,3.2293701033398405,1839.7299904713445,70.30000224960001,2.9015975977976,3.32737010647584,1684,-16.7,99,GPS_Atti,
0.30768463494161696,36.879429271503604,18800,2017-11-08 12:33:29,1840.2299904873446,70.80000226560001,0.0,3.2654101044931205,1840.2299904873446,70.80000226560001,2.9015975977976,3.32737010647584,1684,-16.7,99,GPS_Atti,
0.307684367982651,36.8794292248066,18900,2017-11-08 12:33:29,1840.7299905033447,71.3000022816,0.0,3.29059010529888,1840.7299905033447,71.3000022816,2.9015975977976,3.32737010647584,1684,-16.7,99,GPS_Atti,
0.30768384894381,36.879429191686796,19100,2017-11-08 12:33:30,1841.7299905353445,72.3000023136,0.0,3.3354601067347205,1841.7299905353445,72.3000023136,2.9015975977976,3.3354601067347205,1684,-16.7,99,GPS_Atti,
0.307683601495231,36.8794290933916,19200,2017-11-08 12:33:30,1842.2299905513448,72.8000023296,0.0,3.3631501076208,1842.2299905513448,72.8000023296,2.9015975977976,3.3631501076208,1684,-16.7,99,GPS_Atti,
0.307683402212768,36.879428995370496,19300,2017-11-08 12:33:30,1842.7299905673447,73.3000023456,0.0,3.38689010838048,1842.7299905673447,73.3000023456,2.9015975977976,3.38689010838048,1684,-16.7,99,GPS_Atti,
0.30768319789515697,36.87942887601471,19400,2017-11-08 12:33:30,1843.2299905833445,73.80000236160001,0.0,3.4126401092044802,1843.2299905833445,73.80000236160001,2.9015975977976,3.4126401092044802,1684,-16.7,99,GPS_Atti,
0.307683022883024,36.8794287959581,19500,2017-11-08 12:33:30,1843.8299906025447,74.4000023808,0.0,3.43306010985792,1843.8299906025447,74.4000023808,2.9015975977976,3.43306010985792,1684,-16.7,99,GPS_Atti,
0.30768286435562897,36.87942870569879,19600,2017-11-08 12:33:30,1844.3299906185446,74.9000023968,0.0,3.4528801104921603,1844.3299906185446,74.9000023968,2.9015975977976,3.4528801104921603,1684,-16.7,99,GPS_Atti,
0.30768272610887604,36.8794286317724,19700,2017-11-08 12:33:30,1844.8299906345446,75.40000241279999,0.0,3.469820111034241,1844.8299906345446,75.40000241279999,2.9015975977976,3.469820111034241,1684,-16.7,99,GPS_Atti,
0.30768260978912104,36.8794285695861,19800,2017-11-08 12:33:30,1845.4299906537447,76.000002432,0.0,3.48407011149024,1845.4299906537447,76.000002432,2.9015975977976,3.48407011149024,1684,-16.7,99,GPS_Atti,
0.307682450423078,36.8794285462815,19900,2017-11-08 12:33:30,1845.9299906697445,76.500002448,0.0,3.49903011196896,1845.9299906697445,76.500002448,2.9015975977976,3.49903011196896,1684,-16.7,99,GPS_Atti,
0.307682096334215,36.8794285646678,20100,2017-11-08 12:33:31,1846.9299907017446,77.50000248,0.0,3.5272201128710403,1846.9299907017446,77.50000248,2.9015975977976,3.5272201128710403,1684,-16.7,99,GPS_Atti,
0.30768197908950395,36.879428583484504,20200,2017-11-08 12:33:31,1847.4299907177447,78.00000249600001,0.0,3.5356701131414403,1847.4299907177447,78.00000249600001,2.9015975977976,3.5356701131414403,1684,-16.7,99,GPS_Atti,
0.307681888295609,36.8794285910622,20300,2017-11-08 12:33:31,1847.9299907337447,78.500002512,0.0,3.5427401133676804,1847.9299907337447,78.500002512,2.9015975977976,3.5427401133676804,1684,-16.7,99,GPS_Atti,
0.307681789419747,36.8794285681965,20400,2017-11-08 12:33:31,1848.4299907497448,79.00000252800001,0.0,3.5527201136870405,1848.4299907497448,79.00000252800001,2.9015975977976,3.5527201136870405,1684,-16.7,99,GPS_Atti,
0.307681670631271,36.879428550240604,20500,2017-11-08 12:33:31,1848.9299907657446,79.500002544,0.0,3.56404011404928,1848.9299907657446,79.500002544,2.9015975977976,3.56404011404928,1684,-16.7,99,GPS_Atti,
0.307681569171068,36.879428546129496,20600,2017-11-08 12:33:31,1849.4299907817444,80.00000256,0.0,3.5729001143328,1849.4299907817444,80.00000256,2.9015975977976,3.5729001143328,1684,-16.7,99,GPS_Atti,
0.307681493078765,36.8794285691814,20700,2017-11-08 12:33:31,1849.9299907977447,80.500002576,0.0,3.57767011448544,1849.9299907977447,80.500002576,2.9015975977976,3.57767011448544,1684,-16.7,99,GPS_Atti,
0.307681415996369,36.8794285911371,20800,2017-11-08 12:33:31,1850.5299908169445,81.10000259520002,0.0,3.5826101146435203,1850.5299908169445,81.10000259520002,2.9015975977976,3.5826101146435203,1684,-16.7,99,GPS_Atti,
0.307681324451761,36.8794286189767,20900,2017-11-08 12:33:31,1851.0299908329448,81.6000026112,0.0,3.5883801148281607,1851.0299908329448,81.6000026112,2.9015975977976,3.5883801148281607,1684,-16.7,99,GPS_Atti,
0.307681206780398,36.879428617195295,21000,2017-11-08 12:33:32,1851.5299908489446,82.10000262720001,0.0,3.5985101151523198,1851.5299908489446,82.10000262720001,2.9015975977976,3.5985101151523198,1684,-16.7,99,GPS_Atti,
0.30768107519397997,36.8794286109473,21100,2017-11-08 12:33:32,1852.0299908649447,82.60000264320001,0.0,3.61017011552544,1852.0299908649447,82.60000264320001,2.9015975977976,3.61017011552544,1684,-16.7,99,GPS_Atti,
0.307680868642144,36.8794285827779,21200,2017-11-08 12:33:32,1852.5299908809448,83.10000265920002,0.0,3.6298201161542405,1852.5299908809448,83.10000265920002,2.9015975977976,3.6298201161542405,1684,-16.7,99,GPS_Atti,
0.30768066319439197,36.8794285689224,21300,2017-11-08 12:33:32,1853.0299908969446,83.60000267520002,0.0,3.6484001167488,1853.0299908969446,83.60000267520002,2.9015975977976,3.6484001167488,1684,-16.7,99,GPS_Atti,
0.30768044067566197,36.8794285554244,21400,2017-11-08 12:33:32,1853.6299909161446,84.2000026944,0.0,3.66848011739136,1853.6299909161446,84.2000026944,2.9015975977976,3.66848011739136,1412,-16.7,99,GPS_Atti,
0.307680203048229,36.87942856335739,21500,2017-11-08 12:33:32,1854.1299909321447,84.70000271040001,0.35999970196000003,3.6884101180291204,1854.1299909321447,84.70000271040001,2.9015975977976,3.6884101180291204,1107,-16.7,99,GPS_Atti,
0.307679993890882,36.879428552077705,21600,2017-11-08 12:33:32,1854.6299909481447,85.20000272640002,0.35999970196000003,3.7073001186336003,1854.6299909481447,85.20000272640002,2.9015975977976,3.7073001186336003,797,-16.7,99,GPS_Atti,
0.307679796113102,36.8794285091984,21700,2017-11-08 12:33:32,1855.1299909641446,85.7000027424,0.35999970196000003,3.72744011927808,1855.1299909641446,85.7000027424,2.9015975977976,3.72744011927808,625,-16.7,99,GPS_Atti,
0.307679625510795,36.8794284253391,21800,2017-11-08 12:33:32,1855.5299909769446,86.10000275520001,0.35999970196000003,3.7480901199388796,1855.5299909769446,86.10000275520001,2.9015975977976,3.7480901199388796,410,-16.7,99,GPS_Atti,
0.307679426957875,36.8794283241041,21900,2017-11-08 12:33:32,1855.8299909865445,86.40000276479999,0.35999970196000003,3.77237012071584,1855.8299909865445,86.40000276479999,2.9015975977976,3.77237012071584,364,-16.7,99,GPS_Atti,
0.30767924888752396,36.8794281764033,22000,2017-11-08 12:33:33,1856.0299909929447,86.60000277120001,0.5075995797636,3.79809012153888,1856.0299909929447,86.60000277120001,2.9015975977976,3.79809012153888,364,-16.7,99,GPS_Atti,
0.307679046553357,36.879427996413604,22100,2017-11-08 12:33:33,1856.1299909961447,86.7000027744,0.5075995797636,3.8281601225011204,1856.1299909961447,86.7000027744,2.9015975977976,3.8281601225011204,364,-16.7,99,GPS_Atti,
0.307678875175911,36.8794277725896,22200,2017-11-08 12:33:33,1856.2299909993446,86.80000277760001,0.5075995797636,3.8585801234745603,1856.2299909993446,86.80000277760001,2.9015975977976,3.8585801234745603,364,-16.7,99,GPS_Atti,
0.307678686989666,36.879427529835404,22300,2017-11-08 12:33:33,1856.1299909961447,86.7000027744,0.5075995797636,3.8918001245376006,1856.2299909993446,86.80000277760001,2.9015975977976,3.8918001245376006,364,-16.7,99,GPS_Atti,
0.30767852199572,36.879427242150705,22400,2017-11-08 12:33:33,1856.0299909929447,86.60000277120001,0.5075995797636,3.92616012563712,1856.2299909993446,86.80000277760001,2.9015975977976,3.92616012563712,364,-16.7,99,GPS_Atti,
0.307678324621794,36.8794269505069,22500,2017-11-08 12:33:33,1855.8299909865445,86.40000276479999,0.5075995797636,3.9636301268361604,1856.2299909993446,86.80000277760001,2.9015975977976,3.9636301268361604,364,-16.7,99,GPS_Atti,
0.307678117916884,36.87942665302629,22600,2017-11-08 12:33:33,1855.6299909801448,86.2000027584,0.5075995797636,4.00236012807552,1856.2299909993446,86.80000277760001,2.9015975977976,4.00236012807552,364,-16.7,99,GPS_Atti,
0.307677912599408,36.8794264010779,22700,2017-11-08 12:33:33,1855.3299909705447,85.9000027488,0.0,4.03778012920896,1856.2299909993446,86.80000277760001,2.9015975977976,4.03778012920896,364,-16.7,99,GPS_Atti,
0.307677912224866,36.879426261323104,22800,2017-11-08 12:33:33,1854.9299909577446,85.500002736,0.0,4.047690129526081,1856.2299909993446,86.80000277760001,2.9015975977976,4.047690129526081,364,-16.7,99,GPS_Atti,
0.30767797310913,36.879426186947,22900,2017-11-08 12:33:33,1854.6299909481447,85.20000272640002,0.5075995797636,4.0477501295280005,1856.2299909993446,86.80000277760001,2.9015975977976,4.0477501295280005,364,-16.7,99,GPS_Atti,
0.307678104693919,36.879426168884,23000,2017-11-08 12:33:34,1854.2299909353446,84.8000027136,0.8063993323904,4.03779012920928,1856.2299909993446,86.80000277760001,2.9015975977976,4.0477501295280005,364,-16.7,99,GPS_Atti,
0.307678188047453,36.8794261820266,23100,2017-11-08 12:33:34,1853.9299909257445,84.500002704,0.8063993323904,4.02974012895168,1856.2299909993446,86.80000277760001,2.9015975977976,4.0477501295280005,364,-16.7,99,GPS_Atti,
0.30767830690758,36.879426255122205,23200,2017-11-08 12:33:34,1853.5299909129446,84.10000269119999,1.2995989240756,4.01439012846048,1856.2299909993446,86.80000277760001,2.9015975977976,4.0477501295280005,364,-16.7,99,GPS_Atti,
0.307678391664833,36.8794263335686,23300,2017-11-08 12:33:34,1853.2299909033445,83.8000026816,1.2995989240756,4.0015601280499205,1856.2299909993446,86.80000277760001,2.9015975977976,4.0477501295280005,364,-16.7,99,GPS_Atti,
0.30767845884140504,36.8794263633203,23400,2017-11-08 12:33:34,1852.8299908905447,83.4000026688,1.2995989240756,3.9937101277987206,1856.2299909993446,86.80000277760001,2.9015975977976,4.0477501295280005,364,-16.7,99,GPS_Atti,
0.307678474767587,36.879426374745705,23500,2017-11-08 12:33:34,1852.5299908809448,83.10000265920002,1.1375990581936,3.9915401277292797,1856.2299909993446,86.80000277760001,2.9015975977976,4.0477501295280005,364,-16.7,99,GPS_Atti,
0.307678453610843,36.8794263905026,23600,2017-11-08 12:33:34,1852.2299908713446,82.8000026496,1.1375990581936,3.99222012775104,1856.2299909993446,86.80000277760001,2.9015975977976,4.0477501295280005,364,-16.7,99,GPS_Atti,
0.307678409808956,36.8794264146273,23700,2017-11-08 12:33:34,1851.9299908617447,82.50000264,0.8063993323904,3.99423012781536,1856.2299909993446,86.80000277760001,2.9015975977976,4.0477501295280005,364,-16.7,99,GPS_Atti,
0.307678342625871,36.8794263970011,23800,2017-11-08 12:33:34,1851.6299908521446,82.20000263040001,0.8063993323904,4.00122012803904,1856.2299909993446,86.80000277760001,2.9015975977976,4.0477501295280005,364,-16.7,99,GPS_Atti,
0.307678267232171,36.879426379120105,23900,2017-11-08 12:33:34,1851.2299908393445,81.80000261760001,0.8063993323904,4.00894012828608,1856.2299909993446,86.80000277760001,2.9015975977976,4.0477501295280005,364,-16.7,98,GPS_Atti,
0.30767820286955,36.8794263257169,24000,2017-11-08 12:33:35,1850.9299908297446,81.500002608,0.7199994039200001,4.01824012858368,1856.2299909993446,86.80000277760001,2.9015975977976,4.0477501295280005,364,-16.7,98,GPS_Atti,
0.307678144571255,36.8794262683526,24100,2017-11-08 12:33:35,1850.6299908201447,81.2000025984,0.35999970196000003,4.0273001288736,1856.2299909993446,86.80000277760001,2.9015975977976,4.0477501295280005,364,-16.7,98,GPS_Atti,
0.30767808638043703,36.8794261883688,24200,2017-11-08 12:33:35,1850.3299908105448,80.9000025888,0.35999970196000003,4.03797012921504,1856.2299909993446,86.80000277760001,2.9015975977976,4.0477501295280005,364,-16.7,98,GPS_Atti,
0.307678012351373,36.87942612478,24300,2017-11-08 12:33:35,1850.1299908041447,80.7000025824,0.35999970196000003,4.048820129562241,1856.2299909993446,86.80000277760001,2.9015975977976,4.048820129562241,364,-16.7,98,GPS_Atti,
0.3076779680772381,36.8794260581914,24400,2017-11-08 12:33:35,1849.7299907913446,80.30000256960001,0.35999970196000003,4.05734012983488,1856.2299909993446,86.80000277760001,2.9015975977976,4.05734012983488,364,-16.7,98,GPS_Atti,
0.30767791909364195,36.8794260004352,24500,2017-11-08 12:33:35,1849.4299907817444,80.00000256,0.35999970196000003,4.06564013010048,1856.2299909993446,86.80000277760001,2.9015975977976,4.06564013010048,364,-16.7,98,GPS_Atti,
0.307677884541318,36.8794259915643,24600,2017-11-08 12:33:35,1849.1299907721448,79.70000255040001,0.35999970196000003,4.06922013021504,1856.2299909993446,86.80000277760001,2.9015975977976,4.06922013021504,364,-16.7,98,GPS_Atti,
0.30767783721222103,36.8794260050559,24700,2017-11-08 12:33:35,1848.8299907625446,79.4000025408,0.35999970196000003,4.0723001303136,1856.2299909993446,86.80000277760001,2.9015975977976,4.0723001303136,364,-16.7,98,GPS_Atti,
0.30767784035837503,36.8794260376832,24800,2017-11-08 12:33:35,1848.5299907529445,79.10000253119999,0.35999970196000003,4.06971013023072,1856.2299909993446,86.80000277760001,2.9015975977976,4.0723001303136,364,-16.7,98,GPS_Atti,
0.307677833300699,36.87942605821279,24900,2017-11-08 12:33:35,1848.2299907433446,78.8000025216,0.35999970196000003,4.06886013020352,1856.2299909993446,86.80000277760001,2.9015975977976,4.0723001303136,364,-16.7,98,GPS_Atti,
0.307677876034326,36.8794260703426,25000,2017-11-08 12:33:36,1847.9299907337447,78.500002512,0.35999970196000003,4.064340130058881,1856.2299909993446,86.80000277760001,2.9015975977976,4.0723001303136,364,-16.7,98,GPS_Atti,
0.307677908244949,36.879426080408294,25100,2017-11-08 12:33:36,1847.6299907241448,78.20000250240001,0.35999970196000003,4.06087012994784,1856.2299909993446,86.80000277760001,2.9015975977976,4.0723001303136,364,-16.7,98,GPS_Atti,
0.307677963755347,36.8794261338714,25200,2017-11-08 12:33:36,1847.3299907145447,77.9000024928,0.35999970196000003,4.052320129674241,1856.2299909993446,86.80000277760001,2.9015975977976,4.0723001303136,406,-16.7,98,GPS_Atti,
0.307677990269673,36.8794261966016,25300,2017-11-08 12:33:36,1846.9299907017446,77.50000248,0.35999970196000003,4.0456001294592,1856.2299909993446,86.80000277760001,2.9015975977976,4.0723001303136,569,-16.7,98,GPS_Atti,
0.307678068640168,36.8794262929012,25400,2017-11-08 12:33:36,1846.6299906921447,77.20000247040001,0.35999970196000003,4.0320501290256,1856.2299909993446,86.80000277760001,2.9015975977976,4.0723001303136,741,-16.7,98,GPS_Atti,
0.307678119577897,36.8794263830192,25500,2017-11-08 12:33:36,1846.4299906857448,77.000002464,0.35999970196000003,4.0213001286816,1856.2299909993446,86.80000277760001,2.9015975977976,4.0723001303136,925,-16.7,98,GPS_Atti,
0.307678119463906,36.8794263970439,25600,2017-11-08 12:33:36,1846.1299906761446,76.70000245439999,0.0,4.02031012864992,1856.2299909993446,86.80000277760001,2.9015975977976,4.0723001303136,1024,-16.7,98,GPS_Atti,
0.307678027479618,36.879426298249896,25700,2017-11-08 12:33:36,1846.0299906729447,76.6000024512,0.5075995797636,4.0352001291264,1856.2299909993446,86.80000277760001,2.9015975977976,4.0723001303136,1024,-16.7,98,GPS_Atti,
0.30767792127575705,36.8794261690939,25800,2017-11-08 12:33:36,1846.0299906729447,76.6000024512,0.5075995797636,4.0534501297103995,1856.2299909993446,86.80000277760001,2.9015975977976,4.0723001303136,1024,-16.7,98,GPS_Atti,
0.30767782059557897,36.879426034060295,25900,2017-11-08 12:33:36,1846.0299906729447,76.6000024512,0.35999970196000003,4.07166013029312,1856.2299909993446,86.80000277760001,2.9015975977976,4.0723001303136,1024,-16.7,98,GPS_Atti,
0.307677822145857,36.8794259309325,26000,2017-11-08 12:33:37,1846.2299906793446,76.8000024576,0.35999970196000003,4.07887013052384,1856.2299909993446,86.80000277760001,2.9015975977976,4.07887013052384,1024,-16.7,98,GPS_Atti,
0.30767788807504104,36.879425850756,26100,2017-11-08 12:33:37,1846.3299906825446,76.9000024608,0.0,4.07898013052736,1856.2299909993446,86.80000277760001,2.9015975977976,4.07898013052736,1024,-16.7,98,GPS_Atti,
0.307678020044143,36.8794257920705,26200,2017-11-08 12:33:37,1846.4299906857448,77.000002464,0.35999970196000003,4.07196013030272,1856.2299909993446,86.80000277760001,2.9015975977976,4.07898013052736,877,-16.7,98,GPS_Atti,
0.307678144854604,36.879425754101,26300,2017-11-08 12:33:37,1846.5299906889447,77.1000024672,0.0,4.06411013005152,1856.2299909993446,86.80000277760001,2.9015975977976,4.07898013052736,750,-16.7,98,GPS_Atti,
0.30767827485980204,36.8794257530432,26400,2017-11-08 12:33:37,1846.6299906921447,77.20000247040001,0.0,4.05319012970208,1856.2299909993446,86.80000277760001,2.9015975977976,4.07898013052736,685,-16.7,98,GPS_Atti,
0.30767838167270095,36.8794257548097,26500,2017-11-08 12:33:37,1846.6299906921447,77.20000247040001,0.0,4.04404012940928,1856.2299909993446,86.80000277760001,2.9015975977976,4.07898013052736,622,-16.7,98,GPS_Atti,
0.30767847758479605,36.8794257860752,26600,2017-11-08 12:33:37,1846.5299906889447,77.1000024672,0.0,4.033690129078081,1856.2299909993446,86.80000277760001,2.9015975977976,4.07898013052736,562,-16.7,98,GPS_Atti,
0.30767856385650205,36.879425837210896,26700,2017-11-08 12:33:37,1846.4299906857448,77.000002464,0.0,4.022710128726721,1856.2299909993446,86.80000277760001,2.9015975977976,4.07898013052736,568,-16.7,98,GPS_Atti,
0.307678695887484,36.879425886229,26800,2017-11-08 12:33:37,1846.3299906825446,76.9000024608,0.0,4.00803012825696,1856.2299909993446,86.80000277760001,2.9015975977976,4.07898013052736,624,-16.7,98,GPS_Atti,
0.307678831491273,36.879425934966505,26900,2017-11-08 12:33:37,1846.1299906761446,76.70000245439999,0.0,3.9930701277782403,1856.2299909993446,86.80000277760001,2.9015975977976,4.07898013052736,631,-16.7,98,GPS_Atti,
0.307678994081635,36.879426020421,27000,2017-11-08 12:33:38,1846.0299906729447,76.6000024512,0.35999970196000003,3.97319012714208,1856.2299909993446,86.80000277760001,2.9015975977976,4.07898013052736,626,-16.7,98,GPS_Atti,
0.307679147402894,36.8794261004712,27100,2017-11-08 12:33:38,1845.8299906665447,76.4000024448,0.35999970196000003,3.95448012654336,1856.2299909993446,86.80000277760001,2.9015975977976,4.07898013052736,620,-16.7,98,GPS_Atti,
0.307679330765688,36.8794261213819,27200,2017-11-08 12:33:38,1845.6299906601446,76.2000024384,0.35999970196000003,3.9375901260028803,1856.2299909993446,86.80000277760001,2.9015975977976,4.07898013052736,625,-16.7,98,GPS_Atti,
0.30767949012521806,36.879426142680295,27300,2017-11-08 12:33:38,1845.4299906537447,76.000002432,0.35999970196000003,3.9227101255267205,1856.2299909993446,86.80000277760001,2.9015975977976,4.07898013052736,638,-16.7,98,GPS_Atti,
0.307679671191906,36.8794261994001,27400,2017-11-08 12:33:38,1845.3299906505447,75.90000242880001,0.35999970196000003,3.90343012490976,1856.2299909993446,86.80000277760001,2.9015975977976,4.07898013052736,663,-16.7,98,GPS_Atti,
0.30767982034434804,36.8794262828505,27500,2017-11-08 12:33:38,1845.2299906473445,75.80000242560001,0.35999970196000003,3.8848601243155203,1856.2299909993446,86.80000277760001,2.9015975977976,4.07898013052736,884,-16.7,98,GPS_Atti,
0.307679994004873,36.8794263971724,27600,2017-11-08 12:33:38,1845.1299906441445,75.7000024224,0.5075995797636,3.86197012358304,1856.2299909993446,86.80000277760001,2.9015975977976,4.07898013052736,1011,-16.7,98,GPS_Atti,
0.30768013700179697,36.8794265172155,27700,2017-11-08 12:33:38,1845.0299906409446,75.60000241920001,0.5075995797636,3.8412201229190406,1856.2299909993446,86.80000277760001,2.9015975977976,4.07898013052736,991,-16.7,98,GPS_Atti,
0.30768033091528,36.8794266342696,27800,2017-11-08 12:33:38,1844.9299906377448,75.50000241600002,0.35999970196000003,3.8164501221264002,1856.2299909993446,86.80000277760001,2.9015975977976,4.07898013052736,961,-16.7,98,GPS_Atti,
0.307680632879279,36.879426640892206,28000,2017-11-08 12:33:39,1845.0299906409446,75.60000241920001,0.0,3.79093012130976,1856.2299909993446,86.80000277760001,2.9015975977976,4.07898013052736,981,-16.7,98,GPS_Atti,
0.30768075018749896,36.8794265989743,28100,2017-11-08 12:33:39,1845.1299906441445,75.7000024224,0.0,3.78437012109984,1856.2299909993446,86.80000277760001,2.9015975977976,4.07898013052736,1024,-16.7,98,GPS_Atti,
0.30768088854661496,36.8794265743979,28200,2017-11-08 12:33:39,1845.2299906473445,75.80000242560001,0.0,3.7748201207942405,1856.2299909993446,86.80000277760001,2.9015975977976,4.07898013052736,1024,-16.7,98,GPS_Atti,
0.30768095530467604,36.8794265894868,28300,2017-11-08 12:33:39,1845.2299906473445,75.80000242560001,0.0,3.7682101205827205,1856.2299909993446,86.80000277760001,2.9015975977976,4.07898013052736,1024,-16.7,98,GPS_Atti,
