latitude,longitude,time_millisecond,datetime_utc,altitude_m,ascent_m,speed_kph,distance_m,max_altitude_m,max_ascent_m,max_speed_kph,max_distance_m,rc_throttle,gimbal_pitch_degrees,battery_percent,flycState,message
0.34764692860345403,36.89998385372579,0,2018-04-04 13:07:43,1741.3897041244825,0.0,0.0,0.0,1741.3897041244825,0.0,0.0,0.0,364,0.0,99,Motors_Started,
0.34764694418908804,36.899983951053,100,2018-04-04 13:07:43,1741.3897041244825,0.0,0.0,0.010961100350755199,1741.3897041244825,0.0,0.0,0.010961100350755199,364,0.0,99,Motors_Started,
0.347646954222033,36.899984040100705,200,2018-04-04 13:07:43,1741.3897041244825,0.0,0.0,0.020920500669456003,1741.3897041244825,0.0,0.0,0.020920500669456003,364,0.0,99,Motors_Started,
0.347646962990797,36.899984135723,300,2018-04-04 13:07:43,1741.3897041244825,0.0,0.0,0.031591501010928,1741.3897041244825,0.0,0.0,0.031591501010928,364,0.0,99,Motors_Started,
0.34764696531764,36.8999842584122,400,2018-04-04 13:07:43,1741.3897041244825,0.0,0.0,0.0451876014460032,1741.3897041244825,0.0,0.0,0.0451876014460032,364,0.0,99,Motors_Started,
0.34764696874256296,36.899984382609404,500,2018-04-04 13:07:43,1741.3897041244825,0.0,0.0,0.0589831018874592,1741.3897041244825,0.0,0.0,0.0589831018874592,364,0.0,99,Motors_Started,
0.34764696647393706,36.8999844984355,600,2018-04-04 13:07:43,1741.3897041244825,0.0,0.0,0.0718179022981728,1741.3897041244825,0.0,0.0,0.0718179022981728,364,0.0,99,Motors_Started,
0.347646967001654,36.8999846113758,700,2018-04-04 13:07:43,1741.3897041244825,0.0,0.0,0.0843619026995808,1741.3897041244825,0.0,0.0,0.0843619026995808,364,0.0,99,Motors_Started,Setting new Return-To-Home altitude to 45m (148 ft). Setting new Maximum Flight Altitude to 150m (492 ft)
0.347646928471346,36.8999847153183,800,2018-04-04 13:07:43,1741.3897041244825,0.0,0.0,0.09581260306600321,1741.3897041244825,0.0,0.0,0.09581260306600321,364,0.0,99,Motors_Started,
0.347646896638828,36.89998482001771,900,2018-04-04 13:07:43,1741.3897041244825,0.0,0.0,0.107514003440448,1741.3897041244825,0.0,0.0,0.107514003440448,364,0.0,99,Motors_Started,
0.34764686466198996,36.8999849159354,1000,2018-04-04 13:07:44,1741.3897041244825,0.0,0.0,0.118336003786752,1741.3897041244825,0.0,0.0,0.118336003786752,379,0.0,99,Motors_Started,
0.34764684254853395,36.8999850152973,1100,2018-04-04 13:07:44,1741.3897041244825,0.0,0.0,0.1295250041448,1741.3897041244825,0.0,0.0,0.1295250041448,399,0.0,99,Motors_Started,
0.347646827640028,36.899985075240295,1200,2018-04-04 13:07:44,1741.3897041244825,0.0,0.0,0.13630100436163198,1741.3897041244825,0.0,0.0,0.13630100436163198,875,0.0,99,Motors_Started,
0.347646806076274,36.899985241846,1400,2018-04-04 13:07:44,1741.3897041244825,0.0,0.0,0.15496500495888,1741.3897041244825,0.0,0.0,0.15496500495888,1034,0.0,99,Motors_Started,
0.347646795819622,36.8999854514252,1600,2018-04-04 13:07:44,1741.3897041244825,0.0,0.0,0.178283005705056,1741.3897041244825,0.0,0.0,0.178283005705056,1024,0.0,99,Assisted_Takeoff,
0.34764679862593895,36.899985659122706,1800,2018-04-04 13:07:44,1741.3897041244825,0.0,0.0,0.20128700644118402,1741.3897041244825,0.0,0.0,0.20128700644118402,1024,0.0,99,Assisted_Takeoff,
0.347646800222222,36.8999857611649,1900,2018-04-04 13:07:44,1741.3897041244825,0.0,0.0,0.21259500680304003,1741.3897041244825,0.0,0.0,0.21259500680304003,1024,0.0,99,Assisted_Takeoff,
0.347646804726396,36.8999858289478,2000,2018-04-04 13:07:45,1741.3897041244825,0.0,0.0,0.22008400704268802,1741.3897041244825,0.0,0.0,0.22008400704268802,1024,0.0,99,Assisted_Takeoff,
0.34764680642995194,36.8999858980497,2100,2018-04-04 13:07:45,1741.3897041244825,0.0,0.0,0.22774300728777602,1741.3897041244825,0.0,0.0,0.22774300728777602,1024,0.0,99,Assisted_Takeoff,
0.347646811002317,36.899985971881,2200,2018-04-04 13:07:45,1741.3897041244825,0.0,0.0,0.23591000754912003,1741.3897041244825,0.0,0.0,0.23591000754912003,1024,0.0,99,Assisted_Takeoff,
0.347646812742615,36.899986050174,2300,2018-04-04 13:07:45,1741.3897041244825,0.0,0.0,0.244594007827008,1741.3897041244825,0.0,0.0,0.244594007827008,1024,0.0,99,Assisted_Takeoff,
0.3476468171203811,36.8999861016592,2400,2018-04-04 13:07:45,1741.3897041244825,0.0,0.0,0.250287008009184,1741.3897041244825,0.0,0.0,0.250287008009184,1064,0.0,99,Assisted_Takeoff,
0.34764681931481195,36.899986158046104,2500,2018-04-04 13:07:45,1741.3897041244825,0.0,0.0,0.256538008209216,1741.3897041244825,0.0,0.0,0.256538008209216,1151,0.0,99,Assisted_Takeoff,
0.347646821716766,36.89998622673,2600,2018-04-04 13:07:45,1741.3897041244825,0.0,0.0,0.26415500845295997,1741.3897041244825,0.0,0.0,0.26415500845295997,1178,0.0,99,Assisted_Takeoff,
0.34764682404065805,36.8999863015178,2700,2018-04-04 13:07:45,1741.3897041244825,0.0,0.0,0.27245300871849604,1741.3897041244825,0.0,0.0,0.27245300871849604,1198,0.0,99,Assisted_Takeoff,
0.34764682636577005,36.8999863557395,2800,2018-04-04 13:07:45,1741.3897041244825,0.0,0.0,0.278466008910912,1741.3897041244825,0.0,0.0,0.278466008910912,1198,0.0,99,Assisted_Takeoff,
0.347646828942172,36.8999864146808,2900,2018-04-04 13:07:45,1741.3897041244825,0.0,0.0,0.285004009120128,1741.3897041244825,0.0,0.0,0.285004009120128,1199,0.0,99,Assisted_Takeoff,
0.34764682949533393,36.8999864561527,3000,2018-04-04 13:07:46,1741.3897041244825,0.0,0.0,0.28961000926752,1741.3897041244825,0.0,0.0,0.28961000926752,1185,0.0,99,Assisted_Takeoff,
0.347646828288149,36.899986503970005,3100,2018-04-04 13:07:46,1741.3897041244825,0.0,0.0,0.29492900943772804,1741.3897041244825,0.0,0.0,0.29492900943772804,1202,0.0,99,Assisted_Takeoff,
0.34764682973339295,36.8999865735692,3200,2018-04-04 13:07:46,1741.3897041244825,0.0,0.0,0.302657009685024,1741.3897041244825,0.0,0.0,0.302657009685024,1222,0.0,99,Assisted_Takeoff,
0.347646817337066,36.899986631255295,3300,2018-04-04 13:07:46,1741.3897041244825,0.0,0.0,0.30912000989184,1741.3897041244825,0.0,0.0,0.30912000989184,1239,0.0,99,Assisted_Takeoff,
0.347646782594722,36.8999866378266,3400,2018-04-04 13:07:46,1741.3897041244825,0.0,0.0,0.310029009920928,1741.3897041244825,0.0,0.0,0.310029009920928,1257,0.0,99,Assisted_Takeoff,
0.34764678520206505,36.8999866285804,3500,2018-04-04 13:07:46,1741.3897041244825,0.0,0.0,0.308987009887584,1741.3897041244825,0.0,0.0,0.310029009920928,1258,0.0,99,P-GPS,Obstacle Avoided. Revise Flight Route
0.347646898616777,36.8999865766322,3600,2018-04-04 13:07:46,1741.3897041244825,0.0,0.35999970196000003,0.30281700969014397,1741.3897041244825,0.0,0.35999970196000003,0.310029009920928,1258,0.0,99,P-GPS,
0.347647041605559,36.8999865378374,3700,2018-04-04 13:07:46,1741.3897041244825,0.0,0.35999970196000003,0.298748009559936,1741.3897041244825,0.0,0.35999970196000003,0.310029009920928,1255,0.0,99,P-GPS,
0.347647222664003,36.8999864740007,3800,2018-04-04 13:07:46,1741.4897041276824,0.10000000320000002,0.35999970196000003,0.2932140093828481,1741.4897041276824,0.10000000320000002,0.35999970196000003,0.310029009920928,1251,0.0,99,P-GPS,Home Point Recorded. RTH Altitude:  45m.
0.34764738819207897,36.8999864404695,3900,2018-04-04 13:07:47,1741.5897041308824,0.20000000640000004,0.35999970196000003,0.29216100934915196,1741.5897041308824,0.20000000640000004,0.35999970196000003,0.310029009920928,1249,0.0,99,P-GPS,
0.34764750791355103,36.899986428865205,4000,2018-04-04 13:07:47,1741.5897041308824,0.20000000640000004,0.0,0.293523009392736,1741.5897041308824,0.20000000640000004,0.35999970196000003,0.310029009920928,1253,0.0,99,P-GPS,
0.3476475818839911,36.899986432478,4100,2018-04-04 13:07:47,1741.6897041340824,0.3000000096,0.0,0.295827009466464,1741.6897041340824,0.3000000096,0.35999970196000003,0.310029009920928,1259,0.0,99,P-GPS,
0.34764764131095094,36.899986399103604,4200,2018-04-04 13:07:47,1741.7897041372826,0.4000000128000001,0.0,0.29394300940617607,1741.7897041372826,0.4000000128000001,0.35999970196000003,0.310029009920928,1258,0.0,99,P-GPS,
0.347647697579339,36.8999863988381,4300,2018-04-04 13:07:47,1741.8897041404825,0.500000016,0.0,0.29566400946124805,1741.8897041404825,0.500000016,0.35999970196000003,0.310029009920928,1251,0.0,99,P-GPS,
0.34764771220062896,36.8999864682109,4400,2018-04-04 13:07:47,1741.9897041436823,0.6000000192,0.0,0.30351900971260803,1741.9897041436823,0.6000000192,0.35999970196000003,0.310029009920928,1250,0.0,99,P-GPS,
0.347647725023811,36.899986528996294,4500,2018-04-04 13:07:47,1742.0897041468822,0.7000000224000001,0.0,0.31040400993292805,1742.0897041468822,0.7000000224000001,0.35999970196000003,0.31040400993292805,1251,0.0,99,P-GPS,
0.34764770053008004,36.89998652559021,4600,2018-04-04 13:07:47,1742.1897041500824,0.8000000256000002,0.0,0.309274009896768,1742.1897041500824,0.8000000256000002,0.35999970196000003,0.31040400993292805,1251,0.0,99,P-GPS,
0.347647668746873,36.8999865130626,4700,2018-04-04 13:07:47,1742.2897041532824,0.9000000288000001,0.0,0.30697000982304,1742.2897041532824,0.9000000288000001,0.35999970196000003,0.31040400993292805,1249,0.0,99,P-GPS,
0.347647616225229,36.899986512227,4800,2018-04-04 13:07:47,1742.4897041596823,1.1000000352,0.0,0.30536500977168,1742.4897041596823,1.1000000352,0.35999970196000003,0.31040400993292805,1246,0.0,99,P-GPS,
0.34764757046783595,36.899986520072396,4900,2018-04-04 13:07:47,1742.5897041628825,1.2000000384,0.0,0.304979009759328,1742.5897041628825,1.2000000384,0.35999970196000003,0.31040400993292805,1256,0.0,99,P-GPS,
0.34764754435700795,36.8999865367839,5000,2018-04-04 13:07:48,1742.6897041660825,1.3000000416000002,0.0,0.306124009795968,1742.6897041660825,1.3000000416000002,0.35999970196000003,0.31040400993292805,1264,0.0,99,P-GPS,
0.347647542984586,36.8999865698189,5100,2018-04-04 13:07:48,1742.7897041692822,1.4000000448000003,0.0,0.309672009909504,1742.7897041692822,1.4000000448000003,0.35999970196000003,0.31040400993292805,1256,0.0,99,P-GPS,
0.347647542901841,36.899986579987996,5200,2018-04-04 13:07:48,1742.8897041724822,1.5000000480000002,0.0,0.310773009944736,1742.8897041724822,1.5000000480000002,0.35999970196000003,0.310773009944736,1254,0.0,99,P-GPS,
0.34764757170346805,36.8999865458679,5300,2018-04-04 13:07:48,1742.9897041756824,1.6000000512000003,0.0,0.307801009849632,1742.9897041756824,1.6000000512000003,0.35999970196000003,0.310773009944736,1259,0.0,99,P-GPS,
0.34764761761469903,36.8999865421979,5400,2018-04-04 13:07:48,1743.0897041788824,1.7000000544000002,0.0,0.308632009876224,1743.0897041788824,1.7000000544000002,0.35999970196000003,0.310773009944736,1259,0.0,99,P-GPS,
0.34764764851116703,36.899986551025,5500,2018-04-04 13:07:48,1743.1897041820823,1.8000000576000001,0.0,0.31045100993443203,1743.1897041820823,1.8000000576000001,0.35999970196000003,0.310773009944736,1265,0.0,99,P-GPS,
0.347647710745971,36.8999865218421,5600,2018-04-04 13:07:48,1743.2897041852823,1.9000000607999998,0.0,0.309192009894144,1743.2897041852823,1.9000000607999998,0.35999970196000003,0.310773009944736,1270,0.0,99,P-GPS,
0.347647771348361,36.8999864969688,5700,2018-04-04 13:07:48,1743.3897041884825,2.000000064,0.0,0.30851800987257605,1743.3897041884825,2.000000064,0.35999970196000003,0.310773009944736,1275,0.0,99,P-GPS,
0.347647837501711,36.8999864658689,5800,2018-04-04 13:07:48,1743.4897041916824,2.1000000672,0.0,0.307564009842048,1743.4897041916824,2.1000000672,0.35999970196000003,0.310773009944736,1275,0.0,99,P-GPS,
0.3476478772407571,36.8999864625308,5900,2018-04-04 13:07:49,1743.5897041948824,2.2000000704,0.0,0.30869500987824,1743.5897041948824,2.2000000704,0.35999970196000003,0.310773009944736,1274,0.0,99,P-GPS,
0.34764790132195694,36.8999865056605,6000,2018-04-04 13:07:49,1743.7897042012823,2.4000000768,0.0,0.31411901005180803,1743.7897042012823,2.4000000768,0.35999970196000003,0.31411901005180803,1273,0.0,99,P-GPS,
0.347647896660893,36.8999865243376,6100,2018-04-04 13:07:49,1743.8897042044823,2.50000008,0.0,0.31589301010857607,1743.8897042044823,2.50000008,0.35999970196000003,0.31589301010857607,1274,0.0,99,P-GPS,
0.347647871912081,36.899986488288896,6200,2018-04-04 13:07:49,1743.9897042076823,2.6000000832000003,0.35999970196000003,0.31118800995801604,1743.9897042076823,2.6000000832000003,0.35999970196000003,0.31589301010857607,1277,0.0,99,P-GPS,
0.34764783026371004,36.8999864493924,6300,2018-04-04 13:07:49,1744.0897042108825,2.7000000863999998,0.0,0.30556900977820806,1744.0897042108825,2.7000000863999998,0.35999970196000003,0.31589301010857607,1277,0.0,99,P-GPS,
0.347647734326858,36.899986408443496,6400,2018-04-04 13:07:49,1744.1897042140824,2.8000000896000006,0.0,0.29789000953248,1744.1897042140824,2.8000000896000006,0.35999970196000003,0.31589301010857607,1276,0.0,99,P-GPS,
0.347647617092681,36.8999863604624,6500,2018-04-04 13:07:49,1744.2897042172824,2.9000000928,0.0,0.289083009250656,1744.2897042172824,2.9000000928,0.35999970196000003,0.31589301010857607,1282,0.0,99,P-GPS,
0.34764748601846,36.8999862910698,6600,2018-04-04 13:07:49,1744.4897042236826,3.1000000992,0.503999582744,0.278041008897312,1744.4897042236826,3.1000000992,0.503999582744,0.31589301010857607,1277,0.0,99,P-GPS,
0.347647359807587,36.8999862153404,6700,2018-04-04 13:07:49,1744.5897042268823,3.2000001024000007,0.35999970196000003,0.266963008542816,1744.5897042268823,3.2000001024000007,0.503999582744,0.31589301010857607,1276,0.0,99,P-GPS,
0.347647197490498,36.8999861112636,6800,2018-04-04 13:07:49,1744.6897042300823,3.3000001056,0.35999970196000003,0.25282200809030403,1744.6897042300823,3.3000001056,0.503999582744,0.31589301010857607,1280,0.0,99,P-GPS,
0.347647029341646,36.899986047038205,6900,2018-04-04 13:07:49,1744.7897042332822,3.4000001088000005,0.35999970196000003,0.244162007813184,1744.7897042332822,3.4000001088000005,0.503999582744,0.31589301010857607,1280,0.0,99,P-GPS,
0.347646880544102,36.899986026056105,7000,2018-04-04 13:07:50,1744.8897042364824,3.500000112,0.35999970196000003,0.241631007732192,1744.8897042364824,3.500000112,0.503999582744,0.31589301010857607,1275,0.0,99,P-GPS,
0.34764677186449794,36.899986005586705,7100,2018-04-04 13:07:50,1745.0897042428824,3.7000001184,0.0,0.23993000767776002,1745.0897042428824,3.7000001184,0.503999582744,0.31589301010857607,1269,0.0,99,P-GPS,
0.347646732723422,36.899985962973105,7200,2018-04-04 13:07:50,1745.1897042460823,3.8000001215999997,0.0,0.23556600753811202,1745.1897042460823,3.8000001215999997,0.503999582744,0.31589301010857607,1271,0.0,99,P-GPS,
0.347646718166252,36.89998593988079,7300,2018-04-04 13:07:50,1745.2897042492825,3.9000001248,0.0,0.23316600746131197,1745.2897042492825,3.9000001248,0.503999582744,0.31589301010857607,1273,0.0,99,P-GPS,
0.347646696330752,36.899985914002706,7400,2018-04-04 13:07:50,1745.3897042524825,4.000000128,0.0,0.230563007378016,1745.3897042524825,4.000000128,0.503999582744,0.31589301010857607,1275,0.0,99,P-GPS,
0.347646639459279,36.8999858803495,7500,2018-04-04 13:07:50,1745.5897042588822,4.2000001344,0.35999970196000003,0.227651007284832,1745.5897042588822,4.2000001344,0.503999582744,0.31589301010857607,1276,0.0,99,P-GPS,
0.34764656796488796,36.8999857821658,7600,2018-04-04 13:07:50,1745.6897042620824,4.3000001376,0.0,0.21816800698137603,1745.6897042620824,4.3000001376,0.503999582744,0.31589301010857607,1272,0.0,99,P-GPS,
0.347646519096098,36.89998568091271,7700,2018-04-04 13:07:50,1745.7897042652824,4.4000001408,0.0,0.208231006663392,1745.7897042652824,4.4000001408,0.503999582744,0.31589301010857607,1268,0.0,99,P-GPS,
0.347646482125432,36.8999856157848,7800,2018-04-04 13:07:50,1745.8897042684823,4.5000001439999995,0.0,0.202141006468512,1745.8897042684823,4.5000001439999995,0.503999582744,0.31589301010857607,1271,0.0,99,P-GPS,
0.34764645559095503,36.8999856167859,7900,2018-04-04 13:07:51,1745.9897042716825,4.6000001472,0.0,0.202993006495776,1745.9897042716825,4.6000001472,0.503999582744,0.31589301010857607,1273,0.0,99,P-GPS,
0.347646423785611,36.8999856785536,8000,2018-04-04 13:07:51,1746.1897042780824,4.8000001536,0.0,0.21055000673760002,1746.1897042780824,4.8000001536,0.503999582744,0.31589301010857607,1270,0.0,99,P-GPS,
0.347646376479517,36.8999857303621,8100,2018-04-04 13:07:51,1746.2897042812822,4.9000001568,0.0,0.21753400696108804,1746.2897042812822,4.9000001568,0.503999582744,0.31589301010857607,1269,0.0,99,P-GPS,
0.34764627519315006,36.8999857920442,8200,2018-04-04 13:07:51,1746.3897042844826,5.00000016,0.35999970196000003,0.22746700727894403,1746.3897042844826,5.00000016,0.503999582744,0.31589301010857607,1272,0.0,99,P-GPS,
0.347646117490969,36.89998585148879,8300,2018-04-04 13:07:51,1746.4897042876823,5.1000001632,0.7199994039200001,0.23977300767273602,1746.4897042876823,5.1000001632,0.7199994039200001,0.31589301010857607,1277,0.0,99,P-GPS,
0.347645866270914,36.899985962093,8400,2018-04-04 13:07:51,1746.5897042908823,5.200000166400001,0.7919993443119999,0.262541008401312,1746.5897042908823,5.200000166400001,0.7919993443119999,0.31589301010857607,1279,0.0,99,P-GPS,
0.34764554901541905,36.8999861267659,8500,2018-04-04 13:07:51,1746.6897042940823,5.3000001696,0.7919993443119999,0.295687009461984,1746.6897042940823,5.3000001696,0.7919993443119999,0.31589301010857607,1274,0.0,99,P-GPS,
0.347645107101722,36.899986412972204,8600,2018-04-04 13:07:51,1746.8897043004824,5.500000176000001,2.087998271368,0.3493250111784,1746.8897043004824,5.500000176000001,2.087998271368,0.3493250111784,1275,0.0,99,P-GPS,
0.347644551993457,36.8999868112762,8700,2018-04-04 13:07:51,1746.9897043036824,5.600000179200001,2.5919978541120003,0.4219250135016,1746.9897043036824,5.600000179200001,2.5919978541120003,0.4219250135016,1278,0.0,99,P-GPS,
0.347643770880575,36.899987391180396,8800,2018-04-04 13:07:51,1747.0897043068824,5.7000001824,3.0959974368559995,0.527313016874016,1747.0897043068824,5.7000001824,3.0959974368559995,0.527313016874016,1280,0.0,99,P-GPS,
0.347642894360009,36.8999880865134,8900,2018-04-04 13:07:51,1747.1897043100826,5.8000001856,3.8159968407759997,0.650256020808192,1747.1897043100826,5.8000001856,3.8159968407759997,0.650256020808192,1278,0.0,99,P-GPS,
0.347641825946859,36.8999889815269,9000,2018-04-04 13:07:52,1747.3897043164823,6.000000192000001,4.85999597646,0.8044630257428161,1747.3897043164823,6.000000192000001,4.85999597646,0.8044630257428161,1280,0.0,99,P-GPS,
0.34764063425887,36.899990015627395,9100,2018-04-04 13:07:52,1747.4897043196822,6.1000001952,5.615995350575999,0.9795380313452162,1747.4897043196822,6.1000001952,5.615995350575999,0.9795380313452162,1284,0.0,99,P-GPS,
0.34763779314519705,36.8999924823894,9300,2018-04-04 13:07:52,1747.6897043260824,6.300000201600001,6.8759943074360015,1.3974300447177601,1747.6897043260824,6.300000201600001,6.8759943074360015,1.3974300447177601,1275,0.0,99,P-GPS,
0.34763616947905496,36.8999939787912,9400,2018-04-04 13:07:52,1747.8897043324823,6.500000208,7.379993890179999,1.6429600525747199,1747.8897043324823,6.500000208,7.379993890179999,1.6429600525747199,1277,0.0,99,P-GPS,
0.347634460613537,36.89999563377889,9500,2018-04-04 13:07:52,1747.9897043356825,6.6000002112,8.387993055668,1.9074900610396799,1747.9897043356825,6.6000002112,8.387993055668,1.9074900610396799,1275,0.0,99,P-GPS,
0.347630630257591,36.89999956257439,9700,2018-04-04 13:07:52,1748.1897043420822,6.800000217600001,10.43999135684,2.51728008055296,1748.1897043420822,6.800000217600001,10.43999135684,2.51728008055296,1268,0.0,99,P-GPS,
0.34762846647402895,36.9000018276096,9800,2018-04-04 13:07:52,1748.3897043484824,7.000000224,10.97999090978,2.8653600916915205,1748.3897043484824,7.000000224,10.97999090978,2.8653600916915205,1266,0.0,99,P-GPS,
0.34762626755678805,36.9000042304417,9900,2018-04-04 13:07:52,1748.4897043516823,7.100000227200002,11.483990492523999,3.2270401032652805,1748.4897043516823,7.100000227200002,11.483990492523999,3.2270401032652805,1264,0.0,99,P-GPS,
0.347624031701552,36.9000066861851,10000,2018-04-04 13:07:53,1748.6897043580825,7.3000002336000005,11.483990492523999,3.5958801150681605,1748.6897043580825,7.3000002336000005,11.483990492523999,3.5958801150681605,1275,0.0,99,P-GPS,
0.347621827674254,36.900009157415795,10100,2018-04-04 13:07:53,1748.7897043612825,7.4000002368,10.97999090978,3.9635401268332795,1748.7897043612825,7.4000002368,11.483990492523999,3.9635401268332795,1273,0.0,99,P-GPS,
0.34761972648482203,36.9000114217508,10200,2018-04-04 13:07:53,1748.9897043676822,7.600000243199999,9.971991744292,4.30688013782016,1748.9897043676822,7.600000243199999,11.483990492523999,4.30688013782016,1273,0.0,99,P-GPS,
0.347617882806125,36.9000134103184,10300,2018-04-04 13:07:53,1749.1897043740823,7.8000002496,7.883993472924,4.60831014746592,1749.1897043740823,7.8000002496,11.483990492523999,4.60831014746592,1255,0.0,99,P-GPS,
0.34761646661351897,36.900014779081104,10400,2018-04-04 13:07:53,1749.2897043772823,7.9000002528,5.8679951419480005,4.82726015447232,1749.2897043772823,7.9000002528,11.483990492523999,4.82726015447232,1233,0.0,99,P-GPS,
0.347615317987289,36.9000158077911,10500,2018-04-04 13:07:53,1749.4897043836825,8.1000002592,5.8679951419480005,4.99841015994912,1749.4897043836825,8.1000002592,11.483990492523999,4.99841015994912,1208,0.0,99,P-GPS,
0.347614580536654,36.9000162420138,10600,2018-04-04 13:07:53,1749.5897043868824,8.200000262400001,3.3119972580320005,5.09047016289504,1749.5897043868824,8.200000262400001,11.483990492523999,5.09047016289504,1193,0.0,99,P-GPS,
0.347613957243201,36.900016539139706,10700,2018-04-04 13:07:53,1749.7897043932824,8.4000002688,2.5919978541120003,5.1629001652127995,1749.7897043932824,8.4000002688,11.483990492523999,5.1629001652127995,1178,0.0,99,P-GPS,
0.34761362969471804,36.900016596159894,10800,2018-04-04 13:07:53,1749.8897043964826,8.500000272000001,2.303998092544,5.19327016618464,1749.8897043964826,8.500000272000001,11.483990492523999,5.19327016618464,1180,0.0,99,P-GPS,
0.34761330783601896,36.900016660884106,10900,2018-04-04 13:07:53,1749.8897043964826,8.500000272000001,1.7999985098000002,5.22388016716416,1749.8897043964826,8.500000272000001,11.483990492523999,5.22388016716416,1182,0.0,99,P-GPS,
0.34761310312106697,36.900016688848204,11000,2018-04-04 13:07:54,1749.9897043996823,8.6000002752,1.2959989270560002,5.24236016775552,1749.9897043996823,8.6000002752,11.483990492523999,5.24236016775552,1178,0.0,99,P-GPS,
0.347612905431223,36.9000167008261,11100,2018-04-04 13:07:54,1750.0897044028823,8.700000278400001,0.7919993443119999,5.25908016829056,1750.0897044028823,8.700000278400001,11.483990492523999,5.25908016829056,1180,0.1,99,P-GPS,
0.347612799116628,36.900016798704705,11200,2018-04-04 13:07:54,1750.0897044028823,8.700000278400001,0.7919993443119999,5.2751501688047995,1750.0897044028823,8.700000278400001,11.483990492523999,5.2751501688047995,1184,0.1,99,P-GPS,
0.347612696987134,36.9000168410019,11300,2018-04-04 13:07:54,1750.1897044060825,8.8000002816,0.35999970196000003,5.28659016917088,1750.1897044060825,8.8000002816,11.483990492523999,5.28659016917088,1190,0.1,99,P-GPS,
0.34761258317192706,36.9000169687374,11400,2018-04-04 13:07:54,1750.1897044060825,8.8000002816,0.35999970196000003,5.30556016977792,1750.1897044060825,8.8000002816,11.483990492523999,5.30556016977792,1203,0.1,99,P-GPS,
0.34761249161103397,36.900017014516294,11500,2018-04-04 13:07:54,1750.2897044092824,8.9000002848,0.35999970196000003,5.31642017012544,1750.2897044092824,8.9000002848,11.483990492523999,5.31642017012544,1250,0.1,99,P-GPS,
0.34761243623091104,36.9000171881977,11600,2018-04-04 13:07:54,1750.3897044124824,9.000000287999999,0.35999970196000003,5.334270170696641,1750.3897044124824,9.000000287999999,11.483990492523999,5.334270170696641,1254,0.1,99,P-GPS,
0.347612377346376,36.9000172577739,11700,2018-04-04 13:07:54,1750.4897044156824,9.1000002912,0.35999970196000003,5.3443501710192,1750.4897044156824,9.1000002912,11.483990492523999,5.3443501710192,1256,0.1,99,P-GPS,
0.347612271249993,36.900017388601206,11800,2018-04-04 13:07:54,1750.5897044188825,9.2000002944,0.35999970196000003,5.362950171614401,1750.5897044188825,9.2000002944,11.483990492523999,5.362950171614401,1267,0.1,99,P-GPS,
0.34761220678966603,36.9000174126084,11900,2018-04-04 13:07:55,1750.6897044220825,9.3000002976,0.0,5.369960171838721,1750.6897044220825,9.3000002976,11.483990492523999,5.369960171838721,1265,0.1,99,P-GPS,
0.34761214147929104,36.9000174897302,12000,2018-04-04 13:07:55,1750.7897044252823,9.400000300800002,0.0,5.38114017219648,1750.7897044252823,9.400000300800002,11.483990492523999,5.38114017219648,1264,0.1,99,P-GPS,
0.347612119280342,36.900017506080395,12100,2018-04-04 13:07:55,1750.9897044316824,9.6000003072,0.0,5.38418017229376,1750.9897044316824,9.6000003072,11.483990492523999,5.38418017229376,1265,0.1,99,P-GPS,
0.347612053898316,36.9000176432414,12200,2018-04-04 13:07:55,1751.0897044348824,9.7000003104,0.0,5.40001017280032,1751.0897044348824,9.7000003104,11.483990492523999,5.40001017280032,1267,0.1,99,P-GPS,
0.34761200163829103,36.900017705524704,12300,2018-04-04 13:07:55,1751.1897044380823,9.8000003136,0.0,5.409000173088,1751.1897044380823,9.8000003136,11.483990492523999,5.409000173088,1263,0.1,99,P-GPS,
0.34761188147866495,36.900017788106496,12400,2018-04-04 13:07:55,1751.2897044412823,9.900000316799998,0.0,5.424990173599681,1751.2897044412823,9.900000316799998,11.483990492523999,5.424990173599681,1260,0.1,99,P-GPS,
0.347611811344839,36.9000178050306,12500,2018-04-04 13:07:55,1751.3897044444825,10.00000032,0.0,5.4319001738208,1751.3897044444825,10.00000032,11.483990492523999,5.4319001738208,1264,0.1,99,P-GPS,
0.347611737592611,36.9000178609844,12600,2018-04-04 13:07:55,1751.4897044476825,10.100000323200002,0.0,5.44212017414784,1751.4897044476825,10.100000323200002,11.483990492523999,5.44212017414784,1265,0.1,99,P-GPS,
0.34761167467279097,36.900017879904105,12700,2018-04-04 13:07:55,1751.5897044508824,10.2000003264,0.0,5.44862017435584,1751.5897044508824,10.2000003264,11.483990492523999,5.44862017435584,1269,0.1,99,P-GPS,
0.34761154783328896,36.9000179418447,12800,2018-04-04 13:07:55,1751.6897044540822,10.300000329600001,0.0,5.4635501748336,1751.6897044540822,10.300000329600001,11.483990492523999,5.4635501748336,1274,0.1,99,P-GPS,
0.347611463795808,36.900017969903004,12900,2018-04-04 13:07:55,1751.7897044572824,10.400000332800001,0.0,5.472450175118401,1751.7897044572824,10.400000332800001,11.483990492523999,5.472450175118401,1277,0.1,99,P-GPS,
0.347611374472397,36.9000180175234,13000,2018-04-04 13:07:56,1751.8897044604823,10.500000336,0.0,5.48328017546496,1751.8897044604823,10.500000336,11.483990492523999,5.48328017546496,1278,0.1,99,P-GPS,
0.347611315848414,36.900018035654995,13100,2018-04-04 13:07:56,1752.0897044668823,10.700000342400001,0.0,5.489380175660161,1752.0897044668823,10.700000342400001,11.483990492523999,5.489380175660161,1293,0.1,99,P-GPS,
0.347611230912032,36.9000180773699,13200,2018-04-04 13:07:56,1752.1897044700825,10.800000345599999,0.35999970196000003,5.4994101759811205,1752.1897044700825,10.800000345599999,11.483990492523999,5.4994101759811205,1325,0.1,99,P-GPS,
0.34761117429103394,36.900018086076,13300,2018-04-04 13:07:56,1752.2897044732824,10.9000003488,0.35999970196000003,5.5046201761478395,1752.2897044732824,10.9000003488,11.483990492523999,5.5046201761478395,1353,0.1,99,P-GPS,
0.34761111194442695,36.9000181043491,13400,2018-04-04 13:07:56,1752.3897044764824,11.000000352000002,0.0,5.51104017635328,1752.3897044764824,11.000000352000002,11.483990492523999,5.51104017635328,1362,0.1,99,P-GPS,
0.347611077519121,36.900018079858,13500,2018-04-04 13:07:56,1752.5897044828826,11.200000358400002,0.35999970196000003,5.511930176381759,1752.5897044828826,11.200000358400002,11.483990492523999,5.511930176381759,1361,0.1,99,P-GPS,
0.34761101250838006,36.9000180305376,13600,2018-04-04 13:07:56,1752.7897044892823,11.4000003648,0.503999582744,5.5133701764278396,1752.7897044892823,11.4000003648,11.483990492523999,5.5133701764278396,1368,0.1,99,P-GPS,
0.34761093738500104,36.9000179547262,13700,2018-04-04 13:07:56,1752.9897044956824,11.6000003712,0.503999582744,5.51363017643616,1752.9897044956824,11.6000003712,11.483990492523999,5.51363017643616,1381,0.1,99,P-GPS,
0.34761083441197305,36.9000178568348,13800,2018-04-04 13:07:56,1753.2897045052825,11.900000380800002,0.503999582744,5.51448017646336,1753.2897045052825,11.900000380800002,11.483990492523999,5.51448017646336,1390,0.1,99,P-GPS,
0.347610758640474,36.9000177648488,13900,2018-04-04 13:07:56,1753.4897045116822,12.1000003872,0.35999970196000003,5.51361017643552,1753.4897045116822,12.1000003872,11.483990492523999,5.51448017646336,1390,0.1,99,P-GPS,
0.347610692799227,36.900017668332,14000,2018-04-04 13:07:57,1753.7897045212824,12.4000003968,0.35999970196000003,5.511630176372161,1753.7897045212824,12.4000003968,11.483990492523999,5.51448017646336,1392,0.1,99,P-GPS,
0.347610656087585,36.9000175572765,14100,2018-04-04 13:07:57,1753.9897045276823,12.600000403200003,0.35999970196000003,5.5062001761984005,1753.9897045276823,12.600000403200003,11.483990492523999,5.51448017646336,1395,0.1,99,P-GPS,
0.34761062933225,36.9000174743392,14200,2018-04-04 13:07:57,1754.1897045340825,12.800000409600003,0.35999970196000003,5.50211017606752,1754.1897045340825,12.800000409600003,11.483990492523999,5.51448017646336,1396,0.1,99,P-GPS,
0.34761064643416906,36.9000174128696,14300,2018-04-04 13:07:57,1754.3897045404822,13.000000416,0.35999970196000003,5.496070175874241,1754.3897045404822,13.000000416,11.483990492523999,5.51448017646336,1397,0.1,99,P-GPS,
0.347610667177289,36.900017376747606,14400,2018-04-04 13:07:57,1754.5897045468823,13.2000004224,0.35999970196000003,5.4916501757328,1754.5897045468823,13.2000004224,11.483990492523999,5.51448017646336,1397,0.1,99,P-GPS,
0.347610673912533,36.9000173717586,14500,2018-04-04 13:07:57,1754.7897045532825,13.4000004288,0.35999970196000003,5.49072017570304,1754.7897045532825,13.4000004288,11.483990492523999,5.51448017646336,1398,0.1,99,P-GPS,
0.34761064086163396,36.9000174444395,14600,2018-04-04 13:07:57,1755.0897045628824,13.7000004384,0.35999970196000003,5.49891017596512,1755.0897045628824,13.7000004384,11.483990492523999,5.51448017646336,1398,0.1,99,P-GPS,
0.34761062064613,36.900017542613504,14700,2018-04-04 13:07:57,1755.2897045692823,13.9000004448,0.0,5.50798017625536,1755.2897045692823,13.9000004448,11.483990492523999,5.51448017646336,1398,0.1,99,P-GPS,
0.34761065166147403,36.900017671346795,14800,2018-04-04 13:07:57,1755.4897045756823,14.100000451200001,0.35999970196000003,5.5152001764864,1755.4897045756823,14.100000451200001,11.483990492523999,5.5152001764864,1401,0.1,99,P-GPS,
0.34761074552824295,36.900017793652204,14900,2018-04-04 13:07:57,1755.6897045820824,14.300000457600001,0.7199994039200001,5.5168701765398405,1755.6897045820824,14.300000457600001,11.483990492523999,5.5168701765398405,1403,0.1,99,P-GPS,
0.347610863583919,36.900017951099,15000,2018-04-04 13:07:58,1755.8897045884823,14.500000464,0.35999970196000003,5.51931017661792,1755.8897045884823,14.500000464,11.483990492523999,5.51931017661792,1400,0.1,99,P-GPS,
0.347610945227587,36.9000181234571,15100,2018-04-04 13:07:58,1756.0897045948825,14.7000004704,0.35999970196000003,5.52592017682944,1756.0897045948825,14.7000004704,11.483990492523999,5.52592017682944,1399,0.1,99,P-GPS,
0.34761097389797196,36.900018303463604,15200,2018-04-04 13:07:58,1756.2897046012822,14.9000004768,0.35999970196000003,5.53744017719808,1756.2897046012822,14.9000004768,11.483990492523999,5.53744017719808,1401,0.1,99,P-GPS,
0.34761104813222,36.9000184467828,15300,2018-04-04 13:07:58,1756.4897046076824,15.100000483200002,0.7199994039200001,5.54253017736096,1756.4897046076824,15.100000483200002,11.483990492523999,5.54253017736096,1404,0.1,99,P-GPS,
0.34761113297089596,36.9000185392484,15400,2018-04-04 13:07:58,1756.7897046172825,15.4000004928,0.7199994039200001,5.54289017737248,1756.7897046172825,15.4000004928,11.483990492523999,5.54289017737248,1395,0.1,99,P-GPS,
0.34761121597594297,36.90001861400629,15500,2018-04-04 13:07:58,1756.9897046236822,15.6000004992,0.35999970196000003,5.54206017734592,1756.9897046236822,15.6000004992,11.483990492523999,5.54289017737248,1377,0.1,99,P-GPS,
0.34761125890172695,36.900018669698895,15600,2018-04-04 13:07:58,1757.2897046332823,15.900000508800002,0.0,5.5429701773750395,1757.2897046332823,15.900000508800002,11.483990492523999,5.5429701773750395,1366,0.1,99,P-GPS,
0.347611232719604,36.900018716034495,15700,2018-04-04 13:07:58,1757.4897046396825,16.1000005152,0.0,5.5486501775568,1757.4897046396825,16.1000005152,11.483990492523999,5.5486501775568,1369,0.1,99,P-GPS,
0.34761111797944,36.900018755257,15800,2018-04-04 13:07:58,1757.7897046492824,16.400000524800003,0.0,5.560830177946561,1757.7897046492824,16.400000524800003,11.483990492523999,5.560830177946561,1368,0.1,99,P-GPS,
0.34761096884979603,36.9000187969976,15900,2018-04-04 13:07:58,1757.9897046556823,16.6000005312,0.35999970196000003,5.5759501784304,1757.9897046556823,16.6000005312,11.483990492523999,5.5759501784304,1370,0.1,99,P-GPS,
0.34761075826267496,36.9000188165339,16000,2018-04-04 13:07:59,1758.2897046652824,16.900000540799997,0.35999970196000003,5.594280179016961,1758.2897046652824,16.900000540799997,11.483990492523999,5.594280179016961,1376,0.1,99,P-GPS,
0.347610568939776,36.900018815711704,16100,2018-04-04 13:07:59,1758.4897046716824,17.1000005472,0.35999970196000003,5.60938017950016,1758.4897046716824,17.1000005472,11.483990492523999,5.60938017950016,1376,0.1,99,P-GPS,
0.34761036964754305,36.900018768018604,16200,2018-04-04 13:07:59,1758.6897046780825,17.3000005536,0.35999970196000003,5.621710179894721,1758.6897046780825,17.3000005536,11.483990492523999,5.621710179894721,1382,0.1,99,P-GPS,
0.34761020489786404,36.9000187232589,16300,2018-04-04 13:07:59,1758.9897046876822,17.6000005632,0.35999970196000003,5.63154018020928,1758.9897046876822,17.6000005632,11.483990492523999,5.63154018020928,1374,-0.1,99,P-GPS,
0.347610107083747,36.9000186588687,16400,2018-04-04 13:07:59,1759.1897046940824,17.8000005696,0.0,5.63452018030464,1759.1897046940824,17.8000005696,11.483990492523999,5.63452018030464,1378,-0.3,99,P-GPS,
0.347610050687474,36.900018590740004,16500,2018-04-04 13:07:59,1759.3897047004825,18.000000575999998,0.0,5.6338801802841605,1759.3897047004825,18.000000575999998,11.483990492523999,5.63452018030464,1386,-0.6,99,P-GPS,
0.347610008921143,36.900018528632295,16600,2018-04-04 13:07:59,1759.5897047068825,18.2000005824,0.0,5.63253018024096,1759.5897047068825,18.2000005824,11.483990492523999,5.63452018030464,1383,-1.1,99,P-GPS,
0.347609936618229,36.9000184567608,16700,2018-04-04 13:07:59,1759.8897047164824,18.500000592000003,0.35999970196000003,5.6329301802537595,1759.8897047164824,18.500000592000003,11.483990492523999,5.63452018030464,1380,-1.8,99,P-GPS,
0.347609812973733,36.9000183965159,16800,2018-04-04 13:07:59,1760.0897047228823,18.7000005984,0.35999970196000003,5.638410180429121,1760.0897047228823,18.7000005984,11.483990492523999,5.638410180429121,1380,-2.6,99,P-GPS,
0.34760967602485,36.9000183290852,16900,2018-04-04 13:08:00,1760.2897047292824,18.900000604800002,0.35999970196000003,5.64447018062304,1760.2897047292824,18.900000604800002,11.483990492523999,5.64447018062304,1383,-3.5,99,P-GPS,
0.34760957866995396,36.9000182619029,17000,2018-04-04 13:08:00,1760.5897047388826,19.2000006144,0.0,5.647360180715521,1760.5897047388826,19.2000006144,11.483990492523999,5.647360180715521,1383,-4.3,99,P-GPS,
0.347609537441009,36.900018191114796,17100,2018-04-04 13:08:00,1760.7897047452823,19.4000006208,0.0,5.64541018065312,1760.7897047452823,19.4000006208,11.483990492523999,5.647360180715521,1383,-5.2,99,P-GPS,
0.347609598084263,36.9000181733685,17200,2018-04-04 13:08:00,1760.9897047516824,19.6000006272,0.0,5.639110180451521,1760.9897047516824,19.6000006272,11.483990492523999,5.647360180715521,1384,-5.2,99,P-GPS,
0.347609741221234,36.9000181715399,17300,2018-04-04 13:08:00,1761.1897047580824,19.800000633599996,0.35999970196000003,5.627260180072319,1761.1897047580824,19.800000633599996,11.483990492523999,5.647360180715521,1386,-6.1,99,P-GPS,
0.34760993208789803,36.9000181813295,17400,2018-04-04 13:08:00,1761.3897047644825,20.00000064,0.35999970196000003,5.61242017959744,1761.3897047644825,20.00000064,11.483990492523999,5.647360180715521,1390,-7.0,99,P-GPS,
0.34761011682184195,36.900018179556604,17500,2018-04-04 13:08:00,1761.5897047708822,20.200000646400003,0.35999970196000003,5.59724017911168,1761.5897047708822,20.200000646400003,11.483990492523999,5.647360180715521,1390,-7.9,99,P-GPS,
0.347610294657697,36.9000182331337,17600,2018-04-04 13:08:00,1761.8897047804824,20.500000655999997,0.35999970196000003,5.58687017877984,1761.8897047804824,20.500000655999997,11.483990492523999,5.647360180715521,1389,-9.7,99,P-GPS,
0.347610633862581,36.900018266181,17800,2018-04-04 13:08:00,1762.2897047932825,20.900000668800004,0.35999970196000003,5.5619501779824,1762.2897047932825,20.900000668800004,11.483990492523999,5.647360180715521,1390,-10.6,99,P-GPS,
0.347610778259968,36.900018258785295,17900,2018-04-04 13:08:00,1762.4897047996824,21.1000006752,0.35999970196000003,5.54974017759168,1762.4897047996824,21.1000006752,11.483990492523999,5.647360180715521,1391,-11.5,99,P-GPS,
0.34761085403798103,36.9000182637529,18000,2018-04-04 13:08:01,1762.6897048060823,21.300000681600004,0.0,5.544020177408641,1762.6897048060823,21.300000681600004,11.483990492523999,5.647360180715521,1391,-12.4,99,P-GPS,
0.34761090382277005,36.900018264939106,18100,2018-04-04 13:08:01,1762.8897048124825,21.500000688,0.0,5.540110177283521,1762.8897048124825,21.500000688,11.483990492523999,5.647360180715521,1395,-13.3,99,P-GPS,
0.347610891866735,36.900018245968106,18200,2018-04-04 13:08:01,1763.0897048188824,21.700000694400003,0.0,5.5396101772675195,1763.0897048188824,21.700000694400003,11.483990492523999,5.647360180715521,1395,-14.2,99,P-GPS,
0.347610847061726,36.90001822577229,18300,2018-04-04 13:08:01,1763.2897048252826,21.900000700799996,0.0,5.54167017733344,1763.2897048252826,21.900000700799996,11.483990492523999,5.647360180715521,1397,-15.1,99,P-GPS,
0.3476107229221839,36.9000182199525,18400,2018-04-04 13:08:01,1763.4897048316823,22.1000007072,0.0,5.5512301776393596,1763.4897048316823,22.1000007072,11.483990492523999,5.647360180715521,1403,-16.0,99,P-GPS,
0.34761061447432695,36.9000182174944,18500,2018-04-04 13:08:01,1763.6897048380824,22.3000007136,0.0,5.559790177913279,1763.6897048380824,22.3000007136,11.483990492523999,5.647360180715521,1404,-16.9,99,P-GPS,
0.347610486364638,36.9000182055165,18600,2018-04-04 13:08:01,1763.9897048476826,22.6000007232,0.0,5.56924017821568,1763.9897048476826,22.6000007232,11.483990492523999,5.647360180715521,1405,-17.8,99,P-GPS,
0.347610376910403,36.9000181983264,18700,2018-04-04 13:08:01,1764.1897048540823,22.8000007296,0.0,5.577550178481601,1764.1897048540823,22.8000007296,11.483990492523999,5.647360180715521,1405,-17.8,99,P-GPS,
0.34761028582827397,36.9000181964978,18800,2018-04-04 13:08:01,1764.3897048604824,23.000000735999997,0.0,5.5848001787136,1764.3897048604824,23.000000735999997,11.483990492523999,5.647360180715521,1406,-18.3,99,P-GPS,
0.34761021957991495,36.900018206432904,18900,2018-04-04 13:08:01,1764.5897048668824,23.2000007424,0.0,5.59093017890976,1764.5897048668824,23.2000007424,11.483990492523999,5.647360180715521,1420,-18.3,99,P-GPS,
0.347610182962723,36.9000182540233,19000,2018-04-04 13:08:02,1764.8897048764825,23.500000752000002,0.0,5.59752017912064,1764.8897048764825,23.500000752000002,11.483990492523999,5.647360180715521,1433,-18.3,99,P-GPS,
0.34761016282212803,36.9000183145122,19100,2018-04-04 13:08:02,1765.0897048828822,23.700000758399998,0.0,5.603760179320321,1765.0897048828822,23.700000758399998,11.483990492523999,5.647360180715521,1427,-18.3,99,P-GPS,
0.34761014599378803,36.9000184038645,19200,2018-04-04 13:08:02,1765.2897048892823,23.9000007648,0.0,5.611920179581441,1765.2897048892823,23.9000007648,11.483990492523999,5.647360180715521,1422,-18.3,99,P-GPS,
0.347610135643397,36.900018471329496,19300,2018-04-04 13:08:02,1765.4897048956823,24.100000771199998,0.0,5.6179001797728,1765.4897048956823,24.100000771199998,11.483990492523999,5.647360180715521,1422,-18.3,99,P-GPS,
0.34761016186786,36.900018495974706,19400,2018-04-04 13:08:02,1765.7897049052824,24.4000007808,0.0,5.6176501797648,1765.7897049052824,24.4000007808,11.483990492523999,5.647360180715521,1422,-18.3,99,P-GPS,
0.34761020818406396,36.9000185129544,19500,2018-04-04 13:08:02,1765.9897049116823,24.600000787200003,0.0,5.6152001796864,1765.9897049116823,24.600000787200003,11.483990492523999,5.647360180715521,1423,-18.3,99,P-GPS,
0.34761034466721197,36.900018500938,19600,2018-04-04 13:08:02,1766.2897049212825,24.9000007968,0.35999970196000003,5.603250179304,1766.2897049212825,24.9000007968,11.483990492523999,5.647360180715521,1423,-18.3,99,P-GPS,
0.347610499307511,36.9000184539344,19700,2018-04-04 13:08:02,1766.4897049276824,25.100000803199997,0.35999970196000003,5.58718017878976,1766.4897049276824,25.100000803199997,11.483990492523999,5.647360180715521,1425,-18.3,99,P-GPS,
0.347610653342029,36.9000183657212,19800,2018-04-04 13:08:02,1766.7897049372825,25.400000812800002,0.35999970196000003,5.568000178176001,1766.7897049372825,25.400000812800002,11.483990492523999,5.647360180715521,1422,-18.3,99,P-GPS,
0.347610777471801,36.9000182506916,19900,2018-04-04 13:08:02,1767.0897049468824,25.7000008224,0.35999970196000003,5.54919017757408,1767.0897049468824,25.7000008224,11.483990492523999,5.647360180715521,1412,-18.3,99,P-GPS,
0.34761089875831,36.900018082663,20000,2018-04-04 13:08:03,1767.2897049532824,25.900000828800003,0.35999970196000003,5.526540176849281,1767.2897049532824,25.900000828800003,11.483990492523999,5.647360180715521,1406,-18.3,99,P-GPS,
0.347610983671893,36.9000179123304,20100,2018-04-04 13:08:03,1767.5897049628825,26.200000838399998,0.35999970196000003,5.5066501762128,1767.5897049628825,26.200000838399998,11.483990492523999,5.647360180715521,1400,-18.3,99,P-GPS,
0.347611049623875,36.9000177461989,20200,2018-04-04 13:08:03,1767.8897049724824,26.500000848000003,0.35999970196000003,5.488630175636161,1767.8897049724824,26.500000848000003,11.483990492523999,5.647360180715521,1382,-18.3,99,P-GPS,
0.347611097483844,36.90001759709,20300,2018-04-04 13:08:03,1768.0897049788823,26.700000854400002,0.35999970196000003,5.4733801751481606,1768.0897049788823,26.700000854400002,11.483990492523999,5.647360180715521,1360,-18.3,99,P-GPS,
0.34761114314215696,36.9000174811696,20400,2018-04-04 13:08:03,1768.3897049884824,27.000000864000004,0.35999970196000003,5.46084017474688,1768.3897049884824,27.000000864000004,11.483990492523999,5.647360180715521,1354,-18.3,99,P-GPS,
0.347611192223459,36.9000173643329,20500,2018-04-04 13:08:03,1768.5897049948826,27.200000870400004,0.35999970196000003,5.44797017433504,1768.5897049948826,27.200000870400004,11.483990492523999,5.647360180715521,1344,-18.3,99,P-GPS,
0.347611241877973,36.900017241869,20600,2018-04-04 13:08:03,1768.7897050012823,27.4000008768,0.35999970196000003,5.434630173908161,1768.7897050012823,27.4000008768,11.483990492523999,5.647360180715521,1339,-18.3,99,P-GPS,
0.34761128438036204,36.9000171232508,20700,2018-04-04 13:08:03,1768.9897050076825,27.6000008832,0.35999970196000003,5.422170173509441,1768.9897050076825,27.6000008832,11.483990492523999,5.647360180715521,1342,-18.3,99,P-GPS,
0.347611296378737,36.9000170271237,20800,2018-04-04 13:08:03,1769.1897050140824,27.8000008896,0.0,5.41391017324512,1769.1897050140824,27.8000008896,11.483990492523999,5.647360180715521,1346,-18.3,99,P-GPS,
0.34761131166005604,36.900016931279296,20900,2018-04-04 13:08:03,1769.3897050204826,28.000000896,0.0,5.40541017297312,1769.3897050204826,28.000000896,11.483990492523999,5.647360180715521,1352,-18.3,99,P-GPS,
0.34761132817247803,36.900016854225996,21000,2018-04-04 13:08:04,1769.5897050268823,28.200000902400003,0.0,5.398230172743361,1769.5897050268823,28.200000902400003,11.483990492523999,5.647360180715521,1368,-18.3,99,P-GPS,
0.34761133152381607,36.9000167824101,21100,2018-04-04 13:08:04,1769.7897050332824,28.400000908800006,0.0,5.39253017256096,1769.7897050332824,28.400000908800006,11.483990492523999,5.647360180715521,1383,-18.3,99,P-GPS,
0.347611326403988,36.900016727261296,21200,2018-04-04 13:08:04,1769.9897050396823,28.600000915200003,0.0,5.38879017244128,1769.9897050396823,28.600000915200003,11.483990492523999,5.647360180715521,1375,-18.3,99,P-GPS,
0.34761131601777195,36.900016687987396,21300,2018-04-04 13:08:04,1770.0897050428823,28.7000009184,0.0,5.38668017237376,1770.0897050428823,28.7000009184,11.483990492523999,5.647360180715521,1375,-18.3,99,P-GPS,
0.34761131132459605,36.90001669341321,21400,2018-04-04 13:08:04,1770.2897050492825,28.9000009248,0.0,5.387470172399041,1770.2897050492825,28.9000009248,11.483990492523999,5.647360180715521,1363,-18.3,99,P-GPS,
0.34761131242868104,36.9000167053183,21500,2018-04-04 13:08:04,1770.4897050556824,29.1000009312,0.0,5.38828017242496,1770.4897050556824,29.1000009312,11.483990492523999,5.647360180715521,1369,-18.3,99,P-GPS,
0.34761131969805503,36.9000167296852,21600,2018-04-04 13:08:04,1770.6897050620823,29.300000937600004,0.0,5.38952017246464,1770.6897050620823,29.300000937600004,11.483990492523999,5.647360180715521,1374,-18.3,99,P-GPS,
0.34761130917830696,36.900016774025204,21700,2018-04-04 13:08:04,1770.8897050684825,29.500000944,0.0,5.393720172599041,1770.8897050684825,29.500000944,11.483990492523999,5.647360180715521,1382,-18.3,99,P-GPS,
0.347611271564508,36.9000168455242,21800,2018-04-04 13:08:04,1771.0897050748824,29.7000009504,0.0,5.402190172870081,1771.0897050748824,29.7000009504,11.483990492523999,5.647360180715521,1382,-18.3,99,P-GPS,
0.34761122034994396,36.900016920569,21900,2018-04-04 13:08:04,1771.1897050780824,29.8000009536,0.0,5.4120401731852805,1771.1897050780824,29.8000009536,11.483990492523999,5.647360180715521,1384,-18.3,99,P-GPS,
0.347611185338398,36.9000170122167,22000,2018-04-04 13:08:05,1771.3897050844823,30.00000096,0.0,5.42183017349856,1771.3897050844823,30.00000096,11.483990492523999,5.647360180715521,1384,-18.3,99,P-GPS,
0.34761116444220497,36.9000171032905,22100,2018-04-04 13:08:05,1771.5897050908823,30.200000966400005,0.35999970196000003,5.430420173773441,1771.5897050908823,30.200000966400005,11.483990492523999,5.647360180715521,1385,-18.3,99,P-GPS,
0.34761116070655396,36.900017222289904,22200,2018-04-04 13:08:05,1771.7897050972824,30.400000972799997,0.35999970196000003,5.439740174071681,1771.7897050972824,30.400000972799997,11.483990492523999,5.647360180715521,1388,-18.3,99,P-GPS,
0.34761116918748997,36.9000173452119,22300,2018-04-04 13:08:05,1771.9897051036824,30.6000009792,0.35999970196000003,5.44839017434848,1771.9897051036824,30.6000009792,11.483990492523999,5.647360180715521,1389,-18.3,99,P-GPS,
0.347611204488899,36.900017491237605,22400,2018-04-04 13:08:05,1772.1897051100823,30.8000009856,0.35999970196000003,5.45664017461248,1772.1897051100823,30.8000009856,11.483990492523999,5.647360180715521,1389,-18.3,99,P-GPS,
0.34761124061104404,36.9000176396828,22500,2018-04-04 13:08:05,1772.3897051164822,31.000000992,0.35999970196000003,5.4650501748816005,1772.3897051164822,31.000000992,11.483990492523999,5.647360180715521,1388,-18.3,99,P-GPS,
0.3476112779349799,36.9000177883506,22600,2018-04-04 13:08:05,1772.5897051228824,31.2000009984,0.35999970196000003,5.47343017514976,1772.5897051228824,31.2000009984,11.483990492523999,5.647360180715521,1389,-18.3,99,P-GPS,
0.347611311516753,36.900017940127505,22700,2018-04-04 13:08:05,1772.7897051292825,31.400001004800004,0.35999970196000003,5.48238017543616,1772.7897051292825,31.400001004800004,11.483990492523999,5.647360180715521,1397,-18.3,98,P-GPS,
0.34761138924238505,36.900018077005896,22800,2018-04-04 13:08:05,1772.9897051356825,31.6000010112,0.35999970196000003,5.48668017557376,1772.9897051356825,31.6000010112,11.483990492523999,5.647360180715521,1397,-18.3,98,P-GPS,
0.347611452513948,36.9000182109423,22900,2018-04-04 13:08:06,1773.1897051420824,31.800001017600003,0.35999970196000003,5.491970175743041,1773.1897051420824,31.800001017600003,11.483990492523999,5.647360180715521,1398,-18.3,98,P-GPS,
0.347611493293442,36.9000183641795,23000,2018-04-04 13:08:06,1773.3897051484823,32.000001024,0.35999970196000003,5.50059017601888,1773.3897051484823,32.000001024,11.483990492523999,5.647360180715521,1399,-18.3,98,P-GPS,
0.34761152591768896,36.900018493225396,23100,2018-04-04 13:08:06,1773.5897051548825,32.2000010304,0.35999970196000003,5.5080201762566405,1773.5897051548825,32.2000010304,11.483990492523999,5.647360180715521,1403,-18.3,98,P-GPS,
0.34761157130568,36.900018606105206,23200,2018-04-04 13:08:06,1773.8897051644822,32.50000104,0.0,5.513200176422401,1773.8897051644822,32.50000104,11.483990492523999,5.647360180715521,1403,-18.3,98,P-GPS,
0.347611620862488,36.9000186928667,23300,2018-04-04 13:08:06,1774.0897051708823,32.700001046400004,0.0,5.51604017651328,1774.0897051708823,32.700001046400004,11.483990492523999,5.647360180715521,1404,-18.3,98,P-GPS,
0.34761168512088797,36.900018767187795,23400,2018-04-04 13:08:06,1774.2897051772823,32.9000010528,0.0,5.516770176536641,1774.2897051772823,32.9000010528,11.483990492523999,5.647360180715521,1405,-18.3,98,P-GPS,
0.347611740080873,36.9000188140501,23500,2018-04-04 13:08:06,1774.4897051836824,33.100001059200004,0.0,5.5161001765152005,1774.4897051836824,33.100001059200004,11.483990492523999,5.647360180715521,1404,-18.3,98,P-GPS,
0.34761179910219697,36.9000188151635,23600,2018-04-04 13:08:06,1774.7897051932825,33.4000010688,0.0,5.51154017636928,1774.7897051932825,33.4000010688,11.483990492523999,5.647360180715521,1401,-18.3,98,P-GPS,
0.34761184594601696,36.90001880330129,23700,2018-04-04 13:08:06,1774.9897051996822,33.6000010752,0.0,5.50692017622144,1774.9897051996822,33.6000010752,11.483990492523999,5.647360180715521,1403,-18.3,98,P-GPS,
0.34761191970476,36.9000187845058,23800,2018-04-04 13:08:06,1775.2897052092824,33.9000010848,0.0,5.499630175988161,1775.2897052092824,33.9000010848,11.483990492523999,5.647360180715521,1405,-18.3,98,P-GPS,
0.34761197807470595,36.900018754571796,23900,2018-04-04 13:08:06,1775.4897052156825,34.1000010912,0.0,5.492680175765759,1775.4897052156825,34.1000010912,11.483990492523999,5.647360180715521,1405,-18.3,98,P-GPS,
0.34761200170668605,36.900018712480104,24000,2018-04-04 13:08:07,1775.6897052220825,34.3000010976,0.0,5.487520175600641,1775.6897052220825,34.3000010976,11.483990492523999,5.647360180715521,1405,-18.3,98,P-GPS,
0.347611986431881,36.900018663502294,24100,2018-04-04 13:08:07,1775.9897052316824,34.6000011072,0.0,5.48488017551616,1775.9897052316824,34.6000011072,11.483990492523999,5.647360180715521,1405,-18.3,98,P-GPS,
0.347611974172954,36.900018629003206,24200,2018-04-04 13:08:07,1776.1897052380823,34.800001113600004,0.0,5.48313017546016,1776.1897052380823,34.800001113600004,11.483990492523999,5.647360180715521,1405,-18.3,98,P-GPS,
0.347611972417492,36.9000185820895,24300,2018-04-04 13:08:07,1776.4897052476824,35.1000011232,0.0,5.47959017534688,1776.4897052476824,35.1000011232,11.483990492523999,5.647360180715521,1405,-18.3,98,P-GPS,
0.347611943245546,36.900018513793796,24400,2018-04-04 13:08:07,1776.6897052540824,35.300001129600005,0.0,5.476550175249601,1776.6897052540824,35.300001129600005,11.483990492523999,5.647360180715521,1405,-18.3,98,P-GPS,
0.347611905706655,36.900018429045,24500,2018-04-04 13:08:07,1776.8897052604823,35.500001136,0.0,5.4728901751324806,1776.8897052604823,35.500001136,11.483990492523999,5.647360180715521,1405,-18.3,98,P-GPS,
0.347611903938165,36.900018348291795,24600,2018-04-04 13:08:07,1777.1897052700824,35.8000011456,0.0,5.4667301749353605,1777.1897052700824,35.8000011456,11.483990492523999,5.647360180715521,1406,-18.3,98,P-GPS,
0.34761189410887705,36.900018278535704,24700,2018-04-04 13:08:07,1777.3897052764826,36.000001151999996,0.0,5.46206017478592,1777.3897052764826,36.000001151999996,11.483990492523999,5.647360180715521,1406,-18.3,98,P-GPS,
0.34761192027145804,36.900018206895396,24800,2018-04-04 13:08:07,1777.5897052828823,36.200001158400006,0.0,5.45441017454112,1777.5897052828823,36.200001158400006,11.483990492523999,5.647360180715521,1406,-18.3,98,P-GPS,
0.34761196146132106,36.9000181438157,24900,2018-04-04 13:08:08,1777.8897052924824,36.500001168000004,0.0,5.44622017427904,1777.8897052924824,36.500001168000004,11.483990492523999,5.647360180715521,1406,-18.3,98,P-GPS,
0.34761201276382,36.90001809754,25000,2018-04-04 13:08:08,1778.0897052988823,36.7000011744,0.0,5.438550174033601,1778.0897052988823,36.7000011744,11.483990492523999,5.647360180715521,1406,-18.3,98,P-GPS,
0.34761204958945296,36.9000180432691,25100,2018-04-04 13:08:08,1778.3897053084822,37.000001184000006,0.0,5.4314001738048,1778.3897053084822,37.000001184000006,11.483990492523999,5.647360180715521,1406,-18.3,98,P-GPS,
0.347612100286171,36.9000179962784,25200,2018-04-04 13:08:08,1778.5897053148824,37.2000011904,0.0,5.4237201735590395,1778.5897053148824,37.2000011904,11.483990492523999,5.647360180715521,1406,-18.3,98,P-GPS,
0.34761212685911996,36.900017943407796,25300,2018-04-04 13:08:08,1778.8897053244823,37.5000012,0.0,5.41749017335968,1778.8897053244823,37.5000012,11.483990492523999,5.647360180715521,1406,-18.3,98,P-GPS,
0.3476121533995011,36.900017892974,25400,2018-04-04 13:08:08,1779.0897053308825,37.700001206399996,0.0,5.41146017316672,1779.0897053308825,37.700001206399996,11.483990492523999,5.647360180715521,1406,-18.3,98,P-GPS,
0.34761215884827396,36.9000178257917,25500,2018-04-04 13:08:08,1779.3897053404824,38.000001216,0.0,5.4058001729856,1779.3897053404824,38.000001216,11.483990492523999,5.647360180715521,1406,-18.3,98,P-GPS,
0.34761215877988005,36.9000177425118,25600,2018-04-04 13:08:08,1779.5897053468823,38.2000012224,0.35999970196000003,5.39934017277888,1779.5897053468823,38.2000012224,11.483990492523999,5.647360180715521,1405,-18.3,98,P-GPS,
0.3476121464720999,36.900017657972896,25700,2018-04-04 13:08:08,1779.8897053564824,38.500001232,0.0,5.39376017260032,1779.8897053564824,38.500001232,11.483990492523999,5.647360180715521,1406,-18.3,98,P-GPS,
0.347612101211128,36.900017569597004,25800,2018-04-04 13:08:08,1780.0897053628826,38.700001238400006,0.0,5.39053017249696,1780.0897053628826,38.700001238400006,11.483990492523999,5.647360180715521,1407,-18.3,98,P-GPS,
0.347612059428511,36.9000174971087,25900,2018-04-04 13:08:08,1780.2897053692823,38.9000012448,0.0,5.388270172424641,1780.2897053692823,38.9000012448,11.483990492523999,5.647360180715521,1407,-18.3,98,P-GPS,
0.347612023527835,36.9000174304831,26000,2018-04-04 13:08:09,1780.5897053788824,39.2000012544,0.0,5.386010172352321,1780.5897053788824,39.2000012544,11.483990492523999,5.647360180715521,1407,-18.3,98,P-GPS,
0.34761196435018005,36.900017378953,26100,2018-04-04 13:08:09,1780.7897053852823,39.4000012608,0.0,5.38678017237696,1780.7897053852823,39.4000012608,11.483990492523999,5.647360180715521,1407,-18.3,98,P-GPS,
0.34761190650459306,36.9000173238727,26200,2018-04-04 13:08:09,1780.9897053916825,39.60000126719999,0.35999970196000003,5.38719017239008,1780.9897053916825,39.60000126719999,11.483990492523999,5.647360180715521,1404,-18.3,98,P-GPS,
0.34761182016774894,36.9000172894294,26300,2018-04-04 13:08:09,1781.1897053980822,39.80000127360001,0.35999970196000003,5.3915001725280005,1781.1897053980822,39.80000127360001,11.483990492523999,5.647360180715521,1354,-18.3,98,P-GPS,
0.347611715960361,36.9000172942685,26400,2018-04-04 13:08:09,1781.3897054044824,40.00000128,0.0,5.40027017280864,1781.3897054044824,40.00000128,11.483990492523999,5.647360180715521,1225,-18.3,98,P-GPS,
0.347611638091425,36.9000173004994,26500,2018-04-04 13:08:09,1781.6897054140825,40.3000012896,0.0,5.40702017302464,1781.6897054140825,40.3000012896,11.483990492523999,5.647360180715521,1029,-18.3,98,P-GPS,
0.347611601936712,36.900017301831205,26600,2018-04-04 13:08:09,1781.8897054204822,40.500001296,0.0,5.410050173121601,1781.8897054204822,40.500001296,11.483990492523999,5.647360180715521,1024,-18.3,98,P-GPS,
0.347611553242979,36.9000172823463,26700,2018-04-04 13:08:09,1781.9897054236826,40.6000012992,0.0,5.41249017319968,1781.9897054236826,40.6000012992,11.483990492523999,5.647360180715521,1024,-18.3,98,P-GPS,
0.34761151989896,36.90001724090121,26800,2018-04-04 13:08:09,1782.0897054268823,40.7000013024,0.0,5.41202017318464,1782.0897054268823,40.7000013024,11.483990492523999,5.647360180715521,1024,-18.3,98,P-GPS,
0.347611496921615,36.9000172105176,26900,2018-04-04 13:08:09,1782.0897054268823,40.7000013024,0.0,5.41157017317024,1782.0897054268823,40.7000013024,11.483990492523999,5.647360180715521,1024,-18.3,98,P-GPS,
0.347611482734611,36.9000171562724,27000,2018-04-04 13:08:10,1782.0897054268823,40.7000013024,0.0,5.408580173074561,1782.0897054268823,40.7000013024,11.483990492523999,5.647360180715521,1024,-18.3,98,P-GPS,
0.34761145799854704,36.9000171115941,27100,2018-04-04 13:08:10,1782.0897054268823,40.7000013024,0.0,5.407190173030081,1782.0897054268823,40.7000013024,11.483990492523999,5.647360180715521,1024,-18.3,98,P-GPS,
0.34761141483826696,36.9000170889701,27200,2018-04-04 13:08:10,1782.0897054268823,40.7000013024,0.0,5.40897017308704,1782.0897054268823,40.7000013024,11.483990492523999,5.647360180715521,1024,-18.3,98,P-GPS,
0.347611360913973,36.9000170691041,27300,2018-04-04 13:08:10,1782.0897054268823,40.7000013024,0.0,5.41184017317888,1782.0897054268823,40.7000013024,11.483990492523999,5.647360180715521,1024,-18.3,98,P-GPS,
0.34761130412687397,36.9000170794461,27400,2018-04-04 13:08:10,1782.0897054268823,40.7000013024,0.0,5.417250173352,1782.0897054268823,40.7000013024,11.483990492523999,5.647360180715521,1024,-18.3,98,P-GPS,
0.34761125437790996,36.9000170997832,27500,2018-04-04 13:08:10,1781.9897054236826,40.6000012992,0.0,5.42283017353056,1782.0897054268823,40.7000013024,11.483990492523999,5.647360180715521,1024,-18.3,98,P-GPS,
0.347611253068641,36.9000171136582,27600,2018-04-04 13:08:10,1781.9897054236826,40.6000012992,0.0,5.42399017356768,1782.0897054268823,40.7000013024,11.483990492523999,5.647360180715521,1024,-18.3,98,P-GPS,
0.34761127571378303,36.900017139631,27700,2018-04-04 13:08:10,1781.9897054236826,40.6000012992,0.0,5.424120173571841,1782.0897054268823,40.7000013024,11.483990492523999,5.647360180715521,1024,-18.3,98,P-GPS,
0.347611352319045,36.9000172008179,27800,2018-04-04 13:08:10,1781.9897054236826,40.6000012992,0.0,5.422550173521601,1782.0897054268823,40.7000013024,11.483990492523999,5.647360180715521,1024,-18.3,98,P-GPS,
0.347611444788609,36.9000172769248,27900,2018-04-04 13:08:10,1782.0897054268823,40.7000013024,0.0,5.4208501734672,1782.0897054268823,40.7000013024,11.483990492523999,5.647360180715521,1024,-18.3,98,P-GPS,
0.347611591765451,36.9000173448051,28000,2018-04-04 13:08:11,1782.0897054268823,40.7000013024,0.0,5.414150173252799,1782.0897054268823,40.7000013024,11.483990492523999,5.647360180715521,1024,-18.3,98,P-GPS,
0.34761173278544394,36.9000174281064,28100,2018-04-04 13:08:11,1782.0897054268823,40.7000013024,0.0,5.4091701730934405,1782.0897054268823,40.7000013024,11.483990492523999,5.647360180715521,1024,-18.3,98,P-GPS,
0.34761190861505603,36.9000175493412,28200,2018-04-04 13:08:11,1782.0897054268823,40.7000013024,0.0,5.404380172940161,1782.0897054268823,40.7000013024,11.483990492523999,5.647360180715521,1024,-18.3,98,P-GPS,
0.347612081145441,36.900017666512,28300,2018-04-04 13:08:11,1782.0897054268823,40.7000013024,0.35999970196000003,5.399630172788161,1782.0897054268823,40.7000013024,11.483990492523999,5.647360180715521,1024,-18.3,98,P-GPS,
0.3476122390295999,36.9000177879995,28400,2018-04-04 13:08:11,1782.1897054300823,40.8000013056,0.35999970196000003,5.39649017268768,1782.1897054300823,40.8000013056,11.483990492523999,5.647360180715521,1024,-18.3,98,P-GPS,
0.347612375320592,36.900017908446294,28500,2018-04-04 13:08:11,1782.1897054300823,40.8000013056,0.35999970196000003,5.39506017264192,1782.1897054300823,40.8000013056,11.483990492523999,5.647360180715521,1024,-18.3,98,P-GPS,
