latitude,longitude,time_millisecond,datetime_utc,altitude_m,ascent_m,speed_kph,distance_m,max_altitude_m,max_ascent_m,max_speed_kph,max_distance_m,rc_throttle,gimbal_pitch_degrees,battery_percent,flycState,message
0.304515203462471,36.8773565768836,10600,2017-11-10 12:32:05,1789.8978843767416,0.0,0.0,0.0,1789.8978843767416,0.0,0.0,0.0,1024,0.0,99,Assisted_Takeoff,
0.304515203814865,36.8773565632206,10700,2017-11-10 12:32:05,1789.8978843767416,0.0,0.0,0.0015198900486364801,1789.8978843767416,0.0,0.0,0.0015198900486364801,1024,0.0,99,Assisted_Takeoff,
0.304515200889796,36.877356456778,10800,2017-11-10 12:32:05,1789.8978843767416,0.0,0.0,0.0133593004274976,1789.8978843767416,0.0,0.0,0.0133593004274976,1024,0.0,99,Assisted_Takeoff,
0.304515195571803,36.8773563340576,10900,2017-11-10 12:32:05,1789.8978843767416,0.0,0.0,0.0270176008645632,1789.8978843767416,0.0,0.0,0.0270176008645632,1024,0.0,99,Assisted_Takeoff,
0.304515189473366,36.8773561764927,11000,2017-11-10 12:32:05,1789.8978843767416,0.0,0.0,0.044552401425676805,1789.8978843767416,0.0,0.0,0.044552401425676805,1024,0.0,99,Assisted_Takeoff,
0.304515182859234,36.8773560442413,11100,2017-11-10 12:32:05,1789.8978843767416,0.0,0.0,0.059276501896848,1789.8978843767416,0.0,0.0,0.059276501896848,1024,0.0,99,Assisted_Takeoff,
0.304515176520043,36.8773558315709,11200,2017-11-10 12:32:05,1789.8978843767416,0.0,0.0,0.08293630265396161,1789.8978843767416,0.0,0.0,0.08293630265396161,1024,0.0,99,Assisted_Takeoff,
0.304515168465024,36.8773556563895,11300,2017-11-10 12:32:05,1789.8978843767416,0.0,0.0,0.10243700327798401,1789.8978843767416,0.0,0.0,0.10243700327798401,1024,0.0,99,Assisted_Takeoff,
0.304515163208555,36.8773553983599,11400,2017-11-10 12:32:05,1789.8978843767416,0.0,0.0,0.131134004196288,1789.8978843767416,0.0,0.0,0.131134004196288,1024,0.0,99,Assisted_Takeoff,
0.304515156072993,36.8773551870439,11500,2017-11-10 12:32:05,1789.8978843767416,0.0,0.0,0.154646004948672,1789.8978843767416,0.0,0.0,0.154646004948672,1024,0.0,99,Assisted_Takeoff,
0.304515154045345,36.8773549274601,11600,2017-11-10 12:32:06,1789.8978843767416,0.0,0.0,0.183506005872192,1789.8978843767416,0.0,0.0,0.183506005872192,1024,0.0,99,Assisted_Takeoff,
0.304515148392946,36.8773547061439,11700,2017-11-10 12:32:06,1789.8978843767416,0.0,0.0,0.20812500666,1789.8978843767416,0.0,0.0,0.20812500666,1024,0.0,99,Assisted_Takeoff,
0.30451514771066,36.8773544677772,11800,2017-11-10 12:32:06,1789.8978843767416,0.0,0.0,0.23462400750796802,1789.8978843767416,0.0,0.0,0.23462400750796802,1024,0.0,99,Assisted_Takeoff,
0.304515142802065,36.8773542559825,11900,2017-11-10 12:32:06,1789.8978843767416,0.0,0.0,0.25818300826185603,1789.8978843767416,0.0,0.0,0.25818300826185603,1024,0.0,99,Assisted_Takeoff,
0.304515143358847,36.8773540470519,12000,2017-11-10 12:32:06,1789.8978843767416,0.0,0.0,0.281408009005056,1789.8978843767416,0.0,0.0,0.281408009005056,1024,0.0,99,Assisted_Takeoff,
0.304515138573015,36.8773538494385,12100,2017-11-10 12:32:06,1789.8978843767416,0.0,0.0,0.30339000970848,1789.8978843767416,0.0,0.0,0.30339000970848,1024,0.0,99,Assisted_Takeoff,
0.304515139558644,36.8773536643026,12200,2017-11-10 12:32:06,1789.8978843767416,0.0,0.0,0.32397001036704004,1789.8978843767416,0.0,0.0,0.32397001036704004,1024,0.0,99,Assisted_Takeoff,
0.304515135659767,36.8773534826005,12300,2017-11-10 12:32:06,1789.8978843767416,0.0,0.0,0.34418101101379206,1789.8978843767416,0.0,0.0,0.34418101101379206,1024,0.0,99,Assisted_Takeoff,
0.30451513778871,36.8773533535288,12400,2017-11-10 12:32:06,1789.8978843767416,0.0,0.0,0.35852601147283203,1789.8978843767416,0.0,0.0,0.35852601147283203,1024,0.0,99,Assisted_Takeoff,
0.304515134279018,36.8773532117576,12500,2017-11-10 12:32:06,1789.8978843767416,0.0,0.0,0.374296011977472,1789.8978843767416,0.0,0.0,0.374296011977472,1024,0.0,99,Assisted_Takeoff,
0.304515133805523,36.8773530051801,12700,2017-11-10 12:32:07,1789.8978843767416,0.0,0.0,0.39726501271248,1789.8978843767416,0.0,0.0,0.39726501271248,1024,0.0,99,Assisted_Takeoff,
0.304515136522569,36.877352899401,12800,2017-11-10 12:32:07,1789.8978843767416,0.0,0.0,0.40902001308864,1789.8978843767416,0.0,0.0,0.40902001308864,1024,0.0,99,Assisted_Takeoff,
0.304515133356288,36.8773527715401,12900,2017-11-10 12:32:07,1789.8978843767416,0.0,0.0,0.423243013543776,1789.8978843767416,0.0,0.0,0.423243013543776,1024,0.0,99,Assisted_Takeoff,
0.304515135852063,36.8773527173595,13000,2017-11-10 12:32:07,1789.8978843767416,0.0,0.0,0.42926201373638406,1789.8978843767416,0.0,0.0,0.42926201373638406,1024,0.0,99,Assisted_Takeoff,
0.304515132996351,36.8773526380581,13100,2017-11-10 12:32:07,1789.7978843735416,-0.1000000032,0.0,0.43808501401872,1789.8978843767416,0.0,0.0,0.43808501401872,1024,0.0,99,Assisted_Takeoff,
0.304515136805575,36.8773525530695,13200,2017-11-10 12:32:07,1789.7978843735416,-0.1000000032,0.0,0.44752801432089606,1789.8978843767416,0.0,0.0,0.44752801432089606,1024,0.0,99,Assisted_Takeoff,
0.304515135595329,36.877352443615,13300,2017-11-10 12:32:07,1789.7978843735416,-0.1000000032,0.0,0.45970001471040006,1789.8978843767416,0.0,0.0,0.45970001471040006,1024,0.0,99,Assisted_Takeoff,
0.30451514026161,36.8773523930782,13400,2017-11-10 12:32:07,1789.7978843735416,-0.1000000032,0.0,0.465311014889952,1789.8978843767416,0.0,0.0,0.465311014889952,1024,0.0,99,Assisted_Takeoff,
0.304515139562441,36.8773523203446,13500,2017-11-10 12:32:07,1789.7978843735416,-0.1000000032,0.0,0.47340001514880004,1789.8978843767416,0.0,0.0,0.47340001514880004,1024,0.0,99,Assisted_Takeoff,
0.30451514396583,36.8773522651445,13600,2017-11-10 12:32:08,1789.7978843735416,-0.1000000032,0.0,0.47953101534499204,1789.8978843767416,0.0,0.0,0.47953101534499204,1024,0.0,99,Assisted_Takeoff,
0.304515142597864,36.8773521847782,13700,2017-11-10 12:32:08,1789.7978843735416,-0.1000000032,0.0,0.48846901563100803,1789.8978843767416,0.0,0.0,0.48846901563100803,1024,0.0,99,Assisted_Takeoff,
0.304515145275971,36.8773521503044,13800,2017-11-10 12:32:08,1789.7978843735416,-0.1000000032,0.0,0.49229801575353604,1789.8978843767416,0.0,0.0,0.49229801575353604,1024,0.0,99,Assisted_Takeoff,
0.304515142628267,36.8773520918204,13900,2017-11-10 12:32:08,1789.7978843735416,-0.1000000032,0.0,0.49880501596176,1789.8978843767416,0.0,0.0,0.49880501596176,1024,0.0,99,Assisted_Takeoff,
0.304515109222628,36.8773520371792,14000,2017-11-10 12:32:08,1789.7978843735416,-0.1000000032,0.0,0.504944016158208,1789.8978843767416,0.0,0.0,0.504944016158208,1024,0.0,99,Assisted_Takeoff,
0.304515076720997,36.8773519617188,14100,2017-11-10 12:32:08,1789.7978843735416,-0.1000000032,0.0,0.513421016429472,1789.8978843767416,0.0,0.0,0.513421016429472,1024,0.0,99,Assisted_Takeoff,
0.304515048033259,36.8773519073768,14200,2017-11-10 12:32:08,1789.7978843735416,-0.1000000032,0.0,0.519558016625856,1789.8978843767416,0.0,0.0,0.519558016625856,1024,0.0,99,Assisted_Takeoff,
0.304515031453562,36.8773518629474,14300,2017-11-10 12:32:08,1789.7978843735416,-0.1000000032,0.0,0.52456001678592,1789.8978843767416,0.0,0.0,0.52456001678592,1024,0.0,99,Assisted_Takeoff,
0.304515021160028,36.8773518345099,14400,2017-11-10 12:32:08,1789.7978843735416,-0.1000000032,0.0,0.5277630168884161,1789.8978843767416,0.0,0.0,0.5277630168884161,1024,0.0,99,Assisted_Takeoff,
0.304515007607391,36.8773517841179,14500,2017-11-10 12:32:08,1789.7978843735416,-0.1000000032,0.0,0.533422017069504,1789.8978843767416,0.0,0.0,0.533422017069504,1024,0.0,99,Assisted_Takeoff,
0.304514976437269,36.8773517511652,14600,2017-11-10 12:32:09,1789.7978843735416,-0.1000000032,0.0,0.53723501719152,1789.8978843767416,0.0,0.0,0.53723501719152,1024,0.0,99,Assisted_Takeoff,
0.304514940857905,36.8773517182082,14700,2017-11-10 12:32:09,1789.7978843735416,-0.1000000032,0.0,0.5410950173150401,1789.8978843767416,0.0,0.0,0.5410950173150401,1024,0.0,99,Assisted_Takeoff,
0.304514915584428,36.8773517062535,14800,2017-11-10 12:32:09,1789.7978843735416,-0.1000000032,0.0,0.542581017362592,1789.8978843767416,0.0,0.0,0.542581017362592,1024,0.0,99,Assisted_Takeoff,
0.304514893147218,36.8773516594608,14900,2017-11-10 12:32:09,1789.7978843735416,-0.1000000032,0.0,0.547927017533664,1789.8978843767416,0.0,0.0,0.547927017533664,1024,0.0,99,Assisted_Takeoff,
0.304514853810016,36.8773515951264,15000,2017-11-10 12:32:09,1789.7978843735416,-0.1000000032,0.0,0.555357017771424,1789.8978843767416,0.0,0.0,0.555357017771424,1024,0.0,99,Assisted_Takeoff,
0.304514812518147,36.8773515189755,15100,2017-11-10 12:32:09,1789.7978843735416,-0.1000000032,0.0,0.56414001805248,1789.8978843767416,0.0,0.0,0.56414001805248,1024,0.0,99,Assisted_Takeoff,
0.304514757942831,36.8773514278053,15200,2017-11-10 12:32:09,1789.7978843735416,-0.1000000032,0.0,0.57474001839168,1789.8978843767416,0.0,0.0,0.57474001839168,1024,0.0,99,Assisted_Takeoff,
0.304514704885632,36.8773513306281,15300,2017-11-10 12:32:09,1789.7978843735416,-0.1000000032,0.0,0.586036018753152,1789.8978843767416,0.0,0.0,0.586036018753152,1024,0.0,99,Assisted_Takeoff,
0.304514672888692,36.8773512517616,15400,2017-11-10 12:32:09,1789.7978843735416,-0.1000000032,0.0,0.59511001904352,1789.8978843767416,0.0,0.0,0.59511001904352,1024,0.0,99,Assisted_Takeoff,Home Point Recorded. RTH Altitude:  30m.
0.30451464429978,36.8773511729101,15500,2017-11-10 12:32:09,1789.7978843735416,-0.1000000032,0.0,0.60415501933296,1789.8978843767416,0.0,0.0,0.60415501933296,1024,0.0,99,Assisted_Takeoff,
0.304514607828436,36.8773510834673,15600,2017-11-10 12:32:10,1789.7978843735416,-0.1000000032,0.0,0.614473019663136,1789.8978843767416,0.0,0.0,0.614473019663136,1024,0.0,99,Assisted_Takeoff,
0.30451456657084,36.8773509854379,15700,2017-11-10 12:32:10,1789.7978843735416,-0.1000000032,0.0,0.62581502002608,1789.8978843767416,0.0,0.0,0.62581502002608,1024,0.0,99,Assisted_Takeoff,
0.30451451692457,36.8773509109999,15800,2017-11-10 12:32:10,1789.7978843735416,-0.1000000032,0.0,0.634681020309792,1789.8978843767416,0.0,0.0,0.634681020309792,1024,0.0,99,Assisted_Takeoff,
0.304514467064821,36.8773508323893,15900,2017-11-10 12:32:10,1789.7978843735416,-0.1000000032,0.0,0.644041020609312,1789.8978843767416,0.0,0.0,0.644041020609312,1024,0.0,99,Assisted_Takeoff,
0.304514412939464,36.8773507800461,16000,2017-11-10 12:32:10,1789.7978843735416,-0.1000000032,0.0,0.650601020819232,1789.8978843767416,0.0,0.0,0.650601020819232,1024,0.0,99,Assisted_Takeoff,
0.304514359410933,36.8773507195509,16100,2017-11-10 12:32:10,1789.7978843735416,-0.1000000032,0.0,0.6580900210588801,1789.8978843767416,0.0,0.0,0.6580900210588801,1024,0.0,99,Assisted_Takeoff,
0.304514302532437,36.8773506811329,16200,2017-11-10 12:32:10,1789.7978843735416,-0.1000000032,0.0,0.66324502122384,1789.8978843767416,0.0,0.0,0.66324502122384,1024,0.0,99,Assisted_Takeoff,
0.304514247006466,36.8773506276244,16300,2017-11-10 12:32:10,1789.7978843735416,-0.1000000032,0.0,0.6700800214425601,1789.8978843767416,0.0,0.0,0.6700800214425601,1024,0.0,99,Assisted_Takeoff,
0.30451421946673,36.8773506241503,16400,2017-11-10 12:32:10,1789.7978843735416,-0.1000000032,0.0,0.6709540214705281,1789.8978843767416,0.0,0.0,0.6709540214705281,1024,0.0,99,Assisted_Takeoff,
0.304514192759943,36.8773506036175,16500,2017-11-10 12:32:10,1789.7978843735416,-0.1000000032,0.0,0.673696021558272,1789.8978843767416,0.0,0.0,0.673696021558272,1024,0.0,99,Assisted_Takeoff,
0.30451419046628,36.8773506211152,16600,2017-11-10 12:32:11,1789.7978843735416,-0.1000000032,0.0,0.67182002149824,1789.8978843767416,0.0,0.0,0.673696021558272,1024,0.0,99,Assisted_Takeoff,
0.304514186114263,36.8773506269986,16700,2017-11-10 12:32:11,1789.7978843735416,-0.1000000032,0.0,0.671257021480224,1789.8978843767416,0.0,0.0,0.673696021558272,1024,0.0,99,Assisted_Takeoff,
0.304514209252722,36.8773506772311,16800,2017-11-10 12:32:11,1789.7978843735416,-0.1000000032,0.0,0.665319021290208,1789.8978843767416,0.0,0.0,0.673696021558272,1024,0.0,99,Assisted_Takeoff,
0.304514210811754,36.8773506832248,16900,2017-11-10 12:32:11,1789.7978843735416,-0.1000000032,0.0,0.664633021268256,1789.8978843767416,0.0,0.0,0.673696021558272,1024,0.0,99,Assisted_Takeoff,
0.304514202164513,36.8773507227868,17000,2017-11-10 12:32:11,1789.7978843735416,-0.1000000032,0.0,0.660456021134592,1789.8978843767416,0.0,0.0,0.673696021558272,1024,0.0,99,Assisted_Takeoff,
0.304514180294204,36.8773507330077,17100,2017-11-10 12:32:11,1789.7978843735416,-0.1000000032,0.0,0.659751021112032,1789.8978843767416,0.0,0.0,0.673696021558272,1024,0.0,99,Assisted_Takeoff,
0.304514176873251,36.8773508007604,17200,2017-11-10 12:32:11,1789.7978843735416,-0.1000000032,0.0,0.652397020876704,1789.8978843767416,0.0,0.0,0.673696021558272,1024,0.0,99,Assisted_Takeoff,
0.304514167812385,36.8773508406596,17300,2017-11-10 12:32:11,1789.7978843735416,-0.1000000032,0.0,0.648208020742656,1789.8978843767416,0.0,0.0,0.673696021558272,1024,0.0,99,Assisted_Takeoff,
0.304514143240895,36.8773508974093,17400,2017-11-10 12:32:11,1789.7978843735416,-0.1000000032,0.0,0.642494020559808,1789.8978843767416,0.0,0.0,0.673696021558272,1024,0.0,99,Assisted_Takeoff,
0.304514113453499,36.8773509256632,17500,2017-11-10 12:32:11,1789.7978843735416,-0.1000000032,0.0,0.6400250204808,1789.8978843767416,0.0,0.0,0.673696021558272,1024,0.0,99,Assisted_Takeoff,
0.304514100767106,36.8773509955662,17600,2017-11-10 12:32:12,1789.7978843735416,-0.1000000032,0.0,0.632666020245312,1789.8978843767416,0.0,0.0,0.673696021558272,1024,0.0,99,Assisted_Takeoff,
0.304514086257467,36.8773510403671,17700,2017-11-10 12:32:12,1789.7978843735416,-0.1000000032,0.0,0.6280960200990721,1789.8978843767416,0.0,0.0,0.673696021558272,1024,0.0,99,Assisted_Takeoff,
0.304514055727908,36.8773511213929,17800,2017-11-10 12:32:12,1789.7978843735416,-0.1000000032,0.0,0.6199560198385919,1789.8978843767416,0.0,0.0,0.673696021558272,1024,0.0,99,Assisted_Takeoff,
0.304514022399053,36.8773511768215,17900,2017-11-10 12:32:12,1789.7978843735416,-0.1000000032,0.0,0.614707019670624,1789.8978843767416,0.0,0.0,0.673696021558272,1024,0.0,99,Assisted_Takeoff,
0.304514006318372,36.8773512580652,18000,2017-11-10 12:32:12,1789.7978843735416,-0.1000000032,0.0,0.6062740194007681,1789.8978843767416,0.0,0.0,0.673696021558272,1024,0.0,99,Assisted_Takeoff,
0.304513959972347,36.8773513656898,18200,2017-11-10 12:32:12,1789.7978843735416,-0.1000000032,0.0,0.595779019064928,1789.8978843767416,0.0,0.0,0.673696021558272,1024,0.0,99,Assisted_Takeoff,
0.304513926199029,36.8773513945411,18300,2017-11-10 12:32:12,1789.7978843735416,-0.1000000032,0.0,0.593546018993472,1789.8978843767416,0.0,0.0,0.673696021558272,1024,0.0,99,Assisted_Takeoff,
0.304513909059046,36.8773514433792,18400,2017-11-10 12:32:12,1789.7978843735416,-0.1000000032,0.0,0.5887370188395841,1789.8978843767416,0.0,0.0,0.673696021558272,1024,0.0,99,Assisted_Takeoff,
0.304513893568167,36.8773514811286,18500,2017-11-10 12:32:12,1789.7978843735416,-0.1000000032,0.0,0.585094018723008,1789.8978843767416,0.0,0.0,0.673696021558272,1024,0.0,99,Assisted_Takeoff,
0.304513866408673,36.8773515296322,18600,2017-11-10 12:32:13,1789.7978843735416,-0.1000000032,0.0,0.580638018580416,1789.8978843767416,0.0,0.0,0.673696021558272,1024,0.0,99,Assisted_Takeoff,
0.304513833685701,36.8773515728052,18700,2017-11-10 12:32:13,1789.7978843735416,-0.1000000032,0.0,0.576948018462336,1789.8978843767416,0.0,0.0,0.673696021558272,1024,0.0,99,Assisted_Takeoff,
0.304513813126697,36.8773516094627,18800,2017-11-10 12:32:13,1789.7978843735416,-0.1000000032,0.0,0.57363001835616,1789.8978843767416,0.0,0.0,0.673696021558272,1024,0.0,99,Assisted_Takeoff,
0.304513794571494,36.877351625544,18900,2017-11-10 12:32:13,1789.7978843735416,-0.1000000032,0.0,0.5724690183190081,1789.8978843767416,0.0,0.0,0.673696021558272,1024,0.0,99,Assisted_Takeoff,
0.304513794188504,36.8773516640579,19000,2017-11-10 12:32:13,1789.7978843735416,-0.1000000032,0.0,0.568362018187584,1789.8978843767416,0.0,0.0,0.673696021558272,1024,0.0,99,Assisted_Takeoff,
0.304513789252182,36.8773516945193,19100,2017-11-10 12:32:13,1789.7978843735416,-0.1000000032,0.0,0.56526001808832,1789.8978843767416,0.0,0.0,0.673696021558272,1024,0.0,99,Assisted_Takeoff,
0.304513799672086,36.8773517461457,19200,2017-11-10 12:32:13,1789.7978843735416,-0.1000000032,0.0,0.559423017901536,1789.8978843767416,0.0,0.0,0.673696021558272,1024,0.0,99,Assisted_Takeoff,
0.304513801956284,36.8773517831688,19300,2017-11-10 12:32:13,1789.7978843735416,-0.1000000032,0.0,0.555399017772768,1789.8978843767416,0.0,0.0,0.673696021558272,1024,0.0,99,Assisted_Takeoff,
0.304513783072949,36.8773518076713,19400,2017-11-10 12:32:13,1789.7978843735416,-0.1000000032,0.0,0.55338001770816,1789.8978843767416,0.0,0.0,0.673696021558272,1024,0.0,99,Assisted_Takeoff,
0.304513760552179,36.8773518222924,19500,2017-11-10 12:32:13,1789.7978843735416,-0.1000000032,0.0,0.552544017681408,1789.8978843767416,0.0,0.0,0.673696021558272,1024,0.0,99,Assisted_Takeoff,
0.304513748907583,36.8773518581362,19600,2017-11-10 12:32:14,1789.7978843735416,-0.1000000032,0.0,0.549111017571552,1789.8978843767416,0.0,0.0,0.673696021558272,1024,0.0,99,Assisted_Takeoff,
0.30451373856045,36.8773518848779,19700,2017-11-10 12:32:14,1789.7978843735416,-0.1000000032,0.0,0.5466120174915841,1789.8978843767416,0.0,0.0,0.673696021558272,1024,0.0,99,Assisted_Takeoff,
0.304513739185162,36.8773519343765,19800,2017-11-10 12:32:14,1789.7978843735416,-0.1000000032,0.0,0.5413390173228481,1789.8978843767416,0.0,0.0,0.673696021558272,1024,0.0,99,Assisted_Takeoff,
0.304513737480792,36.8773519716651,19900,2017-11-10 12:32:14,1789.7978843735416,-0.1000000032,0.0,0.537444017198208,1789.8978843767416,0.0,0.0,0.673696021558272,1024,0.0,99,Assisted_Takeoff,
0.304513711748323,36.8773520314114,20000,2017-11-10 12:32:14,1789.7978843735416,-0.1000000032,0.0,0.532002017024064,1789.8978843767416,0.0,0.0,0.673696021558272,1024,0.0,99,Assisted_Takeoff,
0.304513684709741,36.8773520743152,20100,2017-11-10 12:32:14,1789.7978843735416,-0.1000000032,0.0,0.528424016909568,1789.8978843767416,0.0,0.0,0.673696021558272,1024,0.0,99,Assisted_Takeoff,
0.304513666693044,36.8773521367746,20200,2017-11-10 12:32:14,1789.7978843735416,-0.1000000032,0.0,0.522499016719968,1789.8978843767416,0.0,0.0,0.673696021558272,1024,0.0,99,Assisted_Takeoff,
0.304513652621863,36.8773521847335,20300,2017-11-10 12:32:14,1789.7978843735416,-0.1000000032,0.0,0.517981016575392,1789.8978843767416,0.0,0.0,0.673696021558272,1024,0.0,99,Assisted_Takeoff,
0.304513648559811,36.8773522516693,20400,2017-11-10 12:32:14,1789.7978843735416,-0.1000000032,0.0,0.511121016355872,1789.8978843767416,0.0,0.0,0.673696021558272,1024,0.0,99,Assisted_Takeoff,
0.30451364343581,36.8773523014776,20500,2017-11-10 12:32:14,1789.7978843735416,-0.1000000032,0.0,0.5061070161954241,1789.8978843767416,0.0,0.0,0.673696021558272,1024,0.0,99,Assisted_Takeoff,
0.304513646566901,36.8773523656197,20600,2017-11-10 12:32:15,1789.7978843735416,-0.1000000032,0.0,0.499291015977312,1789.8978843767416,0.0,0.0,0.673696021558272,1024,0.0,99,Assisted_Takeoff,
0.304513647187338,36.877352416398,20700,2017-11-10 12:32:15,1789.7978843735416,-0.1000000032,0.0,0.4939750158072,1789.8978843767416,0.0,0.0,0.673696021558272,1024,0.0,99,Assisted_Takeoff,
0.304513655877529,36.8773524827241,20800,2017-11-10 12:32:15,1789.7978843735416,-0.1000000032,0.0,0.48673101557539206,1789.8978843767416,0.0,0.0,0.673696021558272,1024,0.0,99,Assisted_Takeoff,
0.304513661143714,36.8773525331598,20900,2017-11-10 12:32:15,1789.7978843735416,-0.1000000032,0.0,0.48127901540092805,1789.8978843767416,0.0,0.0,0.673696021558272,1024,0.0,99,Assisted_Takeoff,
0.304513671182359,36.8773525930691,21000,2017-11-10 12:32:15,1789.7978843735416,-0.1000000032,0.0,0.47465901518908804,1789.8978843767416,0.0,0.0,0.673696021558272,1024,0.0,99,Assisted_Takeoff,
0.304513677569625,36.8773526393827,21100,2017-11-10 12:32:15,1789.7978843735416,-0.1000000032,0.0,0.46959801502713605,1789.8978843767416,0.0,0.0,0.673696021558272,1024,0.0,99,Assisted_Takeoff,
0.304513654110362,36.8773526987345,21200,2017-11-10 12:32:15,1789.7978843735416,-0.1000000032,0.0,0.46441201486118405,1789.8978843767416,0.0,0.0,0.673696021558272,1024,0.0,99,Assisted_Takeoff,
0.30451363079593,36.8773527466246,21300,2017-11-10 12:32:15,1789.7978843735416,-0.1000000032,0.0,0.46044901473436806,1789.8978843767416,0.0,0.0,0.673696021558272,1024,0.0,99,Assisted_Takeoff,
0.304513610165274,36.877352805716,21400,2017-11-10 12:32:15,1789.7978843735416,-0.1000000032,0.0,0.45526501456848006,1789.8978843767416,0.0,0.0,0.673696021558272,1024,0.0,99,Assisted_Takeoff,
0.3045135954647,36.8773528532996,21500,2017-11-10 12:32:15,1789.7978843735416,-0.1000000032,0.0,0.451041014433312,1789.8978843767416,0.0,0.0,0.673696021558272,1024,0.0,99,Assisted_Takeoff,
0.304513585180974,36.8773528773091,21600,2017-11-10 12:32:16,1789.7978843735416,-0.1000000032,0.0,0.449048014369536,1789.8978843767416,0.0,0.0,0.673696021558272,1024,0.0,99,Assisted_Takeoff,
0.304513576932905,36.8773528934951,21700,2017-11-10 12:32:16,1789.7978843735416,-0.1000000032,0.0,0.44776901432860805,1789.8978843767416,0.0,0.0,0.673696021558272,1024,0.0,99,Assisted_Takeoff,
0.304513574381134,36.877352924942,21800,2017-11-10 12:32:16,1789.7978843735416,-0.1000000032,0.0,0.444688014230016,1789.8978843767416,0.0,0.0,0.673696021558272,1024,0.0,99,Assisted_Takeoff,
0.304513571765853,36.8773529542889,21900,2017-11-10 12:32:16,1789.7978843735416,-0.1000000032,0.0,0.441829014138528,1789.8978843767416,0.0,0.0,0.673696021558272,1024,0.0,99,Assisted_Takeoff,
0.304513541362498,36.8773529646854,22000,2017-11-10 12:32:16,1789.7978843735416,-0.1000000032,0.0,0.44217801414969604,1789.8978843767416,0.0,0.0,0.673696021558272,1024,0.0,99,Assisted_Takeoff,
0.304513512033713,36.8773529697852,22100,2017-11-10 12:32:16,1789.7978843735416,-0.1000000032,0.0,0.443038014177216,1789.8978843767416,0.0,0.0,0.673696021558272,1024,0.0,99,Assisted_Takeoff,
0.304513489871099,36.8773529925882,22200,2017-11-10 12:32:16,1789.7978843735416,-0.1000000032,0.0,0.441801014137632,1789.8978843767416,0.0,0.0,0.673696021558272,1024,0.0,99,Assisted_Takeoff,
0.304513473962015,36.8773530153507,22300,2017-11-10 12:32:16,1789.7978843735416,-0.1000000032,0.0,0.44028801408921603,1789.8978843767416,0.0,0.0,0.673696021558272,1024,0.0,99,Assisted_Takeoff,
0.304513466396061,36.8773530600347,22400,2017-11-10 12:32:16,1789.7978843735416,-0.1000000032,0.0,0.43619601395827207,1789.8978843767416,0.0,0.0,0.673696021558272,1024,0.0,99,Assisted_Takeoff,
0.30451345976809,36.8773530958613,22500,2017-11-10 12:32:16,1789.7978843735416,-0.1000000032,0.0,0.43295701385462404,1789.8978843767416,0.0,0.0,0.673696021558272,1024,0.0,99,Assisted_Takeoff,
0.30451345989287,36.8773531195005,22600,2017-11-10 12:32:17,1789.7978843735416,-0.1000000032,0.0,0.430602013779264,1789.8978843767416,0.0,0.0,0.673696021558272,1024,0.0,99,Assisted_Takeoff,
0.304513458157559,36.8773531324131,22700,2017-11-10 12:32:17,1789.7978843735416,-0.1000000032,0.0,0.429407013741024,1789.8978843767416,0.0,0.0,0.673696021558272,1024,0.0,99,Assisted_Takeoff,
0.304513463121667,36.8773531347304,22800,2017-11-10 12:32:17,1789.7978843735416,-0.1000000032,0.0,0.428928013725696,1789.8978843767416,0.0,0.0,0.673696021558272,1024,0.0,99,Assisted_Takeoff,
0.304513466313824,36.8773531341234,22900,2017-11-10 12:32:17,1789.7978843735416,-0.1000000032,0.0,0.428828013722496,1789.8978843767416,0.0,0.0,0.673696021558272,1024,0.0,99,Assisted_Takeoff,
0.304513474748961,36.8773531590739,23000,2017-11-10 12:32:17,1789.7978843735416,-0.1000000032,0.0,0.425929013629728,1789.8978843767416,0.0,0.0,0.673696021558272,1024,0.0,99,Assisted_Takeoff,
0.304513480197124,36.8773531803714,23100,2017-11-10 12:32:17,1789.7978843735416,-0.1000000032,0.0,0.42354201355334403,1789.8978843767416,0.0,0.0,0.673696021558272,1024,0.0,99,Assisted_Takeoff,
0.304513488186677,36.8773531933148,23200,2017-11-10 12:32:17,1789.7978843735416,-0.1000000032,0.0,0.421857013499424,1789.8978843767416,0.0,0.0,0.673696021558272,1024,0.0,99,Assisted_Takeoff,
0.304513493844604,36.8773531971794,23300,2017-11-10 12:32:17,1789.7978843735416,-0.1000000032,0.0,0.421189013478048,1789.8978843767416,0.0,0.0,0.673696021558272,1024,0.0,99,Assisted_Takeoff,
0.304513500318483,36.8773532288645,23400,2017-11-10 12:32:17,1789.7978843735416,-0.1000000032,0.0,0.417721013367072,1789.8978843767416,0.0,0.0,0.673696021558272,1024,0.0,99,Assisted_Takeoff,
0.304513505665886,36.8773532551207,23500,2017-11-10 12:32:17,1789.7978843735416,-0.1000000032,0.0,0.4148500132752,1789.8978843767416,0.0,0.0,0.673696021558272,1024,0.0,99,Assisted_Takeoff,
0.304513510998531,36.8773532776769,23600,2017-11-10 12:32:18,1789.7978843735416,-0.1000000032,0.0,0.41234701319510403,1789.8978843767416,0.0,0.0,0.673696021558272,1024,0.0,99,Assisted_Takeoff,
0.304513515460671,36.8773532874594,23700,2017-11-10 12:32:18,1789.7978843735416,-0.1000000032,0.0,0.411152013156864,1789.8978843767416,0.0,0.0,0.673696021558272,1024,0.0,99,Assisted_Takeoff,
0.304513517533579,36.8773533246101,23800,2017-11-10 12:32:18,1789.7978843735416,-0.1000000032,0.0,0.407375013036,1789.8978843767416,0.0,0.0,0.673696021558272,1024,0.0,99,Assisted_Takeoff,
0.304513520606554,36.8773533544956,23900,2017-11-10 12:32:18,1789.7978843735416,-0.1000000032,0.0,0.404269012936608,1789.8978843767416,0.0,0.0,0.673696021558272,1024,0.0,99,Assisted_Takeoff,
0.304513522541044,36.8773533792264,24000,2017-11-10 12:32:18,1789.7978843735416,-0.1000000032,0.0,0.401733012855456,1789.8978843767416,0.0,0.0,0.673696021558272,1024,0.0,99,Assisted_Takeoff,
0.30451352535011,36.8773533915888,24100,2017-11-10 12:32:18,1789.7978843735416,-0.1000000032,0.0,0.40037101281187204,1789.8978843767416,0.0,0.0,0.673696021558272,1024,0.0,99,Assisted_Takeoff,
0.304513493527566,36.8773534300076,24200,2017-11-10 12:32:18,1789.7978843735416,-0.1000000032,0.0,0.398274012744768,1789.8978843767416,0.0,0.0,0.673696021558272,1024,0.0,99,Assisted_Takeoff,
0.304513466269449,36.8773534603074,24300,2017-11-10 12:32:18,1789.7978843735416,-0.1000000032,0.0,0.396783012697056,1789.8978843767416,0.0,0.0,0.673696021558272,1024,0.0,99,Assisted_Takeoff,
0.304513439581491,36.8773535197293,24400,2017-11-10 12:32:18,1789.7978843735416,-0.1000000032,0.0,0.392499012559968,1789.8978843767416,0.0,0.0,0.673696021558272,1024,0.0,99,Assisted_Takeoff,
0.304513424137735,36.87735356185,24500,2017-11-10 12:32:18,1789.7978843735416,-0.1000000032,0.0,0.389319012458208,1789.8978843767416,0.0,0.0,0.673696021558272,1024,0.0,99,Assisted_Takeoff,
0.304513412945643,36.8773535901472,24600,2017-11-10 12:32:19,1789.7978843735416,-0.1000000032,0.0,0.38725101239203197,1789.8978843767416,0.0,0.0,0.673696021558272,1024,0.0,99,Assisted_Takeoff,
0.30451340701424,36.8773536078347,24700,2017-11-10 12:32:19,1789.7978843735416,-0.1000000032,0.0,0.385906012348992,1789.8978843767416,0.0,0.0,0.673696021558272,1024,0.0,99,Assisted_Takeoff,
0.304513405819369,36.8773536491781,24800,2017-11-10 12:32:19,1789.7978843735416,-0.1000000032,0.0,0.3820500122256,1789.8978843767416,0.0,0.0,0.673696021558272,1024,0.0,99,Assisted_Takeoff,
0.304513407610454,36.8773536815714,24900,2017-11-10 12:32:19,1789.7978843735416,-0.1000000032,0.0,0.37888001212416,1789.8978843767416,0.0,0.0,0.673696021558272,1024,0.0,99,Assisted_Takeoff,
0.304513411132982,36.8773537034248,25000,2017-11-10 12:32:19,1789.7978843735416,-0.1000000032,0.0,0.376609012051488,1789.8978843767416,0.0,0.0,0.673696021558272,1024,0.0,99,Assisted_Takeoff,
0.304513416488323,36.8773537148488,25100,2017-11-10 12:32:19,1789.7978843735416,-0.1000000032,0.0,0.37521601200691207,1789.8978843767416,0.0,0.0,0.673696021558272,1024,0.0,99,Assisted_Takeoff,
0.304513422203755,36.8773537505834,25200,2017-11-10 12:32:19,1789.6978843703414,-0.2000000064,0.0,0.37151201188838406,1789.8978843767416,0.0,0.0,0.673696021558272,1024,0.0,99,Assisted_Takeoff,
0.304513429345906,36.877353779326,25300,2017-11-10 12:32:19,1789.6978843703414,-0.2000000064,0.0,0.36838601178835206,1789.8978843767416,0.0,0.0,0.673696021558272,1024,0.0,99,Assisted_Takeoff,
0.304513435090446,36.8773537978426,25400,2017-11-10 12:32:19,1789.6978843703414,-0.2000000064,0.0,0.36630501172176005,1789.8978843767416,0.0,0.0,0.673696021558272,1024,0.0,99,Assisted_Takeoff,
0.304513442840415,36.8773538077156,25500,2017-11-10 12:32:19,1789.6978843703414,-0.2000000064,0.0,0.364916011677312,1789.8978843767416,0.0,0.0,0.673696021558272,1024,0.0,99,Assisted_Takeoff,
0.304513447810222,36.8773538425132,25600,2017-11-10 12:32:20,1789.6978843703414,-0.2000000064,0.0,0.361358011563456,1789.8978843767416,0.0,0.0,0.673696021558272,1024,0.0,99,Assisted_Takeoff,
0.304513456185513,36.8773538696012,25700,2017-11-10 12:32:20,1789.6978843703414,-0.2000000064,0.0,0.358321011466272,1789.8978843767416,0.0,0.0,0.673696021558272,1024,0.0,99,Assisted_Takeoff,
0.304513460194335,36.8773538900449,25800,2017-11-10 12:32:20,1789.6978843703414,-0.2000000064,0.0,0.35617001139744,1789.8978843767416,0.0,0.0,0.673696021558272,1024,0.0,99,Assisted_Takeoff,
0.304513467812603,36.8773539014862,25900,2017-11-10 12:32:20,1789.6978843703414,-0.2000000064,0.0,0.354642011348544,1789.8978843767416,0.0,0.0,0.673696021558272,1024,0.0,99,Assisted_Takeoff,
0.304513498435289,36.8773539359846,26000,2017-11-10 12:32:20,1789.6978843703414,-0.2000000064,0.0,0.34957101118627204,1789.8978843767416,0.0,0.0,0.673696021558272,1024,0.0,99,Assisted_Takeoff,
0.304513533044101,36.8773539635324,26100,2017-11-10 12:32:20,1789.6978843703414,-0.2000000064,0.0,0.344913011037216,1789.8978843767416,0.0,0.0,0.673696021558272,1024,0.0,99,Assisted_Takeoff,
0.304513558592351,36.8773540136534,26200,2017-11-10 12:32:20,1789.6978843703414,-0.2000000064,0.0,0.338687010837984,1789.8978843767416,0.0,0.0,0.673696021558272,1024,0.0,99,Assisted_Takeoff,
0.304513580559145,36.8773540538446,26300,2017-11-10 12:32:20,1789.6978843703414,-0.2000000064,0.0,0.33360601067539203,1789.8978843767416,0.0,0.0,0.673696021558272,1024,0.0,99,Assisted_Takeoff,
0.30451359228211,36.8773540906048,26400,2017-11-10 12:32:20,1789.6978843703414,-0.2000000064,0.0,0.32946501054288,1789.8978843767416,0.0,0.0,0.673696021558272,1024,0.0,99,Assisted_Takeoff,
0.304513605922873,36.8773541139294,26500,2017-11-10 12:32:20,1789.6978843703414,-0.2000000064,0.0,0.326463010446816,1789.8978843767416,0.0,0.0,0.673696021558272,1024,0.0,99,Assisted_Takeoff,
0.304513607436511,36.8773541575832,26600,2017-11-10 12:32:21,1789.6978843703414,-0.2000000064,0.0,0.32230901031388803,1789.8978843767416,0.0,0.0,0.673696021558272,1024,0.0,99,Assisted_Takeoff,
0.30451361457276,36.8773541926621,26700,2017-11-10 12:32:21,1789.6978843703414,-0.2000000064,0.0,0.31861901019580796,1789.8978843767416,0.0,0.0,0.673696021558272,1024,0.0,99,Assisted_Takeoff,
0.304513610450659,36.8773542143091,26800,2017-11-10 12:32:21,1789.6978843703414,-0.2000000064,0.0,0.31687501013999997,1789.8978843767416,0.0,0.0,0.673696021558272,1024,0.0,99,Assisted_Takeoff,
0.304513612463009,36.8773542240825,26900,2017-11-10 12:32:21,1789.6978843703414,-0.2000000064,0.0,0.315849010107168,1789.8978843767416,0.0,0.0,0.673696021558272,1024,0.0,99,Assisted_Takeoff,
0.304513603832358,36.8773542565149,27000,2017-11-10 12:32:21,1789.6978843703414,-0.2000000064,0.0,0.313411010029152,1789.8978843767416,0.0,0.0,0.673696021558272,1024,0.0,99,Assisted_Takeoff,
0.304513606186782,36.877354285326,27100,2017-11-10 12:32:21,1789.6978843703414,-0.2000000064,0.0,0.310629009940128,1789.8978843767416,0.0,0.0,0.673696021558272,1024,0.0,99,Assisted_Takeoff,
0.304513629965423,36.8773543363253,27200,2017-11-10 12:32:21,1789.6978843703414,-0.2000000064,0.0,0.304466009742912,1789.8978843767416,0.0,0.0,0.673696021558272,1024,0.0,99,Assisted_Takeoff,
0.304513661383502,36.8773543773539,27300,2017-11-10 12:32:21,1789.6978843703414,-0.2000000064,0.0,0.2987250095592,1789.8978843767416,0.0,0.0,0.673696021558272,1024,0.0,99,Assisted_Takeoff,
0.30451368223532,36.8773544053926,27400,2017-11-10 12:32:21,1789.6978843703414,-0.2000000064,0.0,0.29484000943488003,1789.8978843767416,0.0,0.0,0.673696021558272,1024,0.0,99,Assisted_Takeoff,
0.304513703323568,36.8773544229981,27500,2017-11-10 12:32:21,1789.6978843703414,-0.2000000064,0.0,0.29189200934054405,1789.8978843767416,0.0,0.0,0.673696021558272,1024,0.0,99,Assisted_Takeoff,
0.304513684334283,36.8773544660265,27600,2017-11-10 12:32:22,1789.6978843703414,-0.2000000064,0.0,0.289207009254624,1789.8978843767416,0.0,0.0,0.673696021558272,1024,0.0,99,Assisted_Takeoff,
0.304513669956039,36.8773545040647,27700,2017-11-10 12:32:22,1789.6978843703414,-0.2000000064,0.0,0.286733009175456,1789.8978843767416,0.0,0.0,0.673696021558272,1024,0.0,99,Assisted_Takeoff,
0.30451367106735,36.8773545256296,27800,2017-11-10 12:32:22,1789.6978843703414,-0.2000000064,0.0,0.284734009111488,1789.8978843767416,0.0,0.0,0.673696021558272,1024,0.0,99,Assisted_Takeoff,
0.304513688178123,36.8773545343251,27900,2017-11-10 12:32:22,1789.6978843703414,-0.2000000064,0.0,0.282823009050336,1789.8978843767416,0.0,0.0,0.673696021558272,1024,0.0,99,Assisted_Takeoff,
0.304513666628619,36.8773545688897,28000,2017-11-10 12:32:22,1789.6978843703414,-0.2000000064,0.0,0.28119500899824,1789.8978843767416,0.0,0.0,0.673696021558272,1024,0.0,99,Assisted_Takeoff,
0.304513650114568,36.8773546043802,28100,2017-11-10 12:32:22,1789.6978843703414,-0.2000000064,0.0,0.279204008934528,1789.8978843767416,0.0,0.0,0.673696021558272,1026,0.0,99,Assisted_Takeoff,
0.304513652740943,36.8773546281153,28200,2017-11-10 12:32:22,1789.6978843703414,-0.2000000064,0.0,0.276953008862496,1789.8978843767416,0.0,0.0,0.673696021558272,1030,0.0,99,Assisted_Takeoff,
0.304513670504417,36.8773546403457,28300,2017-11-10 12:32:22,1789.6978843703414,-0.2000000064,0.0,0.27466000878912,1789.8978843767416,0.0,0.0,0.673696021558272,1038,0.0,99,Assisted_Takeoff,
0.304513680304189,36.8773546744574,28400,2017-11-10 12:32:22,1789.6978843703414,-0.2000000064,0.0,0.271013008672416,1789.8978843767416,0.0,0.0,0.673696021558272,1044,0.0,99,Assisted_Takeoff,
0.304513693709439,36.8773547107455,28500,2017-11-10 12:32:22,1789.6978843703414,-0.2000000064,0.0,0.26693500854192,1789.8978843767416,0.0,0.0,0.673696021558272,1054,0.0,99,Assisted_Takeoff,
0.304513697818105,36.8773547643928,28600,2017-11-10 12:32:23,1789.6978843703414,-0.2000000064,0.0,0.262031008384992,1789.8978843767416,0.0,0.0,0.673696021558272,1062,0.0,99,Assisted_Takeoff,
0.304513706018745,36.8773548090448,28700,2017-11-10 12:32:23,1789.6978843703414,-0.2000000064,0.0,0.257641008244512,1789.8978843767416,0.0,0.0,0.673696021558272,1100,0.0,99,Assisted_Takeoff,
0.304513710503174,36.8773549223546,28900,2017-11-10 12:32:23,1789.6978843703414,-0.2000000064,0.0,0.2478250079304,1789.8978843767416,0.0,0.0,0.673696021558272,1121,0.0,99,Assisted_Takeoff,
0.304513676470323,36.8773549631987,29000,2017-11-10 12:32:23,1789.6978843703414,-0.2000000064,0.0,0.247058007905856,1789.8978843767416,0.0,0.0,0.673696021558272,1161,0.0,99,Assisted_Takeoff,
0.304513653087292,36.8773549910835,29100,2017-11-10 12:32:23,1789.6978843703414,-0.2000000064,0.0,0.246626007892032,1789.8978843767416,0.0,0.0,0.673696021558272,1223,0.0,99,Assisted_Takeoff,
0.304513620979466,36.877355025075,29200,2017-11-10 12:32:23,1789.6978843703414,-0.2000000064,0.0,0.246474007887168,1789.8978843767416,0.0,0.0,0.673696021558272,1275,0.0,99,Assisted_Takeoff,
0.304513604404043,36.8773550571798,29300,2017-11-10 12:32:23,1789.6978843703414,-0.2000000064,0.0,0.24532000785024002,1789.8978843767416,0.0,0.0,0.673696021558272,1316,0.0,99,Assisted_Takeoff,
0.304513584135513,36.8773551040372,29400,2017-11-10 12:32:23,1789.6978843703414,-0.2000000064,0.0,0.24342300778953602,1789.8978843767416,0.0,0.0,0.673696021558272,1363,0.0,99,Assisted_Takeoff,
0.304513577000995,36.8773551380683,29500,2017-11-10 12:32:23,1789.6978843703414,-0.2000000064,0.0,0.241486007727552,1789.8978843767416,0.0,0.0,0.673696021558272,1409,0.0,99,Assisted_Takeoff,
0.30451358272752,36.8773551352422,29600,2017-11-10 12:32:24,1789.6978843703414,-0.2000000064,0.0,0.24121900771900803,1789.8978843767416,0.0,0.0,0.673696021558272,1448,0.0,99,Assisted_Takeoff,
0.304513584875539,36.8773550752335,29700,2017-11-10 12:32:24,1789.6978843703414,-0.2000000064,0.35999970196000003,0.24552900785692802,1789.8978843767416,0.0,0.35999970196000003,0.673696021558272,1500,0.0,99,GPS_Atti,Obstacle Avoided. Revise Flight Route
0.304513545028634,36.8773549766715,29800,2017-11-10 12:32:24,1789.6978843703414,-0.2000000064,0.35999970196000003,0.256281008200992,1789.8978843767416,0.0,0.35999970196000003,0.673696021558272,1567,0.0,99,GPS_Atti,
0.304513490878189,36.8773548475573,29900,2017-11-10 12:32:24,1789.7978843735416,-0.1000000032,0.7199994039200001,0.270654008660928,1789.8978843767416,0.0,0.7199994039200001,0.673696021558272,1575,0.0,99,GPS_Atti,
0.304513464715303,36.8773546776525,30000,2017-11-10 12:32:24,1789.8978843767416,0.0,0.7199994039200001,0.286347009163104,1789.8978843767416,0.0,0.7199994039200001,0.673696021558272,1572,0.0,99,GPS_Atti,
0.304513480651663,36.8773544930668,30100,2017-11-10 12:32:24,1789.9978843799415,0.1000000032,0.7199994039200001,0.30067300962153604,1789.9978843799415,0.1000000032,0.7199994039200001,0.673696021558272,1572,0.0,99,GPS_Atti,
0.30451351959468,36.8773542666863,30200,2017-11-10 12:32:24,1790.0978843831415,0.2000000064,0.7199994039200001,0.317907010173024,1790.0978843831415,0.2000000064,0.7199994039200001,0.673696021558272,1581,0.0,99,GPS_Atti,
0.304513536079011,36.8773540347022,30300,2017-11-10 12:32:24,1790.3978843927414,0.500000016,0.7199994039200001,0.338086010818752,1790.3978843927414,0.500000016,0.7199994039200001,0.673696021558272,1590,0.0,99,GPS_Atti,
0.304513492588463,36.8773538544352,30400,2017-11-10 12:32:24,1790.6978844023415,0.8000000256,0.35999970196000003,0.35756901144220804,1790.6978844023415,0.8000000256,0.7199994039200001,0.673696021558272,1591,0.0,99,GPS_Atti,Home Point Recorded. RTH Altitude:  30m.
0.304513420592206,36.877353731463,30500,2017-11-10 12:32:24,1790.9978844119416,1.1000000352000001,0.35999970196000003,0.37340801194905604,1790.9978844119416,1.1000000352000001,0.7199994039200001,0.673696021558272,1586,0.0,99,GPS_Atti,
0.304513447304997,36.8773534987522,30600,2017-11-10 12:32:25,1791.3978844247415,1.5000000480000002,0.8063993323904,0.39409501261104,1791.3978844247415,1.5000000480000002,0.8063993323904,0.673696021558272,1590,0.0,99,GPS_Atti,
0.304513581863121,36.8773531557591,30700,2017-11-10 12:32:25,1791.6978844343416,1.8000000576000001,1.1375990581936,0.42102001347264,1791.6978844343416,1.8000000576000001,1.1375990581936,0.673696021558272,1591,0.0,99,GPS_Atti,
0.304513768055846,36.8773527371461,30800,2017-11-10 12:32:25,1792.0978844471417,2.2000000704000002,0.8063993323904,0.45585801458745606,1792.0978844471417,2.2000000704000002,1.1375990581936,0.673696021558272,1588,0.0,99,GPS_Atti,
0.30451391140258,36.8773524477933,30900,2017-11-10 12:32:25,1792.4978844599416,2.6000000832000003,0.35999970196000003,0.48113001539616,1792.4978844599416,2.6000000832000003,1.1375990581936,0.673696021558272,1588,0.0,99,GPS_Atti,
0.304513973447721,36.8773522494591,31000,2017-11-10 12:32:25,1792.9978844759416,3.1000000992000003,0.0,0.500292016009344,1792.9978844759416,3.1000000992000003,1.1375990581936,0.673696021558272,1586,0.0,99,GPS_Atti,
0.304513935287274,36.8773521161144,31100,2017-11-10 12:32:25,1793.3978844887415,3.500000112,0.35999970196000003,0.51571501650288,1793.3978844887415,3.500000112,1.1375990581936,0.673696021558272,1586,0.0,99,GPS_Atti,
0.304513792745499,36.8773519556951,31200,2017-11-10 12:32:25,1793.7978845015416,3.9000001248,0.7199994039200001,0.53731001719392,1793.7978845015416,3.9000001248,1.1375990581936,0.673696021558272,1582,0.0,99,GPS_Atti,
0.30451360248024,36.8773517720256,31300,2017-11-10 12:32:25,1794.1978845143415,4.3000001376,0.8063993323904,0.5632030180224961,1794.1978845143415,4.3000001376,1.1375990581936,0.673696021558272,1581,0.0,99,GPS_Atti,
0.304513345174079,36.8773515516622,31400,2017-11-10 12:32:25,1794.5978845271416,4.7000001504,0.8063993323904,0.595813019066016,1794.5978845271416,4.7000001504,1.1375990581936,0.673696021558272,1581,0.0,99,GPS_Atti,
0.304513114046173,36.8773513231206,31500,2017-11-10 12:32:25,1794.9978845399414,5.1000001632,0.8063993323904,0.6287510201200321,1794.9978845399414,5.1000001632,1.1375990581936,0.673696021558272,1582,0.0,99,GPS_Atti,
0.304512900193614,36.8773510609138,31600,2017-11-10 12:32:26,1795.3978845527415,5.5000001759999995,0.8063993323904,0.664731021271392,1795.3978845527415,5.5000001759999995,1.1375990581936,0.673696021558272,1583,0.0,99,GPS_Atti,
0.304512720576242,36.8773508018208,31700,2017-11-10 12:32:26,1795.7978845655414,5.9000001888,0.8063993323904,0.699053022369696,1795.7978845655414,5.9000001888,1.1375990581936,0.699053022369696,1589,0.0,99,GPS_Atti,
0.304512541035202,36.8773505565111,31800,2017-11-10 12:32:26,1796.1978845783415,6.3000002016,0.8063993323904,0.7320400234252801,1796.1978845783415,6.3000002016,1.1375990581936,0.7320400234252801,1615,0.0,99,GPS_Atti,
0.304512415111699,36.8773503219367,31900,2017-11-10 12:32:26,1796.5978845911413,6.7000002144,0.5075995797636,0.761564024370048,1796.5978845911413,6.7000002144,1.1375990581936,0.761564024370048,1669,0.0,99,GPS_Atti,
0.304512322094978,36.8773500985896,32000,2017-11-10 12:32:26,1796.9978846039414,7.1000002272,0.35999970196000003,0.788461025230752,1796.9978846039414,7.1000002272,1.1375990581936,0.788461025230752,1684,0.0,99,GPS_Atti,
0.304512276835837,36.8773498949975,32100,2017-11-10 12:32:26,1797.3978846167415,7.50000024,0.5075995797636,0.811206025958592,1797.3978846167415,7.50000024,1.1375990581936,0.811206025958592,1684,0.0,99,GPS_Atti,
0.304512220527501,36.877349763919,32200,2017-11-10 12:32:26,1797.7978846295414,7.9000002528,0.5075995797636,0.82707002646624,1797.7978846295414,7.9000002528,1.1375990581936,0.82707002646624,1684,0.0,99,GPS_Atti,
0.304512180603957,36.8773496158604,32300,2017-11-10 12:32:26,1798.2978846455417,8.400000268800001,0.5075995797636,0.843937027005984,1798.2978846455417,8.400000268800001,1.1375990581936,0.843937027005984,1684,0.0,99,GPS_Atti,
0.304512139456231,36.8773494710795,32400,2017-11-10 12:32:26,1798.7978846615415,8.9000002848,0.35999970196000003,0.8605310275369921,1798.7978846615415,8.9000002848,1.1375990581936,0.8605310275369921,1684,0.0,99,GPS_Atti,
0.304512170853445,36.8773493339313,32500,2017-11-10 12:32:26,1799.2978846775413,9.4000003008,0.35999970196000003,0.873202027942464,1799.2978846775413,9.4000003008,1.1375990581936,0.873202027942464,1684,0.0,99,GPS_Atti,
0.304512261185676,36.8773492560187,32600,2017-11-10 12:32:27,1799.6978846903414,9.8000003136,0.35999970196000003,0.8774050280769601,1799.6978846903414,9.8000003136,1.1375990581936,0.8774050280769601,1684,0.0,99,GPS_Atti,
0.30451239088493,36.8773492173432,32700,2017-11-10 12:32:27,1800.1978847063417,10.3000003296,0.35999970196000003,0.8761450280366401,1800.1978847063417,10.3000003296,1.1375990581936,0.8774050280769601,1684,0.0,99,GPS_Atti,
0.304512524434233,36.8773492401215,32800,2017-11-10 12:32:27,1800.7978847255415,10.9000003488,0.0,0.868574027794368,1800.7978847255415,10.9000003488,1.1375990581936,0.8774050280769601,1684,0.0,99,GPS_Atti,
0.304512658799794,36.8773492625798,32900,2017-11-10 12:32:27,1801.2978847415416,11.4000003648,0.0,0.861204027558528,1801.2978847415416,11.4000003648,1.1375990581936,0.8774050280769601,1684,0.0,99,GPS_Atti,
0.304512738073465,36.877349285499,33000,2017-11-10 12:32:27,1801.7978847575416,11.9000003808,0.0,0.855933027389856,1801.7978847575416,11.9000003808,1.1375990581936,0.8774050280769601,1684,0.0,99,GPS_Atti,
0.304512801896867,36.8773492958109,33100,2017-11-10 12:32:27,1802.2978847735415,12.400000396800001,0.0,0.852596027283072,1802.2978847735415,12.400000396800001,1.1375990581936,0.8774050280769601,1684,0.0,99,GPS_Atti,
0.304512832670998,36.8773492883735,33200,2017-11-10 12:32:27,1802.8978847927415,13.000000416,0.0,0.852317027274144,1802.8978847927415,13.000000416,1.1375990581936,0.8774050280769601,1684,0.0,99,GPS_Atti,
0.3045128752314,36.877349278439,33300,2017-11-10 12:32:27,1803.3978848087415,13.500000432,0.0,0.851917027261344,1803.3978848087415,13.500000432,1.1375990581936,0.8774050280769601,1684,0.0,99,GPS_Atti,
0.304512886469699,36.8773492801026,33400,2017-11-10 12:32:27,1803.8978848247414,14.000000448,0.0,0.851362027243584,1803.8978848247414,14.000000448,1.1375990581936,0.8774050280769601,1684,0.0,99,GPS_Atti,
0.304512905583968,36.8773492967803,33500,2017-11-10 12:32:27,1804.3978848407417,14.500000464000001,0.0,0.848952027166464,1804.3978848407417,14.500000464000001,1.1375990581936,0.8774050280769601,1684,0.0,99,GPS_Atti,
0.304512888200532,36.877349318086,33600,2017-11-10 12:32:28,1804.9978848599415,15.1000004832,0.0,0.847279027112928,1804.9978848599415,15.1000004832,1.1375990581936,0.8774050280769601,1684,0.0,99,GPS_Atti,
0.304512883981437,36.8773493359713,33700,2017-11-10 12:32:28,1805.4978848759417,15.6000004992,0.0,0.845527027056864,1805.4978848759417,15.6000004992,1.1375990581936,0.8774050280769601,1684,0.0,99,GPS_Atti,
0.304512871558241,36.8773493059242,33800,2017-11-10 12:32:28,1805.9978848919416,16.1000005152,0.0,0.849131027172192,1805.9978848919416,16.1000005152,1.1375990581936,0.8774050280769601,1684,0.0,99,GPS_Atti,
0.304512874326799,36.8773492795288,33900,2017-11-10 12:32:28,1806.5978849111414,16.7000005344,0.0,0.8518330272586561,1806.5978849111414,16.7000005344,1.1375990581936,0.8774050280769601,1684,0.0,99,GPS_Atti,
0.304512812921637,36.877349257714,34000,2017-11-10 12:32:28,1807.0978849271416,17.2000005504,0.0,0.8562390273996481,1807.0978849271416,17.2000005504,1.1375990581936,0.8774050280769601,1684,0.0,99,GPS_Atti,
0.304512741610038,36.8773492649308,34100,2017-11-10 12:32:28,1807.6978849463414,17.8000005696,0.0,0.8579740274551682,1807.6978849463414,17.8000005696,1.1375990581936,0.8774050280769601,1684,0.0,99,GPS_Atti,
0.304512619479792,36.877349274466,34200,2017-11-10 12:32:28,1808.1978849623417,18.3000005856,0.0,0.861404027564928,1808.1978849623417,18.3000005856,1.1375990581936,0.8774050280769601,1684,0.0,99,GPS_Atti,
0.304512516758359,36.877349294145,34300,2017-11-10 12:32:28,1808.6978849783416,18.8000006016,0.0,0.8632280276232961,1808.6978849783416,18.8000006016,1.1375990581936,0.8774050280769601,1684,0.0,99,GPS_Atti,
0.304512376162779,36.8773493182707,34400,2017-11-10 12:32:28,1809.2978849975416,19.4000006208,0.0,0.8662630277204161,1809.2978849975416,19.4000006208,1.1375990581936,0.8774050280769601,1684,0.0,99,GPS_Atti,
0.304512259800685,36.8773493637295,34500,2017-11-10 12:32:28,1809.8978850167416,20.00000064,0.0,0.866361027723552,1809.8978850167416,20.00000064,1.1375990581936,0.8774050280769601,1684,0.0,99,GPS_Atti,
0.304512136438317,36.8773494156198,34600,2017-11-10 12:32:29,1810.3978850327414,20.500000656,0.0,0.8663300277225601,1810.3978850327414,20.500000656,1.1375990581936,0.8774050280769601,1684,0.0,99,GPS_Atti,
0.304512053779314,36.8773494809187,34700,2017-11-10 12:32:29,1810.8978850487417,21.000000672,0.0,0.8633480276271361,1810.8978850487417,21.000000672,1.1375990581936,0.8774050280769601,1684,0.0,99,GPS_Atti,
0.304511931313811,36.8773495382578,34800,2017-11-10 12:32:29,1811.3978850647416,21.500000688,0.0,0.863176027621632,1811.3978850647416,21.500000688,1.1375990581936,0.8774050280769601,1684,0.0,99,GPS_Atti,
0.30451183602134,36.8773495896182,34900,2017-11-10 12:32:29,1811.9978850839416,22.1000007072,0.0,0.862548027601536,1811.9978850839416,22.1000007072,1.1375990581936,0.8774050280769601,1684,0.0,99,GPS_Atti,
0.304511718480252,36.8773496255525,35000,2017-11-10 12:32:29,1812.4978850999416,22.6000007232,0.0,0.864728027671296,1812.4978850999416,22.6000007232,1.1375990581936,0.8774050280769601,1684,0.0,99,GPS_Atti,
0.304511627737246,36.877349665631,35100,2017-11-10 12:32:29,1812.9978851159415,23.1000007392,0.0,0.8653370276907841,1812.9978851159415,23.1000007392,1.1375990581936,0.8774050280769601,1684,0.0,99,GPS_Atti,
0.304511491969392,36.877349712511,35200,2017-11-10 12:32:29,1813.5978851351415,23.7000007584,0.0,0.867789027769248,1813.5978851351415,23.7000007584,1.1375990581936,0.8774050280769601,1684,0.0,99,GPS_Atti,
0.304511374202357,36.8773497744263,35300,2017-11-10 12:32:29,1814.0978851511416,24.2000007744,0.0,0.868087027778784,1814.0978851511416,24.2000007744,1.1375990581936,0.8774050280769601,1684,0.0,99,GPS_Atti,
0.304511236490548,36.8773498393478,35400,2017-11-10 12:32:29,1814.5978851671414,24.7000007904,0.0,0.8694720278231041,1814.5978851671414,24.7000007904,1.1375990581936,0.8774050280769601,1684,0.0,99,GPS_Atti,
0.304511149802775,36.8773499163697,35500,2017-11-10 12:32:29,1815.1978851863416,25.3000008096,0.0,0.8670750277464,1815.1978851863416,25.3000008096,1.1375990581936,0.8774050280769601,1684,0.0,99,GPS_Atti,
0.30451102132465,36.8773499878287,35600,2017-11-10 12:32:30,1815.6978852023415,25.8000008256,0.0,0.8678690277718081,1815.6978852023415,25.8000008256,1.1375990581936,0.8774050280769601,1684,0.0,99,GPS_Atti,
0.304510929227185,36.8773500541891,35700,2017-11-10 12:32:30,1816.1978852183418,26.3000008416,0.0,0.867218027750976,1816.1978852183418,26.3000008416,1.1375990581936,0.8774050280769601,1684,0.0,99,GPS_Atti,
0.304510822094298,36.8773500903605,35800,2017-11-10 12:32:30,1816.7978852375415,26.900000860800002,0.0,0.8704690278550081,1816.7978852375415,26.900000860800002,1.1375990581936,0.8774050280769601,1684,0.0,99,GPS_Atti,
0.304510777473711,36.8773501257697,35900,2017-11-10 12:32:30,1817.2978852535414,27.4000008768,0.0,0.870006027840192,1817.2978852535414,27.4000008768,1.1375990581936,0.8774050280769601,1684,0.0,99,GPS_Atti,
0.304510689280034,36.8773501253243,36000,2017-11-10 12:32:30,1817.8978852727416,28.000000896,0.0,0.875633028020256,1817.8978852727416,28.000000896,1.1375990581936,0.8774050280769601,1684,0.0,99,GPS_Atti,
0.304510602850776,36.8773501343462,36100,2017-11-10 12:32:30,1818.3978852887415,28.500000912,0.0,0.880361028171552,1818.3978852887415,28.500000912,1.1375990581936,0.880361028171552,1684,0.0,99,GPS_Atti,
0.304510458579187,36.877350128959,36200,2017-11-10 12:32:30,1818.8978853047417,29.000000928000002,0.0,0.890263028488416,1818.8978853047417,29.000000928000002,1.1375990581936,0.890263028488416,1684,0.0,99,GPS_Atti,
0.304510320952871,36.8773501437101,36300,2017-11-10 12:32:30,1819.3978853207416,29.500000944,0.0,0.8981120287395841,1819.3978853207416,29.500000944,1.1375990581936,0.8981120287395841,1684,0.0,99,GPS_Atti,
0.304510149484639,36.8773501634763,36400,2017-11-10 12:32:30,1819.8978853367414,30.00000096,0.0,0.9080390290572481,1819.8978853367414,30.00000096,1.1375990581936,0.9080390290572481,1684,0.0,99,GPS_Atti,
0.304510021037862,36.877350199219,36500,2017-11-10 12:32:30,1820.3978853527417,30.500000976,0.0,0.9138610292435521,1820.3978853527417,30.500000976,1.1375990581936,0.9138610292435521,1684,0.0,99,GPS_Atti,
0.304509908220076,36.8773501843287,36600,2017-11-10 12:32:31,1820.8978853687415,31.000000992,0.0,0.923099029539168,1820.8978853687415,31.000000992,1.1375990581936,0.923099029539168,1684,0.0,99,GPS_Atti,
0.304509883492561,36.8773501753716,36700,2017-11-10 12:32:31,1821.3978853847416,31.500001007999998,0.35999970196000003,0.925621029619872,1821.3978853847416,31.500001007999998,1.1375990581936,0.925621029619872,1684,0.0,99,GPS_Atti,
0.304509855614821,36.8773501722776,36800,2017-11-10 12:32:31,1821.9978854039416,32.1000010272,0.35999970196000003,0.9278700296918401,1821.9978854039416,32.1000010272,1.1375990581936,0.9278700296918401,1684,0.0,99,GPS_Atti,
0.304509851124794,36.8773501868082,36900,2017-11-10 12:32:31,1822.4978854199414,32.6000010432,0.35999970196000003,0.926951029662432,1822.4978854199414,32.6000010432,1.1375990581936,0.9278700296918401,1684,0.0,99,GPS_Atti,
0.304509832098868,36.8773501728686,37000,2017-11-10 12:32:31,1823.0978854391417,33.200001062400005,0.35999970196000003,0.929498029743936,1823.0978854391417,33.200001062400005,1.1375990581936,0.929498029743936,1684,0.0,99,GPS_Atti,
0.304509840811451,36.8773501723215,37100,2017-11-10 12:32:31,1823.5978854551415,33.7000010784,0.35999970196000003,0.928922029725504,1823.5978854551415,33.7000010784,1.1375990581936,0.929498029743936,1684,-1.4,99,GPS_Atti,
0.304509800385736,36.8773501585377,37200,2017-11-10 12:32:31,1824.0978854711416,34.2000010944,0.35999970196000003,0.932987029855584,1824.0978854711416,34.2000010944,1.1375990581936,0.932987029855584,1684,-6.9,99,GPS_Atti,
0.304509787825954,36.8773501537645,37300,2017-11-10 12:32:31,1824.5978854871414,34.7000011104,0.35999970196000003,0.9342930298973761,1824.5978854871414,34.7000011104,1.1375990581936,0.9342930298973761,1684,-12.5,99,GPS_Atti,
0.30450977482405,36.8773501266957,37400,2017-11-10 12:32:31,1825.0978855031417,35.200001126400004,0.35999970196000003,0.937527030000864,1825.0978855031417,35.200001126400004,1.1375990581936,0.937527030000864,1684,-18.2,99,GPS_Atti,
0.304509800743179,36.8773501237912,37500,2017-11-10 12:32:31,1825.6978855223415,35.8000011456,0.35999970196000003,0.935921029949472,1825.6978855223415,35.8000011456,1.1375990581936,0.937527030000864,1684,-18.2,99,GPS_Atti,
0.304509813176756,36.8773500839927,37600,2017-11-10 12:32:32,1826.1978855383416,36.3000011616,0.35999970196000003,0.93843503002992,1826.1978855383416,36.3000011616,1.1375990581936,0.93843503002992,1684,-23.9,99,GPS_Atti,
0.30450982811203,36.8773500491568,37700,2017-11-10 12:32:32,1826.6978855543416,36.8000011776,0.35999970196000003,0.940362030091584,1826.6978855543416,36.8000011776,1.1375990581936,0.940362030091584,1684,-29.5,99,GPS_Atti,
0.304509793398083,36.8773499843193,37800,2017-11-10 12:32:32,1827.1978855703414,37.3000011936,0.0,0.948383030348256,1827.1978855703414,37.3000011936,1.1375990581936,0.948383030348256,1684,-35.1,99,GPS_Atti,
0.304509777287072,36.8773499620142,37900,2017-11-10 12:32:32,1827.5978855831415,37.7000012064,0.0,0.951437030445984,1827.5978855831415,37.7000012064,1.1375990581936,0.951437030445984,1684,-40.8,99,GPS_Atti,
0.304509740519656,36.877349937259,38000,2017-11-10 12:32:32,1828.1978856023416,38.3000012256,0.35999970196000003,0.9561600305971201,1828.1978856023416,38.3000012256,1.1375990581936,0.9561600305971201,1684,-46.5,99,GPS_Atti,
0.304509726321253,36.8773499554766,38100,2017-11-10 12:32:32,1828.6978856183414,38.8000012416,0.35999970196000003,0.955602030579264,1828.6978856183414,38.8000012416,1.1375990581936,0.9561600305971201,1684,-52.1,99,GPS_Atti,
0.304509698103168,36.8773499625313,38200,2017-11-10 12:32:32,1829.1978856343414,39.3000012576,0.35999970196000003,0.9570020306240641,1829.1978856343414,39.3000012576,1.1375990581936,0.9570020306240641,1684,-57.8,99,GPS_Atti,
0.304509687211321,36.8773499829763,38300,2017-11-10 12:32:32,1829.6978856503415,39.800001273599996,0.0,0.9560320305930241,1829.6978856503415,39.800001273599996,1.1375990581936,0.9570020306240641,1684,-63.4,99,GPS_Atti,
0.304509669874906,36.8773499761084,38400,2017-11-10 12:32:32,1830.1978856663416,40.3000012896,0.0,0.957856030651392,1830.1978856663416,40.3000012896,1.1375990581936,0.957856030651392,1684,-69.0,99,GPS_Atti,
0.304509676206296,36.8773499789284,38500,2017-11-10 12:32:32,1830.7978856855416,40.9000013088,0.0,0.9571630306292161,1830.7978856855416,40.9000013088,1.1375990581936,0.957856030651392,1684,-74.7,99,GPS_Atti,
0.304509683212269,36.8773499600652,38600,2017-11-10 12:32:33,1831.2978857015416,41.4000013248,0.35999970196000003,0.958273030664736,1831.2978857015416,41.4000013248,1.1375990581936,0.958273030664736,1684,-80.3,99,GPS_Atti,
0.304509701841669,36.8773499560943,38700,2017-11-10 12:32:33,1831.7978857175415,41.9000013408,0.0,0.957286030633152,1831.7978857175415,41.9000013408,1.1375990581936,0.958273030664736,1684,-86.0,99,GPS_Atti,
0.304509696625762,36.8773499364266,38800,2017-11-10 12:32:33,1832.2978857335415,42.400001356800004,0.0,0.9593400306988801,1832.2978857335415,42.400001356800004,1.1375990581936,0.9593400306988801,1684,-87.7,99,GPS_Atti,
0.304509688292607,36.8773499285438,38900,2017-11-10 12:32:33,1832.8978857527416,43.000001376,0.0,0.9606060307393921,1832.8978857527416,43.000001376,1.1375990581936,0.9606060307393921,1684,-87.7,99,GPS_Atti,
0.304509649333713,36.877349897105,39000,2017-11-10 12:32:33,1833.3978857687414,43.500001392,0.0,0.966064030914048,1833.3978857687414,43.500001392,1.1375990581936,0.966064030914048,1684,-87.8,99,GPS_Atti,
0.304509611649484,36.877349862071,39100,2017-11-10 12:32:33,1833.8978857847417,44.000001407999996,0.0,0.9717390310956481,1833.8978857847417,44.000001407999996,1.1375990581936,0.9717390310956481,1684,-87.8,99,GPS_Atti,
0.304509536765079,36.8773498049867,39200,2017-11-10 12:32:33,1834.3978858007415,44.500001424,0.0,0.9819490314223681,1834.3978858007415,44.500001424,1.1375990581936,0.9819490314223681,1684,-87.7,99,GPS_Atti,
0.304509471172169,36.8773497780342,39300,2017-11-10 12:32:33,1834.8978858167413,45.00000144,0.0,0.988936031645952,1834.8978858167413,45.00000144,1.1375990581936,0.988936031645952,1684,-87.8,99,GPS_Atti,
0.304509389764218,36.8773497332113,39400,2017-11-10 12:32:33,1835.4978858359416,45.6000014592,0.0,0.9985890319548479,1835.4978858359416,45.6000014592,1.1375990581936,0.9985890319548479,1684,-87.8,99,GPS_Atti,
0.304509323583033,36.8773497241269,39500,2017-11-10 12:32:33,1835.9978858519414,46.1000014752,0.0,1.00414003213248,1835.9978858519414,46.1000014752,1.1375990581936,1.00414003213248,1684,-88.7,99,GPS_Atti,
0.304509230919277,36.8773497267626,39600,2017-11-10 12:32:34,1836.4978858679417,46.600001491200004,0.0,1.0106600323411201,1836.4978858679417,46.600001491200004,1.1375990581936,1.0106600323411201,1684,-90.0,99,GPS_Atti,
0.304509153891026,36.877349748919,39700,2017-11-10 12:32:34,1836.9978858839415,47.100001507200005,0.0,1.01446003246272,1836.9978858839415,47.100001507200005,1.1375990581936,1.01446003246272,1684,-89.9,99,GPS_Atti,
0.304509084112201,36.8773497600397,39800,2017-11-10 12:32:34,1837.4978858999416,47.6000015232,0.0,1.0187000325984001,1837.4978858999416,47.6000015232,1.1375990581936,1.0187000325984001,1684,-89.9,99,GPS_Atti,
0.304509033764784,36.8773497871599,39900,2017-11-10 12:32:34,1837.9978859159414,48.1000015392,0.0,1.02022003264704,1837.9978859159414,48.1000015392,1.1375990581936,1.02022003264704,1684,-90.0,99,GPS_Atti,
0.304508973453732,36.8773497607206,40000,2017-11-10 12:32:34,1838.4978859319415,48.6000015552,0.0,1.02691003286112,1838.4978859319415,48.6000015552,1.1375990581936,1.02691003286112,1684,-90.0,99,GPS_Atti,
0.30450891791972,36.8773497519771,40100,2017-11-10 12:32:34,1838.9978859479415,49.1000015712,0.0,1.0318000330176,1838.9978859479415,49.1000015712,1.1375990581936,1.0318000330176,1684,-90.0,99,GPS_Atti,
0.304508831248231,36.8773497279505,40200,2017-11-10 12:32:34,1839.4978859639414,49.600001587200005,0.0,1.04031003328992,1839.4978859639414,49.600001587200005,1.1375990581936,1.04031003328992,1684,-90.0,99,GPS_Atti,
0.304508758216996,36.8773497298459,40300,2017-11-10 12:32:34,1839.9978859799417,50.1000016032,0.0,1.0457000334624,1839.9978859799417,50.1000016032,1.1375990581936,1.0457000334624,1684,-90.0,99,GPS_Atti,
0.304508665819084,36.8773496911672,40400,2017-11-10 12:32:34,1840.4978859959415,50.6000016192,0.0,1.05589003378848,1840.4978859959415,50.6000016192,1.1375990581936,1.05589003378848,1684,-90.0,99,GPS_Atti,
0.304508602545892,36.8773496943897,40500,2017-11-10 12:32:34,1841.0978860151417,51.2000016384,0.35999970196000003,1.06049003393568,1841.0978860151417,51.2000016384,1.1375990581936,1.06049003393568,1684,-90.0,99,GPS_Atti,
0.304508513194799,36.8773496697667,40600,2017-11-10 12:32:35,1841.5978860311416,51.700001654400005,0.0,1.0693500342192,1841.5978860311416,51.700001654400005,1.1375990581936,1.0693500342192,1684,-90.0,99,GPS_Atti,
0.304508411563609,36.8773496675179,40700,2017-11-10 12:32:35,1842.0978860471414,52.200001670400006,0.0,1.07743003447776,1842.0978860471414,52.200001670400006,1.1375990581936,1.07743003447776,1684,-90.0,99,GPS_Atti,
0.304508272416733,36.8773496561691,40800,2017-11-10 12:32:35,1842.6978860663417,52.8000016896,0.35999970196000003,1.08922003485504,1842.6978860663417,52.8000016896,1.1375990581936,1.08922003485504,1684,-90.0,99,GPS_Atti,
