latitude,longitude,time_millisecond,datetime_utc,altitude_m,ascent_m,speed_kph,distance_m,max_altitude_m,max_ascent_m,max_speed_kph,max_distance_m,rc_throttle,gimbal_pitch_degrees,battery_percent,flycState,message
0.35669983464098903,36.9196071703674,100,2017-11-13 12:27:16,1676.438774346043,0.0,0.0,0.0,1676.438774346043,0.0,0.0,0.0,1024,0.0,100,Motors_Started,
0.356699858887299,36.9196071971599,200,2017-11-13 12:27:16,1676.438774346043,0.0,0.0,0.00401836012858752,1676.438774346043,0.0,0.0,0.00401836012858752,1024,0.0,100,Motors_Started,
0.356699831952021,36.9196072112692,300,2017-11-13 12:27:16,1676.438774346043,0.0,0.0,0.004558250145864,1676.438774346043,0.0,0.0,0.004558250145864,1024,0.0,100,Motors_Started,
0.356699807932879,36.9196072116306,400,2017-11-13 12:27:16,1676.438774346043,0.0,0.0,0.00546599017491168,1676.438774346043,0.0,0.0,0.00546599017491168,1024,0.0,100,Motors_Started,
0.356699793945766,36.919607210998,500,2017-11-13 12:27:16,1676.438774346043,0.0,0.0,0.006394960204638721,1676.438774346043,0.0,0.0,0.006394960204638721,1024,0.0,100,Motors_Started,
0.356699769207259,36.9196072145961,600,2017-11-13 12:27:16,1676.438774346043,0.0,0.0,0.00878294028105408,1676.438774346043,0.0,0.0,0.00878294028105408,687,0.0,100,Motors_Started,Setting new Return-To-Home altitude to 30m (98 ft). Setting new Maximum Flight Altitude to 150m (492 ft)
0.356699734961896,36.9196072368102,700,2017-11-13 12:27:16,1676.438774346043,0.0,0.0,0.0133217004262944,1676.438774346043,0.0,0.0,0.0133217004262944,1024,0.0,100,Motors_Started,
0.35669968763565,36.9196072518996,800,2017-11-13 12:27:16,1676.438774346043,0.0,0.0,0.0186938005982016,1676.438774346043,0.0,0.0,0.0186938005982016,1024,0.0,100,Motors_Started,
0.35669963979196506,36.9196072597232,900,2017-11-13 12:27:17,1676.438774346043,0.0,0.0,0.0238382007628224,1676.438774346043,0.0,0.0,0.0238382007628224,1024,0.0,100,Motors_Started,
0.356699562260932,36.9196072432039,1000,2017-11-13 12:27:17,1676.438774346043,0.0,0.0,0.0313546010033472,1676.438774346043,0.0,0.0,0.0313546010033472,1024,0.0,100,Motors_Started,
0.356699475281667,36.919607212715796,1100,2017-11-13 12:27:17,1676.438774346043,0.0,0.0,0.040239501287664,1676.438774346043,0.0,0.0,0.040239501287664,1024,0.0,100,Motors_Started,
0.35669939231285297,36.9196071864408,1200,2017-11-13 12:27:17,1676.438774346043,0.0,0.0,0.049222001575104,1676.438774346043,0.0,0.0,0.049222001575104,1024,0.0,100,Motors_Started,
0.35669934492391103,36.9196071900506,1300,2017-11-13 12:27:17,1676.438774346043,0.0,0.0,0.054503501744112004,1676.438774346043,0.0,0.0,0.054503501744112004,1024,0.0,100,Motors_Started,
0.356699292446082,36.9196072101813,1400,2017-11-13 12:27:17,1676.438774346043,0.0,0.0,0.0604577019346464,1676.438774346043,0.0,0.0,0.0604577019346464,1024,0.0,100,Motors_Started,
0.356699241348359,36.9196072404456,1500,2017-11-13 12:27:17,1676.438774346043,0.0,0.0,0.0664364021259648,1676.438774346043,0.0,0.0,0.0664364021259648,1024,0.0,100,Motors_Started,
0.35669918506567,36.9196072734725,1600,2017-11-13 12:27:17,1676.438774346043,0.0,0.0,0.073141002340512,1676.438774346043,0.0,0.0,0.073141002340512,1024,0.0,100,Assisted_Takeoff,
0.35669913822714294,36.9196072870924,1700,2017-11-13 12:27:17,1676.438774346043,0.0,0.0,0.07852570251282241,1676.438774346043,0.0,0.0,0.07852570251282241,1024,0.0,100,Assisted_Takeoff,
0.356699062937256,36.9196073206388,1800,2017-11-13 12:27:17,1676.438774346043,0.0,0.0,0.08743000279776,1676.438774346043,0.0,0.0,0.08743000279776,1024,0.0,100,Assisted_Takeoff,
0.35669898314146503,36.9196073538744,1900,2017-11-13 12:27:18,1676.438774346043,0.0,0.0,0.09686590309970881,1676.438774346043,0.0,0.0,0.09686590309970881,1024,0.0,100,Assisted_Takeoff,
0.35669889407453403,36.919607408335295,2000,2017-11-13 12:27:18,1676.438774346043,0.0,0.0,0.10789200345254402,1676.438774346043,0.0,0.0,0.10789200345254402,1024,0.0,100,Assisted_Takeoff,
0.35669882426680394,36.91960745537921,2100,2017-11-13 12:27:18,1676.438774346043,0.0,0.0,0.11674400373580801,1676.438774346043,0.0,0.0,0.11674400373580801,1024,0.0,100,Assisted_Takeoff,
0.35669875076616997,36.9196075220978,2200,2017-11-13 12:27:18,1676.438774346043,0.0,0.0,0.12672100405507203,1676.438774346043,0.0,0.0,0.12672100405507203,1024,0.0,100,Assisted_Takeoff,
0.35669868913037894,36.9196075778509,2300,2017-11-13 12:27:18,1676.438774346043,0.0,0.0,0.13520700432662403,1676.438774346043,0.0,0.0,0.13520700432662403,1024,0.0,100,Assisted_Takeoff,
0.356698627154243,36.919607615004104,2400,2017-11-13 12:27:18,1676.438774346043,0.0,0.0,0.14309400457900803,1676.438774346043,0.0,0.0,0.14309400457900803,1024,0.0,100,Assisted_Takeoff,
0.35669857221949897,36.9196076146634,2500,2017-11-13 12:27:18,1676.438774346043,0.0,0.0,0.14882900476252803,1676.438774346043,0.0,0.0,0.14882900476252803,1024,0.0,100,Assisted_Takeoff,
0.35669850310019396,36.9196076038381,2600,2017-11-13 12:27:18,1676.438774346043,0.0,0.0,0.15572400498316805,1676.438774346043,0.0,0.0,0.15572400498316805,1024,0.0,99,Assisted_Takeoff,
0.35669842311672395,36.9196075968348,2700,2017-11-13 12:27:18,1676.438774346043,0.0,0.0,0.163978005247296,1676.438774346043,0.0,0.0,0.163978005247296,1024,0.0,99,Assisted_Takeoff,
0.35669832840316495,36.9196075825122,2800,2017-11-13 12:27:18,1676.438774346043,0.0,0.0,0.17366000555712,1676.438774346043,0.0,0.0,0.17366000555712,1024,0.0,99,Assisted_Takeoff,
0.356698233414398,36.9196075729685,2900,2017-11-13 12:27:19,1676.438774346043,0.0,0.0,0.183608005875456,1676.438774346043,0.0,0.0,0.183608005875456,1024,0.0,99,Assisted_Takeoff,
0.35669813725478,36.919607555576,3000,2017-11-13 12:27:19,1676.438774346043,0.0,0.0,0.19355900619388802,1676.438774346043,0.0,0.0,0.19355900619388802,1024,0.0,99,Assisted_Takeoff,
0.356698061396159,36.9196075465498,3100,2017-11-13 12:27:19,1676.438774346043,0.0,0.0,0.20158400645068802,1676.438774346043,0.0,0.0,0.20158400645068802,1024,0.0,99,Assisted_Takeoff,
0.3566979918534579,36.919607533054396,3200,2017-11-13 12:27:19,1676.438774346043,0.0,0.0,0.20886000668351998,1676.438774346043,0.0,0.0,0.20886000668351998,1024,0.0,99,Assisted_Takeoff,
0.35669793186646603,36.9196075246898,3300,2017-11-13 12:27:19,1676.438774346043,0.0,0.0,0.21523700688758404,1676.438774346043,0.0,0.0,0.21523700688758404,1024,0.0,99,Assisted_Takeoff,
0.356697864996856,36.9196074979093,3400,2017-11-13 12:27:19,1676.438774346043,0.0,0.0,0.22204400710540803,1676.438774346043,0.0,0.0,0.22204400710540803,1024,0.0,99,Assisted_Takeoff,
0.35669778393861395,36.919607461331296,3500,2017-11-13 12:27:19,1676.438774346043,0.0,0.0,0.23033500737072002,1676.438774346043,0.0,0.0,0.23033500737072002,1024,0.0,99,Assisted_Takeoff,
0.356697692793789,36.9196074193415,3600,2017-11-13 12:27:19,1676.438774346043,0.0,0.0,0.23979000767328001,1676.438774346043,0.0,0.0,0.23979000767328001,1024,0.0,99,Assisted_Takeoff,
0.356697598296812,36.919607395910894,3700,2017-11-13 12:27:19,1676.438774346043,0.0,0.0,0.249957007998624,1676.438774346043,0.0,0.0,0.249957007998624,1024,0.0,99,Assisted_Takeoff,
0.356697507888044,36.9196073720659,3800,2017-11-13 12:27:19,1676.438774346043,0.0,0.0,0.25971900831100797,1676.438774346043,0.0,0.0,0.25971900831100797,1024,0.0,99,Assisted_Takeoff,
0.35669743487594296,36.9196073594868,3900,2017-11-13 12:27:20,1676.438774346043,0.0,0.0,0.267696008566272,1676.438774346043,0.0,0.0,0.267696008566272,1024,0.0,99,Assisted_Takeoff,
0.356697371847019,36.9196073662512,4000,2017-11-13 12:27:20,1676.438774346043,0.0,0.0,0.274743008791776,1676.438774346043,0.0,0.0,0.274743008791776,1024,0.0,99,Assisted_Takeoff,
0.35669731415531897,36.9196073918249,4100,2017-11-13 12:27:20,1676.438774346043,0.0,0.0,0.281373009003936,1676.438774346043,0.0,0.0,0.281373009003936,1024,0.0,99,Assisted_Takeoff,
0.35669726761276094,36.9196074240511,4200,2017-11-13 12:27:20,1676.438774346043,0.0,0.0,0.28686000917952,1676.438774346043,0.0,0.0,0.28686000917952,1024,0.0,99,Assisted_Takeoff,
0.356697219221105,36.919607443711705,4300,2017-11-13 12:27:20,1676.438774346043,0.0,0.0,0.29243500935792005,1676.438774346043,0.0,0.0,0.29243500935792005,1024,0.0,99,Assisted_Takeoff,
0.356697164840032,36.919607464926706,4400,2017-11-13 12:27:20,1676.438774346043,0.0,0.0,0.29870000955840004,1676.438774346043,0.0,0.0,0.29870000955840004,1024,0.0,99,Assisted_Takeoff,
0.35669709087854795,36.919607478189,4500,2017-11-13 12:27:20,1676.438774346043,0.0,0.0,0.307037009825184,1676.438774346043,0.0,0.0,0.307037009825184,1024,0.0,99,Assisted_Takeoff,
0.35669703795818897,36.9196075051017,4600,2017-11-13 12:27:20,1676.438774346043,0.0,0.0,0.31322801002329603,1676.438774346043,0.0,0.0,0.31322801002329603,1024,0.0,99,Assisted_Takeoff,
0.356697007485931,36.919607543902295,4700,2017-11-13 12:27:20,1676.438774346043,0.0,0.0,0.31712901014812805,1676.438774346043,0.0,0.0,0.31712901014812805,1024,0.0,99,Assisted_Takeoff,
0.35669698833868707,36.9196075981903,4800,2017-11-13 12:27:20,1676.438774346043,0.0,0.0,0.32008201024262406,1676.438774346043,0.0,0.0,0.32008201024262406,1024,0.0,99,Assisted_Takeoff,
0.35669695577713506,36.919607651136396,4900,2017-11-13 12:27:21,1676.438774346043,0.0,0.0,0.324581010386592,1676.438774346043,0.0,0.0,0.324581010386592,1024,0.0,99,Assisted_Takeoff,
0.35669693030582794,36.9196077044037,5000,2017-11-13 12:27:21,1676.438774346043,0.0,0.0,0.32839401050860806,1676.438774346043,0.0,0.0,0.32839401050860806,1024,0.0,99,Assisted_Takeoff,
0.356696893454954,36.9196077351287,5100,2017-11-13 12:27:21,1676.438774346043,0.0,0.0,0.333053010657696,1676.438774346043,0.0,0.0,0.333053010657696,1024,0.0,99,Assisted_Takeoff,
0.35669687571224296,36.919607774747604,5200,2017-11-13 12:27:21,1676.438774346043,0.0,0.0,0.33584501074704004,1676.438774346043,0.0,0.0,0.33584501074704004,1024,0.0,99,Assisted_Takeoff,
0.35669686416169005,36.919607818889205,5300,2017-11-13 12:27:21,1676.438774346043,0.0,0.0,0.338116010819712,1676.438774346043,0.0,0.0,0.338116010819712,1024,0.0,99,Assisted_Takeoff,
0.35669685565795506,36.9196078560742,5400,2017-11-13 12:27:21,1676.438774346043,0.0,0.0,0.339944010878208,1676.438774346043,0.0,0.0,0.339944010878208,1024,0.0,99,Assisted_Takeoff,
0.356696830356007,36.919607877127206,5500,2017-11-13 12:27:21,1676.438774346043,0.0,0.0,0.34321501098288,1676.438774346043,0.0,0.0,0.34321501098288,1024,0.0,99,Assisted_Takeoff,
0.356696818731359,36.919607887877895,5600,2017-11-13 12:27:21,1676.438774346043,0.0,0.0,0.34474801103193603,1676.438774346043,0.0,0.0,0.34474801103193603,1024,0.0,99,Assisted_Takeoff,
0.35669681150269605,36.9196078938469,5700,2017-11-13 12:27:21,1676.438774346043,0.0,0.0,0.345684011061888,1676.438774346043,0.0,0.0,0.345684011061888,1024,0.0,99,Assisted_Takeoff,
0.35669680378631397,36.9196078892111,5800,2017-11-13 12:27:21,1676.438774346043,0.0,0.0,0.346399011084768,1676.438774346043,0.0,0.0,0.346399011084768,1024,0.0,99,Assisted_Takeoff,
0.356696777269546,36.9196078866605,5900,2017-11-13 12:27:22,1676.438774346043,0.0,0.0,0.34920401117452804,1676.438774346043,0.0,0.0,0.34920401117452804,1024,0.0,99,Assisted_Takeoff,
0.3566967596701379,36.9196078748098,6000,2017-11-13 12:27:22,1676.438774346043,0.0,0.0,0.35081401122604805,1676.438774346043,0.0,0.0,0.35081401122604805,1024,0.0,99,Assisted_Takeoff,
0.35669675004277707,36.919607867484295,6100,2017-11-13 12:27:22,1676.438774346043,0.0,0.0,0.35167701125366396,1676.438774346043,0.0,0.0,0.35167701125366396,1024,0.0,99,Assisted_Takeoff,
0.3566967361106239,36.9196078671335,6200,2017-11-13 12:27:22,1676.438774346043,0.0,0.0,0.35318001130176,1676.438774346043,0.0,0.0,0.35318001130176,1024,0.0,99,Assisted_Takeoff,
0.35669670656820796,36.9196078869196,6300,2017-11-13 12:27:22,1676.438774346043,0.0,0.0,0.356871011419872,1676.438774346043,0.0,0.0,0.356871011419872,1024,0.0,99,Assisted_Takeoff,
0.356696676260422,36.919607905387394,6400,2017-11-13 12:27:22,1676.438774346043,0.0,0.0,0.36061701153974396,1676.438774346043,0.0,0.0,0.36061701153974396,1024,0.0,99,Assisted_Takeoff,
0.35669666822242296,36.91960791289021,6500,2017-11-13 12:27:22,1676.438774346043,0.0,0.0,0.361677011573664,1676.438774346043,0.0,0.0,0.361677011573664,1024,0.0,99,Assisted_Takeoff,
0.35669665009214097,36.9196079315053,6600,2017-11-13 12:27:22,1676.438774346043,0.0,0.0,0.36411601165171203,1676.438774346043,0.0,0.0,0.36411601165171203,1024,0.0,99,Assisted_Takeoff,
0.356696615626124,36.9196079639229,6700,2017-11-13 12:27:22,1676.438774346043,0.0,0.0,0.36869101179811203,1676.438774346043,0.0,0.0,0.36869101179811203,1024,0.0,99,Assisted_Takeoff,
0.35669658045499103,36.9196079951728,6800,2017-11-13 12:27:22,1676.438774346043,0.0,0.0,0.373328011946496,1676.438774346043,0.0,0.0,0.373328011946496,1024,0.0,99,Assisted_Takeoff,
0.35669656753817297,36.919608054806396,6900,2017-11-13 12:27:23,1676.438774346043,0.0,0.0,0.37639901204476806,1676.438774346043,0.0,0.0,0.37639901204476806,1024,0.0,99,Assisted_Takeoff,
0.35669654508763,36.919608106656796,7000,2017-11-13 12:27:23,1676.438774346043,0.0,0.0,0.380347012171104,1676.438774346043,0.0,0.0,0.380347012171104,1024,0.0,99,Assisted_Takeoff,
0.356696508135793,36.9196081328515,7100,2017-11-13 12:27:23,1676.438774346043,0.0,0.0,0.3851000123232,1676.438774346043,0.0,0.0,0.3851000123232,1024,0.0,99,Assisted_Takeoff,
0.356696470627028,36.919608158555604,7200,2017-11-13 12:27:23,1676.438774346043,0.0,0.0,0.38990501247696,1676.438774346043,0.0,0.0,0.38990501247696,1024,0.0,99,Assisted_Takeoff,
0.35669641671413305,36.9196082053369,7300,2017-11-13 12:27:23,1676.438774346043,0.0,0.0,0.397137012708384,1676.438774346043,0.0,0.0,0.397137012708384,1024,0.0,99,Assisted_Takeoff,
0.35669636865305104,36.919608244714105,7400,2017-11-13 12:27:23,1676.438774346043,0.0,0.0,0.40353001291296003,1676.438774346043,0.0,0.0,0.40353001291296003,1024,0.0,99,Assisted_Takeoff,
0.356696349730531,36.919608260499004,7500,2017-11-13 12:27:23,1676.438774346043,0.0,0.0,0.40606101299395203,1676.438774346043,0.0,0.0,0.40606101299395203,1024,0.0,99,Assisted_Takeoff,
0.356696284512164,36.919608319194296,7700,2017-11-13 12:27:23,1676.438774346043,0.0,0.0,0.414952013278464,1676.438774346043,0.0,0.0,0.414952013278464,1024,0.0,99,Assisted_Takeoff,
0.35669624476021705,36.9196083536104,7800,2017-11-13 12:27:23,1676.438774346043,0.0,0.0,0.42034201345094396,1676.438774346043,0.0,0.0,0.42034201345094396,1024,0.0,99,Assisted_Takeoff,
0.35669619177797796,36.91960836572021,7900,2017-11-13 12:27:24,1676.438774346043,0.0,0.0,0.42636001364352005,1676.438774346043,0.0,0.0,0.42636001364352005,1024,0.0,99,Assisted_Takeoff,
0.35669614885789297,36.91960838643929,8000,2017-11-13 12:27:24,1676.438774346043,0.0,0.0,0.43161401381164805,1676.438774346043,0.0,0.0,0.43161401381164805,1024,0.0,99,Assisted_Takeoff,
0.356696123165932,36.9196084196827,8100,2017-11-13 12:27:24,1676.438774346043,0.0,0.0,0.43549301393577605,1676.438774346043,0.0,0.0,0.43549301393577605,1024,0.0,99,Assisted_Takeoff,
0.35669609628195004,36.9196084486757,8200,2017-11-13 12:27:24,1676.438774346043,0.0,0.0,0.4393600140595201,1676.438774346043,0.0,0.0,0.4393600140595201,1024,0.0,99,Assisted_Takeoff,
0.356696057047849,36.9196084642944,8300,2017-11-13 12:27:24,1676.438774346043,0.0,0.0,0.44405101420963206,1676.438774346043,0.0,0.0,0.44405101420963206,1024,0.0,99,Assisted_Takeoff,
0.35669602775214204,36.919608471904,8400,2017-11-13 12:27:24,1676.438774346043,0.0,0.0,0.44740701431702395,1676.438774346043,0.0,0.0,0.44740701431702395,1024,0.0,99,Assisted_Takeoff,
0.356696009274188,36.9196084760662,8500,2017-11-13 12:27:24,1676.438774346043,0.0,0.0,0.449501014384032,1676.438774346043,0.0,0.0,0.449501014384032,1024,0.0,99,Assisted_Takeoff,
0.3566959907929771,36.9196084847306,8600,2017-11-13 12:27:24,1676.438774346043,0.0,0.0,0.45175801445625613,1676.438774346043,0.0,0.0,0.45175801445625613,1024,0.0,99,Assisted_Takeoff,
0.356695955480983,36.9196085113648,8700,2017-11-13 12:27:24,1676.438774346043,0.0,0.0,0.456434014605888,1676.438774346043,0.0,0.0,0.456434014605888,1024,0.0,99,Assisted_Takeoff,
0.356695929450306,36.9196085343528,8800,2017-11-13 12:27:24,1676.438774346043,0.0,0.0,0.4600080147202561,1676.438774346043,0.0,0.0,0.4600080147202561,1024,0.0,99,Assisted_Takeoff,
0.356695912271036,36.919608546290796,8900,2017-11-13 12:27:25,1676.438774346043,0.0,0.0,0.46224901479196806,1676.438774346043,0.0,0.0,0.46224901479196806,1024,0.0,99,Assisted_Takeoff,
0.356695894719666,36.919608551874795,9000,2017-11-13 12:27:25,1676.438774346043,0.0,0.0,0.46429701485750396,1676.438774346043,0.0,0.0,0.46429701485750396,1024,0.0,99,Assisted_Takeoff,
0.356695859577031,36.919608554346794,9100,2017-11-13 12:27:25,1676.438774346043,0.0,0.0,0.468077014978464,1676.438774346043,0.0,0.0,0.468077014978464,1024,0.0,99,Assisted_Takeoff,
0.35669583368802793,36.919608549581106,9200,2017-11-13 12:27:25,1676.438774346043,0.0,0.0,0.47062401505996804,1676.438774346043,0.0,0.0,0.47062401505996804,1024,0.0,99,Assisted_Takeoff,
0.356695815861452,36.919608546504705,9300,2017-11-13 12:27:25,1676.438774346043,0.0,0.0,0.472387015116384,1676.438774346043,0.0,0.0,0.472387015116384,1024,0.0,99,Assisted_Takeoff,
0.35669579706676496,36.91960853720229,9400,2017-11-13 12:27:25,1676.438774346043,0.0,0.0,0.474032015169024,1676.438774346043,0.0,0.0,0.474032015169024,1024,0.0,99,Assisted_Takeoff,
0.356695759883689,36.9196085318311,9500,2017-11-13 12:27:25,1676.438774346043,0.0,0.0,0.477761015288352,1676.438774346043,0.0,0.0,0.477761015288352,1024,0.0,99,Assisted_Takeoff,
0.356695732499775,36.91960852136621,9600,2017-11-13 12:27:25,1676.438774346043,0.0,0.0,0.48028501536912,1676.438774346043,0.0,0.0,0.48028501536912,1024,0.0,99,Assisted_Takeoff,
0.35669571208397205,36.9196085156334,9700,2017-11-13 12:27:25,1676.438774346043,0.0,0.0,0.482244015431808,1676.438774346043,0.0,0.0,0.482244015431808,1024,0.0,99,Assisted_Takeoff,
0.356695703066464,36.919608520630895,9800,2017-11-13 12:27:25,1676.438774346043,0.0,0.0,0.4833700154678401,1676.438774346043,0.0,0.0,0.4833700154678401,1024,0.0,99,Assisted_Takeoff,
0.356695695365552,36.91960854601171,9900,2017-11-13 12:27:26,1676.438774346043,0.0,0.0,0.485067015522144,1676.438774346043,0.0,0.0,0.485067015522144,1024,0.0,99,Assisted_Takeoff,
0.356695687246945,36.9196085743545,10000,2017-11-13 12:27:26,1676.438774346043,0.0,0.0,0.4869250155816,1676.438774346043,0.0,0.0,0.4869250155816,1024,0.0,99,Assisted_Takeoff,
0.356695656682679,36.9196085888388,10100,2017-11-13 12:27:26,1676.438774346043,0.0,0.0,0.490661015701152,1676.438774346043,0.0,0.0,0.490661015701152,1024,0.0,99,Assisted_Takeoff,
0.35669563345292604,36.919608603182,10200,2017-11-13 12:27:26,1676.438774346043,0.0,0.0,0.49362101579587203,1676.438774346043,0.0,0.0,0.49362101579587203,1024,0.0,99,Assisted_Takeoff,
0.356695616898978,36.9196086097725,10300,2017-11-13 12:27:26,1676.438774346043,0.0,0.0,0.49559901585916805,1676.438774346043,0.0,0.0,0.49559901585916805,1024,0.0,99,Assisted_Takeoff,
0.356695610826511,36.919608613996,10400,2017-11-13 12:27:26,1676.438774346043,0.0,0.0,0.49639001588448,1676.438774346043,0.0,0.0,0.49639001588448,1024,0.0,99,Assisted_Takeoff,
0.35669560303766296,36.9196086154337,10500,2017-11-13 12:27:26,1676.438774346043,0.0,0.0,0.497262015912384,1676.438774346043,0.0,0.0,0.497262015912384,1024,0.0,99,Assisted_Takeoff,
0.35669560704689207,36.9196086272813,10600,2017-11-13 12:27:26,1676.438774346043,0.0,0.0,0.497267015912544,1676.438774346043,0.0,0.0,0.497267015912544,1024,0.0,99,Assisted_Takeoff,
0.356695604968183,36.9196086556297,10700,2017-11-13 12:27:26,1676.438774346043,0.0,0.0,0.49852201595270396,1676.438774346043,0.0,0.0,0.49852201595270396,1024,0.0,99,Assisted_Takeoff,
0.35669559790399297,36.919608683776005,10800,2017-11-13 12:27:26,1676.438774346043,0.0,0.0,0.500307016009824,1676.438774346043,0.0,0.0,0.500307016009824,1024,0.0,99,Assisted_Takeoff,
0.35669561242075704,36.9196087018557,10900,2017-11-13 12:27:27,1676.438774346043,0.0,0.0,0.499469015983008,1676.438774346043,0.0,0.0,0.500307016009824,1024,0.0,99,Assisted_Takeoff,
0.35669561031273606,36.919608718202,11000,2017-11-13 12:27:27,1676.438774346043,0.0,0.0,0.500312016009984,1676.438774346043,0.0,0.0,0.500312016009984,1024,0.0,99,Assisted_Takeoff,
0.35669562475459204,36.9196087236024,11100,2017-11-13 12:27:27,1676.438774346043,0.0,0.0,0.499012015968384,1676.438774346043,0.0,0.0,0.500312016009984,1024,0.0,99,Assisted_Takeoff,
0.35669562325805204,36.9196087311854,11200,2017-11-13 12:27:27,1676.438774346043,0.0,0.0,0.49946001598272,1676.438774346043,0.0,0.0,0.500312016009984,1024,0.0,99,Assisted_Takeoff,
0.356695636731798,36.9196087698153,11300,2017-11-13 12:27:27,1676.438774346043,0.0,0.0,0.499569015986208,1676.438774346043,0.0,0.0,0.500312016009984,1024,0.0,99,Assisted_Takeoff,
0.35669563503007395,36.9196088022659,11400,2017-11-13 12:27:27,1676.438774346043,0.0,0.0,0.501041016033312,1676.438774346043,0.0,0.0,0.501041016033312,1024,0.0,99,Assisted_Takeoff,
0.3566956466986889,36.9196088218601,11500,2017-11-13 12:27:27,1676.438774346043,0.0,0.0,0.500627016020064,1676.438774346043,0.0,0.0,0.501041016033312,1024,0.0,99,Assisted_Takeoff,
0.35669564414936,36.9196088399109,11600,2017-11-13 12:27:27,1676.438774346043,0.0,0.0,0.5016310160521921,1676.438774346043,0.0,0.0,0.5016310160521921,1024,0.0,99,Assisted_Takeoff,
0.35669565354385296,36.919608883936895,11700,2017-11-13 12:27:27,1676.438774346043,0.0,0.0,0.502496016079872,1676.438774346043,0.0,0.0,0.502496016079872,1024,0.0,99,Assisted_Takeoff,
0.3566956490045661,36.9196089216815,11800,2017-11-13 12:27:27,1676.438774346043,0.0,0.0,0.5045690161462081,1676.438774346043,0.0,0.0,0.5045690161462081,1024,0.0,99,Assisted_Takeoff,
0.356695656332564,36.919608941625796,11900,2017-11-13 12:27:28,1676.438774346043,0.0,0.0,0.5046780161496961,1676.438774346043,0.0,0.0,0.5046780161496961,1024,0.0,99,Assisted_Takeoff,
0.35669565067453496,36.9196089625746,12000,2017-11-13 12:27:28,1676.438774346043,0.0,0.0,0.506171016197472,1676.438774346043,0.0,0.0,0.506171016197472,1024,0.0,99,Assisted_Takeoff,
0.3566956574057079,36.919608966142796,12100,2017-11-13 12:27:28,1676.438774346043,0.0,0.0,0.505639016180448,1676.438774346043,0.0,0.0,0.506171016197472,1024,0.0,99,Assisted_Takeoff,
0.35669565109304496,36.919608974792105,12200,2017-11-13 12:27:28,1676.438774346043,0.0,0.0,0.506664016213248,1676.438774346043,0.0,0.0,0.506664016213248,1024,0.0,99,Assisted_Takeoff,
0.35669565727298996,36.919609009998396,12300,2017-11-13 12:27:28,1676.438774346043,0.0,0.0,0.507598016243136,1676.438774346043,0.0,0.0,0.507598016243136,1024,0.0,99,Assisted_Takeoff,
0.35669564898665296,36.9196090415312,12400,2017-11-13 12:27:28,1676.438774346043,0.0,0.0,0.5098630163156161,1676.438774346043,0.0,0.0,0.5098630163156161,1024,0.0,99,Assisted_Takeoff,
0.35669565344696097,36.91960905462471,12500,2017-11-13 12:27:28,1676.438774346043,0.0,0.0,0.510007016320224,1676.438774346043,0.0,0.0,0.510007016320224,1024,0.0,99,Assisted_Takeoff,
0.356695645380464,36.919609070973,12600,2017-11-13 12:27:28,1676.438774346043,0.0,0.0,0.511573016370336,1676.438774346043,0.0,0.0,0.511573016370336,1024,0.0,99,Assisted_Takeoff,
0.35669565101080897,36.9196091107051,12700,2017-11-13 12:27:28,1676.438774346043,0.0,0.0,0.5128460164110721,1676.438774346043,0.0,0.0,0.5128460164110721,1024,0.0,99,Assisted_Takeoff,
0.356695643355494,36.9196091471979,12800,2017-11-13 12:27:28,1676.438774346043,0.0,0.0,0.515337016490784,1676.438774346043,0.0,0.0,0.515337016490784,1024,0.0,99,Assisted_Takeoff,
0.35669564949961297,36.919609203723205,12900,2017-11-13 12:27:29,1676.438774346043,0.0,0.0,0.517434016557888,1676.438774346043,0.0,0.0,0.517434016557888,1024,0.0,99,Assisted_Takeoff,
0.35669564245170704,36.9196092523704,13000,2017-11-13 12:27:29,1676.438774346043,0.0,0.0,0.5205230166567361,1676.438774346043,0.0,0.0,0.5205230166567361,1024,0.0,99,Assisted_Takeoff,
0.356695689030905,36.9196092766664,13100,2017-11-13 12:27:29,1676.438774346043,0.0,0.0,0.517107016547424,1676.438774346043,0.0,0.0,0.5205230166567361,1029,0.0,99,Assisted_Takeoff,
0.35669571273779294,36.919609302298795,13200,2017-11-13 12:27:29,1676.438774346043,0.0,0.0,0.516061016513952,1676.438774346043,0.0,0.0,0.5205230166567361,1077,0.0,99,Assisted_Takeoff,
0.35669574345838895,36.9196093444478,13300,2017-11-13 12:27:29,1676.438774346043,0.0,0.0,0.515212016486784,1676.438774346043,0.0,0.0,0.5205230166567361,1166,0.0,99,Assisted_Takeoff,
0.35669575551538796,36.9196093838898,13400,2017-11-13 12:27:29,1676.438774346043,0.0,0.0,0.516106016515392,1676.438774346043,0.0,0.0,0.5205230166567361,1255,0.0,99,Assisted_Takeoff,
0.35669577210923203,36.9196093979937,13500,2017-11-13 12:27:29,1676.438774346043,0.0,0.0,0.515237016487584,1676.438774346043,0.0,0.0,0.5205230166567361,1322,0.0,99,Assisted_Takeoff,
0.356695774355671,36.9196094171591,13600,2017-11-13 12:27:29,1676.438774346043,0.0,0.0,0.516047016513504,1676.438774346043,0.0,0.0,0.5205230166567361,1376,0.0,99,Assisted_Takeoff,
0.35669574531807197,36.9196094104319,13700,2017-11-13 12:27:29,1676.438774346043,0.0,0.0,0.51851501659248,1676.438774346043,0.0,0.0,0.5205230166567361,1445,0.0,99,Assisted_Takeoff,
0.356695720894669,36.91960941095871,13800,2017-11-13 12:27:29,1676.438774346043,0.0,0.0,0.5209260166696321,1676.438774346043,0.0,0.0,0.5209260166696321,1571,0.0,99,Assisted_Takeoff,
0.35669574143423294,36.9196094147877,13900,2017-11-13 12:27:30,1676.438774346043,0.0,0.0,0.519126016612032,1676.438774346043,0.0,0.0,0.5209260166696321,1684,0.0,99,Assisted_Takeoff,
0.35669573844278096,36.9196094475723,14000,2017-11-13 12:27:30,1676.438774346043,0.0,0.0,0.521179016677728,1676.438774346043,0.0,0.0,0.521179016677728,1684,0.0,99,Assisted_Takeoff,
0.35669574458282893,36.9196094183982,14100,2017-11-13 12:27:30,1676.438774346043,0.0,0.0,0.519012016608384,1676.438774346043,0.0,0.0,0.521179016677728,1684,0.0,99,GPS_Atti,Obstacle Avoided. Revise Flight Route
0.35669574451443503,36.9196093334428,14200,2017-11-13 12:27:30,1676.438774346043,0.0,0.35999970196000003,0.51453501646512,1676.438774346043,0.0,0.35999970196000003,0.521179016677728,1684,0.0,99,GPS_Atti,
0.356695758332596,36.9196091965095,14300,2017-11-13 12:27:30,1676.5387743492429,0.10000000320000002,0.35999970196000003,0.506218016198976,1676.5387743492429,0.10000000320000002,0.35999970196000003,0.521179016677728,1684,0.0,99,GPS_Atti,
0.35669576779222706,36.9196090567205,14400,2017-11-13 12:27:30,1676.638774352443,0.20000000640000004,0.35999970196000003,0.49853901595324795,1676.638774352443,0.20000000640000004,0.35999970196000003,0.521179016677728,1684,0.0,99,GPS_Atti,
0.35669582044307896,36.919608879162396,14500,2017-11-13 12:27:30,1676.8387743588428,0.4000000128000001,0.35999970196000003,0.4851650155252801,1676.8387743588428,0.4000000128000001,0.35999970196000003,0.521179016677728,1684,0.0,99,GPS_Atti,
0.35669589988183403,36.9196087298389,14600,2017-11-13 12:27:30,1677.038774365243,0.6000000192,0.35999970196000003,0.470682015061824,1677.038774365243,0.6000000192,0.35999970196000003,0.521179016677728,1684,0.0,99,GPS_Atti,
0.356695948561724,36.919608662489296,14700,2017-11-13 12:27:30,1677.2387743716429,0.8000000256000002,0.0,0.462916014813312,1677.2387743716429,0.8000000256000002,0.35999970196000003,0.521179016677728,1684,0.0,99,GPS_Atti,Home Point Recorded. RTH Altitude:  30m.
0.356695977280149,36.91960863118629,14800,2017-11-13 12:27:30,1677.5387743812428,1.1000000352,0.0,0.45869201467814397,1677.5387743812428,1.1000000352,0.35999970196000003,0.521179016677728,1684,0.0,99,GPS_Atti,
0.35669600198120105,36.919608723063796,14900,2017-11-13 12:27:31,1677.9387743940429,1.5000000480000002,0.0,0.45986201471558397,1677.9387743940429,1.5000000480000002,0.35999970196000003,0.521179016677728,1684,0.0,99,GPS_Atti,
0.35669598554613,36.919608802990396,15000,2017-11-13 12:27:31,1678.338774406843,1.9000000607999998,0.0,0.464954014878528,1678.338774406843,1.9000000607999998,0.35999970196000003,0.521179016677728,1684,0.0,99,GPS_Atti,
0.35669592345274603,36.9196089674246,15100,2017-11-13 12:27:31,1678.8387744228428,2.4000000768,0.0,0.47866001531712,1678.8387744228428,2.4000000768,0.35999970196000003,0.521179016677728,1684,0.0,99,GPS_Atti,
0.35669577429786103,36.9196090719171,15200,2017-11-13 12:27:31,1679.338774438843,2.9000000928,0.35999970196000003,0.49859701595510403,1679.338774438843,2.9000000928,0.35999970196000003,0.521179016677728,1684,0.0,99,GPS_Atti,
0.35669561437000497,36.919609106890604,15300,2017-11-13 12:27:31,1679.838774454843,3.4000001088000005,1.0187991565468,0.5163680165237761,1679.838774454843,3.4000001088000005,1.0187991565468,0.521179016677728,1684,0.0,99,GPS_Atti,
0.356695354597361,36.9196090480376,15400,2017-11-13 12:27:31,1680.3387744708427,3.9000001248,1.2995989240756,0.5401950172862401,1680.3387744708427,3.9000001248,1.2995989240756,0.5401950172862401,1684,0.0,99,GPS_Atti,
0.35669506791061,36.9196090077372,15500,2017-11-13 12:27:31,1680.8387744868428,4.4000001408,1.1375990581936,0.568104018179328,1680.8387744868428,4.4000001408,1.2995989240756,0.568104018179328,1684,0.0,99,GPS_Atti,
0.356694790850405,36.9196090159138,15600,2017-11-13 12:27:31,1681.3387745028429,4.9000001568,0.5075995797636,0.597268019112576,1681.3387745028429,4.9000001568,1.2995989240756,0.597268019112576,1684,0.0,99,GPS_Atti,
0.356694554962964,36.91960904059329,15700,2017-11-13 12:27:31,1681.9387745220426,5.500000176000001,1.07999910588,0.622879019932128,1681.9387745220426,5.500000176000001,1.2995989240756,0.622879019932128,1684,0.0,99,GPS_Atti,
0.35669437402736603,36.9196089977268,15800,2017-11-13 12:27:31,1682.438774538043,6.000000192000001,1.4399988078400001,0.640352020491264,1682.438774538043,6.000000192000001,1.4399988078400001,0.640352020491264,1684,0.0,99,GPS_Atti,
0.356694302698262,36.919608881162,15900,2017-11-13 12:27:32,1682.9387745540428,6.500000208,1.4399988078400001,0.6439310206057921,1682.9387745540428,6.500000208,1.4399988078400001,0.6439310206057921,1684,0.0,99,GPS_Atti,
0.356694197501594,36.9196088041449,16000,2017-11-13 12:27:32,1683.4387745700428,7.000000224,0.8063993323904,0.6526810208857922,1683.4387745700428,7.000000224,1.4399988078400001,0.6526810208857922,1684,0.0,99,GPS_Atti,
0.35669406373631896,36.919608743169896,16100,2017-11-13 12:27:32,1683.9387745860429,7.50000024,0.5075995797636,0.6651660212853121,1683.9387745860429,7.50000024,1.4399988078400001,0.6651660212853121,1684,-0.1,99,GPS_Atti,
0.356693908236202,36.9196087250977,16200,2017-11-13 12:27:32,1684.538774605243,8.1000002592,0.35999970196000003,0.6813530218032962,1684.538774605243,8.1000002592,1.4399988078400001,0.6813530218032962,1684,-0.8,99,GPS_Atti,
0.35669376861422797,36.919608702691995,16300,2017-11-13 12:27:32,1685.0387746212427,8.6000002752,0.35999970196000003,0.695768022264576,1685.0387746212427,8.6000002752,1.4399988078400001,0.695768022264576,1684,-1.7,99,GPS_Atti,
0.35669363402170295,36.919608703239795,16400,2017-11-13 12:27:32,1685.538774637243,9.1000002912,0.35999970196000003,0.7103040227297279,1685.538774637243,9.1000002912,1.4399988078400001,0.7103040227297279,1684,-2.7,99,GPS_Atti,
0.35669352677889504,36.9196086946788,16500,2017-11-13 12:27:32,1686.0387746532429,9.6000003072,0.35999970196000003,0.721663023093216,1686.0387746532429,9.6000003072,1.4399988078400001,0.721663023093216,1684,-3.8,99,GPS_Atti,
0.35669342716697605,36.9196086809967,16600,2017-11-13 12:27:32,1686.6387746724429,10.2000003264,0.35999970196000003,0.73208502342672,1686.6387746724429,10.2000003264,1.4399988078400001,0.73208502342672,1684,-3.8,99,GPS_Atti,
0.356693346797565,36.9196086343751,16700,2017-11-13 12:27:32,1686.9387746820428,10.500000336,0.35999970196000003,0.7396280236680961,1686.9387746820428,10.500000336,1.4399988078400001,0.7396280236680961,1684,-4.9,99,GPS_Atti,
0.35669327138513796,36.919608639527794,16800,2017-11-13 12:27:32,1687.3387746948426,10.9000003488,0.0,0.7479360239339521,1687.3387746948426,10.9000003488,1.4399988078400001,0.7479360239339521,1684,-6.0,99,GPS_Atti,
0.356693200375209,36.9196086240547,16900,2017-11-13 12:27:33,1687.738774707643,11.3000003616,0.0,0.755274024168768,1687.738774707643,11.3000003616,1.4399988078400001,0.755274024168768,1684,-7.0,99,GPS_Atti,
0.356693090111637,36.9196086869847,17000,2017-11-13 12:27:33,1688.2387747236428,11.8000003776,0.5075995797636,0.7687610246003521,1688.2387747236428,11.8000003776,1.4399988078400001,0.7687610246003521,1684,-8.1,99,GPS_Atti,
0.356692931885505,36.9196087922903,17100,2017-11-13 12:27:33,1688.7387747396428,12.300000393600001,0.5075995797636,0.7885330252330561,1688.7387747396428,12.300000393600001,1.4399988078400001,0.7885330252330561,1684,-9.2,99,GPS_Atti,
0.35669275468555706,36.9196089495218,17200,2017-11-13 12:27:33,1689.1387747524427,12.700000406400001,0.5075995797636,0.8118120259779841,1689.1387747524427,12.700000406400001,1.4399988078400001,0.8118120259779841,1684,-10.2,99,GPS_Atti,
0.35669249838964096,36.9196090906362,17300,2017-11-13 12:27:33,1689.6387747684428,13.2000004224,0.35999970196000003,0.8433200269862401,1689.6387747684428,13.2000004224,1.4399988078400001,0.8433200269862401,1684,-11.3,99,GPS_Atti,
0.356692230266337,36.9196092161559,17400,2017-11-13 12:27:33,1690.1387747844428,13.7000004384,0.35999970196000003,0.87572002802304,1690.1387747844428,13.7000004384,1.4399988078400001,0.87572002802304,1684,-12.3,99,GPS_Atti,
0.356691964926044,36.9196092712863,17500,2017-11-13 12:27:33,1690.638774800443,14.200000454400003,0.35999970196000003,0.905808028985856,1690.638774800443,14.200000454400003,1.4399988078400001,0.905808028985856,1684,-13.2,99,GPS_Atti,
0.356691705703001,36.9196093462738,17600,2017-11-13 12:27:33,1691.1387748164427,14.7000004704,0.5075995797636,0.9358110299459521,1691.1387748164427,14.7000004704,1.4399988078400001,0.9358110299459521,1684,-13.9,99,GPS_Atti,
0.35669144883061604,36.9196093435766,17700,2017-11-13 12:27:33,1691.638774832443,15.200000486399999,0.35999970196000003,0.963359030827488,1691.638774832443,15.200000486399999,1.4399988078400001,0.963359030827488,1684,-14.5,99,GPS_Atti,
0.35669120663376896,36.91960932124329,17800,2017-11-13 12:27:33,1692.1387748484428,15.700000502400002,0.35999970196000003,0.9888500316432001,1692.1387748484428,15.700000502400002,1.4399988078400001,0.9888500316432001,1684,-15.1,99,GPS_Atti,
0.356691011070672,36.9196092255702,17900,2017-11-13 12:27:34,1692.6387748644427,16.2000005184,0.35999970196000003,1.0075000322399998,1692.6387748644427,16.2000005184,1.4399988078400001,1.0075000322399998,1684,-15.7,99,GPS_Atti,
0.35669082672918395,36.9196091470134,18000,2017-11-13 12:27:34,1693.138774880443,16.7000005344,0.0,1.02557003281824,1693.138774880443,16.7000005344,1.4399988078400001,1.02557003281824,1684,-15.7,99,GPS_Atti,
0.356690685661965,36.91960901843729,18100,2017-11-13 12:27:34,1693.7387748996427,17.3000005536,0.0,1.03797003321504,1693.7387748996427,17.3000005536,1.4399988078400001,1.03797003321504,1684,-16.3,99,GPS_Atti,
0.35669055096359203,36.919608927091296,18200,2017-11-13 12:27:34,1694.2387749156428,17.8000005696,0.0,1.05072003362304,1694.2387749156428,17.8000005696,1.4399988078400001,1.05072003362304,1684,-16.9,99,GPS_Atti,
0.356690423552505,36.919608803277704,18300,2017-11-13 12:27:34,1694.7387749316429,18.3000005856,0.0,1.0622100339907201,1694.7387749316429,18.3000005856,1.4399988078400001,1.0622100339907201,1684,-17.6,99,GPS_Atti,
0.35669029726993,36.9196087255282,18400,2017-11-13 12:27:34,1695.238774947643,18.800000601600004,0.0,1.07462003438784,1695.238774947643,18.800000601600004,1.4399988078400001,1.07462003438784,1684,-18.1,99,GPS_Atti,
0.35669022388572996,36.9196086064676,18500,2017-11-13 12:27:34,1695.7387749636428,19.300000617600002,0.0,1.0806400345804799,1695.7387749636428,19.300000617600002,1.4399988078400001,1.0806400345804799,1684,-18.8,99,GPS_Atti,
0.35669014668771404,36.9196085118212,18600,2017-11-13 12:27:34,1696.3387749828428,19.900000636800005,0.0,1.08764003480448,1696.3387749828428,19.900000636800005,1.4399988078400001,1.08764003480448,1684,-19.3,99,GPS_Atti,
0.35669006756487703,36.91960840269039,18700,2017-11-13 12:27:34,1696.8387749988428,20.4000006528,0.0,1.09477003503264,1696.8387749988428,20.4000006528,1.4399988078400001,1.09477003503264,1684,-20.0,99,GPS_Atti,
0.35668999801240503,36.9196083189943,18800,2017-11-13 12:27:34,1697.338775014843,20.900000668800004,0.0,1.1013300352425601,1697.338775014843,20.900000668800004,1.4399988078400001,1.1013300352425601,1684,-20.5,99,GPS_Atti,
0.356689991798263,36.9196081477294,18900,2017-11-13 12:27:35,1697.938775034043,21.500000688,0.0,1.09997003519904,1697.938775034043,21.500000688,1.4399988078400001,1.1013300352425601,1684,-20.9,99,GPS_Atti,
0.356689990642068,36.9196080021712,19000,2017-11-13 12:27:35,1698.4387750500428,22.000000704000005,0.0,1.0986100351555201,1698.4387750500428,22.000000704000005,1.4399988078400001,1.1013300352425601,1684,-21.4,99,GPS_Atti,
0.356690023992601,36.91960783783,19100,2017-11-13 12:27:35,1698.9387750660428,22.50000072,0.0,1.09353003499296,1698.9387750660428,22.50000072,1.4399988078400001,1.1013300352425601,1684,-21.8,99,GPS_Atti,
0.356690061454955,36.919607718290294,19200,2017-11-13 12:27:35,1699.5387750852428,23.100000739200006,0.0,1.08854003483328,1699.5387750852428,23.100000739200006,1.4399988078400001,1.1013300352425601,1684,-21.8,99,GPS_Atti,
0.356690133401239,36.919607585818,19300,2017-11-13 12:27:35,1700.038775101243,23.6000007552,0.0,1.0798300345545602,1700.038775101243,23.6000007552,1.4399988078400001,1.1013300352425601,1684,-21.8,99,GPS_Atti,
0.35669019326935403,36.9196075153398,19400,2017-11-13 12:27:35,1700.538775117243,24.100000771199998,0.0,1.07287003433184,1700.538775117243,24.100000771199998,1.4399988078400001,1.1013300352425601,1684,-21.8,99,GPS_Atti,
0.356690274106943,36.919607416902,19500,2017-11-13 12:27:35,1701.138775136443,24.7000007904,0.0,1.0635400340332801,1701.138775136443,24.7000007904,1.4399988078400001,1.1013300352425601,1684,-21.8,99,GPS_Atti,
0.356690339793488,36.91960735763271,19600,2017-11-13 12:27:35,1701.6387751524428,25.200000806400006,0.0,1.05609003379488,1701.6387751524428,25.200000806400006,1.4399988078400001,1.1013300352425601,1684,-21.8,99,GPS_Atti,
0.35669045267559707,36.919607261555,19700,2017-11-13 12:27:35,1702.1387751684429,25.7000008224,0.0,1.0433800333881602,1702.1387751684429,25.7000008224,1.4399988078400001,1.1013300352425601,1684,-21.8,99,GPS_Atti,
0.356690563020591,36.9196071906583,19800,2017-11-13 12:27:35,1702.738775187643,26.300000841600003,0.0,1.0310600329939201,1702.738775187643,26.300000841600003,1.4399988078400001,1.1013300352425601,1684,-21.8,99,GPS_Atti,
0.35669071816570797,36.9196070602358,19900,2017-11-13 12:27:36,1703.238775203643,26.8000008576,0.0,1.0138800324441601,1703.238775203643,26.8000008576,1.4399988078400001,1.1013300352425601,1684,-21.8,99,GPS_Atti,
0.356690842710733,36.919606968969795,20000,2017-11-13 12:27:36,1703.7387752196428,27.3000008736,0.0,1.00021003200672,1703.7387752196428,27.3000008736,1.4399988078400001,1.1013300352425601,1684,-21.8,99,GPS_Atti,
0.35669097704107794,36.9196068493124,20100,2017-11-13 12:27:36,1704.3387752388428,27.9000008928,0.0,0.985666031541312,1704.3387752388428,27.9000008928,1.4399988078400001,1.1013300352425601,1684,-21.8,99,GPS_Atti,
0.35669106647196597,36.919606820835206,20200,2017-11-13 12:27:36,1704.8387752548429,28.400000908800006,0.0,0.975848031227136,1704.8387752548429,28.400000908800006,1.4399988078400001,1.1013300352425601,1684,-21.8,99,GPS_Atti,
0.35669117783147997,36.919606804717496,20300,2017-11-13 12:27:36,1705.3387752708427,28.9000009248,0.0,0.9635480308335361,1705.3387752708427,28.9000009248,1.4399988078400001,1.1013300352425601,1684,-21.8,99,GPS_Atti,
0.35669126811567203,36.919606816914396,20400,2017-11-13 12:27:36,1705.838775286843,29.4000009408,0.0,0.95346003051072,1705.838775286843,29.4000009408,1.4399988078400001,1.1013300352425601,1684,-21.8,99,GPS_Atti,
0.356691384127651,36.9196067735208,20500,2017-11-13 12:27:36,1706.4387753060428,30.00000096,0.0,0.940784030105088,1706.4387753060428,30.00000096,1.4399988078400001,1.1013300352425601,1684,-21.8,99,GPS_Atti,
0.356691474084526,36.9196067526849,20600,2017-11-13 12:27:36,1706.938775322043,30.500000976,0.0,0.9309040297889281,1706.938775322043,30.500000976,1.4399988078400001,1.1013300352425601,1684,-21.8,99,GPS_Atti,
0.356691633001118,36.919606679571,20700,2017-11-13 12:27:36,1707.438775338043,31.000000992,0.0,0.913704029238528,1707.438775338043,31.000000992,1.4399988078400001,1.1013300352425601,1684,-21.8,99,GPS_Atti,
0.3566917841516621,36.9196066685633,20800,2017-11-13 12:27:36,1707.9387753540427,31.500001007999998,0.35999970196000003,0.897001028704032,1707.9387753540427,31.500001007999998,1.4399988078400001,1.1013300352425601,1684,-21.9,99,GPS_Atti,
0.356691993201531,36.919606616606295,20900,2017-11-13 12:27:37,1708.538775373243,32.1000010272,0.35999970196000003,0.8741880279740161,1708.538775373243,32.1000010272,1.4399988078400001,1.1013300352425601,1684,-21.8,99,GPS_Atti,
0.35669215015992,36.9196066069134,21000,2017-11-13 12:27:37,1709.0387753892428,32.6000010432,0.0,0.85685502741936,1709.0387753892428,32.6000010432,1.4399988078400001,1.1013300352425601,1684,-21.9,99,GPS_Atti,
0.356692326271253,36.9196065780631,21100,2017-11-13 12:27:37,1709.5387754052426,33.100001059200004,0.0,0.83757002680224,1709.5387754052426,33.100001059200004,1.4399988078400001,1.1013300352425601,1684,-21.9,99,GPS_Atti,
0.356692448783166,36.919606577614296,21200,2017-11-13 12:27:37,1710.1387754244429,33.70000107840001,0.0,0.823993026367776,1710.1387754244429,33.70000107840001,1.4399988078400001,1.1013300352425601,1684,-21.8,99,GPS_Atti,
0.35669260518462703,36.919606574145206,21300,2017-11-13 12:27:37,1710.6387754404427,34.2000010944,0.0,0.806689025814048,1710.6387754404427,34.2000010944,1.4399988078400001,1.1013300352425601,1684,-21.8,99,GPS_Atti,
0.356692710382924,36.919606587737796,21400,2017-11-13 12:27:37,1711.138775456443,34.7000011104,0.0,0.7949060254369921,1711.138775456443,34.7000011104,1.4399988078400001,1.1013300352425601,1684,-21.8,99,GPS_Atti,
0.356692852672289,36.9196065389119,21500,2017-11-13 12:27:37,1711.7387754756428,35.300001129600005,0.0,0.7796060249473921,1711.7387754756428,35.300001129600005,1.4399988078400001,1.1013300352425601,1684,-21.8,99,GPS_Atti,
0.35669295315705396,36.9196065288674,21600,2017-11-13 12:27:37,1712.238775491643,35.8000011456,0.0,0.7685810245945921,1712.238775491643,35.8000011456,1.4399988078400001,1.1013300352425601,1684,-21.9,99,GPS_Atti,
0.3566930816079029,36.9196065649946,21700,2017-11-13 12:27:37,1712.738775507643,36.3000011616,0.0,0.75399002412768,1712.738775507643,36.3000011616,1.4399988078400001,1.1013300352425601,1684,-21.8,99,GPS_Atti,
0.356693154051676,36.9196066377446,21800,2017-11-13 12:27:37,1713.2387755236427,36.8000011776,0.35999970196000003,0.7452800238489601,1713.2387755236427,36.8000011776,1.4399988078400001,1.1013300352425601,1684,-21.9,99,GPS_Atti,
0.3566932795281721,36.919606681481106,21900,2017-11-13 12:27:38,1713.7387755396428,37.3000011936,0.0,0.7309930233917761,1713.7387755396428,37.3000011936,1.4399988078400001,1.1013300352425601,1684,-21.8,99,GPS_Atti,
0.35669334800179897,36.9196067135633,22000,2017-11-13 12:27:38,1714.3387755588428,37.90000121280001,0.0,0.72314002314048,1714.3387755588428,37.90000121280001,1.4399988078400001,1.1013300352425601,1684,-21.8,99,GPS_Atti,
0.356693451274461,36.919606691377794,22100,2017-11-13 12:27:38,1714.8387755748427,38.4000012288,0.0,0.71186502277968,1714.8387755748427,38.4000012288,1.4399988078400001,1.1013300352425601,1684,-21.8,99,GPS_Atti,
0.3566935061334821,36.9196066717865,22200,2017-11-13 12:27:38,1715.338775590843,38.9000012448,0.0,0.705949022590368,1715.338775590843,38.9000012448,1.4399988078400001,1.1013300352425601,1684,-21.8,99,GPS_Atti,
0.356693574710515,36.9196066385138,22300,2017-11-13 12:27:38,1715.9387756100427,39.500001264000005,0.0,0.6986500223568,1715.9387756100427,39.500001264000005,1.4399988078400001,1.1013300352425601,1684,-21.8,99,GPS_Atti,
0.356693600588933,36.9196066251059,22400,2017-11-13 12:27:38,1716.4387756260428,40.00000128,0.0,0.695911022269152,1716.4387756260428,40.00000128,1.4399988078400001,1.1013300352425601,1684,-21.8,99,GPS_Atti,
0.356693652598992,36.9196066330753,22500,2017-11-13 12:27:38,1716.9387756420429,40.500001296,0.0,0.6900720220823039,1716.9387756420429,40.500001296,1.4399988078400001,1.1013300352425601,1684,-21.8,99,GPS_Atti,
0.35669367243099703,36.919606673414,22600,2017-11-13 12:27:38,1717.438775658043,41.000001311999995,0.0,0.6875000220000002,1717.438775658043,41.000001311999995,1.4399988078400001,1.1013300352425601,1684,-21.8,99,GPS_Atti,
0.356693731560613,36.9196067248956,22700,2017-11-13 12:27:38,1717.9387756740427,41.500001328,0.0,0.68050502177616,1717.9387756740427,41.500001328,1.4399988078400001,1.1013300352425601,1684,-21.8,99,GPS_Atti,
0.356693754930413,36.9196067908461,22800,2017-11-13 12:27:38,1718.438775690043,42.000001344,0.0,0.6774170216773441,1718.438775690043,42.000001344,1.4399988078400001,1.1013300352425601,1684,-21.9,99,GPS_Atti,
0.35669380517360905,36.9196068737394,22900,2017-11-13 12:27:39,1718.9387757060429,42.50000136,0.35999970196000003,0.671324021482368,1718.9387757060429,42.50000136,1.4399988078400001,1.1013300352425601,1684,-21.9,99,GPS_Atti,
0.35669384308215707,36.9196069847601,23000,2017-11-13 12:27:39,1719.4387757220427,43.000001376,0.35999970196000003,0.666618021331776,1719.4387757220427,43.000001376,1.4399988078400001,1.1013300352425601,1684,-22.0,99,GPS_Atti,
0.35669392554656104,36.919607092953896,23100,2017-11-13 12:27:39,1719.938775738043,43.500001391999994,0.35999970196000003,0.657184021029888,1719.938775738043,43.500001391999994,1.4399988078400001,1.1013300352425601,1684,-22.1,99,GPS_Atti,
0.35669394986818703,36.9196072018354,23200,2017-11-13 12:27:39,1720.4387757540428,44.00000140800001,0.35999970196000003,0.6544320209418241,1720.4387757540428,44.00000140800001,1.4399988078400001,1.1013300352425601,1684,-22.2,99,GPS_Atti,
0.35669399965297605,36.9196072929641,23300,2017-11-13 12:27:39,1720.9387757700429,44.500001424,0.35999970196000003,0.649029020768928,1720.9387757700429,44.500001424,1.4399988078400001,1.1013300352425601,1684,-22.2,99,GPS_Atti,
0.356694002040275,36.91960737495071,23400,2017-11-13 12:27:39,1721.538775789243,45.10000144320001,0.0,0.6490200207686401,1721.538775789243,45.10000144320001,1.4399988078400001,1.1013300352425601,1684,-22.3,99,GPS_Atti,
0.35669404345730604,36.9196074204696,23500,2017-11-13 12:27:39,1722.0387758052427,45.6000014592,0.0,0.6446150206276801,1722.0387758052427,45.6000014592,1.4399988078400001,1.1013300352425601,1684,-22.3,99,GPS_Atti,
0.356694051993609,36.9196074548396,23600,2017-11-13 12:27:39,1722.5387758212428,46.1000014752,0.0,0.6438430206029762,1722.5387758212428,46.1000014752,1.4399988078400001,1.1013300352425601,1684,-22.3,99,GPS_Atti,
0.35669408661188595,36.919607457899794,23700,2017-11-13 12:27:39,1723.0387758372428,46.600001491200004,0.0,0.6400150204804801,1723.0387758372428,46.600001491200004,1.4399988078400001,1.1013300352425601,1684,-22.3,99,GPS_Atti,
0.356694087462748,36.9196074737481,23800,2017-11-13 12:27:39,1723.538775853243,47.1000015072,0.0,0.6400110204803521,1723.538775853243,47.1000015072,1.4399988078400001,1.1013300352425601,1684,-22.3,99,GPS_Atti,
0.35669411055164096,36.9196075000995,23900,2017-11-13 12:27:40,1724.0387758692427,47.60000152320001,0.0,0.637609020403488,1724.0387758692427,47.60000152320001,1.4399988078400001,1.1013300352425601,1684,-22.3,99,GPS_Atti,
0.356694109611215,36.919607545031,24000,2017-11-13 12:27:40,1724.538775885243,48.1000015392,0.0,0.63802002041664,1724.538775885243,48.1000015392,1.4399988078400001,1.1013300352425601,1684,-22.3,99,GPS_Atti,
0.356694165672028,36.919607610970395,24100,2017-11-13 12:27:40,1725.1387759044428,48.70000155840001,0.0,0.6323250202344001,1725.1387759044428,48.70000155840001,1.4399988078400001,1.1013300352425601,1684,-22.3,99,GPS_Atti,
0.35669418127170704,36.9196076814611,24200,2017-11-13 12:27:40,1725.638775920443,49.200001574400005,0.0,0.6312530202000961,1725.638775920443,49.200001574400005,1.4399988078400001,1.1013300352425601,1684,-22.3,99,GPS_Atti,
0.356694200278905,36.9196077552155,24300,2017-11-13 12:27:40,1726.138775936443,49.70000159040001,0.0,0.629942020158144,1726.138775936443,49.70000159040001,1.4399988078400001,1.1013300352425601,1684,-22.3,99,GPS_Atti,
0.35669419441976397,36.919607834409206,24400,2017-11-13 12:27:40,1726.6387759524428,50.200001606399994,0.0,0.631559020209888,1726.6387759524428,50.200001606399994,1.4399988078400001,1.1013300352425601,1684,-22.3,99,GPS_Atti,
0.35669421933332895,36.919607935525704,24500,2017-11-13 12:27:40,1727.1387759684428,50.7000016224,0.0,0.630227020167264,1727.1387759684428,50.7000016224,1.4399988078400001,1.1013300352425601,1684,-22.3,99,GPS_Atti,
0.356694232169538,36.9196080361645,24600,2017-11-13 12:27:40,1727.7387759876428,51.3000016416,0.0,0.630424020173568,1727.7387759876428,51.3000016416,1.4399988078400001,1.1013300352425601,1684,-22.3,99,GPS_Atti,
0.356694276933835,36.9196081073029,24700,2017-11-13 12:27:40,1728.2387760036427,51.800001657600006,0.0,0.626772020056704,1728.2387760036427,51.800001657600006,1.4399988078400001,1.1013300352425601,1684,-22.3,99,GPS_Atti,
0.35669429160774396,36.9196081711604,24800,2017-11-13 12:27:40,1728.738776019643,52.3000016736,0.0,0.6263850200443201,1728.738776019643,52.3000016736,1.4399988078400001,1.1013300352425601,1684,-22.3,99,GPS_Atti,
0.356694342383442,36.919608203482206,24900,2017-11-13 12:27:41,1729.2387760356428,52.8000016896,0.0,0.6214840198874879,1729.2387760356428,52.8000016896,1.4399988078400001,1.1013300352425601,1684,-22.3,99,GPS_Atti,
0.356694358104441,36.9196082397849,25000,2017-11-13 12:27:41,1729.7387760516428,53.3000017056,0.0,0.6205270198568641,1729.7387760516428,53.3000017056,1.4399988078400001,1.1013300352425601,1684,-22.3,99,GPS_Atti,
0.356694367555115,36.9196082717585,25100,2017-11-13 12:27:41,1730.238776067643,53.8000017216,0.0,0.620188019846016,1730.238776067643,53.8000017216,1.4399988078400001,1.1013300352425601,1684,-22.3,99,GPS_Atti,
0.35669435182190395,36.919608331716496,25200,2017-11-13 12:27:41,1730.738776083643,54.300001737600006,0.0,0.6232500199440001,1730.738776083643,54.300001737600006,1.4399988078400001,1.1013300352425601,1684,-22.3,99,GPS_Atti,
0.35669434936621003,36.9196084064249,25300,2017-11-13 12:27:41,1731.2387760996428,54.8000017536,0.35999970196000003,0.625291020009312,1731.2387760996428,54.8000017536,1.4399988078400001,1.1013300352425601,1684,-22.3,99,GPS_Atti,
0.3566943252155711,36.9196084948945,25400,2017-11-13 12:27:41,1731.7387761156426,55.3000017696,0.35999970196000003,0.6301380201644161,1731.7387761156426,55.3000017696,1.4399988078400001,1.1013300352425601,1684,-22.3,99,GPS_Atti,
0.35669433110158205,36.9196085966445,25500,2017-11-13 12:27:41,1732.238776131643,55.8000017856,0.0,0.63224502023184,1732.238776131643,55.8000017856,1.4399988078400001,1.1013300352425601,1684,-22.3,99,GPS_Atti,
0.356694326654302,36.9196086939935,25600,2017-11-13 12:27:41,1732.7387761476427,56.3000018016,0.0,0.635524020336768,1732.7387761476427,56.3000018016,1.4399988078400001,1.1013300352425601,1684,-22.3,99,GPS_Atti,
0.35669435674061895,36.9196087636158,25700,2017-11-13 12:27:41,1733.2387761636428,56.80000181760001,0.35999970196000003,0.6344180203013761,1733.2387761636428,56.80000181760001,1.4399988078400001,1.1013300352425601,1684,-22.3,99,GPS_Atti,
0.356694371793141,36.9196088534947,25800,2017-11-13 12:27:41,1733.7387761796429,57.3000018336,0.35999970196000003,0.6356820203418241,1733.7387761796429,57.3000018336,1.4399988078400001,1.1013300352425601,1684,-22.3,99,GPS_Atti,
0.35669444733177297,36.9196089556628,25900,2017-11-13 12:27:42,1734.238776195643,57.8000018496,0.35999970196000003,0.63114002019648,1734.238776195643,57.8000018496,1.4399988078400001,1.1013300352425601,1684,-22.3,99,GPS_Atti,
0.35669449242908596,36.9196090570301,26000,2017-11-13 12:27:42,1734.7387762116427,58.30000186560001,0.35999970196000003,0.63004502016144,1734.7387762116427,58.30000186560001,1.4399988078400001,1.1013300352425601,1684,-22.3,99,GPS_Atti,
0.35669456536546507,36.9196091810512,26100,2017-11-13 12:27:42,1735.238776227643,58.8000018816,0.0,0.6271860200699522,1735.238776227643,58.8000018816,1.4399988078400001,1.1013300352425601,1684,-22.3,99,GPS_Atti,
0.356694598616663,36.9196092884656,26200,2017-11-13 12:27:42,1735.7387762436429,59.30000189760001,0.0,0.6281140200996479,1735.7387762436429,59.30000189760001,1.4399988078400001,1.1013300352425601,1684,-22.3,99,GPS_Atti,
0.35669461479281106,36.919609371285794,26300,2017-11-13 12:27:42,1736.2387762596427,59.800001913600006,0.0,0.6299670201589439,1736.2387762596427,59.800001913600006,1.4399988078400001,1.1013300352425601,1684,-22.3,99,GPS_Atti,
0.356694593916159,36.9196094286053,26400,2017-11-13 12:27:42,1736.7387762756427,60.30000192960001,0.0,0.634602020307264,1736.7387762756427,60.30000192960001,1.4399988078400001,1.1013300352425601,1684,-22.3,99,GPS_Atti,
0.35669457054065995,36.91960944715579,26500,2017-11-13 12:27:42,1737.2387762916428,60.800001945599995,0.0,0.637807020409824,1737.2387762916428,60.800001945599995,1.4399988078400001,1.1013300352425601,1684,-22.3,99,GPS_Atti,
0.356694536440228,36.919609471090396,26600,2017-11-13 12:27:42,1737.7387763076429,61.3000019616,0.0,0.6423440205550079,1737.7387763076429,61.3000019616,1.4399988078400001,1.1013300352425601,1684,-22.3,99,GPS_Atti,
0.356694523958205,36.919609482367605,26700,2017-11-13 12:27:42,1738.338776326843,61.9000019808,0.0,0.6441170206117439,1738.338776326843,61.9000019808,1.4399988078400001,1.1013300352425601,1684,-22.3,99,GPS_Atti,
0.356694478080052,36.9196094856861,26800,2017-11-13 12:27:42,1738.838776342843,62.4000019968,0.0,0.6489450207662399,1738.838776342843,62.4000019968,1.4399988078400001,1.1013300352425601,1684,-22.3,99,GPS_Atti,
0.35669448851919205,36.9196094968474,26900,2017-11-13 12:27:43,1739.3387763588428,62.9000020128,0.0,0.648374020747968,1739.3387763588428,62.9000020128,1.4399988078400001,1.1013300352425601,1684,-22.3,99,GPS_Atti,
0.356694445126045,36.9196095439659,27100,2017-11-13 12:27:43,1740.338776390843,63.900002044800004,0.0,0.6548960209566721,1740.338776390843,63.900002044800004,1.4399988078400001,1.1013300352425601,1684,-22.3,99,GPS_Atti,
0.356694393300001,36.9196095717304,27200,2017-11-13 12:27:43,1740.7387764036428,64.30000205760001,0.0,0.6614150211652801,1740.7387764036428,64.30000205760001,1.4399988078400001,1.1013300352425601,1684,-22.3,99,GPS_Atti,
0.356694350314779,36.919609547910106,27300,2017-11-13 12:27:43,1741.2387764196428,64.8000020736,0.0,0.664733021271456,1741.2387764196428,64.8000020736,1.4399988078400001,1.1013300352425601,1684,-22.3,99,GPS_Atti,
0.356694291056516,36.9196095232892,27400,2017-11-13 12:27:43,1741.7387764356429,65.3000020896,0.0,0.66971002143072,1741.7387764356429,65.3000020896,1.4399988078400001,1.1013300352425601,1684,-22.3,99,GPS_Atti,
0.35669425064830695,36.9196094884706,27500,2017-11-13 12:27:43,1742.238776451643,65.8000021056,0.0,0.6723540215153279,1742.238776451643,65.8000021056,1.4399988078400001,1.1013300352425601,1684,-22.3,99,GPS_Atti,
0.35669419545219705,36.919609459688,27600,2017-11-13 12:27:43,1742.7387764676428,66.3000021216,0.0,0.6768170216581441,1742.7387764676428,66.3000021216,1.4399988078400001,1.1013300352425601,1684,-22.3,99,GPS_Atti,
0.35669416270663107,36.9196094387017,27700,2017-11-13 12:27:43,1743.2387764836428,66.8000021376,0.0,0.679323021738336,1743.2387764836428,66.8000021376,1.4399988078400001,1.1013300352425601,1684,-22.3,99,GPS_Atti,
0.356694121555851,36.9196094213257,27800,2017-11-13 12:27:43,1743.7387764996429,67.30000215359999,0.0,0.6828630218516162,1743.7387764996429,67.30000215359999,1.4399988078400001,1.1013300352425601,1684,-22.3,99,GPS_Atti,
0.356694144242519,36.919609425752796,27900,2017-11-13 12:27:44,1744.238776515643,67.8000021696,0.0,0.680698021782336,1744.238776515643,67.8000021696,1.4399988078400001,1.1013300352425601,1684,-22.3,99,GPS_Atti,
0.35669413819529205,36.919609431278204,28000,2017-11-13 12:27:44,1744.7387765316428,68.30000218560001,0.0,0.6815490218095681,1744.7387765316428,68.30000218560001,1.4399988078400001,1.1013300352425601,1684,-22.3,99,GPS_Atti,
0.356694175590066,36.9196094037307,28100,2017-11-13 12:27:44,1745.2387765476428,68.8000022016,0.0,0.6765550216497601,1745.2387765476428,68.8000022016,1.4399988078400001,1.1013300352425601,1684,-22.3,99,GPS_Atti,
0.356694181304276,36.9196093753714,28200,2017-11-13 12:27:44,1745.738776563643,69.30000221760001,0.0,0.674812021593984,1745.738776563643,69.30000221760001,1.4399988078400001,1.1013300352425601,1684,-22.3,99,GPS_Atti,
0.35669418404087605,36.919609344081,28300,2017-11-13 12:27:44,1746.2387765796427,69.8000022336,0.0,0.6732710215446721,1746.2387765796427,69.8000022336,1.4399988078400001,1.1013300352425601,1684,-22.3,99,GPS_Atti,
0.356694144196108,36.9196093192006,28400,2017-11-13 12:27:44,1746.838776598843,70.4000022528,0.0,0.676426021645632,1746.838776598843,70.4000022528,1.4399988078400001,1.1013300352425601,1684,-22.3,99,GPS_Atti,
0.356694086643641,36.9196092716008,28500,2017-11-13 12:27:44,1747.3387766148428,70.90000226880001,0.0,0.6805820217786239,1747.3387766148428,70.90000226880001,1.4399988078400001,1.1013300352425601,1684,-22.3,99,GPS_Atti,
0.356694005810123,36.9196092365841,28600,2017-11-13 12:27:44,1747.8387766308426,71.4000022848,0.0,0.6877210220070721,1747.8387766308426,71.4000022848,1.4399988078400001,1.1013300352425601,1684,-22.3,99,GPS_Atti,
0.35669397118533297,36.919609183364294,28700,2017-11-13 12:27:44,1748.338776646843,71.9000023008,0.0,0.6894070220610241,1748.338776646843,71.9000023008,1.4399988078400001,1.1013300352425601,1684,-22.3,99,GPS_Atti,
0.35669390928329103,36.9196091422667,28800,2017-11-13 12:27:44,1748.8387766628427,72.40000231680001,0.0,0.6944650222228801,1748.8387766628427,72.40000231680001,1.4399988078400001,1.1013300352425601,1684,-22.3,99,GPS_Atti,
0.35669387332317604,36.9196090905673,28900,2017-11-13 12:27:45,1749.3387766788428,72.9000023328,0.0,0.6964760222872322,1749.3387766788428,72.9000023328,1.4399988078400001,1.1013300352425601,1684,-22.3,99,GPS_Atti,
0.35669382613819706,36.919609053953295,29000,2017-11-13 12:27:45,1749.8387766948429,73.4000023488,0.0,0.700244022407808,1749.8387766948429,73.4000023488,1.4399988078400001,1.1013300352425601,1684,-22.3,99,GPS_Atti,
0.356693812515449,36.9196090392353,29100,2017-11-13 12:27:45,1750.338776710843,73.9000023648,0.0,0.7012030224384961,1750.338776710843,73.9000023648,1.4399988078400001,1.1013300352425601,1684,-22.3,99,GPS_Atti,
0.35669376782198997,36.919609040322705,29200,2017-11-13 12:27:45,1750.8387767268428,74.4000023808,0.0,0.705987022591584,1750.8387767268428,74.4000023808,1.4399988078400001,1.1013300352425601,1684,-22.3,99,GPS_Atti,
0.35669376496407,36.9196090299707,29300,2017-11-13 12:27:45,1751.338776742843,74.9000023968,0.0,0.7059530225904961,1751.338776742843,74.9000023968,1.4399988078400001,1.1013300352425601,1684,-22.3,99,GPS_Atti,
0.356693736646243,36.919609031464,29400,2017-11-13 12:27:45,1751.8387767588429,75.40000241279999,0.0,0.709013022688416,1751.8387767588429,75.40000241279999,1.4399988078400001,1.1013300352425601,1684,-22.3,99,GPS_Atti,
0.35669372528051896,36.9196090043759,29500,2017-11-13 12:27:45,1752.3387767748427,75.90000242880001,0.0,0.7093500226992,1752.3387767748427,75.90000242880001,1.4399988078400001,1.1013300352425601,1684,-22.3,99,GPS_Atti,
0.356693695865935,36.9196089915434,29600,2017-11-13 12:27:45,1752.838776790843,76.4000024448,0.0,0.712076022786432,1752.838776790843,76.4000024448,1.4399988078400001,1.1013300352425601,1684,-22.3,99,GPS_Atti,
0.35669371343603096,36.9196089781478,29700,2017-11-13 12:27:45,1753.238776803643,76.8000024576,0.0,0.7097800227129601,1753.238776803643,76.8000024576,1.4399988078400001,1.1013300352425601,1684,-22.3,99,GPS_Atti,
0.35669369975058796,36.919608988553904,29800,2017-11-13 12:27:45,1753.738776819643,77.3000024736,0.0,0.711567022770144,1753.738776819643,77.3000024736,1.4399988078400001,1.1013300352425601,1684,-22.3,99,GPS_Atti,
