latitude,longitude,time_millisecond,datetime_utc,altitude_m,ascent_m,speed_kph,distance_m,max_altitude_m,max_ascent_m,max_speed_kph,max_distance_m,rc_throttle,gimbal_pitch_degrees,battery_percent,flycState,message
0.0736399395050219,36.872375474637,0,2018-04-12 07:16:25,1819.2178316149823,0.0,0.0,0.0,1819.2178316149823,0.0,0.0,0.0,364,0.0,99,P-GPS,
0.0736399595878075,36.8723754974556,100,2018-04-12 07:16:25,1819.2178316149823,0.0,0.0,0.00338039010817248,1819.2178316149823,0.0,0.0,0.00338039010817248,364,0.0,99,Motors_Started,
0.0736399961178775,36.8723755390662,200,2018-04-12 07:16:25,1819.2178316149823,0.0,0.0,0.00953791030521312,1819.2178316149823,0.0,0.0,0.00953791030521312,364,0.0,99,Motors_Started,
0.0736400308183906,36.8723755774094,300,2018-04-12 07:16:25,1819.2178316149823,0.0,0.0,0.0152884004892288,1819.2178316149823,0.0,0.0,0.0152884004892288,364,0.0,99,Motors_Started,
0.0736400817105224,36.8723755951948,400,2018-04-12 07:16:25,1819.2178316149823,0.0,0.0,0.0207323006634336,1819.2178316149823,0.0,0.0,0.0207323006634336,376,0.0,99,Motors_Started,
0.0736401260432818,36.8723756139332,500,2018-04-12 07:16:25,1819.2178316149823,0.0,0.0,0.025889800828473603,1819.2178316149823,0.0,0.0,0.025889800828473603,616,0.0,99,Motors_Started,Setting new Return-To-Home altitude to 30m (98 ft). Setting new Maximum Flight Altitude to 150m (492 ft)
0.0736401841665191,36.8723756506831,600,2018-04-12 07:16:25,1819.2178316149823,0.0,0.0,0.0335193010726176,1819.2178316149823,0.0,0.0,0.0335193010726176,1024,0.0,99,Motors_Started,
0.073640234519636,36.872375685862,700,2018-04-12 07:16:25,1819.2178316149823,0.0,0.0,0.040349501291184,1819.2178316149823,0.0,0.0,0.040349501291184,1024,0.0,99,Motors_Started,
0.0736402585155725,36.8723757006051,800,2018-04-12 07:16:25,1819.2178316149823,0.0,0.0,0.0434742013911744,1819.2178316149823,0.0,0.0,0.0434742013911744,1024,0.0,99,Motors_Started,
0.0736402822550291,36.8723757168202,900,2018-04-12 07:16:26,1819.2178316149823,0.0,0.0,0.0466708014934656,1819.2178316149823,0.0,0.0,0.0466708014934656,1024,0.0,99,Motors_Started,
0.0736403183543756,36.8723757142294,1000,2018-04-12 07:16:26,1819.2178316149823,0.0,0.0,0.049848501595152,1819.2178316149823,0.0,0.0,0.049848501595152,1024,0.0,99,Motors_Started,
0.073640353264958,36.8723757188909,1100,2018-04-12 07:16:26,1819.2178316149823,0.0,0.0,0.0534319017098208,1819.2178316149823,0.0,0.0,0.0534319017098208,1024,0.0,99,Motors_Started,
0.0736404012177484,36.8723757450162,1200,2018-04-12 07:16:26,1819.2178316149823,0.0,0.0,0.059501301904041605,1819.2178316149823,0.0,0.0,0.059501301904041605,1024,0.0,99,Motors_Started,
0.0736404440498966,36.8723757715714,1300,2018-04-12 07:16:26,1819.2178316149823,0.0,0.0,0.0651041020833312,1819.2178316149823,0.0,0.0,0.0651041020833312,1024,0.0,99,Motors_Started,
0.0736404615467131,36.8723757808168,1400,2018-04-12 07:16:26,1819.2178316149823,0.0,0.0,0.06730250215368,1819.2178316149823,0.0,0.0,0.06730250215368,1024,0.0,99,Motors_Started,
0.0736404801736698,36.8723757921609,1500,2018-04-12 07:16:26,1819.2178316149823,0.0,0.0,0.06972750223128,1819.2178316149823,0.0,0.0,0.06972750223128,1024,0.0,99,Motors_Started,
0.0736405124624573,36.8723758263826,1600,2018-04-12 07:16:26,1819.2178316149823,0.0,0.0,0.0747653023924896,1819.2178316149823,0.0,0.0,0.0747653023924896,1024,0.0,99,Assisted_Takeoff,
0.0736405445590885,36.8723758588254,1700,2018-04-12 07:16:26,1819.2178316149823,0.0,0.0,0.0797039025505248,1819.2178316149823,0.0,0.0,0.0797039025505248,1024,0.0,99,Assisted_Takeoff,
0.0736405542971836,36.8723758760581,1800,2018-04-12 07:16:26,1819.2178316149823,0.0,0.0,0.08165190261286082,1819.2178316149823,0.0,0.0,0.08165190261286082,1024,0.0,99,Assisted_Takeoff,
0.0736405668866842,36.872375893477,1900,2018-04-12 07:16:27,1819.2178316149823,0.0,0.0,0.0838876026844032,1819.2178316149823,0.0,0.0,0.0838876026844032,1024,0.0,99,Assisted_Takeoff,
0.0736405951475155,36.872375930061,2000,2018-04-12 07:16:27,1819.2178316149823,0.0,0.0,0.088775502840816,1819.2178316149823,0.0,0.0,0.088775502840816,1024,0.0,99,Assisted_Takeoff,
0.0736406231249976,36.8723759654002,2100,2018-04-12 07:16:27,1819.2178316149823,0.0,0.0,0.09358400299468801,1819.2178316149823,0.0,0.0,0.09358400299468801,1024,0.0,99,Assisted_Takeoff,
0.0736406328174963,36.8723760186674,2200,2018-04-12 07:16:27,1819.2178316149823,0.0,0.0,0.098003503136112,1819.2178316149823,0.0,0.0,0.098003503136112,1024,0.0,99,Assisted_Takeoff,
0.073640642660626,36.8723760664121,2300,2018-04-12 07:16:27,1819.2178316149823,0.0,0.0,0.102202003270464,1819.2178316149823,0.0,0.0,0.102202003270464,1024,0.0,99,Assisted_Takeoff,
0.0736406727005324,36.8723760947516,2400,2018-04-12 07:16:27,1819.2178316149823,0.0,0.0,0.106788003417216,1819.2178316149823,0.0,0.0,0.106788003417216,1024,0.0,99,Assisted_Takeoff,
0.0736407013774312,36.872376120165,2500,2018-04-12 07:16:27,1819.2178316149823,0.0,0.0,0.11104800355353601,1819.2178316149823,0.0,0.0,0.11104800355353601,1024,0.0,99,Assisted_Takeoff,
0.0736407132121479,36.8723761237662,2600,2018-04-12 07:16:27,1819.2178316149823,0.0,0.0,0.11231200359398401,1819.2178316149823,0.0,0.0,0.11231200359398401,1024,0.0,99,Assisted_Takeoff,
0.0736407246275404,36.8723761319763,2700,2018-04-12 07:16:27,1819.2178316149823,0.0,0.0,0.11387200364390401,1819.2178316149823,0.0,0.0,0.11387200364390401,1024,0.0,99,Assisted_Takeoff,
0.0736407583053907,36.8723761583244,2800,2018-04-12 07:16:27,1819.2178316149823,0.0,0.0,0.118624003795968,1819.2178316149823,0.0,0.0,0.118624003795968,1024,0.0,99,Assisted_Takeoff,
0.0736407887377521,36.8723761868389,2900,2018-04-12 07:16:28,1819.2178316149823,0.0,0.0,0.12325500394416002,1819.2178316149823,0.0,0.0,0.12325500394416002,1024,0.0,99,Assisted_Takeoff,
0.0736408032121765,36.8723761970085,3000,2018-04-12 07:16:28,1819.2178316149823,0.0,0.0,0.12521500400688002,1819.2178316149823,0.0,0.0,0.12521500400688002,1024,0.0,99,Assisted_Takeoff,
0.0736408159840628,36.8723762095842,3100,2018-04-12 07:16:28,1819.2178316149823,0.0,0.0,0.127202004070464,1819.2178316149823,0.0,0.0,0.127202004070464,1024,0.0,99,Assisted_Takeoff,
0.0736408146234979,36.872376242164,3200,2018-04-12 07:16:28,1819.2178316149823,0.0,0.0,0.12944500414224,1819.2178316149823,0.0,0.0,0.12944500414224,1024,0.0,99,Assisted_Takeoff,
0.0736408158073767,36.8723762752773,3300,2018-04-12 07:16:28,1819.2178316149823,0.0,0.0,0.13200000422400002,1819.2178316149823,0.0,0.0,0.13200000422400002,1024,0.0,99,Assisted_Takeoff,
0.0736408434534704,36.8723762912413,3400,2018-04-12 07:16:28,1819.2178316149823,0.0,0.0,0.135469004335008,1819.2178316149823,0.0,0.0,0.135469004335008,1024,0.0,99,Assisted_Takeoff,
0.0736408692724499,36.8723763085374,3500,2018-04-12 07:16:28,1819.2178316149823,0.0,0.0,0.13889000444448002,1819.2178316149823,0.0,0.0,0.13889000444448002,1024,0.0,99,Assisted_Takeoff,
0.0736408840375517,36.8723763451,3600,2018-04-12 07:16:28,1819.2178316149823,0.0,0.0,0.14284000457088,1819.2178316149823,0.0,0.0,0.14284000457088,1024,0.0,99,Assisted_Takeoff,
0.0736408965635429,36.8723763800377,3700,2018-04-12 07:16:28,1819.2178316149823,0.0,0.0,0.14651000468832,1819.2178316149823,0.0,0.0,0.14651000468832,1024,0.0,99,Assisted_Takeoff,
0.0736409347098435,36.8723763956613,3800,2018-04-12 07:16:28,1819.2178316149823,0.0,0.0,0.15079500482544,1819.2178316149823,0.0,0.0,0.15079500482544,1024,0.0,99,Assisted_Takeoff,
0.0736409670344569,36.872376412473,3900,2018-04-12 07:16:28,1819.2178316149823,0.0,0.0,0.154706004950592,1819.2178316149823,0.0,0.0,0.154706004950592,1024,0.0,99,Assisted_Takeoff,
0.0736409856964251,36.872376411123,4000,2018-04-12 07:16:29,1819.2178316149823,0.0,0.0,0.15614500499664,1819.2178316149823,0.0,0.0,0.15614500499664,1024,0.0,99,Assisted_Takeoff,
0.0736410013172741,36.8723764160538,4100,2018-04-12 07:16:29,1819.2178316149823,0.0,0.0,0.15780700504982403,1819.2178316149823,0.0,0.0,0.15780700504982403,1024,0.0,99,Assisted_Takeoff,
0.0736410042346315,36.8723764065961,4200,2018-04-12 07:16:29,1819.2178316149823,0.0,0.0,0.15735500503536,1819.2178316149823,0.0,0.0,0.15780700504982403,1024,0.0,99,Assisted_Takeoff,
0.0736410086078179,36.8723764041713,4300,2018-04-12 07:16:29,1819.2178316149823,0.0,0.0,0.15754500504144,1819.2178316149823,0.0,0.0,0.15780700504982403,1024,0.0,99,Assisted_Takeoff,
0.0736410028634817,36.872376426244,4400,2018-04-12 07:16:29,1819.2178316149823,0.0,0.0,0.158689005078048,1819.2178316149823,0.0,0.0,0.158689005078048,1024,0.0,99,Assisted_Takeoff,
0.0736410000536016,36.8723764504396,4500,2018-04-12 07:16:29,1819.2178316149823,0.0,0.0,0.16026600512851202,1819.2178316149823,0.0,0.0,0.16026600512851202,1024,0.0,99,Assisted_Takeoff,
0.0736410250599876,36.8723764626411,4600,2018-04-12 07:16:29,1819.2178316149823,0.0,0.0,0.163234005223488,1819.2178316149823,0.0,0.0,0.163234005223488,1024,0.0,99,Assisted_Takeoff,
0.0736410475023885,36.8723764748472,4700,2018-04-12 07:16:29,1819.2178316149823,0.0,0.0,0.16599400531180802,1819.2178316149823,0.0,0.0,0.16599400531180802,1024,0.0,99,Assisted_Takeoff,
0.0736410611748043,36.8723764751957,4800,2018-04-12 07:16:29,1819.2178316149823,0.0,0.0,0.16715200534886399,1819.2178316149823,0.0,0.0,0.16715200534886399,1024,0.0,99,Assisted_Takeoff,
0.0736410704398364,36.8723764792687,4900,2018-04-12 07:16:30,1819.2178316149823,0.0,0.0,0.168223005383136,1819.2178316149823,0.0,0.0,0.168223005383136,1024,0.0,99,Assisted_Takeoff,
0.0736410713134966,36.8723765097242,5000,2018-04-12 07:16:30,1819.2178316149823,0.0,0.0,0.17056300545801603,1819.2178316149823,0.0,0.0,0.17056300545801603,1024,0.0,99,Assisted_Takeoff,
0.0736410716562841,36.8723765384334,5100,2018-04-12 07:16:30,1819.2178316149823,0.0,0.0,0.17276100552835202,1819.2178316149823,0.0,0.0,0.17276100552835202,1024,0.0,99,Assisted_Takeoff,
0.0736411019274296,36.872376554531,5200,2018-04-12 07:16:30,1819.2178316149823,0.0,0.0,0.176443005646176,1819.2178316149823,0.0,0.0,0.176443005646176,1024,0.0,99,Assisted_Takeoff,
0.0736411301679054,36.8723765717682,5300,2018-04-12 07:16:30,1819.2178316149823,0.0,0.0,0.18005000576160002,1819.2178316149823,0.0,0.0,0.18005000576160002,1024,0.0,99,Assisted_Takeoff,
0.0736411437287727,36.8723766085486,5400,2018-04-12 07:16:30,1819.2178316149823,0.0,0.0,0.183941005886112,1819.2178316149823,0.0,0.0,0.183941005886112,1024,0.0,99,Assisted_Takeoff,
0.0736411542224659,36.8723766445277,5500,2018-04-12 07:16:30,1819.2178316149823,0.0,0.0,0.187546006001472,1819.2178316149823,0.0,0.0,0.187546006001472,1024,0.0,99,Assisted_Takeoff,
0.0736411914959205,36.8723766656969,5600,2018-04-12 07:16:30,1819.2178316149823,0.0,0.0,0.19216800614937601,1819.2178316149823,0.0,0.0,0.19216800614937601,1026,0.0,99,Assisted_Takeoff,
0.0736412220675139,36.8723766849214,5700,2018-04-12 07:16:30,1819.2178316149823,0.0,0.0,0.196106006275392,1819.2178316149823,0.0,0.0,0.196106006275392,1031,0.0,99,Assisted_Takeoff,
0.073641242933581,36.8723766911256,5800,2018-04-12 07:16:30,1819.2178316149823,0.0,0.0,0.19827000634464,1819.2178316149823,0.0,0.0,0.19827000634464,1025,0.0,99,Assisted_Takeoff,
0.0736412565319026,36.8723766980438,5900,2018-04-12 07:16:30,1819.2178316149823,0.0,0.0,0.19990100639683203,1819.2178316149823,0.0,0.0,0.19990100639683203,1024,0.0,99,Assisted_Takeoff,
0.0736412931751494,36.8723767237386,6000,2018-04-12 07:16:31,1819.2178316149823,0.0,0.0,0.204833006554656,1819.2178316149823,0.0,0.0,0.204833006554656,1024,0.0,99,Assisted_Takeoff,
0.0736413256284099,36.8723767546871,6100,2018-04-12 07:16:31,1819.2178316149823,0.0,0.0,0.209819006714208,1819.2178316149823,0.0,0.0,0.209819006714208,1024,0.0,99,Assisted_Takeoff,
0.0736413524570247,36.8723767740116,6200,2018-04-12 07:16:31,1819.2178316149823,0.0,0.0,0.21347000683104,1819.2178316149823,0.0,0.0,0.21347000683104,1024,0.0,99,Assisted_Takeoff,
0.0736413676593636,36.8723767913736,6300,2018-04-12 07:16:31,1819.2178316149823,0.0,0.0,0.21602100691267204,1819.2178316149823,0.0,0.0,0.21602100691267204,1026,0.0,99,Assisted_Takeoff,
0.0736413732579541,36.8723768282769,6400,2018-04-12 07:16:31,1819.2178316149823,0.0,0.0,0.21927600701683203,1819.2178316149823,0.0,0.0,0.21927600701683203,1045,0.0,99,Assisted_Takeoff,
0.0736413767509665,36.8723768643542,6500,2018-04-12 07:16:31,1819.2178316149823,0.0,0.0,0.22232800711449602,1819.2178316149823,0.0,0.0,0.22232800711449602,1077,0.0,99,Assisted_Takeoff,
0.0736414052772342,36.8723768843136,6600,2018-04-12 07:16:31,1819.2178316149823,0.0,0.0,0.22615300723689602,1819.2178316149823,0.0,0.0,0.22615300723689602,1073,0.0,99,Assisted_Takeoff,
0.0736414307176005,36.8723769024694,6700,2018-04-12 07:16:31,1819.2178316149823,0.0,0.0,0.22959200734694402,1819.2178316149823,0.0,0.0,0.22959200734694402,1078,0.0,99,Assisted_Takeoff,
0.0736414491874124,36.8723769047799,6800,2018-04-12 07:16:31,1819.2178316149823,0.0,0.0,0.231256007400192,1819.2178316149823,0.0,0.0,0.231256007400192,1098,0.0,99,Assisted_Takeoff,
0.0736414594140407,36.8723769126066,6900,2018-04-12 07:16:32,1819.2178316149823,0.0,0.0,0.232681007445792,1819.2178316149823,0.0,0.0,0.232681007445792,1108,0.0,99,Assisted_Takeoff,
0.073641497111705,36.8723769415601,7000,2018-04-12 07:16:32,1819.2178316149823,0.0,0.0,0.237939007614048,1819.2178316149823,0.0,0.0,0.237939007614048,1115,0.0,99,Assisted_Takeoff,
0.0736415260638108,36.8723769726834,7100,2018-04-12 07:16:32,1819.2178316149823,0.0,0.0,0.24265600776499202,1819.2178316149823,0.0,0.0,0.24265600776499202,1126,0.0,99,Assisted_Takeoff,
0.0736415444758128,36.8723769882588,7200,2018-04-12 07:16:32,1819.2178316149823,0.0,0.0,0.245334007850688,1819.2178316149823,0.0,0.0,0.245334007850688,1132,0.0,99,Assisted_Takeoff,
0.0736415563569402,36.8723770044838,7300,2018-04-12 07:16:32,1819.2178316149823,0.0,0.0,0.247534007921088,1819.2178316149823,0.0,0.0,0.247534007921088,1151,0.0,99,Assisted_Takeoff,
0.0736415945968764,36.8723770047951,7400,2018-04-12 07:16:32,1819.2178316149823,0.0,0.0,0.250663008021216,1819.2178316149823,0.0,0.0,0.250663008021216,1182,0.0,99,Assisted_Takeoff,
0.0736416228984188,36.8723770113443,7500,2018-04-12 07:16:32,1819.2178316149823,0.0,0.0,0.25347400811116805,1819.2178316149823,0.0,0.0,0.25347400811116805,1199,0.0,99,Assisted_Takeoff,
0.0736416436342105,36.8723770043768,7600,2018-04-12 07:16:32,1819.2178316149823,0.0,0.0,0.254663008149216,1819.2178316149823,0.0,0.0,0.254663008149216,1218,0.0,99,Assisted_Takeoff,
0.0736416553419086,36.8723770041378,7700,2018-04-12 07:16:32,1819.2178316149823,0.0,0.0,0.25561600817971203,1819.2178316149823,0.0,0.0,0.25561600817971203,1244,0.0,99,Assisted_Takeoff,
0.073641666632725,36.8723770185958,7800,2018-04-12 07:16:32,1819.2178316149823,0.0,0.0,0.257623008243936,1819.2178316149823,0.0,0.0,0.257623008243936,1250,0.0,99,Assisted_Takeoff,
0.0736417275992256,36.8723770369087,7900,2018-04-12 07:16:32,1819.2178316149823,0.0,0.35999970196000003,0.26405200844966403,1819.2178316149823,0.0,0.35999970196000003,0.26405200844966403,1251,0.0,99,P-GPS,
0.0736418878242731,36.8723770629858,8000,2018-04-12 07:16:33,1819.2178316149823,0.0,0.35999970196000003,0.27954100894531203,1819.2178316149823,0.0,0.35999970196000003,0.27954100894531203,1242,0.0,99,P-GPS,
0.0736420654671577,36.8723770887279,8100,2018-04-12 07:16:33,1819.2178316149823,0.0,0.35999970196000003,0.296839009498848,1819.2178316149823,0.0,0.35999970196000003,0.296839009498848,1244,0.0,99,P-GPS,
0.0736422450340487,36.8723770955999,8200,2018-04-12 07:16:33,1819.3178316181823,0.1000000032,0.35999970196000003,0.31341501002928,1819.3178316181823,0.1000000032,0.35999970196000003,0.31341501002928,1244,0.0,99,P-GPS,
0.0736423879161677,36.872377105106,8300,2018-04-12 07:16:33,1819.4178316213822,0.2000000064,0.35999970196000003,0.327126010468032,1819.4178316213822,0.2000000064,0.35999970196000003,0.327126010468032,1252,0.0,99,P-GPS,
0.0736425457604301,36.8723771236057,8400,2018-04-12 07:16:33,1819.4178316213822,0.2000000064,0.35999970196000003,0.34297001097504004,1819.4178316213822,0.2000000064,0.35999970196000003,0.34297001097504004,1252,0.0,99,P-GPS,
0.0736426825603107,36.8723771254254,8500,2018-04-12 07:16:33,1819.5178316245824,0.3000000096,0.0,0.356024011392768,1819.5178316245824,0.3000000096,0.35999970196000003,0.356024011392768,1269,0.0,99,P-GPS,
0.0736428217808734,36.8723771070694,8600,2018-04-12 07:16:33,1819.6178316277824,0.4000000128,0.0,0.36836501178768,1819.6178316277824,0.4000000128,0.35999970196000003,0.36836501178768,1287,0.0,99,P-GPS,Home Point Recorded. RTH Altitude:  30m.
0.0736429351213898,36.8723770998624,8700,2018-04-12 07:16:33,1819.7178316309821,0.500000016,0.0,0.37900001212800005,1819.7178316309821,0.500000016,0.35999970196000003,0.37900001212800005,1309,0.0,99,P-GPS,
0.0736430278914016,36.8723770489164,8800,2018-04-12 07:16:33,1819.817831634182,0.6000000192,0.0,0.385494012335808,1819.817831634182,0.6000000192,0.35999970196000003,0.385494012335808,1336,0.0,99,P-GPS,
0.0736431011217139,36.8723770336924,8900,2018-04-12 07:16:34,1819.9178316373823,0.7000000224,0.0,0.39201501254448,1819.9178316373823,0.7000000224,0.35999970196000003,0.39201501254448,1382,0.0,99,P-GPS,
0.073643167800796,36.8723770042087,9000,2018-04-12 07:16:34,1820.0178316405822,0.8000000256,0.0,0.39726401271244804,1820.0178316405822,0.8000000256,0.35999970196000003,0.39726401271244804,1417,0.0,99,P-GPS,
0.0736432078442339,36.8723769739932,9100,2018-04-12 07:16:34,1820.2178316469822,1.000000032,0.0,0.39988001279616003,1820.2178316469822,1.000000032,0.35999970196000003,0.39988001279616003,1428,0.0,99,P-GPS,
0.0736432590091301,36.8723769990965,9200,2018-04-12 07:16:34,1820.3178316501824,1.1000000352000001,0.0,0.40621601299891197,1820.3178316501824,1.1000000352000001,0.35999970196000003,0.40621601299891197,1512,0.0,99,P-GPS,
0.0736433321800042,36.8723770594679,9300,2018-04-12 07:16:34,1820.5178316565823,1.3000000416000002,0.0,0.416421013325472,1820.5178316565823,1.3000000416000002,0.35999970196000003,0.416421013325472,1621,0.0,99,P-GPS,
0.0736434760245336,36.8723770664762,9400,2018-04-12 07:16:34,1820.7178316629822,1.5000000480000002,0.0,0.431286013801152,1820.7178316629822,1.5000000480000002,0.35999970196000003,0.431286013801152,1632,0.0,99,P-GPS,
0.0736436079179124,36.8723770517502,9500,2018-04-12 07:16:34,1821.0178316725821,1.8000000576000001,0.0,0.444053014209696,1821.0178316725821,1.8000000576000001,0.35999970196000003,0.444053014209696,1615,0.0,99,P-GPS,
0.0736437661131045,36.8723771042865,9600,2018-04-12 07:16:34,1821.3178316821823,2.1000000672000003,0.0,0.4625250148008,1821.3178316821823,2.1000000672000003,0.35999970196000003,0.4625250148008,1612,0.0,99,P-GPS,
0.0736439293743859,36.8723772057212,9700,2018-04-12 07:16:34,1821.6178316917822,2.4000000768,0.35999970196000003,0.48366001547712,1821.6178316917822,2.4000000768,0.35999970196000003,0.48366001547712,1612,0.0,99,P-GPS,
0.0736440915193688,36.8723773340545,9800,2018-04-12 07:16:34,1822.0178317045822,2.8000000896,0.0,0.505916016189312,1822.0178317045822,2.8000000896,0.35999970196000003,0.505916016189312,1627,0.0,99,P-GPS,
0.0736442076314969,36.8723774238131,9900,2018-04-12 07:16:34,1822.4178317173821,3.2000001024,0.0,0.52179501669744,1822.4178317173821,3.2000001024,0.35999970196000003,0.52179501669744,1634,0.0,99,P-GPS,
0.0736443320535747,36.8723775464654,10000,2018-04-12 07:16:35,1822.8178317301822,3.6000001152000003,0.0,0.540088017282816,1822.8178317301822,3.6000001152000003,0.35999970196000003,0.540088017282816,1644,0.0,99,P-GPS,
0.0736444139830349,36.8723776533445,10100,2018-04-12 07:16:35,1823.317831746182,4.100000131200001,0.0,0.553441017710112,1823.317831746182,4.100000131200001,0.35999970196000003,0.553441017710112,1652,0.0,99,P-GPS,
0.0736444813436208,36.8723777412066,10200,2018-04-12 07:16:35,1823.7178317589824,4.500000144,0.0,0.564481018063392,1823.7178317589824,4.500000144,0.35999970196000003,0.564481018063392,1652,0.0,99,P-GPS,
0.0736445232084733,36.8723778118791,10300,2018-04-12 07:16:35,1824.2178317749822,5.00000016,0.0,0.572177018309664,1824.2178317749822,5.00000016,0.35999970196000003,0.572177018309664,1670,0.0,99,P-GPS,
0.0736445507878009,36.8723779037713,10400,2018-04-12 07:16:35,1824.7178317909822,5.5000001759999995,0.0,0.579603018547296,1824.7178317909822,5.5000001759999995,0.35999970196000003,0.579603018547296,1684,0.0,99,P-GPS,
0.0736445560989709,36.8723779912544,10500,2018-04-12 07:16:35,1825.117831803782,5.9000001888,0.0,0.5847190187110081,1825.117831803782,5.9000001888,0.35999970196000003,0.5847190187110081,1684,0.0,99,P-GPS,
0.0736445317073225,36.8723780335472,10600,2018-04-12 07:16:35,1825.6178318197822,6.4000002048,0.0,0.5846130187076161,1825.6178318197822,6.4000002048,0.35999970196000003,0.5847190187110081,1684,0.0,99,P-GPS,
0.0736445094538211,36.8723780859205,10700,2018-04-12 07:16:35,1826.1178318357822,6.900000220800001,0.0,0.585321018730272,1826.1178318357822,6.900000220800001,0.35999970196000003,0.585321018730272,1684,0.0,99,P-GPS,
0.073644524549497,36.8723781355499,10800,2018-04-12 07:16:35,1826.6178318517823,7.4000002368,0.0,0.58953001886496,1826.6178318517823,7.4000002368,0.35999970196000003,0.58953001886496,1684,0.0,99,P-GPS,
0.073644521248641,36.8723781947748,10900,2018-04-12 07:16:36,1827.1178318677821,7.9000002528,0.0,0.5925470189615041,1827.1178318677821,7.9000002528,0.35999970196000003,0.5925470189615041,1684,0.0,99,P-GPS,
0.0736445121651804,36.8723782359312,11000,2018-04-12 07:16:36,1827.6178318837824,8.400000268800001,0.0,0.594032019009024,1827.6178318837824,8.400000268800001,0.35999970196000003,0.594032019009024,1684,0.0,99,P-GPS,
0.0736444847861514,36.8723782755459,11100,2018-04-12 07:16:36,1828.1178318997822,8.9000002848,0.0,0.5937270189992641,1828.1178318997822,8.9000002848,0.35999970196000003,0.594032019009024,1684,0.0,99,P-GPS,
0.0736444256231526,36.8723782954826,11200,2018-04-12 07:16:36,1828.617831915782,9.4000003008,0.0,0.589313018858016,1828.617831915782,9.4000003008,0.35999970196000003,0.594032019009024,1684,0.0,99,P-GPS,
0.073644342302187,36.8723783206575,11300,2018-04-12 07:16:36,1829.1178319317823,9.900000316800002,0.0,0.58300501865616,1829.1178319317823,9.900000316800002,0.35999970196000003,0.594032019009024,1684,0.0,99,P-GPS,
0.0736442363694624,36.872378304743,11400,2018-04-12 07:16:36,1829.6178319477822,10.400000332800001,0.0,0.572172018309504,1829.6178319477822,10.400000332800001,0.35999970196000003,0.594032019009024,1684,0.0,99,P-GPS,
0.0736441275161234,36.8723783001728,11500,2018-04-12 07:16:36,1830.1178319637822,10.9000003488,0.0,0.561817017978144,1830.1178319637822,10.9000003488,0.35999970196000003,0.594032019009024,1684,0.0,99,P-GPS,
0.0736440123183666,36.8723783103282,11600,2018-04-12 07:16:36,1830.6178319797823,11.4000003648,0.0,0.5518890176604481,1830.6178319797823,11.4000003648,0.35999970196000003,0.594032019009024,1684,0.0,99,P-GPS,
0.0736439140743403,36.8723783364891,11700,2018-04-12 07:16:36,1831.1178319957824,11.9000003808,0.0,0.544653017428896,1831.1178319957824,11.9000003808,0.35999970196000003,0.594032019009024,1684,0.0,99,P-GPS,
0.0736438589979216,36.8723783080345,11800,2018-04-12 07:16:36,1831.6178320117822,12.400000396800001,0.0,0.53783501721072,1831.6178320117822,12.400000396800001,0.35999970196000003,0.594032019009024,1684,0.0,99,P-GPS,
0.0736437898468615,36.8723782789776,11900,2018-04-12 07:16:37,1832.117832027782,12.9000004128,0.0,0.5297130169508161,1832.117832027782,12.9000004128,0.35999970196000003,0.594032019009024,1684,0.0,99,P-GPS,
0.0736436351283974,36.8723782443084,12100,2018-04-12 07:16:37,1833.1178320597821,13.9000004448,0.0,0.513583016434656,1833.1178320597821,13.9000004448,0.35999970196000003,0.594032019009024,1684,0.0,99,P-GPS,
0.0736435701583672,36.8723781848014,12200,2018-04-12 07:16:37,1833.5178320725822,14.300000457600001,0.0,0.503834016122688,1833.5178320725822,14.300000457600001,0.35999970196000003,0.594032019009024,1684,0.0,99,P-GPS,
0.0736435025136178,36.8723781423865,12300,2018-04-12 07:16:37,1834.017832088582,14.8000004736,0.0,0.49498501583952004,1834.017832088582,14.8000004736,0.35999970196000003,0.594032019009024,1684,0.0,99,P-GPS,
0.0736434476953076,36.8723781182077,12400,2018-04-12 07:16:37,1834.5178321045823,15.3000004896,0.0,0.48849601563187206,1834.5178321045823,15.3000004896,0.35999970196000003,0.594032019009024,1684,0.0,99,P-GPS,
0.073643388305955,36.872378103314,12500,2018-04-12 07:16:37,1835.1178321237821,15.900000508800002,0.0,0.482231015431392,1835.1178321237821,15.900000508800002,0.35999970196000003,0.594032019009024,1684,0.0,99,P-GPS,
0.0736433575055652,36.872378057271,12600,2018-04-12 07:16:37,1835.6178321397824,16.400000524800003,0.0,0.476408015245056,1835.6178321397824,16.400000524800003,0.35999970196000003,0.594032019009024,1684,0.0,99,P-GPS,
0.0736433084267058,36.872378019905,12700,2018-04-12 07:16:37,1836.1178321557823,16.9000005408,0.0,0.46954801502553606,1836.1178321557823,16.9000005408,0.35999970196000003,0.594032019009024,1684,0.0,99,P-GPS,
0.0736432370161797,36.8723779895217,12800,2018-04-12 07:16:37,1836.617832171782,17.400000556800002,0.0,0.46118001475776005,1836.617832171782,17.400000556800002,0.35999970196000003,0.594032019009024,1684,-0.2,99,P-GPS,
0.0736431681460262,36.8723779645261,12900,2018-04-12 07:16:38,1837.1178321877824,17.9000005728,0.0,0.45341101450915205,1837.1178321877824,17.9000005728,0.35999970196000003,0.594032019009024,1684,-0.7,99,P-GPS,
0.0736431655055042,36.8723779462333,13000,2018-04-12 07:16:38,1837.6178322037822,18.4000005888,0.0,0.45193801446201604,1837.6178322037822,18.4000005888,0.35999970196000003,0.594032019009024,1684,-1.7,99,P-GPS,
0.0736431602024764,36.8723779286047,13100,2018-04-12 07:16:38,1838.1178322197823,18.900000604800002,0.0,0.45028001440896004,1838.1178322197823,18.900000604800002,0.35999970196000003,0.594032019009024,1684,-3.8,99,P-GPS,
0.07364319774381,36.8723779294034,13200,2018-04-12 07:16:38,1838.617832235782,19.4000006208,0.0,0.453661014517152,1838.617832235782,19.4000006208,0.35999970196000003,0.594032019009024,1684,-7.0,99,P-GPS,
0.0736432079272846,36.8723779321034,13300,2018-04-12 07:16:38,1839.1178322517824,19.900000636799998,0.0,0.454746014551872,1839.1178322517824,19.900000636799998,0.35999970196000003,0.594032019009024,1684,-10.7,99,P-GPS,
0.073643190125949,36.8723778776398,13400,2018-04-12 07:16:38,1839.6178322677822,20.4000006528,0.0,0.449539014385248,1839.6178322677822,20.4000006528,0.35999970196000003,0.594032019009024,1673,-14.4,99,P-GPS,
0.0736431464787646,36.8723778338295,13500,2018-04-12 07:16:38,1840.1178322837823,20.900000668800004,0.0,0.44274101416771205,1840.1178322837823,20.900000668800004,0.35999970196000003,0.594032019009024,1663,-17.4,99,P-GPS,
0.0736431291985311,36.8723778076921,13600,2018-04-12 07:16:38,1840.6178322997823,21.400000684800002,0.0,0.43947201406310404,1840.6178322997823,21.400000684800002,0.35999970196000003,0.594032019009024,1659,-17.6,99,P-GPS,
0.0736431141044837,36.8723777927962,13700,2018-04-12 07:16:38,1841.1178323157822,21.900000700800003,0.0,0.43713901398844807,1841.1178323157822,21.900000700800003,0.35999970196000003,0.594032019009024,1646,-17.6,99,P-GPS,
0.0736431344714328,36.8723777856164,13800,2018-04-12 07:16:38,1841.6178323317822,22.4000007168,0.0,0.43850201403206407,1841.6178323317822,22.4000007168,0.35999970196000003,0.594032019009024,1650,-17.6,99,P-GPS,
0.0736431383251455,36.8723777776081,13900,2018-04-12 07:16:39,1842.1178323477823,22.900000732800002,0.0,0.4383290140265281,1842.1178323477823,22.900000732800002,0.35999970196000003,0.594032019009024,1650,-17.6,99,P-GPS,
0.0736431618504617,36.8723777709839,14000,2018-04-12 07:16:39,1842.5178323605824,23.300000745600002,0.0,0.440027014080864,1842.5178323605824,23.300000745600002,0.35999970196000003,0.594032019009024,1644,-17.6,99,P-GPS,
0.0736431823134889,36.8723777645434,14100,2018-04-12 07:16:39,1843.0178323765822,23.8000007616,0.0,0.441468014126976,1843.0178323765822,23.8000007616,0.35999970196000003,0.594032019009024,1636,-17.6,99,P-GPS,
0.0736432598656916,36.8723777335033,14200,2018-04-12 07:16:39,1843.5178323925822,24.3000007776,0.0,0.44659001429088,1843.5178323925822,24.3000007776,0.35999970196000003,0.594032019009024,1634,-17.6,99,P-GPS,
0.073643308603392,36.8723777097892,14300,2018-04-12 07:16:39,1844.0178324085823,24.800000793600002,0.0,0.44961801438777604,1844.0178324085823,24.800000793600002,0.35999970196000003,0.594032019009024,1632,-17.6,99,P-GPS,
0.0736433877172725,36.8723776963444,14400,2018-04-12 07:16:39,1844.4178324213824,25.2000008064,0.0,0.456164014597248,1844.4178324213824,25.2000008064,0.35999970196000003,0.594032019009024,1632,-17.6,99,P-GPS,
0.0736434358516344,36.8723776927505,14500,2018-04-12 07:16:39,1844.9178324373822,25.7000008224,0.0,0.46045801473465603,1844.9178324373822,25.7000008224,0.35999970196000003,0.594032019009024,1632,-17.6,99,P-GPS,
0.0736435416207004,36.8723776529436,14600,2018-04-12 07:16:39,1845.3178324501823,26.100000835200003,0.0,0.46812701498006404,1845.3178324501823,26.100000835200003,0.35999970196000003,0.594032019009024,1632,-17.6,99,P-GPS,
0.0736436304132378,36.8723776024743,14700,2018-04-12 07:16:39,1845.7178324629822,26.500000848000003,0.0,0.473776015160832,1845.7178324629822,26.500000848000003,0.35999970196000003,0.594032019009024,1640,-17.6,99,P-GPS,
0.0736437502691586,36.8723775488266,14800,2018-04-12 07:16:39,1846.2178324789822,27.000000864,0.0,0.48248801543961606,1846.2178324789822,27.000000864,0.35999970196000003,0.594032019009024,1662,-17.6,99,P-GPS,
0.0736438324876676,36.8723775008897,14900,2018-04-12 07:16:40,1846.7178324949823,27.50000088,0.0,0.488054015617728,1846.7178324949823,27.50000088,0.35999970196000003,0.594032019009024,1670,-17.6,99,P-GPS,
0.0736439133871369,36.8723774476745,15000,2018-04-12 07:16:40,1847.1178325077824,27.9000008928,0.0,0.493392015788544,1847.1178325077824,27.9000008928,0.35999970196000003,0.594032019009024,1684,-17.6,99,P-GPS,
0.0736439797649569,36.8723774183002,15100,2018-04-12 07:16:40,1847.6178325237822,28.4000009088,0.0,0.49858901595484806,1847.6178325237822,28.4000009088,0.35999970196000003,0.594032019009024,1684,-17.6,99,P-GPS,
0.0736440906603646,36.8723774018279,15200,2018-04-12 07:16:40,1848.1178325397823,28.9000009248,0.0,0.508957016286624,1848.1178325397823,28.9000009248,0.35999970196000003,0.594032019009024,1684,-17.6,99,P-GPS,
0.0736441806530652,36.8723773951256,15300,2018-04-12 07:16:40,1848.6178325557823,29.4000009408,0.0,0.517743016567776,1848.6178325557823,29.4000009408,0.35999970196000003,0.594032019009024,1684,-17.6,99,P-GPS,
0.0736442465285102,36.8723773954901,15400,2018-04-12 07:16:40,1849.1178325717824,29.900000956800003,0.0,0.5244420167821441,1849.1178325717824,29.900000956800003,0.35999970196000003,0.594032019009024,1684,-17.6,99,P-GPS,
0.0736442507412949,36.8723773849927,15500,2018-04-12 07:16:40,1849.7178325909822,30.500000976,0.0,0.524396016780672,1849.7178325909822,30.500000976,0.35999970196000003,0.594032019009024,1684,-17.6,99,P-GPS,
0.073644259984343,36.8723773611469,15600,2018-04-12 07:16:40,1850.2178326069823,31.000000992,0.0,0.5242690167766081,1850.2178326069823,31.000000992,0.35999970196000003,0.594032019009024,1684,-17.6,99,P-GPS,
0.0736442462956428,36.8723773342247,15700,2018-04-12 07:16:40,1850.7178326229823,31.500001007999998,0.0,0.5216800166937601,1850.7178326229823,31.500001007999998,0.35999970196000003,0.594032019009024,1684,-17.6,99,P-GPS,
0.0736442326623096,36.872377297986,15800,2018-04-12 07:16:40,1851.2178326389821,32.000001024,0.0,0.5187000165984,1851.2178326389821,32.000001024,0.35999970196000003,0.594032019009024,1684,-17.6,99,P-GPS,
0.0736441979951796,36.8723772744407,15900,2018-04-12 07:16:40,1851.7178326549824,32.50000104,0.0,0.514129016452128,1851.7178326549824,32.50000104,0.35999970196000003,0.594032019009024,1684,-17.6,99,P-GPS,
0.0736441866612094,36.8723772680203,16000,2018-04-12 07:16:41,1852.2178326709823,33.000001056,0.0,0.51269001640608,1852.2178326709823,33.000001056,0.35999970196000003,0.594032019009024,1684,-17.6,99,P-GPS,
0.0736441709833648,36.8723772631452,16100,2018-04-12 07:16:41,1852.717832686982,33.500001072,0.0,0.510873016347936,1852.717832686982,33.500001072,0.35999970196000003,0.594032019009024,1684,-17.6,99,P-GPS,
0.0736442013147627,36.8723772561083,16200,2018-04-12 07:16:41,1853.2178327029824,34.000001088,0.0,0.5136790164377281,1853.2178327029824,34.000001088,0.35999970196000003,0.594032019009024,1684,-17.6,99,P-GPS,
0.0736442195614777,36.8723772404328,16300,2018-04-12 07:16:41,1853.7178327189822,34.500001104,0.0,0.514884016476288,1853.7178327189822,34.500001104,0.35999970196000003,0.594032019009024,1684,-17.6,99,P-GPS,
0.073644291243954,36.8723772311528,16400,2018-04-12 07:16:41,1854.2178327349823,35.00000112,0.0,0.5218750167,1854.2178327349823,35.00000112,0.35999970196000003,0.594032019009024,1684,-17.6,99,P-GPS,
0.0736443344946123,36.8723772227521,16500,2018-04-12 07:16:41,1854.7178327509823,35.500001136,0.0,0.525992016831744,1854.7178327509823,35.500001136,0.35999970196000003,0.594032019009024,1684,-17.6,99,P-GPS,
0.0736443771517028,36.8723771934086,16600,2018-04-12 07:16:41,1855.3178327701821,36.1000011552,0.0,0.529216016934912,1855.3178327701821,36.1000011552,0.35999970196000003,0.594032019009024,1684,-17.6,99,P-GPS,
0.0736443919282036,36.8723771577785,16700,2018-04-12 07:16:41,1855.8178327861822,36.6000011712,0.0,0.5293340169386881,1855.8178327861822,36.6000011712,0.35999970196000003,0.594032019009024,1684,-17.6,99,P-GPS,
0.0736444079301086,36.8723771006969,16800,2018-04-12 07:16:41,1856.3178328021822,37.10000118720001,0.0,0.52879501692144,1856.3178328021822,37.10000118720001,0.35999970196000003,0.594032019009024,1684,-17.6,99,P-GPS,
0.0736444005060324,36.872377051618,16900,2018-04-12 07:16:42,1856.8178328181823,37.6000012032,0.0,0.5261750168376,1856.8178328181823,37.6000012032,0.35999970196000003,0.594032019009024,1684,-17.6,99,P-GPS,
0.0736444382794193,36.8723770202833,17000,2018-04-12 07:16:42,1857.3178328341821,38.1000012192,0.0,0.52899501692784,1857.3178328341821,38.1000012192,0.35999970196000003,0.594032019009024,1684,-17.6,99,P-GPS,
0.0736444747524937,36.87237698905,17100,2018-04-12 07:16:42,1857.8178328501824,38.600001235200004,0.0,0.531722017015104,1857.8178328501824,38.600001235200004,0.35999970196000003,0.594032019009024,1684,-17.6,99,P-GPS,
0.0736445073384723,36.8723769443993,17200,2018-04-12 07:16:42,1858.4178328693822,39.2000012544,0.0,0.533619017075808,1858.4178328693822,39.2000012544,0.35999970196000003,0.594032019009024,1684,-17.6,99,P-GPS,
0.0736445042094172,36.8723769028864,17300,2018-04-12 07:16:42,1858.917832885382,39.7000012704,0.0,0.531891017020512,1858.917832885382,39.7000012704,0.35999970196000003,0.594032019009024,1684,-17.6,99,P-GPS,
0.0736445309395112,36.8723768210786,17400,2018-04-12 07:16:42,1859.4178329013823,40.2000012864,0.0,0.532097017027104,1859.4178329013823,40.2000012864,0.35999970196000003,0.594032019009024,1684,-17.5,99,P-GPS,
0.0736445384694362,36.8723767510158,17500,2018-04-12 07:16:42,1859.9178329173822,40.700001302400004,0.0,0.5307640169844481,1859.9178329173822,40.700001302400004,0.35999970196000003,0.594032019009024,1684,-17.6,99,P-GPS,
0.0736445617138459,36.8723766859488,17600,2018-04-12 07:16:42,1860.5178329365824,41.30000132160001,0.0,0.531375017004,1860.5178329365824,41.30000132160001,0.35999970196000003,0.594032019009024,1684,-17.6,99,P-GPS,
0.073644579018506,36.8723766441017,17700,2018-04-12 07:16:42,1861.0178329525822,41.80000133760001,0.0,0.5320810170265919,1861.0178329525822,41.80000133760001,0.35999970196000003,0.594032019009024,1684,-17.6,99,P-GPS,
0.0736446069145659,36.8723766292365,17800,2018-04-12 07:16:42,1861.517832968582,42.300001353599995,0.0,0.53469001711008,1861.517832968582,42.300001353599995,0.35999970196000003,0.594032019009024,1684,-17.6,99,P-GPS,
0.0736446199885285,36.8723766257674,17900,2018-04-12 07:16:42,1862.0178329845824,42.800001369600004,0.0,0.536009017152288,1862.0178329845824,42.800001369600004,0.35999970196000003,0.594032019009024,1684,-17.6,99,P-GPS,
0.0736446646274353,36.8723766045324,18000,2018-04-12 07:16:43,1862.5178330005822,43.300001385600005,0.0,0.540277017288864,1862.5178330005822,43.300001385600005,0.35999970196000003,0.594032019009024,1684,-17.6,99,P-GPS,
0.0736446709588256,36.8723765875944,18100,2018-04-12 07:16:43,1863.0178330165822,43.80000140160001,0.0,0.540527017296864,1863.0178330165822,43.80000140160001,0.35999970196000003,0.594032019009024,1684,-17.6,99,P-GPS,
0.0736446777429233,36.872376572926,18200,2018-04-12 07:16:43,1863.6178330357823,44.4000014208,0.0,0.5408910173085121,1863.6178330357823,44.4000014208,0.35999970196000003,0.594032019009024,1684,-17.6,99,P-GPS,
0.0736446780897819,36.8723765544828,18300,2018-04-12 07:16:43,1864.1178330517823,44.900001436800004,0.0,0.5404690172950081,1864.1178330517823,44.900001436800004,0.35999970196000003,0.594032019009024,1684,-17.6,99,P-GPS,
0.0736447053458633,36.8723765122489,18400,2018-04-12 07:16:43,1864.6178330677822,45.4000014528,0.0,0.542406017356992,1864.6178330677822,45.4000014528,0.35999970196000003,0.594032019009024,1684,-17.6,99,P-GPS,
0.0736447297554245,36.872376472291,18500,2018-04-12 07:16:43,1865.1178330837824,45.9000014688,0.0,0.5441360174123521,1865.1178330837824,45.9000014688,0.35999970196000003,0.594032019009024,1684,-17.6,98,P-GPS,
0.0736447969368817,36.872376375369,18600,2018-04-12 07:16:43,1865.6178330997823,46.4000014848,0.0,0.5493850175803201,1865.6178330997823,46.4000014848,0.35999970196000003,0.594032019009024,1684,-17.6,98,P-GPS,
0.0736448447121716,36.8723762936648,18700,2018-04-12 07:16:43,1866.117833115782,46.9000015008,0.0,0.5530410176973121,1866.117833115782,46.9000015008,0.35999970196000003,0.594032019009024,1684,-17.6,98,P-GPS,
0.0736449163262533,36.8723762477982,18800,2018-04-12 07:16:43,1866.6178331317824,47.4000015168,0.0,0.560092017922944,1866.6178331317824,47.4000015168,0.35999970196000003,0.594032019009024,1684,-17.6,98,P-GPS,
0.0736449692588254,36.8723762289506,18900,2018-04-12 07:16:44,1867.1178331477822,47.9000015328,0.0,0.565594018099008,1867.1178331477822,47.9000015328,0.35999970196000003,0.594032019009024,1684,-17.6,98,P-GPS,
0.0736450466669108,36.8723762027489,19000,2018-04-12 07:16:44,1867.717833166982,48.50000155200001,0.0,0.5736900183580801,1867.717833166982,48.50000155200001,0.35999970196000003,0.594032019009024,1684,-17.6,98,P-GPS,
0.0736451139273474,36.8723761793495,19100,2018-04-12 07:16:44,1868.2178331829823,49.000001568,0.0,0.5807390185836481,1868.2178331829823,49.000001568,0.35999970196000003,0.594032019009024,1684,-17.6,98,P-GPS,
0.0736451891565747,36.8723761737304,19200,2018-04-12 07:16:44,1868.7178331989821,49.500001584,0.0,0.5889470188463041,1868.7178331989821,49.500001584,0.35999970196000003,0.594032019009024,1684,-17.6,98,P-GPS,
0.0736452306656122,36.8723761812835,19300,2018-04-12 07:16:44,1869.2178332149822,50.000001600000004,0.0,0.593634018996288,1869.2178332149822,50.000001600000004,0.35999970196000003,0.594032019009024,1684,-17.6,98,P-GPS,
0.0736452727690318,36.8723762302636,19400,2018-04-12 07:16:44,1869.7178332309823,50.500001616000006,0.0,0.5990150191684801,1869.7178332309823,50.500001616000006,0.35999970196000003,0.5990150191684801,1684,-17.6,98,P-GPS,
0.0736452923030317,36.8723762688196,19500,2018-04-12 07:16:44,1870.2178332469823,51.00000163200001,0.0,0.60178001925696,1870.2178332469823,51.00000163200001,0.35999970196000003,0.60178001925696,1684,-17.6,98,P-GPS,
0.0736453265207112,36.8723762616152,19600,2018-04-12 07:16:44,1870.7178332629821,51.500001648,0.0,0.6054280193736961,1870.7178332629821,51.500001648,0.35999970196000003,0.6054280193736961,1684,-17.6,98,P-GPS,
0.0736453440826655,36.8723762443633,19700,2018-04-12 07:16:44,1871.2178332789824,52.000001664,0.0,0.607087019426784,1871.2178332789824,52.000001664,0.35999970196000003,0.607087019426784,1684,-17.6,98,P-GPS,
0.0736453584300713,36.8723762265498,19800,2018-04-12 07:16:44,1871.8178332981822,52.6000016832,0.0,0.608391019468512,1871.8178332981822,52.6000016832,0.35999970196000003,0.608391019468512,1684,-17.6,98,P-GPS,
0.0736453622113183,36.8723762224276,19900,2018-04-12 07:16:44,1872.317833314182,53.1000016992,0.0,0.60874501947984,1872.317833314182,53.1000016992,0.35999970196000003,0.60874501947984,1684,-17.6,98,P-GPS,
0.0736454285777392,36.8723762583572,20000,2018-04-12 07:16:45,1872.8178333301823,53.6000017152,0.0,0.616609019731488,1872.8178333301823,53.6000017152,0.35999970196000003,0.616609019731488,1684,-17.6,98,P-GPS,
0.0736454877529513,36.8723763008927,20100,2018-04-12 07:16:45,1873.3178333461822,54.1000017312,0.0,0.6238030199616961,1873.3178333461822,54.1000017312,0.35999970196000003,0.6238030199616961,1684,-17.6,98,P-GPS,
0.0736455760398569,36.8723763390055,20200,2018-04-12 07:16:45,1873.8178333621822,54.6000017472,0.0,0.634144020292608,1873.8178333621822,54.6000017472,0.35999970196000003,0.634144020292608,1684,-17.6,98,P-GPS,
0.0736456242051592,36.8723763691947,20300,2018-04-12 07:16:45,1874.3178333781823,55.1000017632,0.0,0.639953020478496,1874.3178333781823,55.1000017632,0.35999970196000003,0.639953020478496,1684,-17.6,98,P-GPS,
0.0736456890188587,36.8723763835336,20400,2018-04-12 07:16:45,1874.8178333941823,55.6000017792,0.0,0.647321020714272,1874.8178333941823,55.6000017792,0.35999970196000003,0.647321020714272,1684,-17.6,98,P-GPS,
0.0736457280412622,36.8723763960141,20500,2018-04-12 07:16:45,1875.4178334133824,56.2000017984,0.0,0.651824020858368,1875.4178334133824,56.2000017984,0.35999970196000003,0.651824020858368,1669,-17.6,98,P-GPS,
0.0736457955687636,36.8723763894215,20600,2018-04-12 07:16:45,1875.9178334293822,56.700001814400004,0.0,0.659128021092096,1875.9178334293822,56.700001814400004,0.35999970196000003,0.659128021092096,1669,-17.6,98,P-GPS,
0.0736458368921585,36.8723763844937,20700,2018-04-12 07:16:45,1876.4178334453823,57.200001830400005,0.0,0.6635850212347201,1876.4178334453823,57.200001830400005,0.35999970196000003,0.6635850212347201,1670,-17.6,98,P-GPS,
0.0736459295367802,36.8723763996326,20800,2018-04-12 07:16:45,1876.917833461382,57.700001846400006,0.0,0.6740240215687681,1876.917833461382,57.700001846400006,0.35999970196000003,0.6740240215687681,1679,-17.6,98,P-GPS,
0.0736459921984909,36.8723764211612,20900,2018-04-12 07:16:46,1877.4178334773824,58.2000018624,0.0,0.681277021800864,1877.4178334773824,58.2000018624,0.35999970196000003,0.681277021800864,1684,-17.6,98,P-GPS,
0.0736460708792053,36.872376445049,21000,2018-04-12 07:16:46,1877.9178334933822,58.7000018784,0.0,0.6903330220906561,1877.9178334933822,58.7000018784,0.35999970196000003,0.6903330220906561,1684,-17.6,98,P-GPS,
0.0736461242701844,36.8723764688611,21100,2018-04-12 07:16:46,1878.5178335125825,59.3000018976,0.0,0.696614022291648,1878.5178335125825,59.3000018976,0.35999970196000003,0.696614022291648,1684,-17.6,98,P-GPS,
0.0736461807723058,36.8723765110423,21200,2018-04-12 07:16:46,1879.0178335285823,59.800001913600006,0.0,0.7035710225142721,1879.0178335285823,59.800001913600006,0.35999970196000003,0.7035710225142721,1684,-17.6,98,P-GPS,
0.0736462202409029,36.8723765518535,21300,2018-04-12 07:16:46,1879.5178335445821,60.30000192960001,0.0,0.70865502267696,1879.5178335445821,60.30000192960001,0.35999970196000003,0.70865502267696,1684,-17.6,98,P-GPS,
0.0736463102971129,36.8723766088007,21400,2018-04-12 07:16:46,1880.0178335605824,60.80000194560001,0.0,0.71961002302752,1880.0178335605824,60.80000194560001,0.35999970196000003,0.71961002302752,1680,-17.6,98,P-GPS,
0.0736463749324978,36.8723766514599,21500,2018-04-12 07:16:46,1880.5178335765822,61.3000019616,0.0,0.727526023280832,1880.5178335765822,61.3000019616,0.35999970196000003,0.727526023280832,1672,-17.6,98,P-GPS,
0.0736464699017232,36.8723766674566,21600,2018-04-12 07:16:46,1881.0178335925823,61.800001977600004,0.0,0.73823502362352,1881.0178335925823,61.800001977600004,0.35999970196000003,0.73823502362352,1684,-17.6,98,P-GPS,
0.0736465276952007,36.872376674441,21700,2018-04-12 07:16:46,1881.5178336085821,62.300001993600006,0.0,0.7446970238303041,1881.5178336085821,62.300001993600006,0.35999970196000003,0.7446970238303041,1684,-17.6,98,P-GPS,
0.0736465820836017,36.8723766596669,21800,2018-04-12 07:16:46,1882.0178336245824,62.80000200960001,0.0,0.7503580240114561,1882.0178336245824,62.80000200960001,0.35999970196000003,0.7503580240114561,1684,-17.6,98,P-GPS,
0.0736466060925658,36.8723766421599,21900,2018-04-12 07:16:46,1882.6178336437822,63.4000020288,0.0,0.7526480240847361,1882.6178336437822,63.4000020288,0.35999970196000003,0.7526480240847361,1684,-17.6,98,P-GPS,
0.0736466563316915,36.8723766196062,22000,2018-04-12 07:16:47,1883.1178336597823,63.900002044800004,0.0,0.757727024247264,1883.1178336597823,63.900002044800004,0.35999970196000003,0.757727024247264,1684,-17.6,98,P-GPS,
0.0736466830186318,36.8723765985648,22100,2018-04-12 07:16:47,1883.6178336757823,64.4000020608,0.0,0.7602640243284481,1883.6178336757823,64.4000020608,0.35999970196000003,0.7602640243284481,1684,-17.6,98,P-GPS,
0.0736467389719675,36.8723765753813,22200,2018-04-12 07:16:47,1884.1178336917822,64.9000020768,0.0,0.765986024511552,1884.1178336917822,64.9000020768,0.35999970196000003,0.765986024511552,1684,-17.6,98,P-GPS,
0.0736467750818989,36.8723765605502,22300,2018-04-12 07:16:47,1884.6178337077824,65.40000209280001,0.0,0.76969002463008,1884.6178337077824,65.40000209280001,0.35999970196000003,0.76969002463008,1684,-17.6,98,P-GPS,
0.0736468470965778,36.8723765671516,22400,2018-04-12 07:16:47,1885.2178337269822,66.000002112,0.0,0.7777150248868799,1885.2178337269822,66.000002112,0.35999970196000003,0.7777150248868799,1684,-17.6,98,P-GPS,
0.0736469039292733,36.8723765665497,22500,2018-04-12 07:16:47,1885.717833742982,66.500002128,0.0,0.783948025086336,1885.717833742982,66.500002128,0.35999970196000003,0.783948025086336,1684,-17.6,98,P-GPS,
0.0736470050898428,36.8723765376917,22600,2018-04-12 07:16:47,1886.2178337589824,67.000002144,0.0,0.7945800254265601,1886.2178337589824,67.000002144,0.35999970196000003,0.7945800254265601,1684,-17.6,98,P-GPS,
0.0736470981749585,36.8723764675818,22700,2018-04-12 07:16:47,1886.7178337749822,67.50000216000001,0.0,0.8037090257186881,1886.7178337749822,67.50000216000001,0.35999970196000003,0.8037090257186881,1684,-17.6,98,P-GPS,
0.0736472151314349,36.8723764037133,22800,2018-04-12 07:16:47,1887.2178337909822,68.000002176,0.35999970196000003,0.815664026101248,1887.2178337909822,68.000002176,0.35999970196000003,0.815664026101248,1684,-17.6,98,P-GPS,
0.0736473013233472,36.8723762932946,22900,2018-04-12 07:16:48,1887.7178338069823,68.500002192,0.35999970196000003,0.8237250263592001,1887.7178338069823,68.500002192,0.35999970196000003,0.8237250263592001,1684,-17.6,98,P-GPS,
0.0736474325971031,36.8723761495893,23000,2018-04-12 07:16:48,1888.2178338229824,69.000002208,0.7199994039200001,0.836651026772832,1888.2178338229824,69.000002208,0.7199994039200001,0.836651026772832,1684,-17.6,98,P-GPS,
0.0736475223259958,36.8723759382514,23100,2018-04-12 07:16:48,1888.7178338389822,69.500002224,0.7199994039200001,0.8448310270345921,1888.7178338389822,69.500002224,0.7199994039200001,0.8448310270345921,1684,-17.6,98,P-GPS,
0.0736476163083842,36.8723756294184,23200,2018-04-12 07:16:48,1889.2178338549825,70.00000224,1.07999910588,0.853881027324192,1889.2178338549825,70.00000224,1.07999910588,0.853881027324192,1684,-17.6,98,P-GPS,
0.0736476436548442,36.8723752643239,23300,2018-04-12 07:16:48,1889.7178338709823,70.500002256,1.4399988078400001,0.857068027426176,1889.7178338709823,70.500002256,1.4399988078400001,0.857068027426176,1684,-17.6,98,P-GPS,
0.0736476437313811,36.8723748591212,23400,2018-04-12 07:16:48,1890.2178338869821,71.000002272,1.475998778036,0.8594870275035841,1890.2178338869821,71.000002272,1.475998778036,0.8594870275035841,1684,-17.6,98,P-GPS,
0.0736475949904238,36.872374412174,23500,2018-04-12 07:16:48,1890.8178339061824,71.6000022912,1.8359984799959999,0.859496027503872,1890.8178339061824,71.6000022912,1.8359984799959999,0.859496027503872,1684,-17.6,98,P-GPS,
0.0736475588764213,36.8723738862771,23600,2018-04-12 07:16:48,1891.3178339221822,72.1000023072,1.8359984799959999,0.865536027697152,1891.3178339221822,72.1000023072,1.8359984799959999,0.865536027697152,1684,-17.6,98,P-GPS,
0.0736474956618537,36.8723733560384,23700,2018-04-12 07:16:48,1891.817833938182,72.6000023232,1.8359984799959999,0.87269502792624,1891.817833938182,72.6000023232,1.8359984799959999,0.87269502792624,1684,-17.6,98,P-GPS,
0.0736474644462108,36.872372899001,23800,2018-04-12 07:16:48,1892.3178339541823,73.1000023392,1.475998778036,0.884481028303392,1892.3178339541823,73.1000023392,1.8359984799959999,0.884481028303392,1684,-17.6,98,P-GPS,
0.0736474574129612,36.8723725351675,23900,2018-04-12 07:16:49,1892.8178339701822,73.6000023552,1.07999910588,0.897671028725472,1892.8178339701822,73.6000023552,1.8359984799959999,0.897671028725472,1684,-17.6,98,P-GPS,
0.0736475428053075,36.872372239319,24000,2018-04-12 07:16:49,1893.3178339861822,74.1000023712,1.07999910588,0.9188980294047361,1893.3178339861822,74.1000023712,1.8359984799959999,0.9188980294047361,1684,-17.6,98,P-GPS,
0.0736476312672707,36.8723720211923,24100,2018-04-12 07:16:49,1893.9178340053822,74.7000023904,0.35999970196000003,0.937629030004128,1893.9178340053822,74.7000023904,1.8359984799959999,0.937629030004128,1684,-17.6,98,P-GPS,
0.0736477910615948,36.8723718252232,24200,2018-04-12 07:16:49,1894.4178340213823,75.2000024064,0.35999970196000003,0.9628490308111681,1894.4178340213823,75.2000024064,1.8359984799959999,0.9628490308111681,1684,-17.6,98,P-GPS,
0.0736479335113619,36.8723716772773,24300,2018-04-12 07:16:49,1894.9178340373821,75.7000024224,0.0,0.9841840314938881,1894.9178340373821,75.7000024224,1.8359984799959999,0.9841840314938881,1684,-17.6,98,P-GPS,
0.0736480847009879,36.8723714942766,24400,2018-04-12 07:16:49,1895.4178340533824,76.2000024384,0.0,1.0081600322611202,1895.4178340533824,76.2000024384,1.8359984799959999,1.0081600322611202,1684,-17.6,98,P-GPS,
0.0736482013252616,36.872371348865,24500,2018-04-12 07:16:49,1895.9178340693823,76.7000024544,0.0,1.0269500328624,1895.9178340693823,76.7000024544,1.8359984799959999,1.0269500328624,1684,-17.6,98,P-GPS,
0.0736483446315902,36.8723711728635,24600,2018-04-12 07:16:49,1896.417834085382,77.20000247040001,0.0,1.05001003360032,1896.417834085382,77.20000247040001,1.8359984799959999,1.05001003360032,1684,-17.6,98,P-GPS,
0.0736484643124533,36.8723710269431,24700,2018-04-12 07:16:49,1896.9178341013824,77.70000248640001,0.0,1.06928003421696,1896.9178341013824,77.70000248640001,1.8359984799959999,1.06928003421696,1684,-17.6,98,P-GPS,
0.0736485904712667,36.8723708328831,24800,2018-04-12 07:16:49,1897.5178341205822,78.3000025056,0.0,1.09178003493696,1897.5178341205822,78.3000025056,1.8359984799959999,1.09178003493696,1684,-17.6,98,P-GPS,
0.0736486943773928,36.8723706935661,24900,2018-04-12 07:16:50,1898.0178341365825,78.8000025216,0.0,1.1093100354979202,1898.0178341365825,78.8000025216,1.8359984799959999,1.1093100354979202,1684,-17.6,98,P-GPS,
0.0736488342428192,36.8723705418949,25000,2018-04-12 07:16:50,1898.5178341525823,79.30000253760001,0.0,1.13107003619424,1898.5178341525823,79.30000253760001,1.8359984799959999,1.13107003619424,1684,-17.6,98,P-GPS,
0.0736489498118612,36.8723704330802,25100,2018-04-12 07:16:50,1899.017834168582,79.80000255360001,0.0,1.14819003674208,1899.017834168582,79.80000255360001,1.8359984799959999,1.14819003674208,1684,-17.6,98,P-GPS,
0.0736490658222116,36.8723702868015,25200,2018-04-12 07:16:50,1899.5178341845824,80.30000256960001,0.0,1.16742003735744,1899.5178341845824,80.30000256960001,1.8359984799959999,1.16742003735744,1684,-17.6,98,P-GPS,
0.0736491491106082,36.8723701819682,25300,2018-04-12 07:16:50,1900.0178342005822,80.80000258560001,0.0,1.1812400377996801,1900.0178342005822,80.80000258560001,1.8359984799959999,1.1812400377996801,1684,-17.6,98,P-GPS,
0.0736492691106464,36.8723700610275,25400,2018-04-12 07:16:50,1900.6178342197823,81.40000260480001,0.0,1.19952003838464,1900.6178342197823,81.40000260480001,1.8359984799959999,1.19952003838464,1684,-17.6,98,P-GPS,
0.0736493566883645,36.8723699832592,25500,2018-04-12 07:16:50,1901.1178342357823,81.90000262080001,0.0,1.21229003879328,1901.1178342357823,81.90000262080001,1.8359984799959999,1.21229003879328,1684,-17.6,98,P-GPS,
0.0736494833340826,36.87236989203,25600,2018-04-12 07:16:50,1901.6178342517824,82.4000026368,0.0,1.22957003934624,1901.6178342517824,82.4000026368,1.8359984799959999,1.22957003934624,1680,-17.6,98,P-GPS,
0.0736495804365697,36.8723698314856,25700,2018-04-12 07:16:50,1902.1178342677822,82.9000026528,0.0,1.2422900397532801,1902.1178342677822,82.9000026528,1.8359984799959999,1.2422900397532801,1667,-17.6,98,P-GPS,
0.0736497094988987,36.8723698011698,25800,2018-04-12 07:16:50,1902.6178342837823,83.4000026688,0.0,1.25639004020448,1902.6178342837823,83.4000026688,1.8359984799959999,1.25639004020448,1645,-17.6,98,P-GPS,
0.0736497949775525,36.8723697999507,25900,2018-04-12 07:16:51,1903.1178342997823,83.9000026848,0.0,1.26468004046976,1903.1178342997823,83.9000026848,1.8359984799959999,1.26468004046976,1644,-17.6,98,P-GPS,
0.0736499022024475,36.8723697817834,26000,2018-04-12 07:16:51,1903.6178343157821,84.4000027008,0.0,1.2760300408329601,1903.6178343157821,84.4000027008,1.8359984799959999,1.2760300408329601,1642,-17.6,98,P-GPS,
0.0736499749776097,36.8723697688129,26100,2018-04-12 07:16:51,1904.1178343317824,84.9000027168,0.0,1.28378004108096,1904.1178343317824,84.9000027168,1.8359984799959999,1.28378004108096,1635,-17.6,98,P-GPS,
0.073650104829734,36.8723697600415,26200,2018-04-12 07:16:51,1904.6178343477823,85.4000027328,0.0,1.29683004149856,1904.6178343477823,85.4000027328,1.8359984799959999,1.29683004149856,1634,-17.6,98,P-GPS,
0.0736502083189785,36.8723697705462,26300,2018-04-12 07:16:51,1905.0178343605824,85.80000274560001,0.0,1.3063100418019202,1905.0178343605824,85.80000274560001,1.8359984799959999,1.3063100418019202,1633,-17.6,98,P-GPS,
0.073650356455272,36.8723698130581,26400,2018-04-12 07:16:51,1905.5178343765822,86.3000027616,0.0,1.3184700421910402,1905.5178343765822,86.3000027616,1.8359984799959999,1.3184700421910402,1581,-17.6,98,P-GPS,
0.0736504700343554,36.872369860779,26500,2018-04-12 07:16:51,1905.9178343893823,86.7000027744,0.0,1.32707004246624,1905.9178343893823,86.7000027744,1.8359984799959999,1.32707004246624,1410,-17.6,98,P-GPS,
0.0736506133716245,36.8723698973392,26600,2018-04-12 07:16:51,1906.4178344053823,87.2000027904,0.0,1.33927004285664,1906.4178344053823,87.2000027904,1.8359984799959999,1.33927004285664,1194,-17.6,98,P-GPS,
0.0736507199402565,36.8723699337077,26700,2018-04-12 07:16:51,1906.8178344181824,87.60000280320001,0.0,1.3479300431337602,1906.8178344181824,87.60000280320001,1.8359984799959999,1.3479300431337602,1024,-17.6,98,P-GPS,
0.0736508326969758,36.8723699831024,26800,2018-04-12 07:16:51,1907.117834427782,87.9000028128,0.0,1.3566200434118403,1907.117834427782,87.9000028128,1.8359984799959999,1.3566200434118403,1024,-17.6,98,P-GPS,
0.0736508979519836,36.8723700374335,26900,2018-04-12 07:16:52,1907.4178344373822,88.20000282240001,0.0,1.3604000435327999,1907.4178344373822,88.20000282240001,1.8359984799959999,1.3604000435327999,1024,-17.6,98,P-GPS,
0.0736510234073091,36.8723701263351,27000,2018-04-12 07:16:52,1907.6178344437824,88.4000028288,0.0,1.36859004379488,1907.6178344437824,88.4000028288,1.8359984799959999,1.36859004379488,1024,-17.6,98,P-GPS,
0.073651126171896,36.8723702112129,27100,2018-04-12 07:16:52,1907.7178344469824,88.50000283199999,0.0,1.3748500439952003,1907.7178344469824,88.50000283199999,1.8359984799959999,1.3748500439952003,1009,-17.6,98,P-GPS,
0.0736512321494029,36.8723702667559,27200,2018-04-12 07:16:52,1907.817834450182,88.60000283520002,0.0,1.3829200442534402,1907.817834450182,88.60000283520002,1.8359984799959999,1.3829200442534402,946,-17.6,98,P-GPS,
0.0736513112380425,36.872370314557,27300,2018-04-12 07:16:52,1907.917834453382,88.70000283840001,0.0,1.38871004443872,1907.917834453382,88.70000283840001,1.8359984799959999,1.38871004443872,883,-17.6,98,P-GPS,
0.0736514370972221,36.8723703962213,27400,2018-04-12 07:16:52,1907.917834453382,88.70000283840001,0.0,1.39777004472864,1907.917834453382,88.70000283840001,1.8359984799959999,1.39777004472864,825,-17.6,98,P-GPS,
0.0736515466735902,36.8723704885704,27500,2018-04-12 07:16:52,1907.917834453382,88.70000283840001,0.0,1.4048400449548801,1907.917834453382,88.70000283840001,1.8359984799959999,1.4048400449548801,796,-17.6,98,P-GPS,
0.0736516879280794,36.8723706135665,27600,2018-04-12 07:16:52,1907.917834453382,88.70000283840001,0.0,1.4139200452454401,1907.917834453382,88.70000283840001,1.8359984799959999,1.4139200452454401,773,-17.6,98,P-GPS,
0.0736518017888837,36.8723707369043,27700,2018-04-12 07:16:52,1907.917834453382,88.70000283840001,0.0,1.42048004545536,1907.917834453382,88.70000283840001,1.8359984799959999,1.42048004545536,771,-17.6,98,P-GPS,
0.0736519239856927,36.8723708403264,27800,2018-04-12 07:16:52,1907.817834450182,88.60000283520002,0.0,1.42892004572544,1907.917834453382,88.70000283840001,1.8359984799959999,1.42892004572544,787,-17.6,98,P-GPS,
0.0736520272827808,36.8723709331657,27900,2018-04-12 07:16:52,1907.817834450182,88.60000283520002,0.0,1.43598004595136,1907.917834453382,88.70000283840001,1.8359984799959999,1.43598004595136,784,-17.6,98,P-GPS,
0.0736521740918925,36.8723709930664,28000,2018-04-12 07:16:53,1907.817834450182,88.60000283520002,0.0,1.4489700463670403,1907.917834453382,88.70000283840001,1.8359984799959999,1.4489700463670403,766,-17.6,98,P-GPS,
0.0736522986792573,36.8723710543181,28100,2018-04-12 07:16:53,1907.7178344469824,88.50000283199999,0.0,1.4596800467097601,1907.917834453382,88.70000283840001,1.8359984799959999,1.4596800467097601,748,-17.6,98,P-GPS,
0.0736524351412358,36.87237114976,28200,2018-04-12 07:16:53,1907.7178344469824,88.50000283199999,0.0,1.47047004705504,1907.917834453382,88.70000283840001,1.8359984799959999,1.47047004705504,749,-17.6,98,P-GPS,
0.0736525371730229,36.8723712504404,28300,2018-04-12 07:16:53,1907.6178344437824,88.4000028288,0.0,1.4776000472832,1907.917834453382,88.70000283840001,1.8359984799959999,1.4776000472832,744,-17.6,98,P-GPS,
0.0736527397709974,36.8723713940574,28400,2018-04-12 07:16:53,1907.5178344405822,88.3000028256,0.0,1.4940500478096002,1907.917834453382,88.70000283840001,1.8359984799959999,1.4940500478096002,744,-17.6,98,P-GPS,
0.0736528947207006,36.8723715168022,28500,2018-04-12 07:16:53,1907.4178344373822,88.20000282240001,0.0,1.50643004820576,1907.917834453382,88.70000283840001,1.8359984799959999,1.50643004820576,747,-17.6,98,P-GPS,
0.0736530425101356,36.8723716318338,28600,2018-04-12 07:16:53,1907.4178344373822,88.20000282240001,0.0,1.51851004859232,1907.917834453382,88.70000283840001,1.8359984799959999,1.51851004859232,747,-17.6,98,P-GPS,
0.0736531492009009,36.8723717180915,28700,2018-04-12 07:16:53,1907.3178344341823,88.10000281920001,0.0,1.52724004887168,1907.917834453382,88.70000283840001,1.8359984799959999,1.52724004887168,765,-17.6,98,P-GPS,
0.0736532946144361,36.8723717936328,28800,2018-04-12 07:16:53,1907.2178344309823,88.00000281599999,0.0,1.5405500492976,1907.917834453382,88.70000283840001,1.8359984799959999,1.5405500492976,766,-17.6,98,P-GPS,
0.0736534027007779,36.8723718495294,28900,2018-04-12 07:16:54,1907.117834427782,87.9000028128,0.0,1.55051004961632,1907.917834453382,88.70000283840001,1.8359984799959999,1.55051004961632,763,-18.3,98,P-GPS,
0.0736535563998361,36.8723719252768,29000,2018-04-12 07:16:54,1907.117834427782,87.9000028128,0.0,1.5648800500761602,1907.917834453382,88.70000283840001,1.8359984799959999,1.5648800500761602,770,-21.0,98,P-GPS,
0.0736538088737934,36.8723720773598,29200,2018-04-12 07:16:54,1906.9178344213824,87.70000280640001,0.0,1.5879500508144,1907.917834453382,88.70000283840001,1.8359984799959999,1.5879500508144,773,-21.0,98,P-GPS,
0.0736539097168163,36.8723721571214,29300,2018-04-12 07:16:54,1906.8178344181824,87.60000280320001,0.0,1.59678005109696,1907.917834453382,88.70000283840001,1.8359984799959999,1.59678005109696,778,-21.0,98,P-GPS,
