latitude,longitude,time_millisecond,datetime_utc,altitude_m,ascent_m,speed_kph,distance_m,max_altitude_m,max_ascent_m,max_speed_kph,max_distance_m,rc_throttle,gimbal_pitch_degrees,battery_percent,flycState,message
0.374142344079905,36.9266784227513,1100,2018-04-18 05:31:20,1632.329275834528,0.0,0.0,0.0,1632.329275834528,0.0,0.0,0.0,1024,0.0,98,Motors_Started,
0.374142374089888,36.926678420329,1200,2018-04-18 05:31:20,1632.329275834528,0.0,0.0,0.0033481501071408004,1632.329275834528,0.0,0.0,0.0033481501071408004,1024,0.0,98,Motors_Started,
0.37414241705414397,36.926678418518,1300,2018-04-18 05:31:20,1632.329275834528,0.0,0.0,0.00812882026012224,1632.329275834528,0.0,0.0,0.00812882026012224,1024,0.0,98,Motors_Started,
0.37414244610436403,36.926678428552705,1400,2018-04-18 05:31:20,1632.329275834528,0.0,0.0,0.0113641003636512,1632.329275834528,0.0,0.0,0.0113641003636512,1024,0.0,98,Motors_Started,
0.374142469729626,36.9266784328743,1500,2018-04-18 05:31:20,1632.329275834528,0.0,0.0,0.014018300448585598,1632.329275834528,0.0,0.0,0.014018300448585598,1024,0.0,98,Motors_Started,
0.37414247987076094,36.92667840436071,1600,2018-04-18 05:31:20,1632.329275834528,0.0,0.0,0.015238600487635203,1632.329275834528,0.0,0.0,0.015238600487635203,1024,0.0,98,Assisted_Takeoff,
0.374142493601597,36.9266783821129,1700,2018-04-18 05:31:21,1632.329275834528,0.0,0.0,0.0172309005513888,1632.329275834528,0.0,0.0,0.0172309005513888,1024,0.0,98,Assisted_Takeoff,
0.374142563323427,36.9266783593953,1900,2018-04-18 05:31:21,1632.329275834528,0.0,0.0,0.025378800812121603,1632.329275834528,0.0,0.0,0.025378800812121603,1024,0.0,98,Assisted_Takeoff,
0.37414258079133794,36.9266783188979,2000,2018-04-18 05:31:21,1632.329275834528,0.0,0.0,0.028745700919862404,1632.329275834528,0.0,0.0,0.028745700919862404,1024,0.0,98,Assisted_Takeoff,
0.37414259747922496,36.9266782861877,2100,2018-04-18 05:31:21,1632.329275834528,0.0,0.0,0.0320111010243552,1632.329275834528,0.0,0.0,0.0320111010243552,1024,0.0,98,Assisted_Takeoff,
0.374142599388779,36.9266782661203,2200,2018-04-18 05:31:21,1632.329275834528,0.0,0.0,0.033308901065884806,1632.329275834528,0.0,0.0,0.033308901065884806,1024,0.0,98,Assisted_Takeoff,
0.374142606616424,36.9266782492213,2300,2018-04-18 05:31:21,1632.329275834528,0.0,0.0,0.0349967011198944,1632.329275834528,0.0,0.0,0.0349967011198944,1024,0.0,98,Assisted_Takeoff,
0.374142637877867,36.926678244924105,2400,2018-04-18 05:31:21,1632.329275834528,0.0,0.0,0.038190601222099205,1632.329275834528,0.0,0.0,0.038190601222099205,1024,0.0,98,Assisted_Takeoff,
0.374142667023147,36.92667823898479,2500,2018-04-18 05:31:21,1632.329275834528,0.0,0.0,0.04132040132225281,1632.329275834528,0.0,0.0,0.04132040132225281,1024,0.0,98,Assisted_Takeoff,
0.37414268077963203,36.9266782042426,2600,2018-04-18 05:31:22,1632.329275834528,0.0,0.0,0.0446366014283712,1632.329275834528,0.0,0.0,0.0446366014283712,1024,0.0,98,Assisted_Takeoff,
0.37414269507553793,36.926678174680795,2700,2018-04-18 05:31:22,1632.329275834528,0.0,0.0,0.0477972015295104,1632.329275834528,0.0,0.0,0.0477972015295104,1024,0.0,98,Assisted_Takeoff,
0.37414273102588197,36.9266781589611,2800,2018-04-18 05:31:22,1632.329275834528,0.0,0.0,0.0520784016665088,1632.329275834528,0.0,0.0,0.0520784016665088,1024,0.0,98,Assisted_Takeoff,
0.374142763976835,36.926678145374396,2900,2018-04-18 05:31:22,1632.329275834528,0.0,0.0,0.0559631017908192,1632.329275834528,0.0,0.0,0.0559631017908192,1024,0.0,98,Assisted_Takeoff,
0.374142780179243,36.9266781438169,3000,2018-04-18 05:31:22,1632.329275834528,0.0,0.0,0.0575682018421824,1632.329275834528,0.0,0.0,0.0575682018421824,1024,0.0,98,Assisted_Takeoff,
0.37414279606756395,36.9266781403703,3100,2018-04-18 05:31:22,1632.329275834528,0.0,0.0,0.059266501896528,1632.329275834528,0.0,0.0,0.059266501896528,1024,0.0,98,Assisted_Takeoff,
0.374142833615411,36.9266781471481,3200,2018-04-18 05:31:22,1632.329275834528,0.0,0.0,0.06247360199915521,1632.329275834528,0.0,0.0,0.06247360199915521,1024,0.0,98,Assisted_Takeoff,
0.37414286656677204,36.9266781502361,3300,2018-04-18 05:31:22,1632.329275834528,0.0,0.0,0.0655318020970176,1632.329275834528,0.0,0.0,0.0655318020970176,1024,0.0,98,Assisted_Takeoff,
0.37414288018219205,36.926678121778394,3400,2018-04-18 05:31:22,1632.329275834528,0.0,0.0,0.0683702021878464,1632.329275834528,0.0,0.0,0.0683702021878464,1024,0.0,98,Assisted_Takeoff,
0.374142893580418,36.9266780979728,3500,2018-04-18 05:31:22,1632.329275834528,0.0,0.0,0.0709829022714528,1632.329275834528,0.0,0.0,0.0709829022714528,1024,0.0,98,Assisted_Takeoff,
0.37414295911674,36.926678070867894,3700,2018-04-18 05:31:23,1632.329275834528,0.0,0.0,0.07879850252155202,1632.329275834528,0.0,0.0,0.07879850252155202,1024,0.0,98,Assisted_Takeoff,
0.37414297391827794,36.9266780673035,3800,2018-04-18 05:31:23,1632.329275834528,0.0,0.0,0.080425502573616,1632.329275834528,0.0,0.0,0.080425502573616,1024,0.0,98,Assisted_Takeoff,
0.37414298849468397,36.926678064010794,3900,2018-04-18 05:31:23,1632.329275834528,0.0,0.0,0.08201850262459201,1632.329275834528,0.0,0.0,0.08201850262459201,1024,0.0,98,Assisted_Takeoff,
0.374142987815419,36.926678067527796,4000,2018-04-18 05:31:23,1632.329275834528,0.0,0.0,0.08176290261641281,1632.329275834528,0.0,0.0,0.08201850262459201,1024,0.0,98,Assisted_Takeoff,
0.374142990651354,36.9266780697539,4100,2018-04-18 05:31:23,1632.329275834528,0.0,0.0,0.0819202026214464,1632.329275834528,0.0,0.0,0.08201850262459201,1024,0.0,98,Assisted_Takeoff,
0.374143019852409,36.9266780377195,4200,2018-04-18 05:31:23,1632.329275834528,0.0,0.0,0.08649170276773441,1632.329275834528,0.0,0.0,0.08649170276773441,1024,0.0,98,Assisted_Takeoff,
0.37414304618434796,36.9266780121346,4300,2018-04-18 05:31:23,1632.329275834528,0.0,0.0,0.0904502028944064,1632.329275834528,0.0,0.0,0.0904502028944064,1024,0.0,98,Assisted_Takeoff,
0.37414305840256296,36.9266779942432,4400,2018-04-18 05:31:23,1632.329275834528,0.0,0.0,0.0926333029642656,1632.329275834528,0.0,0.0,0.0926333029642656,1024,0.0,98,Assisted_Takeoff,
0.37414307006039,36.926677980642,4500,2018-04-18 05:31:23,1632.329275834528,0.0,0.0,0.09452520302480641,1632.329275834528,0.0,0.0,0.09452520302480641,1024,0.0,98,Assisted_Takeoff,
0.374143069698062,36.9266779372716,4600,2018-04-18 05:31:24,1632.329275834528,0.0,0.0,0.0970876031068032,1632.329275834528,0.0,0.0,0.0970876031068032,1024,0.0,98,Assisted_Takeoff,
0.374143071836005,36.926677902126,4700,2018-04-18 05:31:24,1632.329275834528,0.0,0.0,0.09950730318423359,1632.329275834528,0.0,0.0,0.09950730318423359,1024,0.0,98,Assisted_Takeoff,
0.37414306416359094,36.9266778767099,4800,2018-04-18 05:31:24,1632.329275834528,0.0,0.0,0.10049700321590402,1632.329275834528,0.0,0.0,0.10049700321590402,1024,0.0,98,Assisted_Takeoff,
0.374143060922173,36.926677856805206,4900,2018-04-18 05:31:24,1632.329275834528,0.0,0.0,0.10156600325011202,1632.329275834528,0.0,0.0,0.10156600325011202,1024,0.0,98,Assisted_Takeoff,
0.37414305078388793,36.926677848908604,5000,2018-04-18 05:31:24,1632.329275834528,0.0,0.0,0.10123500323951999,1632.329275834528,0.0,0.0,0.10156600325011202,1024,0.0,98,Assisted_Takeoff,
0.374143044587252,36.9266778402916,5100,2018-04-18 05:31:24,1632.329275834528,0.0,0.0,0.101311003241952,1632.329275834528,0.0,0.0,0.10156600325011202,1024,0.0,98,Assisted_Takeoff,
0.374143034767531,36.9266778039644,5200,2018-04-18 05:31:24,1632.329275834528,0.0,0.0,0.103124003299968,1632.329275834528,0.0,0.0,0.103124003299968,1024,0.0,98,Assisted_Takeoff,
0.37414302795106796,36.9266777731106,5300,2018-04-18 05:31:24,1632.329275834528,0.0,0.0,0.104894003356608,1632.329275834528,0.0,0.0,0.104894003356608,1024,0.0,98,Assisted_Takeoff,
0.3741430587451471,36.926677755202,5400,2018-04-18 05:31:24,1632.329275834528,0.0,0.0,0.10875200348006403,1632.329275834528,0.0,0.0,0.10875200348006403,1024,0.0,98,Assisted_Takeoff,
0.374143082919806,36.9266777390075,5500,2018-04-18 05:31:24,1632.329275834528,0.0,0.0,0.11194700358230401,1632.329275834528,0.0,0.0,0.11194700358230401,1024,0.0,98,Assisted_Takeoff,
0.37414310269786893,36.9266777357264,5600,2018-04-18 05:31:25,1632.329275834528,0.0,0.0,0.113816003642112,1632.329275834528,0.0,0.0,0.113816003642112,1024,0.0,98,Assisted_Takeoff,
0.37414311701962605,36.926677729777396,5700,2018-04-18 05:31:25,1632.329275834528,0.0,0.0,0.115442003694144,1632.329275834528,0.0,0.0,0.115442003694144,1024,0.0,98,Assisted_Takeoff,
0.37414312501203,36.9266777349493,5800,2018-04-18 05:31:25,1632.329275834528,0.0,0.0,0.115724003703168,1632.329275834528,0.0,0.0,0.115724003703168,1024,0.0,98,Assisted_Takeoff,
0.37414313124489895,36.926677735623,5900,2018-04-18 05:31:25,1632.329275834528,0.0,0.0,0.11619600371827202,1632.329275834528,0.0,0.0,0.11619600371827202,1024,0.0,98,Assisted_Takeoff,
0.374143131503618,36.9266777056229,6000,2018-04-18 05:31:25,1632.329275834528,0.0,0.0,0.118438003790016,1632.329275834528,0.0,0.0,0.118438003790016,1024,0.0,98,Assisted_Takeoff,
0.37414313200334703,36.9266776795714,6100,2018-04-18 05:31:25,1632.329275834528,0.0,0.0,0.120448003854336,1632.329275834528,0.0,0.0,0.120448003854336,1024,0.0,98,Assisted_Takeoff,
0.374143128522955,36.9266776640602,6200,2018-04-18 05:31:25,1632.329275834528,0.0,0.0,0.121359003883488,1632.329275834528,0.0,0.0,0.121359003883488,1024,0.0,98,Assisted_Takeoff,
0.37414312018552504,36.9266776451573,6400,2018-04-18 05:31:25,1632.329275834528,0.0,0.0,0.122173003909536,1632.329275834528,0.0,0.0,0.122173003909536,1024,0.0,98,Assisted_Takeoff,
0.37414311531260996,36.9266776381354,6500,2018-04-18 05:31:26,1632.329275834528,0.0,0.0,0.122347003915104,1632.329275834528,0.0,0.0,0.122347003915104,1024,0.0,98,Assisted_Takeoff,
0.374143109794628,36.926677640538394,6600,2018-04-18 05:31:26,1632.329275834528,0.0,0.0,0.12172600389523199,1632.329275834528,0.0,0.0,0.122347003915104,1024,0.0,98,Assisted_Takeoff,
0.37414310503896003,36.926677638914,6700,2018-04-18 05:31:26,1632.329275834528,0.0,0.0,0.121486003887552,1632.329275834528,0.0,0.0,0.122347003915104,1024,0.0,98,Assisted_Takeoff,
0.374143101327126,36.9266776066074,6800,2018-04-18 05:31:26,1632.329275834528,0.0,0.0,0.123808003961856,1632.329275834528,0.0,0.0,0.123808003961856,1024,0.0,98,Assisted_Takeoff,
0.37414309729835493,36.926677578753,6900,2018-04-18 05:31:26,1632.329275834528,0.0,0.0,0.125798004025536,1632.329275834528,0.0,0.0,0.125798004025536,1024,0.0,98,Assisted_Takeoff,
0.374143095391447,36.926677561607,7000,2018-04-18 05:31:26,1632.329275834528,0.0,0.0,0.127087004066784,1632.329275834528,0.0,0.0,0.127087004066784,1024,0.0,98,Assisted_Takeoff,
0.37414309305768395,36.9266775453129,7100,2018-04-18 05:31:26,1632.329275834528,0.0,0.0,0.12828900410524802,1632.329275834528,0.0,0.0,0.12828900410524802,1024,0.0,98,Assisted_Takeoff,
0.374143093058701,36.9266775007279,7200,2018-04-18 05:31:26,1632.329275834528,0.0,0.0,0.1321000042272,1632.329275834528,0.0,0.0,0.1321000042272,1024,0.0,98,Assisted_Takeoff,
0.374143091569286,36.9266774616545,7300,2018-04-18 05:31:26,1632.329275834528,0.0,0.0,0.135398004332736,1632.329275834528,0.0,0.0,0.135398004332736,1024,0.0,98,Assisted_Takeoff,
0.374143092226363,36.926677438081796,7400,2018-04-18 05:31:26,1632.329275834528,0.0,0.0,0.137521004400672,1632.329275834528,0.0,0.0,0.137521004400672,1024,0.0,98,Assisted_Takeoff,
0.374143091323594,36.9266774154285,7500,2018-04-18 05:31:26,1632.329275834528,0.0,0.0,0.1394750044632,1632.329275834528,0.0,0.0,0.1394750044632,1024,0.0,98,Assisted_Takeoff,
0.37414305433328493,36.9266774090529,7600,2018-04-18 05:31:27,1632.329275834528,0.0,0.0,0.137644004404608,1632.329275834528,0.0,0.0,0.1394750044632,1024,0.0,98,Assisted_Takeoff,
0.374143024784151,36.9266773981647,7700,2018-04-18 05:31:27,1632.329275834528,0.0,0.0,0.136792004377344,1632.329275834528,0.0,0.0,0.1394750044632,1024,0.0,98,Assisted_Takeoff,
0.37414300184019,36.926677363764,7800,2018-04-18 05:31:27,1632.329275834528,0.0,0.0,0.138631004436192,1632.329275834528,0.0,0.0,0.1394750044632,1024,0.0,98,Assisted_Takeoff,
0.374142983392565,36.9266773311517,7900,2018-04-18 05:31:27,1632.329275834528,0.0,0.0,0.140677004501664,1632.329275834528,0.0,0.0,0.140677004501664,1024,0.0,98,Assisted_Takeoff,
0.374143012566954,36.9266773157926,8000,2018-04-18 05:31:27,1632.329275834528,0.0,0.0,0.143804004601728,1632.329275834528,0.0,0.0,0.143804004601728,1024,0.0,98,Assisted_Takeoff,
0.374143033011457,36.9266772977745,8100,2018-04-18 05:31:27,1632.329275834528,0.0,0.0,0.146697004694304,1632.329275834528,0.0,0.0,0.146697004694304,1024,0.0,98,Assisted_Takeoff,
0.37414305721481705,36.926677296902,8200,2018-04-18 05:31:27,1632.329275834528,0.0,0.0,0.148202004742464,1632.329275834528,0.0,0.0,0.148202004742464,1024,0.0,98,Assisted_Takeoff,
0.374143072526669,36.926677289115894,8300,2018-04-18 05:31:27,1632.329275834528,0.0,0.0,0.14984800479513602,1632.329275834528,0.0,0.0,0.14984800479513602,1024,0.0,98,Assisted_Takeoff,
0.374143087603007,36.926677296819,8400,2018-04-18 05:31:27,1632.329275834528,0.0,0.0,0.15004600480147198,1632.329275834528,0.0,0.0,0.15004600480147198,1024,0.0,98,Assisted_Takeoff,
0.374143097959707,36.9266772962227,8500,2018-04-18 05:31:27,1632.329275834528,0.0,0.0,0.15073900482364802,1632.329275834528,0.0,0.0,0.15073900482364802,1024,0.0,98,Assisted_Takeoff,
0.37414310646038795,36.926677307385,8600,2018-04-18 05:31:28,1632.329275834528,0.0,0.0,0.15024000480768,1632.329275834528,0.0,0.0,0.15073900482364802,1024,0.0,98,Assisted_Takeoff,
0.374143112721145,36.9266773089219,8700,2018-04-18 05:31:28,1632.329275834528,0.0,0.0,0.150493004815776,1632.329275834528,0.0,0.0,0.15073900482364802,1024,0.0,98,Assisted_Takeoff,
0.37414311708618897,36.9266772803014,8800,2018-04-18 05:31:28,1632.329275834528,0.0,0.0,0.15339500490864,1632.329275834528,0.0,0.0,0.15339500490864,1024,0.0,98,Assisted_Takeoff,
0.3741431208002629,36.9266772522297,8900,2018-04-18 05:31:28,1632.329275834528,0.0,0.0,0.15621800499897598,1632.329275834528,0.0,0.0,0.15621800499897598,1024,0.0,98,Assisted_Takeoff,Setting new Return-To-Home altitude to 30m (98 ft). Setting new Maximum Flight Altitude to 120m (394 ft)
0.37414312178262205,36.9266772370226,9000,2018-04-18 05:31:28,1632.329275834528,0.0,0.0,0.15769000504608,1632.329275834528,0.0,0.0,0.15769000504608,1024,0.0,98,Assisted_Takeoff,
0.37414312283032203,36.9266772205971,9100,2018-04-18 05:31:28,1632.329275834528,0.0,0.0,0.159284005097088,1632.329275834528,0.0,0.0,0.159284005097088,1024,0.0,98,Assisted_Takeoff,
0.37414312042266706,36.9266772178253,9200,2018-04-18 05:31:28,1632.329275834528,0.0,0.0,0.15939700510070404,1632.329275834528,0.0,0.0,0.15939700510070404,1024,0.0,98,Assisted_Takeoff,
0.374143118330524,36.92667720983471,9300,2018-04-18 05:31:28,1632.329275834528,0.0,0.0,0.16002000512064,1632.329275834528,0.0,0.0,0.16002000512064,1024,0.0,98,Assisted_Takeoff,
0.374143153423492,36.9266772527597,9400,2018-04-18 05:31:28,1632.329275834528,0.0,0.0,0.15820400506252802,1632.329275834528,0.0,0.0,0.16002000512064,1024,0.0,98,Assisted_Takeoff,
0.374143180447927,36.9266772795836,9500,2018-04-18 05:31:29,1632.329275834528,0.0,0.0,0.157516005040512,1632.329275834528,0.0,0.0,0.16002000512064,1024,0.0,98,Assisted_Takeoff,
0.374143163269675,36.9266772726063,9600,2018-04-18 05:31:29,1632.329275834528,0.0,0.0,0.157027005024864,1632.329275834528,0.0,0.0,0.16002000512064,1024,0.0,98,Assisted_Takeoff,
0.37414314893489004,36.9266772608306,9700,2018-04-18 05:31:29,1632.329275834528,0.0,0.0,0.15718200502982402,1632.329275834528,0.0,0.0,0.16002000512064,1024,0.0,98,Assisted_Takeoff,
0.37414313300422897,36.9266772554491,9800,2018-04-18 05:31:29,1632.329275834528,0.0,0.0,0.15667600501363196,1632.329275834528,0.0,0.0,0.16002000512064,1024,0.0,98,Assisted_Takeoff,
0.3741431209567971,36.9266772472835,9900,2018-04-18 05:31:29,1632.329275834528,0.0,0.0,0.156686005013952,1632.329275834528,0.0,0.0,0.16002000512064,1024,0.0,98,Assisted_Takeoff,
0.374143148277812,36.9266772464965,10000,2018-04-18 05:31:29,1632.329275834528,0.0,0.0,0.158454005070528,1632.329275834528,0.0,0.0,0.16002000512064,1024,0.0,98,Assisted_Takeoff,
0.3741431685961121,36.926677241447,10100,2018-04-18 05:31:29,1632.329275834528,0.0,0.0,0.16020000512639998,1632.329275834528,0.0,0.0,0.16020000512639998,1024,0.0,98,Assisted_Takeoff,
0.37414320017388003,36.9266772400418,10300,2018-04-18 05:31:29,1632.329275834528,0.0,0.0,0.162362005195584,1632.329275834528,0.0,0.0,0.162362005195584,1024,0.0,98,Assisted_Takeoff,
0.3741432093027329,36.9266772046753,10400,2018-04-18 05:31:29,1632.329275834528,0.0,0.0,0.1661500053168,1632.329275834528,0.0,0.0,0.1661500053168,1024,0.0,98,Assisted_Takeoff,
0.37414321603003897,36.9266771730481,10500,2018-04-18 05:31:30,1632.329275834528,0.0,0.0,0.16945700542262404,1632.329275834528,0.0,0.0,0.16945700542262404,1024,0.0,98,Assisted_Takeoff,
0.374143218783331,36.9266771523995,10600,2018-04-18 05:31:30,1632.329275834528,0.0,0.0,0.171518005488576,1632.329275834528,0.0,0.0,0.171518005488576,1024,0.0,98,Assisted_Takeoff,
0.37414325761154205,36.926677125058,10800,2018-04-18 05:31:30,1632.329275834528,0.0,0.0,0.176481005647392,1632.329275834528,0.0,0.0,0.176481005647392,1024,0.0,98,Assisted_Takeoff,
0.37414328619969106,36.926677113970605,10900,2018-04-18 05:31:30,1632.329275834528,0.0,0.0,0.17932900573852803,1632.329275834528,0.0,0.0,0.17932900573852803,1024,0.0,98,Assisted_Takeoff,
0.37414330751693897,36.9266770769153,11000,2018-04-18 05:31:30,1632.329275834528,0.0,0.0,0.18405900588988802,1632.329275834528,0.0,0.0,0.18405900588988802,1024,0.0,98,Assisted_Takeoff,
0.374143322872861,36.926677041693395,11100,2018-04-18 05:31:30,1632.329275834528,0.0,0.0,0.18824000602368002,1632.329275834528,0.0,0.0,0.18824000602368002,1024,0.0,98,Assisted_Takeoff,
0.37414333017022294,36.926677022098296,11200,2018-04-18 05:31:30,1632.329275834528,0.0,0.0,0.190488006095616,1632.329275834528,0.0,0.0,0.190488006095616,1024,0.0,98,Assisted_Takeoff,
0.374143335029399,36.926677003216795,11300,2018-04-18 05:31:30,1632.329275834528,0.0,0.0,0.192517006160544,1632.329275834528,0.0,0.0,0.192517006160544,1024,0.0,98,Assisted_Takeoff,
0.37414333539803796,36.9266769960131,11400,2018-04-18 05:31:30,1632.329275834528,0.0,0.0,0.193198006182336,1632.329275834528,0.0,0.0,0.193198006182336,1024,0.0,98,Assisted_Takeoff,
0.37414333520557597,36.9266769851817,11500,2018-04-18 05:31:30,1632.329275834528,0.0,0.0,0.19417600621363199,1632.329275834528,0.0,0.0,0.19417600621363199,1024,0.0,98,Assisted_Takeoff,
0.374143330494589,36.92667695276,11600,2018-04-18 05:31:31,1632.329275834528,0.0,0.0,0.196863006299616,1632.329275834528,0.0,0.0,0.196863006299616,1024,0.0,98,Assisted_Takeoff,
0.374143327333779,36.9266769198999,11700,2018-04-18 05:31:31,1632.329275834528,0.0,0.0,0.19971500639088002,1632.329275834528,0.0,0.0,0.19971500639088002,1024,0.0,98,Assisted_Takeoff,
0.374143321191187,36.926676904688,11800,2018-04-18 05:31:31,1632.329275834528,0.0,0.0,0.20076200642438402,1632.329275834528,0.0,0.0,0.20076200642438402,1024,0.0,98,Assisted_Takeoff,
0.374143316245195,36.9266768866764,11900,2018-04-18 05:31:31,1632.329275834528,0.0,0.0,0.20215500646896004,1632.329275834528,0.0,0.0,0.20215500646896004,1024,0.0,98,Assisted_Takeoff,
0.37414331015389896,36.9266768479717,12000,2018-04-18 05:31:31,1632.329275834528,0.0,0.0,0.20544900657436801,1632.329275834528,0.0,0.0,0.20544900657436801,1024,0.0,98,Assisted_Takeoff,
0.37414330420692293,36.9266768093769,12100,2018-04-18 05:31:31,1632.329275834528,0.0,0.0,0.20878100668099203,1632.329275834528,0.0,0.0,0.20878100668099203,1024,0.0,98,Assisted_Takeoff,
0.374143298720899,36.92667679210611,12200,2018-04-18 05:31:31,1632.329275834528,0.0,0.0,0.21012400672396803,1632.329275834528,0.0,0.0,0.21012400672396803,1024,0.0,98,Assisted_Takeoff,
0.37414329253016493,36.9266767711969,12300,2018-04-18 05:31:31,1632.329275834528,0.0,0.0,0.21179100677731197,1632.329275834528,0.0,0.0,0.21179100677731197,1024,0.0,98,Assisted_Takeoff,
0.37414328775139505,36.9266767331004,12400,2018-04-18 05:31:31,1632.329275834528,0.0,0.0,0.21521500688688003,1632.329275834528,0.0,0.0,0.21521500688688003,1024,0.0,98,Assisted_Takeoff,
0.3741432812844361,36.92667669443,12500,2018-04-18 05:31:32,1632.329275834528,0.0,0.0,0.21863600699635202,1632.329275834528,0.0,0.0,0.21863600699635202,1024,0.0,98,Assisted_Takeoff,
0.37414327825675203,36.926676678959495,12600,2018-04-18 05:31:32,1632.329275834528,0.0,0.0,0.21999000703968,1632.329275834528,0.0,0.0,0.21999000703968,1024,0.0,98,Assisted_Takeoff,
0.37414327228850497,36.9266766598789,12700,2018-04-18 05:31:32,1632.329275834528,0.0,0.0,0.221553007089696,1632.329275834528,0.0,0.0,0.221553007089696,1024,0.0,98,Assisted_Takeoff,
0.374143270412334,36.92667662573621,12800,2018-04-18 05:31:32,1632.329275834528,0.0,0.0,0.22482400719436804,1632.329275834528,0.0,0.0,0.22482400719436804,1024,0.0,98,Assisted_Takeoff,
0.37414326545881005,36.9266765899447,12900,2018-04-18 05:31:32,1632.329275834528,0.0,0.0,0.22812100729987198,1632.329275834528,0.0,0.0,0.22812100729987198,1024,0.0,98,Assisted_Takeoff,
0.37414326521474706,36.9266765769383,13000,2018-04-18 05:31:32,1632.329275834528,0.0,0.0,0.22940200734086402,1632.329275834528,0.0,0.0,0.22940200734086402,1024,0.0,98,Assisted_Takeoff,
0.374143260764617,36.926676558918096,13100,2018-04-18 05:31:32,1632.329275834528,0.0,0.0,0.230978007391296,1632.329275834528,0.0,0.0,0.230978007391296,1024,0.0,98,Assisted_Takeoff,
0.374143261673492,36.9266765237755,13200,2018-04-18 05:31:32,1632.329275834528,0.0,0.0,0.23453500750512,1632.329275834528,0.0,0.0,0.23453500750512,1024,0.0,98,Assisted_Takeoff,
0.3741432571511,36.9266764869787,13300,2018-04-18 05:31:32,1632.329275834528,0.0,0.0,0.23801100761635202,1632.329275834528,0.0,0.0,0.23801100761635202,1024,0.0,98,Assisted_Takeoff,
0.37414325752401395,36.926676474169795,13400,2018-04-18 05:31:32,1632.329275834528,0.0,0.0,0.239318007658176,1632.329275834528,0.0,0.0,0.239318007658176,1024,0.0,98,Assisted_Takeoff,
0.374143253200902,36.9266764559114,13500,2018-04-18 05:31:32,1632.329275834528,0.0,0.0,0.240956007710592,1632.329275834528,0.0,0.0,0.240956007710592,1024,0.0,98,Assisted_Takeoff,
0.37414325453948294,36.926676421298104,13600,2018-04-18 05:31:33,1632.329275834528,0.0,0.0,0.244516007824512,1632.329275834528,0.0,0.0,0.244516007824512,1024,0.0,98,Assisted_Takeoff,
0.37414325038837604,36.9266763854799,13700,2018-04-18 05:31:33,1632.329275834528,0.0,0.0,0.24795900793468803,1632.329275834528,0.0,0.0,0.24795900793468803,1024,0.0,98,Assisted_Takeoff,
0.374143252039211,36.9266763736645,13800,2018-04-18 05:31:33,1632.329275834528,0.0,0.0,0.24923500797551998,1632.329275834528,0.0,0.0,0.24923500797551998,1024,0.0,98,Assisted_Takeoff,
0.374143248471493,36.9266763562733,13900,2018-04-18 05:31:33,1632.329275834528,0.0,0.0,0.25084500802704,1632.329275834528,0.0,0.0,0.25084500802704,1024,0.0,98,Assisted_Takeoff,
0.37414325155678396,36.926676322609794,14000,2018-04-18 05:31:33,1632.329275834528,0.0,0.0,0.25441500814128,1632.329275834528,0.0,0.0,0.25441500814128,1024,0.0,98,Assisted_Takeoff,
0.374143248962266,36.926676288000294,14100,2018-04-18 05:31:33,1632.329275834528,0.0,0.0,0.25783900825084805,1632.329275834528,0.0,0.0,0.25783900825084805,1024,0.0,98,Assisted_Takeoff,
0.37414325140818894,36.92667619177,14300,2018-04-18 05:31:33,1632.329275834528,0.0,0.0,0.267827008570464,1632.329275834528,0.0,0.0,0.267827008570464,1024,0.0,98,Assisted_Takeoff,
0.3741432175705471,36.926676172076995,14400,2018-04-18 05:31:33,1632.329275834528,0.0,0.0,0.268472008591104,1632.329275834528,0.0,0.0,0.268472008591104,1024,0.0,98,Assisted_Takeoff,
0.37414318726927603,36.926676148587,14500,2018-04-18 05:31:34,1632.329275834528,0.0,0.0,0.269719008631008,1632.329275834528,0.0,0.0,0.269719008631008,1024,0.0,98,Assisted_Takeoff,
0.37414316751177207,36.926676111816,14600,2018-04-18 05:31:34,1632.329275834528,0.0,0.0,0.27281200872998396,1632.329275834528,0.0,0.0,0.27281200872998396,1024,0.0,98,Assisted_Takeoff,
0.37414314853856706,36.9266760738726,14700,2018-04-18 05:31:34,1632.329275834528,0.0,0.0,0.276099008835168,1632.329275834528,0.0,0.0,0.276099008835168,1024,0.0,98,Assisted_Takeoff,
0.374143141124465,36.926676023265294,14800,2018-04-18 05:31:34,1632.329275834528,0.0,0.0,0.28116800899737604,1632.329275834528,0.0,0.0,0.28116800899737604,1024,0.0,98,Assisted_Takeoff,
0.37414312958755,36.92667597523229,14900,2018-04-18 05:31:34,1632.329275834528,0.0,0.0,0.28584800914713604,1632.329275834528,0.0,0.0,0.28584800914713604,1024,0.0,98,Assisted_Takeoff,
0.374143129656555,36.9266759565789,15000,2018-04-18 05:31:34,1632.329275834528,0.0,0.0,0.287826009210432,1632.329275834528,0.0,0.0,0.287826009210432,1024,0.0,98,Assisted_Takeoff,
0.374143123739197,36.9266759327431,15100,2018-04-18 05:31:34,1632.329275834528,0.0,0.0,0.29015500928495996,1632.329275834528,0.0,0.0,0.29015500928495996,1024,0.0,98,Assisted_Takeoff,
0.374143089921911,36.9266758976615,15200,2018-04-18 05:31:34,1632.329275834528,0.0,0.0,0.292793009369376,1632.329275834528,0.0,0.0,0.292793009369376,1024,0.0,98,Assisted_Takeoff,
0.37414305763108796,36.9266758602325,15300,2018-04-18 05:31:34,1632.329275834528,0.0,0.0,0.295804009465728,1632.329275834528,0.0,0.0,0.295804009465728,1024,0.0,98,Assisted_Takeoff,
0.37414303972553203,36.9266758119164,15400,2018-04-18 05:31:34,1632.329275834528,0.0,0.0,0.30046400961484804,1632.329275834528,0.0,0.0,0.30046400961484804,1024,0.0,98,Assisted_Takeoff,
0.37414302008833,36.9266757646955,15500,2018-04-18 05:31:34,1632.329275834528,0.0,0.0,0.30499600975987196,1632.329275834528,0.0,0.0,0.30499600975987196,1024,0.0,98,Assisted_Takeoff,
0.374143015372559,36.92667574783,15600,2018-04-18 05:31:34,1632.329275834528,0.0,0.0,0.30668600981395205,1632.329275834528,0.0,0.0,0.30668600981395205,1024,0.0,98,Assisted_Takeoff,
0.37414300488578706,36.9266757256788,15700,2018-04-18 05:31:35,1632.329275834528,0.0,0.0,0.308796009881472,1632.329275834528,0.0,0.0,0.308796009881472,1024,0.0,98,Assisted_Takeoff,
0.37414297072551006,36.9266756928546,15800,2018-04-18 05:31:35,1632.329275834528,0.0,0.0,0.31147000996704,1632.329275834528,0.0,0.0,0.31147000996704,1024,0.0,98,Assisted_Takeoff,
0.37414293675535404,36.9266756567007,15900,2018-04-18 05:31:35,1632.329275834528,0.0,0.0,0.314577010066464,1632.329275834528,0.0,0.0,0.314577010066464,1024,0.0,98,Assisted_Takeoff,
0.374142920407201,36.9266756101452,16000,2018-04-18 05:31:35,1632.329275834528,0.0,0.0,0.31927101021667204,1632.329275834528,0.0,0.0,0.31927101021667204,1024,0.0,98,Assisted_Takeoff,
0.374142900680841,36.9266755644923,16100,2018-04-18 05:31:35,1632.329275834528,0.0,0.0,0.32382001036224,1632.329275834528,0.0,0.0,0.32382001036224,1024,0.0,98,Assisted_Takeoff,
0.37414289882238,36.9266755100046,16200,2018-04-18 05:31:35,1632.329275834528,0.0,0.0,0.32973101055139203,1632.329275834528,0.0,0.0,0.32973101055139203,1024,0.0,98,Assisted_Takeoff,
0.374142889222906,36.926675458088496,16300,2018-04-18 05:31:35,1632.329275834528,0.0,0.0,0.335209010726688,1632.329275834528,0.0,0.0,0.335209010726688,1024,0.0,98,Assisted_Takeoff,
0.374142895793677,36.926675399903296,16400,2018-04-18 05:31:35,1632.329275834528,0.0,0.0,0.34170501093456,1632.329275834528,0.0,0.0,0.34170501093456,1024,0.0,98,Assisted_Takeoff,
0.37414289243867604,36.9266753444076,16500,2018-04-18 05:31:36,1632.329275834528,0.0,0.0,0.347712011126784,1632.329275834528,0.0,0.0,0.347712011126784,1024,0.0,98,Assisted_Takeoff,
0.374142864041462,36.926675285792605,16600,2018-04-18 05:31:36,1632.329275834528,0.0,0.0,0.35360101131523203,1632.329275834528,0.0,0.0,0.35360101131523203,1024,0.0,98,Assisted_Takeoff,
0.374142833796168,36.9266752291985,16700,2018-04-18 05:31:36,1632.329275834528,0.0,0.0,0.359286011497152,1632.329275834528,0.0,0.0,0.359286011497152,1024,0.0,98,Assisted_Takeoff,
0.37414281985526293,36.9266751729421,16800,2018-04-18 05:31:36,1632.329275834528,0.0,0.0,0.365243011687776,1632.329275834528,0.0,0.0,0.365243011687776,1024,0.0,98,Assisted_Takeoff,
0.37414280251783,36.9266751170823,16900,2018-04-18 05:31:36,1632.329275834528,0.0,0.0,0.371121011875872,1632.329275834528,0.0,0.0,0.371121011875872,1024,0.0,98,Assisted_Takeoff,
0.37414280159837,36.9266750994647,17000,2018-04-18 05:31:36,1632.329275834528,0.0,0.0,0.37304801193753606,1632.329275834528,0.0,0.0,0.37304801193753606,1024,0.0,98,Assisted_Takeoff,
0.37414279295886405,36.9266750743881,17100,2018-04-18 05:31:36,1632.329275834528,0.0,0.0,0.37568201202182394,1632.329275834528,0.0,0.0,0.37568201202182394,1024,0.0,98,Assisted_Takeoff,
0.37414276137559993,36.926675046033104,17200,2018-04-18 05:31:36,1632.329275834528,0.0,0.0,0.37836001210752,1632.329275834528,0.0,0.0,0.37836001210752,1024,0.0,98,Assisted_Takeoff,
0.37414272846291496,36.926675010163,17300,2018-04-18 05:31:36,1632.329275834528,0.0,0.0,0.381892012220544,1632.329275834528,0.0,0.0,0.381892012220544,1024,0.0,98,Assisted_Takeoff,
0.374142713901165,36.9266749707405,17400,2018-04-18 05:31:36,1632.329275834528,0.0,0.0,0.3860730123543361,1632.329275834528,0.0,0.0,0.3860730123543361,1024,0.0,98,Assisted_Takeoff,
0.37414269543969897,36.926674928523795,17500,2018-04-18 05:31:36,1632.329275834528,0.0,0.0,0.39053101249699207,1632.329275834528,0.0,0.0,0.39053101249699207,1024,0.0,98,Assisted_Takeoff,
0.3741426947205371,36.9266748814977,17600,2018-04-18 05:31:37,1632.329275834528,0.0,0.0,0.39572601266323204,1632.329275834528,0.0,0.0,0.39572601266323204,1024,0.0,98,Assisted_Takeoff,
0.37414268619115504,36.9266748332507,17700,2018-04-18 05:31:37,1632.329275834528,0.0,0.0,0.4009750128312,1632.329275834528,0.0,0.0,0.4009750128312,1024,0.0,98,Assisted_Takeoff,
0.374142694043919,36.926674818935396,17800,2018-04-18 05:31:37,1632.329275834528,0.0,0.0,0.40264301288457605,1632.329275834528,0.0,0.0,0.40264301288457605,1024,0.0,98,Assisted_Takeoff,
0.37414269140359996,36.9266747977831,17900,2018-04-18 05:31:37,1632.329275834528,0.0,0.0,0.404956012958592,1632.329275834528,0.0,0.0,0.404956012958592,1024,0.0,98,Assisted_Takeoff,
0.37414270270215205,36.9266747701139,18000,2018-04-18 05:31:37,1632.329275834528,0.0,0.0,0.40814001306048003,1632.329275834528,0.0,0.0,0.40814001306048003,1024,0.0,98,Assisted_Takeoff,
0.37414270318926,36.9266747364177,18100,2018-04-18 05:31:37,1632.329275834528,0.0,0.0,0.41187501318,1632.329275834528,0.0,0.0,0.41187501318,1024,0.0,98,Assisted_Takeoff,
0.374142714112252,36.9266747318879,18200,2018-04-18 05:31:37,1632.329275834528,0.0,0.0,0.41249501319984005,1632.329275834528,0.0,0.0,0.41249501319984005,1024,0.0,98,Assisted_Takeoff,
0.374142714943165,36.9266747179805,18300,2018-04-18 05:31:37,1632.329275834528,0.0,0.0,0.4140430132493761,1632.329275834528,0.0,0.0,0.4140430132493761,1024,0.0,98,Assisted_Takeoff,
0.37414272463647796,36.92667469191829,18400,2018-04-18 05:31:37,1632.329275834528,0.0,0.0,0.41703501334512,1632.329275834528,0.0,0.0,0.41703501334512,1024,0.0,98,Assisted_Takeoff,
0.374142724947104,36.92667466024879,18500,2018-04-18 05:31:38,1632.329275834528,0.0,0.0,0.42054301345737605,1632.329275834528,0.0,0.0,0.42054301345737605,1024,0.0,98,Assisted_Takeoff,
0.37414269531329103,36.9266746543999,18600,2018-04-18 05:31:38,1632.329275834528,0.0,0.0,0.42087101346787203,1632.329275834528,0.0,0.0,0.42087101346787203,1024,0.0,98,Assisted_Takeoff,
0.37414266503664895,36.926674640096394,18700,2018-04-18 05:31:38,1632.329275834528,0.0,0.0,0.42215701350902396,1632.329275834528,0.0,0.0,0.42215701350902396,1024,0.0,98,Assisted_Takeoff,
0.37414264750685705,36.92667464998679,18800,2018-04-18 05:31:38,1632.329275834528,0.0,0.0,0.42090001346879996,1632.329275834528,0.0,0.0,0.42215701350902396,1024,0.0,98,Assisted_Takeoff,
0.374142628497623,36.926674648409296,18900,2018-04-18 05:31:38,1632.329275834528,0.0,0.0,0.420911013469152,1632.329275834528,0.0,0.0,0.42215701350902396,1024,0.0,98,Assisted_Takeoff,
0.37414261414044603,36.9266746715246,19100,2018-04-18 05:31:38,1632.329275834528,0.0,0.0,0.41823001338335997,1632.329275834528,0.0,0.0,0.42215701350902396,1026,0.0,98,Assisted_Takeoff,
0.3741426171312871,36.9266746515628,19200,2018-04-18 05:31:38,1632.329275834528,0.0,0.0,0.42046801345497603,1632.329275834528,0.0,0.0,0.42215701350902396,1044,0.0,98,Assisted_Takeoff,
0.37414261166480395,36.9266746291499,19300,2018-04-18 05:31:38,1632.329275834528,0.0,0.0,0.422911013533152,1632.329275834528,0.0,0.0,0.422911013533152,1092,0.0,98,Assisted_Takeoff,
0.374142617600483,36.926674621656,19400,2018-04-18 05:31:38,1632.329275834528,0.0,0.0,0.42378901356124804,1632.329275834528,0.0,0.0,0.42378901356124804,1139,0.0,98,Assisted_Takeoff,
0.374142614230214,36.9266746109578,19500,2018-04-18 05:31:38,1632.329275834528,0.0,0.0,0.424949013598368,1632.329275834528,0.0,0.0,0.424949013598368,1167,0.0,98,Assisted_Takeoff,
0.374142584324858,36.92667457718021,19600,2018-04-18 05:31:39,1632.329275834528,0.0,0.0,0.428476013711232,1632.329275834528,0.0,0.0,0.428476013711232,1177,0.0,98,Assisted_Takeoff,
0.374142552604601,36.926674544749496,19700,2018-04-18 05:31:39,1632.329275834528,0.0,0.0,0.43187101381987203,1632.329275834528,0.0,0.0,0.43187101381987203,1177,0.0,98,Assisted_Takeoff,
0.37414249570819297,36.9266744502247,19800,2018-04-18 05:31:39,1632.329275834528,0.0,0.0,0.44208101414659196,1632.329275834528,0.0,0.0,0.44208101414659196,1189,0.0,98,Assisted_Takeoff,
0.374142445289531,36.9266743734145,19900,2018-04-18 05:31:39,1632.329275834528,0.0,0.0,0.450442014414144,1632.329275834528,0.0,0.0,0.450442014414144,1181,0.0,98,Assisted_Takeoff,
0.37414237922742605,36.9266742847134,20000,2018-04-18 05:31:39,1632.329275834528,0.0,0.0,0.460182014725824,1632.329275834528,0.0,0.0,0.460182014725824,1195,0.0,98,Assisted_Takeoff,
0.374142320104527,36.926674210408,20100,2018-04-18 05:31:39,1632.329275834528,0.0,0.0,0.46843601498995197,1632.329275834528,0.0,0.0,0.46843601498995197,1214,0.0,98,Assisted_Takeoff,
0.37414221107653794,36.926674049209105,20300,2018-04-18 05:31:39,1632.329275834528,0.0,0.0,0.4865790155705281,1632.329275834528,0.0,0.0,0.4865790155705281,1212,0.0,98,Assisted_Takeoff,
0.374142183248669,36.926673938488,20400,2018-04-18 05:31:39,1632.329275834528,0.0,0.0,0.498987015967584,1632.329275834528,0.0,0.0,0.498987015967584,1211,0.0,98,P-GPS,Obstacle Avoided. Revise Flight Route
0.3741421801542179,36.926673803885606,20500,2018-04-18 05:31:40,1632.329275834528,0.0,0.0,0.5139580164466561,1632.329275834528,0.0,0.0,0.5139580164466561,1217,0.0,98,P-GPS,
0.374142207816596,36.9266736396976,20600,2018-04-18 05:31:40,1632.329275834528,0.0,0.0,0.532109017027488,1632.329275834528,0.0,0.0,0.532109017027488,1212,0.0,98,P-GPS,
0.37414223056066603,36.9266734849793,20700,2018-04-18 05:31:40,1632.329275834528,0.0,0.0,0.549244017575808,1632.329275834528,0.0,0.0,0.549244017575808,1217,0.0,98,P-GPS,
0.374142319516252,36.9266733201307,20800,2018-04-18 05:31:40,1632.4292758377278,0.10000000320000002,0.0,0.5674370181579841,1632.4292758377278,0.10000000320000002,0.0,0.5674370181579841,1231,0.0,98,P-GPS,
0.37414238716527604,36.9266731761368,20900,2018-04-18 05:31:40,1632.4292758377278,0.10000000320000002,0.0,0.5834630186708161,1632.4292758377278,0.10000000320000002,0.0,0.5834630186708161,1234,0.0,98,P-GPS,Home Point Recorded. RTH Altitude:  30m.
0.37414243230899996,36.9266730732157,21000,2018-04-18 05:31:40,1632.5292758409282,0.20000000640000004,0.0,0.594969019039008,1632.5292758409282,0.20000000640000004,0.0,0.594969019039008,1233,0.0,98,P-GPS,
0.374142459880796,36.9266729784056,21100,2018-04-18 05:31:40,1632.629275844128,0.3000000096,0.0,0.6055680193781761,1632.629275844128,0.3000000096,0.0,0.6055680193781761,1266,0.0,98,P-GPS,
0.374142587731563,36.9266727497988,21300,2018-04-18 05:31:40,1632.729275847328,0.4000000128000001,0.0,0.63143502020592,1632.729275847328,0.4000000128000001,0.0,0.63143502020592,1281,0.0,98,P-GPS,
0.374142622667386,36.9266726499825,21400,2018-04-18 05:31:40,1632.829275850528,0.500000016,0.0,0.6427000205664001,1632.829275850528,0.500000016,0.0,0.6427000205664001,1303,0.0,98,P-GPS,
0.37414265271075303,36.9266725539541,21500,2018-04-18 05:31:40,1632.929275853728,0.6000000192,0.0,0.653534020913088,1632.929275853728,0.6000000192,0.0,0.653534020913088,1316,0.0,98,P-GPS,
0.37414271670961996,36.926672452899105,21600,2018-04-18 05:31:41,1633.029275856928,0.7000000224000001,0.0,0.6651620212851841,1633.029275856928,0.7000000224000001,0.0,0.6651620212851841,1322,0.0,98,P-GPS,
0.3741427858240399,36.9266723455521,21700,2018-04-18 05:31:41,1633.229275863328,0.9000000288000001,0.0,0.67759002168288,1633.229275863328,0.9000000288000001,0.0,0.67759002168288,1322,0.0,98,P-GPS,
0.374142911728205,36.926672271708,21800,2018-04-18 05:31:41,1633.3292758665282,1.000000032,0.0,0.6869260219816321,1633.3292758665282,1.000000032,0.0,0.6869260219816321,1321,0.0,98,P-GPS,
0.3741430078802921,36.9266721922882,21900,2018-04-18 05:31:41,1633.5292758729279,1.2000000384,0.0,0.696772022296704,1633.5292758729279,1.2000000384,0.0,0.696772022296704,1326,0.0,98,P-GPS,
0.37414315031072104,36.9266720129471,22100,2018-04-18 05:31:41,1633.829275882528,1.5000000480000002,0.0,0.718411022989152,1633.829275882528,1.5000000480000002,0.0,0.718411022989152,1343,0.0,98,P-GPS,
0.37414323881074896,36.926671879143896,22200,2018-04-18 05:31:41,1634.029275888928,1.7000000544000002,0.0,0.73444502350224,1634.029275888928,1.7000000544000002,0.0,0.73444502350224,1349,0.0,98,P-GPS,
0.3741433098247489,36.926671754399294,22300,2018-04-18 05:31:41,1634.1292758921281,1.8000000576000001,0.0,0.749282023977024,1634.1292758921281,1.8000000576000001,0.0,0.749282023977024,1344,0.0,98,P-GPS,
0.374143340523565,36.9266716417591,22400,2018-04-18 05:31:41,1634.3292758985278,2.000000064,0.0,0.76217002438944,1634.3292758985278,2.000000064,0.0,0.76217002438944,1345,0.0,98,P-GPS,
0.37414337023350797,36.926671534383104,22500,2018-04-18 05:31:42,1634.529275904928,2.2000000704,0.0,0.7744660247829122,1634.529275904928,2.2000000704,0.0,0.7744660247829122,1346,0.0,98,P-GPS,
0.374143402906914,36.926671403461,22600,2018-04-18 05:31:42,1634.629275908128,2.3000000736,0.0,0.789402025260864,1634.629275908128,2.3000000736,0.0,0.789402025260864,1346,0.0,98,P-GPS,
0.374143430798495,36.9266712912629,22700,2018-04-18 05:31:42,1634.8292759145281,2.50000008,0.0,0.8022030256704961,1634.8292759145281,2.50000008,0.0,0.8022030256704961,1346,0.0,98,P-GPS,
0.37414350325855394,36.9266711580978,22800,2018-04-18 05:31:42,1635.029275920928,2.7000000863999998,0.0,0.818077026178464,1635.029275920928,2.7000000863999998,0.0,0.818077026178464,1342,0.0,98,P-GPS,
0.374143554444009,36.9266710447392,22900,2018-04-18 05:31:42,1635.229275927328,2.9000000928,0.0,0.83143002660576,1635.229275927328,2.9000000928,0.0,0.83143002660576,1344,0.0,98,P-GPS,
0.37414352904577897,36.9266709375646,23000,2018-04-18 05:31:42,1635.429275933728,3.1000000992,0.0,0.8427470269679039,1635.429275933728,3.1000000992,0.0,0.8427470269679039,1347,0.0,98,P-GPS,
0.37414349614836,36.9266708476184,23100,2018-04-18 05:31:42,1635.529275936928,3.2000001024000007,0.0,0.85207002726624,1635.529275936928,3.2000001024000007,0.0,0.85207002726624,1346,0.0,98,P-GPS,
0.374143483337187,36.926670710902,23200,2018-04-18 05:31:42,1635.729275943328,3.4000001088000005,0.0,0.8668940277406079,1635.729275943328,3.4000001088000005,0.0,0.8668940277406079,1345,0.0,98,P-GPS,
0.374143472440454,36.926670600041206,23300,2018-04-18 05:31:42,1635.9292759497278,3.6000001152000003,0.0,0.878918028125376,1635.9292759497278,3.6000001152000003,0.0,0.878918028125376,1346,0.0,98,P-GPS,
0.374143508276197,36.9266705231769,23400,2018-04-18 05:31:42,1636.129275956128,3.8000001215999997,0.0,0.8879510284144321,1636.129275956128,3.8000001215999997,0.0,0.8879510284144321,1369,0.0,98,P-GPS,
0.374143537963443,36.926670458164395,23500,2018-04-18 05:31:43,1636.2292759593279,3.9000001248,0.0,0.8955880286588161,1636.2292759593279,3.9000001248,0.0,0.8955880286588161,1370,0.0,98,P-GPS,
0.37414358063803904,36.9266704112358,23600,2018-04-18 05:31:43,1636.429275965728,4.100000131200001,0.0,0.9014610288467522,1636.429275965728,4.100000131200001,0.0,0.9014610288467522,1368,0.0,98,P-GPS,
0.37414361824278103,36.9266703575612,23700,2018-04-18 05:31:43,1636.629275972128,4.3000001376,0.0,0.9080030290560962,1636.629275972128,4.3000001376,0.0,0.9080030290560962,1377,0.0,98,P-GPS,
0.374143694628,36.9266703053159,23800,2018-04-18 05:31:43,1636.8292759785281,4.5000001439999995,0.0,0.915098029283136,1636.8292759785281,4.5000001439999995,0.0,0.915098029283136,1374,-0.1,98,P-GPS,
0.374143755924464,36.9266702402188,23900,2018-04-18 05:31:43,1637.0292759849278,4.700000150400001,0.0,0.923374029547968,1637.0292759849278,4.700000150400001,0.0,0.923374029547968,1357,-0.8,98,P-GPS,
0.37414382530503293,36.926670129735896,24000,2018-04-18 05:31:43,1637.229275991328,4.9000001568,0.0,0.9368100299779202,1637.229275991328,4.9000001568,0.0,0.9368100299779202,1341,-1.7,98,P-GPS,
0.37414388226210105,36.926670013714705,24100,2018-04-18 05:31:43,1637.429275997728,5.1000001632,0.0,0.950633030420256,1637.429275997728,5.1000001632,0.0,0.950633030420256,1346,-2.9,98,P-GPS,
0.37414394612753704,36.9266699588892,24200,2018-04-18 05:31:43,1637.629276004128,5.3000001696,0.0,0.9579260306536321,1637.629276004128,5.3000001696,0.0,0.9579260306536321,1346,-4.3,98,P-GPS,
0.3741439923173329,36.926669900783295,24300,2018-04-18 05:31:43,1637.8292760105278,5.500000176000001,0.0,0.9652380308876161,1637.8292760105278,5.500000176000001,0.0,0.9652380308876161,1354,-4.3,98,P-GPS,
0.374144041814906,36.9266698414269,24400,2018-04-18 05:31:43,1637.929276013728,5.600000179200001,0.0,0.972772031128704,1637.929276013728,5.600000179200001,0.0,0.972772031128704,1348,-7.1,98,P-GPS,
0.37414407902973706,36.9266697772517,24500,2018-04-18 05:31:44,1638.129276020128,5.8000001856,0.0,0.9805800313785602,1638.129276020128,5.8000001856,0.0,0.9805800313785602,1353,-8.7,98,P-GPS,
0.374144129123829,36.9266697064664,24600,2018-04-18 05:31:44,1638.329276026528,6.000000192000001,0.0,0.989402031660864,1638.329276026528,6.000000192000001,0.0,0.989402031660864,1355,-10.4,98,P-GPS,
0.37414417070406,36.926669640828706,24700,2018-04-18 05:31:44,1638.529276032928,6.2000001984,0.0,0.9974850319195201,1638.529276032928,6.2000001984,0.0,0.9974850319195201,1353,-10.4,98,P-GPS,
0.374144225494636,36.926669560540496,24800,2018-04-18 05:31:44,1638.7292760393282,6.400000204800001,0.0,1.00748003223936,1638.7292760393282,6.400000204800001,0.0,1.00748003223936,1341,-12.1,98,P-GPS,
0.374144266936755,36.9266694834996,24900,2018-04-18 05:31:44,1638.9292760457279,6.6000002112,0.0,1.01682003253824,1638.9292760457279,6.6000002112,0.0,1.01682003253824,1341,-13.7,98,P-GPS,
0.37414432089259997,36.926669420649795,25000,2018-04-18 05:31:44,1639.0292760489278,6.7000002144,0.0,1.02492003279744,1639.0292760489278,6.7000002144,0.0,1.02492003279744,1342,-15.3,98,P-GPS,
0.374144361340198,36.9266693653307,25100,2018-04-18 05:31:44,1639.229276055328,6.9000002208,0.0,1.0319000330208001,1639.229276055328,6.9000002208,0.0,1.0319000330208001,1340,-16.8,98,P-GPS,
0.37414437414684104,36.926669286647396,25200,2018-04-18 05:31:44,1639.4292760617282,7.100000227200002,0.0,1.040750033304,1639.4292760617282,7.100000227200002,0.0,1.040750033304,1340,-18.3,98,P-GPS,
0.37414437843560294,36.9266692172497,25300,2018-04-18 05:31:44,1639.6292760681279,7.3000002336000005,0.0,1.04839003354848,1639.6292760681279,7.3000002336000005,0.0,1.04839003354848,1342,-18.7,98,P-GPS,
0.374144398008075,36.92666916290379,25400,2018-04-18 05:31:44,1639.829276074528,7.50000024,0.0,1.05476003375232,1639.829276074528,7.50000024,0.0,1.05476003375232,1342,-18.7,98,P-GPS,
0.37414440551525197,36.92666911965279,25500,2018-04-18 05:31:45,1639.929276077728,7.600000243199999,0.0,1.0596300339081601,1639.929276077728,7.600000243199999,0.0,1.0596300339081601,1324,-18.7,98,P-GPS,
0.374144398726575,36.9266690533502,25600,2018-04-18 05:31:45,1640.129276084128,7.8000002496,0.0,1.0666700341334399,1640.129276084128,7.8000002496,0.0,1.0666700341334399,1344,-18.7,98,P-GPS,
0.37414440480245204,36.9266689681801,25800,2018-04-18 05:31:45,1640.4292760937278,8.1000002592,0.0,1.07607003443424,1640.4292760937278,8.1000002592,0.0,1.07607003443424,1357,-18.7,98,P-GPS,
0.37414440970931,36.926668943311604,25900,2018-04-18 05:31:45,1640.629276100128,8.3000002656,0.0,1.07889003452448,1640.629276100128,8.3000002656,0.0,1.07889003452448,1367,-18.7,98,P-GPS,
0.3741443811519489,36.9266689112229,26000,2018-04-18 05:31:45,1640.829276106528,8.500000272000001,0.0,1.0817000346144001,1640.829276106528,8.500000272000001,0.0,1.0817000346144001,1367,-18.7,98,P-GPS,
0.374144351444856,36.926668876244605,26100,2018-04-18 05:31:45,1640.9292761097279,8.6000002752,0.0,1.08482003471424,1640.9292761097279,8.6000002752,0.0,1.08482003471424,1373,-18.7,98,P-GPS,
0.374144332739327,36.9266688289552,26200,2018-04-18 05:31:45,1641.129276116128,8.8000002816,0.0,1.0895500348656,1641.129276116128,8.8000002816,0.0,1.0895500348656,1375,-18.7,98,P-GPS,
0.37414430613961,36.926668785191396,26300,2018-04-18 05:31:45,1641.3292761225277,9.000000287999999,0.0,1.0937200349990401,1641.3292761225277,9.000000287999999,0.0,1.0937200349990401,1380,-18.7,98,P-GPS,
0.37414429004635996,36.9266687273703,26400,2018-04-18 05:31:45,1641.529276128928,9.2000002944,0.0,1.09967003518944,1641.529276128928,9.2000002944,0.0,1.09967003518944,1382,-18.7,98,P-GPS,
0.374144261624872,36.926668673666796,26500,2018-04-18 05:31:46,1641.729276135328,9.400000300800002,0.0,1.1049100353571202,1641.729276135328,9.400000300800002,0.0,1.1049100353571202,1383,-18.7,98,P-GPS,
0.37414424913160205,36.9266686144774,26600,2018-04-18 05:31:46,1641.929276141728,9.6000003072,0.0,1.1111000355552,1641.929276141728,9.6000003072,0.0,1.1111000355552,1382,-18.7,98,P-GPS,
0.37414422382359797,36.926668561682895,26700,2018-04-18 05:31:46,1642.1292761481282,9.8000003136,0.0,1.1163300357225603,1642.1292761481282,9.8000003136,0.0,1.1163300357225603,1382,-18.7,98,P-GPS,
0.37414418613514505,36.9266685048735,26800,2018-04-18 05:31:46,1642.3292761545279,10.00000032,0.0,1.12177003589664,1642.3292761545279,10.00000032,0.0,1.12177003589664,1380,-18.7,98,P-GPS,
0.37414414522033707,36.926668455108796,26900,2018-04-18 05:31:46,1642.529276160928,10.2000003264,0.0,1.12639003604448,1642.529276160928,10.2000003264,0.0,1.12639003604448,1381,-18.7,98,P-GPS,
0.37414414015551894,36.9266683698755,27000,2018-04-18 05:31:46,1642.729276167328,10.400000332800001,0.0,1.13562003633984,1642.729276167328,10.400000332800001,0.0,1.13562003633984,1381,-18.7,98,P-GPS,
0.37414413154603793,36.9266682928335,27100,2018-04-18 05:31:46,1642.929276173728,10.6000003392,0.0,1.14389003660448,1642.929276173728,10.6000003392,0.0,1.14389003660448,1379,-18.7,98,P-GPS,
0.374144154512594,36.9266682420978,27200,2018-04-18 05:31:46,1643.1292761801278,10.800000345599999,0.0,1.1498900367964802,1643.1292761801278,10.800000345599999,0.0,1.1498900367964802,1379,-18.7,98,P-GPS,
0.3741441642514529,36.926668183592504,27300,2018-04-18 05:31:46,1643.329276186528,11.000000352000002,0.0,1.15648003700736,1643.329276186528,11.000000352000002,0.0,1.15648003700736,1380,-18.7,98,P-GPS,
0.374144186831661,36.926668119480404,27400,2018-04-18 05:31:46,1643.529276192928,11.200000358400002,0.0,1.16394003724608,1643.529276192928,11.200000358400002,0.0,1.16394003724608,1367,-18.7,98,P-GPS,
0.374144194515474,36.926668057155204,27500,2018-04-18 05:31:46,1643.729276199328,11.4000003648,0.0,1.17092003746944,1643.729276199328,11.4000003648,0.0,1.17092003746944,1381,-18.7,98,P-GPS,
0.37414421890808897,36.926668012082,27600,2018-04-18 05:31:47,1643.929276205728,11.6000003712,0.0,1.17633003764256,1643.929276205728,11.6000003712,0.0,1.17633003764256,1391,-18.7,98,P-GPS,
0.37414423619565,36.9266679758446,27700,2018-04-18 05:31:47,1644.129276212128,11.8000003776,0.0,1.18064003778048,1644.129276212128,11.8000003776,0.0,1.18064003778048,1383,-18.7,98,P-GPS,
0.37414422439950706,36.926667915945394,27800,2018-04-18 05:31:47,1644.429276221728,12.1000003872,0.0,1.18696003798272,1644.429276221728,12.1000003872,0.0,1.18696003798272,1383,-18.7,98,P-GPS,
0.374144212275945,36.9266678579734,27900,2018-04-18 05:31:47,1644.629276228128,12.300000393600001,0.0,1.19307003817824,1644.629276228128,12.300000393600001,0.0,1.19307003817824,1390,-18.7,97,P-GPS,
0.37414426270056106,36.9266678499683,28100,2018-04-18 05:31:47,1645.0292762409279,12.700000406400001,0.0,1.19494003823808,1645.0292762409279,12.700000406400001,0.0,1.19494003823808,1397,-18.7,97,P-GPS,
0.37414428751474,36.9266678470712,28200,2018-04-18 05:31:47,1645.229276247328,12.900000412799999,0.0,1.195750038264,1645.229276247328,12.900000412799999,0.0,1.195750038264,1394,-18.7,97,P-GPS,
0.37414430281946703,36.9266678446902,28300,2018-04-18 05:31:47,1645.429276253728,13.100000419199999,0.0,1.19632003828224,1645.429276253728,13.100000419199999,0.0,1.19632003828224,1399,-18.7,97,P-GPS,
0.374144309492016,36.926667817350705,28400,2018-04-18 05:31:47,1645.629276260128,13.3000004256,0.0,1.19944003838208,1645.629276260128,13.3000004256,0.0,1.19944003838208,1383,-18.7,97,P-GPS,
0.374144307646684,36.9266678001426,28500,2018-04-18 05:31:48,1645.8292762665278,13.500000432000002,0.0,1.2012900384412801,1645.8292762665278,13.500000432000002,0.0,1.2012900384412801,1382,-18.8,97,P-GPS,
0.374144298798432,36.9266677971406,28600,2018-04-18 05:31:48,1646.129276276128,13.8000004416,0.0,1.20144003844608,1646.129276276128,13.8000004416,0.0,1.20144003844608,1380,-18.8,97,P-GPS,
0.37414428296690294,36.926667802741,28700,2018-04-18 05:31:48,1646.329276282528,14.000000448,0.0,1.2005100384163199,1646.329276282528,14.000000448,0.0,1.20144003844608,1392,-18.7,97,P-GPS,
0.374144260059378,36.926667820141894,28800,2018-04-18 05:31:48,1646.529276288928,14.200000454400003,0.0,1.1981500383408001,1646.529276288928,14.200000454400003,0.0,1.20144003844608,1410,-18.7,97,P-GPS,
0.374144229233696,36.926667843138794,28900,2018-04-18 05:31:48,1646.7292762953282,14.400000460800001,0.0,1.19502003824064,1646.7292762953282,14.400000460800001,0.0,1.20144003844608,1412,-18.7,97,P-GPS,
0.37414420536406606,36.926667897353,29000,2018-04-18 05:31:48,1647.0292763049279,14.7000004704,0.0,1.18862003803584,1647.0292763049279,14.7000004704,0.0,1.20144003844608,1400,-18.7,97,P-GPS,
0.374144177620418,36.9266679383493,29100,2018-04-18 05:31:48,1647.229276311328,14.9000004768,0.0,1.1836000378752,1647.229276311328,14.9000004768,0.0,1.20144003844608,1398,-18.7,97,P-GPS,
0.3741441772732029,36.9266679499859,29200,2018-04-18 05:31:48,1647.429276317728,15.100000483200002,0.0,1.18232003783424,1647.429276317728,15.100000483200002,0.0,1.20144003844608,1406,-18.7,97,P-GPS,
0.37414417268750505,36.926667956894605,29300,2018-04-18 05:31:48,1647.7292763273279,15.4000004928,0.0,1.1814700378070402,1647.7292763273279,15.4000004928,0.0,1.20144003844608,1408,-18.7,97,P-GPS,
0.374144189622966,36.926667947084496,29400,2018-04-18 05:31:48,1647.929276333728,15.6000004992,0.0,1.18287003785184,1647.929276333728,15.6000004992,0.0,1.20144003844608,1408,-18.7,97,P-GPS,
0.374144197595981,36.9266679356406,29500,2018-04-18 05:31:49,1648.2292763433281,15.900000508800002,0.0,1.18428003789696,1648.2292763433281,15.900000508800002,0.0,1.20144003844608,1415,-18.7,97,P-GPS,
0.374144165200734,36.9266678891199,29700,2018-04-18 05:31:49,1648.729276359328,16.400000524800003,0.0,1.18876003804032,1648.729276359328,16.400000524800003,0.0,1.20144003844608,1411,-18.7,97,P-GPS,
0.37414415407352497,36.9266678661711,29800,2018-04-18 05:31:49,1648.929276365728,16.6000005312,0.0,1.19106003811392,1648.929276365728,16.6000005312,0.0,1.20144003844608,1408,-18.7,97,P-GPS,
0.37414414189795503,36.9266678441045,29900,2018-04-18 05:31:49,1649.129276372128,16.8000005376,0.0,1.193250038184,1649.129276372128,16.8000005376,0.0,1.20144003844608,1411,-18.7,97,P-GPS,
0.37414413953925496,36.9266678286276,30000,2018-04-18 05:31:49,1649.429276381728,17.1000005472,0.0,1.19491003823712,1649.429276381728,17.1000005472,0.0,1.20144003844608,1432,-18.7,97,P-GPS,
0.37414412844833,36.9266678087504,30100,2018-04-18 05:31:50,1649.629276388128,17.3000005536,0.0,1.19688003830016,1649.629276388128,17.3000005536,0.0,1.20144003844608,1482,-18.7,97,P-GPS,
0.374143837016497,36.9266676495092,31200,2018-04-18 05:31:50,1652.529276480928,20.200000646400003,0.0,1.2094700387030402,1652.529276480928,20.200000646400003,0.0,1.2094700387030402,1485,-18.7,97,P-GPS,
0.37414378483860605,36.9266676333482,31300,2018-04-18 05:31:50,1652.8292764905282,20.500000655999997,0.0,1.2104700387350402,1652.8292764905282,20.500000655999997,0.0,1.2104700387350402,1484,-18.7,97,P-GPS,
0.374143755221179,36.9266675850513,31400,2018-04-18 05:31:50,1653.1292765001278,20.800000665600002,0.0,1.21537003889184,1653.1292765001278,20.800000665600002,0.0,1.21537003889184,1484,-18.7,97,P-GPS,
0.374143722148093,36.9266675409663,31500,2018-04-18 05:31:50,1653.429276509728,21.1000006752,0.0,1.2197600390323198,1653.429276509728,21.1000006752,0.0,1.2197600390323198,1478,-18.7,97,P-GPS,
0.374143691863105,36.9266675144556,31600,2018-04-18 05:31:50,1653.729276519328,21.400000684800002,0.0,1.22227003911264,1653.729276519328,21.400000684800002,0.0,1.22227003911264,1451,-18.7,97,P-GPS,
0.37414366349998707,36.9266674888837,31700,2018-04-18 05:31:51,1654.029276528928,21.700000694400003,0.0,1.22471003919072,1654.029276528928,21.700000694400003,0.0,1.22471003919072,1417,-18.8,97,P-GPS,
0.374143631172626,36.9266674491326,31800,2018-04-18 05:31:51,1654.229276535328,21.900000700799996,0.0,1.2286700393174401,1654.229276535328,21.900000700799996,0.0,1.2286700393174401,1401,-18.8,97,P-GPS,
0.374143597348826,36.926667416842605,31900,2018-04-18 05:31:51,1654.529276544928,22.2000007104,0.0,1.23181003941792,1654.529276544928,22.2000007104,0.0,1.23181003941792,1397,-18.7,97,P-GPS,
0.3741435857712,36.92666737208629,32000,2018-04-18 05:31:51,1654.829276554528,22.50000072,0.0,1.23661003957152,1654.829276554528,22.50000072,0.0,1.23661003957152,1382,-18.7,97,P-GPS,
0.37414356751145794,36.92666733729,32100,2018-04-18 05:31:51,1655.0292765609279,22.700000726400003,0.0,1.2402300396873602,1655.0292765609279,22.700000726400003,0.0,1.2402300396873602,1379,-18.7,97,P-GPS,
0.37414353596463,36.9266673236,32200,2018-04-18 05:31:51,1655.329276570528,23.000000735999997,0.0,1.24136003972352,1655.329276570528,23.000000735999997,0.0,1.24136003972352,1397,-18.7,97,P-GPS,
0.374143502312428,36.9266673136806,32300,2018-04-18 05:31:51,1655.5292765769282,23.2000007424,0.0,1.24207003974624,1655.5292765769282,23.2000007424,0.0,1.24207003974624,1417,-18.7,97,P-GPS,
0.374143491259771,36.926667282896,32400,2018-04-18 05:31:51,1655.7292765833279,23.400000748800004,0.0,1.24534003985088,1655.7292765833279,23.400000748800004,0.0,1.24534003985088,1422,-18.7,97,P-GPS,
0.37414347465442604,36.9266672512355,32500,2018-04-18 05:31:51,1655.929276589728,23.6000007552,0.0,1.24866003995712,1655.929276589728,23.6000007552,0.0,1.24866003995712,1425,-18.7,97,P-GPS,
0.37414344778866204,36.926667222935706,32600,2018-04-18 05:31:52,1656.229276599328,23.9000007648,0.0,1.25149004004768,1656.229276599328,23.9000007648,0.0,1.25149004004768,1431,-18.7,97,P-GPS,
0.37414342368484105,36.9266671876469,32700,2018-04-18 05:31:52,1656.429276605728,24.100000771199998,0.0,1.25514004016448,1656.429276605728,24.100000771199998,0.0,1.25514004016448,1438,-18.7,97,P-GPS,
0.374143430564508,36.9266671305667,32800,2018-04-18 05:31:52,1656.729276615328,24.4000007808,0.0,1.26153004036896,1656.729276615328,24.4000007808,0.0,1.26153004036896,1448,-18.8,97,P-GPS,
0.374143440639997,36.926667072543204,32900,2018-04-18 05:31:52,1657.0292766249281,24.7000007904,0.0,1.26806004057792,1657.0292766249281,24.7000007904,0.0,1.26806004057792,1453,-18.8,97,P-GPS,
0.374143464844374,36.9266670077824,33000,2018-04-18 05:31:52,1657.229276631328,24.9000007968,0.0,1.27549004081568,1657.229276631328,24.9000007968,0.0,1.27549004081568,1464,-18.7,97,P-GPS,
0.37414347625762895,36.9266669571226,33100,2018-04-18 05:31:52,1657.529276640928,25.200000806400006,0.0,1.2812200409990402,1657.529276640928,25.200000806400006,0.0,1.2812200409990402,1470,-18.7,97,P-GPS,
0.374143483644149,36.9266669091994,33200,2018-04-18 05:31:52,1657.829276650528,25.500000816,0.0,1.28661004117152,1657.829276650528,25.500000816,0.0,1.28661004117152,1470,-18.7,97,P-GPS,
0.374143482506885,36.92666686106,33300,2018-04-18 05:31:52,1658.129276660128,25.800000825599998,0.0,1.29192004134144,1658.129276660128,25.800000825599998,0.0,1.29192004134144,1470,-18.8,97,P-GPS,
0.37414348225223704,36.9266668035011,33400,2018-04-18 05:31:52,1658.4292766697279,26.100000835200003,0.0,1.29829004154528,1658.4292766697279,26.100000835200003,0.0,1.29829004154528,1465,-18.7,97,P-GPS,
0.374143476419456,36.926666747170295,33500,2018-04-18 05:31:52,1658.729276679328,26.4000008448,0.0,1.30446004174272,1658.729276679328,26.4000008448,0.0,1.30446004174272,1477,-18.7,97,P-GPS,
0.374143471018009,36.9266667253907,33600,2018-04-18 05:31:53,1658.929276685728,26.6000008512,0.0,1.3068100418179203,1658.929276685728,26.6000008512,0.0,1.3068100418179203,1480,-18.7,97,P-GPS,
0.37414345618736206,36.9266667035243,33700,2018-04-18 05:31:53,1659.2292766953278,26.9000008608,0.0,1.30908004189056,1659.2292766953278,26.9000008608,0.0,1.30908004189056,1483,-18.7,97,P-GPS,
0.37414344379123904,36.9266666412215,33800,2018-04-18 05:31:53,1659.529276704928,27.200000870400004,0.0,1.3158500421072001,1659.529276704928,27.200000870400004,0.0,1.3158500421072001,1483,-18.7,97,P-GPS,
0.37414343010447293,36.92666659032629,33900,2018-04-18 05:31:53,1659.829276714528,27.50000088,0.0,1.32134004228288,1659.829276714528,27.50000088,0.0,1.32134004228288,1484,-18.8,97,P-GPS,
0.37414342826769004,36.926666552184294,34000,2018-04-18 05:31:53,1660.129276724128,27.8000008896,0.0,1.3255500424176,1660.129276724128,27.8000008896,0.0,1.3255500424176,1486,-18.7,97,P-GPS,
0.374143415987594,36.926666529806106,34100,2018-04-18 05:31:53,1660.4292767337279,28.1000008992,0.0,1.3279000424928,1660.4292767337279,28.1000008992,0.0,1.3279000424928,1486,-18.7,97,P-GPS,
0.374143413796319,36.9266665380842,34200,2018-04-18 05:31:53,1660.729276743328,28.400000908800006,0.0,1.32696004246272,1660.729276743328,28.400000908800006,0.0,1.3279000424928,1490,-18.7,97,P-GPS,
0.3741434029481339,36.9266665500216,34300,2018-04-18 05:31:53,1661.029276752928,28.7000009184,0.0,1.32553004241696,1661.029276752928,28.7000009184,0.0,1.3279000424928,1493,-18.7,97,P-GPS,
0.37414340272880303,36.926666534464395,34400,2018-04-18 05:31:53,1661.329276762528,29.000000928,0.0,1.327250042472,1661.329276762528,29.000000928,0.0,1.3279000424928,1494,-18.7,97,P-GPS,
0.37414338950207104,36.9266665216416,34500,2018-04-18 05:31:54,1661.7292767753281,29.4000009408,0.0,1.32854004251328,1661.7292767753281,29.4000009408,0.0,1.32854004251328,1494,-18.7,97,P-GPS,
0.374143387856529,36.926666517609604,34600,2018-04-18 05:31:54,1662.029276784928,29.7000009504,0.0,1.32897004252704,1662.029276784928,29.7000009504,0.0,1.32897004252704,1486,-18.7,97,P-GPS,
0.37414337194469705,36.9266665251768,34700,2018-04-18 05:31:54,1662.329276794528,30.00000096,0.0,1.32798004249536,1662.329276794528,30.00000096,0.0,1.32897004252704,1466,-18.7,97,P-GPS,
0.37414332819217294,36.9266665354794,34800,2018-04-18 05:31:54,1662.629276804128,30.300000969600003,0.0,1.3264300424457602,1662.629276804128,30.300000969600003,0.0,1.32897004252704,1452,-18.7,97,P-GPS,
0.3741432778148329,36.9266665535932,34900,2018-04-18 05:31:54,1662.929276813728,30.6000009792,0.0,1.32397004236704,1662.929276813728,30.6000009792,0.0,1.32897004252704,1450,-18.7,97,P-GPS,
0.37414321599685996,36.9266665654279,35000,2018-04-18 05:31:54,1663.229276823328,30.900000988800006,0.0,1.32214004230848,1663.229276823328,30.900000988800006,0.0,1.32897004252704,1464,-18.7,97,P-GPS,
0.374143154554853,36.9266665812453,35100,2018-04-18 05:31:54,1663.5292768329277,31.2000009984,0.0,1.3199000422368001,1663.5292768329277,31.2000009984,0.0,1.32897004252704,1465,-18.7,97,P-GPS,
0.3741430958871049,36.9266665855492,35200,2018-04-18 05:31:54,1663.8292768425279,31.500001007999998,0.0,1.3189900422076801,1663.8292768425279,31.500001007999998,0.0,1.32897004252704,1481,-18.7,97,P-GPS,
