latitude,longitude,time_millisecond,datetime_utc,altitude_m,ascent_m,speed_kph,distance_m,max_altitude_m,max_ascent_m,max_speed_kph,max_distance_m,rc_throttle,gimbal_pitch_degrees,battery_percent,flycState,message
0.307689133601423,36.879444027491104,0,2017-11-08 12:48:50,1769.5193437246285,0.0,0.0,0.0,1769.5193437246285,0.0,0.0,0.0,1024,0.0,99,Motors_Started,
0.30768912798451303,36.879444036062296,100,2017-11-08 12:48:50,1769.5193437246285,0.0,0.0,0.00113959003646688,1769.5193437246285,0.0,0.0,0.00113959003646688,1024,0.0,99,Motors_Started,
0.30768913034087103,36.879444038136,200,2017-11-08 12:48:50,1769.5193437246285,0.0,0.0,0.0012380500396176,1769.5193437246285,0.0,0.0,0.0012380500396176,1024,0.0,99,Motors_Started,
0.307689125319971,36.879444039822204,300,2017-11-08 12:48:50,1769.5193437246285,0.0,0.0,0.00165182005285824,1769.5193437246285,0.0,0.0,0.00165182005285824,1024,0.0,99,Motors_Started,
0.30768912776385804,36.8794440596752,400,2017-11-08 12:48:51,1769.5193437246285,0.0,0.0,0.0036374101163971204,1769.5193437246285,0.0,0.0,0.0036374101163971204,1024,0.0,99,Motors_Started,
0.307689123709847,36.879444087426,500,2017-11-08 12:48:51,1769.5193437246285,0.0,0.0,0.006755190216166079,1769.5193437246285,0.0,0.0,0.006755190216166079,1024,0.0,99,Motors_Started,
0.30768915145324,36.8794441116802,600,2017-11-08 12:48:51,1769.5193437246285,0.0,0.0,0.00957037030625184,1769.5193437246285,0.0,0.0,0.00957037030625184,364,0.0,99,Motors_Started,
0.30768917790690603,36.8794441269715,700,2017-11-08 12:48:51,1769.5193437246285,0.0,0.0,0.012110300387529601,1769.5193437246285,0.0,0.0,0.012110300387529601,433,0.0,99,Motors_Started,Setting new Return-To-Home altitude to 30m (98 ft). Setting new Maximum Flight Altitude to 120m (394 ft)
0.307689212529661,36.8794441364933,800,,1769.5193437246285,0.0,0.0,0.0149657004789024,1769.5193437246285,0.0,0.0,0.0149657004789024,917,0.0,99,Motors_Started,
0.307689228401697,36.8794441432584,900,2017-11-08 12:48:51,1769.5193437246285,0.0,0.0,0.0166396005324672,1769.5193437246285,0.0,0.0,0.0166396005324672,1024,0.0,99,Motors_Started,
0.307689245589517,36.8794441429854,1000,2017-11-08 12:48:51,1769.5193437246285,0.0,0.0,0.01789000057248,1769.5193437246285,0.0,0.0,0.01789000057248,1024,0.0,99,Motors_Started,
0.307689244119439,36.879444142280896,1100,2017-11-08 12:48:51,1769.5193437246285,0.0,0.0,0.01772000056704,1769.5193437246285,0.0,0.0,0.01789000057248,1024,0.0,99,Motors_Started,
0.30768924582482693,36.879444137351896,1200,2017-11-08 12:48:51,1769.5193437246285,0.0,0.0,0.0174644005588608,1769.5193437246285,0.0,0.0,0.01789000057248,1024,0.0,99,Motors_Started,
0.307689204540515,36.879444130038706,1300,2017-11-08 12:48:51,1769.5193437246285,0.0,0.0,0.013866500443728003,1769.5193437246285,0.0,0.0,0.01789000057248,1024,0.0,99,Motors_Started,
0.307689204414717,36.8794441464444,1400,2017-11-08 12:48:51,1769.5193437246285,0.0,0.0,0.0153947004926304,1769.5193437246285,0.0,0.0,0.01789000057248,1024,0.0,99,Motors_Started,
0.30768920239259695,36.8794441706997,1500,2017-11-08 12:48:52,1769.5193437246285,0.0,0.0,0.01766750056536,1769.5193437246285,0.0,0.0,0.01789000057248,1024,0.0,99,Assisted_Takeoff,
0.307689221821969,36.879444192998,1600,2017-11-08 12:48:52,1769.5193437246285,0.0,0.0,0.0208566006674112,1769.5193437246285,0.0,0.0,0.0208566006674112,1024,0.0,99,Assisted_Takeoff,
0.30768922604940996,36.879444207048394,1700,2017-11-08 12:48:52,1769.5193437246285,0.0,0.0,0.0224588007186816,1769.5193437246285,0.0,0.0,0.0224588007186816,1024,0.0,99,Assisted_Takeoff,
0.307689237356511,36.8794442166377,1800,2017-11-08 12:48:52,1769.5193437246285,0.0,0.0,0.023990800767705604,1769.5193437246285,0.0,0.0,0.023990800767705604,1024,0.0,99,Assisted_Takeoff,
0.3076892374933,36.8794442210325,1900,2017-11-08 12:48:52,1769.5193437246285,0.0,0.0,0.024427600781683198,1769.5193437246285,0.0,0.0,0.024427600781683198,1024,0.0,99,Assisted_Takeoff,
0.307689222689116,36.879444222893206,2000,2017-11-08 12:48:52,1769.5193437246285,0.0,0.0,0.023881500764208,1769.5193437246285,0.0,0.0,0.024427600781683198,1024,0.0,99,Assisted_Takeoff,
0.307689187344146,36.879444221935,2100,2017-11-08 12:48:52,1769.5193437246285,0.0,0.0,0.0224338007178816,1769.5193437246285,0.0,0.0,0.024427600781683198,1024,0.0,99,Assisted_Takeoff,
0.30768916210326397,36.8794442190947,2200,2017-11-08 12:48:52,1769.5193437246285,0.0,0.0,0.0215416006893312,1769.5193437246285,0.0,0.0,0.024427600781683198,1024,0.0,99,Assisted_Takeoff,
0.30768913367999495,36.8794442156977,2300,2017-11-08 12:48:52,1769.5193437246285,0.0,0.0,0.020929400669740802,1769.5193437246285,0.0,0.0,0.024427600781683198,1024,0.0,99,Assisted_Takeoff,
0.307689120280751,36.8794442115524,2400,2017-11-08 12:48:53,1769.5193437246285,0.0,0.0,0.020522000656704,1769.5193437246285,0.0,0.0,0.024427600781683198,1024,0.0,99,Assisted_Takeoff,
0.307689097821659,36.879444206615894,2500,2017-11-08 12:48:53,1769.5193437246285,0.0,0.0,0.020313000650016004,1769.5193437246285,0.0,0.0,0.024427600781683198,1025,0.0,99,Assisted_Takeoff,
0.30768909257318394,36.879444202086205,2600,,1769.5193437246285,0.0,0.0,0.019944600638227204,1769.5193437246285,0.0,0.0,0.024427600781683198,1062,0.0,99,Assisted_Takeoff,
0.30768907721207106,36.8794441977664,2700,2017-11-08 12:48:53,1769.5193437246285,0.0,0.0,0.0199467006382944,1769.5193437246285,0.0,0.0,0.024427600781683198,1145,0.0,99,Assisted_Takeoff,
0.30768907750519103,36.8794442161602,2800,2017-11-08 12:48:53,1769.5193437246285,0.0,0.0,0.021888600700435204,1769.5193437246285,0.0,0.0,0.024427600781683198,1280,0.0,99,Assisted_Takeoff,
0.307689067018419,36.8794442422195,2900,2017-11-08 12:48:53,1769.5193437246285,0.0,0.0,0.0250004008000128,1769.5193437246285,0.0,0.0,0.0250004008000128,1517,0.0,99,Assisted_Takeoff,
0.307689069460678,36.8794442684329,3000,2017-11-08 12:48:53,1769.5193437246285,0.0,0.0,0.027727000887264003,1769.5193437246285,0.0,0.0,0.027727000887264003,1684,0.0,99,Assisted_Takeoff,
0.30768905421884896,36.879444283865396,3100,2017-11-08 12:48:53,1769.5193437246285,0.0,0.0,0.029845400955052802,1769.5193437246285,0.0,0.0,0.029845400955052802,1684,0.0,99,Assisted_Takeoff,
0.307689034172704,36.8794443003761,3200,2017-11-08 12:48:53,1769.5193437246285,0.0,0.0,0.0322977010335264,1769.5193437246285,0.0,0.0,0.0322977010335264,1684,0.0,99,Assisted_Takeoff,
0.307688991358468,36.8794443117415,3300,2017-11-08 12:48:53,1769.5193437246285,0.0,0.0,0.035346901131100804,1769.5193437246285,0.0,0.0,0.035346901131100804,1684,0.0,99,Assisted_Takeoff,
0.307688963085017,36.8794443110424,3400,2017-11-08 12:48:54,1769.5193437246285,0.0,0.0,0.0367947011774304,1769.5193437246285,0.0,0.0,0.0367947011774304,1684,0.0,99,Assisted_Takeoff,Obstacle Avoided. Revise Flight Route
0.307688889595374,36.879444250367705,3500,,1769.5193437246285,0.0,0.0,0.036750501176016005,1769.5193437246285,0.0,0.0,0.0367947011774304,1684,0.0,99,GPS_Atti,
0.30768875339353996,36.8794441020931,3600,2017-11-08 12:48:54,1769.5193437246285,0.0,0.5075995797636,0.04308760137880319,1769.5193437246285,0.0,0.5075995797636,0.04308760137880319,1684,0.0,99,GPS_Atti,
0.30768859483072697,36.8794438747725,3700,2017-11-08 12:48:54,1769.6193437278284,0.10000000320000002,0.7199994039200001,0.06227500199280001,1769.6193437278284,0.10000000320000002,0.7199994039200001,0.06227500199280001,1684,0.0,99,GPS_Atti,
0.307688510934513,36.879443545895704,3800,2017-11-08 12:48:54,1769.7193437310284,0.20000000640000004,1.4399988078400001,0.08753850280123202,1769.7193437310284,0.20000000640000004,1.4399988078400001,0.08753850280123202,1684,0.0,99,GPS_Atti,Home Point Recorded. RTH Altitude:  30m.
0.30768849705202805,36.8794431211946,3900,2017-11-08 12:48:54,1769.9193437374286,0.4000000128000001,1.4399988078400001,0.12316000394112,1769.9193437374286,0.4000000128000001,1.4399988078400001,0.12316000394112,1684,0.0,99,GPS_Atti,
0.307688508457243,36.8794426348725,4000,2017-11-08 12:48:54,1770.1193437438283,0.6000000192,1.8359984799959999,0.169754005432128,1770.1193437438283,0.6000000192,1.8359984799959999,0.169754005432128,1684,0.0,99,GPS_Atti,
0.30768843970393,36.8794421192954,4100,,1770.4193437534284,0.9000000288000001,0.0,0.22579500722544002,1770.4193437534284,0.9000000288000001,1.8359984799959999,0.22579500722544002,1684,0.0,99,GPS_Atti,
0.307688324604694,36.8794416237394,4200,2017-11-08 12:48:54,1770.7193437630285,1.2000000384,1.6091986677612,0.282041009025312,1770.7193437630285,1.2000000384,1.8359984799959999,0.282041009025312,1684,0.0,99,GPS_Atti,
0.307688087847664,36.8794412307305,4300,2017-11-08 12:48:54,1771.1193437758284,1.6000000512000003,1.5263987363104,0.33204401062540806,1771.1193437758284,1.6000000512000003,1.8359984799959999,0.33204401062540806,1684,0.0,99,GPS_Atti,
0.30768738165094106,36.87944080434,4500,2017-11-08 12:48:55,1771.9193438014283,2.4000000768,1.5263987363104,0.407957013054624,1771.9193438014283,2.4000000768,1.8359984799959999,0.407957013054624,1684,0.0,99,GPS_Atti,
0.307687037613649,36.879440565921705,4600,2017-11-08 12:48:55,1772.4193438174284,2.9000000928,1.2995989240756,0.450011014400352,1772.4193438174284,2.9000000928,1.8359984799959999,0.450011014400352,1684,0.0,99,GPS_Atti,
0.307686744225036,36.8794402527938,4700,2017-11-08 12:48:55,1772.9193438334285,3.4000001088000005,1.6091986677612,0.49679401589740807,1772.9193438334285,3.4000001088000005,1.8359984799959999,0.49679401589740807,1684,0.0,99,GPS_Atti,
0.307686494934687,36.8794399370938,4800,2017-11-08 12:48:55,1773.4193438494285,3.9000001248,1.2995989240756,0.5413060173217922,1773.4193438494285,3.9000001248,1.8359984799959999,0.5413060173217922,1684,0.0,99,GPS_Atti,
0.30768620854187,36.87943968044279,4900,2017-11-08 12:48:55,1773.9193438654283,4.4000001408,1.5263987363104,0.582663018645216,1773.9193438654283,4.4000001408,1.8359984799959999,0.582663018645216,1684,0.0,99,GPS_Atti,
0.30768589239412397,36.8794395018244,5000,2017-11-08 12:48:55,1774.5193438846284,5.00000016,1.5263987363104,0.619034019809088,1774.5193438846284,5.00000016,1.8359984799959999,0.619034019809088,1684,0.0,99,GPS_Atti,
0.30768557764765403,36.8794393674091,5100,2017-11-08 12:48:55,1775.0193439006284,5.500000176000001,1.2995989240756,0.6518660208597121,1775.0193439006284,5.500000176000001,1.8359984799959999,0.6518660208597121,1684,0.0,99,GPS_Atti,
0.307685256310871,36.879439258642996,5200,2017-11-08 12:48:55,1775.5193439166283,6.000000192000001,1.2995989240756,0.68348502187152,1775.5193439166283,6.000000192000001,1.8359984799959999,0.68348502187152,1684,0.0,99,GPS_Atti,
0.307684873445774,36.879439150965204,5300,2017-11-08 12:48:55,1776.0193439326285,6.500000208,1.2995989240756,0.7200860230427522,1776.0193439326285,6.500000208,1.8359984799959999,0.7200860230427522,1684,0.0,99,GPS_Atti,
0.307684439388912,36.8794390615018,5400,2017-11-08 12:48:56,1776.5193439486284,7.000000224,1.6091986677612,0.7599210243174721,1776.5193439486284,7.000000224,1.8359984799959999,0.7599210243174721,1684,0.0,99,GPS_Atti,
0.307683996926022,36.879438977879,5500,2017-11-08 12:48:56,1777.0193439646282,7.50000024,1.4831987720752,0.801018025632576,1777.0193439646282,7.50000024,1.8359984799959999,0.801018025632576,1684,0.0,99,GPS_Atti,
0.307683559120482,36.879438870963995,5600,,1777.5193439806285,8.000000256,0.0,0.8444630270228161,1777.5193439806285,8.000000256,1.8359984799959999,0.8444630270228161,1684,0.0,99,GPS_Atti,
0.307683104007839,36.879438755804294,5700,2017-11-08 12:48:56,1778.0193439966283,8.500000272000001,1.6091986677612,0.890662028501184,1778.0193439966283,8.500000272000001,1.8359984799959999,0.890662028501184,1684,0.0,99,GPS_Atti,
0.30768263152458397,36.8794386458461,5800,2017-11-08 12:48:56,1778.6193440158283,9.1000002912,1.9403983935644,0.93861003003552,1778.6193440158283,9.1000002912,1.9403983935644,0.93861003003552,1684,0.0,99,GPS_Atti,
0.307682152059375,36.879438502333,5900,2017-11-08 12:48:56,1779.1193440318284,9.6000003072,1.9403983935644,0.990099031683168,1779.1193440318284,9.6000003072,1.9403983935644,0.990099031683168,1684,0.0,99,GPS_Atti,
0.307681678292092,36.8794383255587,6000,2017-11-08 12:48:56,1779.6193440478285,10.100000323200002,1.7999985098000002,1.04376003340032,1779.6193440478285,10.100000323200002,1.9403983935644,1.04376003340032,1684,0.0,99,GPS_Atti,
0.30768123210006604,36.879438122311896,6100,2017-11-08 12:48:56,1780.1193440638283,10.6000003392,1.7999985098000002,1.09697003510304,1780.1193440638283,10.6000003392,1.9403983935644,1.09697003510304,1684,0.0,99,GPS_Atti,
0.30768085101892895,36.8794378649671,6200,2017-11-08 12:48:56,1780.6193440798286,11.1000003552,1.5263987363104,1.1480500367375999,1780.6193440798286,11.1000003552,1.9403983935644,1.1480500367375999,1684,0.0,99,GPS_Atti,
0.307680531896016,36.8794375796334,6300,2017-11-08 12:48:56,1781.1193440958284,11.6000003712,1.5263987363104,1.19547003825504,1781.1193440958284,11.6000003712,1.9403983935644,1.19547003825504,1684,0.0,99,GPS_Atti,
0.307680324047124,36.8794373123594,6400,2017-11-08 12:48:57,1781.6193441118282,12.1000003872,1.2995989240756,1.23183003941856,1781.6193441118282,12.1000003872,1.9403983935644,1.23183003941856,1684,0.0,99,GPS_Atti,
0.307680137416043,36.8794370694885,6500,2017-11-08 12:48:57,1782.1193441278285,12.600000403200003,1.0187991565468,1.2647400404716802,1782.1193441278285,12.600000403200003,1.9403983935644,1.2647400404716802,1684,0.0,99,GPS_Atti,
0.307679984933432,36.879436858735794,6600,2017-11-08 12:48:57,1782.7193441470283,13.2000004224,1.2995989240756,1.2925200413606401,1782.7193441470283,13.2000004224,1.9403983935644,1.2925200413606401,1684,0.0,99,GPS_Atti,
0.30767978074284,36.879436668440704,6700,2017-11-08 12:48:57,1783.2193441630282,13.7000004384,1.2995989240756,1.3234500423504,1783.2193441630282,13.7000004384,1.9403983935644,1.3234500423504,1684,0.0,99,GPS_Atti,
0.30767956501634997,36.8794365285312,6800,2017-11-08 12:48:57,1783.7193441790284,14.200000454400003,1.2995989240756,1.35192004326144,1783.7193441790284,14.200000454400003,1.9403983935644,1.35192004326144,1684,0.0,99,GPS_Atti,
0.307679290892229,36.8794364187772,6900,2017-11-08 12:48:57,1784.2193441950283,14.7000004704,1.1375990581936,1.38348004427136,1784.2193441950283,14.7000004704,1.9403983935644,1.38348004427136,1684,0.0,99,GPS_Atti,
0.30767901428636,36.879436342618604,7000,,1784.7193442110283,15.200000486399999,0.0,1.41304004521728,1784.7193442110283,15.200000486399999,1.9403983935644,1.41304004521728,1684,0.0,99,GPS_Atti,
0.30767871518842305,36.879436234155705,7100,2017-11-08 12:48:57,1785.2193442270284,15.700000502400002,1.2995989240756,1.44687004629984,1785.2193442270284,15.700000502400002,1.9403983935644,1.44687004629984,1684,0.0,99,GPS_Atti,
0.307678443857084,36.879436144099,7200,2017-11-08 12:48:57,1785.7193442430284,16.2000005184,1.2995989240756,1.47706004726592,1785.7193442430284,16.2000005184,1.9403983935644,1.47706004726592,1684,0.0,99,GPS_Atti,
0.30767816634091494,36.8794360221823,7300,2017-11-08 12:48:57,1786.2193442590283,16.7000005344,1.2995989240756,1.50996004831872,1786.2193442590283,16.7000005344,1.9403983935644,1.50996004831872,1684,0.0,99,GPS_Atti,
0.30767791821327506,36.8794358842161,7400,2017-11-08 12:48:57,1786.8193442782285,17.3000005536,1.2995989240756,1.5413000493216,1786.8193442782285,17.3000005536,1.9403983935644,1.5413000493216,1684,0.0,99,GPS_Atti,
0.30767766819826803,36.8794357250001,7500,2017-11-08 12:48:58,1787.3193442942284,17.8000005696,1.2995989240756,1.5742000503744,1787.3193442942284,17.8000005696,1.9403983935644,1.5742000503744,1684,0.0,99,GPS_Atti,
0.30767745505449,36.87943557409071,7600,2017-11-08 12:48:58,1787.8193443102282,18.3000005856,1.0187991565468,1.6032400513036802,1787.8193443102282,18.3000005856,1.9403983935644,1.6032400513036802,1684,0.0,99,GPS_Atti,
0.307677237248477,36.8794354203617,7700,2017-11-08 12:48:58,1788.3193443262285,18.800000601600004,0.8063993323904,1.63289005225248,1788.3193443262285,18.800000601600004,1.9403983935644,1.63289005225248,1684,0.0,99,GPS_Atti,
0.307677056859222,36.8794353298213,7800,2017-11-08 12:48:58,1788.8193443422283,19.300000617600002,0.8063993323904,1.6550500529616003,1788.8193443422283,19.300000617600002,1.9403983935644,1.6550500529616003,1684,0.0,99,GPS_Atti,
0.307676866897973,36.879435263367796,7900,2017-11-08 12:48:58,1789.3193443582284,19.800000633599996,0.8063993323904,1.67652005364864,1789.3193443582284,19.800000633599996,1.9403983935644,1.67652005364864,1684,0.0,99,GPS_Atti,
0.3076766756469961,36.8794352349841,8000,2017-11-08 12:48:58,1789.8193443742284,20.3000006496,0.8063993323904,1.6956900542620803,1789.8193443742284,20.3000006496,1.9403983935644,1.6956900542620803,1684,0.0,99,GPS_Atti,
0.307676430442413,36.8794351993895,8100,2017-11-08 12:48:58,1790.4193443934282,20.900000668800004,1.1375990581936,1.7203000550496002,1790.4193443934282,20.900000668800004,1.9403983935644,1.7203000550496002,1684,0.0,99,GPS_Atti,
0.307676157181368,36.8794351746726,8200,2017-11-08 12:48:58,1790.9193444094285,21.400000684800002,1.1375990581936,1.7468800559001598,1790.9193444094285,21.400000684800002,1.9403983935644,1.7468800559001598,1684,0.0,99,GPS_Atti,
0.307675863924659,36.8794351226312,8300,2017-11-08 12:48:58,1791.4193444254283,21.900000700799996,1.1375990581936,1.7771400568684799,1791.4193444254283,21.900000700799996,1.9403983935644,1.7771400568684799,1684,0.0,99,GPS_Atti,
0.307675613899882,36.8794350497385,8400,,1792.0193444446284,22.50000072,0.0,1.8047600577523204,1792.0193444446284,22.50000072,1.9403983935644,1.8047600577523204,1684,0.0,99,GPS_Atti,
0.307675388207314,36.879434938805204,8500,2017-11-08 12:48:59,1792.5193444606284,23.000000735999997,0.8063993323904,1.83250005864,1792.5193444606284,23.000000735999997,1.9403983935644,1.83250005864,1684,0.0,99,GPS_Atti,
0.307675201073044,36.8794348197101,8600,2017-11-08 12:48:59,1793.0193444766285,23.500000752000002,0.8063993323904,1.8571600594291202,1793.0193444766285,23.500000752000002,1.9403983935644,1.8571600594291202,1684,0.0,99,GPS_Atti,
0.307674994114096,36.879434678206295,8700,2017-11-08 12:48:59,1793.6193444958285,24.100000771199998,0.8063993323904,1.88504006032128,1793.6193444958285,24.100000771199998,1.9403983935644,1.88504006032128,1684,0.0,99,GPS_Atti,
0.307674783841265,36.879434577534205,8800,2017-11-08 12:48:59,1794.1193445118283,24.600000787200003,1.1375990581936,1.9107200611430404,1794.1193445118283,24.600000787200003,1.9403983935644,1.9107200611430404,1684,0.0,99,GPS_Atti,
0.30767456461850606,36.8794344893385,8900,2017-11-08 12:48:59,1794.6193445278284,25.100000803199997,0.8063993323904,1.9364800619673603,1794.6193445278284,25.100000803199997,1.9403983935644,1.9364800619673603,1684,0.0,99,GPS_Atti,
0.307674392439865,36.879434384046604,9000,2017-11-08 12:48:59,1795.2193445470284,25.7000008224,0.8063993323904,1.9589200626854402,1795.2193445470284,25.7000008224,1.9403983935644,1.9589200626854402,1684,0.0,99,GPS_Atti,
0.307674205393531,36.8794342445961,9100,2017-11-08 12:48:59,1795.7193445630285,26.200000838399998,0.8063993323904,1.98481006351392,1795.7193445630285,26.200000838399998,1.9403983935644,1.98481006351392,1684,0.0,99,GPS_Atti,
0.30767403033742996,36.8794341211005,9200,2017-11-08 12:48:59,1796.3193445822285,26.8000008576,0.8063993323904,2.0086200642758403,1796.3193445822285,26.8000008576,1.9403983935644,2.0086200642758403,1684,0.0,99,GPS_Atti,
0.307673829579597,36.8794339914003,9300,2017-11-08 12:48:59,1796.8193445982283,27.3000008736,0.8063993323904,2.0352000651264,1796.8193445982283,27.3000008736,1.9403983935644,2.0352000651264,1684,0.0,99,GPS_Atti,
0.307673657011758,36.8794339066556,9400,2017-11-08 12:49:00,1797.3193446142284,27.8000008896,0.8063993323904,2.05642006580544,1797.3193446142284,27.8000008896,1.9403983935644,2.05642006580544,1684,0.0,99,GPS_Atti,
0.307673481833524,36.8794338249619,9500,2017-11-08 12:49:00,1797.8193446302284,28.300000905599997,0.8063993323904,2.0777000664864,1797.8193446302284,28.300000905599997,1.9403983935644,2.0777000664864,1684,0.0,99,GPS_Atti,
0.30767336408073803,36.8794337676305,9600,2017-11-08 12:49:00,1798.4193446494282,28.9000009248,0.8063993323904,2.0921500669488,1798.4193446494282,28.9000009248,1.9403983935644,2.0921500669488,1684,0.0,99,GPS_Atti,
0.30767325295409104,36.8794336963529,9700,2017-11-08 12:49:00,1798.9193446654283,29.4000009408,0.5075995797636,2.1068300674185605,1798.9193446654283,29.4000009408,1.9403983935644,2.1068300674185605,1684,0.0,99,GPS_Atti,
0.30767317761250107,36.879433640880706,9800,2017-11-08 12:49:00,1799.4193446814284,29.900000956800003,0.5075995797636,2.1172200677510404,1799.4193446814284,29.900000956800003,1.9403983935644,2.1172200677510404,1684,0.0,99,GPS_Atti,
0.307673088334688,36.8794335719222,9900,,1800.0193447006284,30.500000976,0.0,2.12972006815104,1800.0193447006284,30.500000976,1.9403983935644,2.12972006815104,1684,0.0,99,GPS_Atti,
0.30767304396773104,36.8794335408454,10000,2017-11-08 12:49:00,1800.5193447166284,31.000000992,0.35999970196000003,2.13574006834368,1800.5193447166284,31.000000992,1.9403983935644,2.13574006834368,1684,0.0,99,GPS_Atti,
0.30767299700992,36.8794335123831,10100,2017-11-08 12:49:00,1801.0193447326285,31.500001007999998,0.35999970196000003,2.1418500685392,1801.0193447326285,31.500001007999998,1.9403983935644,2.1418500685392,1684,0.0,99,GPS_Atti,
0.307672969381739,36.8794334988713,10200,2017-11-08 12:49:00,1801.6193447518283,32.1000010272,0.0,2.1452400686476802,1801.6193447518283,32.1000010272,1.9403983935644,2.1452400686476802,1684,0.0,99,GPS_Atti,
0.307672924386203,36.8794334691202,10300,2017-11-08 12:49:00,1802.1193447678284,32.6000010432,0.0,2.1512400688396798,1802.1193447678284,32.6000010432,1.9403983935644,2.1512400688396798,1684,0.0,99,GPS_Atti,
0.307672901830625,36.879433472403,10400,2017-11-08 12:49:00,1802.7193447870284,33.2000010624,0.0,2.15314006890048,1802.7193447870284,33.2000010624,1.9403983935644,2.15314006890048,1684,0.0,99,GPS_Atti,
0.307672877916925,36.879433471018,10500,2017-11-08 12:49:01,1803.2193448030284,33.70000107840001,0.0,2.15546006897472,1803.2193448030284,33.70000107840001,1.9403983935644,2.15546006897472,1684,0.0,99,GPS_Atti,
0.307672895214257,36.879433474717004,10600,2017-11-08 12:49:01,1803.7193448190285,34.2000010944,0.0,2.1536200689158402,1803.7193448190285,34.2000010944,1.9403983935644,2.15546006897472,1684,0.0,99,GPS_Atti,
0.307672890034177,36.87943344728,10700,2017-11-08 12:49:01,1804.2193448350283,34.7000011104,0.0,2.15577006898464,1804.2193448350283,34.7000011104,1.9403983935644,2.15577006898464,1684,0.0,99,GPS_Atti,
0.307672966414714,36.8794334973409,11100,2017-11-08 12:49:01,1806.3193449022285,36.8000011776,0.0,2.1456100686595203,1806.3193449022285,36.8000011776,1.9403983935644,2.15577006898464,1684,0.0,99,GPS_Atti,
0.307673035949273,36.879433536815796,11200,2017-11-08 12:49:01,1806.8193449182284,37.3000011936,0.0,2.1367400683756803,1806.8193449182284,37.3000011936,1.9403983935644,2.15577006898464,1684,0.0,99,GPS_Atti,
0.307673102239971,36.879433568102606,11300,,1807.4193449374284,37.90000121280001,0.0,2.1286600681171204,1807.4193449374284,37.90000121280001,1.9403983935644,2.15577006898464,1684,0.0,99,GPS_Atti,
0.307673222738313,36.879433626102,11400,2017-11-08 12:49:01,1807.9193449534284,38.4000012288,0.0,2.1139100676451203,1807.9193449534284,38.4000012288,1.9403983935644,2.15577006898464,1684,0.0,99,GPS_Atti,
0.307673341821537,36.8794336681069,11500,2017-11-08 12:49:02,1808.4193449694283,38.9000012448,0.0,2.1002800672089603,1808.4193449694283,38.9000012448,1.9403983935644,2.15577006898464,1684,0.0,99,GPS_Atti,
0.30767351510263397,36.879433741659795,11600,2017-11-08 12:49:02,1808.9193449854286,39.4000012608,0.0,2.07968006654976,1808.9193449854286,39.4000012608,1.9403983935644,2.15577006898464,1684,0.0,99,GPS_Atti,
0.30767380140263,36.879433875498705,11800,2017-11-08 12:49:02,1810.0193450206282,40.500001296,0.0,2.0449100654371204,1810.0193450206282,40.500001296,1.9403983935644,2.15577006898464,1684,0.0,99,GPS_Atti,
0.30767388896406395,36.8794339157828,11900,2017-11-08 12:49:02,1810.5193450366285,41.000001311999995,0.0,2.0343200650982403,1810.5193450366285,41.000001311999995,1.9403983935644,2.15577006898464,1684,0.0,99,GPS_Atti,
0.307674006588202,36.879433963901,12000,2017-11-08 12:49:02,1811.1193450558283,41.600001331200005,0.0,2.02046006465472,1811.1193450558283,41.600001331200005,1.9403983935644,2.15577006898464,1684,0.0,99,GPS_Atti,
0.30767410102167,36.879433975793795,12100,2017-11-08 12:49:02,1811.6193450718285,42.1000013472,0.0,2.01099006435168,1811.6193450718285,42.1000013472,1.9403983935644,2.15577006898464,1684,0.0,99,GPS_Atti,
0.30767421551919605,36.879433992317,12200,2017-11-08 12:49:03,1812.2193450910283,42.7000013664,0.0,1.99939006398048,1812.2193450910283,42.7000013664,1.9403983935644,2.15577006898464,1684,0.0,99,GPS_Atti,
0.307674618715416,36.8794340388439,12600,2017-11-08 12:49:03,1814.3193451582285,44.80000143360001,0.0,1.9594100627011204,1814.3193451582285,44.80000143360001,1.9403983935644,2.15577006898464,1684,0.0,99,GPS_Atti,
0.307675154804065,36.8794341139235,13000,2017-11-08 12:49:03,1816.3193452222283,46.80000149760001,0.0,1.9057600609843204,1816.3193452222283,46.80000149760001,1.9403983935644,2.15577006898464,1684,0.0,99,GPS_Atti,
0.30767529396274607,36.8794341113676,13100,2017-11-08 12:49:04,1816.9193452414283,47.400001516799996,0.0,1.8933200605862401,1816.9193452414283,47.400001516799996,1.9403983935644,2.15577006898464,1684,0.0,99,GPS_Atti,
0.307675960105447,36.8794342875862,13500,2017-11-08 12:49:04,1819.0193453086283,49.500001584,0.0,1.82189005830048,1819.0193453086283,49.500001584,1.9403983935644,2.15577006898464,1684,0.0,99,GPS_Atti,
0.307676113780078,36.879434336207794,13600,2017-11-08 12:49:04,1819.5193453246284,50.000001600000004,0.0,1.8049500577584,1819.5193453246284,50.000001600000004,1.9403983935644,2.15577006898464,1684,0.0,99,GPS_Atti,
0.307676182462961,36.8794343456722,13700,2017-11-08 12:49:05,1820.0193453406284,50.500001616000006,0.0,1.7982000575424,1820.0193453406284,50.500001616000006,1.9403983935644,2.15577006898464,1684,0.0,98,GPS_Atti,
0.30767690133630604,36.879434299088295,14800,2017-11-08 12:49:06,1825.8193455262285,56.3000018016,0.0,1.7380500556176004,1825.8193455262285,56.3000018016,1.9403983935644,2.15577006898464,1684,0.0,98,GPS_Atti,
0.30767719857618897,36.8794342382167,15700,2017-11-08 12:49:07,1830.4193456734286,60.9000019488,0.35999970196000003,1.71658005493056,1830.4193456734286,60.9000019488,1.9403983935644,2.15577006898464,1684,0.0,98,GPS_Atti,
0.307677439167391,36.8794343112174,16500,2017-11-08 12:49:08,1834.6193458078285,65.1000020832,0.0,1.69078005410496,1834.6193458078285,65.1000020832,1.9403983935644,2.15577006898464,1684,0.0,98,GPS_Atti,
0.30767763675464305,36.8794348420285,17700,2017-11-08 12:49:08,1840.7193460030285,71.2000022784,0.0,1.6364600523667199,1840.7193460030285,71.2000022784,1.9403983935644,2.15577006898464,1684,0.0,98,GPS_Atti,
0.30767767739571994,36.879434917922,17800,2017-11-08 12:49:08,1841.2193460190283,71.7000022944,0.0,1.6276700520854401,1841.2193460190283,71.7000022944,1.9403983935644,2.15577006898464,1167,0.0,98,GPS_Atti,
0.307677702032449,36.8794350844166,18100,2017-11-08 12:49:08,1842.7193460670285,73.2000023424,0.0,1.6140500516496,1842.7193460670285,73.2000023424,1.9403983935644,2.15577006898464,1024,0.0,98,GPS_Atti,
0.30767770386770504,36.8794350917145,18200,2017-11-08 12:49:09,1843.1193460798283,73.6000023552,0.0,1.61339005162848,1843.1193460798283,73.6000023552,1.9403983935644,2.15577006898464,1024,0.0,98,GPS_Atti,
0.30767730310763797,36.879434780566896,18700,2017-11-08 12:49:10,1843.9193461054283,74.4000023808,0.35999970196000003,1.66981005343392,1843.9193461054283,74.4000023808,1.9403983935644,2.15577006898464,1151,0.0,98,GPS_Atti,
0.30767677452937203,36.879434084331706,19600,2017-11-08 12:49:12,1844.2193461150284,74.7000023904,0.0,1.7639800564473602,1844.2193461150284,74.7000023904,1.9403983935644,2.15577006898464,1325,0.0,98,GPS_Atti,
0.307676987329549,36.8794333617241,21400,2017-11-08 12:49:13,1846.1193461758285,76.6000024512,0.0,1.7975800575225602,1846.1193461758285,76.6000024512,1.9403983935644,2.15577006898464,1321,0.0,98,GPS_Atti,
0.307678674112552,36.8794342041654,22900,2017-11-08 12:49:13,1848.7193462590285,79.20000253439999,0.0,1.5957000510624,1848.7193462590285,79.20000253439999,1.9403983935644,2.15577006898464,1073,0.0,98,GPS_Atti,
0.30767909578021196,36.8794343848545,23200,2017-11-08 12:49:16,1849.2193462750283,79.70000255040001,0.0,1.54787004953184,1849.2193462750283,79.70000255040001,1.9403983935644,2.15577006898464,1024,0.0,98,GPS_Atti,
0.307680343019311,36.8794344596414,25700,2017-11-08 12:49:16,1849.5193462846285,80.00000256,0.35999970196000003,1.44489004623648,1849.5193462846285,80.00000256,1.9403983935644,2.15577006898464,1024,0.0,98,GPS_Atti,
0.30768036103885804,36.879434345232795,25900,2017-11-08 12:49:16,1849.5193462846285,80.00000256,0.35999970196000003,1.45294004649408,1849.5193462846285,80.00000256,1.9403983935644,2.15577006898464,1024,0.0,98,GPS_Atti,
0.30768035829493,36.8794342302726,26100,2017-11-08 12:49:16,1849.5193462846285,80.00000256,0.35999970196000003,1.4626400468044802,1849.5193462846285,80.00000256,1.9403983935644,2.15577006898464,1025,0.0,98,GPS_Atti,
0.30768037258371195,36.879434181568,26200,2017-11-08 12:49:16,1849.5193462846285,80.00000256,0.35999970196000003,1.4656200468998402,1849.5193462846285,80.00000256,1.9403983935644,2.15577006898464,1024,0.0,98,GPS_Atti,
0.30768034825394397,36.8794341342678,26300,2017-11-08 12:49:17,1849.5193462846285,80.00000256,0.35999970196000003,1.4713500470832,1849.5193462846285,80.00000256,1.9403983935644,2.15577006898464,1024,0.0,98,GPS_Atti,
0.307680336638253,36.879434049998004,26500,2017-11-08 12:49:17,1849.5193462846285,80.00000256,0.35999970196000003,1.4792300473353601,1849.5193462846285,80.00000256,1.9403983935644,2.15577006898464,1024,0.0,98,GPS_Atti,
0.307680360544625,36.8794339393295,26700,2017-11-08 12:49:17,1849.5193462846285,80.00000256,0.0,1.4867300475753602,1849.5193462846285,80.00000256,1.9403983935644,2.15577006898464,1024,0.0,98,GPS_Atti,
0.30768040820511,36.8794338680235,26800,2017-11-08 12:49:17,1849.5193462846285,80.00000256,0.0,1.48927004765664,1849.5193462846285,80.00000256,1.9403983935644,2.15577006898464,1024,0.0,98,GPS_Atti,
0.30768042817146196,36.879433788442604,26900,2017-11-08 12:49:17,1849.5193462846285,80.00000256,0.0,1.4945500478256,1849.5193462846285,80.00000256,1.9403983935644,2.15577006898464,1025,0.0,98,GPS_Atti,
0.307680471125743,36.87943372473,27000,2017-11-08 12:49:17,1849.5193462846285,80.00000256,0.0,1.49688004790016,1849.5193462846285,80.00000256,1.9403983935644,2.15577006898464,1024,0.0,98,GPS_Atti,
0.307680465101315,36.879433676105,27100,2017-11-08 12:49:17,1849.5193462846285,80.00000256,0.35999970196000003,1.5014500480464001,1849.5193462846285,80.00000256,1.9403983935644,2.15577006898464,1024,0.0,98,GPS_Atti,
0.30768046768484103,36.87943363840861,27200,2017-11-08 12:49:17,1849.5193462846285,80.00000256,0.35999970196000003,1.50448004814336,1849.5193462846285,80.00000256,1.9403983935644,2.15577006898464,1024,0.0,98,GPS_Atti,
0.30768042324460404,36.879433595089104,27300,2017-11-08 12:49:17,1849.4193462814283,79.9000025568,0.35999970196000003,1.5113500483632,1849.5193462846285,80.00000256,1.9403983935644,2.15577006898464,1024,0.0,98,GPS_Atti,
0.30768039911350703,36.879433584203895,27400,2017-11-08 12:49:18,1849.4193462814283,79.9000025568,0.35999970196000003,1.5140000484480003,1849.5193462846285,80.00000256,1.9403983935644,2.15577006898464,1024,0.0,98,GPS_Atti,
0.30768034479675704,36.8794335867072,27500,2017-11-08 12:49:18,1849.4193462814283,79.9000025568,0.35999970196000003,1.51767004856544,1849.5193462846285,80.00000256,1.9403983935644,2.15577006898464,1024,0.0,98,GPS_Atti,
0.30768032647432,36.8794335779627,27600,,1849.4193462814283,79.9000025568,0.0,1.5197200486310403,1849.5193462846285,80.00000256,1.9403983935644,2.15577006898464,1024,0.0,98,GPS_Atti,
0.307680286027842,36.8794335385021,27700,2017-11-08 12:49:18,1849.4193462814283,79.9000025568,0.35999970196000003,1.5259800488313602,1849.5193462846285,80.00000256,1.9403983935644,2.15577006898464,1024,0.0,97,GPS_Atti,
0.307680241991459,36.879433393168995,27900,,1849.4193462814283,79.9000025568,0.0,1.541500049328,1849.5193462846285,80.00000256,1.9403983935644,2.15577006898464,1024,0.0,97,GPS_Atti,
0.307680227560189,36.8794332919461,28000,2017-11-08 12:49:18,1849.4193462814283,79.9000025568,0.35999970196000003,1.5511800496377601,1849.5193462846285,80.00000256,1.9403983935644,2.15577006898464,1028,0.0,97,GPS_Atti,
0.30768017227614397,36.879433193058894,28100,,1849.4193462814283,79.9000025568,0.0,1.56357005003424,1849.5193462846285,80.00000256,1.9403983935644,2.15577006898464,1028,0.0,97,GPS_Atti,
0.30768014533842303,36.8794331030696,28200,2017-11-08 12:49:18,1849.4193462814283,79.9000025568,0.35999970196000003,1.5732000503424002,1849.5193462846285,80.00000256,1.9403983935644,2.15577006898464,1024,0.0,97,GPS_Atti,
0.307680093091426,36.8794330197913,28300,2017-11-08 12:49:18,1849.4193462814283,79.9000025568,0.35999970196000003,1.58404005068928,1849.5193462846285,80.00000256,1.9403983935644,2.15577006898464,1024,0.0,97,GPS_Atti,
0.307680047118823,36.8794329366039,28400,2017-11-08 12:49:19,1849.4193462814283,79.9000025568,0.35999970196000003,1.5944300510217602,1849.5193462846285,80.00000256,1.9403983935644,2.15577006898464,1024,0.0,97,GPS_Atti,
0.307679962666089,36.8794328553806,28500,2017-11-08 12:49:19,1849.4193462814283,79.9000025568,0.35999970196000003,1.60737005143584,1849.5193462846285,80.00000256,1.9403983935644,2.15577006898464,1030,0.0,97,GPS_Atti,
0.30767963858944897,36.8794322565086,29400,2017-11-08 12:49:20,1849.4193462814283,79.9000025568,0.35999970196000003,1.68178005381696,1849.5193462846285,80.00000256,1.9403983935644,2.15577006898464,1113,0.0,97,GPS_Atti,
0.30767941395699894,36.8794322163234,29900,2017-11-08 12:49:20,1849.4193462814283,79.9000025568,0.35999970196000003,1.70102005443264,1849.5193462846285,80.00000256,1.9403983935644,2.15577006898464,1168,0.0,97,GPS_Atti,
0.307679333620971,36.879432287819704,30300,2017-11-08 12:49:21,1849.4193462814283,79.9000025568,0.35999970196000003,1.7006000544192001,1849.5193462846285,80.00000256,1.9403983935644,2.15577006898464,1170,0.0,97,GPS_Atti,
0.307679358329352,36.8794324716699,31200,2017-11-08 12:49:22,1849.9193462974285,80.4000025728,0.0,1.68318005386176,1849.9193462974285,80.4000025728,1.9403983935644,2.15577006898464,1159,0.0,97,GPS_Atti,
0.30767949623901697,36.879432731363,31900,2017-11-08 12:49:22,1850.2193463070282,80.7000025824,0.0,1.65124005283968,1850.2193463070282,80.7000025824,1.9403983935644,2.15577006898464,1167,0.0,97,GPS_Atti,
0.307679586612774,36.87943283021529,32100,,1850.2193463070282,80.7000025824,0.0,1.6363600523635202,1850.2193463070282,80.7000025824,1.9403983935644,2.15577006898464,1171,0.0,97,GPS_Atti,
0.30767964264590303,36.8794328629975,32200,2017-11-08 12:49:22,1850.3193463102284,80.80000258560001,0.35999970196000003,1.62954005214528,1850.3193463102284,80.80000258560001,1.9403983935644,2.15577006898464,1172,0.0,97,GPS_Atti,
0.30767972906579805,36.8794328759899,32400,2017-11-08 12:49:22,1850.4193463134284,80.9000025888,0.35999970196000003,1.62223005191136,1850.4193463134284,80.9000025888,1.9403983935644,2.15577006898464,1175,0.0,97,GPS_Atti,
0.30767976524656704,36.879432886748,32500,2017-11-08 12:49:23,1850.4193463134284,80.9000025888,0.0,1.6187200517990403,1850.4193463134284,80.9000025888,1.9403983935644,2.15577006898464,1167,0.0,97,GPS_Atti,
0.307679833789403,36.8794329162366,32600,2017-11-08 12:49:23,1850.5193463166283,81.000002592,0.0,1.61131005156192,1850.5193463166283,81.000002592,1.9403983935644,2.15577006898464,1169,0.0,97,GPS_Atti,
0.307679933222193,36.8794329288286,32800,2017-11-08 12:49:23,1850.6193463198283,81.10000259520002,0.0,1.60316005130112,1850.6193463198283,81.10000259520002,1.9403983935644,2.15577006898464,1169,0.0,97,GPS_Atti,
0.307680003253427,36.879432925136,32900,2017-11-08 12:49:23,1850.7193463230285,81.2000025984,0.0,1.59852005115264,1850.7193463230285,81.2000025984,1.9403983935644,2.15577006898464,1167,0.0,97,GPS_Atti,
0.307680112820025,36.8794329271227,33000,2017-11-08 12:49:23,1850.7193463230285,81.2000025984,0.0,1.59063005090016,1850.7193463230285,81.2000025984,1.9403983935644,2.15577006898464,1172,0.0,97,GPS_Atti,
0.307680186433836,36.8794329198846,33100,,1850.8193463262285,81.3000026016,0.0,1.5861100507555201,1850.8193463262285,81.3000026016,1.9403983935644,2.15577006898464,1173,0.0,97,GPS_Atti,
0.30768028697152505,36.8794329279847,33200,2017-11-08 12:49:24,1850.8193463262285,81.3000026016,0.0,1.57842005050944,1850.8193463262285,81.3000026016,1.9403983935644,2.15577006898464,1163,0.0,97,GPS_Atti,
0.307680441168073,36.8794329541535,33400,2017-11-08 12:49:24,1850.9193463294282,81.4000026048,0.0,1.56549005009568,1850.9193463294282,81.4000026048,1.9403983935644,2.15577006898464,1163,0.0,97,GPS_Atti,
0.30768051665215196,36.879432967685105,33500,2017-11-08 12:49:24,1851.0193463326286,81.500002608,0.0,1.5591400498924801,1851.0193463326286,81.500002608,1.9403983935644,2.15577006898464,1158,0.0,97,GPS_Atti,
0.307680658055644,36.879432999519,33700,2017-11-08 12:49:24,1851.1193463358284,81.6000026112,0.0,1.5467100494947201,1851.1193463358284,81.6000026112,1.9403983935644,2.15577006898464,1155,0.0,97,GPS_Atti,
0.30768071709976597,36.879433028284105,33800,2017-11-08 12:49:24,1851.1193463358284,81.6000026112,0.0,1.5401800492857602,1851.1193463358284,81.6000026112,1.9403983935644,2.15577006898464,1161,0.0,97,GPS_Atti,
0.307680798234546,36.8794331052571,34000,2017-11-08 12:49:24,1851.2193463390283,81.7000026144,0.0,1.5279000488928,1851.2193463390283,81.7000026144,1.9403983935644,2.15577006898464,1154,0.0,97,GPS_Atti,
0.30768087261779603,36.879433181462495,34200,2017-11-08 12:49:24,1851.3193463422283,81.80000261760001,0.0,1.5161500485168002,1851.3193463422283,81.80000261760001,1.9403983935644,2.15577006898464,1167,0.0,97,GPS_Atti,
0.307680915756092,36.8794331871305,34300,,1851.3193463422283,81.80000261760001,0.0,1.51274004840768,1851.3193463422283,81.80000261760001,1.9403983935644,2.15577006898464,1167,0.0,97,GPS_Atti,
0.307680974210718,36.879433198432395,34400,2017-11-08 12:49:25,1851.3193463422283,81.80000261760001,0.0,1.50782004825024,1851.3193463422283,81.80000261760001,1.9403983935644,2.15577006898464,1158,0.0,97,GPS_Atti,
0.307680988573594,36.879433198070004,34500,2017-11-08 12:49:25,1851.4193463454285,81.9000026208,0.0,1.50689004822048,1851.4193463454285,81.9000026208,1.9403983935644,2.15577006898464,1159,0.0,97,GPS_Atti,
0.307681035869307,36.87943319764079,34600,2017-11-08 12:49:25,1851.4193463454285,81.9000026208,0.0,1.5037700481206402,1851.4193463454285,81.9000026208,1.9403983935644,2.15577006898464,1168,0.0,97,GPS_Atti,
0.307681210277288,36.879433275169895,35000,2017-11-08 12:49:25,1851.5193463486285,82.00000262399999,0.0,1.4852900475292803,1851.5193463486285,82.00000262399999,1.9403983935644,2.15577006898464,1168,0.0,97,GPS_Atti,
0.307681244126125,36.8794332913691,35100,2017-11-08 12:49:25,1851.6193463518284,82.10000262720001,0.0,1.48161004741152,1851.6193463518284,82.10000262720001,1.9403983935644,2.15577006898464,1162,0.0,97,GPS_Atti,
0.307681316832078,36.879433312810605,35200,,1851.7193463550284,82.20000263040001,0.0,1.4749100471971202,1851.7193463550284,82.20000263040001,1.9403983935644,2.15577006898464,1162,0.0,97,GPS_Atti,
0.307681359388205,36.8794333192275,35300,2017-11-08 12:49:26,1851.7193463550284,82.20000263040001,0.0,1.4715500470896001,1851.7193463550284,82.20000263040001,1.9403983935644,2.15577006898464,1172,0.0,97,GPS_Atti,
0.307681410667906,36.879433320806704,35400,,1851.8193463582286,82.3000026336,0.0,1.4680600469779201,1851.8193463582286,82.3000026336,1.9403983935644,2.15577006898464,1170,0.0,97,GPS_Atti,
0.307681429568442,36.8794333140574,35500,2017-11-08 12:49:26,1851.8193463582286,82.3000026336,0.0,1.46744004695808,1851.8193463582286,82.3000026336,1.9403983935644,2.15577006898464,1171,0.0,97,GPS_Atti,
0.30768157512528005,36.8794333821025,35900,2017-11-08 12:49:26,1852.0193463646283,82.50000264,0.0,1.45187004645984,1852.0193463646283,82.50000264,1.9403983935644,2.15577006898464,1176,0.0,97,GPS_Atti,
0.30768157679117797,36.8794334659164,36100,2017-11-08 12:49:26,1852.1193463678283,82.60000264320001,0.35999970196000003,1.4441800462137602,1852.1193463678283,82.60000264320001,1.9403983935644,2.15577006898464,1175,0.0,97,GPS_Atti,
0.307681598835424,36.8794335145977,36300,2017-11-08 12:49:27,1852.2193463710285,82.70000264640001,0.35999970196000003,1.4383500460272,1852.2193463710285,82.70000264640001,1.9403983935644,2.15577006898464,1175,0.0,97,GPS_Atti,
0.30768153849424607,36.8794335477619,36700,2017-11-08 12:49:27,1852.4193463774284,82.9000026528,0.35999970196000003,1.43928004605696,1852.4193463774284,82.9000026528,1.9403983935644,2.15577006898464,1167,0.0,97,GPS_Atti,
0.307681460137592,36.8794335441738,37100,2017-11-08 12:49:27,1852.6193463838285,83.10000265920002,0.35999970196000003,1.4447300462313601,1852.6193463838285,83.10000265920002,1.9403983935644,2.15577006898464,1176,0.0,97,GPS_Atti,
0.30768146768950105,36.8794335448314,37200,2017-11-08 12:49:27,1852.7193463870285,83.20000266240001,0.35999970196000003,1.4441800462137602,1852.7193463870285,83.20000266240001,1.9403983935644,2.15577006898464,1176,0.0,97,GPS_Atti,
0.307681450582697,36.879433532059295,37300,2017-11-08 12:49:27,1852.7193463870285,83.20000266240001,0.35999970196000003,1.4464500462864,1852.7193463870285,83.20000266240001,1.9403983935644,2.15577006898464,1174,0.0,97,GPS_Atti,
0.307681447473183,36.87943353127179,37400,,1852.8193463902282,83.3000026656,0.0,1.44672004629504,1852.8193463902282,83.3000026656,1.9403983935644,2.15577006898464,1176,0.0,97,GPS_Atti,
0.30768140982111497,36.8794335197821,37500,2017-11-08 12:49:28,1852.9193463934282,83.4000026688,0.35999970196000003,1.45023004640736,1852.9193463934282,83.4000026688,1.9403983935644,2.15577006898464,1168,0.0,97,GPS_Atti,
0.307681397960344,36.8794335207405,37600,2017-11-08 12:49:28,1852.9193463934282,83.4000026688,0.35999970196000003,1.45093004642976,1852.9193463934282,83.4000026688,1.9403983935644,2.15577006898464,1175,0.0,97,GPS_Atti,
0.30768135196901397,36.8794334888645,38000,2017-11-08 12:49:28,1853.1193463998284,83.60000267520002,0.0,1.4568100466179201,1853.1193463998284,83.60000267520002,1.9403983935644,2.15577006898464,1171,0.0,97,GPS_Atti,
0.30768132893223105,36.8794335416998,38200,2017-11-08 12:49:29,1853.2193464030283,83.70000267840001,0.0,1.45362004651584,1853.2193464030283,83.70000267840001,1.9403983935644,2.15577006898464,1175,0.0,97,GPS_Atti,
0.30768134344410997,36.879433626501005,38600,2017-11-08 12:49:29,1853.4193464094285,83.9000026848,0.0,1.4451000462432002,1853.4193464094285,83.9000026848,1.9403983935644,2.15577006898464,1024,0.0,97,GPS_Atti,
0.30768137572964,36.8794337411554,38900,2017-11-08 12:49:29,1853.5193464126285,84.000002688,0.0,1.432750045848,1853.5193464126285,84.000002688,1.9403983935644,2.15577006898464,1024,0.0,97,GPS_Atti,
0.307681454974611,36.8794338678234,39200,2017-11-08 12:49:30,1853.6193464158282,84.10000269119999,0.0,1.4162000453184,1853.6193464158282,84.10000269119999,1.9403983935644,2.15577006898464,1024,0.0,97,GPS_Atti,
0.307681504258654,36.8794338977939,39500,2017-11-08 12:49:30,1853.5193464126285,84.000002688,0.0,1.4102300451273602,1853.6193464158282,84.10000269119999,1.9403983935644,2.15577006898464,1024,0.0,97,GPS_Atti,
0.307681513738641,36.8794339738998,39700,2017-11-08 12:49:30,1853.5193464126285,84.000002688,0.0,1.4028500448912,1853.6193464158282,84.10000269119999,1.9403983935644,2.15577006898464,1024,0.0,97,GPS_Atti,
0.30768151878763106,36.8794340380995,39900,2017-11-08 12:49:30,1853.5193464126285,84.000002688,0.0,1.3968200446982402,1853.6193464158282,84.10000269119999,1.9403983935644,2.15577006898464,1024,0.0,97,GPS_Atti,
0.30768154982984497,36.879434074883896,40100,2017-11-08 12:49:31,1853.5193464126285,84.000002688,0.0,1.39148004452736,1853.6193464158282,84.10000269119999,1.9403983935644,2.15577006898464,1024,0.0,97,GPS_Atti,
0.30768166334460495,36.8794341561211,40400,2017-11-08 12:49:31,1853.5193464126285,84.000002688,0.0,1.3766500440528002,1853.6193464158282,84.10000269119999,1.9403983935644,2.15577006898464,1024,0.0,97,GPS_Atti,
0.30768170038600606,36.8794342317973,40800,2017-11-08 12:49:31,1853.5193464126285,84.000002688,0.0,1.3674500437584003,1853.6193464158282,84.10000269119999,1.9403983935644,2.15577006898464,1024,0.0,97,GPS_Atti,
0.30768172255320003,36.8794342438496,40900,2017-11-08 12:49:31,1853.5193464126285,84.000002688,0.0,1.3649000436768002,1853.6193464158282,84.10000269119999,1.9403983935644,2.15577006898464,1024,0.0,97,GPS_Atti,
0.307681760626221,36.879434286767705,41000,2017-11-08 12:49:33,1853.5193464126285,84.000002688,0.0,1.3585300434729601,1853.6193464158282,84.10000269119999,1.9403983935644,2.15577006898464,1024,0.0,97,GPS_Atti,
0.307682054736234,36.879434763363,43500,2017-11-08 12:49:34,1853.5193464126285,84.000002688,0.0,1.2965500414896,1853.6193464158282,84.10000269119999,1.9403983935644,2.15577006898464,1024,0.0,97,GPS_Atti,
0.307682103469863,36.879434768831395,43900,2017-11-08 12:49:35,1853.5193464126285,84.000002688,0.0,1.2927800413689599,1853.6193464158282,84.10000269119999,1.9403983935644,2.15577006898464,1024,0.0,97,GPS_Atti,
0.307682144927605,36.8794347570138,44800,2017-11-08 12:49:35,1853.5193464126285,84.000002688,0.35999970196000003,1.2910500413136001,1853.6193464158282,84.10000269119999,1.9403983935644,2.15577006898464,1024,0.0,97,GPS_Atti,
0.307682149614267,36.879434761416995,44900,,1853.5193464126285,84.000002688,0.0,1.29034004129088,1853.6193464158282,84.10000269119999,1.9403983935644,2.15577006898464,1024,0.0,97,GPS_Atti,
0.30768215583003805,36.8794347930872,45000,2017-11-08 12:49:51,1853.5193464126285,84.000002688,0.0,1.2871200411878398,1853.6193464158282,84.10000269119999,1.9403983935644,2.15577006898464,1024,0.0,97,GPS_Atti,
0.30647815863159494,36.879890165543706,60800,2017-11-08 12:49:52,1853.5193464126285,84.000002688,48.502759845070806,143.516004592512,1853.6193464158282,84.10000269119999,48.502759845070806,143.516004592512,1024,0.0,97,GPS_Atti,High Wind Velocity:Fly with caution and ensure the aircraft remains within your line of sight.
0.30636232920789697,36.879905479132,61800,2017-11-08 12:49:53,1853.5193464126285,84.000002688,47.6063605871904,156.218004998976,1853.6193464158282,84.10000269119999,48.502759845070806,156.218004998976,1024,0.0,97,GPS_Atti,
0.306293043788133,36.879909127909706,62400,2017-11-08 12:49:53,1853.5193464126285,84.000002688,47.5271606527592,163.64200523654404,1853.6193464158282,84.10000269119999,48.502759845070806,163.64200523654404,1024,0.0,97,GPS_Atti,
0.30628159350793,36.8799094292852,62500,2017-11-08 12:49:53,1853.5193464126285,84.000002688,47.51996065872,164.861005275552,1853.6193464158282,84.10000269119999,48.502759845070806,164.861005275552,1024,0.0,97,GPS_Atti,
0.306211183445659,36.8799107904253,63100,2017-11-08 12:49:54,1853.4193464094285,83.9000026848,47.51996065872,172.359005515488,1853.6193464158282,84.10000269119999,48.502759845070806,172.359005515488,1024,0.0,97,GPS_Atti,
0.306104152205243,36.879914434098396,64000,2017-11-08 12:49:55,1853.5193464126285,84.000002688,47.9303603189544,183.858005883456,1853.6193464158282,84.10000269119999,48.502759845070806,183.858005883456,1028,0.0,97,GPS_Atti,
0.306018770671801,36.879921772764504,64700,2017-11-08 12:49:55,1853.4193464094285,83.9000026848,48.2255600745616,193.203006182496,1853.6193464158282,84.10000269119999,48.502759845070806,193.203006182496,1024,0.0,95,GPS_Atti,
0.305994476684437,36.8799251698421,64900,2017-11-08 12:49:55,1853.4193464094285,83.9000026848,48.365959958325995,195.90400626892801,1853.6193464158282,84.10000269119999,48.502759845070806,195.90400626892801,1024,0.0,95,GPS_Atti,
0.30597025721466997,36.8799292298636,65100,2017-11-08 12:49:57,1853.5193464126285,84.000002688,48.2363600656204,198.619006355808,1853.6193464158282,84.10000269119999,48.502759845070806,198.619006355808,1024,0.0,95,GPS_Atti,
0.305806863781828,36.8799798104819,66500,2017-11-08 12:49:57,1853.5193464126285,84.000002688,47.933960315974,217.634006964288,1853.6193464158282,84.10000269119999,48.502759845070806,217.634006964288,1024,0.0,95,GPS_Atti,
0.30577248813676194,36.8799946809314,66800,2017-11-08 12:49:57,1853.5193464126285,84.000002688,48.175160116287195,221.76500709648002,1853.6193464158282,84.10000269119999,48.502759845070806,221.76500709648002,1024,0.0,95,GPS_Atti,
0.30574979997756396,36.8800050365385,67000,2017-11-08 12:49:58,1853.5193464126285,84.000002688,48.3263599911104,224.50800718425603,1853.6193464158282,84.10000269119999,48.502759845070806,224.50800718425603,1024,0.0,95,GPS_Atti,
0.3057050616965539,36.880026052279796,67400,2017-11-08 12:49:58,1853.5193464126285,84.000002688,48.4775598659336,229.93800735801602,1853.6193464158282,84.10000269119999,48.502759845070806,229.93800735801602,1024,0.0,95,GPS_Atti,
0.305683024081192,36.880036245808,67600,2017-11-08 12:49:58,1853.5193464126285,84.000002688,48.3263599911104,232.60900744348803,1853.6193464158282,84.10000269119999,48.502759845070806,232.60900744348803,1024,0.0,95,GPS_Atti,
0.305610518563241,36.880069129755,68300,2017-11-08 12:49:59,1853.4193464094285,83.9000026848,39.0023677103464,241.381007724192,1853.6193464158282,84.10000269119999,48.502759845070806,241.381007724192,1024,0.0,95,GPS_Atti,
0.305602145495036,36.880073004024794,68400,2017-11-08 12:49:59,1853.4193464094285,83.9000026848,36.917969435997996,242.39700775670403,1853.6193464158282,84.10000269119999,48.502759845070806,242.39700775670403,1024,0.0,95,GPS_Atti,
0.30557301818166804,36.880086520802706,68800,2017-11-08 12:49:59,1853.4193464094285,83.9000026848,29.415575647151602,245.932007869824,1853.6193464158282,84.10000269119999,48.502759845070806,245.932007869824,1024,0.0,95,GPS_Atti,
0.30555019703722,36.8800969794947,69200,2017-11-08 12:50:00,1853.4193464094285,83.9000026848,22.427981432107998,248.69900795836804,1853.6193464158282,84.10000269119999,48.502759845070806,248.69900795836804,1024,0.0,95,GPS_Atti,
0.305536835979914,36.8801028932649,69500,2017-11-08 12:50:00,1853.4193464094285,83.9000026848,17.999985098,250.31200800998403,1853.6193464158282,84.10000269119999,48.502759845070806,250.31200800998403,1024,0.0,95,GPS_Atti,
0.305529578903921,36.880106263517796,69700,2017-11-08 12:50:00,1853.4193464094285,83.9000026848,15.0335875538496,251.193008038176,1853.6193464158282,84.10000269119999,48.502759845070806,251.193008038176,1024,0.0,95,GPS_Atti,
0.30551697615435996,36.88011266520321,70200,2017-11-08 12:50:00,1853.5193464126285,84.000002688,8.5571929155892,252.742008087744,1853.6193464158282,84.10000269119999,48.502759845070806,252.742008087744,1024,0.0,95,GPS_Atti,
0.305513891646934,36.8801146726373,70400,2017-11-08 12:50:01,1853.5193464126285,84.000002688,6.0335950048496,253.13600810035203,1853.6193464158282,84.10000269119999,48.502759845070806,253.13600810035203,1024,0.0,95,GPS_Atti,
0.30551073501897996,36.8801180089739,70800,2017-11-08 12:50:01,1853.5193464126285,84.000002688,1.7999985098000002,253.581008114592,1853.6193464158282,84.10000269119999,48.502759845070806,253.581008114592,1024,0.0,95,GPS_Atti,
0.30551052678659,36.8801186489985,70900,2017-11-08 12:50:01,1853.5193464126285,84.000002688,1.5263987363104,253.624008115968,1853.6193464158282,84.10000269119999,48.502759845070806,253.624008115968,1024,0.0,95,GPS_Atti,
0.30551034315021697,36.8801205799668,71200,2017-11-08 12:50:02,1853.5193464126285,84.000002688,1.07999910588,253.70700811862403,1853.6193464158282,84.10000269119999,48.502759845070806,253.70700811862403,1024,0.0,95,GPS_Atti,
0.305509776191155,36.8801231640466,72200,2017-11-08 12:50:03,1853.5193464126285,84.000002688,0.0,253.852008123264,1853.6193464158282,84.10000269119999,48.502759845070806,253.852008123264,1024,0.0,95,GPS_Atti,
0.305509509386891,36.8801221121616,72800,2017-11-08 12:50:06,1853.5193464126285,84.000002688,0.0,253.846008123072,1853.6193464158282,84.10000269119999,48.502759845070806,253.852008123264,1024,0.0,95,GPS_Atti,
0.30551015868008097,36.880117671044204,75500,2017-11-08 12:50:07,1853.5193464126285,84.000002688,0.0,253.631008116192,1853.6193464158282,84.10000269119999,48.502759845070806,253.852008123264,1024,0.0,94,GPS_Atti,
0.305509760558093,36.8801176818015,77000,2017-11-08 12:50:09,1853.5193464126285,84.000002688,0.0,253.67300811753603,1853.6193464158282,84.10000269119999,48.502759845070806,253.852008123264,1024,0.0,94,GPS_Atti,
0.30550979995340993,36.880119730277706,79400,2017-11-08 12:50:10,1853.4193464094285,83.9000026848,0.0,253.737008119584,1853.6193464158282,84.10000269119999,48.502759845070806,253.852008123264,1024,0.0,94,GPS_Atti,
0.305509785362552,36.8801197061595,79500,2017-11-08 12:50:10,1853.4193464094285,83.9000026848,0.0,253.737008119584,1853.6193464158282,84.10000269119999,48.502759845070806,253.852008123264,1024,0.0,94,GPS_Atti,
0.30550976701975896,36.8801196926615,79600,2017-11-08 12:50:10,1853.4193464094285,83.9000026848,0.0,253.739008119648,1853.6193464158282,84.10000269119999,48.502759845070806,253.852008123264,1024,0.0,94,GPS_Atti,
0.30550973241858004,36.8801197015688,79800,2017-11-08 12:50:10,1853.4193464094285,83.9000026848,0.0,253.743008119776,1853.6193464158282,84.10000269119999,48.502759845070806,253.852008123264,1024,0.0,94,GPS_Atti,
0.305509724914711,36.8801197256185,79900,,1853.4193464094285,83.9000026848,0.0,253.744008119808,1853.6193464158282,84.10000269119999,48.502759845070806,253.852008123264,1024,0.0,94,GPS_Atti,
0.305509724080947,36.8801197611107,80000,2017-11-08 12:50:10,1853.4193464094285,83.9000026848,0.0,253.74600811987202,1853.6193464158282,84.10000269119999,48.502759845070806,253.852008123264,1024,0.0,94,GPS_Atti,
0.30550970615503603,36.8801197922178,80100,2017-11-08 12:50:10,1853.4193464094285,83.9000026848,0.0,253.749008119968,1853.6193464158282,84.10000269119999,48.502759845070806,253.852008123264,1024,0.0,94,GPS_Atti,
0.305509694482349,36.880119814212,80200,2017-11-08 12:50:10,1853.4193464094285,83.9000026848,0.0,253.75100812003203,1853.6193464158282,84.10000269119999,48.502759845070806,253.852008123264,1024,0.0,94,GPS_Atti,
0.30550966259090195,36.8801198195564,80300,,1853.4193464094285,83.9000026848,0.0,253.75400812012802,1853.6193464158282,84.10000269119999,48.502759845070806,253.852008123264,1024,0.0,94,GPS_Atti,
0.30550962694752,36.8801198328489,80400,2017-11-08 12:50:10,1853.4193464094285,83.9000026848,0.0,253.75800812025602,1853.6193464158282,84.10000269119999,48.502759845070806,253.852008123264,1024,0.0,94,GPS_Atti,
0.30550957942301,36.8801198642985,80500,2017-11-08 12:50:11,1853.4193464094285,83.9000026848,0.0,253.764008120448,1853.6193464158282,84.10000269119999,48.502759845070806,253.852008123264,1024,0.0,94,GPS_Atti,
0.30550954940753,36.88011988855379,80600,2017-11-08 12:50:11,1853.4193464094285,83.9000026848,0.0,253.768008120576,1853.6193464158282,84.10000269119999,48.502759845070806,253.852008123264,1024,0.0,94,GPS_Atti,
0.305509535858876,36.880119900886996,80800,2017-11-08 12:50:11,1853.4193464094285,83.9000026848,0.0,253.77000812064,1853.6193464158282,84.10000269119999,48.502759845070806,253.852008123264,1024,0.0,94,GPS_Atti,
0.305509514389471,36.880119918907205,80900,2017-11-08 12:50:11,1853.4193464094285,83.9000026848,0.0,253.77300812073602,1853.6193464158282,84.10000269119999,48.502759845070806,253.852008123264,1024,0.0,94,GPS_Atti,
0.30550949979861197,36.880119943231,81000,2017-11-08 12:50:11,1853.4193464094285,83.9000026848,0.0,253.77500812080004,1853.6193464158282,84.10000269119999,48.502759845070806,253.852008123264,1024,0.0,94,GPS_Atti,
0.305509482081142,36.8801199601549,81100,,1853.4193464094285,83.9000026848,0.0,253.77800812089603,1853.6193464158282,84.10000269119999,48.502759845070806,253.852008123264,1024,0.0,94,GPS_Atti,
0.305509473535068,36.880119991810105,81200,2017-11-08 12:50:11,1853.4193464094285,83.9000026848,0.0,253.78000812096002,1853.6193464158282,84.10000269119999,48.502759845070806,253.852008123264,1024,0.0,94,GPS_Atti,
0.30550946144549895,36.880120028193105,81300,2017-11-08 12:50:12,1853.4193464094285,83.9000026848,0.0,253.782008121024,1853.6193464158282,84.10000269119999,48.502759845070806,253.852008123264,1024,0.0,94,GPS_Atti,
0.305509451231899,36.8801200773203,81400,,1853.4193464094285,83.9000026848,0.0,253.78500812112,1853.6193464158282,84.10000269119999,48.502759845070806,253.852008123264,1024,0.0,94,GPS_Atti,
0.30550941788136604,36.8801201166495,81500,2017-11-08 12:50:12,1853.4193464094285,83.9000026848,0.0,253.79000812128,1853.6193464158282,84.10000269119999,48.502759845070806,253.852008123264,1024,0.0,94,GPS_Atti,
0.30550939099249796,36.880120152073204,81600,2017-11-08 12:50:12,1853.3193464062285,83.8000026816,0.0,253.794008121408,1853.6193464158282,84.10000269119999,48.502759845070806,253.852008123264,1024,0.0,94,GPS_Atti,
0.30550937327502803,36.8801201496751,81700,,1853.3193464062285,83.8000026816,0.0,253.796008121472,1853.6193464158282,84.10000269119999,48.502759845070806,253.852008123264,1024,0.0,94,GPS_Atti,
0.30550936952309304,36.8801201571436,81800,2017-11-08 12:50:12,1853.3193464062285,83.8000026816,0.0,253.796008121472,1853.6193464158282,84.10000269119999,48.502759845070806,253.852008123264,1024,0.0,94,GPS_Atti,
0.305509363269868,36.880120169750796,81900,2017-11-08 12:50:12,1853.3193464062285,83.8000026816,0.0,253.797008121504,1853.6193464158282,84.10000269119999,48.502759845070806,253.852008123264,1024,0.0,94,GPS_Atti,
0.30550936076857804,36.880120202570794,82000,2017-11-08 12:50:12,1853.3193464062285,83.8000026816,0.0,253.79900812156802,1853.6193464158282,84.10000269119999,48.502759845070806,253.852008123264,1024,0.0,94,GPS_Atti,
0.30550934263422497,36.880120238474206,82100,,1853.3193464062285,83.8000026816,0.0,253.80200812166402,1853.6193464158282,84.10000269119999,48.502759845070806,253.852008123264,1024,0.0,94,GPS_Atti,
0.305509343051107,36.880120289108795,82200,2017-11-08 12:50:12,1853.3193464062285,83.8000026816,0.0,253.80300812169602,1853.6193464158282,84.10000269119999,48.502759845070806,253.852008123264,1024,0.0,94,GPS_Atti,
0.305509342008903,36.8801203172011,82300,2017-11-08 12:50:12,1853.3193464062285,83.8000026816,0.0,253.80500812176,1853.6193464158282,84.10000269119999,48.502759845070806,253.852008123264,1024,0.0,94,GPS_Atti,
0.305509358475729,36.8801203574896,82400,2017-11-08 12:50:13,1853.3193464062285,83.8000026816,0.0,253.804008121728,1853.6193464158282,84.10000269119999,48.502759845070806,253.852008123264,1024,0.0,94,GPS_Atti,
0.305509370773738,36.880120388528105,82500,2017-11-08 12:50:13,1853.3193464062285,83.8000026816,0.0,253.804008121728,1853.6193464158282,84.10000269119999,48.502759845070806,253.852008123264,1024,0.0,94,GPS_Atti,
0.30550939703728197,36.8801204327221,82600,2017-11-08 12:50:13,1853.3193464062285,83.8000026816,0.0,253.80200812166402,1853.6193464158282,84.10000269119999,48.502759845070806,253.852008123264,1024,-0.3,94,GPS_Atti,
0.30550941100281803,36.8801204560181,82700,,1853.4193464094285,83.9000026848,0.0,253.80200812166402,1853.6193464158282,84.10000269119999,48.502759845070806,253.852008123264,1024,-1.1,94,GPS_Atti,
0.305509438517008,36.8801204850697,82800,2017-11-08 12:50:13,1853.4193464094285,83.9000026848,0.0,253.8000081216,1853.6193464158282,84.10000269119999,48.502759845070806,253.852008123264,1024,-2.8,94,GPS_Atti,
0.305509450189694,36.8801204885641,82900,2017-11-08 12:50:13,1853.4193464094285,83.9000026848,0.0,253.79900812156802,1853.6193464158282,84.10000269119999,48.502759845070806,253.852008123264,1024,-2.8,94,GPS_Atti,
0.305509466031198,36.8801205119286,83000,2017-11-08 12:50:13,1853.4193464094285,83.9000026848,0.0,253.79800812153601,1853.6193464158282,84.10000269119999,48.502759845070806,253.852008123264,1024,-10.1,94,GPS_Atti,
0.305509473743508,36.880120535361705,83100,2017-11-08 12:50:13,1853.4193464094285,83.9000026848,0.0,253.79800812153601,1853.6193464158282,84.10000269119999,48.502759845070806,253.852008123264,1024,-15.4,94,GPS_Atti,
