latitude,longitude,time_millisecond,datetime_utc,altitude_m,ascent_m,speed_kph,distance_m,max_altitude_m,max_ascent_m,max_speed_kph,max_distance_m,rc_throttle,gimbal_pitch_degrees,battery_percent,flycState,message
0.06926088995317199,36.9624021011956,100,2017-11-02 04:58:23,1801.842098658933,0.0,0.0,0.0,1801.842098658933,0.0,0.0,0.0,1024,0.0,99,Motors_Started,
0.0692608512844462,36.9624020809264,300,2017-11-02 04:58:23,1801.842098658933,0.0,0.0,0.004855150155364801,1801.842098658933,0.0,0.0,0.004855150155364801,1024,0.0,99,Motors_Started,
0.0692608363802906,36.9624020743049,400,2017-11-02 04:58:23,1801.842098658933,0.0,0.0,0.00666602021331264,1801.842098658933,0.0,0.0,0.00666602021331264,1024,0.0,99,Motors_Started,
0.0692608695641117,36.9624020611061,500,2017-11-02 04:58:24,1801.842098658933,0.0,0.0,0.0050016501600528,1801.842098658933,0.0,0.0,0.00666602021331264,1024,0.0,99,Motors_Started,
0.0692608914180846,36.9624020555508,600,2017-11-02 04:58:24,1801.842098658933,0.0,0.0,0.00507858016251456,1801.842098658933,0.0,0.0,0.00666602021331264,1024,0.0,99,Motors_Started,
0.069260956088252,36.9624020828494,700,2017-11-02 04:58:24,1801.842098658933,0.0,0.0,0.007632360244235521,1801.842098658933,0.0,0.0,0.007632360244235521,1024,0.0,99,Motors_Started,Setting new Return-To-Home altitude to 30m (98 ft). Setting new Maximum Flight Altitude to 100m (328 ft)
0.0692610849373566,36.9624021260143,900,2017-11-02 04:58:24,1801.842098658933,0.0,0.0,0.021858400699468802,1801.842098658933,0.0,0.0,0.021858400699468802,1024,0.0,99,Motors_Started,
0.06926114513920098,36.962402138794,1000,2017-11-02 04:58:24,1801.842098658933,0.0,0.0,0.0286846009179072,1801.842098658933,0.0,0.0,0.0286846009179072,1024,0.0,99,Motors_Started,
0.0692611937825025,36.962402142800705,1100,2017-11-02 04:58:24,1801.842098658933,0.0,0.0,0.034103001091296006,1801.842098658933,0.0,0.0,0.034103001091296006,1024,0.0,99,Motors_Started,
0.069261225787381,36.9624021552455,1200,2017-11-02 04:58:24,1801.842098658933,0.0,0.0,0.037827401210476806,1801.842098658933,0.0,0.0,0.037827401210476806,1024,0.0,99,Motors_Started,
0.0692612071822048,36.962402151544204,1300,2017-11-02 04:58:24,1801.842098658933,0.0,0.0,0.0357194011430208,1801.842098658933,0.0,0.0,0.037827401210476806,364,0.0,99,Motors_Started,
0.0692611934707572,36.962402154957,1400,2017-11-02 04:58:24,1801.842098658933,0.0,0.0,0.0342784010969088,1801.842098658933,0.0,0.0,0.037827401210476806,364,0.0,99,Motors_Started,
0.0692612119903384,36.9624021460827,1500,2017-11-02 04:58:25,1801.842098658933,0.0,0.0,0.03615870115707841,1801.842098658933,0.0,0.0,0.037827401210476806,364,0.0,99,Assisted_Takeoff,
0.0692612253428667,36.962402145638706,1600,2017-11-02 04:58:25,1801.842098658933,0.0,0.0,0.0376234012039488,1801.842098658933,0.0,0.0,0.037827401210476806,364,0.0,99,Assisted_Takeoff,
0.0692612309051734,36.96240214165721,1700,2017-11-02 04:58:25,1801.842098658933,0.0,0.0,0.038182001221824,1801.842098658933,0.0,0.0,0.038182001221824,364,0.0,99,Assisted_Takeoff,
0.0692612356424187,36.9624021418025,1800,2017-11-02 04:58:25,1801.842098658933,0.0,0.0,0.0387071012386272,1801.842098658933,0.0,0.0,0.0387071012386272,364,0.0,99,Assisted_Takeoff,
0.0692611969801049,36.9624021339472,1900,2017-11-02 04:58:25,1801.842098658933,0.0,0.0,0.034337001098784,1801.842098658933,0.0,0.0,0.0387071012386272,364,0.0,99,Assisted_Takeoff,
0.069261168171862,36.9624021304103,2000,2017-11-02 04:58:25,1801.842098658933,0.0,0.0,0.031109700995510404,1801.842098658933,0.0,0.0,0.0387071012386272,364,0.0,99,Assisted_Takeoff,
0.06926113838039501,36.962402125202395,2100,2017-11-02 04:58:25,1801.842098658933,0.0,0.0,0.0277553008881696,1801.842098658933,0.0,0.0,0.0387071012386272,505,0.0,99,Assisted_Takeoff,
0.0692611174269517,36.9624021209386,2200,2017-11-02 04:58:25,1801.842098658933,0.0,0.0,0.025391600812531202,1801.842098658933,0.0,0.0,0.0387071012386272,740,0.0,99,Assisted_Takeoff,
0.0692611385482265,36.9624021162404,2300,2017-11-02 04:58:25,1801.842098658933,0.0,0.0,0.0276959008862688,1801.842098658933,0.0,0.0,0.0387071012386272,1066,0.0,99,Assisted_Takeoff,
0.0692611536440551,36.962402113693706,2400,2017-11-02 04:58:25,1801.842098658933,0.0,0.0,0.029357000939424,1801.842098658933,0.0,0.0,0.0387071012386272,1024,0.0,99,Assisted_Takeoff,
0.0692611706574273,36.962402107353704,2500,2017-11-02 04:58:26,1801.842098658933,0.0,0.0,0.031223500999152002,1801.842098658933,0.0,0.0,0.0387071012386272,1024,0.0,99,Assisted_Takeoff,
0.0692611805939381,36.962402103601605,2600,2017-11-02 04:58:26,1801.842098658933,0.0,0.0,0.0323221010343072,1801.842098658933,0.0,0.0,0.0387071012386272,1024,0.0,99,Assisted_Takeoff,
0.0692611883992229,36.9624021005985,2700,2017-11-02 04:58:26,1801.842098658933,0.0,0.0,0.0331891010620512,1801.842098658933,0.0,0.0,0.0387071012386272,1024,0.0,99,Assisted_Takeoff,
0.0692611943846197,36.96240209562121,2800,2017-11-02 04:58:26,1801.842098658933,0.0,0.0,0.0338603010835296,1801.842098658933,0.0,0.0,0.0387071012386272,1024,0.0,99,Assisted_Takeoff,
0.0692611983361917,36.962402093316,2900,2017-11-02 04:58:26,1801.842098658933,0.0,0.0,0.0343053010977696,1801.842098658933,0.0,0.0,0.0387071012386272,1024,0.0,99,Assisted_Takeoff,
0.06926120091793699,36.9624020899073,3000,2017-11-02 04:58:26,1801.842098658933,0.0,0.0,0.034604001107328,1801.842098658933,0.0,0.0,0.0387071012386272,1024,0.0,99,Assisted_Takeoff,
0.0692612409311469,36.9624020871321,3100,2017-11-02 04:58:26,1801.842098658933,0.0,0.0,0.039062201249990394,1801.842098658933,0.0,0.0,0.039062201249990394,1024,0.0,99,Assisted_Takeoff,
0.0692612719957008,36.9624020828635,3200,2017-11-02 04:58:26,1801.842098658933,0.0,0.0,0.0425343013610976,1801.842098658933,0.0,0.0,0.0425343013610976,1024,0.0,99,Assisted_Takeoff,
0.06926129534926699,36.9624020825179,3300,2017-11-02 04:58:26,1801.842098658933,0.0,0.0,0.0451303014441696,1801.842098658933,0.0,0.0,0.0451303014441696,1024,0.0,99,Assisted_Takeoff,
0.0692613138766341,36.9624020794519,3400,2017-11-02 04:58:26,1801.842098658933,0.0,0.0,0.047204801510553604,1801.842098658933,0.0,0.0,0.047204801510553604,1024,0.0,99,Assisted_Takeoff,
0.0692613250559531,36.962402078958,3500,2017-11-02 04:58:27,1801.842098658933,0.0,0.0,0.04844920155037441,1801.842098658933,0.0,0.0,0.04844920155037441,1024,0.0,99,Assisted_Takeoff,
0.0692613354009998,36.9624020767699,3600,2017-11-02 04:58:27,1801.842098658933,0.0,0.0,0.0496109015875488,1801.842098658933,0.0,0.0,0.0496109015875488,1024,0.0,99,Assisted_Takeoff,
0.0692613435008802,36.9624020077494,3800,2017-11-02 04:58:27,1801.842098658933,0.0,0.0,0.051496701647894404,1801.842098658933,0.0,0.0,0.051496701647894404,1024,0.0,99,Assisted_Takeoff,
0.069261341802464,36.9624019838132,3900,2017-11-02 04:58:27,1801.842098658933,0.0,0.0,0.0519163016613216,1801.842098658933,0.0,0.0,0.0519163016613216,1024,0.0,99,Assisted_Takeoff,
0.0692613433879069,36.9624019622779,4000,2017-11-02 04:58:27,1801.842098658933,0.0,0.0,0.05273810168761921,1801.842098658933,0.0,0.0,0.05273810168761921,1024,0.0,99,Assisted_Takeoff,
0.0692613773221863,36.9624019121657,4100,2017-11-02 04:58:27,1801.842098658933,0.0,0.0,0.058132301860233604,1801.842098658933,0.0,0.0,0.058132301860233604,1024,0.0,99,Assisted_Takeoff,
0.0692614058132389,36.9624018693381,4200,2017-11-02 04:58:27,1801.842098658933,0.0,0.0,0.0628948020126336,1801.842098658933,0.0,0.0,0.0628948020126336,1024,0.0,99,Assisted_Takeoff,
0.0692614249914238,36.9624018420409,4300,2017-11-02 04:58:27,1801.842098658933,0.0,0.0,0.0661117021155744,1801.842098658933,0.0,0.0,0.0661117021155744,1024,0.0,99,Assisted_Takeoff,
0.0692614423499244,36.9624018151815,4400,2017-11-02 04:58:27,1801.842098658933,0.0,0.0,0.0691757022136224,1801.842098658933,0.0,0.0,0.0691757022136224,1051,0.0,99,Assisted_Takeoff,
0.0692614858112627,36.96240176830071,4500,2017-11-02 04:58:28,1801.842098658933,0.0,0.0,0.075903002428896,1801.842098658933,0.0,0.0,0.075903002428896,1074,0.0,99,Assisted_Takeoff,
0.069261523746578,36.9624017235445,4600,2017-11-02 04:58:28,1801.842098658933,0.0,0.0,0.0820452026254464,1801.842098658933,0.0,0.0,0.0820452026254464,1100,0.0,99,Assisted_Takeoff,
0.0692615473722471,36.9624017003721,4700,2017-11-02 04:58:28,1801.842098658933,0.0,0.0,0.0856257027400224,1801.842098658933,0.0,0.0,0.0856257027400224,1100,0.0,99,Assisted_Takeoff,
0.0692615684355595,36.9624016756798,4800,2017-11-02 04:58:28,1801.842098658933,0.0,0.0,0.0890623028499936,1801.842098658933,0.0,0.0,0.0890623028499936,1101,0.0,99,Assisted_Takeoff,
0.0692616121208088,36.9624016338794,4900,2017-11-02 04:58:28,1801.842098658933,0.0,0.0,0.09565730306103362,1801.842098658933,0.0,0.0,0.09565730306103362,1109,0.0,99,Assisted_Takeoff,
0.0692616525856066,36.96240159265,5000,2017-11-02 04:58:28,1801.842098658933,0.0,0.0,0.10193600326195201,1801.842098658933,0.0,0.0,0.10193600326195201,1135,0.0,99,Assisted_Takeoff,
0.0692616763978343,36.962401573545606,5100,2017-11-02 04:58:28,1801.842098658933,0.0,0.0,0.105318003370176,1801.842098658933,0.0,0.0,0.105318003370176,1158,0.0,99,Assisted_Takeoff,
0.0692616990825681,36.962401550383504,5200,2017-11-02 04:58:28,1801.842098658933,0.0,0.0,0.1088500034832,1801.842098658933,0.0,0.0,0.1088500034832,1187,0.0,99,Assisted_Takeoff,
0.0692617057921644,36.962401511591395,5300,2017-11-02 04:58:28,1801.842098658933,0.0,0.0,0.111939003582048,1801.842098658933,0.0,0.0,0.111939003582048,1191,0.0,99,Assisted_Takeoff,
0.0692617225783687,36.9624014659149,5400,2017-11-02 04:58:28,1801.842098658933,0.0,0.0,0.11646700372694402,1801.842098658933,0.0,0.0,0.11646700372694402,1194,0.0,99,Assisted_Takeoff,
0.0692617472060397,36.962401426051294,5500,2017-11-02 04:58:29,1801.842098658933,0.0,0.0,0.121347003883104,1801.842098658933,0.0,0.0,0.121347003883104,1209,0.0,99,Assisted_Takeoff,
0.0692618579374835,36.9624013251307,5600,2017-11-02 04:58:29,1801.842098658933,0.0,0.5075995797636,0.13797000441503998,1801.842098658933,0.0,0.5075995797636,0.13797000441503998,1231,0.0,99,Assisted_Takeoff,
0.0692621410063413,36.962401148597,5700,2017-11-02 04:58:29,1801.842098658933,0.0,1.4831987720752,0.17486500559568,1801.842098658933,0.0,1.4831987720752,0.17486500559568,1246,0.0,99,GPS_Atti,Home Point Recorded. RTH Altitude:  30m.
0.0692626264529265,36.9624009278735,5800,2017-11-02 04:58:29,1801.842098658933,0.0,1.9403983935644,0.23305900745788802,1801.842098658933,0.0,1.9403983935644,0.23305900745788802,1247,0.0,99,GPS_Atti,
0.0692632851267686,36.962400665191495,5900,2017-11-02 04:58:29,1801.842098658933,0.0,2.2751981163872,0.31056100993795205,1801.842098658933,0.0,2.2751981163872,0.31056100993795205,1247,0.0,99,GPS_Atti,
0.0692639568456685,36.9624004021264,6000,2017-11-02 04:58:29,1801.942098662133,0.10000000320000002,2.2751981163872,0.389898012476736,1801.942098662133,0.10000000320000002,2.2751981163872,0.389898012476736,1247,0.0,99,GPS_Atti,
0.0692646196854774,36.9624002135546,6100,2017-11-02 04:58:29,1801.942098662133,0.10000000320000002,1.8359984799959999,0.46486401487564805,1801.942098662133,0.10000000320000002,2.2751981163872,0.46486401487564805,1249,0.0,99,GPS_Atti,
0.0692652411453031,36.9624000641089,6200,2017-11-02 04:58:29,1802.042098665333,0.20000000640000004,1.8359984799959999,0.534282017097024,1802.042098665333,0.20000000640000004,2.2751981163872,0.534282017097024,1250,0.0,99,GPS_Atti,
0.0692658018564325,36.9623999442533,6300,2017-11-02 04:58:29,1802.1420986685332,0.3000000096,1.4831987720752,0.596579019090528,1802.1420986685332,0.3000000096,2.2751981163872,0.596579019090528,1259,0.0,99,GPS_Atti,
0.0692663377549608,36.9623998131457,6400,2017-11-02 04:58:29,1802.242098671733,0.4000000128000001,1.4399988078400001,0.6570930210269761,1802.242098671733,0.4000000128000001,2.2751981163872,0.6570930210269761,1272,0.0,99,GPS_Atti,
0.0692668101466159,36.9623997111182,6500,2017-11-02 04:58:30,1802.342098674933,0.500000016,1.4399988078400001,0.709989022719648,1802.342098674933,0.500000016,2.2751981163872,0.709989022719648,1274,0.0,99,GPS_Atti,
0.0692672825390852,36.9623996310902,6600,2017-11-02 04:58:30,1802.4420986781329,0.6000000192,1.4399988078400001,0.762119024387808,1802.4420986781329,0.6000000192,2.2751981163872,0.762119024387808,1265,0.0,99,GPS_Atti,
0.0692682182886022,36.962399624618,6800,2017-11-02 04:58:30,1802.642098684533,0.8000000256000002,1.7999985098000002,0.8602340275274879,1802.642098684533,0.8000000256000002,2.2751981163872,0.8602340275274879,1277,0.0,99,GPS_Atti,
0.0692686996509481,36.962399666033896,6900,2017-11-02 04:58:30,1802.742098687733,0.9000000288000001,1.7999985098000002,0.9097270291112641,1802.742098687733,0.9000000288000001,2.2751981163872,0.9097270291112641,1265,0.0,99,GPS_Atti,
0.0692691883746751,36.9623996794817,7000,2017-11-02 04:58:30,1802.8420986909332,1.000000032,1.7999985098000002,0.961328030762496,1802.8420986909332,1.000000032,2.2751981163872,0.961328030762496,1232,0.0,99,GPS_Atti,
0.0692696939682678,36.962399665424705,7100,2017-11-02 04:58:30,1803.042098697333,1.2000000384,1.7999985098000002,1.0158400325068802,1803.042098697333,1.2000000384,2.2751981163872,1.0158400325068802,1229,0.0,99,GPS_Atti,
0.0692702204385124,36.962399663126895,7200,2017-11-02 04:58:30,1803.1420987005329,1.3000000416000002,1.7999985098000002,1.0724500343184,1803.1420987005329,1.3000000416000002,2.2751981163872,1.0724500343184,1249,0.0,99,GPS_Atti,
0.0692707390498863,36.962399638296795,7300,2017-11-02 04:58:30,1803.242098703733,1.4000000448000003,1.7999985098000002,1.12901003612832,1803.242098703733,1.4000000448000003,2.2751981163872,1.12901003612832,1296,0.0,99,GPS_Atti,
0.0692712409851795,36.9623996173915,7400,2017-11-02 04:58:30,1803.342098706933,1.5000000480000002,1.7999985098000002,1.1837700378806402,1803.342098706933,1.5000000480000002,2.2751981163872,1.1837700378806402,1333,0.0,99,GPS_Atti,
0.0692717092849619,36.962399607210706,7500,2017-11-02 04:58:31,1803.442098710133,1.6000000512000003,1.4399988078400001,1.23473003951136,1803.442098710133,1.6000000512000003,2.2751981163872,1.23473003951136,1376,0.0,99,GPS_Atti,
0.069272145223491,36.9623995438316,7600,2017-11-02 04:58:31,1803.542098713333,1.7000000544000002,1.4831987720752,1.28356004107392,1803.542098713333,1.7000000544000002,2.2751981163872,1.28356004107392,1372,0.0,99,GPS_Atti,
0.0692725369823344,36.962399452480796,7700,2017-11-02 04:58:31,1803.7420987197331,1.9000000607999998,1.4399988078400001,1.3282900425052802,1803.7420987197331,1.9000000607999998,2.2751981163872,1.3282900425052802,1372,0.0,99,GPS_Atti,
0.0692729231385163,36.9623993666231,7800,2017-11-02 04:58:31,1803.842098722933,2.000000064,1.4399988078400001,1.37228004391296,1803.842098722933,2.000000064,2.2751981163872,1.37228004391296,1384,0.0,99,GPS_Atti,
0.069273300366754,36.962399274221504,7900,2017-11-02 04:58:31,1804.042098729333,2.2000000704,1.4399988078400001,1.4154700452950402,1804.042098729333,2.2000000704,2.2751981163872,1.4154700452950402,1393,0.0,99,GPS_Atti,
0.0692736602968453,36.9623992038608,8000,2017-11-02 04:58:31,1804.242098735733,2.4000000768,1.07999910588,1.4562300465993598,1804.242098735733,2.4000000768,2.2751981163872,1.4562300465993598,1390,0.0,99,GPS_Atti,
0.0692740161623404,36.9623991582001,8100,2017-11-02 04:58:31,1804.442098742133,2.6000000832000003,1.07999910588,1.4959500478704,1804.442098742133,2.6000000832000003,2.2751981163872,1.4959500478704,1393,0.0,99,GPS_Atti,
0.0692743417957726,36.962399096525296,8200,2017-11-02 04:58:31,1804.642098748533,2.8000000896000006,1.07999910588,1.53279004904928,1804.642098748533,2.8000000896000006,2.2751981163872,1.53279004904928,1388,0.0,99,GPS_Atti,
0.0692746040094535,36.962399045028896,8300,2017-11-02 04:58:31,1804.8420987549332,3.0000000960000004,1.07999910588,1.5625000500000001,1804.8420987549332,3.0000000960000004,2.2751981163872,1.5625000500000001,1372,0.0,99,GPS_Atti,
0.0692748902557108,36.962399004598204,8400,2017-11-02 04:58:31,1805.042098761333,3.2000001024000007,1.07999910588,1.5945500510256,1805.042098761333,3.2000001024000007,2.2751981163872,1.5945500510256,1358,0.0,99,GPS_Atti,
0.0692751680796558,36.9623989749469,8500,2017-11-02 04:58:32,1805.342098770933,3.500000112,1.07999910588,1.62543005201376,1805.342098770933,3.500000112,2.2751981163872,1.62543005201376,1360,0.0,99,GPS_Atti,
0.0692754631748778,36.9623989518335,8600,2017-11-02 04:58:32,1805.5420987773332,3.7000001184,1.07999910588,1.65804005305728,1805.5420987773332,3.7000001184,2.2751981163872,1.65804005305728,1375,0.0,99,GPS_Atti,
0.06927575541380901,36.9623989554413,8700,2017-11-02 04:58:32,1805.742098783733,3.9000001248,1.07999910588,1.68974005407168,1805.742098783733,3.9000001248,2.2751981163872,1.68974005407168,1375,0.0,99,GPS_Atti,
0.0692760664514978,36.9623989420249,8800,2017-11-02 04:58:32,1805.942098790133,4.100000131200001,1.07999910588,1.7239000551648003,1805.942098790133,4.100000131200001,2.2751981163872,1.7239000551648003,1388,0.0,99,GPS_Atti,
0.0692763638297983,36.9623989523736,8900,2017-11-02 04:58:32,1806.142098796533,4.3000001376,1.4399988078400001,1.75606005619392,1806.142098796533,4.3000001376,2.2751981163872,1.75606005619392,1405,0.0,99,GPS_Atti,
0.0692766903686454,36.9623989541119,9000,2017-11-02 04:58:32,1806.4420988061331,4.6000001472,1.4399988078400001,1.7916200573318402,1806.4420988061331,4.6000001472,2.2751981163872,1.7916200573318402,1406,0.0,99,GPS_Atti,
0.0692770600433456,36.9623989409219,9100,2017-11-02 04:58:32,1806.6420988125328,4.8000001536,1.4399988078400001,1.8322300586313605,1806.6420988125328,4.8000001536,2.2751981163872,1.8322300586313605,1409,0.0,99,GPS_Atti,
0.0692774444440649,36.962398957534795,9200,2017-11-02 04:58:32,1806.942098822133,5.1000001632,1.4399988078400001,1.87386005996352,1806.942098822133,5.1000001632,2.2751981163872,1.87386005996352,1412,0.0,99,GPS_Atti,
0.0692778606906349,36.9623990281642,9300,2017-11-02 04:58:32,1807.142098828533,5.3000001696,1.07999910588,1.9179400613740802,1807.142098828533,5.3000001696,2.2751981163872,1.9179400613740802,1415,0.0,99,GPS_Atti,
0.069278242274146,36.96239909495821,9400,2017-11-02 04:58:32,1807.4420988381332,5.600000179200001,1.07999910588,1.9584300626697602,1807.4420988381332,5.600000179200001,2.2751981163872,1.9584300626697602,1414,0.0,99,GPS_Atti,
0.0692785999879251,36.9623992079855,9500,2017-11-02 04:58:33,1807.742098847733,5.9000001888,1.07999910588,1.99557006385824,1807.742098847733,5.9000001888,2.2751981163872,1.99557006385824,1414,0.0,99,GPS_Atti,
0.0692789604749442,36.9623993278204,9600,2017-11-02 04:58:33,1808.042098857333,6.2000001984,1.4399988078400001,2.0330800650585603,1808.042098857333,6.2000001984,2.2751981163872,2.0330800650585603,1417,0.0,99,GPS_Atti,
0.0692793511630857,36.9623995070208,9700,2017-11-02 04:58:33,1808.3420988669332,6.500000208,1.4831987720752,2.07317006634144,1808.3420988669332,6.500000208,2.2751981163872,2.07317006634144,1389,0.0,99,GPS_Atti,
0.069279759422138,36.9623996682187,9800,2017-11-02 04:58:33,1808.642098876533,6.800000217600001,1.4831987720752,2.11577006770464,1808.642098876533,6.800000217600001,2.2751981163872,2.11577006770464,1409,0.0,99,GPS_Atti,
0.0692801896651842,36.9623998232713,9900,2017-11-02 04:58:33,1808.842098882933,7.000000224,1.4831987720752,2.16114006915648,1808.842098882933,7.000000224,2.2751981163872,2.16114006915648,1416,0.0,99,GPS_Atti,
0.0692806161774652,36.962399954413,10000,2017-11-02 04:58:33,1809.142098892533,7.3000002336000005,1.1375990581936,2.2066300706121598,1809.142098892533,7.3000002336000005,2.2751981163872,2.2066300706121598,1417,0.0,99,GPS_Atti,
0.0692810099368521,36.9624000911719,10100,2017-11-02 04:58:33,1809.442098902133,7.600000243199999,1.1375990581936,2.2486000719552,1809.442098902133,7.600000243199999,2.2751981163872,2.2486000719552,1421,0.0,99,GPS_Atti,
0.0692814042841073,36.962400222336996,10200,2017-11-02 04:58:33,1809.642098908533,7.8000002496,1.4831987720752,2.29087007330784,1809.642098908533,7.8000002496,2.2751981163872,2.29087007330784,1439,0.0,99,GPS_Atti,
0.0692818135983912,36.9624003790027,10300,2017-11-02 04:58:33,1809.942098918133,8.1000002592,1.4831987720752,2.33471007471072,1809.942098918133,8.1000002592,2.2751981163872,2.33471007471072,1437,0.0,99,GPS_Atti,
0.0692822261288521,36.9624004988982,10400,2017-11-02 04:58:33,1810.242098927733,8.4000002688,1.8359984799959999,2.37939007614048,1810.242098927733,8.4000002688,2.2751981163872,2.37939007614048,1444,0.0,99,GPS_Atti,
0.0692826318296188,36.962400598212206,10500,2017-11-02 04:58:34,1810.542098937333,8.700000278400001,1.8359984799959999,2.4236000775552,1810.542098937333,8.700000278400001,2.2751981163872,2.4236000775552,1443,0.0,99,GPS_Atti,
0.0692830350356093,36.962400692997,10600,2017-11-02 04:58:34,1810.742098943733,8.9000002848,1.8359984799959999,2.4676400789644797,1810.742098943733,8.9000002848,2.2751981163872,2.4676400789644797,1440,0.0,99,GPS_Atti,
0.0692834069591907,36.9624007729293,10700,2017-11-02 04:58:34,1811.0420989533332,9.2000002944,1.4399988078400001,2.5083800802681604,1811.0420989533332,9.2000002944,2.2751981163872,2.5083800802681604,1436,0.0,99,GPS_Atti,
0.0692837662590741,36.96240083584689,10800,2017-11-02 04:58:34,1811.342098962933,9.500000304,1.4399988078400001,2.5478700815318405,1811.342098962933,9.500000304,2.2751981163872,2.5478700815318405,1434,0.0,99,GPS_Atti,
0.0692840767740324,36.9624009098111,10900,2017-11-02 04:58:34,1811.6420989725332,9.8000003136,1.4399988078400001,2.58192008262144,1811.6420989725332,9.8000003136,2.2751981163872,2.58192008262144,1437,0.0,99,GPS_Atti,
0.0692843540801321,36.962400958096204,11000,2017-11-02 04:58:34,1811.9420989821328,10.100000323200002,1.07999910588,2.6124500835983997,1811.9420989821328,10.100000323200002,2.2751981163872,2.6124500835983997,1439,0.0,99,GPS_Atti,
0.0692845765451234,36.962400968197606,11100,2017-11-02 04:58:34,1812.142098988533,10.300000329600001,0.7199994039200001,2.6371000843872,1812.142098988533,10.300000329600001,2.2751981163872,2.6371000843872,1442,0.0,99,GPS_Atti,
0.0692847872625198,36.9624009626179,11200,2017-11-02 04:58:34,1812.4420989981331,10.6000003392,0.7199994039200001,2.66054008513728,1812.4420989981331,10.6000003392,2.2751981163872,2.66054008513728,1443,0.0,99,GPS_Atti,
0.0692849524860761,36.9624009315404,11300,2017-11-02 04:58:34,1812.742099007733,10.9000003488,0.7199994039200001,2.67906008572992,1812.742099007733,10.9000003488,2.2751981163872,2.67906008572992,1444,0.0,99,GPS_Atti,
0.0692851228229467,36.962400920183605,11400,2017-11-02 04:58:34,1813.042099017333,11.200000358400002,0.7199994039200001,2.6980400863372798,1813.042099017333,11.200000358400002,2.2751981163872,2.6980400863372798,1437,0.0,99,GPS_Atti,
0.0692852732846582,36.962400944529705,11500,2017-11-02 04:58:35,1813.342099026933,11.500000367999998,0.8063993323904,2.71462008686784,1813.342099026933,11.500000367999998,2.2751981163872,2.71462008686784,1440,0.0,99,GPS_Atti,
0.0692854293856713,36.9624009964121,11600,2017-11-02 04:58:35,1813.6420990365332,11.8000003776,0.35999970196000003,2.7317000874143997,1813.6420990365332,11.8000003776,2.2751981163872,2.7317000874143997,1432,0.0,99,GPS_Atti,
0.0692855634147545,36.962401001831005,11700,2017-11-02 04:58:35,1813.942099046133,12.1000003872,0.35999970196000003,2.7465600878899203,1813.942099046133,12.1000003872,2.2751981163872,2.7465600878899203,1424,0.0,99,GPS_Atti,
0.0692856769726681,36.9624009929544,11800,2017-11-02 04:58:35,1814.242099055733,12.4000003968,0.35999970196000003,2.75922008829504,1814.242099055733,12.4000003968,2.2751981163872,2.75922008829504,1420,0.0,99,GPS_Atti,
0.0692858049260267,36.9624009907076,11900,2017-11-02 04:58:35,1814.542099065333,12.700000406400001,0.35999970196000003,2.7734500887504,1814.542099065333,12.700000406400001,2.2751981163872,2.7734500887504,1417,0.0,99,GPS_Atti,
0.0692859554203072,36.9624009830728,12000,2017-11-02 04:58:35,1814.842099074933,13.000000416,0.35999970196000003,2.7902000892864,1814.842099074933,13.000000416,2.2751981163872,2.7902000892864,1424,0.0,99,GPS_Atti,
0.069286127812274,36.962400931847796,12100,2017-11-02 04:58:35,1815.042099081333,13.2000004224,0.35999970196000003,2.8096100899075203,1815.042099081333,13.2000004224,2.2751981163872,2.8096100899075203,1417,0.0,99,GPS_Atti,
0.0692862813957127,36.9624008817368,12200,2017-11-02 04:58:35,1815.342099090933,13.500000432000002,0.35999970196000003,2.8269400904620805,1815.342099090933,13.500000432000002,2.2751981163872,2.8269400904620805,1413,0.0,99,GPS_Atti,
0.0692863816329545,36.96240085246,12300,2017-11-02 04:58:35,1815.5420990973332,13.7000004384,0.35999970196000003,2.83823009082336,1815.5420990973332,13.7000004384,2.2751981163872,2.83823009082336,1381,0.0,99,GPS_Atti,
0.0692864752180025,36.962400829967706,12400,2017-11-02 04:58:35,1815.742099103733,13.9000004448,0.35999970196000003,2.8487500911600003,1815.742099103733,13.9000004448,2.2751981163872,2.8487500911600003,1250,0.0,99,GPS_Atti,
0.0692865623088159,36.96240081029929,12500,2017-11-02 04:58:36,1816.042099113333,14.200000454400003,0.35999970196000003,2.85853009147296,1816.042099113333,14.200000454400003,2.2751981163872,2.85853009147296,1071,0.0,99,GPS_Atti,
0.0692866524269067,36.9624007655012,12600,2017-11-02 04:58:36,1816.2420991197332,14.400000460800001,0.35999970196000003,2.8687900918012805,1816.2420991197332,14.400000460800001,2.2751981163872,2.8687900918012805,1024,0.0,99,GPS_Atti,
0.0692867439177758,36.9624007023182,12700,2017-11-02 04:58:36,1816.442099126133,14.600000467200001,0.0,2.87932009213824,1816.442099126133,14.600000467200001,2.2751981163872,2.87932009213824,1024,0.0,99,GPS_Atti,
0.0692868357880723,36.962400639685896,12800,2017-11-02 04:58:36,1816.442099126133,14.600000467200001,0.0,2.88991009247712,1816.442099126133,14.600000467200001,2.2751981163872,2.88991009247712,1024,0.0,99,GPS_Atti,
0.0692868645154529,36.9624006037496,12900,2017-11-02 04:58:36,1816.5420991293329,14.7000004704,0.0,2.8933300925865604,1816.5420991293329,14.7000004704,2.2751981163872,2.8933300925865604,1024,0.0,99,GPS_Atti,
0.0692868859930008,36.9624005568376,13000,2017-11-02 04:58:36,1816.5420991293329,14.7000004704,0.0,2.8960100926723205,1816.5420991293329,14.7000004704,2.2751981163872,2.8960100926723205,1024,0.0,99,GPS_Atti,
0.0692869015088152,36.962400470086706,13100,2017-11-02 04:58:36,1816.442099126133,14.600000467200001,0.35999970196000003,2.8983300927465603,1816.5420991293329,14.7000004704,2.2751981163872,2.8983300927465603,1024,0.0,99,GPS_Atti,
0.0692868959525643,36.962400379419705,13200,2017-11-02 04:58:36,1816.3420991229332,14.500000464,0.35999970196000003,2.89836009274752,1816.5420991293329,14.7000004704,2.2751981163872,2.89836009274752,1024,0.0,99,GPS_Atti,
0.0692868663767644,36.962400334814795,13300,2017-11-02 04:58:36,1816.2420991197332,14.400000460800001,0.35999970196000003,2.89541009265312,1816.5420991293329,14.7000004704,2.2751981163872,2.89836009274752,1024,0.0,99,GPS_Atti,
0.0692868083813599,36.962400291688795,13400,2017-11-02 04:58:36,1816.142099116533,14.300000457600001,0.35999970196000003,2.8893000924576007,1816.5420991293329,14.7000004704,2.2751981163872,2.89836009274752,1024,0.0,99,GPS_Atti,
0.0692866558743227,36.9624002629095,13500,2017-11-02 04:58:37,1816.042099113333,14.200000454400003,0.5075995797636,2.8726100919235202,1816.5420991293329,14.7000004704,2.2751981163872,2.89836009274752,1024,0.0,99,GPS_Atti,
0.0692865036490063,36.962400230788795,13600,2017-11-02 04:58:37,1815.942099110133,14.100000451200001,0.35999970196000003,2.8559800913913604,1816.5420991293329,14.7000004704,2.2751981163872,2.89836009274752,1024,0.0,99,GPS_Atti,
0.0692863535536946,36.962400263900896,13700,2017-11-02 04:58:37,1815.942099110133,14.100000451200001,0.35999970196000003,2.8390700908502398,1816.5420991293329,14.7000004704,2.2751981163872,2.89836009274752,1024,0.0,99,GPS_Atti,
0.0692862145920546,36.9624002884186,13800,2017-11-02 04:58:37,1815.842099106933,14.000000448,0.35999970196000003,2.82346009035072,1816.5420991293329,14.7000004704,2.2751981163872,2.89836009274752,1024,0.0,99,GPS_Atti,
0.0692860346750481,36.9624003461715,13900,2017-11-02 04:58:37,1815.842099106933,14.000000448,0.35999970196000003,2.8030500896976003,1816.5420991293329,14.7000004704,2.2751981163872,2.89836009274752,1024,0.0,99,GPS_Atti,
0.0692858586011693,36.9624003931225,14000,2017-11-02 04:58:37,1815.842099106933,14.000000448,0.35999970196000003,2.7831600890611203,1816.5420991293329,14.7000004704,2.2751981163872,2.89836009274752,1024,0.0,99,GPS_Atti,
0.0692856295686634,36.9624004603414,14100,2017-11-02 04:58:37,1815.842099106933,14.000000448,0.35999970196000003,2.75724008823168,1816.5420991293329,14.7000004704,2.2751981163872,2.89836009274752,1024,0.0,99,GPS_Atti,
0.0692854230966206,36.9624005193192,14200,2017-11-02 04:58:37,1815.842099106933,14.000000448,0.35999970196000003,2.7339000874848,1816.5420991293329,14.7000004704,2.2751981163872,2.89836009274752,1024,0.0,99,GPS_Atti,
0.06928519277438701,36.96240060131979,14300,2017-11-02 04:58:37,1815.942099110133,14.100000451200001,0.35999970196000003,2.70776008664832,1816.5420991293329,14.7000004704,2.2751981163872,2.89836009274752,1024,0.0,99,GPS_Atti,
0.0692850006147385,36.9624006771055,14400,2017-11-02 04:58:37,1815.942099110133,14.100000451200001,0.35999970196000003,2.68593008594976,1816.5420991293329,14.7000004704,2.2751981163872,2.89836009274752,1024,0.0,99,GPS_Atti,
0.0692848055434321,36.9624007715596,14500,2017-11-02 04:58:38,1816.042099113333,14.200000454400003,0.35999970196000003,2.66367008523744,1816.5420991293329,14.7000004704,2.2751981163872,2.89836009274752,1024,0.0,99,GPS_Atti,
0.0692846428830466,36.962400860627,14600,2017-11-02 04:58:38,1816.042099113333,14.200000454400003,0.35999970196000003,2.6450700846422404,1816.5420991293329,14.7000004704,2.2751981163872,2.89836009274752,1024,-0.1,99,GPS_Atti,
0.0692844486536457,36.9624009409831,14700,2017-11-02 04:58:38,1816.042099113333,14.200000454400003,0.35999970196000003,2.6230500839376,1816.5420991293329,14.7000004704,2.2751981163872,2.89836009274752,1024,-5.4,98,GPS_Atti,
0.0692842800592103,36.9624010155894,14800,2017-11-02 04:58:38,1816.142099116533,14.300000457600001,0.35999970196000003,2.60392008332544,1816.5420991293329,14.7000004704,2.2751981163872,2.89836009274752,1024,-11.1,98,GPS_Atti,
0.0692841340203526,36.96240108124329,14900,2017-11-02 04:58:38,1816.142099116533,14.300000457600001,0.0,2.5873700827958404,1816.5420991293329,14.7000004704,2.2751981163872,2.89836009274752,1024,-16.7,98,GPS_Atti,
0.0692840060946776,36.962401154034,15000,2017-11-02 04:58:38,1816.142099116533,14.300000457600001,0.0,2.5728100823299203,1816.5420991293329,14.7000004704,2.2751981163872,2.89836009274752,1024,-22.3,98,GPS_Atti,
0.0692838446930792,36.962401253992795,15100,2017-11-02 04:58:38,1816.142099116533,14.300000457600001,0.0,2.5544500817424,1816.5420991293329,14.7000004704,2.2751981163872,2.89836009274752,1024,-27.9,98,GPS_Atti,
0.0692837295653456,36.962401343313104,15200,2017-11-02 04:58:38,1816.142099116533,14.300000457600001,0.0,2.5413000813216002,1816.5420991293329,14.7000004704,2.2751981163872,2.89836009274752,1024,-33.6,98,GPS_Atti,
0.069283622591231,36.9624014386992,15300,2017-11-02 04:58:38,1816.142099116533,14.300000457600001,0.0,2.52908008093056,1816.5420991293329,14.7000004704,2.2751981163872,2.89836009274752,1024,-39.3,98,GPS_Atti,
0.0692835369969576,36.9624015217887,15400,2017-11-02 04:58:38,1816.142099116533,14.300000457600001,0.0,2.51931008061792,1816.5420991293329,14.7000004704,2.2751981163872,2.89836009274752,1024,-44.9,98,GPS_Atti,
0.0692834351068451,36.962401580129,15500,2017-11-02 04:58:39,1816.2420991197332,14.400000460800001,0.0,2.5078300802505598,1816.5420991293329,14.7000004704,2.2751981163872,2.89836009274752,1024,-50.5,98,GPS_Atti,
0.0692833722228518,36.962401632815705,15600,2017-11-02 04:58:39,1816.2420991197332,14.400000460800001,0.0,2.50071008002272,1816.5420991293329,14.7000004704,2.2751981163872,2.89836009274752,1024,-50.5,98,GPS_Atti,
0.0692832767260105,36.9624017030829,15700,2017-11-02 04:58:39,1816.2420991197332,14.400000460800001,0.0,2.4899400796780804,1816.5420991293329,14.7000004704,2.2751981163872,2.89836009274752,1024,-56.2,98,GPS_Atti,
0.0692832170011984,36.9624017747946,15800,2017-11-02 04:58:39,1816.3420991229332,14.500000464,0.0,2.48317007946144,1816.5420991293329,14.7000004704,2.2751981163872,2.89836009274752,1024,-61.8,98,GPS_Atti,
0.0692832062111285,36.9624018457358,15900,2017-11-02 04:58:39,1816.3420991229332,14.500000464,0.0,2.4818700794198403,1816.5420991293329,14.7000004704,2.2751981163872,2.89836009274752,1024,-67.5,98,GPS_Atti,
0.0692832136759158,36.9624019153771,16000,2017-11-02 04:58:39,1816.442099126133,14.600000467200001,0.0,2.48262007944384,1816.5420991293329,14.7000004704,2.2751981163872,2.89836009274752,1024,-73.0,98,GPS_Atti,
0.0692831938610092,36.9624020118136,16100,2017-11-02 04:58:39,1816.442099126133,14.600000467200001,0.0,2.4803500793712,1816.5420991293329,14.7000004704,2.2751981163872,2.89836009274752,1024,-78.7,98,GPS_Atti,
0.0692831799036157,36.962402097064704,16200,2017-11-02 04:58:39,1816.442099126133,14.600000467200001,0.0,2.4787800793209604,1816.5420991293329,14.7000004704,2.2751981163872,2.89836009274752,1024,-84.4,98,GPS_Atti,
0.0692831498311404,36.962402210011604,16300,2017-11-02 04:58:39,1816.442099126133,14.600000467200001,0.0,2.47546007921472,1816.5420991293329,14.7000004704,2.2751981163872,2.89836009274752,1024,-89.8,98,GPS_Atti,
0.06928313036146401,36.9624023160161,16400,2017-11-02 04:58:39,1816.442099126133,14.600000467200001,0.0,2.4733800791481597,1816.5420991293329,14.7000004704,2.2751981163872,2.89836009274752,1024,-89.9,98,GPS_Atti,
0.0692830880658881,36.9624024673951,16500,2017-11-02 04:58:40,1816.442099126133,14.600000467200001,0.0,2.4689000790048,1816.5420991293329,14.7000004704,2.2751981163872,2.89836009274752,1024,-89.9,98,GPS_Atti,
0.0692830549612501,36.962402594740404,16600,2017-11-02 04:58:40,1816.442099126133,14.600000467200001,0.0,2.465500078896,1816.5420991293329,14.7000004704,2.2751981163872,2.89836009274752,1024,-89.9,98,GPS_Atti,
0.0692830361103824,36.96240273218721,16700,2017-11-02 04:58:40,1816.442099126133,14.600000467200001,0.0,2.46379007884128,1816.5420991293329,14.7000004704,2.2751981163872,2.89836009274752,1024,-90.0,98,GPS_Atti,
0.0692830281521765,36.96240284379179,16800,2017-11-02 04:58:40,1816.442099126133,14.600000467200001,0.0,2.46329007882528,1816.5420991293329,14.7000004704,2.2751981163872,2.89836009274752,1024,-89.9,98,GPS_Atti,
0.0692830326141131,36.9624029877174,16900,2017-11-02 04:58:40,1816.442099126133,14.600000467200001,0.0,2.46437007885984,1816.5420991293329,14.7000004704,2.2751981163872,2.89836009274752,1024,-89.9,98,GPS_Atti,
0.0692830573224939,36.962403112461,17000,2017-11-02 04:58:40,1816.5420991293329,14.7000004704,0.0,2.46771007896672,1816.5420991293329,14.7000004704,2.2751981163872,2.89836009274752,1024,-90.0,98,GPS_Atti,
0.06928308912926201,36.9624032468457,17100,2017-11-02 04:58:40,1816.5420991293329,14.7000004704,0.0,2.4719700791030403,1816.5420991293329,14.7000004704,2.2751981163872,2.89836009274752,1024,-89.9,98,GPS_Atti,
0.0692831346800975,36.9624033615274,17200,2017-11-02 04:58:40,1816.442099126133,14.600000467200001,0.0,2.47772007928704,1816.5420991293329,14.7000004704,2.2751981163872,2.89836009274752,1024,-89.9,98,GPS_Atti,
0.069283100920825,36.9624035076355,17300,2017-11-02 04:58:40,1816.442099126133,14.600000467200001,0.0,2.4749400791980802,1816.5420991293329,14.7000004704,2.2751981163872,2.89836009274752,1087,-89.9,98,GPS_Atti,
0.0692830756766862,36.9624036402431,17400,2017-11-02 04:58:40,1816.442099126133,14.600000467200001,0.0,2.47312007913984,1816.5420991293329,14.7000004704,2.2751981163872,2.89836009274752,1151,-89.9,98,GPS_Atti,
0.0692830744358118,36.962403802173796,17500,2017-11-02 04:58:41,1816.442099126133,14.600000467200001,0.0,2.47429007917728,1816.5420991293329,14.7000004704,2.2751981163872,2.89836009274752,1216,-89.9,98,GPS_Atti,
0.0692830787023351,36.9624039306503,17600,2017-11-02 04:58:41,1816.442099126133,14.600000467200001,0.0,2.4759000792288,1816.5420991293329,14.7000004704,2.2751981163872,2.89836009274752,1232,-90.0,98,GPS_Atti,
0.0692830709134875,36.9624040914796,17700,2017-11-02 04:58:41,1816.442099126133,14.600000467200001,0.0,2.4765700792502403,1816.5420991293329,14.7000004704,2.2751981163872,2.89836009274752,1249,-89.9,98,GPS_Atti,
0.0692830879714383,36.962404216577,17800,2017-11-02 04:58:41,1816.5420991293329,14.7000004704,0.0,2.47974007935168,1816.5420991293329,14.7000004704,2.2751981163872,2.89836009274752,1261,-90.0,98,GPS_Atti,
0.0692831081706577,36.9624043251381,17900,2017-11-02 04:58:41,1816.5420991293329,14.7000004704,0.0,2.4831500794608,1816.5420991293329,14.7000004704,2.2751981163872,2.89836009274752,1289,-90.0,98,GPS_Atti,
0.0692831333919983,36.9624044082474,18000,2017-11-02 04:58:41,1816.642099132533,14.8000004736,0.0,2.48688007958016,1816.642099132533,14.8000004736,2.2751981163872,2.89836009274752,1312,-89.9,98,GPS_Atti,
0.0692831401125867,36.9624045020509,18100,2017-11-02 04:58:41,1816.842099138933,15.00000048,0.0,2.4887200796390405,1816.842099138933,15.00000048,2.2751981163872,2.89836009274752,1327,-89.9,98,GPS_Atti,
0.0692831502398799,36.962404585996,18200,2017-11-02 04:58:41,1816.942099142133,15.100000483200002,0.0,2.4908500797072004,1816.942099142133,15.100000483200002,2.2751981163872,2.89836009274752,1332,-90.0,98,GPS_Atti,
0.0692831662491128,36.96240467603221,18300,2017-11-02 04:58:41,1817.1420991485331,15.3000004896,0.0,2.4937500798000003,1817.1420991485331,15.3000004896,2.2751981163872,2.89836009274752,1327,-89.9,98,GPS_Atti,
0.0692831701231811,36.962404724319,18400,2017-11-02 04:58:41,1817.242099151733,15.4000004928,0.0,2.4948000798336003,1817.242099151733,15.4000004928,2.2751981163872,2.89836009274752,1327,-89.9,98,GPS_Atti,
0.0692831463544125,36.9624047671017,18500,2017-11-02 04:58:42,1817.442099158133,15.6000004992,0.0,2.49274007976768,1817.442099158133,15.6000004992,2.2751981163872,2.89836009274752,1340,-89.9,98,GPS_Atti,
0.0692831162428546,36.9624047820702,18600,2017-11-02 04:58:42,1817.642099164533,15.8000005056,0.0,2.48961007966752,1817.642099164533,15.8000005056,2.2751981163872,2.89836009274752,1342,-89.9,98,GPS_Atti,
0.0692830783408205,36.9624048424215,18700,2017-11-02 04:58:42,1817.8420991709331,16.000000512,0.0,2.48624007955968,1817.8420991709331,16.000000512,2.2751981163872,2.89836009274752,1336,-89.9,98,GPS_Atti,
0.0692830482341479,36.9624048828993,18800,2017-11-02 04:58:42,1818.042099177333,16.2000005184,0.0,2.4834800794713603,1818.042099177333,16.2000005184,2.2751981163872,2.89836009274752,1336,-89.9,98,GPS_Atti,
0.0692829955653837,36.9624049603231,18900,2017-11-02 04:58:42,1818.1420991805328,16.3000005216,0.0,2.47876007932032,1818.1420991805328,16.3000005216,2.2751981163872,2.89836009274752,1335,-90.0,98,GPS_Atti,
0.069282953468478,36.9624050119378,19000,2017-11-02 04:58:42,1818.242099183733,16.400000524800003,0.0,2.47486007919552,1818.242099183733,16.400000524800003,2.2751981163872,2.89836009274752,1337,-89.9,98,GPS_Atti,
0.0692829380438564,36.9624051237207,19100,2017-11-02 04:58:42,1818.442099190133,16.6000005312,0.0,2.47481007919392,1818.442099190133,16.6000005312,2.2751981163872,2.89836009274752,1331,-89.9,98,GPS_Atti,
0.0692829422810677,36.96240520343421,19200,2017-11-02 04:58:42,1818.642099196533,16.8000005376,0.0,2.4765000792480003,1818.642099196533,16.8000005376,2.2751981163872,2.89836009274752,1335,-89.9,98,GPS_Atti,
0.0692829775059398,36.9624052913656,19300,2017-11-02 04:58:42,1818.842099202933,17.000000544000002,0.0,2.48176007941632,1818.842099202933,17.000000544000002,2.2751981163872,2.89836009274752,1341,-89.9,98,GPS_Atti,
0.0692830221448466,36.962405346198395,19400,2017-11-02 04:58:42,1819.0420992093332,17.2000005504,0.0,2.4875500796016006,1819.0420992093332,17.2000005504,2.2751981163872,2.89836009274752,1356,-90.0,98,GPS_Atti,
0.0692830647042305,36.962405418842295,19500,2017-11-02 04:58:43,1819.142099212533,17.3000005536,0.0,2.49341007978912,1819.142099212533,17.3000005536,2.2751981163872,2.89836009274752,1356,-89.9,98,GPS_Atti,
0.0692831072847841,36.9624054784654,19600,2017-11-02 04:58:43,1819.342099218933,17.50000056,0.0,2.4990900799708804,1819.342099218933,17.50000056,2.2751981163872,2.89836009274752,1359,-89.9,98,GPS_Atti,
0.0692831283145099,36.9624055499105,19700,2017-11-02 04:58:43,1819.542099225333,17.700000566400004,0.0,2.5026000800832,1819.542099225333,17.700000566400004,2.2751981163872,2.89836009274752,1381,-89.9,98,GPS_Atti,
0.0692831681804474,36.962405585355,19800,2017-11-02 04:58:43,1819.7420992317332,17.9000005728,0.0,2.50759008024288,1819.7420992317332,17.9000005728,2.2751981163872,2.89836009274752,1381,-89.9,98,GPS_Atti,
0.0692832418528823,36.9624056169211,19900,2017-11-02 04:58:43,1819.9420992381329,18.100000579200003,0.0,2.5162300805193603,1819.9420992381329,18.100000579200003,2.2751981163872,2.89836009274752,1386,-89.9,98,GPS_Atti,
0.0692833204904429,36.9624056234115,20000,2017-11-02 04:58:43,1820.242099247733,18.4000005888,0.0,2.5249800807993603,1820.242099247733,18.4000005888,2.2751981163872,2.89836009274752,1386,-89.9,98,GPS_Atti,
0.0692834059935234,36.962405631640394,20100,2017-11-02 04:58:43,1820.4420992541332,18.6000005952,0.35999970196000003,2.53451008110432,1820.4420992541332,18.6000005952,2.2751981163872,2.89836009274752,1389,-89.9,98,GPS_Atti,
0.0692834950498687,36.9624056354741,20200,2017-11-02 04:58:43,1820.642099260533,18.800000601600004,0.0,2.54436008141952,1820.642099260533,18.800000601600004,2.2751981163872,2.89836009274752,1392,-89.9,98,GPS_Atti,
0.069283549531091,36.96240563593071,20300,2017-11-02 04:58:43,1820.8420992669332,19.000000608,0.0,2.55036008161152,1820.8420992669332,19.000000608,2.2751981163872,2.89836009274752,1392,-89.9,98,GPS_Atti,
0.0692835941993099,36.962405613396,20400,2017-11-02 04:58:43,1821.142099276533,19.300000617600002,0.0,2.5548800817561603,1821.142099276533,19.300000617600002,2.2751981163872,2.89836009274752,1400,-89.9,98,GPS_Atti,
0.0692836543866,36.9624055951585,20500,2017-11-02 04:58:44,1821.342099282933,19.500000624000002,0.0,2.5611900819580806,1821.342099282933,19.500000624000002,2.2751981163872,2.89836009274752,1400,-90.0,98,GPS_Atti,
0.0692837207766333,36.962405567896205,20600,2017-11-02 04:58:44,1821.6420992925332,19.800000633599996,0.0,2.5680300821769597,1821.6420992925332,19.800000633599996,2.2751981163872,2.89836009274752,1414,-89.9,98,GPS_Atti,
0.069283788811395,36.962405496733105,20700,2017-11-02 04:58:44,1821.842099298933,20.00000064,0.35999970196000003,2.5743400823788796,1821.842099298933,20.00000064,2.2751981163872,2.89836009274752,1417,-89.9,98,GPS_Atti,
0.0692838667796652,36.962405409521104,20800,2017-11-02 04:58:44,1822.042099305333,20.200000646400003,0.35999970196000003,2.5815100826083204,1822.042099305333,20.200000646400003,2.2751981163872,2.89836009274752,1417,-89.9,98,GPS_Atti,
0.0692839873610578,36.962405356958996,20900,2017-11-02 04:58:44,1822.342099314933,20.500000655999997,0.5075995797636,2.59396008300672,1822.342099314933,20.500000655999997,2.2751981163872,2.89836009274752,1417,-90.0,98,GPS_Atti,
0.0692841157964359,36.962405307006605,21000,2017-11-02 04:58:44,1822.6420993245329,20.800000665600002,0.5075995797636,2.6073400834348797,1822.6420993245329,20.800000665600002,2.2751981163872,2.89836009274752,1420,-90.0,98,GPS_Atti,
0.0692842436032345,36.962405314337104,21100,2017-11-02 04:58:44,1822.842099330933,21.000000672,0.35999970196000003,2.62153008388896,1822.842099330933,21.000000672,2.2751981163872,2.89836009274752,1427,-90.0,98,GPS_Atti,
0.0692843435734115,36.9624053219922,21200,2017-11-02 04:58:44,1823.1420993405332,21.300000681600004,0.0,2.6326600842451207,1823.1420993405332,21.300000681600004,2.2751981163872,2.89836009274752,1432,-90.0,98,GPS_Atti,
0.0692844089358966,36.9624053855515,21300,2017-11-02 04:58:44,1823.342099346933,21.500000688,0.0,2.64083008450656,1823.342099346933,21.500000688,2.2751981163872,2.89836009274752,1441,-89.9,98,GPS_Atti,
0.0692844475560745,36.9624054284935,21400,2017-11-02 04:58:44,1823.642099356533,21.8000006976,0.0,2.6457500846640003,1823.642099356533,21.8000006976,2.2751981163872,2.89836009274752,1442,-89.9,98,GPS_Atti,
0.0692844314328504,36.962405473577704,21500,2017-11-02 04:58:45,1823.842099362933,22.000000704000005,0.0,2.64468008462976,1823.842099362933,22.000000704000005,2.2751981163872,2.89836009274752,1442,-89.9,98,GPS_Atti,
0.0692843969798608,36.962405475516796,21600,2017-11-02 04:58:45,1824.042099369333,22.2000007104,0.0,2.6409200845094403,1824.042099369333,22.2000007104,2.2751981163872,2.89836009274752,1442,-89.9,98,GPS_Atti,
0.0692843235028392,36.9624054289814,21700,2017-11-02 04:58:45,1824.3420993789332,22.50000072,0.0,2.6321000842272,1824.3420993789332,22.50000072,2.2751981163872,2.89836009274752,1442,-89.9,98,GPS_Atti,
0.0692842498450603,36.962405378228,21800,2017-11-02 04:58:45,1824.542099385333,22.700000726400003,0.0,2.6232000839424,1824.542099385333,22.700000726400003,2.2751981163872,2.89836009274752,1444,-89.9,98,GPS_Atti,
0.0692841593133448,36.9624053520531,21900,2017-11-02 04:58:45,1824.842099394933,23.000000735999997,0.0,2.61283008361056,1824.842099394933,23.000000735999997,2.2751981163872,2.89836009274752,1444,-90.0,98,GPS_Atti,
0.0692840950875135,36.9624053197207,22000,2017-11-02 04:58:45,1825.0420994013332,23.2000007424,0.0,2.60526008336832,1825.0420994013332,23.2000007424,2.2751981163872,2.89836009274752,1444,-89.9,98,GPS_Atti,
0.0692840396683074,36.9624052697764,22100,2017-11-02 04:58:45,1825.3420994109329,23.500000752000002,0.35999970196000003,2.5983900831484803,1825.3420994109329,23.500000752000002,2.2751981163872,2.89836009274752,1445,-90.0,98,GPS_Atti,
0.0692839976511954,36.962405207212704,22200,2017-11-02 04:58:45,1825.642099420533,23.800000761600003,0.35999970196000003,2.5928300829705604,1825.642099420533,23.800000761600003,2.2751981163872,2.89836009274752,1445,-89.9,98,GPS_Atti,
0.0692839720667118,36.962405174748994,22300,2017-11-02 04:58:45,1825.8420994269331,24.000000768000003,0.35999970196000003,2.58953008286496,1825.8420994269331,24.000000768000003,2.2751981163872,2.89836009274752,1445,-89.9,98,GPS_Atti,
0.0692839739052251,36.962405144606,22400,2017-11-02 04:58:45,1826.1420994365328,24.3000007776,0.0,2.58929008285728,1826.1420994365328,24.3000007776,2.2751981163872,2.89836009274752,1444,-89.9,98,GPS_Atti,
0.0692840559038941,36.9624051357063,22500,2017-11-02 04:58:46,1826.442099446133,24.600000787200003,0.0,2.5982000831424004,1826.442099446133,24.600000787200003,2.2751981163872,2.89836009274752,1445,-90.0,98,GPS_Atti,
0.0692841485835273,36.9624051382714,22600,2017-11-02 04:58:46,1826.642099452533,24.8000007936,0.0,2.60846008347072,1826.642099452533,24.8000007936,2.2751981163872,2.89836009274752,1444,-89.9,98,GPS_Atti,
0.0692842466028284,36.962405147607605,22700,2017-11-02 04:58:46,1826.942099462133,25.100000803199997,0.0,2.6194000838208003,1826.942099462133,25.100000803199997,2.2751981163872,2.89836009274752,1444,-89.9,98,GPS_Atti,
0.0692843470159421,36.9624051584193,22800,2017-11-02 04:58:46,1827.242099471733,25.400000812800002,0.0,2.6306300841801598,1827.242099471733,25.400000812800002,2.2751981163872,2.89836009274752,1445,-89.9,98,GPS_Atti,
0.0692844453853586,36.962405228140796,22900,2017-11-02 04:58:46,1827.542099481333,25.7000008224,0.35999970196000003,2.64249008455968,1827.542099481333,25.7000008224,2.2751981163872,2.89836009274752,1444,-89.9,98,GPS_Atti,
0.0692845479089358,36.962405304986504,23000,2017-11-02 04:58:46,1827.8420994909332,26.000000832,0.35999970196000003,2.65492008495744,1827.8420994909332,26.000000832,2.2751981163872,2.89836009274752,1445,-89.9,98,GPS_Atti,
0.0692846744243783,36.9624054346472,23100,2017-11-02 04:58:46,1828.142099500533,26.300000841600003,0.35999970196000003,2.67083008546656,1828.142099500533,26.300000841600003,2.2751981163872,2.89836009274752,1444,-89.9,98,GPS_Atti,
0.0692848249984525,36.9624055859227,23200,2017-11-02 04:58:46,1828.442099510133,26.6000008512,0.5075995797636,2.6897900860732804,1828.442099510133,26.6000008512,2.2751981163872,2.89836009274752,1444,-89.9,98,GPS_Atti,
0.0692850320127672,36.962405783483604,23300,2017-11-02 04:58:46,1828.742099519733,26.9000008608,0.5075995797636,2.7157900869052805,1828.742099519733,26.9000008608,2.2751981163872,2.89836009274752,1444,-90.0,98,GPS_Atti,
0.06928522215640201,36.962405934833,23400,2017-11-02 04:58:46,1829.042099529333,27.200000870400004,0.35999970196000003,2.73927008765664,1829.042099529333,27.200000870400004,2.2751981163872,2.89836009274752,1445,-89.9,98,GPS_Atti,
0.0692854138258889,36.9624060907557,23500,2017-11-02 04:58:47,1829.242099535733,27.4000008768,0.35999970196000003,2.76306008841792,1829.242099535733,27.4000008768,2.2751981163872,2.89836009274752,1444,-89.9,98,GPS_Atti,
0.0692855686648579,36.962406208609295,23600,2017-11-02 04:58:47,1829.542099545333,27.700000886400005,0.0,2.78217008902944,1829.542099545333,27.700000886400005,2.2751981163872,2.89836009274752,1445,-90.0,98,GPS_Atti,
0.0692856912492367,36.9624063579005,23700,2017-11-02 04:58:47,1829.842099554933,28.000000896,0.0,2.79838008954816,1829.842099554933,28.000000896,2.2751981163872,2.89836009274752,1444,-90.0,98,GPS_Atti,
0.0692857925042559,36.962406489643,23800,2017-11-02 04:58:47,1830.142099564533,28.300000905599997,0.0,2.8119900899836803,1830.142099564533,28.300000905599997,2.2751981163872,2.89836009274752,1444,-90.0,98,GPS_Atti,
0.0692858636200337,36.9624066276878,23900,2017-11-02 04:58:47,1830.342099570933,28.500000912,0.0,2.82247009031904,1830.342099570933,28.500000912,2.2751981163872,2.89836009274752,1445,-90.0,98,GPS_Atti,
0.069285933718034,36.9624067469833,24000,2017-11-02 04:58:47,1830.6420995805329,28.800000921600002,0.0,2.8325300906409603,1830.6420995805329,28.800000921600002,2.2751981163872,2.89836009274752,1444,-89.9,98,GPS_Atti,
0.0692859914903417,36.9624068661315,24100,2017-11-02 04:58:47,1830.942099590133,29.1000009312,0.0,2.84129009092128,1830.942099590133,29.1000009312,2.2751981163872,2.89836009274752,1444,-90.0,98,GPS_Atti,
0.0692860223053875,36.9624069622517,24200,2017-11-02 04:58:47,1831.142099596533,29.300000937600004,0.0,2.84667009109344,1831.142099596533,29.300000937600004,2.2751981163872,2.89836009274752,1444,-90.0,98,GPS_Atti,
0.0692860645814221,36.9624071174166,24300,2017-11-02 04:58:47,1831.342099602933,29.500000944,0.0,2.8546100913475203,1831.342099602933,29.500000944,2.2751981163872,2.89836009274752,1444,-89.9,98,GPS_Atti,
0.0692861012816644,36.9624072191889,24400,2017-11-02 04:58:48,1831.642099612533,29.8000009536,0.0,2.86084009154688,1831.642099612533,29.8000009536,2.2751981163872,2.89836009274752,1445,-89.9,98,GPS_Atti,
0.0692861387782159,36.9624072668123,24500,2017-11-02 04:58:48,1831.9420996221331,30.1000009632,0.0,2.8659800917113603,1831.9420996221331,30.1000009632,2.2751981163872,2.89836009274752,1445,-89.9,98,GPS_Atti,
0.0692861724023275,36.9624073004769,24600,2017-11-02 04:58:48,1832.142099628533,30.300000969600003,0.0,2.8704000918528,1832.142099628533,30.300000969600003,2.2751981163872,2.89836009274752,1445,-89.9,98,GPS_Atti,
0.0692862057968286,36.962407397198795,24700,2017-11-02 04:58:48,1832.4420996381332,30.6000009792,0.0,2.8762200920390404,1832.4420996381332,30.6000009792,2.2751981163872,2.89836009274752,1445,-90.0,98,GPS_Atti,
0.0692862243448057,36.9624074733459,24800,2017-11-02 04:58:48,1832.642099644533,30.8000009856,0.0,2.8799800921593603,1832.642099644533,30.8000009856,2.2751981163872,2.89836009274752,1445,-89.9,98,GPS_Atti,
0.0692861938733616,36.9624075567777,24900,2017-11-02 04:58:48,1832.942099654133,31.100000995200002,0.0,2.8786100921155207,1832.942099654133,31.100000995200002,2.2751981163872,2.89836009274752,1446,-89.9,98,GPS_Atti,
0.0692861677840604,36.962407611492,25000,2017-11-02 04:58:48,1833.1420996605332,31.300001001600002,0.0,2.87706009206592,1833.1420996605332,31.300001001600002,2.2751981163872,2.89836009274752,1449,-89.9,98,GPS_Atti,
0.0692861711516825,36.9624076602613,25100,2017-11-02 04:58:48,1833.4420996701328,31.6000010112,0.0,2.8785900921148797,1833.4420996701328,31.6000010112,2.2751981163872,2.89836009274752,1449,-89.9,98,GPS_Atti,
0.0692861765434606,36.9624076853229,25200,2017-11-02 04:58:48,1833.642099676533,31.800001017600003,0.0,2.87977009215264,1833.642099676533,31.800001017600003,2.2751981163872,2.89836009274752,1449,-90.0,98,GPS_Atti,
0.0692861457919242,36.9624077665766,25300,2017-11-02 04:58:48,1833.9420996861331,32.1000010272,0.0,2.8784000921088,1833.9420996861331,32.1000010272,2.2751981163872,2.89836009274752,1449,-89.9,98,GPS_Atti,
0.0692861158090133,36.962407835390295,25400,2017-11-02 04:58:48,1834.2420996957333,32.4000010368,0.0,2.87683009205856,1834.2420996957333,32.4000010368,2.2751981163872,2.89836009274752,1453,-89.9,98,GPS_Atti,
0.0692860888240678,36.9624079107992,25500,2017-11-02 04:58:49,1834.442099702133,32.6000010432,0.0,2.87578009202496,1834.442099702133,32.6000010432,2.2751981163872,2.89836009274752,1457,-90.0,98,GPS_Atti,
0.0692860689586795,36.9624079482371,25600,2017-11-02 04:58:49,1834.742099711733,32.9000010528,0.0,2.8745700919862403,1834.742099711733,32.9000010528,2.2751981163872,2.89836009274752,1456,-90.0,98,GPS_Atti,
0.0692860207730217,36.9624079946266,25700,2017-11-02 04:58:49,1835.0420997213332,33.2000010624,0.0,2.8705200918566396,1835.0420997213332,33.2000010624,2.2751981163872,2.89836009274752,1455,-89.9,98,GPS_Atti,
0.0692859723430972,36.9624080314115,25800,2017-11-02 04:58:49,1835.342099730933,33.500001071999996,0.0,2.8662100917187203,1835.342099730933,33.500001071999996,2.2751981163872,2.89836009274752,1456,-90.0,98,GPS_Atti,
0.0692858991624524,36.9624080895119,25900,2017-11-02 04:58:49,1835.642099740533,33.800001081599994,0.0,2.8597900915132803,1835.642099740533,33.800001081599994,2.2751981163872,2.89836009274752,1457,-90.0,98,GPS_Atti,
0.0692858390630983,36.9624081396794,26000,2017-11-02 04:58:49,1835.9420997501331,34.1000010912,0.0,2.8546000913472,1835.9420997501331,34.1000010912,2.2751981163872,2.89836009274752,1457,-89.9,98,GPS_Atti,
0.0692857615035676,36.9624081905402,26100,2017-11-02 04:58:49,1836.242099759733,34.4000011008,0.0,2.84756009112192,1836.242099759733,34.4000011008,2.2751981163872,2.89836009274752,1459,-89.9,98,GPS_Atti,
0.0692856887495751,36.9624082116369,26200,2017-11-02 04:58:49,1836.5420997693332,34.7000011104,0.0,2.84026009088832,1836.5420997693332,34.7000011104,2.2751981163872,2.89836009274752,1459,-89.9,98,GPS_Atti,
0.0692855921470203,36.9624082393973,26300,2017-11-02 04:58:49,1836.8420997789328,35.00000112,0.0,2.8305700905782403,1836.8420997789328,35.00000112,2.2751981163872,2.89836009274752,1458,-89.9,98,GPS_Atti,
0.0692855496560311,36.9624082787141,26400,2017-11-02 04:58:49,1837.142099788533,35.300001129600005,0.0,2.8270500904656006,1837.142099788533,35.300001129600005,2.2751981163872,2.89836009274752,1459,-89.9,98,GPS_Atti,
0.0692855034391621,36.9624083705365,26500,2017-11-02 04:58:50,1837.442099798133,35.6000011392,0.0,2.82457009038624,1837.442099798133,35.6000011392,2.2751981163872,2.89836009274752,1454,-89.9,98,GPS_Atti,
0.0692854899279622,36.962408448717106,26600,2017-11-02 04:58:50,1837.642099804533,35.8000011456,0.0,2.8252700904086403,1837.642099804533,35.8000011456,2.2751981163872,2.89836009274752,1454,-89.9,98,GPS_Atti,
0.0692854941488891,36.962408576746796,26700,2017-11-02 04:58:50,1837.942099814133,36.1000011552,0.0,2.82931009053792,1837.942099814133,36.1000011552,2.2751981163872,2.89836009274752,1454,-89.9,98,GPS_Atti,
0.0692855164211176,36.962408686345,26800,2017-11-02 04:58:50,1838.242099823733,36.4000011648,0.0,2.8348300907145605,1838.242099823733,36.4000011648,2.2751981163872,2.89836009274752,1463,-90.0,98,GPS_Atti,
0.0692854928607898,36.962408792329505,26900,2017-11-02 04:58:50,1838.5420998333332,36.7000011744,0.0,2.83537009073184,1838.5420998333332,36.7000011744,2.2751981163872,2.89836009274752,1463,-89.9,98,GPS_Atti,
0.0692854743795789,36.962408867571895,27000,2017-11-02 04:58:50,1838.842099842933,37.000001184000006,0.0,2.8356000907392,1838.842099842933,37.000001184000006,2.2751981163872,2.89836009274752,1468,-89.9,98,GPS_Atti,
0.0692854292570242,36.9624089044585,27100,2017-11-02 04:58:50,1839.142099852533,37.3000011936,0.0,2.8318500906192003,1839.142099852533,37.3000011936,2.2751981163872,2.89836009274752,1466,-90.0,98,GPS_Atti,
0.0692854054426592,36.9624089221925,27200,2017-11-02 04:58:50,1839.3420998589331,37.5000012,0.0,2.8298300905545606,1839.3420998589331,37.5000012,2.2751981163872,2.89836009274752,1466,-89.9,98,GPS_Atti,
0.0692853712046242,36.962408980885,27300,2017-11-02 04:58:50,1839.642099868533,37.800001209600005,0.0,2.82792009049344,1839.642099868533,37.800001209600005,2.2751981163872,2.89836009274752,1465,-89.9,98,GPS_Atti,
0.0692853781417956,36.9624090281727,27400,2017-11-02 04:58:50,1839.942099878133,38.1000012192,0.0,2.83009009056288,1839.942099878133,38.1000012192,2.2751981163872,2.89836009274752,1465,-89.9,98,GPS_Atti,
0.0692853916285688,36.96240904225711,27500,2017-11-02 04:58:51,1840.242099887733,38.4000012288,0.0,2.83196009062272,1840.242099887733,38.4000012288,2.2751981163872,2.89836009274752,1465,-89.9,98,GPS_Atti,
0.06928542336205701,36.9624090535415,27600,2017-11-02 04:58:51,1840.542099897333,38.700001238400006,0.0,2.8357000907424,1840.542099897333,38.700001238400006,2.2751981163872,2.89836009274752,1465,-90.0,98,GPS_Atti,
0.0692854281236272,36.9624091107871,27700,2017-11-02 04:58:51,1840.842099906933,39.000001248000004,0.0,2.8379500908143998,1840.842099906933,39.000001248000004,2.2751981163872,2.89836009274752,1465,-89.9,98,GPS_Atti,
0.0692854351194226,36.962409172029204,27800,2017-11-02 04:58:51,1841.1420999165332,39.3000012576,0.0,2.8405700908982405,1841.1420999165332,39.3000012576,2.2751981163872,2.89836009274752,1466,-90.0,98,GPS_Atti,
0.0692853911058383,36.9624092728867,27900,2017-11-02 04:58:51,1841.4420999261329,39.60000126719999,0.0,2.839000090848,1841.4420999261329,39.60000126719999,2.2751981163872,2.89836009274752,1468,-89.9,98,GPS_Atti,
0.0692853547540829,36.9624093338798,28000,2017-11-02 04:58:51,1841.742099935733,39.900001276800005,0.0,2.8370400907852797,1841.742099935733,39.900001276800005,2.2751981163872,2.89836009274752,1469,-89.9,98,GPS_Atti,
0.0692853366050746,36.9624093953205,28100,2017-11-02 04:58:51,1842.0420999453331,40.2000012864,0.0,2.8370500907856,1842.0420999453331,40.2000012864,2.2751981163872,2.89836009274752,1474,-90.0,98,GPS_Atti,
0.069285320366231,36.962409451957996,28200,2017-11-02 04:58:51,1842.2420999517328,40.400001292800006,0.0,2.8371300907881603,1842.2420999517328,40.400001292800006,2.2751981163872,2.89836009274752,1475,-90.0,98,GPS_Atti,
0.0692852615028659,36.962409495045904,28300,2017-11-02 04:58:51,1842.542099961333,40.7000013024,0.0,2.8322500906320003,1842.542099961333,40.7000013024,2.2751981163872,2.89836009274752,1475,-90.0,98,GPS_Atti,
0.069285215528635,36.9624095529226,28400,2017-11-02 04:58:51,1842.842099970933,41.000001311999995,0.0,2.82923009053536,1842.842099970933,41.000001311999995,2.2751981163872,2.89836009274752,1476,-90.0,98,GPS_Atti,
0.0692851379495629,36.9624096683902,28500,2017-11-02 04:58:52,1843.1420999805332,41.30000132160001,0.0,2.82478009039296,1843.1420999805332,41.30000132160001,2.2751981163872,2.89836009274752,1474,-90.0,98,GPS_Atti,
0.0692850679802097,36.962409753184794,28600,2017-11-02 04:58:52,1843.442099990133,41.600001331200005,0.0,2.82019009024608,1843.442099990133,41.600001331200005,2.2751981163872,2.89836009274752,1474,-90.0,98,GPS_Atti,
0.069284975038397,36.9624098390281,28700,2017-11-02 04:58:52,1843.742099999733,41.9000013408,0.0,2.81324009002368,1843.742099999733,41.9000013408,2.2751981163872,2.89836009274752,1472,-90.0,98,GPS_Atti,
0.06928487919795401,36.9624098960981,28800,2017-11-02 04:58:52,1844.042100009333,42.2000013504,0.35999970196000003,2.8050500897616004,1844.042100009333,42.2000013504,2.2751981163872,2.89836009274752,1475,-89.9,98,GPS_Atti,
0.0692847677195634,36.962409967965606,28900,2017-11-02 04:58:52,1844.242100015733,42.4000013568,0.35999970196000003,2.7957500894640006,1844.242100015733,42.4000013568,2.2751981163872,2.89836009274752,1476,-90.0,98,GPS_Atti,
