latitude,longitude,time_millisecond,datetime_utc,altitude_m,ascent_m,speed_kph,distance_m,max_altitude_m,max_ascent_m,max_speed_kph,max_distance_m,rc_throttle,gimbal_pitch_degrees,battery_percent,flycState,message
0.347652618187613,36.8999803424081,0,2018-04-04 13:21:32,1741.438654326028,0.0,0.0,0.0,1741.438654326028,0.0,0.0,0.0,364,0.0,99,Motors_Started,
0.34765263357366,36.899980342504,100,2018-04-04 13:21:32,1741.438654326028,0.0,0.0,0.00171106005475392,1741.438654326028,0.0,0.0,0.00171106005475392,364,0.0,99,Motors_Started,
0.347652643084079,36.8999803419538,200,2018-04-04 13:21:32,1741.438654326028,0.0,0.0,0.0027691000886112004,1741.438654326028,0.0,0.0,0.0027691000886112004,364,0.0,99,Motors_Started,
0.347652648361255,36.8999803276491,300,2018-04-04 13:21:32,1741.438654326028,0.0,0.0,0.00373538011953216,1741.438654326028,0.0,0.0,0.00373538011953216,364,0.0,99,Motors_Started,
0.347652651691118,36.8999802998221,400,2018-04-04 13:21:32,1741.438654326028,0.0,0.0,0.006025680192821761,1741.438654326028,0.0,0.0,0.006025680192821761,364,0.0,99,Motors_Started,
0.347652669900378,36.8999802757349,500,2018-04-04 13:21:33,1741.438654326028,0.0,0.0,0.00938316030026112,1741.438654326028,0.0,0.0,0.00938316030026112,364,0.0,99,Motors_Started,
0.347652699281986,36.8999802604979,600,2018-04-04 13:21:33,1741.438654326028,0.0,0.0,0.0128178004101696,1741.438654326028,0.0,0.0,0.0128178004101696,364,0.0,99,Motors_Started,Setting new Return-To-Home altitude to 30m (98 ft). Setting new Maximum Flight Altitude to 150m (492 ft)
0.347652726033454,36.8999802320447,700,2018-04-04 13:21:33,1741.438654326028,0.0,0.0,0.0171598005491136,1741.438654326028,0.0,0.0,0.0171598005491136,364,0.0,99,Motors_Started,
0.34765274175893,36.8999801941959,800,2018-04-04 13:21:33,1741.438654326028,0.0,0.0,0.021459000686688,1741.438654326028,0.0,0.0,0.021459000686688,364,0.0,99,Motors_Started,
0.347652759134835,36.8999800903023,1000,2018-04-04 13:21:33,1741.438654326028,0.0,0.0,0.032119301027817605,1741.438654326028,0.0,0.0,0.032119301027817605,364,0.0,99,Motors_Started,
0.347652779954186,36.8999800446506,1100,2018-04-04 13:21:33,1741.438654326028,0.0,0.0,0.0376831012058592,1741.438654326028,0.0,0.0,0.0376831012058592,493,0.0,99,Motors_Started,
0.34765280982392,36.8999800249365,1200,2018-04-04 13:21:33,1741.438654326028,0.0,0.0,0.0412377013196064,1741.438654326028,0.0,0.0,0.0412377013196064,683,0.0,99,Motors_Started,
0.347652838183781,36.8999800024124,1300,2018-04-04 13:21:33,1741.438654326028,0.0,0.0,0.0450338014410816,1741.438654326028,0.0,0.0,0.0450338014410816,914,0.0,99,Motors_Started,
0.347652854839201,36.8999799953784,1400,2018-04-04 13:21:33,1741.438654326028,0.0,0.0,0.0467104014947328,1741.438654326028,0.0,0.0,0.0467104014947328,1024,0.0,99,Motors_Started,
0.347652865610747,36.89997997232,1500,2018-04-04 13:21:34,1741.438654326028,0.0,0.0,0.0495059015841888,1741.438654326028,0.0,0.0,0.0495059015841888,1024,0.0,99,Assisted_Takeoff,
0.347652873508599,36.8999799448599,1600,2018-04-04 13:21:34,1741.438654326028,0.0,0.0,0.052541501681328005,1741.438654326028,0.0,0.0,0.052541501681328005,1024,0.0,99,Assisted_Takeoff,
0.347652871834965,36.8999799097556,1700,2018-04-04 13:21:34,1741.438654326028,0.0,0.0,0.055771601784691205,1741.438654326028,0.0,0.0,0.055771601784691205,1024,0.0,99,Assisted_Takeoff,
0.347652871274068,36.8999798624032,1800,2018-04-04 13:21:34,1741.438654326028,0.0,0.0,0.060343901931004806,1741.438654326028,0.0,0.0,0.060343901931004806,1024,0.0,99,Assisted_Takeoff,
0.34765286510654,36.8999798297328,1900,2018-04-04 13:21:34,1741.438654326028,0.0,0.0,0.0632796020249472,1741.438654326028,0.0,0.0,0.0632796020249472,1024,0.0,99,Assisted_Takeoff,
0.34765286090373,36.8999798052248,2000,2018-04-04 13:21:34,1741.438654326028,0.0,0.0,0.0655519020976608,1741.438654326028,0.0,0.0,0.0655519020976608,1024,0.0,99,Assisted_Takeoff,
0.347652870509921,36.8999797750475,2100,2018-04-04 13:21:34,1741.438654326028,0.0,0.0,0.0690511022096352,1741.438654326028,0.0,0.0,0.0690511022096352,1024,0.0,99,Assisted_Takeoff,
0.347652894784423,36.8999797369318,2200,2018-04-04 13:21:34,1741.438654326028,0.0,0.0,0.0740247023687904,1741.438654326028,0.0,0.0,0.0740247023687904,1024,0.0,99,Assisted_Takeoff,
0.34765291724148,36.8999797082861,2300,2018-04-04 13:21:34,1741.438654326028,0.0,0.0,0.0779656024948992,1741.438654326028,0.0,0.0,0.0779656024948992,1024,0.0,99,Assisted_Takeoff,
0.34765293079105,36.8999796910126,2400,2018-04-04 13:21:34,1741.438654326028,0.0,0.0,0.08034760257112321,1741.438654326028,0.0,0.0,0.08034760257112321,1050,0.0,99,Assisted_Takeoff,
0.347652940689343,36.8999796646764,2500,2018-04-04 13:21:35,1741.438654326028,0.0,0.0,0.0834647026708704,1741.438654326028,0.0,0.0,0.0834647026708704,1109,0.0,99,Assisted_Takeoff,
0.347652947117219,36.8999796301852,2600,2018-04-04 13:21:35,1741.438654326028,0.0,0.0,0.087241002791712,1741.438654326028,0.0,0.0,0.087241002791712,1271,0.0,99,Assisted_Takeoff,
0.34765294933516,36.899979604238,2700,2018-04-04 13:21:35,1741.438654326028,0.0,0.0,0.08996940287902082,1741.438654326028,0.0,0.0,0.08996940287902082,1271,0.0,99,Assisted_Takeoff,
0.347652951024569,36.8999795874346,2800,2018-04-04 13:21:35,1741.438654326028,0.0,0.0,0.0917531029360992,1741.438654326028,0.0,0.0,0.0917531029360992,1339,0.0,99,Assisted_Takeoff,
0.347652947933069,36.8999795612494,2900,2018-04-04 13:21:35,1741.438654326028,0.0,0.0,0.0942906030172992,1741.438654326028,0.0,0.0,0.0942906030172992,1461,0.0,99,Assisted_Takeoff,
0.347652944540308,36.8999794777662,3100,2018-04-04 13:21:35,1741.438654326028,0.0,0.0,0.10277300328873601,1741.438654326028,0.0,0.0,0.10277300328873601,1482,0.0,99,Assisted_Takeoff,
0.347652909586979,36.8999794007438,3200,2018-04-04 13:21:35,1741.438654326028,0.0,0.35999970196000003,0.109616003507712,1741.438654326028,0.0,0.35999970196000003,0.109616003507712,1494,0.0,99,Assisted_Takeoff,
0.347652882533334,36.899979215653,3300,2018-04-04 13:21:35,1741.438654326028,0.0,0.7199994039200001,0.12870200411846403,1741.438654326028,0.0,0.7199994039200001,0.12870200411846403,1492,0.0,99,P-GPS,
0.347652909817709,36.8999788963807,3400,2018-04-04 13:21:35,1741.438654326028,0.0,1.07999910588,0.164042005249344,1741.438654326028,0.0,1.07999910588,0.164042005249344,1499,0.0,99,P-GPS,
0.347652972096125,36.8999785184841,3500,2018-04-04 13:21:36,1741.538654329228,0.1000000032,1.07999910588,0.20661100661155202,1741.538654329228,0.1000000032,1.07999910588,0.20661100661155202,1511,0.0,99,P-GPS,
0.347653044405552,36.8999781638888,3600,2018-04-04 13:21:36,1741.538654329228,0.1000000032,0.7199994039200001,0.246853007899296,1741.538654329228,0.1000000032,1.07999910588,0.246853007899296,1518,0.0,99,P-GPS,
0.347653152479172,36.8999778553889,3700,2018-04-04 13:21:36,1741.738654335628,0.3000000096,0.7919993443119999,0.28287700905206403,1741.738654335628,0.3000000096,1.07999910588,0.28287700905206403,1520,0.0,99,P-GPS,Home Point Recorded. RTH Altitude:  30m.
0.34765329293837,36.8999775912719,3800,2018-04-04 13:21:36,1741.8386543388278,0.4000000128,0.7919993443119999,0.31500501008016,1741.8386543388278,0.4000000128,1.07999910588,0.31500501008016,1508,0.0,99,P-GPS,Obstacle Avoided. Revise Flight Route
0.347653483527588,36.8999773716399,3900,2018-04-04 13:21:36,1742.138654348428,0.7000000224,0.503999582744,0.34409201101094405,1742.138654348428,0.7000000224,1.07999910588,0.34409201101094405,1486,0.0,99,P-GPS,
0.347653671367381,36.8999771851025,4000,2018-04-04 13:21:36,1742.338654354828,0.9000000288000001,0.35999970196000003,0.37012401184396804,1742.338654354828,0.9000000288000001,1.07999910588,0.37012401184396804,1455,0.0,99,P-GPS,
0.347653774117719,36.8999770539436,4100,2018-04-04 13:21:36,1742.638654364428,1.2000000384,0.35999970196000003,0.38762601240403205,1742.638654364428,1.2000000384,1.07999910588,0.38762601240403205,1445,0.0,99,P-GPS,
0.347653798818976,36.8999769578439,4200,2018-04-04 13:21:36,1742.938654374028,1.5000000480000002,0.35999970196000003,0.39862001275583997,1742.938654374028,1.5000000480000002,1.07999910588,0.39862001275583997,1444,0.0,99,P-GPS,
0.34765380137034,36.8999769019204,4300,2018-04-04 13:21:36,1743.238654383628,1.8000000576000001,0.0,0.404589012946848,1743.238654383628,1.8000000576000001,1.07999910588,0.404589012946848,1446,0.0,99,P-GPS,
0.347653780871487,36.8999767664513,4500,2018-04-04 13:21:37,1743.8386544028278,2.4000000768,0.35999970196000003,0.41815301338089605,1743.8386544028278,2.4000000768,1.07999910588,0.41815301338089605,1446,0.0,99,P-GPS,
0.347653768310077,36.8999767160355,4600,2018-04-04 13:21:37,1744.138654412428,2.7000000864,0.0,0.423064013538048,1744.138654412428,2.7000000864,1.07999910588,0.423064013538048,1448,0.0,99,P-GPS,
0.347653762240867,36.8999767005867,4700,2018-04-04 13:21:37,1744.438654422028,3.0000000960000004,0.0,0.424499013583968,1744.438654422028,3.0000000960000004,1.07999910588,0.424499013583968,1446,0.0,99,P-GPS,
0.347653770286398,36.8999767023243,4800,2018-04-04 13:21:37,1744.738654431628,3.3000001056,0.0,0.424584013586688,1744.738654431628,3.3000001056,1.07999910588,0.424584013586688,1441,0.0,99,P-GPS,
0.347653776209252,36.8999767094053,4900,2018-04-04 13:21:37,1744.938654438028,3.500000112,0.0,0.42403301356905604,1744.938654438028,3.500000112,1.07999910588,0.424584013586688,1442,0.0,99,P-GPS,
0.347653792553334,36.8999767209533,5000,2018-04-04 13:21:37,1745.238654447628,3.8000001216000006,0.0,0.42336701354774403,1745.238654447628,3.8000001216000006,1.07999910588,0.424584013586688,1439,0.0,99,P-GPS,
0.347653798789867,36.8999767477778,5100,2018-04-04 13:21:37,1745.538654457228,4.100000131200001,0.0,0.42074601346387197,1745.538654457228,4.100000131200001,1.07999910588,0.424584013586688,1440,0.0,99,P-GPS,
0.347653792760553,36.8999767966369,5200,2018-04-04 13:21:37,1745.7386544636279,4.3000001376,0.0,0.415376013292032,1745.7386544636279,4.3000001376,1.07999910588,0.424584013586688,1441,0.0,99,P-GPS,
0.347653753805323,36.8999768750911,5300,2018-04-04 13:21:37,1746.038654473228,4.6000001472,0.0,0.40573401298348805,1746.038654473228,4.6000001472,1.07999910588,0.424584013586688,1440,0.0,99,P-GPS,
0.347653698975614,36.8999769659261,5400,2018-04-04 13:21:37,1746.2386544796277,4.8000001536,0.0,0.39424601261587205,1746.2386544796277,4.8000001536,1.07999910588,0.424584013586688,1434,0.0,99,P-GPS,
0.347653635032521,36.8999770528652,5500,2018-04-04 13:21:38,1746.5386544892278,5.1000001632,0.0,0.382889012252448,1746.5386544892278,5.1000001632,1.07999910588,0.424584013586688,1442,0.0,99,P-GPS,
0.347653586801674,36.8999771364377,5600,2018-04-04 13:21:38,1746.838654498828,5.4000001728,0.0,0.37243401191788805,1746.838654498828,5.4000001728,1.07999910588,0.424584013586688,1445,0.0,99,P-GPS,
0.347653567390825,36.8999772164588,5700,2018-04-04 13:21:38,1747.0386545052281,5.6000001792,0.0,0.363292011625344,1747.0386545052281,5.6000001792,1.07999910588,0.424584013586688,1442,0.0,99,P-GPS,
0.347653607246992,36.899977275741,5800,2018-04-04 13:21:38,1747.3386545148278,5.9000001888,0.0,0.35832401146636805,1747.3386545148278,5.9000001888,1.07999910588,0.424584013586688,1444,0.0,99,P-GPS,
0.347653684981173,36.8999773218074,5900,2018-04-04 13:21:38,1747.638654524428,6.200000198400001,0.0,0.356237011399584,1747.638654524428,6.200000198400001,1.07999910588,0.424584013586688,1446,0.0,99,P-GPS,
0.347653775307298,36.8999773761509,6000,2018-04-04 13:21:38,1747.838654530828,6.4000002048,0.0,0.35407001133024,1747.838654530828,6.4000002048,1.07999910588,0.424584013586688,1446,0.0,99,P-GPS,
0.347653855366286,36.8999774288093,6100,2018-04-04 13:21:38,1748.1386545404278,6.7000002144,0.0,0.35200501126416,1748.1386545404278,6.7000002144,1.07999910588,0.424584013586688,1448,0.0,99,P-GPS,
0.347653930266975,36.899977467856,6200,2018-04-04 13:21:38,1748.338654546828,6.900000220800001,0.0,0.35138801124441604,1748.338654546828,6.900000220800001,1.07999910588,0.424584013586688,1454,0.0,99,P-GPS,
0.347654018523958,36.8999774852424,6300,2018-04-04 13:21:38,1748.638654556428,7.200000230400001,0.0,0.353839011322848,1748.638654556428,7.200000230400001,1.07999910588,0.424584013586688,1449,0.0,99,P-GPS,
0.34765409988102,36.899977500337,6400,2018-04-04 13:21:38,1748.9386545660282,7.50000024,0.0,0.35642401140556806,1748.9386545660282,7.50000024,1.07999910588,0.424584013586688,1452,0.0,99,P-GPS,
0.347654122965842,36.8999775410491,6500,2018-04-04 13:21:38,1749.1386545724279,7.7000002464,0.0,0.35362301131593604,1749.1386545724279,7.7000002464,1.07999910588,0.424584013586688,1457,0.0,99,P-GPS,
0.347654092060825,36.8999775954421,6600,2018-04-04 13:21:39,1749.438654582028,8.000000256,0.0,0.346668011093376,1749.438654582028,8.000000256,1.07999910588,0.424584013586688,1450,0.0,99,P-GPS,
0.347654027426865,36.8999776567063,6700,2018-04-04 13:21:39,1749.7386545916281,8.300000265600001,0.0,0.337281010792992,1749.7386545916281,8.300000265600001,1.07999910588,0.424584013586688,1449,0.0,99,P-GPS,
0.347653969524689,36.899977736472,6800,2018-04-04 13:21:39,1750.0386546012278,8.6000002752,0.0,0.32643801044601606,1750.0386546012278,8.6000002752,1.07999910588,0.424584013586688,1450,0.0,99,P-GPS,
0.347653917279116,36.8999778475954,6900,2018-04-04 13:21:39,1750.238654607628,8.800000281600001,0.0,0.312794010009408,1750.238654607628,8.800000281600001,1.07999910588,0.424584013586688,1450,0.0,99,P-GPS,
0.34765391171452,36.8999779623249,7000,2018-04-04 13:21:39,1750.538654617228,9.1000002912,0.0,0.301239009639648,1750.538654617228,9.1000002912,1.07999910588,0.424584013586688,1451,0.0,99,P-GPS,
0.347653937216563,36.8999780618133,7100,2018-04-04 13:21:39,1750.7386546236278,9.3000002976,0.0,0.29297600937523205,1750.7386546236278,9.3000002976,1.07999910588,0.424584013586688,1446,0.0,99,P-GPS,
0.347653962493475,36.8999781331419,7200,2018-04-04 13:21:39,1751.038654633228,9.6000003072,0.0,0.287588009202816,1751.038654633228,9.6000003072,1.07999910588,0.424584013586688,1444,0.0,99,P-GPS,
0.347653947992588,36.8999781787552,7300,2018-04-04 13:21:39,1751.338654642828,9.900000316800002,0.0,0.28242000903744,1751.338654642828,9.900000316800002,1.07999910588,0.424584013586688,1445,0.0,99,P-GPS,
0.347653920136628,36.8999781941389,7400,2018-04-04 13:21:39,1751.5386546492277,10.100000323200002,0.0,0.279346008939072,1751.5386546492277,10.100000323200002,1.07999910588,0.424584013586688,1447,0.0,99,P-GPS,
0.34765390428454,36.8999781688401,7500,2018-04-04 13:21:40,1751.8386546588279,10.400000332800001,0.0,0.28085400898732804,1751.8386546588279,10.400000332800001,1.07999910588,0.424584013586688,1446,0.0,99,P-GPS,
0.347653903257806,36.8999781261257,7600,2018-04-04 13:21:40,1752.138654668428,10.700000342400001,0.0,0.28489500911664,1752.138654668428,10.700000342400001,1.07999910588,0.424584013586688,1446,0.0,99,P-GPS,
0.347653900269205,36.8999780937371,7700,2018-04-04 13:21:40,1752.338654674828,10.9000003488,0.0,0.287851009211232,1752.338654674828,10.9000003488,1.07999910588,0.424584013586688,1445,0.0,99,P-GPS,
0.347653922450647,36.8999780664017,7800,2018-04-04 13:21:40,1752.6386546844278,11.2000003584,0.0,0.29171500933488004,1752.6386546844278,11.2000003584,1.07999910588,0.424584013586688,1445,0.0,99,P-GPS,
0.34765397556072,36.8999780124634,7900,2018-04-04 13:21:40,1752.938654694028,11.500000368000002,0.0,0.299863009595616,1752.938654694028,11.500000368000002,1.07999910588,0.424584013586688,1446,0.0,99,P-GPS,
0.3476540177592,36.8999779508944,8000,2018-04-04 13:21:40,1753.1386547004279,11.7000003744,0.0,0.308142009860544,1753.1386547004279,11.7000003744,1.07999910588,0.424584013586688,1442,0.0,99,P-GPS,
0.347654018229209,36.899977881696,8100,2018-04-04 13:21:40,1753.4386547100278,12.000000384000002,0.0,0.31483301007465603,1753.4386547100278,12.000000384000002,1.07999910588,0.424584013586688,1445,0.0,99,P-GPS,
0.347653993073414,36.8999778301406,8200,2018-04-04 13:21:40,1753.738654719628,12.300000393600001,0.0,0.318476010191232,1753.738654719628,12.300000393600001,1.07999910588,0.424584013586688,1445,0.0,99,P-GPS,
0.347653945702181,36.8999777896183,8300,2018-04-04 13:21:40,1754.038654729228,12.6000004032,0.0,0.31997201023910404,1754.038654729228,12.6000004032,1.07999910588,0.424584013586688,1442,0.0,99,P-GPS,
0.347653885243145,36.8999777718099,8400,2018-04-04 13:21:40,1754.2386547356277,12.8000004096,0.0,0.318701010198432,1754.2386547356277,12.8000004096,1.07999910588,0.424584013586688,1443,0.0,99,P-GPS,
0.347653809209059,36.8999777600186,8500,2018-04-04 13:21:40,1754.5386547452279,13.100000419200002,0.0,0.316244010119808,1754.5386547452279,13.100000419200002,1.07999910588,0.424584013586688,1442,0.0,99,P-GPS,
0.347653730217719,36.8999777494306,8600,2018-04-04 13:21:41,1754.838654754828,13.4000004288,0.0,0.31374901003996797,1754.838654754828,13.4000004288,1.07999910588,0.424584013586688,1441,0.0,99,P-GPS,
0.34765365749426,36.8999777535591,8700,2018-04-04 13:21:41,1755.0386547612277,13.600000435200002,0.0,0.31022400992716803,1755.0386547612277,13.600000435200002,1.07999910588,0.424584013586688,1435,0.0,99,P-GPS,
0.34765360940814,36.8999777750637,8800,2018-04-04 13:21:41,1755.3386547708278,13.9000004448,0.0,0.30604000979328,1755.3386547708278,13.9000004448,1.07999910588,0.424584013586688,1429,0.0,99,P-GPS,
0.347653543637119,36.8999778184467,8900,2018-04-04 13:21:41,1755.638654780428,14.2000004544,0.0,0.298948009566336,1755.638654780428,14.2000004544,1.07999910588,0.424584013586688,1427,0.0,99,P-GPS,
0.347653446256168,36.8999778694328,9000,2018-04-04 13:21:41,1755.838654786828,14.400000460800001,0.0,0.290013009280416,1755.838654786828,14.400000460800001,1.07999910588,0.424584013586688,1430,0.0,99,P-GPS,
0.347653293138261,36.8999779234372,9100,2018-04-04 13:21:41,1756.1386547964278,14.7000004704,0.0,0.2792750089368,1756.1386547964278,14.7000004704,1.07999910588,0.424584013586688,1446,0.0,99,P-GPS,
0.347653106360925,36.8999779635551,9200,2018-04-04 13:21:41,1756.438654806028,15.00000048,0.35999970196000003,0.270051008641632,1756.438654806028,15.00000048,1.07999910588,0.424584013586688,1460,0.0,99,P-GPS,
0.347652901281813,36.8999780022485,9300,2018-04-04 13:21:41,1756.738654815628,15.3000004896,0.35999970196000003,0.262133008388256,1756.738654815628,15.3000004896,1.07999910588,0.424584013586688,1477,0.0,99,P-GPS,
0.347652717879529,36.8999780290904,9400,2018-04-04 13:21:41,1757.038654825228,15.6000004992,0.0,0.257489008239648,1757.038654825228,15.6000004992,1.07999910588,0.424584013586688,1480,0.0,99,P-GPS,
0.34765256260088,36.8999780360562,9500,2018-04-04 13:21:42,1757.3386548348278,15.900000508800002,0.0,0.2565500082096,1757.3386548348278,15.900000508800002,1.07999910588,0.424584013586688,1484,0.0,99,P-GPS,
0.347652456041001,36.8999780252648,9600,2018-04-04 13:21:42,1757.638654844428,16.2000005184,0.0,0.258306008265792,1757.638654844428,16.2000005184,1.07999910588,0.424584013586688,1491,0.0,99,P-GPS,
0.347652373342712,36.8999780009025,9700,2018-04-04 13:21:42,1757.9386548540278,16.500000528,0.0,0.26180500837776,1757.9386548540278,16.500000528,1.07999910588,0.424584013586688,1495,0.0,99,P-GPS,
0.347652312446438,36.8999779633045,9800,2018-04-04 13:21:42,1758.238654863628,16.800000537600003,0.0,0.26674200853574404,1758.238654863628,16.800000537600003,1.07999910588,0.424584013586688,1497,0.0,99,P-GPS,
0.347652243653839,36.89997789714,9900,2018-04-04 13:21:42,1758.538654873228,17.1000005472,0.0,0.27509500880304,1758.538654873228,17.1000005472,1.07999910588,0.424584013586688,1498,0.0,99,P-GPS,
0.347652170547136,36.8999778056648,10000,2018-04-04 13:21:42,1758.938654886028,17.50000056,0.35999970196000003,0.28645500916656,1758.938654886028,17.50000056,1.07999910588,0.424584013586688,1498,0.0,99,P-GPS,
0.347652087043072,36.8999777189457,10100,2018-04-04 13:21:42,1759.2386548956279,17.8000005696,0.0,0.297659009525088,1759.2386548956279,17.8000005696,1.07999910588,0.424584013586688,1497,0.0,99,P-GPS,
0.347651994091896,36.8999776625844,10200,2018-04-04 13:21:42,1759.5386549052278,18.1000005792,0.0,0.305982009791424,1759.5386549052278,18.1000005792,1.07999910588,0.424584013586688,1497,0.0,99,P-GPS,
0.347651871723795,36.8999776315972,10300,2018-04-04 13:21:42,1759.9386549180279,18.500000592000003,0.0,0.31267401000556805,1759.9386549180279,18.500000592000003,1.07999910588,0.424584013586688,1497,0.0,99,P-GPS,
0.347651741937521,36.8999776210081,10400,2018-04-04 13:21:42,1760.238654927628,18.8000006016,0.0,0.317932010173824,1760.238654927628,18.8000006016,1.07999910588,0.424584013586688,1497,0.0,99,P-GPS,
0.347651572383194,36.89997765133,10500,2018-04-04 13:21:43,1760.5386549372279,19.1000006112,0.0,0.321063010274016,1760.5386549372279,19.1000006112,1.07999910588,0.424584013586688,1494,0.0,99,P-GPS,
0.347651395523953,36.8999777422701,10600,2018-04-04 13:21:43,1760.938654950028,19.500000624000002,0.35999970196000003,0.319519010224608,1760.938654950028,19.500000624000002,1.07999910588,0.424584013586688,1495,0.0,99,P-GPS,
0.347651180345708,36.8999778969639,10700,2018-04-04 13:21:43,1761.238654959628,19.800000633600003,0.503999582744,0.315468010094976,1761.238654959628,19.800000633600003,1.07999910588,0.424584013586688,1498,0.0,99,P-GPS,
0.347650969586939,36.8999780650372,10800,2018-04-04 13:21:43,1761.5386549692278,20.1000006432,0.503999582744,0.312648010004736,1761.5386549692278,20.1000006432,1.07999910588,0.424584013586688,1496,0.0,99,P-GPS,
0.347650740747608,36.8999782310236,10900,2018-04-04 13:21:43,1761.838654978828,20.4000006528,0.503999582744,0.31419501005424005,1761.838654978828,20.4000006528,1.07999910588,0.424584013586688,1490,0.0,99,P-GPS,
0.347650533280993,36.8999783679461,11000,2018-04-04 13:21:43,1762.138654988428,20.7000006624,0.503999582744,0.319322010218304,1762.138654988428,20.7000006624,1.07999910588,0.424584013586688,1495,0.0,99,P-GPS,
0.347650321136774,36.899978481499,11100,2018-04-04 13:21:43,1762.438654998028,21.000000672,0.503999582744,0.328751010520032,1762.438654998028,21.000000672,1.07999910588,0.424584013586688,1495,0.0,99,P-GPS,
0.347650143347737,36.8999785737507,11200,2018-04-04 13:21:43,1762.838655010828,21.400000684800002,0.35999970196000003,0.33827301082473604,1762.838655010828,21.400000684800002,1.07999910588,0.424584013586688,1480,0.0,99,P-GPS,
0.347649979534006,36.899978635453,11300,2018-04-04 13:21:43,1763.1386550204281,21.7000006944,0.0,0.349479011183328,1763.1386550204281,21.7000006944,1.07999910588,0.424584013586688,1481,0.0,99,P-GPS,
0.347649874407055,36.8999786656247,11400,2018-04-04 13:21:43,1763.4386550300278,22.000000703999998,0.0,0.35759001144288005,1763.4386550300278,22.000000703999998,1.07999910588,0.424584013586688,1491,0.0,99,P-GPS,
0.347649806536359,36.8999787197749,11500,2018-04-04 13:21:44,1763.738655039628,22.300000713600003,0.0,0.361004011552128,1763.738655039628,22.300000713600003,1.07999910588,0.424584013586688,1492,0.0,99,P-GPS,
0.347649800042227,36.8999788058265,11600,2018-04-04 13:21:44,1764.1386550524278,22.7000007264,0.0,0.356951011422432,1764.1386550524278,22.7000007264,1.07999910588,0.424584013586688,1491,0.0,99,P-GPS,
0.347649794019935,36.8999788771203,11700,2018-04-04 13:21:44,1764.438655062028,23.000000736000004,0.0,0.35381901132220805,1764.438655062028,23.000000736000004,1.07999910588,0.424584013586688,1493,0.0,99,P-GPS,
0.347649800670297,36.8999788897036,11800,2018-04-04 13:21:44,1764.838655074828,23.4000007488,0.0,0.35251901128060803,1764.838655074828,23.4000007488,1.07999910588,0.424584013586688,1496,0.0,99,P-GPS,
0.347649810327988,36.8999788307779,11900,2018-04-04 13:21:44,1765.138655084428,23.7000007584,0.35999970196000003,0.35462401134796806,1765.138655084428,23.7000007584,1.07999910588,0.424584013586688,1497,0.0,99,P-GPS,
0.347649819554446,36.8999787347631,12000,2018-04-04 13:21:44,1765.438655094028,24.000000768000003,0.35999970196000003,0.358918011485376,1765.438655094028,24.000000768000003,1.07999910588,0.424584013586688,1498,0.0,99,P-GPS,
0.347649763503404,36.8999786328656,12100,2018-04-04 13:21:44,1765.8386551068281,24.400000780800003,0.35999970196000003,0.37002801184089607,1765.8386551068281,24.400000780800003,1.07999910588,0.424584013586688,1497,0.0,99,P-GPS,
0.347649653884492,36.89997853179,12200,2018-04-04 13:21:44,1766.238655119628,24.800000793600002,0.0,0.38627601236083203,1766.238655119628,24.800000793600002,1.07999910588,0.424584013586688,1496,0.0,99,P-GPS,
0.347649340746111,36.8999784267219,12400,2018-04-04 13:21:44,1766.938655142028,25.500000816000004,0.35999970196000003,0.42216401350924804,1766.938655142028,25.500000816000004,1.07999910588,0.424584013586688,1496,0.0,99,P-GPS,
0.347649115215574,36.8999784325356,12500,2018-04-04 13:21:45,1767.2386551516279,25.8000008256,0.35999970196000003,0.443687014197984,1767.2386551516279,25.8000008256,1.07999910588,0.443687014197984,1497,0.0,99,P-GPS,
0.347648901664481,36.8999784385855,12600,2018-04-04 13:21:45,1767.538655161228,26.100000835200003,0.35999970196000003,0.46437001485984003,1767.538655161228,26.100000835200003,1.07999910588,0.46437001485984003,1497,0.0,99,P-GPS,
0.347648722772377,36.8999784271858,12700,2018-04-04 13:21:45,1767.9386551740279,26.500000848000003,0.0,0.482719015447008,1767.9386551740279,26.500000848000003,1.07999910588,0.482719015447008,1492,0.0,99,P-GPS,
0.347648620286457,36.8999783996148,12800,2018-04-04 13:21:45,1768.238655183628,26.8000008576,0.0,0.49430501581776004,1768.238655183628,26.8000008576,1.07999910588,0.49430501581776004,1489,0.0,99,P-GPS,
0.347648547957489,36.8999783449633,12900,2018-04-04 13:21:45,1768.538655193228,27.100000867200002,0.0,0.504199016134368,1768.538655193228,27.100000867200002,1.07999910588,0.504199016134368,1485,0.0,99,P-GPS,
0.347648524840709,36.8999782514807,13000,2018-04-04 13:21:45,1768.8386552028278,27.4000008768,0.35999970196000003,0.511153016356896,1768.8386552028278,27.4000008768,1.07999910588,0.511153016356896,1482,0.0,99,P-GPS,
0.347648547741924,36.8999781263433,13100,2018-04-04 13:21:45,1769.138655212428,27.7000008864,0.35999970196000003,0.5153930164925761,1769.138655212428,27.7000008864,1.07999910588,0.5153930164925761,1482,0.0,99,P-GPS,
0.347648596749539,36.8999780094183,13200,2018-04-04 13:21:45,1769.4386552220278,28.000000896,0.35999970196000003,0.517014016544448,1769.4386552220278,28.000000896,1.07999910588,0.517014016544448,1484,0.0,99,P-GPS,
0.347648639683261,36.8999779059055,13300,2018-04-04 13:21:45,1769.738655231628,28.300000905600005,0.35999970196000003,0.518807016601824,1769.738655231628,28.300000905600005,1.07999910588,0.518807016601824,1484,0.0,99,P-GPS,
0.347648675591469,36.8999778239167,13400,2018-04-04 13:21:45,1770.038655241228,28.600000915200003,0.35999970196000003,0.520257016648224,1770.038655241228,28.600000915200003,1.07999910588,0.520257016648224,1483,0.0,99,P-GPS,
0.347648704679143,36.8999777131235,13500,2018-04-04 13:21:45,1770.438655254028,29.000000928000002,0.35999970196000003,0.5243040167777281,1770.438655254028,29.000000928000002,1.07999910588,0.5243040167777281,1482,0.0,99,P-GPS,
0.347648728238453,36.899977581379,13600,2018-04-04 13:21:46,1770.7386552636278,29.300000937600004,0.35999970196000003,0.530474016975168,1770.7386552636278,29.300000937600004,1.07999910588,0.530474016975168,1482,0.0,99,P-GPS,
0.347648737959042,36.8999774227275,13700,2018-04-04 13:21:46,1771.038655273228,29.6000009472,0.35999970196000003,0.5400130172804161,1771.038655273228,29.6000009472,1.07999910588,0.5400130172804161,1479,0.0,99,P-GPS,
0.347648745565911,36.8999772668713,13800,2018-04-04 13:21:46,1771.3386552828279,29.900000956800003,0.35999970196000003,0.5499450175982401,1771.3386552828279,29.900000956800003,1.07999910588,0.5499450175982401,1478,0.0,99,P-GPS,
0.347648737430205,36.8999771183815,13900,2018-04-04 13:21:46,1771.638655292428,30.2000009664,0.35999970196000003,0.561059017953888,1771.638655292428,30.2000009664,1.07999910588,0.561059017953888,1479,0.0,99,P-GPS,
0.347648736199915,36.8999770024925,14000,2018-04-04 13:21:46,1771.938655302028,30.500000976,0.35999970196000003,0.569484018223488,1771.938655302028,30.500000976,1.07999910588,0.569484018223488,1479,0.0,99,P-GPS,
0.347648756358831,36.8999768524305,14100,2018-04-04 13:21:46,1772.2386553116278,30.8000009856,0.35999970196000003,0.57884001852288,1772.2386553116278,30.8000009856,1.07999910588,0.57884001852288,1479,0.0,99,P-GPS,
0.347648805231081,36.899976669861,14200,2018-04-04 13:21:46,1772.538655321228,31.100000995200002,0.35999970196000003,0.588718018838976,1772.538655321228,31.100000995200002,1.07999910588,0.588718018838976,1477,0.0,99,P-GPS,
0.34764883408487,36.8999764542037,14300,2018-04-04 13:21:46,1772.838655330828,31.400001004800004,0.35999970196000003,0.603359019307488,1772.838655330828,31.400001004800004,1.07999910588,0.603359019307488,1479,0.0,99,P-GPS,
0.347648842368968,36.8999762496517,14400,2018-04-04 13:21:46,1773.138655340428,31.7000010144,0.35999970196000003,0.6192380198156161,1773.138655340428,31.7000010144,1.07999910588,0.6192380198156161,1479,0.0,99,P-GPS,
0.347648846277437,36.8999760364151,14500,2018-04-04 13:21:47,1773.538655353228,32.1000010272,0.35999970196000003,0.6365830203706561,1773.538655353228,32.1000010272,1.07999910588,0.6365830203706561,1480,0.0,99,P-GPS,
0.347648851111066,36.8999758373826,14600,2018-04-04 13:21:47,1773.8386553628281,32.4000010368,0.7199994039200001,0.653049020897568,1773.8386553628281,32.4000010368,1.07999910588,0.653049020897568,1480,0.0,99,P-GPS,
0.347648816822142,36.8999756093754,14700,2018-04-04 13:21:47,1774.238655375628,32.800001049600006,0.35999970196000003,0.6750780216024961,1774.238655375628,32.800001049600006,1.07999910588,0.6750780216024961,1480,0.0,99,P-GPS,
0.347648752153985,36.8999754046398,14800,2018-04-04 13:21:47,1774.538655385228,33.100001059200004,0.35999970196000003,0.697386022316352,1774.538655385228,33.100001059200004,1.07999910588,0.697386022316352,1480,0.0,99,P-GPS,
0.347648661801398,36.8999752180167,14900,2018-04-04 13:21:47,1774.8386553948278,33.4000010688,0.503999582744,0.719937023037984,1774.8386553948278,33.4000010688,1.07999910588,0.719937023037984,1481,0.0,99,P-GPS,
0.347648552681605,36.8999750681517,15000,2018-04-04 13:21:47,1775.238655407628,33.8000010816,0.35999970196000003,0.74054502369744,1775.238655407628,33.8000010816,1.07999910588,0.74054502369744,1481,0.0,99,P-GPS,
0.347648477511816,36.8999749008449,15100,2018-04-04 13:21:47,1775.538655417228,34.1000010912,0.35999970196000003,0.7603990243327681,1775.538655417228,34.1000010912,1.07999910588,0.7603990243327681,1481,0.0,99,P-GPS,
0.347648473940027,36.8999745481538,15300,2018-04-04 13:21:47,1776.138655436428,34.7000011104,0.35999970196000003,0.792198025350336,1776.138655436428,34.7000011104,1.07999910588,0.792198025350336,1482,0.0,99,P-GPS,
0.347648525427356,36.8999743717779,15400,2018-04-04 13:21:47,1776.4386554460277,35.00000112,0.35999970196000003,0.80498002575936,1776.4386554460277,35.00000112,1.07999910588,0.80498002575936,1481,0.0,99,P-GPS,
0.347648615245202,36.8999741748299,15500,2018-04-04 13:21:48,1776.7386554556278,35.300001129600005,0.503999582744,0.817657026165024,1776.7386554556278,35.300001129600005,1.07999910588,0.817657026165024,1481,0.0,99,P-GPS,
0.347648740824493,36.8999740011708,15600,2018-04-04 13:21:48,1777.038655465228,35.6000011392,0.503999582744,0.8265520264496641,1777.038655465228,35.6000011392,1.07999910588,0.8265520264496641,1482,0.0,99,P-GPS,
0.347648885377802,36.8999738168966,15700,2018-04-04 13:21:48,1777.338655474828,35.9000011488,0.35999970196000003,0.83600502675216,1777.338655474828,35.9000011488,1.07999910588,0.83600502675216,1482,0.0,99,P-GPS,
0.347649018208961,36.8999736756322,15800,2018-04-04 13:21:48,1777.6386554844278,36.2000011584,0.35999970196000003,0.8425590269618881,1777.6386554844278,36.2000011584,1.07999910588,0.8425590269618881,1481,0.0,99,P-GPS,
0.3476491554129,36.8999735247121,15900,2018-04-04 13:21:48,1778.038655497228,36.6000011712,0.35999970196000003,0.8503460272110721,1778.038655497228,36.6000011712,1.07999910588,0.8503460272110721,1480,0.0,99,P-GPS,
0.347649271964097,36.8999733939059,16000,2018-04-04 13:21:48,1778.3386555068278,36.900001180800004,0.0,0.857637027444384,1778.3386555068278,36.900001180800004,1.07999910588,0.857637027444384,1480,0.0,99,P-GPS,
0.34764936454867,36.8999732572548,16100,2018-04-04 13:21:48,1778.538655513228,37.10000118720001,0.0,0.867006027744192,1778.538655513228,37.10000118720001,1.07999910588,0.867006027744192,1478,0.0,99,P-GPS,
0.347649427682019,36.8999731562761,16200,2018-04-04 13:21:48,1778.938655526028,37.5000012,0.0,0.874351027979232,1778.938655526028,37.5000012,1.07999910588,0.874351027979232,1479,0.0,99,P-GPS,
0.34764951083383,36.8999729656388,16400,2018-04-04 13:21:48,1779.4386555420278,38.000001216,0.0,0.890138028484416,1779.4386555420278,38.000001216,1.07999910588,0.890138028484416,1475,0.0,99,P-GPS,
0.347649524347472,36.8999728737517,16500,2018-04-04 13:21:49,1779.738655551628,38.3000012256,0.0,0.8989870287675841,1779.738655551628,38.3000012256,1.07999910588,0.8989870287675841,1471,0.0,99,P-GPS,
0.347649530849849,36.89997281571,16600,2018-04-04 13:21:49,1780.038655561228,38.600001235200004,0.0,0.9046790289497281,1780.038655561228,38.600001235200004,1.07999910588,0.9046790289497281,1467,0.0,99,P-GPS,
0.347649537433852,36.8999727670544,16700,2018-04-04 13:21:49,1780.338655570828,38.9000012448,0.0,0.9094110291011521,1780.338655570828,38.9000012448,1.07999910588,0.9094110291011521,1466,0.0,99,P-GPS,
0.347649565950349,36.8999727498744,16800,2018-04-04 13:21:49,1780.538655577228,39.100001251200005,0.0,0.909993029119776,1780.538655577228,39.100001251200005,1.07999910588,0.909993029119776,1467,0.0,99,P-GPS,
0.347649602884476,36.8999727455278,16900,2018-04-04 13:21:49,1780.838655586828,39.4000012608,0.0,0.908919029085408,1780.838655586828,39.4000012608,1.07999910588,0.909993029119776,1457,0.0,99,P-GPS,
0.347649645297097,36.8999727901301,17000,2018-04-04 13:21:49,1781.0386555932278,39.60000126720001,0.0,0.9025720288823041,1781.0386555932278,39.60000126720001,1.07999910588,0.909993029119776,1457,0.0,99,P-GPS,
0.347649692778452,36.8999728355274,17100,2018-04-04 13:21:49,1781.3386556028279,39.900001276800005,0.0,0.8959460286702721,1781.3386556028279,39.900001276800005,1.07999910588,0.909993029119776,1459,0.0,99,P-GPS,
0.347649728113448,36.8999728884473,17200,2018-04-04 13:21:49,1781.538655609228,40.10000128320001,0.0,0.8890370284491841,1781.538655609228,40.10000128320001,1.07999910588,0.909993029119776,1466,0.0,99,P-GPS,
0.347649744712788,36.899972934298,17300,2018-04-04 13:21:49,1781.8386556188277,40.400001292800006,0.0,0.8836160282757121,1781.8386556188277,40.400001292800006,1.07999910588,0.909993029119776,1471,0.0,99,P-GPS,
0.347649747786884,36.8999729836592,17400,2018-04-04 13:21:49,1782.1386556284278,40.700001302400004,0.0,0.8783760281080321,1782.1386556284278,40.700001302400004,1.07999910588,0.909993029119776,1474,0.0,99,P-GPS,
0.347649770892061,36.8999730262199,17500,2018-04-04 13:21:50,1782.338655634828,40.9000013088,0.0,0.873033027937056,1782.338655634828,40.9000013088,1.07999910588,0.909993029119776,1482,0.0,99,P-GPS,
0.347649814606623,36.8999730821326,17600,2018-04-04 13:21:50,1782.6386556444281,41.2000013184,0.0,0.8654790276953281,1782.6386556444281,41.2000013184,1.07999910588,0.909993029119776,1484,0.0,99,P-GPS,
0.347649857957736,36.8999731406822,17700,2018-04-04 13:21:50,1782.8386556508278,41.4000013248,0.0,0.8576710274454721,1782.8386556508278,41.4000013248,1.07999910588,0.909993029119776,1489,0.0,99,P-GPS,
0.347649887949094,36.899973228417,17800,2018-04-04 13:21:50,1783.138655660428,41.7000013344,0.0,0.8473670271157441,1783.138655660428,41.7000013344,1.07999910588,0.909993029119776,1494,0.0,99,P-GPS,
0.347649908637152,36.8999733082005,17900,2018-04-04 13:21:50,1783.438655670028,42.000001344,0.35999970196000003,0.83826002682432,1783.438655670028,42.000001344,1.07999910588,0.909993029119776,1484,0.0,99,P-GPS,
0.347649919531849,36.8999734007802,18000,2018-04-04 13:21:50,1783.7386556796278,42.300001353599995,0.35999970196000003,0.8282220265031041,1783.7386556796278,42.300001353599995,1.07999910588,0.909993029119776,1479,0.0,99,P-GPS,
0.347649915761493,36.8999735088945,18100,2018-04-04 13:21:50,1784.0386556892279,42.6000013632,0.35999970196000003,0.817182026149824,1784.0386556892279,42.6000013632,1.07999910588,0.909993029119776,1482,0.0,99,P-GPS,
0.347649902629517,36.8999736193035,18200,2018-04-04 13:21:50,1784.338655698828,42.900001372800006,0.35999970196000003,0.8063230258023361,1784.338655698828,42.900001372800006,1.07999910588,0.909993029119776,1481,0.0,99,P-GPS,
0.347649884803856,36.8999737212425,18300,2018-04-04 13:21:50,1784.638655708428,43.2000013824,0.35999970196000003,0.796577025490464,1784.638655708428,43.2000013824,1.07999910588,0.909993029119776,1479,0.0,99,P-GPS,
0.347649868227212,36.8999738415665,18400,2018-04-04 13:21:50,1784.938655718028,43.500001392,0.35999970196000003,0.784942025118144,1784.938655718028,43.500001392,1.07999910588,0.909993029119776,1479,0.0,99,P-GPS,
0.347649840133602,36.8999739764918,18500,2018-04-04 13:21:51,1785.138655724428,43.7000013984,0.35999970196000003,0.77239002471648,1785.138655724428,43.7000013984,1.07999910588,0.909993029119776,1480,0.0,99,P-GPS,
0.347649801896821,36.8999741308817,18600,2018-04-04 13:21:51,1785.4386557340279,44.000001407999996,0.35999970196000003,0.7584320242698239,1785.4386557340279,44.000001407999996,1.07999910588,0.909993029119776,1480,0.0,99,P-GPS,
0.347649766458114,36.8999742741588,18700,2018-04-04 13:21:51,1785.738655743628,44.30000141760001,0.35999970196000003,0.745617023859744,1785.738655743628,44.30000141760001,1.07999910588,0.909993029119776,1481,0.0,99,P-GPS,
0.347649744477275,36.8999743967754,18800,2018-04-04 13:21:51,1785.938655750028,44.500001424,0.35999970196000003,0.73436002349952,1785.938655750028,44.500001424,1.07999910588,0.909993029119776,1481,0.0,99,P-GPS,
0.347649729501595,36.8999745235433,18900,2018-04-04 13:21:51,1786.238655759628,44.8000014336,0.35999970196000003,0.722433023117856,1786.238655759628,44.8000014336,1.07999910588,0.909993029119776,1481,0.0,99,P-GPS,
0.347649734042002,36.8999746706473,19000,2018-04-04 13:21:51,1786.538655769228,45.1000014432,0.35999970196000003,0.7075890226428481,1786.538655769228,45.1000014432,1.07999910588,0.909993029119776,1481,0.0,99,P-GPS,
0.347649733040204,36.899974824595,19100,2018-04-04 13:21:51,1786.7386557756279,45.3000014496,0.35999970196000003,0.6924240221575679,1786.7386557756279,45.3000014496,1.07999910588,0.909993029119776,1470,0.0,99,P-GPS,
0.347649711477875,36.8999749861125,19200,2018-04-04 13:21:51,1787.038655785228,45.6000014592,0.35999970196000003,0.6776990216863681,1787.038655785228,45.6000014592,1.07999910588,0.909993029119776,1470,0.0,99,P-GPS,
0.347649693213247,36.8999751457136,19300,2018-04-04 13:21:51,1787.2386557916282,45.800001465600005,0.35999970196000003,0.6631480212207361,1787.2386557916282,45.800001465600005,1.07999910588,0.909993029119776,1461,0.0,99,P-GPS,
0.347649689179998,36.8999752973612,19400,2018-04-04 13:21:51,1787.5386558012278,46.1000014752,0.35999970196000003,0.64873002075936,1787.5386558012278,46.1000014752,1.07999910588,0.909993029119776,1461,0.0,99,P-GPS,
0.347649683675654,36.8999754352826,19500,2018-04-04 13:21:52,1787.738655807628,46.300001481600006,0.35999970196000003,0.635826020346432,1787.738655807628,46.300001481600006,1.07999910588,0.909993029119776,1464,0.0,99,P-GPS,
0.347649673109495,36.8999755655374,19600,2018-04-04 13:21:52,1788.0386558172281,46.600001491200004,0.35999970196000003,0.62405501996976,1788.0386558172281,46.600001491200004,1.07999910588,0.909993029119776,1464,0.0,99,P-GPS,
0.347649644479821,36.8999757004183,19700,2018-04-04 13:21:52,1788.2386558236278,46.8000014976,0.35999970196000003,0.6130490196175681,1788.2386558236278,46.8000014976,1.07999910588,0.909993029119776,1469,0.0,99,P-GPS,
0.347649601961149,36.899975837495,19800,2018-04-04 13:21:52,1788.538655833228,47.100001507200005,0.35999970196000003,0.6028880192924161,1788.538655833228,47.100001507200005,1.07999910588,0.909993029119776,1474,0.0,99,P-GPS,
0.347649544282883,36.8999759733967,19900,2018-04-04 13:21:52,1788.7386558396279,47.3000015136,0.35999970196000003,0.594058019009856,1788.7386558396279,47.3000015136,1.07999910588,0.909993029119776,1471,0.0,99,P-GPS,
0.34764950778294,36.899976112354,20000,2018-04-04 13:21:52,1789.0386558492278,47.6000015232,0.35999970196000003,0.583883018684256,1789.0386558492278,47.6000015232,1.07999910588,0.909993029119776,1471,0.0,99,P-GPS,
0.347649481163376,36.8999762524557,20100,2018-04-04 13:21:52,1789.238655855628,47.8000015296,0.35999970196000003,0.5732030183424961,1789.238655855628,47.8000015296,1.07999910588,0.909993029119776,1470,0.0,99,P-GPS,
0.347649479650959,36.8999763976497,20200,2018-04-04 13:21:52,1789.538655865228,48.1000015392,0.35999970196000003,0.560582017938624,1789.538655865228,48.1000015392,1.07999910588,0.909993029119776,1471,0.0,99,P-GPS,
0.347649474982821,36.8999765617302,20300,2018-04-04 13:21:52,1789.8386558748277,48.4000015488,0.35999970196000003,0.5467530174960961,1789.8386558748277,48.4000015488,1.07999910588,0.909993029119776,1471,0.0,99,P-GPS,
0.34764945701803,36.8999767062673,20400,2018-04-04 13:21:52,1790.1386558844279,48.7000015584,0.35999970196000003,0.535801017145632,1790.1386558844279,48.7000015584,1.07999910588,0.909993029119776,1477,0.0,99,P-GPS,
0.34764942502623,36.8999768278795,20500,2018-04-04 13:21:53,1790.438655894028,49.000001568,0.0,0.528056016897792,1790.438655894028,49.000001568,1.07999910588,0.909993029119776,1477,0.0,99,P-GPS,
0.347649389713626,36.8999769094144,20600,2018-04-04 13:21:53,1790.7386559036281,49.3000015776,0.0,0.524063016770016,1790.7386559036281,49.3000015776,1.07999910588,0.909993029119776,1477,0.0,98,P-GPS,
0.347649340563522,36.8999769583366,20700,2018-04-04 13:21:53,1791.0386559132278,49.600001587200005,0.0,0.523902016764864,1791.0386559132278,49.600001587200005,1.07999910588,0.909993029119776,1479,0.0,98,P-GPS,
0.347649307263877,36.8999769944772,20800,2018-04-04 13:21:53,1791.338655922828,49.9000015968,0.0,0.523619016755808,1791.338655922828,49.9000015968,1.07999910588,0.909993029119776,1479,0.0,98,P-GPS,
0.347649285167317,36.8999770282167,20900,2018-04-04 13:21:53,1791.6386559324278,50.20000160640001,0.0,0.522698016726336,1791.6386559324278,50.20000160640001,1.07999910588,0.909993029119776,1480,0.0,98,P-GPS,
0.347649270734622,36.8999770341529,21000,2018-04-04 13:21:53,1792.038655945228,50.6000016192,0.0,0.523373016747936,1792.038655945228,50.6000016192,1.07999910588,0.909993029119776,1477,0.0,98,P-GPS,
0.347649271966336,36.8999770002314,21100,2018-04-04 13:21:53,1792.338655954828,50.9000016288,0.0,0.52593501682992,1792.338655954828,50.9000016288,1.07999910588,0.909993029119776,1477,0.0,98,P-GPS,
0.34764928132419,36.8999769756713,21200,2018-04-04 13:21:53,1792.638655964428,51.2000016384,0.0,0.52713501686832,1792.638655964428,51.2000016384,1.07999910588,0.909993029119776,1479,0.0,98,P-GPS,
0.347649278083586,36.8999769711814,21300,2018-04-04 13:21:53,1792.9386559740278,51.500001648,0.0,0.527743016887776,1792.9386559740278,51.500001648,1.07999910588,0.909993029119776,1479,0.0,98,P-GPS,
0.347649300146559,36.8999770093117,21400,2018-04-04 13:21:53,1793.238655983628,51.8000016576,0.0,0.5230060167361921,1793.238655983628,51.8000016576,1.07999910588,0.909993029119776,1479,0.0,98,P-GPS,
0.347649342607015,36.8999770515229,21500,2018-04-04 13:21:54,1793.5386559932278,52.1000016672,0.0,0.516348016523136,1793.5386559932278,52.1000016672,1.07999910588,0.909993029119776,1477,0.0,98,P-GPS,
0.347649386986592,36.8999770907083,21600,2018-04-04 13:21:54,1793.838656002828,52.40000167680001,0.0,0.5097780163128961,1793.838656002828,52.40000167680001,1.07999910588,0.909993029119776,1477,0.0,98,P-GPS,
0.34764940872632,36.8999771012909,21700,2018-04-04 13:21:54,1794.138656012428,52.70000168640001,0.0,0.50724001623168,1794.138656012428,52.70000168640001,1.07999910588,0.909993029119776,1476,0.0,98,P-GPS,
0.347649418164171,36.8999770972467,21800,2018-04-04 13:21:54,1794.4386560220278,53.000001696000005,0.0,0.506822016218304,1794.4386560220278,53.000001696000005,1.07999910588,0.909993029119776,1475,0.0,98,P-GPS,
0.347649408915423,36.8999770683319,21900,2018-04-04 13:21:54,1794.738656031628,53.3000017056,0.0,0.509836016314752,1794.738656031628,53.3000017056,1.07999910588,0.909993029119776,1470,0.0,98,P-GPS,
0.347649392969292,36.8999770338293,22000,2018-04-04 13:21:54,1795.038656041228,53.6000017152,0.0,0.513819016442208,1795.038656041228,53.6000017152,1.07999910588,0.909993029119776,1470,0.0,98,P-GPS,
0.347649401278021,36.8999769707243,22100,2018-04-04 13:21:54,1795.338656050828,53.900001724800006,0.0,0.518229016583328,1795.338656050828,53.900001724800006,1.07999910588,0.909993029119776,1470,0.0,98,P-GPS,
0.347649455815628,36.8999769116597,22200,2018-04-04 13:21:54,1795.6386560604278,54.200001734400004,0.0,0.518871016603872,1795.6386560604278,54.200001734400004,1.07999910588,0.909993029119776,1466,0.0,98,P-GPS,
0.347649529371425,36.8999768442666,22300,2018-04-04 13:21:54,1795.938656070028,54.500001744,0.0,0.5189560166065921,1795.938656070028,54.500001744,1.07999910588,0.909993029119776,1466,0.0,98,P-GPS,
0.347649600765667,36.8999767984746,22400,2018-04-04 13:21:54,1796.2386560796278,54.8000017536,0.0,0.517602016563264,1796.2386560796278,54.8000017536,1.07999910588,0.909993029119776,1464,0.0,98,P-GPS,
0.347649649433955,36.8999767220796,22500,2018-04-04 13:21:55,1796.538656089228,55.1000017632,0.0,0.520651016660832,1796.538656089228,55.1000017632,1.07999910588,0.909993029119776,1464,0.0,98,P-GPS,
0.347649680815292,36.8999766459673,22600,2018-04-04 13:21:55,1796.938656102028,55.500001776000005,0.0,0.52504501680144,1796.938656102028,55.500001776000005,1.07999910588,0.909993029119776,1464,0.0,98,P-GPS,
0.347649686815905,36.899976549869,22700,2018-04-04 13:21:55,1797.238656111628,55.8000017856,0.0,0.53304501705744,1797.238656111628,55.8000017856,1.07999910588,0.909993029119776,1465,0.0,98,P-GPS,
0.347649684353697,36.8999764683854,22800,2018-04-04 13:21:55,1797.5386561212279,56.10000179520001,0.0,0.540408017293056,1797.5386561212279,56.10000179520001,1.07999910588,0.909993029119776,1467,0.0,98,P-GPS,
0.347649689229666,36.8999763777803,22900,2018-04-04 13:21:55,1797.8386561308278,56.400001804800006,0.0,0.548151017540832,1797.8386561308278,56.400001804800006,1.07999910588,0.909993029119776,1467,0.0,98,P-GPS,
0.34764971469965,36.8999763177158,23000,2018-04-04 13:21:55,1798.1386561404279,56.700001814400004,0.0,0.551876017660032,1798.1386561404279,56.700001814400004,1.07999910588,0.909993029119776,1466,0.0,98,P-GPS,
0.34764973736932,36.8999762303022,23100,2018-04-04 13:21:55,1798.338656146828,56.90000182080001,0.0,0.558338017866816,1798.338656146828,56.90000182080001,1.07999910588,0.909993029119776,1466,0.0,98,P-GPS,
0.347649762182736,36.8999761665168,23200,2018-04-04 13:21:55,1798.638656156428,57.200001830400005,0.0,0.562599018003168,1798.638656156428,57.200001830400005,1.07999910588,0.909993029119776,1466,0.0,98,P-GPS,
0.347649813550169,36.8999760855354,23300,2018-04-04 13:21:55,1798.9386561660278,57.50000184,0.0,0.566893018140576,1798.9386561660278,57.50000184,1.07999910588,0.909993029119776,1451,0.0,98,P-GPS,
0.347649870459809,36.8999760164516,23400,2018-04-04 13:21:55,1799.238656175628,57.8000018496,0.0,0.56990501823696,1799.238656175628,57.8000018496,1.07999910588,0.909993029119776,1418,0.0,98,P-GPS,
0.347649918642006,36.8999759367308,23500,2018-04-04 13:21:56,1799.538656185228,58.100001859200006,0.0,0.5745900183868801,1799.538656185228,58.100001859200006,1.07999910588,0.909993029119776,1237,0.0,98,P-GPS,
0.347649980963779,36.8999759045254,23600,2018-04-04 13:21:56,1799.7386561916278,58.30000186560001,0.0,0.574076018370432,1799.7386561916278,58.30000186560001,1.07999910588,0.909993029119776,1024,0.0,98,P-GPS,
0.347650058477917,36.8999758520734,23700,2018-04-04 13:21:56,1800.038656201228,58.60000187520001,0.0,0.57478001839296,1800.038656201228,58.60000187520001,1.07999910588,0.909993029119776,1024,0.0,98,P-GPS,
0.347650140642179,36.8999757937866,23800,2018-04-04 13:21:56,1800.138656204428,58.7000018784,0.0,0.5759940184318081,1800.138656204428,58.7000018784,1.07999910588,0.909993029119776,1024,0.0,98,P-GPS,
0.347650214178639,36.8999757176706,23900,2018-04-04 13:21:56,1800.238656207628,58.8000018816,0.0,0.579625018548,1800.238656207628,58.8000018816,1.07999910588,0.909993029119776,1024,0.0,98,P-GPS,
0.3476502733109,36.8999756862618,24000,2018-04-04 13:21:56,1800.338656210828,58.900001884800005,0.0,0.579738018551616,1800.338656210828,58.900001884800005,1.07999910588,0.909993029119776,1024,0.0,98,P-GPS,
0.347650303967173,36.8999756127446,24100,2018-04-04 13:21:56,1800.338656210828,58.900001884800005,0.0,0.58554501873744,1800.338656210828,58.900001884800005,1.07999910588,0.909993029119776,1024,0.0,98,P-GPS,
0.347650310076789,36.8999755146405,24200,2018-04-04 13:21:56,1800.338656210828,58.900001884800005,0.0,0.5950710190422721,1800.338656210828,58.900001884800005,1.07999910588,0.909993029119776,1024,0.0,98,P-GPS,
0.347650309384294,36.8999753764653,24300,2018-04-04 13:21:56,1800.338656210828,58.900001884800005,0.0,0.6090020194880641,1800.338656210828,58.900001884800005,1.07999910588,0.909993029119776,1176,0.0,98,P-GPS,
0.347650318242724,36.8999752772532,24400,2018-04-04 13:21:56,1800.338656210828,58.900001884800005,0.0,0.618616019795712,1800.338656210828,58.900001884800005,1.07999910588,0.909993029119776,1297,0.0,98,P-GPS,
0.347650343608894,36.8999751745059,24500,2018-04-04 13:21:57,1800.338656210828,58.900001884800005,0.0,0.6278950200926401,1800.338656210828,58.900001884800005,1.07999910588,0.909993029119776,1328,0.0,98,P-GPS,
0.347650392398298,36.8999751390668,24600,2018-04-04 13:21:57,1800.438656214028,59.000001888,0.0,0.629351020139232,1800.438656214028,59.000001888,1.07999910588,0.909993029119776,1335,0.0,98,P-GPS,
0.347650456959894,36.8999750764023,24700,2018-04-04 13:21:57,1800.5386562172278,59.10000189120001,0.0,0.633003020256096,1800.5386562172278,59.10000189120001,1.07999910588,0.909993029119776,1349,0.0,98,P-GPS,
0.347650531768168,36.8999749760307,24800,2018-04-04 13:21:57,1800.738656223628,59.3000018976,0.0,0.640282020489024,1800.738656223628,59.3000018976,1.07999910588,0.909993029119776,1359,0.0,98,P-GPS,
0.347650620394502,36.8999748602113,24900,2018-04-04 13:21:57,1800.9386562300278,59.500001904,0.0,0.648862020763584,1800.9386562300278,59.500001904,1.07999910588,0.909993029119776,1366,0.0,98,P-GPS,
0.347650715577919,36.8999748263974,25000,2018-04-04 13:21:57,1801.038656233228,59.6000019072,0.0,0.648868020763776,1801.038656233228,59.6000019072,1.07999910588,0.909993029119776,1366,0.0,98,P-GPS,
0.347650814250379,36.8999748432819,25100,2018-04-04 13:21:57,1801.238656239628,59.800001913600006,0.35999970196000003,0.643589020594848,1801.238656239628,59.800001913600006,1.07999910588,0.909993029119776,1362,0.0,98,P-GPS,
0.347650915229937,36.8999749346449,25200,2018-04-04 13:21:57,1801.4386562460281,60.00000192,0.35999970196000003,0.6304800201753601,1801.4386562460281,60.00000192,1.07999910588,0.909993029119776,1337,0.0,98,P-GPS,
0.347651005105542,36.8999750278617,25300,2018-04-04 13:21:57,1801.6386562524278,60.2000019264,0.35999970196000003,0.6176230197639361,1801.6386562524278,60.2000019264,1.07999910588,0.909993029119776,1207,0.0,98,P-GPS,
0.347651066860566,36.8999751415784,25400,2018-04-04 13:21:57,1801.838656258828,60.4000019328,0.35999970196000003,0.60353501931312,1801.838656258828,60.4000019328,1.07999910588,0.909993029119776,1207,0.0,98,P-GPS,
0.347651129317932,36.8999752116327,25500,2018-04-04 13:21:58,1801.938656262028,60.500001936000004,0.35999970196000003,0.594101019011232,1801.938656262028,60.500001936000004,1.07999910588,0.909993029119776,1024,0.0,98,P-GPS,
0.34765119774179,36.8999752648802,25600,2018-04-04 13:21:58,1802.138656268428,60.7000019424,0.35999970196000003,0.586321018762272,1802.138656268428,60.7000019424,1.07999910588,0.909993029119776,1024,0.0,98,P-GPS,
0.347651260235619,36.8999752833535,25700,2018-04-04 13:21:58,1802.138656268428,60.7000019424,0.35999970196000003,0.582503018640096,1802.138656268428,60.7000019424,1.07999910588,0.909993029119776,1024,0.0,98,P-GPS,
0.347651307575109,36.899975347065,25800,2018-04-04 13:21:58,1802.238656271628,60.80000194560001,0.35999970196000003,0.574304018377728,1802.238656271628,60.80000194560001,1.07999910588,0.909993029119776,1024,0.0,98,P-GPS,
0.347651324531193,36.899975342834,25900,2018-04-04 13:21:58,1802.238656271628,60.80000194560001,0.0,0.574284018377088,1802.238656271628,60.80000194560001,1.07999910588,0.909993029119776,1024,0.0,98,P-GPS,
0.347651319642763,36.8999753251492,26000,2018-04-04 13:21:58,1802.238656271628,60.80000194560001,0.0,0.576324018442368,1802.238656271628,60.80000194560001,1.07999910588,0.909993029119776,1024,0.0,98,P-GPS,
0.347651314440934,36.8999752593516,26100,2018-04-04 13:21:58,1802.238656271628,60.80000194560001,0.0,0.583554018673728,1802.238656271628,60.80000194560001,1.07999910588,0.909993029119776,1024,0.0,98,P-GPS,
0.347651324519769,36.8999752105375,26200,2018-04-04 13:21:58,1802.238656271628,60.80000194560001,0.0,0.588539018833248,1802.238656271628,60.80000194560001,1.07999910588,0.909993029119776,1024,0.0,98,P-GPS,
0.347651334173191,36.8999751384838,26300,2018-04-04 13:21:58,1802.238656271628,60.80000194560001,0.0,0.596054019073728,1802.238656271628,60.80000194560001,1.07999910588,0.909993029119776,1024,0.0,98,P-GPS,
0.347651347157742,36.8999751113703,26400,2018-04-04 13:21:58,1802.238656271628,60.80000194560001,0.0,0.598639019156448,1802.238656271628,60.80000194560001,1.07999910588,0.909993029119776,1024,0.0,98,P-GPS,
0.347651361225272,36.8999750641787,26500,2018-04-04 13:21:59,1802.238656271628,60.80000194560001,0.0,0.6033750193080001,1802.238656271628,60.80000194560001,1.07999910588,0.909993029119776,1024,0.0,98,P-GPS,
0.347651377365158,36.8999750503845,26600,2018-04-04 13:21:59,1802.238656271628,60.80000194560001,0.0,0.6044550193425601,1802.238656271628,60.80000194560001,1.07999910588,0.909993029119776,1024,0.0,98,P-GPS,
0.34765140007207,36.8999750227325,26700,2018-04-04 13:21:59,1802.238656271628,60.80000194560001,0.0,0.606881019420192,1802.238656271628,60.80000194560001,1.07999910588,0.909993029119776,1024,0.0,98,P-GPS,
0.34765144222319,36.899975022338,26800,2018-04-04 13:21:59,1802.238656271628,60.80000194560001,0.0,0.6058950193886401,1802.238656271628,60.80000194560001,1.07999910588,0.909993029119776,1024,0.0,98,P-GPS,
0.347651494446475,36.8999750027315,26900,2018-04-04 13:21:59,1802.3386562748278,60.9000019488,0.35999970196000003,0.606801019417632,1802.3386562748278,60.9000019488,1.07999910588,0.909993029119776,1024,0.0,98,P-GPS,
0.347651547191636,36.899975035463,27000,2018-04-04 13:21:59,1802.3386562748278,60.9000019488,0.35999970196000003,0.602052019265664,1802.3386562748278,60.9000019488,1.07999910588,0.909993029119776,1024,0.0,98,P-GPS,
0.347651602405544,36.8999750727837,27100,2018-04-04 13:21:59,1802.3386562748278,60.9000019488,0.35999970196000003,0.596792019097344,1802.3386562748278,60.9000019488,1.07999910588,0.909993029119776,1024,0.0,98,P-GPS,
0.347651648776326,36.8999751440033,27200,2018-04-04 13:21:59,1802.3386562748278,60.9000019488,0.35999970196000003,0.5880500188176,1802.3386562748278,60.9000019488,1.07999910588,0.909993029119776,1024,0.0,98,P-GPS,
0.347651695947845,36.8999751943762,27300,2018-04-04 13:21:59,1802.3386562748278,60.9000019488,0.35999970196000003,0.581596018611072,1802.3386562748278,60.9000019488,1.07999910588,0.909993029119776,1024,0.0,98,P-GPS,
0.347651734646315,36.8999752506712,27400,2018-04-04 13:21:59,1802.3386562748278,60.9000019488,0.35999970196000003,0.574684018389888,1802.3386562748278,60.9000019488,1.07999910588,0.909993029119776,1024,0.0,98,P-GPS,
0.347651730939163,36.8999752993386,27500,2018-04-04 13:22:00,1802.3386562748278,60.9000019488,0.7199994039200001,0.5694230182215361,1802.3386562748278,60.9000019488,1.07999910588,0.909993029119776,1024,0.0,98,P-GPS,
0.347651588628055,36.8999754765217,27600,2018-04-04 13:22:00,1802.3386562748278,60.9000019488,1.295998927056,0.553087017698784,1802.3386562748278,60.9000019488,1.295998927056,0.909993029119776,1024,0.0,98,P-GPS,
0.347651175491622,36.899975863114,27700,2018-04-04 13:22:00,1802.3386562748278,60.9000019488,3.05999746666,0.52331501674608,1802.3386562748278,60.9000019488,3.05999746666,0.909993029119776,1024,0.0,98,P-GPS,
0.347650419865873,36.8999765588759,27800,2018-04-04 13:22:00,1802.3386562748278,60.9000019488,4.571996214892,0.48661001557152,1802.3386562748278,60.9000019488,4.571996214892,0.909993029119776,1024,0.0,98,P-GPS,
0.347649274734284,36.8999775122419,27900,2018-04-04 13:22:00,1802.3386562748278,60.9000019488,6.11999493332,0.48713101558819205,1802.3386562748278,60.9000019488,6.11999493332,0.909993029119776,1024,0.0,98,P-GPS,
0.347647773913682,36.8999786935856,28000,2018-04-04 13:22:00,1802.3386562748278,60.9000019488,7.703993621944,0.569061018209952,1802.3386562748278,60.9000019488,7.703993621944,0.909993029119776,1024,0.0,98,P-GPS,
0.347645903177167,36.8999800704293,28100,2018-04-04 13:22:00,1802.3386562748278,60.9000019488,8.999992549,0.747362023915584,1802.3386562748278,60.9000019488,8.999992549,0.909993029119776,1024,0.0,98,P-GPS,
0.347643786512225,36.8999815775611,28200,2018-04-04 13:22:00,1802.4386562780278,61.000001952,10.295991476055999,0.991694031734208,1802.4386562780278,61.000001952,10.295991476055999,0.991694031734208,1024,0.0,98,P-GPS,
0.347641386934044,36.8999831903089,28300,2018-04-04 13:22:00,1802.4386562780278,61.000001952,11.087990820367999,1.28851004123232,1802.4386562780278,61.000001952,11.087990820367999,1.28851004123232,1024,0.0,98,P-GPS,
0.3476388037716,36.8999848820445,28400,2018-04-04 13:22:00,1802.4386562780278,61.000001952,11.087990820367999,1.61707005174624,1802.4386562780278,61.000001952,11.087990820367999,1.61707005174624,1024,0.0,98,P-GPS,
0.347635977837468,36.8999866185319,28500,2018-04-04 13:22:00,1802.538656281228,61.10000195520001,13.283989002324,1.977750063288,1802.538656281228,61.10000195520001,13.283989002324,1.977750063288,1024,0.0,98,P-GPS,
0.347633006396165,36.8999883977374,28600,2018-04-04 13:22:01,1802.538656281228,61.10000195520001,14.075988346635999,2.357750075448,1802.538656281228,61.10000195520001,14.075988346635999,2.357750075448,1024,0.0,98,P-GPS,
0.347629809203672,36.8999902313364,28700,2018-04-04 13:22:01,1802.538656281228,61.10000195520001,14.867987690948,2.7646200884678405,1802.538656281228,61.10000195520001,14.867987690948,2.7646200884678405,1024,0.0,98,P-GPS,
0.347626424101768,36.8999921919603,28800,2018-04-04 13:22:01,1802.4386562780278,61.000001952,15.695987005456,3.19713010230816,1802.538656281228,61.10000195520001,15.695987005456,3.19713010230816,1024,0.0,98,P-GPS,
0.347622839982838,36.8999942173245,28900,2018-04-04 13:22:01,1802.4386562780278,61.000001952,16.487986349768,3.6533301169065604,1802.538656281228,61.10000195520001,16.487986349768,3.6533301169065604,1024,0.0,98,P-GPS,
0.34761907446339,36.8999963542124,29000,2018-04-04 13:22:01,1802.4386562780278,61.000001952,17.603985425844,4.1334401322700804,1802.538656281228,61.10000195520001,17.603985425844,4.1334401322700804,1024,0.0,98,P-GPS,
0.347615073115938,36.8999985612749,29100,2018-04-04 13:22:01,1802.4386562780278,61.000001952,18.395984770156,4.64084014850688,1802.538656281228,61.10000195520001,18.395984770156,4.64084014850688,1024,0.0,98,P-GPS,
0.347610877263879,36.9000008902962,29200,2018-04-04 13:22:01,1802.4386562780278,61.000001952,19.187984114467998,5.17378016556096,1802.538656281228,61.10000195520001,19.187984114467998,5.17378016556096,1024,0.0,98,P-GPS,
0.347606448342401,36.9000033140369,29300,2018-04-04 13:22:01,1802.3386562748278,60.9000019488,20.015983428976,5.734750183512,1802.538656281228,61.10000195520001,20.015983428976,5.734750183512,1024,0.0,98,P-GPS,
0.34760183263514,36.9000058897175,29400,2018-04-04 13:22:01,1802.3386562748278,60.9000019488,20.807982773288,6.32196020230272,1802.538656281228,61.10000195520001,20.807982773288,6.32196020230272,1024,0.0,98,P-GPS,
