latitude,longitude,time_millisecond,datetime_utc,altitude_m,ascent_m,speed_kph,distance_m,max_altitude_m,max_ascent_m,max_speed_kph,max_distance_m,rc_throttle,gimbal_pitch_degrees,battery_percent,flycState,message
0.36469246582622,36.925784649289,0,2018-04-03 07:41:49,1628.44011561007,0.0,0.0,0.0,1628.44011561007,0.0,0.0,0.0,364,0.0,98,Motors_Started,
0.364692512326845,36.9257845502436,100,2018-04-03 07:41:49,1628.44011561007,0.0,0.0,0.012167700389366399,1628.44011561007,0.0,0.0,0.012167700389366399,364,0.0,98,Motors_Started,
0.364692563528789,36.925784467598,200,2018-04-03 07:41:49,1628.44011561007,0.0,0.0,0.0229408007341056,1628.44011561007,0.0,0.0,0.0229408007341056,364,0.0,98,Motors_Started,
0.364692614264997,36.9257843953846,300,2018-04-03 07:41:49,1628.44011561007,0.0,0.0,0.032706501046608,1628.44011561007,0.0,0.0,0.032706501046608,364,0.0,98,Motors_Started,
0.364692666748526,36.9257843178223,400,2018-04-03 07:41:49,1628.44011561007,0.0,0.0,0.043103701379318404,1628.44011561007,0.0,0.0,0.043103701379318404,364,0.0,98,Motors_Started,
0.3646927180038,36.9257842337902,500,2018-04-03 07:41:49,1628.44011561007,0.0,0.0,0.054049601729587206,1628.44011561007,0.0,0.0,0.054049601729587206,364,0.0,98,Motors_Started,
0.36469277093515096,36.925784141860206,600,2018-04-03 07:41:49,1628.44011561007,0.0,0.0,0.06584350210699201,1628.44011561007,0.0,0.0,0.06584350210699201,364,0.0,98,Motors_Started,
0.36469282271437803,36.9257840477547,700,2018-04-03 07:41:50,1628.44011561007,0.0,0.0,0.077780502488976,1628.44011561007,0.0,0.0,0.077780502488976,364,0.0,98,Motors_Started,Setting new Return-To-Home altitude to 45m (148 ft). Setting new Maximum Flight Altitude to 150m (492 ft)
0.364692876047954,36.9257839687331,800,2018-04-03 07:41:50,1628.44011561007,0.0,0.0,0.088366502827728,1628.44011561007,0.0,0.0,0.088366502827728,364,0.0,98,Motors_Started,
0.364692927154634,36.9257838982498,900,2018-04-03 07:41:50,1628.44011561007,0.0,0.0,0.0980167031365344,1628.44011561007,0.0,0.0,0.0980167031365344,364,0.0,98,Motors_Started,
0.36469297921639504,36.9257838446138,1000,2018-04-03 07:41:50,1628.44011561007,0.0,0.0,0.10614500339664001,1628.44011561007,0.0,0.0,0.10614500339664001,364,0.0,98,Motors_Started,
0.364693029521473,36.925783790642704,1100,2018-04-03 07:41:50,1628.44011561007,0.0,0.0,0.114223003655136,1628.44011561007,0.0,0.0,0.114223003655136,368,0.0,98,Motors_Started,
0.364693060866984,36.9257837510629,1200,2018-04-03 07:41:50,1628.44011561007,0.0,0.0,0.119817003834144,1628.44011561007,0.0,0.0,0.119817003834144,600,0.0,98,Motors_Started,
0.364693086134736,36.925783708672704,1300,2018-04-03 07:41:50,1628.44011561007,0.0,0.0,0.125299004009568,1628.44011561007,0.0,0.0,0.125299004009568,1024,0.0,98,Motors_Started,
0.36469310462246,36.9257836777692,1400,2018-04-03 07:41:50,1628.44011561007,0.0,0.0,0.129299004137568,1628.44011561007,0.0,0.0,0.129299004137568,1024,0.0,98,Motors_Started,
0.36469313807599296,36.9257836378114,1500,2018-04-03 07:41:50,1628.44011561007,0.0,0.0,0.135058004321856,1628.44011561007,0.0,0.0,0.135058004321856,1024,0.0,98,Assisted_Takeoff,
0.364693174868242,36.9257835836797,1600,2018-04-03 07:41:51,1628.44011561007,0.0,0.0,0.142336004554752,1628.44011561007,0.0,0.0,0.142336004554752,1024,0.0,98,Assisted_Takeoff,
0.364693218452324,36.92578351633011,1700,2018-04-03 07:41:51,1628.44011561007,0.0,0.0,0.151256004840192,1628.44011561007,0.0,0.0,0.151256004840192,1024,0.0,98,Assisted_Takeoff,
0.364693239601334,36.9257834722943,1800,2018-04-03 07:41:51,1628.44011561007,0.0,0.0,0.156638005012416,1628.44011561007,0.0,0.0,0.156638005012416,1024,0.0,98,Assisted_Takeoff,
0.364693256589261,36.9257834427045,1900,2018-04-03 07:41:51,1628.44011561007,0.0,0.0,0.16042600513363198,1628.44011561007,0.0,0.0,0.16042600513363198,1024,0.0,98,Assisted_Takeoff,
0.364693274551406,36.9257834204848,2000,2018-04-03 07:41:51,1628.44011561007,0.0,0.0,0.16358800523481598,1628.44011561007,0.0,0.0,0.16358800523481598,1024,0.0,98,Assisted_Takeoff,
0.364693303326418,36.9257833867506,2100,2018-04-03 07:41:51,1628.44011561007,0.0,0.0,0.16848200539142402,1628.44011561007,0.0,0.0,0.16848200539142402,1024,0.0,98,Assisted_Takeoff,
0.36469331592731796,36.92578335656221,2200,2018-04-03 07:41:51,1628.44011561007,0.0,0.0,0.17205500550576,1628.44011561007,0.0,0.0,0.17205500550576,1024,0.0,98,Assisted_Takeoff,
0.364693324996937,36.925783319099004,2300,2018-04-03 07:41:51,1628.44011561007,0.0,0.0,0.176096005635072,1628.44011561007,0.0,0.0,0.176096005635072,1039,0.0,98,Assisted_Takeoff,
0.36469334159688793,36.9257832817814,2400,2018-04-03 07:41:51,1628.44011561007,0.0,0.0,0.18058500577872,1628.44011561007,0.0,0.0,0.18058500577872,1076,0.0,98,Assisted_Takeoff,
0.36469336951330295,36.925783239916896,2500,2018-04-03 07:41:51,1628.44011561007,0.0,0.0,0.18618000595776,1628.44011561007,0.0,0.0,0.18618000595776,1141,0.0,98,Assisted_Takeoff,
0.364693385292925,36.9257832194916,2600,2018-04-03 07:41:51,1628.44011561007,0.0,0.0,0.18903900604924803,1628.44011561007,0.0,0.0,0.18903900604924803,1147,0.0,98,Assisted_Takeoff,
0.364693396298357,36.925783204546796,2700,2018-04-03 07:41:52,1628.44011561007,0.0,0.0,0.191099006115168,1628.44011561007,0.0,0.0,0.191099006115168,1140,0.0,98,Assisted_Takeoff,
0.36469341619590706,36.9257831877616,2800,2018-04-03 07:41:52,1628.44011561007,0.0,0.0,0.19386800620377603,1628.44011561007,0.0,0.0,0.19386800620377603,1149,0.0,98,Assisted_Takeoff,
0.3646934457505371,36.9257831589854,2900,2018-04-03 07:41:52,1628.44011561007,0.0,0.0,0.19834500634704,1628.44011561007,0.0,0.0,0.19834500634704,1174,0.0,98,Assisted_Takeoff,
0.36469346585408596,36.925783124875394,3000,2018-04-03 07:41:52,1628.44011561007,0.0,0.0,0.20274300648777602,1628.44011561007,0.0,0.0,0.20274300648777602,1177,0.0,98,Assisted_Takeoff,
0.3646934785738621,36.9257830856456,3100,2018-04-03 07:41:52,1628.44011561007,0.0,0.0,0.20717000662944002,1628.44011561007,0.0,0.0,0.20717000662944002,1168,0.0,98,Assisted_Takeoff,
0.36469350216472296,36.9257830392299,3200,2018-04-03 07:41:52,1628.44011561007,0.0,0.0,0.212929006813728,1628.44011561007,0.0,0.0,0.212929006813728,1155,0.0,98,Assisted_Takeoff,
0.364693522985601,36.9257829977155,3300,2018-04-03 07:41:52,1628.44011561007,0.0,0.0,0.21806500697808,1628.44011561007,0.0,0.0,0.21806500697808,1162,0.0,98,Assisted_Takeoff,
0.364693508394335,36.9257829726586,3400,2018-04-03 07:41:52,1628.44011561007,0.0,0.35999970196000003,0.219556007025792,1628.44011561007,0.0,0.35999970196000003,0.219556007025792,1181,0.0,98,Assisted_Takeoff,
0.36469342426810397,36.9257829789207,3500,2018-04-03 07:41:52,1628.44011561007,0.0,0.35999970196000003,0.214158006853056,1628.44011561007,0.0,0.35999970196000003,0.219556007025792,1214,0.0,98,Assisted_Takeoff,
0.36469325812732706,36.92578296909021,3600,2018-04-03 07:41:53,1628.44011561007,0.0,0.35999970196000003,0.206577006610464,1628.44011561007,0.0,0.35999970196000003,0.219556007025792,1244,0.0,98,P-GPS,Obstacle Avoided. Revise Flight Route
0.36469304855839096,36.9257829412166,3700,2018-04-03 07:41:53,1628.44011561007,0.0,0.35999970196000003,0.20069500642224003,1628.44011561007,0.0,0.35999970196000003,0.219556007025792,1226,0.0,98,P-GPS,
0.36469284691346293,36.925782886647,3800,2018-04-03 07:41:53,1628.44011561007,0.0,0.35999970196000003,0.20054200641734404,1628.44011561007,0.0,0.35999970196000003,0.219556007025792,1227,0.0,98,P-GPS,Home Point Recorded. RTH Altitude:  45m.
0.36469269210136296,36.9257828334339,3900,2018-04-03 07:41:53,1628.5401156132698,0.10000000320000002,0.35999970196000003,0.20349200651174404,1628.5401156132698,0.10000000320000002,0.35999970196000003,0.219556007025792,1245,0.0,98,P-GPS,
0.364692577916906,36.925782786101706,4000,2018-04-03 07:41:53,1628.5401156132698,0.10000000320000002,0.35999970196000003,0.207568006642176,1628.5401156132698,0.10000000320000002,0.35999970196000003,0.219556007025792,1234,0.0,98,P-GPS,
0.36469250541125103,36.92578275919271,4100,2018-04-03 07:41:53,1628.6401156164702,0.20000000640000004,0.35999970196000003,0.21023200672742404,1628.6401156164702,0.20000000640000004,0.35999970196000003,0.219556007025792,1351,0.0,98,P-GPS,
0.364692467837755,36.92578267107189,4300,2018-04-03 07:41:53,1628.74011561967,0.3000000096,0.0,0.21998500703952,1628.74011561967,0.3000000096,0.35999970196000003,0.21998500703952,1351,0.0,98,P-GPS,
0.364692522681714,36.925782606037004,4400,2018-04-03 07:41:53,1628.84011562287,0.4000000128000001,0.0,0.22730500727376002,1628.84011562287,0.4000000128000001,0.35999970196000003,0.22730500727376002,1404,0.0,98,P-GPS,
0.364692600657719,36.9257825108052,4500,2018-04-03 07:41:53,1628.9401156260699,0.500000016,0.0,0.23828000762496,1628.9401156260699,0.500000016,0.35999970196000003,0.23828000762496,1376,0.0,98,P-GPS,
0.364692685893327,36.925782377579104,4600,2018-04-03 07:41:53,1629.04011562927,0.6000000192,0.0,0.25380500812176005,1629.04011562927,0.6000000192,0.35999970196000003,0.25380500812176005,1333,0.0,98,P-GPS,
0.364692749602535,36.925782223530504,4700,2018-04-03 07:41:54,1629.24011563567,0.8000000256000002,0.0,0.271593008690976,1629.24011563567,0.8000000256000002,0.35999970196000003,0.271593008690976,1358,0.0,98,P-GPS,
0.364692793634032,36.9257820935506,4800,2018-04-03 07:41:54,1629.4401156420702,1.000000032,0.0,0.28653600916915195,1629.4401156420702,1.000000032,0.35999970196000003,0.28653600916915195,1358,0.0,98,P-GPS,
0.364692825120811,36.925781970291,4900,2018-04-03 07:41:54,1629.6401156484699,1.2000000384,0.0,0.300582009618624,1629.6401156484699,1.2000000384,0.35999970196000003,0.300582009618624,1363,0.0,98,P-GPS,
0.364692823949146,36.9257818447777,5000,2018-04-03 07:41:54,1629.84011565487,1.4000000448000003,0.0,0.31440501006095994,1629.84011565487,1.4000000448000003,0.35999970196000003,0.31440501006095994,1351,0.0,98,P-GPS,
0.36469283153403104,36.9257817031366,5100,2018-04-03 07:41:54,1630.04011566127,1.6000000512000003,0.0,0.33013801056441605,1630.04011566127,1.6000000512000003,0.35999970196000003,0.33013801056441605,1334,0.0,98,P-GPS,
0.3646928722455379,36.9257816094379,5200,2018-04-03 07:41:54,1630.2401156676701,1.8000000576000001,0.0,0.34105101091363205,1630.2401156676701,1.8000000576000001,0.35999970196000003,0.34105101091363205,1353,0.0,98,P-GPS,
0.364692962219104,36.925781539169705,5300,2018-04-03 07:41:54,1630.34011567087,1.9000000607999998,0.0,0.35023501120752004,1630.34011567087,1.9000000607999998,0.35999970196000003,0.35023501120752004,1376,0.0,98,P-GPS,
0.36469303054413604,36.9257815608766,5400,2018-04-03 07:41:54,1630.54011567727,2.1000000672,0.0,0.34913801117241605,1630.54011567727,2.1000000672,0.35999970196000003,0.35023501120752004,1383,0.0,98,P-GPS,
0.3646930761442321,36.9257815859538,5500,2018-04-03 07:41:54,1630.74011568367,2.3000000736,0.0,0.34735001111520003,1630.74011568367,2.3000000736,0.35999970196000003,0.35023501120752004,1376,0.0,98,P-GPS,
0.364693059114372,36.9257816583696,5600,2018-04-03 07:41:55,1630.9401156900701,2.50000008,0.0,0.339082010850624,1630.9401156900701,2.50000008,0.35999970196000003,0.35023501120752004,1368,0.0,98,P-GPS,
0.36469303231669703,36.925781690166,5700,2018-04-03 07:41:55,1631.14011569647,2.7000000863999998,0.0,0.335042010721344,1631.14011569647,2.7000000863999998,0.35999970196000003,0.35023501120752004,1378,0.0,98,P-GPS,
0.36469295549566605,36.925781741185396,5800,2018-04-03 07:41:55,1631.34011570287,2.9000000928,0.0,0.32794501049424,1631.34011570287,2.9000000928,0.35999970196000003,0.35023501120752004,1395,0.0,98,P-GPS,
0.36469286783856103,36.9257817489613,5900,2018-04-03 07:41:55,1631.54011570927,3.1000000992,0.0,0.325611010419552,1631.54011570927,3.1000000992,0.35999970196000003,0.35023501120752004,1392,0.0,98,P-GPS,
0.3646927628829029,36.925781753781294,6000,2018-04-03 07:41:55,1631.74011571567,3.3000001056,0.35999970196000003,0.32368201035782396,1631.74011571567,3.3000001056,0.35999970196000003,0.35023501120752004,1396,0.0,98,P-GPS,
0.36469268486333706,36.925781727743704,6100,2018-04-03 07:41:55,1631.94011572207,3.500000112,0.35999970196000003,0.325799010425568,1631.94011572207,3.500000112,0.35999970196000003,0.35023501120752004,1399,0.0,98,P-GPS,
0.364692605826807,36.9257816791396,6200,2018-04-03 07:41:55,1632.1401157284702,3.7000001184,0.35999970196000003,0.33065901058108804,1632.1401157284702,3.7000001184,0.35999970196000003,0.35023501120752004,1398,0.0,98,P-GPS,
0.36469255243420007,36.925781591506,6300,2018-04-03 07:41:55,1632.3401157348699,3.9000001248,0.35999970196000003,0.340174010885568,1632.3401157348699,3.9000001248,0.35999970196000003,0.35023501120752004,1399,0.0,98,P-GPS,
0.36469252111637196,36.9257814869544,6400,2018-04-03 07:41:55,1632.54011574127,4.100000131200001,0.35999970196000003,0.35171801125497604,1632.54011574127,4.100000131200001,0.35999970196000003,0.35171801125497604,1402,0.0,98,P-GPS,
0.36469250321570096,36.9257813795261,6500,2018-04-03 07:41:55,1632.74011574767,4.3000001376,0.35999970196000003,0.363634011636288,1632.74011574767,4.3000001376,0.35999970196000003,0.363634011636288,1404,0.0,98,P-GPS,
0.364692511565955,36.9257812404566,6600,2018-04-03 07:41:56,1632.9401157540701,4.5000001439999995,0.35999970196000003,0.379109012131488,1632.9401157540701,4.5000001439999995,0.35999970196000003,0.379109012131488,1404,0.0,98,P-GPS,
0.36469251834190997,36.9257811232417,6700,2018-04-03 07:41:56,1633.24011576367,4.8000001536,0.0,0.39215401254892807,1633.24011576367,4.8000001536,0.35999970196000003,0.39215401254892807,1404,0.0,98,P-GPS,
0.36469253635250104,36.9257810226214,6800,2018-04-03 07:41:56,1633.44011577007,5.00000016,0.0,0.403376012908032,1633.44011577007,5.00000016,0.35999970196000003,0.403376012908032,1409,0.0,98,P-GPS,
0.36469253840311894,36.9257809556701,6900,2018-04-03 07:41:56,1633.64011577647,5.200000166400001,0.0,0.410824013146368,1633.64011577647,5.200000166400001,0.35999970196000003,0.410824013146368,1407,0.0,98,P-GPS,
0.36469252367547206,36.925780898804,7000,2018-04-03 07:41:56,1633.84011578287,5.4000001727999996,0.0,0.41711801334777604,1633.84011578287,5.4000001727999996,0.35999970196000003,0.41711801334777604,1412,0.0,98,P-GPS,
0.36469248837772705,36.925780855529496,7100,2018-04-03 07:41:56,1634.14011579247,5.7000001824,0.0,0.42188801350041605,1634.14011579247,5.7000001824,0.35999970196000003,0.42188801350041605,1415,0.0,98,P-GPS,
0.36469246709314895,36.9257808164732,7200,2018-04-03 07:41:56,1634.3401157988699,5.9000001888,0.0,0.42622401363916806,1634.3401157988699,5.9000001888,0.35999970196000003,0.42622401363916806,1419,0.0,98,P-GPS,
0.364692447646271,36.9257807797144,7300,2018-04-03 07:41:56,1634.54011580527,6.1000001952,0.0,0.430316013770112,1634.54011580527,6.1000001952,0.35999970196000003,0.430316013770112,1421,0.0,98,P-GPS,
0.364692409193416,36.9257807499619,7400,2018-04-03 07:41:56,1634.8401158148702,6.400000204800001,0.0,0.4336660138773121,1634.8401158148702,6.400000204800001,0.35999970196000003,0.4336660138773121,1420,0.0,98,P-GPS,
0.36469236055098,36.9257807328415,7500,2018-04-03 07:41:56,1635.0401158212699,6.6000002112,0.0,0.435681013941792,1635.0401158212699,6.6000002112,0.35999970196000003,0.435681013941792,1420,0.0,98,P-GPS,
0.364692314569014,36.9257806975849,7600,2018-04-03 07:41:56,1635.24011582767,6.800000217600001,0.0,0.439766014072512,1635.24011582767,6.800000217600001,0.35999970196000003,0.439766014072512,1427,0.0,98,P-GPS,
0.36469228958461203,36.9257806534967,7700,2018-04-03 07:41:57,1635.5401158372702,7.100000227200002,0.0,0.444779014232928,1635.5401158372702,7.100000227200002,0.35999970196000003,0.444779014232928,1431,0.0,98,P-GPS,
0.36469228457999603,36.9257806230493,7800,2018-04-03 07:41:57,1635.7401158436699,7.3000002336000005,0.0,0.448187014341984,1635.7401158436699,7.3000002336000005,0.35999970196000003,0.448187014341984,1419,0.0,98,P-GPS,
0.364692293882075,36.925780614416794,7900,2018-04-03 07:41:57,1635.94011585007,7.50000024,0.0,0.44910101437123195,1635.94011585007,7.50000024,0.35999970196000003,0.44910101437123195,1412,0.0,98,P-GPS,
0.36469231050889594,36.925780596515004,8000,2018-04-03 07:41:57,1636.24011585967,7.8000002496,0.0,0.45101501443248,1636.24011585967,7.8000002496,0.35999970196000003,0.45101501443248,1488,0.0,98,P-GPS,
0.36469234331430705,36.9257805650173,8100,2018-04-03 07:41:57,1636.44011586607,8.000000256,0.0,0.45439101454051195,1636.44011586607,8.000000256,0.35999970196000003,0.45439101454051195,1519,0.0,98,P-GPS,
0.364692377750605,36.9257805475158,8200,2018-04-03 07:41:57,1636.74011587567,8.3000002656,0.0,0.45623801459961605,1636.74011587567,8.3000002656,0.35999970196000003,0.45623801459961605,1482,0.0,98,P-GPS,
0.364692418568368,36.9257805358867,8300,2018-04-03 07:41:57,1636.94011588207,8.500000272000001,0.0,0.457456014638592,1636.94011588207,8.500000272000001,0.35999970196000003,0.457456014638592,1500,0.0,98,P-GPS,
0.364692463573675,36.925780485318,8400,2018-04-03 07:41:57,1637.24011589167,8.8000002816,0.0,0.4630500148176,1637.24011589167,8.8000002816,0.35999970196000003,0.4630500148176,1480,0.0,98,P-GPS,
0.364692514394155,36.925780424756205,8500,2018-04-03 07:41:57,1637.54011590127,9.1000002912,0.0,0.46981501503408,1637.54011590127,9.1000002912,0.35999970196000003,0.46981501503408,1471,0.0,98,P-GPS,
0.36469258115506703,36.9257804125425,8600,2018-04-03 07:41:58,1637.84011591087,9.400000300800002,0.0,0.471317015082144,1637.84011591087,9.400000300800002,0.35999970196000003,0.471317015082144,1485,0.0,98,P-GPS,
0.364692648319832,36.925780425718706,8700,2018-04-03 07:41:58,1638.14011592047,9.7000003104,0.0,0.47011601504371203,1638.14011592047,9.7000003104,0.35999970196000003,0.471317015082144,1490,0.0,98,P-GPS,
0.364692689297997,36.9257804873897,8800,2018-04-03 07:41:58,1638.4401159300699,10.00000032,0.0,0.46348601483155205,1638.4401159300699,10.00000032,0.35999970196000003,0.471317015082144,1519,0.0,98,P-GPS,
0.36469270299239703,36.925780559609606,8900,2018-04-03 07:41:58,1638.74011593967,10.300000329600001,0.0,0.455552014577664,1638.74011593967,10.300000329600001,0.35999970196000003,0.471317015082144,1524,0.0,98,P-GPS,
0.36469271620966204,36.9257806222474,9000,2018-04-03 07:41:58,1639.04011594927,10.6000003392,0.0,0.448687014357984,1639.04011594927,10.6000003392,0.35999970196000003,0.471317015082144,1519,0.0,98,P-GPS,
0.364692737351751,36.9257806672178,9100,2018-04-03 07:41:58,1639.3401159588698,10.9000003488,0.0,0.4438500142032001,1639.3401159588698,10.9000003488,0.35999970196000003,0.471317015082144,1522,0.0,98,P-GPS,
0.36469275613870206,36.9257807009927,9200,2018-04-03 07:41:58,1639.64011596847,11.200000358400002,0.0,0.440251014088032,1639.64011596847,11.200000358400002,0.35999970196000003,0.471317015082144,1522,0.0,98,P-GPS,
0.36469277249967896,36.925780731798795,9300,2018-04-03 07:41:58,1639.94011597807,11.500000367999998,0.0,0.43697301398313604,1639.94011597807,11.500000367999998,0.35999970196000003,0.471317015082144,1535,0.0,98,P-GPS,
0.364692771677315,36.9257807604058,9400,2018-04-03 07:41:58,1640.34011599087,11.900000380800002,0.0,0.43379401388140804,1640.34011599087,11.900000380800002,0.35999970196000003,0.471317015082144,1534,0.0,98,P-GPS,
0.36469275705877297,36.9257807849455,9500,2018-04-03 07:41:58,1640.64011600047,12.2000003904,0.0,0.430949013790368,1640.64011600047,12.2000003904,0.35999970196000003,0.471317015082144,1540,0.0,98,P-GPS,
0.364692742892939,36.9257808144379,9600,2018-04-03 07:41:58,1641.04011601327,12.600000403200003,0.0,0.42756201368198404,1641.04011601327,12.600000403200003,0.35999970196000003,0.471317015082144,1530,0.0,98,P-GPS,
0.3646927513970801,36.925780823696705,9700,2018-04-03 07:41:59,1641.34011602287,12.900000412799999,0.0,0.426604013651328,1641.34011602287,12.900000412799999,0.35999970196000003,0.471317015082144,1504,0.0,98,P-GPS,
0.36469273705455996,36.925780807287204,9800,2018-04-03 07:41:59,1641.74011603567,13.3000004256,0.0,0.42830901370588803,1641.74011603567,13.3000004256,0.35999970196000003,0.471317015082144,1486,0.0,98,P-GPS,
0.364692699827516,36.9257807759309,9900,2018-04-03 07:41:59,1642.14011604847,13.7000004384,0.0,0.431518013808576,1642.14011604847,13.7000004384,0.35999970196000003,0.471317015082144,1515,0.0,98,P-GPS,
0.36469264865691997,36.925780720011204,10000,2018-04-03 07:41:59,1642.44011605807,14.000000448,0.0,0.43742401399756803,1642.44011605807,14.000000448,0.35999970196000003,0.471317015082144,1520,0.0,98,P-GPS,
0.36469260459733205,36.9257806618047,10100,2018-04-03 07:41:59,1642.8401160708702,14.400000460800001,0.0,0.44369201419814397,1642.8401160708702,14.400000460800001,0.35999970196000003,0.471317015082144,1505,0.0,98,P-GPS,
0.364692564031978,36.9257805936082,10200,2018-04-03 07:41:59,1643.24011608367,14.8000004736,0.0,0.45113901443644805,1643.24011608367,14.8000004736,0.35999970196000003,0.471317015082144,1505,0.0,98,P-GPS,
0.364692514379092,36.9257805143115,10300,2018-04-03 07:41:59,1643.54011609327,15.100000483200002,0.0,0.459857014715424,1643.54011609327,15.100000483200002,0.35999970196000003,0.471317015082144,1519,0.0,98,P-GPS,
0.36469241998104296,36.92578041488721,10400,2018-04-03 07:41:59,1643.9401161060698,15.500000496,0.0,0.47090901506908805,1643.9401161060698,15.500000496,0.35999970196000003,0.471317015082144,1542,0.0,98,P-GPS,
0.36469230656602597,36.9257803296046,10500,2018-04-03 07:41:59,1644.24011611567,15.8000005056,0.0,0.480692015382144,1644.24011611567,15.8000005056,0.35999970196000003,0.480692015382144,1526,0.0,98,P-GPS,
0.36469219499603495,36.9257802469794,10600,2018-04-03 07:42:00,1644.6401161284698,16.2000005184,0.0,0.490479015695328,1644.6401161284698,16.2000005184,0.35999970196000003,0.490479015695328,1529,0.0,98,P-GPS,
0.364692100671266,36.9257801576328,10700,2018-04-03 07:42:00,1645.04011614127,16.6000005312,0.0,0.5011370160363839,1645.04011614127,16.6000005312,0.35999970196000003,0.5011370160363839,1527,0.0,97,P-GPS,
0.3646920253764939,36.9257800500042,10800,2018-04-03 07:42:00,1645.34011615087,16.900000540799997,0.0,0.513798016441536,1645.34011615087,16.900000540799997,0.35999970196000003,0.513798016441536,1521,0.0,97,P-GPS,
0.36469198624824206,36.9257799411605,10900,2018-04-03 07:42:00,1645.7401161636699,17.3000005536,0.0,0.5262710168406721,1645.7401161636699,17.3000005536,0.35999970196000003,0.5262710168406721,1522,0.0,97,P-GPS,
0.364691945194761,36.9257798606069,11000,2018-04-03 07:42:00,1646.14011617647,17.700000566400004,0.0,0.535658017141056,1646.14011617647,17.700000566400004,0.35999970196000003,0.535658017141056,1511,0.0,97,P-GPS,
0.36469189667893603,36.9257798096314,11100,2018-04-03 07:42:00,1646.5401161892698,18.100000579200003,0.0,0.541897017340704,1646.5401161892698,18.100000579200003,0.35999970196000003,0.541897017340704,1495,0.0,97,P-GPS,
0.36469183778056,36.925779750671204,11200,2018-04-03 07:42:00,1646.94011620207,18.500000592000003,0.0,0.549204017574528,1646.94011620207,18.500000592000003,0.35999970196000003,0.549204017574528,1494,0.0,97,P-GPS,
0.364691785134594,36.9257796851941,11300,2018-04-03 07:42:00,1647.2401162116698,18.800000601600004,0.0,0.557192017830144,1647.2401162116698,18.800000601600004,0.35999970196000003,0.557192017830144,1511,0.0,97,P-GPS,
0.36469171570629105,36.9257796288719,11400,2018-04-03 07:42:00,1647.64011622447,19.2000006144,0.0,0.564487018063584,1647.64011622447,19.2000006144,0.35999970196000003,0.564487018063584,1502,0.0,97,P-GPS,
0.364691661220183,36.925779589952604,11500,2018-04-03 07:42:00,1647.94011623407,19.500000624000002,0.0,0.569688018230016,1647.94011623407,19.500000624000002,0.35999970196000003,0.569688018230016,1485,0.0,97,P-GPS,
0.364691621859878,36.9257795544594,11600,2018-04-03 07:42:00,1648.34011624687,19.900000636800005,0.0,0.5742860183771521,1648.34011624687,19.900000636800005,0.35999970196000003,0.5742860183771521,1487,0.0,97,P-GPS,
0.364691598240519,36.92577952051,11700,2018-04-03 07:42:01,1648.74011625967,20.3000006496,0.0,0.578443018510176,1648.74011625967,20.3000006496,0.35999970196000003,0.578443018510176,1466,0.0,97,P-GPS,
0.36469159534596,36.9257794909554,11800,2018-04-03 07:42:01,1649.0401162692701,20.600000659200003,0.0,0.581737018615584,1649.0401162692701,20.600000659200003,0.35999970196000003,0.581737018615584,1479,0.0,97,P-GPS,
0.364691616052846,36.9257794540383,11900,2018-04-03 07:42:01,1649.44011628207,21.000000672,0.0,0.58541001873312,1649.44011628207,21.000000672,0.35999970196000003,0.58541001873312,1478,0.0,97,P-GPS,
0.364691637331317,36.9257794238521,12000,2018-04-03 07:42:01,1649.7401162916701,21.300000681600004,0.0,0.588347018827104,1649.7401162916701,21.300000681600004,0.35999970196000003,0.588347018827104,1476,0.0,97,P-GPS,
0.36469166452796004,36.9257794024064,12100,2018-04-03 07:42:01,1650.14011630447,21.700000694400003,0.0,0.590239018887648,1650.14011630447,21.700000694400003,0.35999970196000003,0.590239018887648,1479,0.0,97,P-GPS,
0.36469167279923403,36.9257793768432,12200,2018-04-03 07:42:01,1650.4401163140699,22.000000704000005,0.0,0.592912018973184,1650.4401163140699,22.000000704000005,0.35999970196000003,0.592912018973184,1479,0.0,97,P-GPS,
0.36469166370396794,36.9257793666616,12300,2018-04-03 07:42:01,1650.74011632367,22.3000007136,0.0,0.594182019013824,1650.74011632367,22.3000007136,0.35999970196000003,0.594182019013824,1473,0.0,97,P-GPS,
0.36469160287547797,36.925779355737,12400,2018-04-03 07:42:01,1651.04011633327,22.6000007232,0.0,0.5964340190858879,1651.04011633327,22.6000007232,0.35999970196000003,0.5964340190858879,1468,0.0,97,P-GPS,
0.364691540022425,36.9257793469407,12500,2018-04-03 07:42:01,1651.44011634607,23.000000735999997,0.0,0.598562019153984,1651.44011634607,23.000000735999997,0.35999970196000003,0.598562019153984,1481,0.0,97,P-GPS,
0.36469148622026293,36.9257793479824,12600,2018-04-03 07:42:02,1651.74011635567,23.300000745600002,0.0,0.5995060191841921,1651.74011635567,23.300000745600002,0.35999970196000003,0.5995060191841921,1489,0.0,97,P-GPS,
0.3646914620952729,36.9257793831117,12700,2018-04-03 07:42:02,1652.04011636527,23.6000007552,0.0,0.596162019077184,1652.04011636527,23.6000007552,0.35999970196000003,0.5995060191841921,1488,0.0,97,P-GPS,
0.364691438571992,36.925779418427204,12800,2018-04-03 07:42:02,1652.34011637487,23.9000007648,0.0,0.5928030189696961,1652.34011637487,23.9000007648,0.35999970196000003,0.5995060191841921,1484,0.0,97,P-GPS,
0.364691438507261,36.9257794539119,12900,2018-04-03 07:42:02,1652.6401163844698,24.2000007744,0.0,0.588933018845856,1652.6401163844698,24.2000007744,0.35999970196000003,0.5995060191841921,1481,0.0,97,P-GPS,
0.364691427485545,36.925779493117,13000,2018-04-03 07:42:02,1653.04011639727,24.600000787200003,0.0,0.5848970187167041,1653.04011639727,24.600000787200003,0.35999970196000003,0.5995060191841921,1462,0.0,97,P-GPS,
0.36469140522675103,36.9257795374258,13100,2018-04-03 07:42:02,1653.34011640687,24.9000007968,0.0,0.5805660185781121,1653.34011640687,24.9000007968,0.35999970196000003,0.5995060191841921,1469,0.0,97,P-GPS,
0.364691363270706,36.9257795723195,13200,2018-04-03 07:42:02,1653.74011641967,25.3000008096,0.0,0.577739018487648,1653.74011641967,25.3000008096,0.35999970196000003,0.5995060191841921,1476,0.0,97,P-GPS,
0.36469131334872,36.9257796163499,13300,2018-04-03 07:42:02,1654.04011642927,25.600000819200005,0.0,0.574169018373408,1654.04011642927,25.600000819200005,0.35999970196000003,0.5995060191841921,1481,0.0,97,P-GPS,
0.36469123922764896,36.925779661395204,13400,2018-04-03 07:42:02,1654.44011644207,26.000000832,0.0,0.5711990182783679,1654.44011644207,26.000000832,0.35999970196000003,0.5995060191841921,1468,0.0,97,P-GPS,
0.364691165468499,36.9257797039653,13500,2018-04-03 07:42:02,1654.74011645167,26.300000841600003,0.0,0.568634018196288,1654.74011645167,26.300000841600003,0.35999970196000003,0.5995060191841921,1487,0.0,97,P-GPS,
0.364691071004091,36.9257797372595,13600,2018-04-03 07:42:02,1655.14011646447,26.700000854400002,0.0,0.567833018170656,1655.14011646447,26.700000854400002,0.35999970196000003,0.5995060191841921,1481,0.0,97,P-GPS,
0.36469098711398495,36.925779753947296,13700,2018-04-03 07:42:03,1655.44011647407,27.000000864000004,0.0,0.5686750181976,1655.44011647407,27.000000864000004,0.35999970196000003,0.5995060191841921,1460,0.0,97,P-GPS,
0.364690911826948,36.925779761588295,13800,2018-04-03 07:42:03,1655.74011648367,27.3000008736,0.0,0.570343018250976,1655.74011648367,27.3000008736,0.35999970196000003,0.5995060191841921,1463,0.0,97,P-GPS,
0.364690837990447,36.9257797576645,13900,2018-04-03 07:42:03,1656.04011649327,27.6000008832,0.0,0.5732980183455361,1656.04011649327,27.6000008832,0.35999970196000003,0.5995060191841921,1393,0.0,97,P-GPS,
0.364690753888235,36.9257797802204,14000,2018-04-03 07:42:03,1656.34011650287,27.9000008928,0.0,0.573953018366496,1656.34011650287,27.9000008928,0.35999970196000003,0.5995060191841921,1415,0.0,97,P-GPS,
0.364690676973568,36.925779823826794,14100,2018-04-03 07:42:03,1656.64011651247,28.200000902400003,0.0,0.572297018313504,1656.64011651247,28.200000902400003,0.35999970196000003,0.5995060191841921,1427,0.0,97,P-GPS,
0.364690585675874,36.9257798945317,14200,2018-04-03 07:42:03,1656.94011652207,28.500000912,0.0,0.5685860181947521,1656.94011652207,28.500000912,0.35999970196000003,0.5995060191841921,1410,0.0,97,P-GPS,
0.36469051277633896,36.9257799829148,14300,2018-04-03 07:42:03,1657.2401165316699,28.800000921600002,0.0,0.5625380180012161,1657.2401165316699,28.800000921600002,0.35999970196000003,0.5995060191841921,1473,0.0,97,P-GPS,
0.36469039691662,36.9257800332394,14400,2018-04-03 07:42:03,1657.44011653807,29.000000928,0.35999970196000003,0.5625250180008,1657.44011653807,29.000000928,0.35999970196000003,0.5995060191841921,1429,0.0,97,P-GPS,
0.36469026105574104,36.9257800693482,14500,2018-04-03 07:42:03,1657.7401165476701,29.300000937600004,0.35999970196000003,0.5652510180880321,1657.7401165476701,29.300000937600004,0.35999970196000003,0.5995060191841921,1452,0.0,97,P-GPS,
0.36469011757862896,36.9257800924341,14600,2018-04-03 07:42:04,1658.0401165572698,29.6000009472,0.35999970196000003,0.5700690182422079,1658.0401165572698,29.6000009472,0.35999970196000003,0.5995060191841921,1462,0.0,97,P-GPS,
0.36468998139715003,36.925780083656,14700,2018-04-03 07:42:04,1658.24011656367,29.8000009536,0.35999970196000003,0.5780210184966721,1658.24011656367,29.8000009536,0.35999970196000003,0.5995060191841921,1456,0.0,97,P-GPS,
0.364689871434841,36.925780099938,14800,2018-04-03 07:42:04,1658.54011657327,30.1000009632,0.0,0.5823910186365121,1658.54011657327,30.1000009632,0.35999970196000003,0.5995060191841921,1451,0.0,97,P-GPS,
0.36468979513409705,36.925780129078206,14900,2018-04-03 07:42:04,1658.8401165828698,30.400000972799997,0.0,0.583849018683168,1658.8401165828698,30.400000972799997,0.35999970196000003,0.5995060191841921,1455,0.0,97,P-GPS,
0.364689762481759,36.925780167923605,15000,2018-04-03 07:42:04,1659.14011659247,30.700000982400002,0.0,0.5820010186240321,1659.14011659247,30.700000982400002,0.35999970196000003,0.5995060191841921,1460,0.0,97,P-GPS,
0.36468975845706003,36.925780223185896,15100,2018-04-03 07:42:04,1659.44011660207,31.000000992,0.0,0.5769810184633921,1659.44011660207,31.000000992,0.35999970196000003,0.5995060191841921,1463,0.0,97,P-GPS,
0.364689777853864,36.925780285500394,15200,2018-04-03 07:42:04,1659.7401166116701,31.300001001600002,0.0,0.569947018238304,1659.7401166116701,31.300001001600002,0.35999970196000003,0.5995060191841921,1468,0.0,97,P-GPS,
0.36468981206726797,36.925780321451896,15300,2018-04-03 07:42:04,1659.9401166180699,31.500001007999998,0.0,0.564549018065568,1659.9401166180699,31.500001007999998,0.35999970196000003,0.5995060191841921,1475,0.0,97,P-GPS,
0.364689852339096,36.9257803723567,15400,2018-04-03 07:42:04,1660.24011662767,31.800001017600003,0.0,0.557382017836224,1660.24011662767,31.800001017600003,0.35999970196000003,0.5995060191841921,1464,0.0,97,P-GPS,
0.364689866975957,36.925780422216704,15500,2018-04-03 07:42:04,1660.54011663727,32.1000010272,0.0,0.55180501765776,1660.54011663727,32.1000010272,0.35999970196000003,0.5995060191841921,1474,0.0,97,P-GPS,
0.36468985593775305,36.9257804813642,15600,2018-04-03 07:42:04,1660.84011664687,32.4000010368,0.0,0.5468630174996161,1660.84011664687,32.4000010368,0.35999970196000003,0.5995060191841921,1500,0.0,97,P-GPS,
0.3646898324201721,36.925780523335796,15700,2018-04-03 07:42:05,1661.14011665647,32.700001046400004,0.0,0.5443150174180801,1661.14011665647,32.700001046400004,0.35999970196000003,0.5995060191841921,1521,0.0,97,P-GPS,
0.364689855494002,36.9257805203595,15800,2018-04-03 07:42:05,1661.5401166692698,33.100001059200004,0.0,0.543219017383008,1661.5401166692698,33.100001059200004,0.35999970196000003,0.5995060191841921,1534,0.0,97,P-GPS,
0.364689930428074,36.9257804730776,15900,2018-04-03 07:42:05,1661.84011667887,33.4000010688,0.35999970196000003,0.543299017385568,1661.84011667887,33.4000010688,0.35999970196000003,0.5995060191841921,1542,0.0,97,P-GPS,
0.364690040589664,36.9257804109269,16000,2018-04-03 07:42:05,1662.24011669167,33.800001081599994,0.503999582744,0.543032017377024,1662.24011669167,33.800001081599994,0.503999582744,0.5995060191841921,1547,0.0,97,P-GPS,
0.36469016311704705,36.9257803326463,16100,2018-04-03 07:42:05,1662.6401167044698,34.2000010944,0.503999582744,0.54406001740992,1662.6401167044698,34.2000010944,0.503999582744,0.5995060191841921,1547,0.0,97,P-GPS,
0.36469029929689795,36.9257802391339,16200,2018-04-03 07:42:05,1663.04011671727,34.6000011072,0.503999582744,0.546412017485184,1663.04011671727,34.6000011072,0.503999582744,0.5995060191841921,1543,0.0,97,P-GPS,
0.364690442869884,36.9257801497498,16300,2018-04-03 07:42:05,1663.4401167300698,35.00000112,0.35999970196000003,0.548612017555584,1663.4401167300698,35.00000112,0.503999582744,0.5995060191841921,1545,0.0,97,P-GPS,
0.36469059954655203,36.925780094313005,16400,2018-04-03 07:42:05,1663.84011674287,35.40000113280001,0.35999970196000003,0.5474000175168,1663.84011674287,35.40000113280001,0.503999582744,0.5995060191841921,1544,0.0,97,P-GPS,
0.364690754583988,36.9257800755428,16500,2018-04-03 07:42:05,1664.2401167556702,35.8000011456,0.35999970196000003,0.5430530173776961,1664.2401167556702,35.8000011456,0.503999582744,0.5995060191841921,1547,0.0,97,P-GPS,
0.36469090026784495,36.9257800917981,16600,2018-04-03 07:42:06,1664.5401167652699,36.1000011552,0.35999970196000003,0.53588001714816,1664.5401167652699,36.1000011552,0.503999582744,0.5995060191841921,1556,0.0,97,P-GPS,
0.364691020735246,36.925780121592396,16700,2018-04-03 07:42:06,1664.94011677807,36.500001168000004,0.35999970196000003,0.5285210169126721,1664.94011677807,36.500001168000004,0.503999582744,0.5995060191841921,1548,0.0,97,P-GPS,
0.36469111270406396,36.9257801658712,16800,2018-04-03 07:42:06,1665.2401167876699,36.8000011776,0.35999970196000003,0.520786016665152,1665.2401167876699,36.8000011776,0.503999582744,0.5995060191841921,1546,0.0,97,P-GPS,
0.364691178970743,36.9257802114144,16900,2018-04-03 07:42:06,1665.64011680047,37.2000011904,0.0,0.513839016442848,1665.64011680047,37.2000011904,0.503999582744,0.5995060191841921,1548,0.0,97,P-GPS,
0.364691222949315,36.9257802446379,17000,2018-04-03 07:42:06,1666.0401168132698,37.60000120320001,0.0,0.508941016286112,1666.0401168132698,37.60000120320001,0.503999582744,0.5995060191841921,1549,0.0,97,P-GPS,
0.364691250648741,36.9257802691413,17100,2018-04-03 07:42:06,1666.44011682607,38.000001216,0.0,0.505487016175584,1666.44011682607,38.000001216,0.503999582744,0.5995060191841921,1545,0.0,97,P-GPS,
0.36469124941315895,36.9257802685878,17200,2018-04-03 07:42:06,1666.74011683567,38.3000012256,0.0,0.5055830161786561,1666.74011683567,38.3000012256,0.503999582744,0.5995060191841921,1545,0.0,97,P-GPS,
0.36469123216956506,36.925780264691795,17300,2018-04-03 07:42:06,1667.14011684847,38.700001238400006,0.0,0.5065170162085441,1667.14011684847,38.700001238400006,0.503999582744,0.5995060191841921,1546,0.0,97,P-GPS,
0.36469118546212703,36.925780264886605,17400,2018-04-03 07:42:06,1667.44011685807,39.000001248000004,0.0,0.5079280162536961,1667.44011685807,39.000001248000004,0.503999582744,0.5995060191841921,1544,0.0,97,P-GPS,
0.36469111995878206,36.925780280440605,17500,2018-04-03 07:42:06,1667.84011687087,39.4000012608,0.0,0.508364016267648,1667.84011687087,39.4000012608,0.503999582744,0.5995060191841921,1544,0.0,97,P-GPS,
0.364691040322985,36.925780298953796,17600,2018-04-03 07:42:06,1668.14011688047,39.7000012704,0.0,0.50908501629072,1668.14011688047,39.7000012704,0.503999582744,0.5995060191841921,1544,0.0,97,P-GPS,
0.364690992537924,36.92578033433679,17700,2018-04-03 07:42:07,1668.5401168932701,40.10000128320001,0.0,0.5070390162252479,1668.5401168932701,40.10000128320001,0.503999582744,0.5995060191841921,1549,0.0,97,P-GPS,
0.36469098751743195,36.925780371345,17800,2018-04-03 07:42:07,1668.84011690287,40.400001292800006,0.0,0.503328016106496,1668.84011690287,40.400001292800006,0.503999582744,0.5995060191841921,1554,0.0,97,P-GPS,
0.36469099021535606,36.9257804237894,17900,2018-04-03 07:42:07,1669.2401169156701,40.8000013056,0.0,0.4977210159270721,1669.2401169156701,40.8000013056,0.503999582744,0.5995060191841921,1559,0.0,97,P-GPS,
0.364690947400714,36.925780499927704,18000,2018-04-03 07:42:07,1669.5401169252698,41.100001315200004,0.0,0.491351015723232,1669.5401169252698,41.100001315200004,0.503999582744,0.5995060191841921,1564,0.0,97,P-GPS,
0.364690900324433,36.925780573284605,18100,2018-04-03 07:42:07,1669.9401169380699,41.500001328,0.0,0.4855510155376321,1669.9401169380699,41.500001328,0.503999582744,0.5995060191841921,1564,0.0,97,P-GPS,
0.364690877970783,36.9257806126289,18200,2018-04-03 07:42:07,1670.3401169508697,41.9000013408,0.0,0.48237401543596803,1670.3401169508697,41.9000013408,0.503999582744,0.5995060191841921,1575,0.0,97,P-GPS,
0.364690885562588,36.9257806367243,18300,2018-04-03 07:42:07,1670.6401169604699,42.2000013504,0.0,0.479571015346272,1670.6401169604699,42.2000013504,0.503999582744,0.5995060191841921,1578,0.0,97,P-GPS,
0.36469092103742706,36.925780681633704,18400,2018-04-03 07:42:07,1671.04011697327,42.60000136320001,0.0,0.473482015151424,1671.04011697327,42.60000136320001,0.503999582744,0.5995060191841921,1584,0.0,97,P-GPS,
0.364690969612283,36.925780752602,18500,2018-04-03 07:42:07,1671.4401169860698,43.000001376,0.0,0.464173014853536,1671.4401169860698,43.000001376,0.503999582744,0.5995060191841921,1571,0.0,97,P-GPS,
0.36469099148432105,36.9257808281483,18600,2018-04-03 07:42:08,1671.84011699887,43.40000138880001,0.0,0.455459014574688,1671.84011699887,43.40000138880001,0.503999582744,0.5995060191841921,1576,0.0,97,P-GPS,
0.364690988414704,36.925780872501996,18700,2018-04-03 07:42:08,1672.2401170116698,43.80000140159999,0.0,0.45098501443152006,1672.2401170116698,43.80000140159999,0.503999582744,0.5995060191841921,1574,0.0,97,P-GPS,
0.364690967928065,36.925780912863395,18800,2018-04-03 07:42:08,1672.6401170244699,44.2000014144,0.0,0.447651014324832,1672.6401170244699,44.2000014144,0.503999582744,0.5995060191841921,1554,0.0,97,P-GPS,
0.36469094176141204,36.925780974758204,18900,2018-04-03 07:42:08,1673.0401170372702,44.6000014272,0.0,0.44237701415606395,1673.0401170372702,44.6000014272,0.503999582744,0.5995060191841921,1558,0.0,97,P-GPS,
0.3646908534447879,36.9257810554296,19000,2018-04-03 07:42:08,1673.44011705007,45.00000144,0.0,0.438032014017024,1673.44011705007,45.00000144,0.503999582744,0.5995060191841921,1561,0.0,97,P-GPS,
0.3646907423004311,36.925781133331206,19100,2018-04-03 07:42:08,1673.8401170628701,45.400001452800005,0.0,0.43544001393408005,1673.8401170628701,45.400001452800005,0.503999582744,0.5995060191841921,1555,0.0,97,P-GPS,
0.364690608478771,36.9257812190891,19200,2018-04-03 07:42:08,1674.1401170724698,45.700001462399996,0.0,0.43378301388105606,1674.1401170724698,45.700001462399996,0.503999582744,0.5995060191841921,1558,0.0,97,P-GPS,
0.36469048651096203,36.9257812961525,19300,2018-04-03 07:42:08,1674.54011708527,46.1000014752,0.0,0.433001013856032,1674.54011708527,46.1000014752,0.503999582744,0.5995060191841921,1556,0.0,97,P-GPS,
0.36469035654993603,36.9257813827979,19400,2018-04-03 07:42:08,1674.8401170948698,46.4000014848,0.0,0.4323980138367361,1674.8401170948698,46.4000014848,0.503999582744,0.5995060191841921,1546,-0.1,97,P-GPS,
0.364690266554996,36.9257814740363,19500,2018-04-03 07:42:08,1675.14011710447,46.7000014944,0.0,0.429529013744928,1675.14011710447,46.7000014944,0.503999582744,0.5995060191841921,1549,-0.3,97,P-GPS,
0.36469016585609004,36.9257815514423,19600,2018-04-03 07:42:08,1675.54011711727,47.1000015072,0.0,0.429061013729952,1675.54011711727,47.1000015072,0.503999582744,0.5995060191841921,1548,-0.6,97,P-GPS,
0.36469008707461603,36.9257816199888,19700,2018-04-03 07:42:09,1675.8401171268697,47.400001516799996,0.0,0.42832001370624,1675.8401171268697,47.400001516799996,0.503999582744,0.5995060191841921,1551,-1.3,97,P-GPS,
0.364689998315055,36.9257816990072,19800,2018-04-03 07:42:09,1676.2401171396698,47.8000015296,0.0,0.427709013686688,1676.2401171396698,47.8000015296,0.503999582744,0.5995060191841921,1549,-2.4,97,P-GPS,
0.3646899264613879,36.9257817487686,19900,2018-04-03 07:42:09,1676.6401171524697,48.200001542399995,0.0,0.42870001371840005,1676.6401171524697,48.200001542399995,0.503999582744,0.5995060191841921,1550,-4.2,97,P-GPS,
0.36468984933258103,36.925781769916604,20000,2018-04-03 07:42:09,1677.0401171652697,48.6000015552,0.0,0.43265401384492796,1677.0401171652697,48.6000015552,0.503999582744,0.5995060191841921,1548,-6.2,97,P-GPS,
0.364689779052602,36.9257817593538,20100,2018-04-03 07:42:09,1677.4401171780696,49.00000156800001,0.0,0.43880801404185604,1677.4401171780696,49.00000156800001,0.503999582744,0.5995060191841921,1544,-8.1,97,P-GPS,
0.36468972456160903,36.9257817384135,20200,2018-04-03 07:42:09,1677.8401171908697,49.4000015808,0.0,0.444649014228768,1677.8401171908697,49.4000015808,0.503999582744,0.5995060191841921,1538,-9.7,97,P-GPS,
0.36468969784678207,36.925781710562404,20300,2018-04-03 07:42:09,1678.2401172036696,49.8000015936,0.0,0.44894001436608005,1678.2401172036696,49.8000015936,0.503999582744,0.5995060191841921,1540,-9.9,97,P-GPS,
0.364689644189755,36.925781695750295,20400,2018-04-03 07:42:09,1678.5401172132697,50.100001603200006,0.0,0.454242014535744,1678.5401172132697,50.100001603200006,0.503999582744,0.5995060191841921,1544,-9.9,97,P-GPS,
0.364689592828632,36.9257816845559,20500,2018-04-03 07:42:09,1678.9401172260698,50.500001616000006,0.0,0.4590990146911681,1678.9401172260698,50.500001616000006,0.503999582744,0.5995060191841921,1545,-9.9,97,P-GPS,
0.36468953485073297,36.9257816530893,20600,2018-04-03 07:42:10,1679.3401172388697,50.9000016288,0.0,0.46610401491532805,1679.3401172388697,50.9000016288,0.503999582744,0.5995060191841921,1545,-9.9,97,P-GPS,
0.364689505092344,36.9257816001984,20700,2018-04-03 07:42:10,1679.6401172484698,51.20000163840001,0.0,0.472626015124032,1679.6401172484698,51.20000163840001,0.503999582744,0.5995060191841921,1547,-9.9,97,P-GPS,
0.364689472169481,36.9257815259957,20800,2018-04-03 07:42:10,1680.0401172612699,51.600001651199996,0.0,0.48110701539542405,1680.0401172612699,51.600001651199996,0.503999582744,0.5995060191841921,1546,-10.0,97,P-GPS,
0.364689473273159,36.925781449842404,20900,2018-04-03 07:42:10,1680.4401172740697,52.000001664,0.0,0.48717201558950396,1680.4401172740697,52.000001664,0.503999582744,0.5995060191841921,1546,-10.2,97,P-GPS,
0.36468950372221204,36.9257813604305,21000,2018-04-03 07:42:10,1680.9401172900696,52.500001680000004,0.0,0.492207015750624,1680.9401172900696,52.500001680000004,0.503999582744,0.5995060191841921,1546,-10.5,97,P-GPS,
0.36468960038786896,36.925781237082,21100,2018-04-03 07:42:10,1681.3401173028699,52.90000169280001,0.503999582744,0.4955030158560961,1681.3401173028699,52.90000169280001,0.503999582744,0.5995060191841921,1546,-10.9,97,P-GPS,
0.36468971282887297,36.9257810877827,21200,2018-04-03 07:42:10,1681.74011731567,53.3000017056,0.503999582744,0.5005860160187521,1681.74011731567,53.3000017056,0.503999582744,0.5995060191841921,1546,-11.5,97,P-GPS,
0.364689850206852,36.9257809644171,21300,2018-04-03 07:42:10,1682.0401173252696,53.6000017152,0.35999970196000003,0.502514016080448,1682.0401173252696,53.6000017152,0.503999582744,0.5995060191841921,1546,-12.0,97,P-GPS,
0.36468995061263704,36.925780883307795,21400,2018-04-03 07:42:10,1682.4401173380697,54.00000172800001,0.35999970196000003,0.503609016115488,1682.4401173380697,54.00000172800001,0.503999582744,0.5995060191841921,1546,-12.6,97,P-GPS,
0.36469002741087103,36.9257808324929,21500,2018-04-03 07:42:10,1682.8401173508696,54.40000174080001,0.35999970196000003,0.503669016117408,1682.8401173508696,54.40000174080001,0.503999582744,0.5995060191841921,1545,-13.2,97,P-GPS,
0.36469006633455003,36.9257807921444,21600,2018-04-03 07:42:10,1683.1401173604697,54.700001750400006,0.0,0.5051560161649921,1683.1401173604697,54.700001750400006,0.503999582744,0.5995060191841921,1546,-13.9,97,P-GPS,
0.364690104792901,36.9257807634335,21700,2018-04-03 07:42:11,1683.5401173732698,55.1000017632,0.0,0.505636016180352,1683.5401173732698,55.1000017632,0.503999582744,0.5995060191841921,1547,-14.5,97,P-GPS,
0.36469012073923496,36.925780745535896,21800,2018-04-03 07:42:11,1683.8401173828697,55.40000177280001,0.0,0.506423016205536,1683.8401173828697,55.40000177280001,0.503999582744,0.5995060191841921,1546,-15.1,97,P-GPS,
0.36469014969073,36.9257807407931,21900,2018-04-03 07:42:11,1684.1401173924698,55.7000017824,0.0,0.505226016167232,1684.1401173924698,55.7000017824,0.503999582744,0.5995060191841921,1545,-15.7,97,P-GPS,
0.36469015777188396,36.92578073078921,22000,2018-04-03 07:42:11,1684.54011740527,56.10000179520001,0.0,0.505727016183264,1684.54011740527,56.10000179520001,0.503999582744,0.5995060191841921,1545,-16.3,97,P-GPS,
0.364690183638088,36.9257807234447,22100,2018-04-03 07:42:11,1684.8401174148698,56.400001804800006,0.0,0.5049790161593279,1684.8401174148698,56.400001804800006,0.503999582744,0.5995060191841921,1544,-16.3,97,P-GPS,
0.3646902033237371,36.925780721515395,22200,2018-04-03 07:42:11,1685.24011742767,56.80000181760001,0.0,0.504068016130176,1685.24011742767,56.80000181760001,0.503999582744,0.5995060191841921,1546,-16.9,97,P-GPS,
0.364690239553155,36.925780730998994,22300,2018-04-03 07:42:11,1685.5401174372696,57.100001827199996,0.0,0.5011520160368641,1685.5401174372696,57.100001827199996,0.503999582744,0.5995060191841921,1545,-17.6,97,P-GPS,
0.364690263548481,36.9257807383595,22400,2018-04-03 07:42:11,1685.8401174468697,57.4000018368,0.0,0.49912601597203204,1685.8401174468697,57.4000018368,0.503999582744,0.5995060191841921,1545,-18.2,97,P-GPS,
0.364690293129166,36.925780756205704,22500,2018-04-03 07:42:11,1686.2401174596698,57.8000018496,0.0,0.49578601586515203,1686.2401174596698,57.8000018496,0.503999582744,0.5995060191841921,1545,-18.8,97,P-GPS,
0.36469029495852,36.925780744339,22600,2018-04-03 07:42:12,1686.5401174692697,58.100001859200006,0.0,0.49684001589888005,1686.5401174692697,58.100001859200006,0.503999582744,0.5995060191841921,1545,-19.5,97,P-GPS,
0.36469028649427504,36.9257807238151,22700,2018-04-03 07:42:12,1686.9401174820698,58.500001872,0.0,0.499292015977344,1686.9401174820698,58.500001872,0.503999582744,0.5995060191841921,1541,-20.1,97,P-GPS,
0.364690247957351,36.9257806916365,22800,2018-04-03 07:42:12,1687.3401174948697,58.900001884800005,0.0,0.50450501614416,1687.3401174948697,58.900001884800005,0.503999582744,0.5995060191841921,1541,-20.4,97,P-GPS,
0.36469021528649004,36.925780680619795,22900,2018-04-03 07:42:12,1687.6401175044698,59.2000018944,0.0,0.507356016235392,1687.6401175044698,59.2000018944,0.503999582744,0.5995060191841921,1540,-20.4,97,P-GPS,
0.364690183323188,36.92578069003589,23000,2018-04-03 07:42:12,1688.04011751727,59.6000019072,0.0,0.5082110162627521,1688.04011751727,59.6000019072,0.503999582744,0.5995060191841921,1540,-20.4,97,P-GPS,
0.36469013655122295,36.925780753438204,23100,2018-04-03 07:42:12,1688.3401175268698,59.9000019168,0.35999970196000003,0.50476501615248,1688.3401175268698,59.9000019168,0.503999582744,0.5995060191841921,1541,-20.4,97,P-GPS,
0.36469002924551597,36.9257808246517,23200,2018-04-03 07:42:12,1688.7401175396699,60.30000192960001,0.35999970196000003,0.50429501613744,1688.7401175396699,60.30000192960001,0.503999582744,0.5995060191841921,1544,-20.4,97,P-GPS,
0.36468990205528706,36.9257808846761,23300,2018-04-03 07:42:12,1689.04011754927,60.600001939200006,0.35999970196000003,0.506503016208096,1689.04011754927,60.600001939200006,0.503999582744,0.5995060191841921,1544,-20.4,97,P-GPS,
0.364689765062029,36.925780922551496,23400,2018-04-03 07:42:12,1689.4401175620699,61.000001952,0.0,0.511816016378112,1689.4401175620699,61.000001952,0.503999582744,0.5995060191841921,1545,-20.4,97,P-GPS,
0.364689639995901,36.9257809559538,23500,2018-04-03 07:42:12,1689.7401175716698,61.3000019616,0.0,0.5171440165486081,1689.7401175716698,61.3000019616,0.503999582744,0.5995060191841921,1545,-20.4,97,P-GPS,
0.364689529434528,36.92578097655579,23600,2018-04-03 07:42:12,1690.1401175844696,61.7000019744,0.0,0.52291501673328,1690.1401175844696,61.7000019744,0.503999582744,0.5995060191841921,1547,-20.4,97,P-GPS,
0.36468947412910996,36.925780999647,23700,2018-04-03 07:42:13,1690.4401175940698,62.000001984,0.0,0.5247890167932481,1690.4401175940698,62.000001984,0.503999582744,0.5995060191841921,1549,-20.4,97,P-GPS,
0.364689446123333,36.9257810025954,23800,2018-04-03 07:42:13,1690.74011760367,62.300001993600006,0.0,0.5265160168485121,1690.74011760367,62.300001993600006,0.503999582744,0.5995060191841921,1541,-20.4,97,P-GPS,
0.3646894301242779,36.9257810039605,23900,2018-04-03 07:42:13,1691.1401176164698,62.7000020064,0.0,0.5275360168811521,1691.1401176164698,62.7000020064,0.503999582744,0.5995060191841921,1546,-20.4,97,P-GPS,
0.36468938328554706,36.925780999428504,24000,2018-04-03 07:42:13,1691.5401176292698,63.100002019200005,0.0,0.53127001700064,1691.5401176292698,63.100002019200005,0.503999582744,0.5995060191841921,1549,-20.4,97,P-GPS,
0.36468934150089505,36.9257810235015,24100,2018-04-03 07:42:13,1691.8401176388697,63.4000020288,0.0,0.5322490170319679,1691.8401176388697,63.4000020288,0.503999582744,0.5995060191841921,1553,-20.4,97,P-GPS,
0.364689273281102,36.9257810457726,24200,2018-04-03 07:42:13,1692.2401176516698,63.8000020416,0.0,0.5353760171320321,1692.2401176516698,63.8000020416,0.503999582744,0.5995060191841921,1556,-20.4,97,P-GPS,
0.364689213420111,36.925781059236705,24300,2018-04-03 07:42:13,1692.6401176644697,64.2000020544,0.0,0.5387030172384961,1692.6401176644697,64.2000020544,0.503999582744,0.5995060191841921,1558,-20.4,97,P-GPS,
0.364689162535714,36.9257810380791,24400,2018-04-03 07:42:13,1692.9401176740698,64.500002064,0.0,0.544252017416064,1692.9401176740698,64.500002064,0.503999582744,0.5995060191841921,1564,-20.4,97,P-GPS,
0.364689140509177,36.9257809895521,24500,2018-04-03 07:42:13,1693.34011768687,64.9000020768,0.0,0.54989001759648,1693.34011768687,64.9000020768,0.503999582744,0.5995060191841921,1573,-20.4,97,P-GPS,
0.36468911017757605,36.9257809267033,24600,2018-04-03 07:42:14,1693.7401176996698,65.3000020896,0.0,0.5573350178347201,1693.7401176996698,65.3000020896,0.503999582744,0.5995060191841921,1574,-20.4,97,P-GPS,
0.364689091310627,36.9257808680001,24700,2018-04-03 07:42:14,1694.1401177124699,65.7000021024,0.0,0.5635960180350721,1694.1401177124699,65.7000021024,0.503999582744,0.5995060191841921,1583,-20.4,96,P-GPS,
0.364689060464641,36.9257807887633,24800,2018-04-03 07:42:14,1694.6401177284697,66.20000211840001,0.0,0.5724630183188161,1694.6401177284697,66.20000211840001,0.503999582744,0.5995060191841921,1580,-20.4,96,P-GPS,
0.364689019266433,36.9257807031382,24900,2018-04-03 07:42:14,1695.0401177412698,66.6000021312,0.0,0.582642018644544,1695.0401177412698,66.6000021312,0.503999582744,0.5995060191841921,1581,-20.4,96,P-GPS,
0.36468897161826297,36.9257806429768,25000,2018-04-03 07:42:14,1695.4401177540697,67.00000214399999,0.0,0.591167018917344,1695.4401177540697,67.00000214399999,0.503999582744,0.5995060191841921,1586,-20.4,96,P-GPS,
0.36468893500361604,36.9257806116182,25100,2018-04-03 07:42:14,1695.8401177668698,67.40000215680001,0.0,0.596472019087104,1695.8401177668698,67.40000215680001,0.503999582744,0.5995060191841921,1588,-20.4,96,P-GPS,
0.36468888846401,36.925780619968,25200,2018-04-03 07:42:14,1696.2401177796696,67.8000021696,0.0,0.5991960191742721,1696.2401177796696,67.8000021696,0.503999582744,0.5995060191841921,1594,-20.4,96,P-GPS,
0.36468886013397,36.9257806477806,25300,2018-04-03 07:42:14,1696.6401177924697,68.2000021824,0.0,0.5989920191677439,1696.6401177924697,68.2000021824,0.503999582744,0.5995060191841921,1594,-20.4,96,P-GPS,
0.364688824718468,36.925780681297496,25400,2018-04-03 07:42:14,1696.9401178020696,68.500002192,0.0,0.5988840191642879,1696.9401178020696,68.500002192,0.503999582744,0.5995060191841921,1594,-20.4,96,P-GPS,
0.364688797896367,36.9257807277561,25500,2018-04-03 07:42:14,1697.3401178148697,68.9000022048,0.0,0.5971210191078721,1697.3401178148697,68.9000022048,0.503999582744,0.5995060191841921,1592,-20.4,96,P-GPS,
0.364688778062021,36.9257807752467,25600,2018-04-03 07:42:14,1697.84011783087,69.4000022208,0.0,0.594794019033408,1697.84011783087,69.4000022208,0.503999582744,0.5995060191841921,1595,-20.4,96,P-GPS,
0.36468878554238,36.925780809093396,25700,2018-04-03 07:42:15,1698.1401178404697,69.7000022304,0.0,0.591497018927904,1698.1401178404697,69.7000022304,0.503999582744,0.5995060191841921,1592,-20.4,96,P-GPS,
0.36468878116369796,36.9257808326867,25800,2018-04-03 07:42:15,1698.5401178532697,70.1000022432,0.0,0.589944018878208,1698.5401178532697,70.1000022432,0.503999582744,0.5995060191841921,1576,-20.4,96,P-GPS,
0.36468877791596993,36.9257808528144,25900,2018-04-03 07:42:15,1698.9401178660696,70.50000225600002,0.0,0.588587018834784,1698.9401178660696,70.50000225600002,0.503999582744,0.5995060191841921,1577,-20.4,96,P-GPS,
0.36468877269619604,36.9257808722033,26000,2018-04-03 07:42:15,1699.34011787887,70.90000226880001,0.0,0.587448018798336,1699.34011787887,70.90000226880001,0.503999582744,0.5995060191841921,1565,-20.4,96,P-GPS,
0.364688784518089,36.9257809137606,26100,2018-04-03 07:42:15,1699.74011789167,71.3000022816,0.0,0.583229018663328,1699.74011789167,71.3000022816,0.503999582744,0.5995060191841921,1540,-20.4,96,P-GPS,
0.36468878342916794,36.9257809421149,26200,2018-04-03 07:42:15,1700.14011790447,71.7000022944,0.0,0.581073018594336,1700.14011790447,71.7000022944,0.503999582744,0.5995060191841921,1492,-20.4,96,P-GPS,
0.364688769670445,36.925780967269205,26300,2018-04-03 07:42:15,1700.54011791727,72.1000023072,0.0,0.5801750185656,1700.54011791727,72.1000023072,0.503999582744,0.5995060191841921,1457,-20.4,96,P-GPS,
0.36468869851181895,36.9257810007294,26400,2018-04-03 07:42:15,1700.8401179268697,72.40000231680001,0.0,0.583213018662816,1700.8401179268697,72.40000231680001,0.503999582744,0.5995060191841921,1437,-20.4,96,P-GPS,
0.364688606629818,36.925781066810295,26500,2018-04-03 07:42:15,1701.2401179396697,72.8000023296,0.35999970196000003,0.585572018738304,1701.2401179396697,72.8000023296,0.503999582744,0.5995060191841921,1441,-20.4,96,P-GPS,
0.364688514326762,36.925781157894505,26600,2018-04-03 07:42:16,1701.5401179492696,73.1000023392,0.35999970196000003,0.586381018764192,1701.5401179492696,73.1000023392,0.503999582744,0.5995060191841921,1416,-20.4,96,P-GPS,
0.364688446168544,36.9257812559528,26700,2018-04-03 07:42:16,1701.7401179556698,73.3000023456,0.35999970196000003,0.58499001871968,1701.7401179556698,73.3000023456,0.503999582744,0.5995060191841921,1430,-20.4,96,P-GPS,
0.364688360336315,36.9257813287155,26800,2018-04-03 07:42:16,1702.04011796527,73.6000023552,0.0,0.5871940187902079,1702.04011796527,73.6000023552,0.503999582744,0.5995060191841921,1428,-20.4,96,P-GPS,
0.364688268836184,36.9257814043249,26900,2018-04-03 07:42:16,1702.2401179716699,73.80000236160001,0.35999970196000003,0.5899600188787201,1702.2401179716699,73.80000236160001,0.503999582744,0.5995060191841921,1422,-20.4,96,P-GPS,
0.36468817962666294,36.9257814974487,27000,2018-04-03 07:42:16,1702.5401179812698,74.1000023712,0.35999970196000003,0.5916460189326721,1702.5401179812698,74.1000023712,0.503999582744,0.5995060191841921,1400,-20.4,96,P-GPS,
0.364688104002233,36.925781610932496,27100,2018-04-03 07:42:16,1702.7401179876697,74.30000237760001,0.35999970196000003,0.591139018916448,1702.7401179876697,74.30000237760001,0.503999582744,0.5995060191841921,1348,-20.4,96,P-GPS,
0.36468802457625105,36.925781733205,27200,2018-04-03 07:42:16,1702.9401179940699,74.500002384,0.35999970196000003,0.590837018906784,1702.9401179940699,74.500002384,0.503999582744,0.5995060191841921,1303,-20.4,96,P-GPS,
0.364687982885336,36.925781878737794,27300,2018-04-03 07:42:16,1703.1401180004696,74.7000023904,0.35999970196000003,0.5860510187536321,1703.1401180004696,74.7000023904,0.503999582744,0.5995060191841921,1095,-20.4,96,P-GPS,
0.364687973430183,36.9257820282309,27400,2018-04-03 07:42:16,1703.3401180068697,74.9000023968,0.35999970196000003,0.578392018508544,1703.3401180068697,74.9000023968,0.503999582744,0.5995060191841921,1024,-20.4,96,P-GPS,
0.364687995844188,36.9257821795912,27500,2018-04-03 07:42:16,1703.4401180100697,75.0000024,0.35999970196000003,0.567913018173216,1703.4401180100697,75.0000024,0.503999582744,0.5995060191841921,1024,-20.4,96,P-GPS,
0.36468803020242296,36.9257823309,27600,2018-04-03 07:42:16,1703.5401180132696,75.1000024032,0.35999970196000003,0.55658001781056,1703.5401180132696,75.1000024032,0.503999582744,0.5995060191841921,1024,-20.4,96,P-GPS,
0.36468810076417296,36.925782491271704,27700,2018-04-03 07:42:17,1703.6401180164698,75.20000240640002,0.35999970196000003,0.5415020173280639,1703.6401180164698,75.20000240640002,0.503999582744,0.5995060191841921,1024,-20.4,96,P-GPS,
0.364688178822873,36.925782624518106,27800,2018-04-03 07:42:17,1703.6401180164698,75.20000240640002,0.35999970196000003,0.5272380168716161,1703.6401180164698,75.20000240640002,0.503999582744,0.5995060191841921,1024,-20.4,96,P-GPS,
0.364688242929879,36.9257827348489,27900,2018-04-03 07:42:17,1703.6401180164698,75.20000240640002,0.0,0.51561501649968,1703.6401180164698,75.20000240640002,0.503999582744,0.5995060191841921,1024,-20.4,96,P-GPS,
0.36468828582706303,36.925782808568705,28000,2018-04-03 07:42:17,1703.6401180164698,75.20000240640002,0.0,0.5079150162532801,1703.6401180164698,75.20000240640002,0.503999582744,0.5995060191841921,1024,-20.4,96,P-GPS,
0.36468832453863703,36.9257828749001,28100,2018-04-03 07:42:17,1703.6401180164698,75.20000240640002,0.0,0.501027016032864,1703.6401180164698,75.20000240640002,0.503999582744,0.5995060191841921,1024,-20.4,96,P-GPS,
0.36468849246388396,36.9257830185562,28300,2018-04-03 07:42:17,1703.5401180132696,75.1000024032,0.35999970196000003,0.477627015284064,1703.6401180164698,75.20000240640002,0.503999582744,0.5995060191841921,1024,-20.4,96,P-GPS,
0.364688612923041,36.9257831138951,28400,2018-04-03 07:42:17,1703.5401180132696,75.1000024032,0.35999970196000003,0.461233014759456,1703.6401180164698,75.20000240640002,0.503999582744,0.5995060191841921,1024,-20.4,96,P-GPS,
0.36468873524921,36.925783235904206,28500,2018-04-03 07:42:17,1703.4401180100697,75.0000024,0.35999970196000003,0.4436380141964161,1703.6401180164698,75.20000240640002,0.503999582744,0.5995060191841921,1024,-20.4,96,P-GPS,
0.36468884726763395,36.925783367894795,28600,2018-04-03 07:42:18,1703.4401180100697,75.0000024,0.503999582744,0.42689101366051196,1703.6401180164698,75.20000240640002,0.503999582744,0.5995060191841921,1024,-20.4,96,P-GPS,
0.364688955889937,36.9257834837939,28700,2018-04-03 07:42:18,1703.4401180100697,75.0000024,0.35999970196000003,0.41128201316102403,1703.6401180164698,75.20000240640002,0.503999582744,0.5995060191841921,1024,-20.4,96,P-GPS,
0.3646890581211071,36.9257835987262,28800,2018-04-03 07:42:18,1703.4401180100697,75.0000024,0.35999970196000003,0.39655701268982396,1703.6401180164698,75.20000240640002,0.503999582744,0.5995060191841921,1024,-20.4,96,P-GPS,
