latitude,longitude,time_millisecond,datetime_utc,altitude_m,ascent_m,speed_kph,distance_m,max_altitude_m,max_ascent_m,max_speed_kph,max_distance_m,rc_throttle,gimbal_pitch_degrees,battery_percent,flycState,message
0.35984096340346905,36.8940277429413,200,2017-11-06 08:56:37,1760.8208571462744,0.0,0.0,0.0,1760.8208571462744,0.0,0.0,0.0,1024,-27.9,99,Motors_Started,
0.35984096208239397,36.894027690753,300,2017-11-06 08:56:37,1760.8208571462744,0.0,0.0,0.0058054001857728,1760.8208571462744,0.0,0.0,0.0058054001857728,1024,-25.5,99,Motors_Started,
0.359840959643799,36.894027634196604,400,2017-11-06 08:56:38,1760.8208571462744,0.0,0.0,0.012100100387203199,1760.8208571462744,0.0,0.0,0.012100100387203199,1024,-17.8,99,Motors_Started,
0.35984095984450504,36.8940275791456,500,2017-11-06 08:56:38,1760.8208571462744,0.0,0.0,0.018219000583008002,1760.8208571462744,0.0,0.0,0.018219000583008002,1024,-7.2,99,Motors_Started,
0.359840976013325,36.8940275214536,600,2017-11-06 08:56:38,1760.8208571462744,0.0,0.0,0.024670200789446404,1760.8208571462744,0.0,0.0,0.024670200789446404,1024,6.5,99,Motors_Started,
0.35984100664109997,36.8940274664871,700,2017-11-06 08:56:38,1760.8208571462744,0.0,0.0,0.031116500995728002,1760.8208571462744,0.0,0.0,0.031116500995728002,440,22.0,99,Motors_Started,Setting new Return-To-Home altitude to 30m (98 ft). Setting new Maximum Flight Altitude to 100m (328 ft)
0.35984103859524197,36.894027409674294,800,2017-11-06 08:56:38,1760.8208571462744,0.0,0.0,0.03799220121575041,1760.8208571462744,0.0,0.0,0.03799220121575041,944,34.7,99,Motors_Started,
0.359841058512741,36.894027356143496,900,2017-11-06 08:56:38,1760.8208571462744,0.0,0.0,0.0442947014174304,1760.8208571462744,0.0,0.0,0.0442947014174304,1024,47.0,99,Motors_Started,
0.35984107604782595,36.8940273014414,1000,2017-11-06 08:56:38,1760.8208571462744,0.0,0.0,0.050669401621420807,1760.8208571462744,0.0,0.0,0.050669401621420807,1024,47.0,99,Motors_Started,
0.3598410879733279,36.8940272487591,1100,2017-11-06 08:56:38,1760.8208571462744,0.0,0.0,0.05667410181357121,1760.8208571462744,0.0,0.0,0.05667410181357121,1024,50.6,99,Motors_Started,
0.35984109565388395,36.894027213205206,1200,2017-11-06 08:56:38,1760.8208571462744,0.0,0.0,0.060716801942937604,1760.8208571462744,0.0,0.0,0.060716801942937604,1024,50.7,99,Motors_Started,
0.35984110109085204,36.894027190053,1300,2017-11-06 08:56:38,1760.8208571462744,0.0,0.0,0.0633612020275584,1760.8208571462744,0.0,0.0,0.0633612020275584,1024,50.6,99,Motors_Started,
0.359841101980796,36.894027167804,1400,2017-11-06 08:56:39,1760.8208571462744,0.0,0.0,0.0657879021052128,1760.8208571462744,0.0,0.0,0.0657879021052128,1024,50.3,99,Motors_Started,
0.35984110461480395,36.894027139264004,1500,2017-11-06 08:56:39,1760.8208571462744,0.0,0.0,0.06894350220619201,1760.8208571462744,0.0,0.0,0.06894350220619201,1024,50.1,99,Motors_Started,
0.35984108513454294,36.894027109145,1600,2017-11-06 08:56:39,1760.8208571462744,0.0,0.0,0.0717689022966048,1760.8208571462744,0.0,0.0,0.0717689022966048,1024,50.0,99,Assisted_Takeoff,
0.359841050484105,36.894027063064,1700,2017-11-06 08:56:39,1760.8208571462744,0.0,0.0,0.0762227024391264,1760.8208571462744,0.0,0.0,0.0762227024391264,1024,41.3,99,Assisted_Takeoff,
0.359841013246476,36.894027019738104,1800,2017-11-06 08:56:39,1760.8208571462744,0.0,0.0,0.08061380257964161,1760.8208571462744,0.0,0.0,0.08061380257964161,1024,29.7,99,Assisted_Takeoff,
0.35984099351909793,36.8940269702574,1900,2017-11-06 08:56:39,1760.8208571462744,0.0,0.0,0.0859907027517024,1760.8208571462744,0.0,0.0,0.0859907027517024,1024,16.8,99,Assisted_Takeoff,
0.359840969360317,36.8940269168055,2000,2017-11-06 08:56:39,1760.8208571462744,0.0,0.0,0.0918719029399008,1760.8208571462744,0.0,0.0,0.0918719029399008,1024,-1.1,99,Assisted_Takeoff,
0.35984095827224205,36.8940268638236,2100,2017-11-06 08:56:39,1760.8208571462744,0.0,0.0,0.097763003128416,1760.8208571462744,0.0,0.0,0.097763003128416,1024,-19.4,99,Assisted_Takeoff,
0.359840941776104,36.894026753577,2300,2017-11-06 08:56:39,1760.8208571462744,0.0,0.0,0.11004700352150401,1760.8208571462744,0.0,0.0,0.11004700352150401,1024,-32.0,99,Assisted_Takeoff,
0.35984095651392894,36.894026715760106,2400,2017-11-06 08:56:40,1760.8208571462744,0.0,0.0,0.11422900365532801,1760.8208571462744,0.0,0.0,0.11422900365532801,1024,-32.1,99,Assisted_Takeoff,
0.35984098463919295,36.894026689997794,2500,2017-11-06 08:56:40,1760.8208571462744,0.0,0.0,0.11711500374768,1760.8208571462744,0.0,0.0,0.11711500374768,1024,-32.3,99,Assisted_Takeoff,
0.35984101523847,36.89402666666079,2600,2017-11-06 08:56:40,1760.8208571462744,0.0,0.0,0.1198250038344,1760.8208571462744,0.0,0.0,0.1198250038344,1024,-32.6,99,Assisted_Takeoff,
0.359841035750758,36.894026632049396,2700,2017-11-06 08:56:40,1760.8208571462744,0.0,0.0,0.123797003961504,1760.8208571462744,0.0,0.0,0.123797003961504,1024,-32.8,99,Assisted_Takeoff,
0.35984105612544204,36.894026596976,2800,2017-11-06 08:56:40,1760.8208571462744,0.0,0.0,0.12785200409126402,1760.8208571462744,0.0,0.0,0.12785200409126402,1024,-32.9,99,Assisted_Takeoff,
0.35984107045982006,36.894026554766505,2900,2017-11-06 08:56:40,1760.8208571462744,0.0,0.0,0.13266500424528002,1760.8208571462744,0.0,0.0,0.13266500424528002,1024,-33.4,99,Assisted_Takeoff,
0.35984108159186295,36.894026510184496,3000,2017-11-06 08:56:40,1760.8208571462744,0.0,0.0,0.13771600440691198,1760.8208571462744,0.0,0.0,0.13771600440691198,1024,-33.7,99,Assisted_Takeoff,
0.35984109040418794,36.894026462635395,3100,2017-11-06 08:56:40,1760.8208571462744,0.0,0.0,0.14307400457836802,1760.8208571462744,0.0,0.0,0.14307400457836802,1024,-33.7,99,Assisted_Takeoff,
0.359841094107269,36.894026430397,3200,2017-11-06 08:56:40,1760.8208571462744,0.0,0.0,0.14668200469382403,1760.8208571462744,0.0,0.0,0.14668200469382403,1024,-32.6,99,Assisted_Takeoff,
0.35984109833674605,36.8940264088645,3300,2017-11-06 08:56:40,1760.8208571462744,0.0,0.0,0.14911100477155198,1760.8208571462744,0.0,0.0,0.14911100477155198,1024,-32.6,99,Assisted_Takeoff,
0.35984111336769103,36.894026387752795,3400,2017-11-06 08:56:41,1760.8208571462744,0.0,0.0,0.15162200485190402,1760.8208571462744,0.0,0.0,0.15162200485190402,1024,-30.6,99,Assisted_Takeoff,
0.3598411445466939,36.89402635293639,3500,2017-11-06 08:56:41,1760.8208571462744,0.0,0.0,0.15588100498819196,1760.8208571462744,0.0,0.0,0.15588100498819196,1024,-25.6,99,Assisted_Takeoff,
0.359841193095495,36.894026269794104,3700,2017-11-06 08:56:41,1760.8208571462744,0.0,0.0,0.16579900530556801,1760.8208571462744,0.0,0.0,0.16579900530556801,1024,-15.5,99,Assisted_Takeoff,
0.359841206414945,36.894026238370294,3800,2017-11-06 08:56:41,1760.8208571462744,0.0,0.0,0.169483005423456,1760.8208571462744,0.0,0.0,0.169483005423456,1024,-3.3,99,Assisted_Takeoff,
0.359841216083832,36.8940262187473,3900,2017-11-06 08:56:41,1760.8208571462744,0.0,0.0,0.17181000549792,1760.8208571462744,0.0,0.0,0.17181000549792,1024,11.4,99,Assisted_Takeoff,
0.35984121885218606,36.8940262158283,4000,2017-11-06 08:56:41,1760.8208571462744,0.0,0.0,0.17218100550979198,1760.8208571462744,0.0,0.0,0.17218100550979198,1024,25.5,99,Assisted_Takeoff,
0.35984122291678294,36.8940262122488,4100,2017-11-06 08:56:41,1760.8208571462744,0.0,0.0,0.172648005524736,1760.8208571462744,0.0,0.0,0.172648005524736,1024,25.5,99,Assisted_Takeoff,
0.35984121903579297,36.8940262082056,4200,2017-11-06 08:56:41,1760.8208571462744,0.0,0.0,0.17302000553664001,1760.8208571462744,0.0,0.0,0.17302000553664001,1024,48.3,99,Assisted_Takeoff,
0.359841213433539,36.8940261495528,4400,2017-11-06 08:56:42,1760.8208571462744,0.0,0.0,0.17935900573948801,1760.8208571462744,0.0,0.0,0.17935900573948801,1024,48.1,99,Assisted_Takeoff,
0.359841212342074,36.8940261082094,4500,2017-11-06 08:56:42,1760.8208571462744,0.0,0.0,0.18388400588428802,1760.8208571462744,0.0,0.0,0.18388400588428802,1024,48.1,99,Assisted_Takeoff,
0.35984122304298705,36.894026076656104,4600,2017-11-06 08:56:42,1760.8208571462744,0.0,0.0,0.187533006001056,1760.8208571462744,0.0,0.0,0.187533006001056,1024,48.0,99,Assisted_Takeoff,
0.359841252643213,36.8940260561922,4700,2017-11-06 08:56:42,1760.8208571462744,0.0,0.0,0.190311006089952,1760.8208571462744,0.0,0.0,0.190311006089952,1024,48.0,99,Assisted_Takeoff,
0.359841281028214,36.8940260491059,4800,2017-11-06 08:56:42,1760.8208571462744,0.0,0.0,0.191644006132608,1760.8208571462744,0.0,0.0,0.191644006132608,1024,47.9,99,Assisted_Takeoff,
0.35984130115903795,36.894026041346706,4900,2017-11-06 08:56:42,1760.8208571462744,0.0,0.0,0.192916006173312,1760.8208571462744,0.0,0.0,0.192916006173312,1024,43.7,99,Assisted_Takeoff,
0.35984131448785206,36.8940260485256,5000,2017-11-06 08:56:42,1760.8208571462744,0.0,0.0,0.192428006157696,1760.8208571462744,0.0,0.0,0.192916006173312,1024,33.5,99,Assisted_Takeoff,
0.359841325729001,36.8940260482911,5100,2017-11-06 08:56:42,1760.8208571462744,0.0,0.0,0.19271100616675202,1760.8208571462744,0.0,0.0,0.192916006173312,1024,33.5,99,Assisted_Takeoff,
0.35984133023979104,36.8940260565631,5200,2017-11-06 08:56:42,1760.8208571462744,0.0,0.0,0.19191800614137602,1760.8208571462744,0.0,0.0,0.192916006173312,1024,21.8,99,Assisted_Takeoff,
0.35984133327317497,36.89402606138621,5300,2017-11-06 08:56:42,1760.8208571462744,0.0,0.0,0.191466006126912,1760.8208571462744,0.0,0.0,0.192916006173312,1024,6.8,99,Assisted_Takeoff,
0.3598413270525189,36.8940260777209,5400,2017-11-06 08:56:43,1760.8208571462744,0.0,0.0,0.189543006065376,1760.8208571462744,0.0,0.0,0.192916006173312,1024,-12.6,99,Assisted_Takeoff,
0.35984132851730494,36.89402608102579,5500,2017-11-06 08:56:43,1760.8208571462744,0.0,0.0,0.18921900605500802,1760.8208571462744,0.0,0.0,0.192916006173312,1024,-32.1,99,Assisted_Takeoff,
0.359841322650021,36.8940260925717,5600,2017-11-06 08:56:43,1760.8208571462744,0.0,0.0,0.1878250060104,1760.8208571462744,0.0,0.0,0.192916006173312,1024,-35.7,99,Assisted_Takeoff,
0.359841322720451,36.8940260951545,5700,2017-11-06 08:56:43,1760.8208571462744,0.0,0.0,0.187546006001472,1760.8208571462744,0.0,0.0,0.192916006173312,1024,-35.9,99,Assisted_Takeoff,
0.359841316011669,36.8940261046507,5800,2017-11-06 08:56:43,1760.8208571462744,0.0,0.0,0.186356005963392,1760.8208571462744,0.0,0.0,0.192916006173312,1024,-36.0,99,Assisted_Takeoff,
0.35984131487420096,36.89402610652,5900,2017-11-06 08:56:43,1760.8208571462744,0.0,0.0,0.18612700595606402,1760.8208571462744,0.0,0.0,0.192916006173312,1024,-36.2,99,Assisted_Takeoff,
0.35984130773143796,36.894026114536096,6000,2017-11-06 08:56:43,1760.8208571462744,0.0,0.0,0.18508900592284802,1760.8208571462744,0.0,0.0,0.192916006173312,1024,-36.7,99,Assisted_Takeoff,
0.35984130060170294,36.8940261040127,6200,2017-11-06 08:56:43,1760.8208571462744,0.0,0.0,0.186073005954336,1760.8208571462744,0.0,0.0,0.192916006173312,1024,-36.7,99,Assisted_Takeoff,
0.35984130074582105,36.8940260735375,6300,2017-11-06 08:56:43,1760.8208571462744,0.0,0.0,0.18939700606070403,1760.8208571462744,0.0,0.0,0.192916006173312,1024,-36.9,99,Assisted_Takeoff,
0.359841314670645,36.8940260632849,6400,2017-11-06 08:56:44,1760.8208571462744,0.0,0.0,0.1908250061064,1760.8208571462744,0.0,0.0,0.192916006173312,1024,-37.2,99,Assisted_Takeoff,
0.359841346579598,36.894026072923005,6500,2017-11-06 08:56:44,1760.8208571462744,0.0,0.0,0.190538006097216,1760.8208571462744,0.0,0.0,0.192916006173312,1024,-37.4,99,Assisted_Takeoff,
0.35984137667405797,36.89402609095129,6600,2017-11-06 08:56:44,1760.8208571462744,0.0,0.0,0.18936900605980803,1760.8208571462744,0.0,0.0,0.192916006173312,1024,-34.7,99,Assisted_Takeoff,
0.359841397575543,36.8940260978995,6700,2017-11-06 08:56:44,1760.8208571462744,0.0,0.0,0.18919900605436804,1760.8208571462744,0.0,0.0,0.192916006173312,1024,-34.1,99,Assisted_Takeoff,
0.359841413620195,36.89402611066971,6800,2017-11-06 08:56:44,1760.8208571462744,0.0,0.0,0.18829300602537602,1760.8208571462744,0.0,0.0,0.192916006173312,1024,-32.4,99,Assisted_Takeoff,
0.359841427601608,36.8940261146352,6900,2017-11-06 08:56:44,1760.8208571462744,0.0,0.0,0.188289006025248,1760.8208571462744,0.0,0.0,0.192916006173312,1024,-25.7,99,Assisted_Takeoff,
0.359841433560899,36.8940261243525,7000,2017-11-06 08:56:44,1760.8208571462744,0.0,0.0,0.187433005997856,1760.8208571462744,0.0,0.0,0.192916006173312,1024,-2.7,99,Assisted_Takeoff,
0.35984144151991904,36.894026115946104,7200,2017-11-06 08:56:44,1760.8208571462744,0.0,0.0,0.18857900603452804,1760.8208571462744,0.0,0.0,0.192916006173312,1024,-2.7,99,Assisted_Takeoff,
0.35984144570664794,36.8940260873129,7300,2017-11-06 08:56:44,1760.8208571462744,0.0,0.0,0.19176600613651199,1760.8208571462744,0.0,0.0,0.192916006173312,1024,12.9,99,Assisted_Takeoff,
0.35984145910141496,36.8940260599259,7400,2017-11-06 08:56:45,1760.8208571462744,0.0,0.0,0.195107006243424,1760.8208571462744,0.0,0.0,0.195107006243424,1024,26.1,99,Assisted_Takeoff,
0.35984149134460597,36.8940260411015,7500,2017-11-06 08:56:45,1760.8208571462744,0.0,0.0,0.198149006340768,1760.8208571462744,0.0,0.0,0.198149006340768,1024,38.7,99,Assisted_Takeoff,
0.359841518588474,36.8940260265226,7600,2017-11-06 08:56:45,1760.8208571462744,0.0,0.0,0.20060900641948803,1760.8208571462744,0.0,0.0,0.20060900641948803,1024,46.1,99,Assisted_Takeoff,
0.35984154027568394,36.8940260137107,7700,2017-11-06 08:56:45,1760.8208571462744,0.0,0.0,0.202716006486912,1760.8208571462744,0.0,0.0,0.202716006486912,1024,45.9,99,Assisted_Takeoff,
0.3598416126018029,36.8940259992175,7900,2017-11-06 08:56:45,1760.8208571462744,0.0,0.0,0.206912006621184,1760.8208571462744,0.0,0.0,0.206912006621184,1024,45.8,99,Assisted_Takeoff,
0.35984164638875893,36.8940259983139,8000,2017-11-06 08:56:45,1760.8208571462744,0.0,0.0,0.20834700666710404,1760.8208571462744,0.0,0.0,0.20834700666710404,1024,45.7,99,Assisted_Takeoff,
0.35984167665990396,36.8940259921585,8100,2017-11-06 08:56:45,1760.8208571462744,0.0,0.0,0.210231006727392,1760.8208571462744,0.0,0.0,0.210231006727392,1024,45.6,99,Assisted_Takeoff,
0.359841683716766,36.89402599606721,8200,2017-11-06 08:56:45,1760.8208571462744,0.0,0.0,0.210127006724064,1760.8208571462744,0.0,0.0,0.210231006727392,1024,39.8,99,Assisted_Takeoff,
0.3598416972523929,36.8940259930514,8300,2017-11-06 08:56:45,1760.8208571462744,0.0,0.0,0.21101400675244802,1760.8208571462744,0.0,0.0,0.21101400675244802,1024,39.8,99,Assisted_Takeoff,
0.3598416997190779,36.8940259814161,8400,2017-11-06 08:56:46,1760.8208571462744,0.0,0.0,0.21231400679404802,1760.8208571462744,0.0,0.0,0.21231400679404802,1024,29.1,99,Assisted_Takeoff,
0.35984170584121294,36.894025950359,8500,2017-11-06 08:56:46,1760.8208571462744,0.0,0.0,0.215764006904448,1760.8208571462744,0.0,0.0,0.215764006904448,1024,17.1,99,Assisted_Takeoff,
0.35984171365000894,36.8940259229934,8600,2017-11-06 08:56:46,1760.8208571462744,0.0,0.0,0.218908007005056,1760.8208571462744,0.0,0.0,0.218908007005056,1024,1.1,99,Assisted_Takeoff,
0.359841747447143,36.894025903727396,8700,2017-11-06 08:56:46,1760.8208571462744,0.0,0.0,0.222337007114784,1760.8208571462744,0.0,0.0,0.222337007114784,1024,-17.7,99,Assisted_Takeoff,
0.35984176937007106,36.8940258931494,8800,2017-11-06 08:56:46,1760.8208571462744,0.0,0.0,0.22438200718022402,1760.8208571462744,0.0,0.0,0.22438200718022402,1024,-36.9,99,Assisted_Takeoff,
0.359841788480268,36.894025883158,8900,2017-11-06 08:56:46,1760.8208571462744,0.0,0.0,0.22625500724016,1760.8208571462744,0.0,0.0,0.22625500724016,1024,-38.0,99,Assisted_Takeoff,
0.359841794539708,36.8940258822485,9000,2017-11-06 08:56:46,1760.8208571462744,0.0,0.0,0.22662100725187198,1760.8208571462744,0.0,0.0,0.22662100725187198,1024,-38.2,99,Assisted_Takeoff,
0.35984180528662396,36.8940258767676,9100,2017-11-06 08:56:46,1760.8208571462744,0.0,0.0,0.227667007285344,1760.8208571462744,0.0,0.0,0.227667007285344,1024,-38.4,99,Assisted_Takeoff,
0.359841818746121,36.8940258799976,9200,2017-11-06 08:56:46,1760.8208571462744,0.0,0.0,0.22796000729472002,1760.8208571462744,0.0,0.0,0.22796000729472002,1024,-38.6,99,Assisted_Takeoff,
0.35984185346983905,36.8940258773205,9300,2017-11-06 08:56:46,1760.8208571462744,0.0,0.0,0.22986700735574403,1760.8208571462744,0.0,0.0,0.22986700735574403,1024,-38.6,99,Assisted_Takeoff,
0.359841879259507,36.8940258668394,9400,2017-11-06 08:56:47,1760.8208571462744,0.0,0.0,0.23216300742921603,1760.8208571462744,0.0,0.0,0.23216300742921603,1024,-38.8,99,Assisted_Takeoff,
0.35984189959185203,36.8940258353455,9500,2017-11-06 08:56:47,1760.8208571462744,0.0,0.0,0.23630300756169598,1760.8208571462744,0.0,0.0,0.23630300756169598,1024,-39.1,99,Assisted_Takeoff,
0.35984190603356897,36.8940258080977,9600,2017-11-06 08:56:47,1760.8208571462744,0.0,0.0,0.23933900765884805,1760.8208571462744,0.0,0.0,0.23933900765884805,1024,-39.3,99,Assisted_Takeoff,
0.35984191894916495,36.894025786237606,9700,2017-11-06 08:56:47,1760.8208571462744,0.0,0.0,0.242154007748928,1760.8208571462744,0.0,0.0,0.242154007748928,1024,-39.6,99,Assisted_Takeoff,
0.35984191631597207,36.8940257751028,9800,2017-11-06 08:56:47,1760.8208571462744,0.0,0.0,0.243139007780448,1760.8208571462744,0.0,0.0,0.243139007780448,1024,-37.1,99,Assisted_Takeoff,
0.35984191500018897,36.894025761753,10000,2017-11-06 08:56:47,1760.8208571462744,0.0,0.0,0.244413007821216,1760.8208571462744,0.0,0.0,0.244413007821216,1024,-36.7,99,Assisted_Takeoff,
0.359841919375818,36.894025755385606,10100,2017-11-06 08:56:47,1760.8208571462744,0.0,0.0,0.245262007848384,1760.8208571462744,0.0,0.0,0.245262007848384,1024,-34.7,99,Assisted_Takeoff,
0.359841927009556,36.894025742372996,10200,2017-11-06 08:56:47,1760.8208571462744,0.0,0.0,0.24693400790188802,1760.8208571462744,0.0,0.0,0.24693400790188802,1024,-26.6,99,Assisted_Takeoff,
0.35984196083966596,36.8940257086035,10300,2017-11-06 08:56:47,1760.8208571462744,0.0,0.0,0.251956008062592,1760.8208571462744,0.0,0.0,0.251956008062592,1024,-16.1,99,Assisted_Takeoff,
0.359841985199153,36.8940256819531,10400,2017-11-06 08:56:48,1760.8208571462744,0.0,0.0,0.25581200818598404,1760.8208571462744,0.0,0.0,0.25581200818598404,1024,-16.1,99,Assisted_Takeoff,
0.359842006563524,36.8940256611984,10500,2017-11-06 08:56:48,1760.8208571462744,0.0,0.0,0.258938008286016,1760.8208571462744,0.0,0.0,0.258938008286016,1024,-2.7,99,Assisted_Takeoff,
0.359842014231866,36.89402565074779,10600,2017-11-06 08:56:48,1760.8208571462744,0.0,0.0,0.26035900833148806,1760.8208571462744,0.0,0.0,0.26035900833148806,1024,12.5,99,Assisted_Takeoff,
0.359842026412627,36.894025638512396,10700,2017-11-06 08:56:48,1760.8208571462744,0.0,0.0,0.26218300838985603,1760.8208571462744,0.0,0.0,0.26218300838985603,1024,26.1,99,Assisted_Takeoff,
0.35984202404487,36.8940256372941,10800,2017-11-06 08:56:48,1760.8208571462744,0.0,0.0,0.262186008389952,1760.8208571462744,0.0,0.0,0.262186008389952,1024,38.9,99,Assisted_Takeoff,
0.35984203071456894,36.8940256301762,10900,2017-11-06 08:56:48,1760.8208571462744,0.0,0.0,0.263226008423232,1760.8208571462744,0.0,0.0,0.263226008423232,1024,43.6,99,Assisted_Takeoff,
0.3598420225947411,36.8940256189659,11000,2017-11-06 08:56:48,1760.8208571462744,0.0,0.0,0.26393500844592005,1760.8208571462744,0.0,0.0,0.26393500844592005,1024,43.6,99,Assisted_Takeoff,
0.35984202554629496,36.8940255857275,11100,2017-11-06 08:56:48,1760.8208571462744,0.0,0.0,0.26739300855657605,1760.8208571462744,0.0,0.0,0.26739300855657605,1024,43.4,99,Assisted_Takeoff,
0.359842037209211,36.8940255490006,11200,2017-11-06 08:56:48,1760.8208571462744,0.0,0.0,0.271631008692192,1760.8208571462744,0.0,0.0,0.271631008692192,1024,43.3,99,Assisted_Takeoff,
0.35984201930039794,36.894025540106,11300,2017-11-06 08:56:48,1760.8208571462744,0.0,0.0,0.27165300869289605,1760.8208571462744,0.0,0.0,0.27165300869289605,1024,43.3,99,Assisted_Takeoff,
0.35984200367385,36.8940255340282,11400,2017-11-06 08:56:49,1760.8208571462744,0.0,0.0,0.27151800868857606,1760.8208571462744,0.0,0.0,0.27165300869289605,1024,43.3,99,Assisted_Takeoff,
0.35984200616170503,36.8940255228003,11500,2017-11-06 08:56:49,1760.8208571462744,0.0,0.0,0.27276500872848003,1760.8208571462744,0.0,0.0,0.27276500872848003,1024,42.8,99,Assisted_Takeoff,
0.359841993937383,36.8940255267974,11600,2017-11-06 08:56:49,1760.8208571462744,0.0,0.0,0.271787008697184,1760.8208571462744,0.0,0.0,0.27276500872848003,1062,33.9,99,Assisted_Takeoff,
0.359841998120449,36.89402552036471,11700,2017-11-06 08:56:49,1760.8208571462744,0.0,0.0,0.272632008724224,1760.8208571462744,0.0,0.0,0.27276500872848003,1537,22.8,99,Assisted_Takeoff,
0.35984199539158396,36.894025523092104,11800,2017-11-06 08:56:49,1760.8208571462744,0.0,0.0,0.272229008711328,1760.8208571462744,0.0,0.0,0.27276500872848003,1684,10.0,99,Assisted_Takeoff,
0.35984199899858704,36.8940255240411,11900,2017-11-06 08:56:49,1760.8208571462744,0.0,0.0,0.272302008713664,1760.8208571462744,0.0,0.0,0.27276500872848003,1684,-8.8,99,Assisted_Takeoff,
0.35984196887400105,36.894025521783796,12000,2017-11-06 08:56:49,1760.8208571462744,0.0,0.0,0.271131008676192,1760.8208571462744,0.0,0.0,0.27276500872848003,1684,-28.8,99,Assisted_Takeoff,
0.35984194287019394,36.894025488843,12100,2017-11-06 08:56:49,1760.8208571462744,0.0,0.0,0.273307008745824,1760.8208571462744,0.0,0.0,0.273307008745824,1684,-39.6,99,Assisted_Takeoff,
0.359841901386804,36.8940254681676,12200,2017-11-06 08:56:49,1760.8208571462744,0.0,0.0,0.273626008756032,1760.8208571462744,0.0,0.0,0.273626008756032,1684,-56.8,99,Assisted_Takeoff,
0.35984188814959006,36.894025448983,12300,2017-11-06 08:56:49,1760.8208571462744,0.0,0.0,0.275046008801472,1760.8208571462744,0.0,0.0,0.275046008801472,1684,-79.2,99,Assisted_Takeoff,
0.359841852450026,36.8940254164164,12400,2017-11-06 08:56:50,1760.8208571462744,0.0,0.0,0.276966008862912,1760.8208571462744,0.0,0.0,0.276966008862912,1684,-79.2,99,GPS_Atti,Obstacle Avoided. Revise Flight Route
0.3598417943235321,36.894025327339705,12500,2017-11-06 08:56:50,1760.8208571462744,0.0,0.35999970196000003,0.28407300909033606,1760.8208571462744,0.0,0.35999970196000003,0.28407300909033606,1684,-112.1,99,GPS_Atti,
0.35984171164743,36.8940251927337,12600,2017-11-06 08:56:50,1760.9208571494744,0.10000000320000002,0.35999970196000003,0.29554800945753607,1760.9208571494744,0.10000000320000002,0.35999970196000003,0.29554800945753607,1684,-111.7,99,GPS_Atti,
0.359841596706561,36.8940248799101,12800,2017-11-06 08:56:50,1761.1208571558743,0.3000000096,0.0,0.32607701043446397,1761.1208571558743,0.3000000096,0.35999970196000003,0.32607701043446397,1684,-111.0,99,GPS_Atti,Home Point Recorded. RTH Altitude:  30m.
0.35984156508299203,36.894024760060205,12900,2017-11-06 08:56:50,1761.3208571622743,0.500000016,0.0,0.33838901082844797,1761.3208571622743,0.500000016,0.35999970196000003,0.33838901082844797,1684,-110.8,99,GPS_Atti,
0.359841530936965,36.8940246855935,13000,2017-11-06 08:56:50,1761.5208571686744,0.7000000224000001,0.0,0.34579701106550403,1761.5208571686744,0.7000000224000001,0.35999970196000003,0.34579701106550403,1684,-111.5,99,GPS_Atti,
0.359841502890274,36.894024669688704,13100,2017-11-06 08:56:50,1761.8208571782745,1.000000032,0.0,0.346984011103488,1761.8208571782745,1.000000032,0.35999970196000003,0.346984011103488,1684,-119.3,99,GPS_Atti,
0.359841497723628,36.8940246875891,13200,2017-11-06 08:56:50,1762.2208571910744,1.4000000448000003,0.0,0.34492401103756803,1762.2208571910744,1.4000000448000003,0.35999970196000003,0.346984011103488,1684,-71.7,99,GPS_Atti,
0.35984151337582393,36.8940246885403,13300,2017-11-06 08:56:50,1762.6208572038745,1.8000000576000001,0.0,0.34512401104396806,1762.6208572038745,1.8000000576000001,0.35999970196000003,0.346984011103488,1684,-71.7,99,GPS_Atti,
0.359841586521051,36.8940247148766,13500,2017-11-06 08:56:51,1763.5208572326744,2.7000000863999998,0.0,0.34378901100124803,1763.5208572326744,2.7000000863999998,0.35999970196000003,0.346984011103488,1684,-71.7,99,GPS_Atti,
0.35984162937151903,36.8940247038306,13600,2017-11-06 08:56:51,1764.0208572486742,3.2000001024000007,0.0,0.34598001107136,1764.0208572486742,3.2000001024000007,0.35999970196000003,0.346984011103488,1684,-71.7,99,GPS_Atti,
0.359841664446574,36.894024663742,13700,2017-11-06 08:56:51,1764.5208572646745,3.7000001184,0.0,0.351182011237824,1764.5208572646745,3.7000001184,0.35999970196000003,0.351182011237824,1684,-71.7,99,GPS_Atti,
0.35984167751442997,36.8940246320372,13800,2017-11-06 08:56:51,1765.0208572806744,4.2000001344,0.0,0.3549430113581761,1765.0208572806744,4.2000001344,0.35999970196000003,0.3549430113581761,1684,-71.7,99,GPS_Atti,
0.35984171263345294,36.8940246012045,13900,2017-11-06 08:56:51,1765.6208572998744,4.8000001536,0.0,0.35917101149347197,1765.6208572998744,4.8000001536,0.35999970196000003,0.35917101149347197,1684,-71.7,99,GPS_Atti,
0.359841716810005,36.8940245735942,14000,2017-11-06 08:56:51,1766.1208573158744,5.3000001696,0.0,0.36226501159248004,1766.1208573158744,5.3000001696,0.35999970196000003,0.36226501159248004,1684,-71.7,99,GPS_Atti,
0.359841659236775,36.8940244655626,14200,2017-11-06 08:56:51,1767.1208573478746,6.300000201600001,0.0,0.37258101192259196,1767.1208573478746,6.300000201600001,0.35999970196000003,0.37258101192259196,1684,-71.7,99,GPS_Atti,
0.35984164186941897,36.894024383989795,14300,2017-11-06 08:56:51,1767.6208573638744,6.800000217600001,0.0,0.381072012194304,1767.6208573638744,6.800000217600001,0.35999970196000003,0.381072012194304,1684,-71.7,99,GPS_Atti,
0.359841589697738,36.8940242881005,14400,2017-11-06 08:56:52,1768.1208573798742,7.3000002336000005,0.0,0.39045401249452805,1768.1208573798742,7.3000002336000005,0.35999970196000003,0.39045401249452805,1684,-71.7,99,GPS_Atti,
0.359841553593099,36.894024191456296,14500,2017-11-06 08:56:52,1768.6208573958745,7.8000002496,0.0,0.40035501281136,1768.6208573958745,7.8000002496,0.35999970196000003,0.40035501281136,1684,-71.7,99,GPS_Atti,
0.35984147758669704,36.8940240910672,14600,2017-11-06 08:56:52,1769.1208574118743,8.3000002656,0.0,0.410108013123456,1769.1208574118743,8.3000002656,0.35999970196000003,0.410108013123456,1684,-71.7,99,GPS_Atti,
0.359841432286641,36.8940239900314,14700,2017-11-06 08:56:52,1769.6208574278744,8.8000002816,0.0,0.420583013458656,1769.6208574278744,8.8000002816,0.35999970196000003,0.420583013458656,1684,-71.7,99,GPS_Atti,
0.359841352542146,36.8940238949535,14800,2017-11-06 08:56:52,1770.1208574438742,9.3000002976,0.0,0.430094013763008,1770.1208574438742,9.3000002976,0.35999970196000003,0.430094013763008,1684,-71.7,99,GPS_Atti,
0.35984130696037003,36.8940238183719,14900,2017-11-06 08:56:52,1770.6208574598745,9.8000003136,0.0,0.438097014019104,1770.6208574598745,9.8000003136,0.35999970196000003,0.438097014019104,1684,-71.7,99,GPS_Atti,
0.35984122357670895,36.89402371942379,15000,2017-11-06 08:56:52,1771.1208574758743,10.300000329600001,0.0,0.44836501434768,1771.1208574758743,10.300000329600001,0.35999970196000003,0.44836501434768,1684,-71.7,99,GPS_Atti,
0.35984118229972495,36.894023602092396,15100,2017-11-06 08:56:52,1771.6208574918742,10.800000345599999,0.0,0.46112201475590403,1771.6208574918742,10.800000345599999,0.35999970196000003,0.46112201475590403,1684,-71.7,99,GPS_Atti,
0.35984113098134796,36.8940234837498,15200,2017-11-06 08:56:52,1772.1208575078745,11.3000003616,0.0,0.47400501516815996,1772.1208575078745,11.3000003616,0.35999970196000003,0.47400501516815996,1684,-71.7,99,GPS_Atti,
0.359841105595942,36.894023384595606,15300,2017-11-06 08:56:52,1772.6208575238743,11.8000003776,0.0,0.484923015517536,1772.6208575238743,11.8000003776,0.35999970196000003,0.484923015517536,1684,-71.7,99,GPS_Atti,
0.35984105587425397,36.8940232935218,15400,2017-11-06 08:56:53,1773.1208575398744,12.300000393600001,0.0,0.4949000158368,1773.1208575398744,12.300000393600001,0.35999970196000003,0.4949000158368,1684,-71.7,99,GPS_Atti,
0.35984103018310704,36.8940232166489,15500,2017-11-06 08:56:53,1773.6208575558744,12.800000409600003,0.0,0.503396016108672,1773.6208575558744,12.800000409600003,0.35999970196000003,0.503396016108672,1684,-71.7,99,GPS_Atti,
0.359840968583549,36.8940231202425,15600,2017-11-06 08:56:53,1774.1208575718745,13.3000004256,0.0,0.5140620164499841,1774.1208575718745,13.3000004256,0.35999970196000003,0.5140620164499841,1684,-71.7,99,GPS_Atti,
0.35984090362288296,36.8940230154858,15700,2017-11-06 08:56:53,1774.6208575878743,13.8000004416,0.0,0.525754016824128,1774.6208575878743,13.8000004416,0.35999970196000003,0.525754016824128,1684,-71.7,99,GPS_Atti,
0.359840807003229,36.894022887248795,15800,2017-11-06 08:56:53,1775.1208576038744,14.300000457600001,0.0,0.5402520172880639,1775.1208576038744,14.300000457600001,0.35999970196000003,0.5402520172880639,1684,-71.7,99,GPS_Atti,
0.35984071433010995,36.894022766901,15900,2017-11-06 08:56:53,1775.6208576198744,14.8000004736,0.0,0.554048017729536,1775.6208576198744,14.8000004736,0.35999970196000003,0.554048017729536,1684,-71.7,99,GPS_Atti,
0.35984056413057797,36.8940226270388,16000,2017-11-06 08:56:53,1776.2208576390742,15.4000004928,0.0,0.570638018260416,1776.2208576390742,15.4000004928,0.35999970196000003,0.570638018260416,1684,-71.7,99,GPS_Atti,
0.359840401469378,36.8940225174891,16100,2017-11-06 08:56:53,1776.7208576550745,15.900000508800002,0.0,0.5844410187021122,1776.7208576550745,15.900000508800002,0.35999970196000003,0.5844410187021122,1684,-71.7,99,GPS_Atti,
0.35984020528299504,36.894022379849,16200,2017-11-06 08:56:53,1777.2208576710743,16.400000524800003,0.0,0.6023260192744321,1777.2208576710743,16.400000524800003,0.35999970196000003,0.6023260192744321,1684,-71.7,99,GPS_Atti,
0.35984003977323903,36.8940222566357,16300,2017-11-06 08:56:53,1777.7208576870744,16.900000540799997,0.0,0.618684019797888,1777.7208576870744,16.900000540799997,0.35999970196000003,0.618684019797888,1684,-71.7,99,GPS_Atti,
0.359839719401309,36.8940219430825,16500,2017-11-06 08:56:54,1778.7208577190745,17.9000005728,0.0,0.659637021108384,1778.7208577190745,17.9000005728,0.35999970196000003,0.659637021108384,1684,-71.7,99,GPS_Atti,
0.359839587287276,36.8940217657344,16600,2017-11-06 08:56:54,1779.2208577350743,18.4000005888,0.0,0.6820780218264961,1779.2208577350743,18.4000005888,0.35999970196000003,0.6820780218264961,1684,-71.7,99,GPS_Atti,
0.3598394991143621,36.894021619087795,16700,2017-11-06 08:56:54,1779.7208577510742,18.900000604800002,0.0,0.700194022406208,1779.7208577510742,18.900000604800002,0.35999970196000003,0.700194022406208,1684,-71.7,99,GPS_Atti,
0.35983942166638,36.8940214245576,16800,2017-11-06 08:56:54,1780.2208577670744,19.4000006208,0.0,0.7232450231438401,1780.2208577670744,19.4000006208,0.35999970196000003,0.7232450231438401,1684,-71.7,99,GPS_Atti,
0.359839380499316,36.8940212475263,16900,2017-11-06 08:56:54,1780.7208577830743,19.900000636800005,0.0,0.74345502379056,1780.7208577830743,19.900000636800005,0.35999970196000003,0.74345502379056,1684,-71.7,99,GPS_Atti,
0.359839392155718,36.894021048607705,17000,2017-11-06 08:56:54,1781.2208577990743,20.4000006528,0.0,0.7646680244693761,1781.2208577990743,20.4000006528,0.35999970196000003,0.7646680244693761,1684,-71.7,99,GPS_Atti,
0.35983945089613495,36.894020901603604,17100,2017-11-06 08:56:54,1781.7208578150744,20.900000668800004,0.0,0.7791550249329602,1781.7208578150744,20.900000668800004,0.35999970196000003,0.7791550249329602,1684,-71.7,99,GPS_Atti,
0.359839507193887,36.894020747921,17200,2017-11-06 08:56:54,1782.2208578310745,21.400000684800002,0.0,0.7945510254256322,1782.2208578310745,21.400000684800002,0.35999970196000003,0.7945510254256322,1684,-71.7,99,GPS_Atti,
0.3598395356900279,36.894020644496706,17300,2017-11-06 08:56:54,1782.7208578470743,21.900000700799996,0.0,0.805184025765888,1782.7208578470743,21.900000700799996,0.35999970196000003,0.805184025765888,1684,-71.7,99,GPS_Atti,
0.35983954773481397,36.894020544804604,17400,2017-11-06 08:56:55,1783.2208578630746,22.400000716800005,0.0,0.8157950261054401,1783.2208578630746,22.400000716800005,0.35999970196000003,0.8157950261054401,1684,-71.7,99,GPS_Atti,
0.359839567797245,36.8940204532811,17500,2017-11-06 08:56:55,1783.8208578822744,23.000000735999997,0.0,0.825362026411584,1783.8208578822744,23.000000735999997,0.35999970196000003,0.825362026411584,1684,-71.7,99,GPS_Atti,
0.35983957754918106,36.8940201451452,17700,2017-11-06 08:56:55,1784.8208579142745,24.000000768000003,0.0,0.8588450274830401,1784.8208579142745,24.000000768000003,0.35999970196000003,0.8588450274830401,1684,-71.7,99,GPS_Atti,
0.359839583036223,36.894019979352,17800,2017-11-06 08:56:55,1785.3208579302743,24.500000784000004,0.0,0.876882028060224,1785.3208579302743,24.500000784000004,0.35999970196000003,0.876882028060224,1684,-71.7,99,GPS_Atti,
0.35983961002849696,36.894019863997,17900,2017-11-06 08:56:55,1785.8208579462744,25.000000800000002,0.0,0.889002028448064,1785.8208579462744,25.000000800000002,0.35999970196000003,0.889002028448064,1684,-71.7,99,GPS_Atti,
0.35983965614033103,36.894019730669704,18000,2017-11-06 08:56:55,1786.3208579622744,25.500000816,0.0,0.902778028888896,1786.3208579622744,25.500000816,0.35999970196000003,0.902778028888896,1684,-71.7,99,GPS_Atti,
0.35983973009937203,36.894019618116396,18100,2017-11-06 08:56:55,1786.8208579782743,26.000000832,0.0,0.913863029243616,1786.8208579782743,26.000000832,0.35999970196000003,0.913863029243616,1684,-71.7,99,GPS_Atti,
0.359839820075789,36.8940195103884,18200,2017-11-06 08:56:55,1787.3208579942743,26.500000848000003,0.0,0.9242790295769281,1787.3208579942743,26.500000848000003,0.35999970196000003,0.9242790295769281,1684,-71.7,99,GPS_Atti,
0.359839912734252,36.8940194448644,18300,2017-11-06 08:56:55,1787.8208580102744,27.000000864000004,0.0,0.930146029764672,1787.8208580102744,27.000000864000004,0.35999970196000003,0.930146029764672,1684,-71.7,99,GPS_Atti,
0.35983999039474607,36.8940193741491,18400,2017-11-06 08:56:56,1788.3208580262744,27.50000088,0.0,0.936912029981184,1788.3208580262744,27.50000088,0.35999970196000003,0.936912029981184,1684,-71.7,99,GPS_Atti,
0.35984003555068395,36.894019335449,18500,2017-11-06 08:56:56,1788.8208580422743,28.000000896,0.0,0.9406220300999039,1788.8208580422743,28.000000896,0.35999970196000003,0.9406220300999039,1684,-71.7,99,GPS_Atti,
0.35984005952138,36.8940192867357,18600,2017-11-06 08:56:56,1789.3208580582746,28.500000912,0.35999970196000003,0.9457200302630401,1789.3208580582746,28.500000912,0.35999970196000003,0.9457200302630401,1684,-71.7,99,GPS_Atti,
0.35984008458557504,36.8940192681115,18700,2017-11-06 08:56:56,1789.9208580774743,29.1000009312,0.35999970196000003,0.947488030319616,1789.9208580774743,29.1000009312,0.35999970196000003,0.947488030319616,1684,-71.7,99,GPS_Atti,
0.359840131794981,36.8940192376936,18800,2017-11-06 08:56:56,1790.4208580934742,29.6000009472,0.35999970196000003,0.9503270304104641,1790.4208580934742,29.6000009472,0.35999970196000003,0.9503270304104641,1684,-71.7,99,GPS_Atti,
0.359840209428199,36.8940192236109,18900,2017-11-06 08:56:56,1790.9208581094745,30.1000009632,0.35999970196000003,0.9510860304347521,1790.9208581094745,30.1000009632,0.35999970196000003,0.9510860304347521,1684,-71.7,99,GPS_Atti,
0.3598403036874229,36.8940191966885,19000,2017-11-06 08:56:56,1791.4208581254743,30.6000009792,0.35999970196000003,0.953204030502528,1791.4208581254743,30.6000009792,0.35999970196000003,0.953204030502528,1684,-71.7,99,GPS_Atti,
0.359840393630049,36.89401919463079,19100,2017-11-06 08:56:56,1791.9208581414744,31.100000995200002,0.35999970196000003,0.9527150304868801,1791.9208581414744,31.100000995200002,0.35999970196000003,0.953204030502528,1684,-71.7,99,GPS_Atti,
0.359840489606874,36.8940191738912,19200,2017-11-06 08:56:56,1792.4208581574744,31.6000010112,0.0,0.9543670305397441,1792.4208581574744,31.6000010112,0.35999970196000003,0.9543670305397441,1684,-71.7,99,GPS_Atti,
0.359840571813984,36.8940191623822,19300,2017-11-06 08:56:56,1792.9208581734745,32.1000010272,0.0,0.9551850305659201,1792.9208581734745,32.1000010272,0.35999970196000003,0.9551850305659201,1684,-71.7,99,GPS_Atti,
0.359840649876296,36.8940191283682,19400,2017-11-06 08:56:57,1793.4208581894743,32.6000010432,0.0,0.9586080306754562,1793.4208581894743,32.6000010432,0.35999970196000003,0.9586080306754562,1684,-71.7,99,GPS_Atti,
0.35984072677020096,36.894019088785896,19500,2017-11-06 08:56:57,1793.9208582054746,33.100001059200004,0.0,0.9627360308075521,1793.9208582054746,33.100001059200004,0.35999970196000003,0.9627360308075521,1684,-71.7,99,GPS_Atti,
0.359840810560158,36.8940190268431,19600,2017-11-06 08:56:57,1794.4208582214744,33.6000010752,0.0,0.9694130310212161,1794.4208582214744,33.6000010752,0.35999970196000003,0.9694130310212161,1684,-71.7,99,GPS_Atti,
0.359840903995389,36.8940189870628,19700,2017-11-06 08:56:57,1794.9208582374742,34.1000010912,0.0,0.97371003115872,1794.9208582374742,34.1000010912,0.35999970196000003,0.97371003115872,1684,-71.7,99,GPS_Atti,
0.35984101283814296,36.894018936811,19800,2017-11-06 08:56:57,1795.4208582534745,34.6000011072,0.0,0.9792910313373121,1795.4208582534745,34.6000011072,0.35999970196000003,0.9792910313373121,1684,-71.7,99,GPS_Atti,
0.359841109040915,36.8940189064477,19900,2017-11-06 08:56:57,1795.9208582694744,35.1000011232,0.0,0.982786031449152,1795.9208582694744,35.1000011232,0.35999970196000003,0.982786031449152,1684,-71.7,99,GPS_Atti,
0.35984120138793896,36.89401885934021,20000,2017-11-06 08:56:57,1796.4208582854744,35.6000011392,0.0,0.9882460316238721,1796.4208582854744,35.6000011392,0.35999970196000003,0.9882460316238721,1684,-71.7,99,GPS_Atti,
0.35984128684053707,36.8940188268368,20100,2017-11-06 08:56:57,1796.9208583014743,36.1000011552,0.0,0.9921580317490561,1796.9208583014743,36.1000011552,0.35999970196000003,0.9921580317490561,1684,-71.7,99,GPS_Atti,
0.35984138894153295,36.8940187962647,20200,2017-11-06 08:56:57,1797.4208583174745,36.6000011712,0.0,0.99603003187296,1797.4208583174745,36.6000011712,0.35999970196000003,0.99603003187296,1684,-71.7,99,GPS_Atti,
0.359841481383414,36.8940187944811,20300,2017-11-06 08:56:57,1797.9208583334744,37.1000011872,0.0,0.9967690318966079,1797.9208583334744,37.1000011872,0.35999970196000003,0.9967690318966079,1684,-71.7,99,GPS_Atti,
0.35984156547259794,36.894018777394294,20400,2017-11-06 08:56:58,1798.4208583494742,37.60000120320001,0.0,0.999249031975968,1798.4208583494742,37.60000120320001,0.35999970196000003,0.999249031975968,1684,-71.7,99,GPS_Atti,
0.359841636885159,36.8940187657783,20500,2017-11-06 08:56:58,1798.9208583654745,38.1000012192,0.0,1.0011000320352,1798.9208583654745,38.1000012192,0.35999970196000003,1.0011000320352,1684,-71.7,99,GPS_Atti,
0.3598417196781021,36.8940187753259,20600,2017-11-06 08:56:58,1799.4208583814743,38.600001235200004,0.35999970196000003,1.00077003202464,1799.4208583814743,38.600001235200004,0.35999970196000003,1.0011000320352,1684,-71.7,99,GPS_Atti,
0.359841802574858,36.894018829699604,20700,2017-11-06 08:56:58,1799.9208583974744,39.100001251200005,0.35999970196000003,0.995571031858272,1799.9208583974744,39.100001251200005,0.35999970196000003,1.0011000320352,1684,-71.7,99,GPS_Atti,
0.35984190162496393,36.8940188767235,20800,2017-11-06 08:56:58,1800.4208584134744,39.60000126719999,0.35999970196000003,0.9914630317268162,1800.4208584134744,39.60000126719999,0.35999970196000003,1.0011000320352,1684,-71.7,99,GPS_Atti,
0.35984198477901397,36.894018915047795,20900,2017-11-06 08:56:58,1800.9208584294745,40.10000128320001,0.35999970196000003,0.9882450316238399,1800.9208584294745,40.10000128320001,0.35999970196000003,1.0011000320352,1684,-71.7,99,GPS_Atti,
0.359842055961151,36.894018935056295,21000,2017-11-06 08:56:58,1801.4208584454743,40.6000012992,0.35999970196000003,0.9869780315832961,1801.4208584454743,40.6000012992,0.35999970196000003,1.0011000320352,1684,-71.7,99,GPS_Atti,
0.3598421026307271,36.8940189475652,21100,2017-11-06 08:56:58,1801.9208584614742,41.100001315200004,0.0,0.986251031560032,1801.9208584614742,41.100001315200004,0.35999970196000003,1.0011000320352,1684,-71.7,99,GPS_Atti,
0.359842154028084,36.8940189511249,21200,2017-11-06 08:56:58,1802.5208584806744,41.7000013344,0.0,0.9866090315714879,1802.5208584806744,41.7000013344,0.35999970196000003,1.0011000320352,1684,-71.7,99,GPS_Atti,
0.35984221513096704,36.8940189722404,21300,2017-11-06 08:56:58,1803.0208584966742,42.2000013504,0.0,0.985219031527008,1803.0208584966742,42.2000013504,0.35999970196000003,1.0011000320352,1684,-71.7,99,GPS_Atti,
0.35984227775481603,36.89401896931871,21400,2017-11-06 08:56:59,1803.5208585126745,42.7000013664,0.0,0.9865490315695681,1803.5208585126745,42.7000013664,0.35999970196000003,1.0011000320352,1684,-71.7,99,GPS_Atti,
0.35984233134975796,36.8940189538624,21500,2017-11-06 08:56:59,1804.0208585286744,43.200001382399996,0.0,0.989148031652736,1804.0208585286744,43.200001382399996,0.35999970196000003,1.0011000320352,1684,-71.7,99,GPS_Atti,
0.359842386470145,36.8940189155028,21600,2017-11-06 08:56:59,1804.5208585446744,43.700001398400005,0.0,0.99432003181824,1804.5208585446744,43.700001398400005,0.35999970196000003,1.0011000320352,1684,-71.7,99,GPS_Atti,
0.35984243601270294,36.894018874717204,21700,2017-11-06 08:56:59,1804.9208585574743,44.100001411200004,0.0,0.9996860319899521,1804.9208585574743,44.100001411200004,0.35999970196000003,1.0011000320352,1684,-71.7,98,GPS_Atti,
0.35984248671756397,36.8940188204849,21800,2017-11-06 08:56:59,1805.4208585734746,44.6000014272,0.0,1.00657003221024,1805.4208585734746,44.6000014272,0.35999970196000003,1.00657003221024,1684,-71.7,98,GPS_Atti,
0.3598425329039,36.8940187792818,21900,2017-11-06 08:56:59,1805.9208585894744,45.10000144320001,0.0,1.01196003238272,1805.9208585894744,45.10000144320001,0.35999970196000003,1.01196003238272,1684,-71.7,98,GPS_Atti,
0.359842574080328,36.894018742747505,22000,2017-11-06 08:56:59,1806.4208586054742,45.6000014592,0.0,1.01676003253632,1806.4208586054742,45.6000014592,0.35999970196000003,1.01676003253632,1684,-71.7,98,GPS_Atti,
0.35984260921482103,36.8940187362597,22100,2017-11-06 08:56:59,1806.9208586214745,46.1000014752,0.0,1.01816003258112,1806.9208586214745,46.1000014752,0.35999970196000003,1.01816003258112,1684,-71.7,98,GPS_Atti,
0.35984265302932794,36.894018720896604,22200,2017-11-06 08:56:59,1807.4208586374743,46.600001491200004,0.0,1.0207300326633602,1807.4208586374743,46.600001491200004,0.35999970196000003,1.0207300326633602,1684,-71.7,98,GPS_Atti,
0.359842713374577,36.89401871471279,22300,2017-11-06 08:56:59,1807.9208586534744,47.1000015072,0.0,1.02266003272512,1807.9208586534744,47.1000015072,0.35999970196000003,1.02266003272512,1684,-71.7,98,GPS_Atti,
0.35984277774249,36.894018695851,22400,2017-11-06 08:57:00,1808.4208586694742,47.60000152320001,0.0,1.0261000328352,1808.4208586694742,47.60000152320001,0.35999970196000003,1.0261000328352,1684,-71.7,98,GPS_Atti,
0.359842837982705,36.894018679442894,22500,2017-11-06 08:57:00,1808.9208586854745,48.1000015392,0.0,1.02923003293536,1808.9208586854745,48.1000015392,0.35999970196000003,1.02923003293536,1684,-71.7,98,GPS_Atti,
0.35984289133012304,36.89401863063,22600,2017-11-06 08:57:00,1809.4208587014743,48.6000015552,0.0,1.03576003314432,1809.4208587014743,48.6000015552,0.35999970196000003,1.03576003314432,1684,-71.7,98,GPS_Atti,
0.35984293489995706,36.8940185860962,22700,2017-11-06 08:57:00,1810.0208587206746,49.200001574400005,0.0,1.0416100333315201,1810.0208587206746,49.200001574400005,0.35999970196000003,1.0416100333315201,1684,-71.7,98,GPS_Atti,
0.35984297689589895,36.8940185227927,22800,2017-11-06 08:57:00,1810.5208587366744,49.70000159040001,0.0,1.04948003358336,1810.5208587366744,49.70000159040001,0.35999970196000003,1.04948003358336,1684,-71.7,98,GPS_Atti,
0.35984302832093895,36.894018482947104,22900,2017-11-06 08:57:00,1811.0208587526743,50.200001606399994,0.0,1.0550400337612802,1811.0208587526743,50.200001606399994,0.35999970196000003,1.0550400337612802,1684,-71.7,98,GPS_Atti,
0.359843064447155,36.894018413050794,23000,2017-11-06 08:57:00,1811.5208587686745,50.7000016224,0.0,1.063500034032,1811.5208587686745,50.7000016224,0.35999970196000003,1.063500034032,1684,-71.7,98,GPS_Atti,
0.359843076206963,36.894018343972505,23100,2017-11-06 08:57:00,1812.0208587846744,51.20000163840001,0.0,1.0712900342812801,1812.0208587846744,51.20000163840001,0.35999970196000003,1.0712900342812801,1684,-71.7,98,GPS_Atti,
0.359843082057555,36.8940182614827,23200,2017-11-06 08:57:00,1812.5208588006744,51.700001654400005,0.0,1.0803800345721601,1812.5208588006744,51.700001654400005,0.35999970196000003,1.0803800345721601,1684,-71.7,98,GPS_Atti,
0.359843092735262,36.8940182115049,23300,2017-11-06 08:57:00,1813.0208588166743,52.200001670400006,0.0,1.0860600347539202,1813.0208588166743,52.200001670400006,0.35999970196000003,1.0860600347539202,1684,-71.7,98,GPS_Atti,
0.35984306778465097,36.894018137747004,23400,2017-11-06 08:57:01,1813.5208588326745,52.7000016864,0.0,1.09347003499104,1813.5208588326745,52.7000016864,0.35999970196000003,1.09347003499104,1684,-71.7,98,GPS_Atti,
0.35984300339027503,36.8940180603019,23500,2017-11-06 08:57:01,1814.0208588486744,53.2000017024,0.0,1.10039003521248,1814.0208588486744,53.2000017024,0.35999970196000003,1.10039003521248,1684,-71.7,98,GPS_Atti,
0.35984292045850796,36.8940179411644,23600,2017-11-06 08:57:01,1814.5208588646742,53.7000017184,0.0,1.1115100355683198,1814.5208588646742,53.7000017184,0.35999970196000003,1.1115100355683198,1684,-71.7,98,GPS_Atti,
0.359842854567186,36.894017843956,23700,2017-11-06 08:57:01,1815.0208588806745,54.200001734400004,0.0,1.12072003586304,1815.0208588806745,54.200001734400004,0.35999970196000003,1.12072003586304,1684,-71.7,98,GPS_Atti,
0.3598427779134771,36.894017715241,23800,2017-11-06 08:57:01,1815.5208588966743,54.700001750400006,0.0,1.13323003626336,1815.5208588966743,54.700001750400006,0.35999970196000003,1.13323003626336,1684,-71.7,98,GPS_Atti,
0.359842712379598,36.8940176154236,23900,2017-11-06 08:57:01,1816.0208589126744,55.2000017664,0.0,1.1428900365724801,1816.0208589126744,55.2000017664,0.35999970196000003,1.1428900365724801,1684,-71.7,98,GPS_Atti,
0.359842643610815,36.894017497091205,24000,2017-11-06 08:57:01,1816.5208589286744,55.7000017824,0.0,1.1546000369472,1816.5208589286744,55.7000017824,0.35999970196000003,1.1546000369472,1684,-71.7,98,GPS_Atti,
0.35984258009539294,36.8940174115063,24100,2017-11-06 08:57:01,1817.1208589478742,56.3000018016,0.0,1.1628800372121602,1817.1208589478742,56.3000018016,0.35999970196000003,1.1628800372121602,1684,-71.7,98,GPS_Atti,
0.35984251445281495,36.8940172871989,24200,2017-11-06 08:57:01,1817.6208589638743,56.80000181760001,0.0,1.17544003761408,1817.6208589638743,56.80000181760001,0.35999970196000003,1.17544003761408,1684,-71.7,98,GPS_Atti,
0.35984245728873104,36.8940171787278,24300,2017-11-06 08:57:01,1818.1208589798744,57.3000018336,0.0,1.18647003796704,1818.1208589798744,57.3000018336,0.35999970196000003,1.18647003796704,1684,-71.7,98,GPS_Atti,
0.3598423707011071,36.89401706029479,24400,2017-11-06 08:57:02,1818.6208589958744,57.8000018496,0.0,1.1982200383430401,1818.6208589958744,57.8000018496,0.35999970196000003,1.1982200383430401,1684,-71.7,98,GPS_Atti,
0.359842273295729,36.8940169988659,24500,2017-11-06 08:57:02,1819.1208590118742,58.30000186560001,0.0,1.20363003851616,1819.1208590118742,58.30000186560001,0.35999970196000003,1.20363003851616,1684,-71.7,98,GPS_Atti,
0.359842180936493,36.8940169016982,24600,2017-11-06 08:57:02,1819.6208590278745,58.8000018816,0.0,1.21317003882144,1819.6208590278745,58.8000018816,0.35999970196000003,1.21317003882144,1684,-71.7,98,GPS_Atti,
0.3598421195014071,36.8940168114134,24700,2017-11-06 08:57:02,1820.1208590438744,59.30000189760001,0.0,1.22241003911712,1820.1208590438744,59.30000189760001,0.35999970196000003,1.22241003911712,1684,-71.7,98,GPS_Atti,
0.3598420504313621,36.8940166741977,24800,2017-11-06 08:57:02,1820.6208590598742,59.800001913600006,0.0,1.2368100395779202,1820.6208590598742,59.800001913600006,0.35999970196000003,1.2368100395779202,1684,-71.7,98,GPS_Atti,
0.359841974182322,36.8940165324299,24900,2017-11-06 08:57:02,1821.2208590790744,60.40000193280001,0.0,1.25171004005472,1821.2208590790744,60.40000193280001,0.35999970196000003,1.25171004005472,1684,-71.7,98,GPS_Atti,
0.359841891623061,36.894016366039295,25000,2017-11-06 08:57:02,1821.7208590950743,60.9000019488,0.0,1.26936004061952,1821.7208590950743,60.9000019488,0.35999970196000003,1.26936004061952,1684,-71.7,98,GPS_Atti,
0.35984182467854203,36.8940162472851,25100,2017-11-06 08:57:02,1822.2208591110743,61.400001964800005,0.0,1.28194004102208,1822.2208591110743,61.400001964800005,0.35999970196000003,1.28194004102208,1684,-71.7,98,GPS_Atti,
0.35984176365993203,36.8940161069305,25200,2017-11-06 08:57:02,1822.7208591270744,61.9000019808,0.0,1.29703004150496,1822.7208591270744,61.9000019808,0.35999970196000003,1.29703004150496,1684,-71.7,98,GPS_Atti,
0.35984171624941297,36.894015994424294,25300,2017-11-06 08:57:02,1823.2208591430744,62.4000019968,0.0,1.30916004189312,1823.2208591430744,62.4000019968,0.35999970196000003,1.30916004189312,1684,-71.7,98,GPS_Atti,
0.35984165876249,36.8940158462714,25400,2017-11-06 08:57:03,1823.6208591558743,62.80000200960001,0.0,1.32521004240672,1823.6208591558743,62.80000200960001,0.35999970196000003,1.32521004240672,1684,-71.7,98,GPS_Atti,
0.35984160270371296,36.8940157017179,25500,2017-11-06 08:57:03,1824.1208591718744,63.3000020256,0.0,1.34092004290944,1824.1208591718744,63.3000020256,0.35999970196000003,1.34092004290944,1684,-71.7,98,GPS_Atti,
0.359841551219642,36.8940155314732,25600,2017-11-06 08:57:03,1824.6208591878744,63.8000020416,0.0,1.35954004350528,1824.6208591878744,63.8000020416,0.35999970196000003,1.35954004350528,1684,-71.7,98,GPS_Atti,
0.35984151489272,36.894015408955795,25700,2017-11-06 08:57:03,1825.1208592038743,64.30000205760001,0.0,1.37296004393472,1825.1208592038743,64.30000205760001,0.35999970196000003,1.37296004393472,1684,-71.7,98,GPS_Atti,
0.35984147606817296,36.894015302008206,25800,2017-11-06 08:57:03,1825.6208592198743,64.8000020736,0.0,1.3846500443088001,1825.6208592198743,64.8000020736,0.35999970196000003,1.3846500443088001,1684,-71.7,98,GPS_Atti,
0.35984144733224294,36.8940152610202,25900,2017-11-06 08:57:03,1826.1208592358744,65.3000020896,0.0,1.3890800444505602,1826.1208592358744,65.3000020896,0.35999970196000003,1.3890800444505602,1684,-71.7,98,GPS_Atti,
0.35984139770459794,36.8940152081775,26000,2017-11-06 08:57:03,1826.6208592518744,65.8000021056,0.0,1.394750044632,1826.6208592518744,65.8000021056,0.35999970196000003,1.394750044632,1684,-71.7,98,GPS_Atti,
0.359841329938936,36.894015161263795,26100,2017-11-06 08:57:03,1827.1208592678743,66.3000021216,0.0,1.39973004479136,1827.1208592678743,66.3000021216,0.35999970196000003,1.39973004479136,1684,-71.7,98,GPS_Atti,
0.35984127496103796,36.8940150809281,26200,2017-11-06 08:57:03,1827.6208592838746,66.8000021376,0.0,1.4084900450716802,1827.6208592838746,66.8000021376,0.35999970196000003,1.4084900450716802,1684,-71.7,98,GPS_Atti,
0.35984124464429706,36.8940150105533,26300,2017-11-06 08:57:03,1828.1208592998744,67.30000215359999,0.0,1.4162400453196802,1828.1208592998744,67.30000215359999,0.35999970196000003,1.4162400453196802,1684,-71.7,98,GPS_Atti,
0.359841213049226,36.894014911283996,26400,2017-11-06 08:57:04,1828.6208593158742,67.8000021696,0.0,1.4272000456704002,1828.6208593158742,67.8000021696,0.35999970196000003,1.4272000456704002,1684,-71.7,98,GPS_Atti,
0.359841174217758,36.8940148500938,26500,2017-11-06 08:57:04,1829.1208593318745,68.30000218560001,0.0,1.4339300458857602,1829.1208593318745,68.30000218560001,0.35999970196000003,1.4339300458857602,1684,-71.7,98,GPS_Atti,
0.35984112475132896,36.894014775105795,26600,2017-11-06 08:57:04,1829.6208593478743,68.8000022016,0.0,1.44219004615008,1829.6208593478743,68.8000022016,0.35999970196000003,1.44219004615008,1684,-71.7,98,GPS_Atti,
0.35984107560244605,36.8940147447724,26700,2017-11-06 08:57:04,1830.1208593638744,69.30000221760001,0.35999970196000003,1.4455000462560001,1830.1208593638744,69.30000221760001,0.35999970196000003,1.4455000462560001,1684,-71.7,98,GPS_Atti,
0.35984102655534106,36.894014702590795,26800,2017-11-06 08:57:04,1830.6208593798742,69.8000022336,0.35999970196000003,1.4501500464048,1830.6208593798742,69.8000022336,0.35999970196000003,1.4501500464048,1684,-71.7,98,GPS_Atti,
0.359840981184856,36.8940147062426,26900,2017-11-06 08:57:04,1831.1208593958745,70.30000224960001,0.35999970196000003,1.44973004639136,1831.1208593958745,70.30000224960001,0.35999970196000003,1.4501500464048,1684,-71.7,98,GPS_Atti,
0.35984092285806296,36.894014694718706,27000,2017-11-06 08:57:04,1831.6208594118743,70.80000226560001,0.35999970196000003,1.4510200464326402,1831.6208594118743,70.80000226560001,0.35999970196000003,1.4510200464326402,1684,-71.7,98,GPS_Atti,
0.359840866287954,36.894014698380104,27100,2017-11-06 08:57:04,1832.1208594278744,71.3000022816,0.35999970196000003,1.4506500464208,1832.1208594278744,71.3000022816,0.35999970196000003,1.4510200464326402,1684,-71.7,98,GPS_Atti,
0.35984080480686503,36.8940146650405,27200,2017-11-06 08:57:04,1832.5208594406743,71.7000022944,0.35999970196000003,1.4544200465414399,1832.5208594406743,71.7000022944,0.35999970196000003,1.4544200465414399,1684,-71.7,98,GPS_Atti,
0.35984075355444,36.8940146481861,27300,2017-11-06 08:57:04,1833.0208594566745,72.2000023104,0.35999970196000003,1.4563700466038398,1833.0208594566745,72.2000023104,0.35999970196000003,1.4563700466038398,1684,-71.7,98,GPS_Atti,
0.359840703559581,36.894014599128,27400,2017-11-06 08:57:05,1833.5208594726744,72.70000232640001,0.0,1.46193004678176,1833.5208594726744,72.70000232640001,0.35999970196000003,1.46193004678176,1684,-71.7,98,GPS_Atti,
0.35984065626020395,36.894014564318496,27500,2017-11-06 08:57:05,1834.1208594918744,73.3000023456,0.0,1.46591004690912,1834.1208594918744,73.3000023456,0.35999970196000003,1.46591004690912,1684,-71.7,98,GPS_Atti,
0.35984060276826096,36.8940144856133,27600,2017-11-06 08:57:05,1834.6208595078745,73.80000236160001,0.0,1.4748100471939203,1834.6208595078745,73.80000236160001,0.35999970196000003,1.4748100471939203,1684,-71.7,98,GPS_Atti,
0.35984055515744395,36.8940144095792,27700,2017-11-06 08:57:05,1835.1208595238743,74.30000237760001,0.0,1.4834200474694401,1835.1208595238743,74.30000237760001,0.35999970196000003,1.4834200474694401,1684,-71.7,98,GPS_Atti,
0.35984047629922905,36.8940142347127,27900,2017-11-06 08:57:05,1836.0208595526744,75.20000240640002,0.0,1.5031400481004802,1836.0208595526744,75.20000240640002,0.35999970196000003,1.5031400481004802,1684,-71.7,98,GPS_Atti,
0.35984044107435703,36.8940141492403,28000,2017-11-06 08:57:05,1836.5208595686745,75.7000024224,0.0,1.51279004840928,1836.5208595686745,75.7000024224,0.35999970196000003,1.51279004840928,1684,-71.7,98,GPS_Atti,
0.35984041076453605,36.894014099782794,28100,2017-11-06 08:57:05,1837.0208595846743,76.2000024384,0.0,1.51842004858944,1837.0208595846743,76.2000024384,0.35999970196000003,1.51842004858944,1684,-71.7,98,GPS_Atti,
0.35984038826229,36.894014046225,28200,2017-11-06 08:57:05,1837.5208596006742,76.70000245439999,0.35999970196000003,1.52447004878304,1837.5208596006742,76.70000245439999,0.35999970196000003,1.52447004878304,1684,-71.7,98,GPS_Atti,
0.35984038712156496,36.8940140362941,28300,2017-11-06 08:57:05,1838.1208596198744,77.3000024736,0.35999970196000003,1.5255800488185602,1838.1208596198744,77.3000024736,0.35999970196000003,1.5255800488185602,1684,-71.7,98,GPS_Atti,
0.359840376993458,36.8940140015156,28400,2017-11-06 08:57:06,1838.6208596358742,77.8000024896,0.35999970196000003,1.52949004894368,1838.6208596358742,77.8000024896,0.35999970196000003,1.52949004894368,1684,-71.7,98,GPS_Atti,
0.359840351452942,36.8940139889296,28500,2017-11-06 08:57:06,1839.1208596518745,78.3000025056,0.35999970196000003,1.53101004899232,1839.1208596518745,78.3000025056,0.35999970196000003,1.53101004899232,1684,-71.7,98,GPS_Atti,
0.359840324380061,36.8940139467244,28600,2017-11-06 08:57:06,1839.5208596646744,78.70000251840001,0.35999970196000003,1.53584004914688,1839.5208596646744,78.70000251840001,0.35999970196000003,1.53584004914688,1684,-71.7,98,GPS_Atti,
0.359840314976611,36.8940139155571,28700,2017-11-06 08:57:06,1840.0208596806744,79.20000253439999,0.35999970196000003,1.5393500492592,1840.0208596806744,79.20000253439999,0.35999970196000003,1.5393500492592,1684,-71.7,98,GPS_Atti,
0.35984031151820295,36.894013870817794,28800,2017-11-06 08:57:06,1840.5208596966743,79.70000255040001,0.35999970196000003,1.5443400494188801,1840.5208596966743,79.70000255040001,0.35999970196000003,1.5443400494188801,1684,-71.7,98,GPS_Atti,
0.359840310843213,36.8940138593784,28900,2017-11-06 08:57:06,1841.0208597126746,80.20000256640002,0.35999970196000003,1.5456100494595202,1841.0208597126746,80.20000256640002,0.35999970196000003,1.5456100494595202,1684,-71.7,98,GPS_Atti,
0.359840315399599,36.894013817045796,29000,2017-11-06 08:57:06,1841.5208597286744,80.7000025824,0.0,1.5502900496092802,1841.5208597286744,80.7000025824,0.35999970196000003,1.5502900496092802,1684,-71.7,98,GPS_Atti,
0.359840336443574,36.894013785546605,29100,2017-11-06 08:57:06,1842.0208597446742,81.2000025984,0.0,1.55368004971776,1842.0208597446742,81.2000025984,0.35999970196000003,1.55368004971776,1684,-71.7,98,GPS_Atti,
0.359840363600727,36.894013759261206,29200,2017-11-06 08:57:06,1842.5208597606745,81.7000026144,0.0,1.55647004980704,1842.5208597606745,81.7000026144,0.35999970196000003,1.55647004980704,1684,-71.7,98,GPS_Atti,
0.359840376792345,36.8940136636577,29300,2017-11-06 08:57:06,1843.0208597766743,82.20000263040001,0.0,1.56703005014496,1843.0208597766743,82.20000263040001,0.35999970196000003,1.56703005014496,1684,-71.7,98,GPS_Atti,
0.35984039617530705,36.8940135939134,29400,2017-11-06 08:57:07,1843.5208597926744,82.70000264640001,0.0,1.57469005039008,1843.5208597926744,82.70000264640001,0.35999970196000003,1.57469005039008,1684,-71.7,98,GPS_Atti,
0.35984038442323296,36.8940133549661,29600,2017-11-06 08:57:07,1844.4208598214743,83.60000267520002,0.0,1.6012900512412802,1844.4208598214743,83.60000267520002,0.35999970196000003,1.6012900512412802,1684,-71.7,98,GPS_Atti,
0.359840389403015,36.8940132670784,29700,2017-11-06 08:57:07,1845.0208598406743,84.2000026944,0.0,1.6110400515532801,1845.0208598406743,84.2000026944,0.35999970196000003,1.6110400515532801,1684,-71.7,98,GPS_Atti,
0.35984038720013795,36.8940131476272,29800,2017-11-06 08:57:07,1845.5208598566742,84.70000271040001,0.0,1.62432005197824,1845.5208598566742,84.70000271040001,0.35999970196000003,1.62432005197824,1684,-71.7,98,GPS_Atti,
0.359840380799131,36.894013043408606,29900,2017-11-06 08:57:07,1846.0208598726745,85.20000272640002,0.0,1.6359300523497602,1846.0208598726745,85.20000272640002,0.35999970196000003,1.6359300523497602,1684,-71.7,98,GPS_Atti,
0.359840358716209,36.8940129096949,30000,2017-11-06 08:57:07,1846.5208598886743,85.7000027424,0.0,1.65088005282816,1846.5208598886743,85.7000027424,0.35999970196000003,1.65088005282816,1684,-71.7,98,GPS_Atti,
0.35984032871905,36.8940128001189,30100,2017-11-06 08:57:07,1847.0208599046744,86.2000027584,0.0,1.6632000532224,1847.0208599046744,86.2000027584,0.35999970196000003,1.6632000532224,1684,-71.7,98,GPS_Atti,
0.35984030069719203,36.894012682704,30200,2017-11-06 08:57:07,1847.5208599206744,86.7000027744,0.0,1.67638005364416,1847.5208599206744,86.7000027744,0.35999970196000003,1.67638005364416,1416,-71.7,98,GPS_Atti,
0.359840267807509,36.8940126269622,30300,2017-11-06 08:57:07,1848.0208599366745,87.2000027904,0.0,1.6827300538473602,1848.0208599366745,87.2000027904,0.35999970196000003,1.6827300538473602,1024,-71.7,98,GPS_Atti,
0.359840063734978,36.8940124372218,30500,2017-11-06 08:57:08,1849.0208599686744,88.20000282240001,0.0,1.70499005455968,1849.0208599686744,88.20000282240001,0.35999970196000003,1.70499005455968,1024,-71.7,98,GPS_Atti,
0.35983995881596,36.8940123099638,30600,2017-11-06 08:57:08,1849.3208599782743,88.50000283199999,0.0,1.71984005503488,1849.3208599782743,88.50000283199999,0.35999970196000003,1.71984005503488,1024,-71.7,98,GPS_Atti,
