latitude,longitude,time_millisecond,datetime_utc,altitude_m,ascent_m,speed_kph,distance_m,max_altitude_m,max_ascent_m,max_speed_kph,max_distance_m,rc_throttle,gimbal_pitch_degrees,battery_percent,flycState,message
0.355954748247551,36.8882760479037,0,2018-04-05 06:56:42,1775.12774230408,0.0,0.0,0.0,1775.12774230408,0.0,0.0,0.0,364,0.0,99,Motors_Started,
0.35595475449660396,36.888276050352204,100,2018-04-05 06:56:42,1775.12774230408,0.0,0.0,0.0007463690238838081,1775.12774230408,0.0,0.0,0.0007463690238838081,364,0.0,99,Motors_Started,
0.35595475650844394,36.888276053979396,200,2018-04-05 06:56:42,1775.12774230408,0.0,0.0,0.00114036003649152,1775.12774230408,0.0,0.0,0.00114036003649152,364,0.0,99,Motors_Started,
0.355954763568156,36.8882760523125,300,2018-04-05 06:56:42,1775.12774230408,0.0,0.0,0.00177288005673216,1775.12774230408,0.0,0.0,0.00177288005673216,364,0.0,99,Motors_Started,
0.35595476879726795,36.888276052466104,400,2018-04-05 06:56:42,1775.12774230408,0.0,0.0,0.0023409000749088,1775.12774230408,0.0,0.0,0.0023409000749088,364,0.0,99,Motors_Started,
0.35595477764221206,36.8882760485996,500,2018-04-05 06:56:43,1775.12774230408,0.0,0.0,0.0032697801046329606,1775.12774230408,0.0,0.0,0.0032697801046329606,364,0.0,99,Motors_Started,Setting new Return-To-Home altitude to 30m (98 ft). Setting new Maximum Flight Altitude to 150m (492 ft)
0.3559547627076,36.8882760422671,700,2018-04-05 06:56:43,1775.12774230408,0.0,0.0,0.0017259000552287999,1775.12774230408,0.0,0.0,0.0032697801046329606,364,0.0,99,Motors_Started,
0.35595473788680604,36.8882760400183,800,2018-04-05 06:56:43,1775.12774230408,0.0,0.0,0.0014479200463334402,1775.12774230408,0.0,0.0,0.0032697801046329606,364,0.0,99,Motors_Started,
0.35595471405050705,36.8882760345614,900,2018-04-05 06:56:43,1775.12774230408,0.0,0.0,0.00408211013062752,1775.12774230408,0.0,0.0,0.00408211013062752,364,0.0,99,Motors_Started,
0.355954698593241,36.888276031965205,1000,2018-04-05 06:56:43,1775.12774230408,0.0,0.0,0.0057993501855792004,1775.12774230408,0.0,0.0,0.0057993501855792004,364,0.0,99,Motors_Started,
0.35595468785204903,36.8882759977735,1100,2018-04-05 06:56:43,1775.12774230408,0.0,0.0,0.00872848027931136,1775.12774230408,0.0,0.0,0.00872848027931136,364,0.0,99,Motors_Started,
0.35595467489920196,36.888275935526295,1300,2018-04-05 06:56:44,1775.12774230408,0.0,0.0,0.0149233004775456,1775.12774230408,0.0,0.0,0.0149233004775456,658,0.0,99,Motors_Started,
0.35595467152114796,36.8882759167309,1400,2018-04-05 06:56:44,1775.12774230408,0.0,0.0,0.0168992005407744,1775.12774230408,0.0,0.0,0.0168992005407744,1024,0.0,99,Motors_Started,
0.355954587904747,36.8882759162984,1700,2018-04-05 06:56:44,1775.12774230408,0.0,0.0,0.023068000738176,1775.12774230408,0.0,0.0,0.023068000738176,1024,0.0,99,Assisted_Takeoff,
0.355954560819156,36.888275971522496,1900,2018-04-05 06:56:44,1775.12774230408,0.0,0.0,0.0225074007202368,1775.12774230408,0.0,0.0,0.023068000738176,1024,0.0,99,Assisted_Takeoff,
0.35595455268514203,36.8882759900128,2000,2018-04-05 06:56:44,1775.12774230408,0.0,0.0,0.022680600725779203,1775.12774230408,0.0,0.0,0.023068000738176,1024,0.0,99,Assisted_Takeoff,
0.35595455252664904,36.8882760077852,2100,2018-04-05 06:56:44,1775.12774230408,0.0,0.0,0.022217900710972804,1775.12774230408,0.0,0.0,0.023068000738176,1024,0.0,99,Assisted_Takeoff,
0.35595455068155796,36.88827601988729,2200,2018-04-05 06:56:44,1775.12774230408,0.0,0.0,0.0221903007100896,1775.12774230408,0.0,0.0,0.023068000738176,1024,0.0,99,Assisted_Takeoff,
0.355954555966635,36.8882760291105,2300,2018-04-05 06:56:44,1775.12774230408,0.0,0.0,0.0214847006875104,1775.12774230408,0.0,0.0,0.023068000738176,1024,0.0,99,Assisted_Takeoff,
0.35595455775773205,36.888276036339704,2400,2018-04-05 06:56:44,1775.12774230408,0.0,0.0,0.0212226006791232,1775.12774230408,0.0,0.0,0.023068000738176,1031,0.0,99,Assisted_Takeoff,
0.35595456457869895,36.888276039291895,2500,2018-04-05 06:56:45,1775.12774230408,0.0,0.0,0.02044750065432,1775.12774230408,0.0,0.0,0.023068000738176,1087,0.0,99,Assisted_Takeoff,
0.35595456770592204,36.8882760427274,2600,2018-04-05 06:56:45,1775.12774230408,0.0,0.0,0.0200856006427392,1775.12774230408,0.0,0.0,0.023068000738176,1192,0.0,99,Assisted_Takeoff,
0.35595457497712796,36.8882760423211,2700,2018-04-05 06:56:45,1775.12774230408,0.0,0.0,0.0192787006169184,1775.12774230408,0.0,0.0,0.023068000738176,1253,0.0,99,Assisted_Takeoff,
0.355954578037941,36.888276043438296,2800,2018-04-05 06:56:45,1775.12774230408,0.0,0.0,0.0189349006059168,1775.12774230408,0.0,0.0,0.023068000738176,1301,0.0,99,Assisted_Takeoff,
0.355954583161917,36.8882760405327,2900,2018-04-05 06:56:45,1775.12774230408,0.0,0.0,0.0183768005880576,1775.12774230408,0.0,0.0,0.023068000738176,1327,0.0,99,Assisted_Takeoff,
0.3559545863968329,36.888276039074505,3000,2018-04-05 06:56:45,1775.12774230408,0.0,0.0,0.018025500576816005,1775.12774230408,0.0,0.0,0.023068000738176,1327,0.0,99,Assisted_Takeoff,
0.35595458942025604,36.8882760330064,3100,2018-04-05 06:56:45,1775.12774230408,0.0,0.0,0.0177401005676832,1775.12774230408,0.0,0.0,0.023068000738176,1355,0.0,99,Assisted_Takeoff,
0.35595457129329494,36.8882760129932,3200,2018-04-05 06:56:45,1775.12774230408,0.0,0.0,0.020057700641846404,1775.12774230408,0.0,0.0,0.023068000738176,1389,0.0,99,Assisted_Takeoff,
0.355954503361615,36.8882759730021,3300,2018-04-05 06:56:45,1775.12774230408,0.0,0.35999970196000003,0.028478100911299202,1775.12774230408,0.0,0.35999970196000003,0.028478100911299202,1417,0.0,99,Assisted_Takeoff,
0.35595436779127293,36.8882759581588,3400,2018-04-05 06:56:45,1775.12774230408,0.0,0.35999970196000003,0.0434702013910464,1775.12774230408,0.0,0.35999970196000003,0.0434702013910464,1422,0.0,99,P-GPS,Obstacle Avoided. Revise Flight Route
0.35595417110921296,36.8882759792035,3500,2018-04-05 06:56:46,1775.12774230408,0.0,0.7199994039200001,0.0646344020683008,1775.12774230408,0.0,0.7199994039200001,0.0646344020683008,1431,0.0,99,P-GPS,Home Point Recorded. RTH Altitude:  30m.
0.35595395496940396,36.888275980782105,3600,2018-04-05 06:56:46,1775.2277423072799,0.10000000320000002,0.7199994039200001,0.0885326028330432,1775.2277423072799,0.10000000320000002,0.7199994039200001,0.0885326028330432,1431,0.0,99,P-GPS,
0.355953727711291,36.8882759428251,3700,2018-04-05 06:56:46,1775.3277423104798,0.20000000640000004,0.7199994039200001,0.11409000365088001,1775.3277423104798,0.20000000640000004,0.7199994039200001,0.11409000365088001,1430,0.0,99,P-GPS,
0.355953491341678,36.888275881613104,3800,2018-04-05 06:56:46,1775.52774231688,0.4000000128000001,0.7199994039200001,0.14099400451180802,1775.52774231688,0.4000000128000001,0.7199994039200001,0.14099400451180802,1431,0.0,99,P-GPS,
0.35595322576576893,36.8882757922504,3900,2018-04-05 06:56:46,1775.62774232008,0.500000016,0.7199994039200001,0.17168000549376,1775.62774232008,0.500000016,0.7199994039200001,0.17168000549376,1437,0.0,99,P-GPS,
0.355952971514365,36.8882756720784,4000,2018-04-05 06:56:46,1775.8277423264797,0.7000000224000001,0.503999582744,0.20195500646255998,1775.8277423264797,0.7000000224000001,0.7199994039200001,0.20195500646255998,1444,0.0,99,P-GPS,
0.355952720761673,36.8882755302746,4100,2018-04-05 06:56:46,1776.0277423328798,0.9000000288000001,0.503999582744,0.23270100744643205,1776.0277423328798,0.9000000288000001,0.7199994039200001,0.23270100744643205,1452,0.0,99,P-GPS,
0.355952477375044,36.8882754192439,4200,2018-04-05 06:56:46,1776.2277423392798,1.1000000352,0.503999582744,0.26203300838505605,1776.2277423392798,1.1000000352,0.7199994039200001,0.26203300838505605,1477,0.0,99,P-GPS,
0.355952169566153,36.8882752633633,4300,2018-04-05 06:56:46,1776.42774234568,1.3000000416000002,0.7199994039200001,0.299743009591776,1776.42774234568,1.3000000416000002,0.7199994039200001,0.299743009591776,1497,0.0,99,P-GPS,
0.355951862474184,36.8882751120381,4400,2018-04-05 06:56:47,1776.7277423552798,1.6000000512000003,0.7199994039200001,0.337369010795808,1776.7277423552798,1.6000000512000003,0.7199994039200001,0.337369010795808,1556,0.0,99,P-GPS,
0.35595155064547906,36.8882750010717,4500,2018-04-05 06:56:47,1777.0277423648797,1.9000000607999998,0.7199994039200001,0.374163011973216,1777.0277423648797,1.9000000607999998,0.7199994039200001,0.374163011973216,1604,0.0,99,P-GPS,
0.355951238465233,36.8882749475552,4600,2018-04-05 06:56:47,1777.3277423744796,2.2000000704,0.7199994039200001,0.40904001308928006,1777.3277423744796,2.2000000704,0.7199994039200001,0.40904001308928006,1662,0.0,99,P-GPS,
0.355950905723846,36.8882748719303,4700,2018-04-05 06:56:47,1777.7277423872797,2.6000000832000003,0.7199994039200001,0.44687501430000004,1777.7277423872797,2.6000000832000003,0.7199994039200001,0.44687501430000004,1684,0.0,99,P-GPS,
0.355950599827969,36.888274814876496,4800,2018-04-05 06:56:47,1778.0277423968798,2.9000000928,0.7199994039200001,0.481276015400832,1778.0277423968798,2.9000000928,0.7199994039200001,0.481276015400832,1684,0.0,99,P-GPS,
0.35595030054194704,36.8882747325015,4900,2018-04-05 06:56:47,1778.4277424096797,3.3000001056,0.35999970196000003,0.515789016505248,1778.4277424096797,3.3000001056,0.7199994039200001,0.515789016505248,1684,0.0,99,P-GPS,
0.355950042390012,36.8882746919585,5000,2018-04-05 06:56:47,1778.9277424256798,3.8000001215999997,0.35999970196000003,0.54461001742752,1778.9277424256798,3.8000001215999997,0.7199994039200001,0.54461001742752,1684,0.0,99,P-GPS,
0.355949731594962,36.888274680611794,5100,2018-04-05 06:56:47,1779.4277424416798,4.3000001376,0.35999970196000003,0.5782310185033921,1779.4277424416798,4.3000001376,0.7199994039200001,0.5782310185033921,1684,0.0,99,P-GPS,
0.355949442297,36.8882747049759,5200,2018-04-05 06:56:47,1779.9277424576799,4.8000001536,0.35999970196000003,0.608659019477088,1779.9277424576799,4.8000001536,0.7199994039200001,0.608659019477088,1684,0.0,99,P-GPS,
0.355949180882478,36.888274679376295,5300,2018-04-05 06:56:48,1780.4277424736797,5.3000001696,0.0,0.63755502040176,1780.4277424736797,5.3000001696,0.7199994039200001,0.63755502040176,1684,0.0,99,P-GPS,
0.355948553890421,36.8882745195002,5600,2018-04-05 06:56:48,1781.9277425216796,6.800000217600001,0.0,0.709509022704288,1781.9277425216796,6.800000217600001,0.7199994039200001,0.709509022704288,1684,0.0,99,P-GPS,
0.3559483415726721,36.8882744977173,5700,2018-04-05 06:56:48,1782.42774253768,7.3000002336000005,0.0,0.7330200234566401,1782.42774253768,7.3000002336000005,0.7199994039200001,0.7330200234566401,1684,0.0,99,P-GPS,
0.355948161023015,36.8882744697699,5800,2018-04-05 06:56:48,1782.9277425536798,7.8000002496,0.0,0.753268024104576,1782.9277425536798,7.8000002496,0.7199994039200001,0.753268024104576,1684,0.0,99,P-GPS,
0.355948015407552,36.8882744438025,5900,2018-04-05 06:56:48,1783.4277425696798,8.3000002656,0.0,0.769689024630048,1783.4277425696798,8.3000002656,0.7199994039200001,0.769689024630048,1684,0.0,99,P-GPS,
0.35594787428211705,36.888274400924004,6000,2018-04-05 06:56:48,1783.9277425856797,8.8000002816,0.0,0.7860610251539522,1783.9277425856797,8.8000002816,0.7199994039200001,0.7860610251539522,1684,0.0,99,P-GPS,
0.35594773029917004,36.888274385589796,6100,2018-04-05 06:56:48,1784.42774260168,9.3000002976,0.0,0.8020330256650561,1784.42774260168,9.3000002976,0.7199994039200001,0.8020330256650561,1684,0.0,99,P-GPS,
0.35594758887695094,36.88827437735,6200,2018-04-05 06:56:48,1784.9277426176798,9.8000003136,0.0,0.8175520261616641,1784.9277426176798,9.8000003136,0.7199994039200001,0.8175520261616641,1684,0.0,99,P-GPS,
0.35594746787053494,36.8882744051941,6300,2018-04-05 06:56:48,1785.5277426368798,10.400000332800001,0.0,0.8299750265592,1785.5277426368798,10.400000332800001,0.7199994039200001,0.8299750265592,1684,0.0,99,P-GPS,
0.355947351430275,36.888274418507,6400,2018-04-05 06:56:48,1786.0277426528799,10.9000003488,0.0,0.842292026953344,1786.0277426528799,10.9000003488,0.7199994039200001,0.842292026953344,1684,0.0,99,P-GPS,
0.355947206226809,36.8882744404483,6500,2018-04-05 06:56:49,1786.5277426688797,11.4000003648,0.0,0.857556027441792,1786.5277426688797,11.4000003648,0.7199994039200001,0.857556027441792,1684,0.0,99,P-GPS,
0.35594705527982207,36.888274443188,6600,2018-04-05 06:56:49,1787.02774268488,11.900000380800002,0.0,0.873918027965376,1787.02774268488,11.900000380800002,0.7199994039200001,0.873918027965376,1684,0.0,99,P-GPS,
0.35594692394581295,36.888274457258895,6700,2018-04-05 06:56:49,1787.5277427008798,12.4000003968,0.0,0.887908028413056,1787.5277427008798,12.4000003968,0.7199994039200001,0.887908028413056,1684,0.0,99,P-GPS,
0.355946810517361,36.8882744588075,6800,2018-04-05 06:56:49,1788.0277427168796,12.900000412799999,0.0,0.900239028807648,1788.0277427168796,12.900000412799999,0.7199994039200001,0.900239028807648,1684,0.0,99,P-GPS,
0.355946688503752,36.88827447711311,6900,2018-04-05 06:56:49,1788.52774273288,13.4000004288,0.0,0.9131550292209599,1788.52774273288,13.4000004288,0.7199994039200001,0.9131550292209599,1684,0.0,99,P-GPS,
0.35594656698844607,36.8882744872527,7000,2018-04-05 06:56:49,1789.0277427488797,13.9000004448,0.0,0.9262110296387521,1789.0277427488797,13.9000004448,0.7199994039200001,0.9262110296387521,1684,0.0,99,P-GPS,
0.355946457736953,36.8882745446132,7100,2018-04-05 06:56:49,1789.5277427648798,14.400000460800001,0.0,0.9369890299836481,1789.5277427648798,14.400000460800001,0.7199994039200001,0.9369890299836481,1684,0.0,99,P-GPS,
0.355946353373234,36.888274597264704,7200,2018-04-05 06:56:49,1790.0277427808796,14.9000004768,0.0,0.9473960303166721,1790.0277427808796,14.9000004768,0.7199994039200001,0.9473960303166721,1684,0.0,99,P-GPS,
0.35594625619746706,36.888274623612105,7300,2018-04-05 06:56:49,1790.52774279688,15.4000004928,0.0,0.957558030641856,1790.52774279688,15.4000004928,0.7199994039200001,0.957558030641856,1684,0.0,99,P-GPS,
0.355946163853293,36.8882746320441,7400,2018-04-05 06:56:50,1791.0277428128798,15.900000508800002,0.0,0.967534030961088,1791.0277428128798,15.900000508800002,0.7199994039200001,0.967534030961088,1684,0.0,99,P-GPS,
0.35594605224055603,36.888274668243206,7500,2018-04-05 06:56:50,1791.62774283208,16.500000528,0.0,0.9791440313326079,1791.62774283208,16.500000528,0.7199994039200001,0.9791440313326079,1684,0.0,99,P-GPS,
0.35594593924608403,36.8882746997905,7600,2018-04-05 06:56:50,1792.1277428480798,17.000000544000002,0.0,0.991019031712608,1792.1277428480798,17.000000544000002,0.7199994039200001,0.991019031712608,1684,0.0,99,P-GPS,
0.355945826687221,36.8882747421695,7700,2018-04-05 06:56:50,1792.6277428640797,17.50000056,0.0,1.0027000320864001,1792.6277428640797,17.50000056,0.7199994039200001,1.0027000320864001,1684,0.0,99,P-GPS,
0.3559457226833879,36.8882747736869,7800,2018-04-05 06:56:50,1793.22774288328,18.100000579200003,0.0,1.0136500324368,1793.22774288328,18.100000579200003,0.7199994039200001,1.0136500324368,1684,0.0,99,P-GPS,
0.355945622728681,36.8882748594209,7900,2018-04-05 06:56:50,1793.7277428992797,18.6000005952,0.0,1.0233800327481601,1793.7277428992797,18.6000005952,0.7199994039200001,1.0233800327481601,1684,0.0,99,P-GPS,
0.355945527342574,36.8882749292474,8000,2018-04-05 06:56:50,1794.32774291848,19.2000006144,0.0,1.0329400330540799,1794.32774291848,19.2000006144,0.7199994039200001,1.0329400330540799,1684,0.0,99,P-GPS,
0.355945426720205,36.8882750693924,8100,2018-04-05 06:56:50,1794.8277429344798,19.7000006304,0.0,1.0423100333539201,1794.8277429344798,19.7000006304,0.7199994039200001,1.0423100333539201,1684,0.0,99,P-GPS,
0.355945329438589,36.8882751839763,8200,2018-04-05 06:56:50,1795.3277429504797,20.200000646400003,0.0,1.0518300336585602,1795.3277429504797,20.200000646400003,0.7199994039200001,1.0518300336585602,1684,0.0,99,P-GPS,
0.355945207201069,36.888275346193794,8300,2018-04-05 06:56:50,1795.82774296648,20.7000006624,0.0,1.06389003404448,1795.82774296648,20.7000006624,0.7199994039200001,1.06389003404448,1684,0.0,99,P-GPS,
0.3559450936846811,36.8882754935279,8400,2018-04-05 06:56:50,1796.4277429856797,21.300000681600004,0.0,1.07541003441312,1796.4277429856797,21.300000681600004,0.7199994039200001,1.07541003441312,1684,0.0,99,P-GPS,
0.35594499648937206,36.888275710023606,8500,2018-04-05 06:56:51,1796.9277430016796,21.8000006976,0.0,1.08511003472352,1796.9277430016796,21.8000006976,0.7199994039200001,1.08511003472352,1684,0.0,99,P-GPS,
0.35594493119772397,36.8882758833341,8600,2018-04-05 06:56:51,1797.5277430208798,22.400000716800005,0.0,1.09187003493984,1797.5277430208798,22.400000716800005,0.7199994039200001,1.09187003493984,1684,0.0,99,P-GPS,
0.35594490315103294,36.888276088574706,8700,2018-04-05 06:56:51,1798.0277430368797,22.900000732800002,0.0,1.09484003503488,1798.0277430368797,22.900000732800002,0.7199994039200001,1.09484003503488,1684,0.0,99,P-GPS,
0.35594489951227504,36.888276238779504,8800,2018-04-05 06:56:51,1798.52774305288,23.400000748800004,0.0,1.0954500350544,1798.52774305288,23.400000748800004,0.7199994039200001,1.0954500350544,1684,0.0,99,P-GPS,
0.355944937420823,36.8882763990106,8900,2018-04-05 06:56:51,1799.1277430720797,24.000000768000003,0.0,1.0917200349350402,1799.1277430720797,24.000000768000003,0.7199994039200001,1.0954500350544,1684,0.0,99,P-GPS,
0.355944984793887,36.888276516913294,9000,2018-04-05 06:56:51,1799.6277430880796,24.500000784000004,0.0,1.08701003478432,1799.6277430880796,24.500000784000004,0.7199994039200001,1.0954500350544,1684,0.0,99,P-GPS,
0.35594503921892895,36.8882766832725,9100,2018-04-05 06:56:51,1800.1277431040799,25.000000800000002,0.0,1.08201003462432,1800.1277431040799,25.000000800000002,0.7199994039200001,1.0954500350544,1684,0.0,99,P-GPS,
0.35594508743227005,36.8882768182406,9200,2018-04-05 06:56:51,1800.6277431200797,25.500000816,0.0,1.077750034488,1800.6277431200797,25.500000816,0.7199994039200001,1.0954500350544,1684,0.0,99,P-GPS,
0.355945158774401,36.8882770022196,9300,2018-04-05 06:56:51,1801.22774313928,26.100000835200003,0.0,1.07168003429376,1801.22774313928,26.100000835200003,0.7199994039200001,1.0954500350544,1684,0.0,99,P-GPS,
0.35594523386602506,36.8882771514641,9400,2018-04-05 06:56:52,1801.7277431552798,26.6000008512,0.0,1.0651500340848001,1801.7277431552798,26.6000008512,0.7199994039200001,1.0954500350544,1684,0.0,99,P-GPS,
0.35594534090039204,36.888277325855896,9500,2018-04-05 06:56:52,1802.32774317448,27.200000870400004,0.0,1.05576003378432,1802.32774317448,27.200000870400004,0.7199994039200001,1.0954500350544,1684,0.0,99,P-GPS,
0.355945446610834,36.8882774623304,9600,2018-04-05 06:56:52,1802.8277431904799,27.700000886400005,0.0,1.0462900334812801,1802.8277431904799,27.700000886400005,0.7199994039200001,1.0954500350544,1684,0.0,99,P-GPS,
0.35594557586694797,36.8882776286392,9700,2018-04-05 06:56:52,1803.3277432064797,28.200000902400003,0.0,1.0350600331219202,1803.3277432064797,28.200000902400003,0.7199994039200001,1.0954500350544,1684,0.0,99,P-GPS,
0.35594569511220203,36.8882777648738,9800,2018-04-05 06:56:52,1803.92774322568,28.800000921600002,0.0,1.02471003279072,1803.92774322568,28.800000921600002,0.7199994039200001,1.0954500350544,1684,0.0,99,P-GPS,
0.355945829378224,36.888277939621,9900,2018-04-05 06:56:52,1804.4277432416798,29.300000937600004,0.0,1.0139000324448002,1804.4277432416798,29.300000937600004,0.7199994039200001,1.0954500350544,1684,0.0,99,P-GPS,
0.35594594475673796,36.8882780814656,10000,2018-04-05 06:56:52,1804.9277432576796,29.8000009536,0.0,1.0047800321529599,1804.9277432576796,29.8000009536,0.7199994039200001,1.0954500350544,1684,0.0,99,P-GPS,
0.35594608290089896,36.888278220845706,10100,2018-04-05 06:56:52,1805.4277432736799,30.300000969600003,0.0,0.9934740317911679,1805.4277432736799,30.300000969600003,0.7199994039200001,1.0954500350544,1684,0.0,99,P-GPS,
0.355946208978291,36.8882783252193,10200,2018-04-05 06:56:52,1805.9277432896797,30.8000009856,0.0,0.9828070314498241,1805.9277432896797,30.8000009856,0.7199994039200001,1.0954500350544,1684,0.0,99,P-GPS,
0.355946364534589,36.888278437806605,10300,2018-04-05 06:56:52,1806.4277433056798,31.300001001600002,0.0,0.96946003102272,1806.4277433056798,31.300001001600002,0.7199994039200001,1.0954500350544,1684,0.0,99,P-GPS,
0.35594649970602604,36.8882785299754,10400,2018-04-05 06:56:52,1807.0277433248798,31.9000010208,0.0,0.957916030653312,1807.0277433248798,31.9000010208,0.7199994039200001,1.0954500350544,1684,0.0,99,P-GPS,
0.355946653334247,36.888278640630205,10500,2018-04-05 06:56:53,1807.5277433408799,32.4000010368,0.0,0.945249030247968,1807.5277433408799,32.4000010368,0.7199994039200001,1.0954500350544,1684,0.0,99,P-GPS,
0.355946779050937,36.8882787294567,10600,2018-04-05 06:56:53,1808.0277433568797,32.9000010528,0.0,0.935048029921536,1808.0277433568797,32.9000010528,0.7199994039200001,1.0954500350544,1684,0.0,99,P-GPS,
0.355946927798712,36.8882788211962,10700,2018-04-05 06:56:53,1808.6277433760797,33.500001071999996,0.0,0.922744029527808,1808.6277433760797,33.500001071999996,0.7199994039200001,1.0954500350544,1684,0.0,99,P-GPS,
0.35594705296335993,36.888278892998,10800,2018-04-05 06:56:53,1809.1277433920798,34.000001088000005,0.0,0.912376029196032,1809.1277433920798,34.000001088000005,0.7199994039200001,1.0954500350544,1684,0.0,99,P-GPS,
0.355947160496031,36.888278970506,10900,2018-04-05 06:56:53,1809.6277434080798,34.500001104,0.0,0.9042310289353921,1809.6277434080798,34.500001104,0.7199994039200001,1.0954500350544,1684,0.0,99,P-GPS,
0.35594721733361206,36.888279016919704,11000,2018-04-05 06:56:53,1810.1277434240799,35.00000112,0.0,0.900216028806912,1810.1277434240799,35.00000112,0.7199994039200001,1.0954500350544,1684,0.0,99,P-GPS,
0.35594725810577793,36.888279054784604,11100,2018-04-05 06:56:53,1810.7277434432797,35.6000011392,0.35999970196000003,0.897559028721888,1810.7277434432797,35.6000011392,0.7199994039200001,1.0954500350544,1684,0.0,99,P-GPS,
0.35594727358251,36.8882790776118,11200,2018-04-05 06:56:53,1811.22774345928,36.1000011552,0.35999970196000003,0.8969130287012161,1811.22774345928,36.1000011552,0.7199994039200001,1.0954500350544,1684,0.0,99,P-GPS,
0.35594733444397597,36.8882790913647,11300,2018-04-05 06:56:53,1811.8277434784798,36.7000011744,0.35999970196000003,0.891224028519168,1811.8277434784798,36.7000011744,0.7199994039200001,1.0954500350544,1684,0.0,99,P-GPS,
0.35594739920637897,36.888279100411296,11400,2018-04-05 06:56:54,1812.3277434944798,37.2000011904,0.0,0.8849510283184321,1812.3277434944798,37.2000011904,0.7199994039200001,1.0954500350544,1684,0.0,99,P-GPS,
0.355947478468448,36.8882791337893,11500,2018-04-05 06:56:54,1812.8277435104799,37.700001206399996,0.0,0.8782610281043521,1812.8277435104799,37.700001206399996,0.7199994039200001,1.0954500350544,1684,0.0,99,P-GPS,
0.35594752756929204,36.888279169483106,11600,2018-04-05 06:56:54,1813.42774352968,38.3000012256,0.0,0.87480502799376,1813.42774352968,38.3000012256,0.7199994039200001,1.0954500350544,1684,0.0,99,P-GPS,
0.355947573254474,36.88827920140079,11700,2018-04-05 06:56:54,1813.9277435456797,38.8000012416,0.0,0.8715660278901121,1813.9277435456797,38.8000012416,0.7199994039200001,1.0954500350544,1684,0.0,99,P-GPS,
0.355947599907217,36.888279221679994,11800,2018-04-05 06:56:54,1814.4277435616798,39.3000012576,0.0,0.8697660278325122,1814.4277435616798,39.3000012576,0.7199994039200001,1.0954500350544,1684,0.0,99,P-GPS,
0.35594763890478603,36.8882792284923,11900,2018-04-05 06:56:54,1814.9277435776796,39.80000127360001,0.0,0.866113027715616,1814.9277435776796,39.80000127360001,0.7199994039200001,1.0954500350544,1684,0.0,99,P-GPS,
0.35594768063407106,36.8882792180165,12000,2018-04-05 06:56:54,1815.42774359368,40.3000012896,0.0,0.8614010275648321,1815.42774359368,40.3000012896,0.7199994039200001,1.0954500350544,1684,0.0,99,P-GPS,
0.35594775220907005,36.888279192719295,12100,2018-04-05 06:56:54,1815.9277436096797,40.8000013056,0.35999970196000003,0.852988027295616,1815.9277436096797,40.8000013056,0.7199994039200001,1.0954500350544,1684,0.0,99,P-GPS,
0.35594780645742496,36.8882791776935,12200,2018-04-05 06:56:54,1816.3277436224798,41.200001318400005,0.0,0.8468010270976322,1816.3277436224798,41.200001318400005,0.7199994039200001,1.0954500350544,1684,0.0,99,P-GPS,
0.35594788005658,36.8882791739046,12300,2018-04-05 06:56:54,1816.8277436384797,41.7000013344,0.0,0.8391720268535041,1816.8277436384797,41.7000013344,0.7199994039200001,1.0954500350544,1684,0.0,99,P-GPS,
0.35594793583689294,36.8882791677262,12400,2018-04-05 06:56:54,1817.32774365448,42.2000013504,0.0,0.833244026663808,1817.32774365448,42.2000013504,0.7199994039200001,1.0954500350544,1684,0.0,99,P-GPS,
0.35594798752533396,36.8882791654351,12500,2018-04-05 06:56:55,1817.8277436704798,42.7000013664,0.0,0.827914026493248,1817.8277436704798,42.7000013664,0.7199994039200001,1.0954500350544,1684,0.0,99,P-GPS,
0.355948014447992,36.888279179003895,12600,2018-04-05 06:56:55,1818.3277436864796,43.200001382399996,0.0,0.8258310264265921,1818.3277436864796,43.200001382399996,0.7199994039200001,1.0954500350544,1684,0.0,99,P-GPS,
0.3559480525385179,36.8882792032893,12700,2018-04-05 06:56:55,1818.82774370248,43.700001398400005,0.0,0.82314002634048,1818.82774370248,43.700001398400005,0.7199994039200001,1.0954500350544,1684,0.0,99,P-GPS,
0.355948093112015,36.888279226224704,12800,2018-04-05 06:56:55,1819.3277437184797,44.2000014144,0.0,0.8201570262450238,1819.3277437184797,44.2000014144,0.7199994039200001,1.0954500350544,1684,0.0,99,P-GPS,
0.35594814383478796,36.8882792147415,12900,2018-04-05 06:56:55,1819.8277437344798,44.7000014304,0.0,0.8145170260645441,1819.8277437344798,44.7000014304,0.7199994039200001,1.0954500350544,1684,0.0,99,P-GPS,
0.35594818507228293,36.888279200323794,13000,2018-04-05 06:56:55,1820.3277437504798,45.2000014464,0.0,0.8096890259100481,1820.3277437504798,45.2000014464,0.7199994039200001,1.0954500350544,1684,0.0,99,P-GPS,
0.35594823913051704,36.8882791715557,13100,2018-04-05 06:56:55,1820.82774376648,45.700001462399996,0.0,0.8028850256923201,1820.82774376648,45.700001462399996,0.7199994039200001,1.0954500350544,1684,0.0,99,P-GPS,
0.35594828853018,36.8882791559132,13200,2018-04-05 06:56:55,1821.3277437824797,46.20000147840001,0.0,0.7971800255097601,1821.3277437824797,46.20000147840001,0.7199994039200001,1.0954500350544,1684,0.0,99,P-GPS,
0.355948338115485,36.8882791452415,13300,2018-04-05 06:56:55,1821.8277437984796,46.7000014944,0.0,0.7916980253343361,1821.8277437984796,46.7000014944,0.7199994039200001,1.0954500350544,1684,0.0,99,P-GPS,
0.355948375511887,36.888279147918,13400,2018-04-05 06:56:55,1822.3277438144798,47.2000015104,0.0,0.788086025218752,1822.3277438144798,47.2000015104,0.7199994039200001,1.0954500350544,1684,0.0,99,P-GPS,
0.355948417311195,36.88827915434371,13500,2018-04-05 06:56:56,1822.8277438304797,47.700001526399994,0.0,0.784223025095136,1822.8277438304797,47.700001526399994,0.7199994039200001,1.0954500350544,1684,0.0,99,P-GPS,
0.35594844907765905,36.8882791808239,13600,2018-04-05 06:56:56,1823.3277438464797,48.200001542399995,0.0,0.7823600250355202,1823.3277438464797,48.200001542399995,0.7199994039200001,1.0954500350544,1684,-0.4,99,P-GPS,
0.355948469892023,36.888279199827,13700,2018-04-05 06:56:56,1823.8277438624798,48.70000155840001,0.0,0.781234024999488,1823.8277438624798,48.70000155840001,0.7199994039200001,1.0954500350544,1684,-0.9,99,P-GPS,
0.35594848408839097,36.8882792177028,13800,2018-04-05 06:56:56,1824.3277438784799,49.200001574400005,0.0,0.780719024983008,1824.3277438784799,49.200001574400005,0.7199994039200001,1.0954500350544,1684,-1.4,99,P-GPS,
0.35594850816086404,36.8882792513731,13900,2018-04-05 06:56:56,1824.8277438944797,49.70000159040001,0.0,0.7800340249610879,1824.8277438944797,49.70000159040001,0.7199994039200001,1.0954500350544,1684,-2.0,99,P-GPS,
0.355948532877794,36.8882792945588,14000,2018-04-05 06:56:56,1825.32774391048,50.200001606399994,0.0,0.7798010249536321,1825.32774391048,50.200001606399994,0.7199994039200001,1.0954500350544,1684,-2.6,99,P-GPS,
0.35594856388866,36.8882793177715,14100,2018-04-05 06:56:56,1825.8277439264798,50.7000016224,0.0,0.777949024894368,1825.8277439264798,50.7000016224,0.7199994039200001,1.0954500350544,1684,-3.2,99,P-GPS,
0.3559485862801721,36.888279335628,14200,2018-04-05 06:56:56,1826.3277439424796,51.20000163840001,0.0,0.776682024853824,1826.3277439424796,51.20000163840001,0.7199994039200001,1.0954500350544,1684,-3.8,99,P-GPS,
0.355948605103764,36.8882793613384,14300,2018-04-05 06:56:56,1826.82774395848,51.700001654400005,0.0,0.7761890248380481,1826.82774395848,51.700001654400005,0.7199994039200001,1.0954500350544,1684,-4.4,99,P-GPS,
0.355948617720541,36.8882794014109,14400,2018-04-05 06:56:56,1827.3277439744797,52.200001670400006,0.0,0.777083024866656,1827.3277439744797,52.200001670400006,0.7199994039200001,1.0954500350544,1684,-4.9,99,P-GPS,
0.35594864777469604,36.888279458498396,14500,2018-04-05 06:56:57,1827.8277439904798,52.7000016864,0.0,0.7772300248713601,1827.8277439904798,52.7000016864,0.7199994039200001,1.0954500350544,1684,-5.5,99,P-GPS,
0.35594866745444204,36.888279524789795,14600,2018-04-05 06:56:57,1828.3277440064796,53.2000017024,0.0,0.7789530249264961,1828.3277440064796,53.2000017024,0.7199994039200001,1.0954500350544,1684,-5.5,99,P-GPS,
0.355948687156986,36.8882795686265,14700,2018-04-05 06:56:57,1828.82774402248,53.7000017184,0.0,0.779489024943648,1828.82774402248,53.7000017184,0.7199994039200001,1.0954500350544,1684,-6.1,99,P-GPS,
0.3559487143218739,36.888279607956,14800,2018-04-05 06:56:57,1829.3277440384798,54.200001734400004,0.0,0.779092024930944,1829.3277440384798,54.200001734400004,0.7199994039200001,1.0954500350544,1684,-6.7,99,P-GPS,
0.35594878554716497,36.888279646566,14900,2018-04-05 06:56:57,1829.8277440544798,54.700001750400006,0.0,0.7744900247836801,1829.8277440544798,54.700001750400006,0.7199994039200001,1.0954500350544,1684,-7.3,99,P-GPS,
0.355948863588715,36.888279687130996,15000,2018-04-05 06:56:57,1830.3277440704799,55.2000017664,0.0,0.769436024621952,1830.3277440704799,55.2000017664,0.7199994039200001,1.0954500350544,1684,-7.9,99,P-GPS,
0.355948934755789,36.888279694720396,15100,2018-04-05 06:56:57,1830.8277440864797,55.7000017824,0.0,0.763164024421248,1830.8277440864797,55.7000017824,0.7199994039200001,1.0954500350544,1684,-8.4,99,P-GPS,
0.35594897683966703,36.8882796962204,15200,2018-04-05 06:56:57,1831.3277441024798,56.2000017984,0.0,0.759293024297376,1831.3277441024798,56.2000017984,0.7199994039200001,1.0954500350544,1684,-9.0,99,P-GPS,
0.355949012206621,36.888279701675,15300,2018-04-05 06:56:57,1831.8277441184798,56.700001814400004,0.0,0.7562970242015039,1831.8277441184798,56.700001814400004,0.7199994039200001,1.0954500350544,1684,-9.6,99,P-GPS,
0.355949036910116,36.8882797095696,15400,2018-04-05 06:56:57,1832.3277441344799,57.200001830400005,0.0,0.75445502414256,1832.3277441344799,57.200001830400005,0.7199994039200001,1.0954500350544,1684,-10.2,99,P-GPS,
0.35594907952242405,36.8882797365134,15500,2018-04-05 06:56:58,1832.7277441472797,57.600001843200005,0.0,0.7521000240672,1832.7277441472797,57.600001843200005,0.7199994039200001,1.0954500350544,1684,-10.8,99,P-GPS,
0.35594912376154797,36.8882797755666,15600,2018-04-05 06:56:58,1833.2277441632798,58.100001859200006,0.0,0.7503720240119041,1833.2277441632798,58.100001859200006,0.7199994039200001,1.0954500350544,1684,-11.4,99,P-GPS,
0.355949191142897,36.888279828077295,15700,2018-04-05 06:56:58,1833.7277441792799,58.60000187520001,0.0,0.747406023916992,1833.7277441792799,58.60000187520001,0.7199994039200001,1.0954500350544,1684,-11.9,99,P-GPS,
0.355949250176027,36.8882799052042,15800,2018-04-05 06:56:58,1834.22774419528,59.1000018912,0.0,0.7468790239001281,1834.22774419528,59.1000018912,0.7199994039200001,1.0954500350544,1684,-12.5,99,P-GPS,
0.355949324147689,36.8882800160646,15900,2018-04-05 06:56:58,1834.7277442112797,59.6000019072,0.0,0.747372023915904,1834.7277442112797,59.6000019072,0.7199994039200001,1.0954500350544,1684,-13.7,99,P-GPS,
0.355949465896411,36.8882802298587,16100,2018-04-05 06:56:58,1835.7277442432799,60.600001939200006,0.0,0.7492300239753601,1835.7277442432799,60.600001939200006,0.7199994039200001,1.0954500350544,1684,-13.7,99,P-GPS,
0.3559495163704389,36.888280317778396,16200,2018-04-05 06:56:58,1836.2277442592797,61.10000195520001,0.0,0.75098002403136,1836.2277442592797,61.10000195520001,0.7199994039200001,1.0954500350544,1684,-14.3,99,P-GPS,
0.35594957477417605,36.888280387213,16300,2018-04-05 06:56:58,1836.7277442752797,61.6000019712,0.0,0.7508980240287362,1836.7277442752797,61.6000019712,0.7199994039200001,1.0954500350544,1684,-14.9,99,P-GPS,
0.35594962275139297,36.888280437478706,16400,2018-04-05 06:56:58,1837.2277442912798,62.1000019872,0.0,0.7504420240141441,1837.2277442912798,62.1000019872,0.7199994039200001,1.0954500350544,1684,-15.4,99,P-GPS,
0.355949672490587,36.8882804931401,16500,2018-04-05 06:56:59,1837.7277443072799,62.600002003200004,0.0,0.7503130240100161,1837.7277443072799,62.600002003200004,0.7199994039200001,1.0954500350544,1684,-16.0,99,P-GPS,
0.35594973007480896,36.888280534669704,16600,2018-04-05 06:56:59,1838.2277443232797,63.100002019200005,0.0,0.7485780239544961,1838.2277443232797,63.100002019200005,0.7199994039200001,1.0954500350544,1684,-16.6,99,P-GPS,
0.35594979657639103,36.8882805769144,16700,2018-04-05 06:56:59,1838.72774433928,63.600002035200006,0.0,0.746243023879776,1838.72774433928,63.600002035200006,0.7199994039200001,1.0954500350544,1684,-17.2,99,P-GPS,
0.35594985830622494,36.8882806116532,16800,2018-04-05 06:56:59,1839.2277443552798,64.1000020512,0.0,0.7438230238023361,1839.2277443552798,64.1000020512,0.7199994039200001,1.0954500350544,1684,-17.8,99,P-GPS,
0.3559499346525639,36.8882806587798,16900,2018-04-05 06:56:59,1839.7277443712796,64.60000206720001,0.0,0.7412540237201279,1839.7277443712796,64.60000206720001,0.7199994039200001,1.0954500350544,1684,-18.4,99,P-GPS,
0.3559499928840929,36.8882806943033,17000,2018-04-05 06:56:59,1840.22774438728,65.1000020832,0.0,0.7393460236590721,1840.22774438728,65.1000020832,0.7199994039200001,1.0954500350544,1684,-19.0,99,P-GPS,
0.35595004601207897,36.8882807389601,17100,2018-04-05 06:56:59,1840.7277444032798,65.60000209920001,0.0,0.738631023636192,1840.7277444032798,65.60000209920001,0.7199994039200001,1.0954500350544,1684,-19.5,99,P-GPS,
0.35595008949316204,36.88828076611679,17200,2018-04-05 06:56:59,1841.2277444192798,66.10000211520001,0.0,0.737362023595584,1841.2277444192798,66.10000211520001,0.7199994039200001,1.0954500350544,1684,-20.1,99,P-GPS,
0.35595014737416797,36.8882808066615,17300,2018-04-05 06:56:59,1841.7277444352796,66.6000021312,0.0,0.7360880235548161,1841.7277444352796,66.6000021312,0.7199994039200001,1.0954500350544,1684,-20.7,99,P-GPS,
0.355950192635955,36.888280841689294,17400,2018-04-05 06:56:59,1842.22774445128,67.10000214720002,0.0,0.735417023533344,1842.22774445128,67.10000214720002,0.7199994039200001,1.0954500350544,1684,-21.3,99,P-GPS,
0.355950248309605,36.8882808960767,17500,2018-04-05 06:57:00,1842.7277444672798,67.60000216319999,0.0,0.735587023538784,1842.7277444672798,67.60000216319999,0.7199994039200001,1.0954500350544,1684,-21.3,99,P-GPS,
0.35595030759636603,36.8882809309761,17600,2018-04-05 06:57:00,1843.2277444832796,68.1000021792,0.0,0.733984023487488,1843.2277444832796,68.1000021792,0.7199994039200001,1.0954500350544,1684,-21.9,99,P-GPS,
0.35595035448619,36.888280954280795,17700,2018-04-05 06:57:00,1843.7277444992799,68.6000021952,0.0,0.7324150234372802,1843.7277444992799,68.6000021952,0.7199994039200001,1.0954500350544,1684,-22.5,99,P-GPS,
0.3559503917527229,36.8882809579787,17800,2018-04-05 06:57:00,1844.2277445152797,69.1000022112,0.0,0.729964023358848,1844.2277445152797,69.1000022112,0.7199994039200001,1.0954500350544,1684,-23.0,99,P-GPS,
0.355950461342649,36.888280988228395,17900,2018-04-05 06:57:00,1844.7277445312798,69.60000222720001,0.0,0.727388023276416,1844.7277445312798,69.60000222720001,0.7199994039200001,1.0954500350544,1684,-23.6,99,P-GPS,
0.35595051794329097,36.8882810330029,18000,2018-04-05 06:57:00,1845.2277445472798,70.1000022432,0.0,0.727068023266176,1845.2277445472798,70.1000022432,0.7199994039200001,1.0954500350544,1684,-24.2,99,P-GPS,
0.35595056983691603,36.888281084352,18100,2018-04-05 06:57:00,1845.62774456008,70.50000225600002,0.0,0.727733023287456,1845.62774456008,70.50000225600002,0.7199994039200001,1.0954500350544,1684,-24.6,99,P-GPS,
0.35595062025028495,36.888281122036,18200,2018-04-05 06:57:00,1846.1277445760797,71.000002272,0.0,0.727412023277184,1846.1277445760797,71.000002272,0.7199994039200001,1.0954500350544,1684,-24.9,99,P-GPS,
0.35595068692936704,36.888281180528104,18300,2018-04-05 06:57:00,1846.6277445920798,71.500002288,0.0,0.7278450232910401,1846.6277445920798,71.500002288,0.7199994039200001,1.0954500350544,1684,-24.9,99,P-GPS,
0.35595073494892404,36.888281233846,18400,2018-04-05 06:57:00,1847.1277446080799,72.00000230399999,0.0,0.729223023335136,1847.1277446080799,72.00000230399999,0.7199994039200001,1.0954500350544,1684,-24.9,99,P-GPS,
0.355950755347221,36.8882813049358,18500,2018-04-05 06:57:01,1847.62774462408,72.50000232,0.0,0.7341170234917439,1847.62774462408,72.50000232,0.7199994039200001,1.0954500350544,1684,-24.9,99,P-GPS,
0.3559507426156379,36.888281366634395,18600,2018-04-05 06:57:01,1848.1277446400798,73.00000233600001,0.0,0.7404430236941761,1848.1277446400798,73.00000233600001,0.7199994039200001,1.0954500350544,1684,-24.9,99,P-GPS,
0.35595072937964606,36.8882814549587,18700,2018-04-05 06:57:01,1848.6277446560796,73.50000235200001,0.0,0.7491890239740481,1848.6277446560796,73.50000235200001,0.7199994039200001,1.0954500350544,1684,-24.9,99,P-GPS,
0.35595071481647106,36.8882815578506,18800,2018-04-05 06:57:01,1849.1277446720799,74.00000236800001,0.0,0.759359024299488,1849.1277446720799,74.00000236800001,0.7199994039200001,1.0954500350544,1684,-24.9,99,P-GPS,
0.3559506991142,36.888281696483396,18900,2018-04-05 06:57:01,1849.6277446880797,74.500002384,0.0,0.7728680247317761,1849.6277446880797,74.500002384,0.7199994039200001,1.0954500350544,1684,-24.9,99,P-GPS,
0.35595069049810296,36.8882818228172,19000,2018-04-05 06:57:01,1850.0277447008798,74.9000023968,0.0,0.7848790251161281,1850.0277447008798,74.9000023968,0.7199994039200001,1.0954500350544,1684,-24.9,99,P-GPS,
0.35595070053786704,36.888281932853204,19100,2018-04-05 06:57:01,1850.5277447168796,75.40000241279999,0.0,0.7942890254172481,1850.5277447168796,75.40000241279999,0.7199994039200001,1.0954500350544,1684,-24.9,99,P-GPS,
0.3559507013928,36.888281994774395,19200,2018-04-05 06:57:01,1851.1277447360799,76.000002432,0.0,0.799919025597408,1851.1277447360799,76.000002432,0.7199994039200001,1.0954500350544,1539,-24.9,99,P-GPS,
0.35595070449294997,36.888282050175704,19300,2018-04-05 06:57:01,1851.6277447520797,76.500002448,0.0,0.804827025754464,1851.6277447520797,76.500002448,0.7199994039200001,1.0954500350544,1429,-24.9,99,P-GPS,
0.355950707633812,36.8882820966493,19400,2018-04-05 06:57:01,1852.12774476808,77.000002464,0.0,0.8089240258855681,1852.12774476808,77.000002464,0.7199994039200001,1.0954500350544,1395,-24.9,99,P-GPS,
0.35595072832522795,36.888282117606295,19500,2018-04-05 06:57:02,1852.5277447808799,77.40000247680001,0.0,0.8095900259068801,1852.5277447808799,77.40000247680001,0.7199994039200001,1.0954500350544,1394,-24.9,98,P-GPS,
0.355950763214641,36.8882821203277,19600,2018-04-05 06:57:02,1852.92774479368,77.8000024896,0.0,0.8077070258466239,1852.92774479368,77.8000024896,0.7199994039200001,1.0954500350544,1474,-24.9,98,P-GPS,
0.355950848429894,36.888282179854,19700,2018-04-05 06:57:02,1853.2277448032796,78.1000024992,0.0,0.8081240258599679,1853.2277448032796,78.1000024992,0.7199994039200001,1.0954500350544,1490,-24.9,98,P-GPS,
0.35595095296907703,36.8882822715025,19800,2018-04-05 06:57:02,1853.4277448096798,78.3000025056,0.0,0.810629025940128,1853.4277448096798,78.3000025056,0.7199994039200001,1.0954500350544,1446,-24.9,98,P-GPS,
0.355951032853416,36.88828240161121,19900,2018-04-05 06:57:02,1853.72774481928,78.6000025152,0.0,0.8184960261918722,1853.72774481928,78.6000025152,0.7199994039200001,1.0954500350544,1323,-24.9,98,P-GPS,
0.355951039653594,36.888282507971894,20000,2018-04-05 06:57:02,1854.0277448288798,78.9000025248,0.0,0.8283510265072321,1854.0277448288798,78.9000025248,0.7199994039200001,1.0954500350544,1312,-24.9,98,P-GPS,
0.35595100050763206,36.8882826166429,20100,2018-04-05 06:57:02,1854.3277448384797,79.20000253439999,0.35999970196000003,0.841002026912064,1854.3277448384797,79.20000253439999,0.7199994039200001,1.0954500350544,1329,-24.9,98,P-GPS,
0.355950958978443,36.8882826985426,20200,2018-04-05 06:57:02,1854.5277448448799,79.4000025408,0.35999970196000003,0.851201027238432,1854.5277448448799,79.4000025408,0.7199994039200001,1.0954500350544,1358,-24.9,98,P-GPS,
0.355950977408358,36.8882827711815,20300,2018-04-05 06:57:02,1854.6277448480798,79.500002544,0.0,0.8572250274311999,1854.6277448480798,79.500002544,0.7199994039200001,1.0954500350544,1418,-24.9,98,P-GPS,
0.35595102840552395,36.888282807420204,20400,2018-04-05 06:57:03,1854.82774485448,79.70000255040001,0.0,0.857993027455776,1854.82774485448,79.70000255040001,0.7199994039200001,1.0954500350544,1435,-24.9,98,P-GPS,
0.35595108317945895,36.8882828382288,20500,2018-04-05 06:57:03,1855.0277448608797,79.9000025568,0.0,0.8580860274587521,1855.0277448608797,79.9000025568,0.7199994039200001,1.0954500350544,1440,-24.9,98,P-GPS,
0.355951131995325,36.8882828565853,20600,2018-04-05 06:57:03,1855.2277448672799,80.1000025632,0.0,0.8573240274343679,1855.2277448672799,80.1000025632,0.7199994039200001,1.0954500350544,1397,-24.9,98,P-GPS,
0.355951196036939,36.888282924034,20700,2018-04-05 06:57:03,1855.4277448736798,80.30000256960001,0.0,0.8606630275412162,1855.4277448736798,80.30000256960001,0.7199994039200001,1.0954500350544,1197,-24.9,98,P-GPS,
0.355951279325132,36.888282985661895,20800,2018-04-05 06:57:03,1855.7277448832797,80.6000025792,0.0,0.862576027602432,1855.7277448832797,80.6000025792,0.7199994039200001,1.0954500350544,1024,-24.9,98,P-GPS,
0.355951409766142,36.8882830350154,20900,2018-04-05 06:57:03,1855.9277448896798,80.80000258560001,0.0,0.86113502755632,1855.9277448896798,80.80000258560001,0.7199994039200001,1.0954500350544,1024,-24.9,98,P-GPS,
0.355951528108017,36.8882830470724,21000,2018-04-05 06:57:03,1856.1277448960798,81.000002592,0.0,0.8567620274163841,1856.1277448960798,81.000002592,0.7199994039200001,1.0954500350544,1024,-24.9,98,P-GPS,
0.35595165607073903,36.8882830911575,21100,2018-04-05 06:57:03,1856.2277448992797,81.10000259520002,0.0,0.855399027372768,1856.2277448992797,81.10000259520002,0.7199994039200001,1.0954500350544,1024,-24.9,98,P-GPS,
0.355951796833438,36.8882831293661,21200,2018-04-05 06:57:03,1856.2277448992797,81.10000259520002,0.0,0.853147027300704,1856.2277448992797,81.10000259520002,0.7199994039200001,1.0954500350544,1024,-24.9,98,P-GPS,
0.35595197675349805,36.8882831778674,21300,2018-04-05 06:57:03,1856.2277448992797,81.10000259520002,0.0,0.8506760272216322,1856.2277448992797,81.10000259520002,0.7199994039200001,1.0954500350544,1024,-24.9,98,P-GPS,
0.35595216509811,36.8882831757722,21400,2018-04-05 06:57:04,1856.2277448992797,81.10000259520002,0.0,0.8430950269790402,1856.2277448992797,81.10000259520002,0.7199994039200001,1.0954500350544,1024,-24.9,98,P-GPS,
0.35595236219927207,36.888283141481,21500,2018-04-05 06:57:04,1856.2277448992797,81.10000259520002,0.0,0.83226502663248,1856.2277448992797,81.10000259520002,0.7199994039200001,1.0954500350544,1024,-24.9,98,P-GPS,
0.355952537863393,36.8882830466924,21600,2018-04-05 06:57:04,1856.2277448992797,81.10000259520002,0.35999970196000003,0.8161870261179841,1856.2277448992797,81.10000259520002,0.7199994039200001,1.0954500350544,1024,-24.9,98,P-GPS,
0.355952699386718,36.8882829211991,21700,2018-04-05 06:57:04,1856.1277448960798,81.000002592,0.35999970196000003,0.7975750255224001,1856.2277448992797,81.10000259520002,0.7199994039200001,1.0954500350544,1024,-24.9,98,P-GPS,
0.355952845283188,36.888282755991895,21800,2018-04-05 06:57:04,1856.1277448960798,81.000002592,0.35999970196000003,0.7754020248128641,1856.2277448992797,81.10000259520002,0.7199994039200001,1.0954500350544,1024,-24.9,98,P-GPS,
0.3559530079357371,36.888282613920396,21900,2018-04-05 06:57:04,1856.1277448960798,81.000002592,0.35999970196000003,0.75538002417216,1856.2277448992797,81.10000259520002,0.7199994039200001,1.0954500350544,1024,-24.9,98,P-GPS,
0.35595316661915705,36.888282454668996,22000,2018-04-05 06:57:04,1856.1277448960798,81.000002592,0.35999970196000003,0.733847023483104,1856.2277448992797,81.10000259520002,0.7199994039200001,1.0954500350544,910,-24.9,98,P-GPS,
0.35595331855664597,36.8882823124422,22100,2018-04-05 06:57:04,1856.1277448960798,81.000002592,0.35999970196000003,0.714554022865728,1856.2277448992797,81.10000259520002,0.7199994039200001,1.0954500350544,874,-24.9,98,P-GPS,
0.35595345256099703,36.888282159826296,22200,2018-04-05 06:57:04,1856.1277448960798,81.000002592,0.35999970196000003,0.6947750222328,1856.2277448992797,81.10000259520002,0.7199994039200001,1.0954500350544,876,-24.9,98,P-GPS,
0.3559536168707921,36.8882820329787,22300,2018-04-05 06:57:04,1856.1277448960798,81.000002592,0.35999970196000003,0.677352021675264,1856.2277448992797,81.10000259520002,0.7199994039200001,1.0954500350544,872,-24.9,98,P-GPS,
0.35595379517467296,36.888281889626704,22400,2018-04-05 06:57:04,1856.0277448928798,80.9000025888,0.35999970196000003,0.6582120210627841,1856.2277448992797,81.10000259520002,0.7199994039200001,1.0954500350544,877,-24.9,98,P-GPS,
0.35595395797144,36.8882817445329,22500,2018-04-05 06:57:05,1856.0277448928798,80.9000025888,0.35999970196000003,0.6395550204657601,1856.2277448992797,81.10000259520002,0.7199994039200001,1.0954500350544,877,-24.9,98,P-GPS,
0.35595409166061104,36.8882815778805,22600,2018-04-05 06:57:05,1855.9277448896798,80.80000258560001,0.35999970196000003,0.6192750198168,1856.2277448992797,81.10000259520002,0.7199994039200001,1.0954500350544,955,-24.9,98,P-GPS,
0.35595422521027,36.8882814506431,22700,2018-04-05 06:57:05,1855.9277448896798,80.80000258560001,0.35999970196000003,0.6036150193156801,1856.2277448992797,81.10000259520002,0.7199994039200001,1.0954500350544,1013,-24.9,98,P-GPS,
0.355954345214545,36.888281323129604,22800,2018-04-05 06:57:05,1855.8277448864796,80.7000025824,0.35999970196000003,0.588336018826752,1856.2277448992797,81.10000259520002,0.7199994039200001,1.0954500350544,1024,-24.9,98,P-GPS,
0.35595443585426295,36.8882811971855,22900,2018-04-05 06:57:05,1855.8277448864796,80.7000025824,0.35999970196000003,0.573673018357536,1856.2277448992797,81.10000259520002,0.7199994039200001,1.0954500350544,1024,-24.9,98,P-GPS,
0.35595451496990793,36.888281042478795,23000,2018-04-05 06:57:05,1855.7277448832797,80.6000025792,0.35999970196000003,0.556022017792704,1856.2277448992797,81.10000259520002,0.7199994039200001,1.0954500350544,1024,-24.9,98,P-GPS,
0.35595458885924397,36.8882809034221,23100,2018-04-05 06:57:05,1855.7277448832797,80.6000025792,0.35999970196000003,0.540244017287808,1856.2277448992797,81.10000259520002,0.7199994039200001,1.0954500350544,1024,-24.9,98,P-GPS,
0.355954663491799,36.8882807699871,23200,2018-04-05 06:57:05,1855.7277448832797,80.6000025792,0.35999970196000003,0.525199016806368,1856.2277448992797,81.10000259520002,0.7199994039200001,1.0954500350544,1024,-24.9,98,P-GPS,
0.3559547343819871,36.8882806632099,23300,2018-04-05 06:57:05,1855.7277448832797,80.6000025792,0.35999970196000003,0.513243016423776,1856.2277448992797,81.10000259520002,0.7199994039200001,1.0954500350544,1024,-24.9,98,P-GPS,
0.355954805076787,36.8882805520348,23400,2018-04-05 06:57:05,1855.7277448832797,80.6000025792,0.35999970196000003,0.500917016029344,1856.2277448992797,81.10000259520002,0.7199994039200001,1.0954500350544,1024,-24.9,98,P-GPS,
0.35595488420051397,36.888280443564,23500,2018-04-05 06:57:06,1855.7277448832797,80.6000025792,0.35999970196000003,0.489049015649568,1856.2277448992797,81.10000259520002,0.7199994039200001,1.0954500350544,1024,-24.9,98,P-GPS,
0.35595495736919996,36.8882803251858,23600,2018-04-05 06:57:06,1855.7277448832797,80.6000025792,0.35999970196000003,0.476219015239008,1856.2277448992797,81.10000259520002,0.7199994039200001,1.0954500350544,1024,-24.9,98,P-GPS,
0.35595501247645706,36.8882802556355,23700,2018-04-05 06:57:06,1855.7277448832797,80.6000025792,0.35999970196000003,0.4688380150028161,1856.2277448992797,81.10000259520002,0.7199994039200001,1.0954500350544,1024,-24.9,98,P-GPS,
0.35595505221761503,36.8882801893784,23800,2018-04-05 06:57:06,1855.7277448832797,80.6000025792,0.35999970196000003,0.4617870147771839,1856.2277448992797,81.10000259520002,0.7199994039200001,1.0954500350544,1024,-24.9,98,P-GPS,
0.3559551068967439,36.8882801388783,23900,2018-04-05 06:57:06,1855.62774488008,80.500002576,0.35999970196000003,0.456677014613664,1856.2277448992797,81.10000259520002,0.7199994039200001,1.0954500350544,1024,-24.9,98,P-GPS,
0.35595515920969395,36.8882800739347,24000,2018-04-05 06:57:06,1855.62774488008,80.500002576,0.0,0.45003701440118393,1856.2277448992797,81.10000259520002,0.7199994039200001,1.0954500350544,1024,-24.9,98,P-GPS,
0.355955200941064,36.8882800449108,24100,2018-04-05 06:57:06,1855.62774488008,80.500002576,0.0,0.4473250143144,1856.2277448992797,81.10000259520002,0.7199994039200001,1.0954500350544,1024,-24.9,98,P-GPS,
0.355955224132906,36.888280012661205,24200,2018-04-05 06:57:06,1855.62774488008,80.500002576,0.0,0.444061014209952,1856.2277448992797,81.10000259520002,0.7199994039200001,1.0954500350544,1024,-24.9,98,P-GPS,
0.355955244161342,36.888280007423795,24300,2018-04-05 06:57:06,1855.62774488008,80.500002576,0.0,0.443754014200128,1856.2277448992797,81.10000259520002,0.7199994039200001,1.0954500350544,1024,-24.9,98,P-GPS,
0.355955248540432,36.8882800028567,24400,2018-04-05 06:57:06,1855.62774488008,80.500002576,0.0,0.443311014185952,1856.2277448992797,81.10000259520002,0.7199994039200001,1.0954500350544,1024,-24.9,98,P-GPS,
0.35595528707084095,36.888280010176395,24600,2018-04-05 06:57:07,1855.62774488008,80.500002576,0.0,0.44467601422963204,1856.2277448992797,81.10000259520002,0.7199994039200001,1.0954500350544,1024,-24.9,98,P-GPS,
0.355955313353215,36.888280029798295,24700,2018-04-05 06:57:07,1855.62774488008,80.500002576,0.0,0.44724001431168,1856.2277448992797,81.10000259520002,0.7199994039200001,1.0954500350544,1024,-24.9,98,P-GPS,
0.355955332675009,36.8882800501118,24800,2018-04-05 06:57:07,1855.62774488008,80.500002576,0.0,0.449782014393024,1856.2277448992797,81.10000259520002,0.7199994039200001,1.0954500350544,1024,-24.9,98,P-GPS,
0.35595535054769,36.8882801147791,24900,2018-04-05 06:57:07,1855.62774488008,80.500002576,0.0,0.45718601462995195,1856.2277448992797,81.10000259520002,0.7199994039200001,1.0954500350544,1024,-24.9,98,P-GPS,
0.35595535847230897,36.8882801840114,25000,2018-04-05 06:57:07,1855.5277448768798,80.4000025728,0.0,0.464931014877792,1856.2277448992797,81.10000259520002,0.7199994039200001,1.0954500350544,1024,-24.9,98,P-GPS,
0.35595536500857794,36.8882802884986,25100,2018-04-05 06:57:07,1855.5277448768798,80.4000025728,0.0,0.47653301524905606,1856.2277448992797,81.10000259520002,0.7199994039200001,1.0954500350544,1024,-24.9,98,P-GPS,
0.35595536366409397,36.888280376797205,25200,2018-04-05 06:57:07,1855.5277448768798,80.4000025728,0.0,0.48623101555939197,1856.2277448992797,81.10000259520002,0.7199994039200001,1.0954500350544,1024,-24.9,98,P-GPS,
0.355955357069405,36.8882804731713,25300,2018-04-05 06:57:07,1855.5277448768798,80.4000025728,0.0,0.4967430158957761,1856.2277448992797,81.10000259520002,0.7199994039200001,1.0954500350544,1024,-24.9,98,P-GPS,
0.35595534806512696,36.8882805466079,25400,2018-04-05 06:57:08,1855.5277448768798,80.4000025728,0.0,0.5047010161504321,1856.2277448992797,81.10000259520002,0.7199994039200001,1.0954500350544,1024,-24.9,98,P-GPS,
0.3559553374593771,36.8882806427444,25500,2018-04-05 06:57:08,1855.5277448768798,80.4000025728,0.0,0.515149016484768,1856.2277448992797,81.10000259520002,0.7199994039200001,1.0954500350544,1024,-24.9,98,P-GPS,
0.35595532810803704,36.888280721689206,25600,2018-04-05 06:57:08,1855.5277448768798,80.4000025728,0.0,0.523728016759296,1856.2277448992797,81.10000259520002,0.7199994039200001,1.0954500350544,1024,-24.9,98,P-GPS,
0.35595532957404397,36.8882808204368,25700,2018-04-05 06:57:08,1855.62774488008,80.500002576,0.0,0.534647017108704,1856.2277448992797,81.10000259520002,0.7199994039200001,1.0954500350544,1024,-24.9,98,P-GPS,
0.355955335209682,36.8882808957148,25800,2018-04-05 06:57:08,1855.62774488008,80.500002576,0.0,0.543033017377056,1856.2277448992797,81.10000259520002,0.7199994039200001,1.0954500350544,1024,-24.9,98,P-GPS,
0.35595534569350196,36.8882809941949,25900,2018-04-05 06:57:08,1855.62774488008,80.500002576,0.0,0.55404501772944,1856.2277448992797,81.10000259520002,0.7199994039200001,1.0954500350544,1024,-24.9,98,P-GPS,
0.35595535294730396,36.8882810710488,26000,2018-04-05 06:57:08,1855.62774488008,80.500002576,0.0,0.562627018004064,1856.2277448992797,81.10000259520002,0.7199994039200001,1.0954500350544,1024,-24.9,98,P-GPS,
0.3559553319673479,36.888281183112504,26100,2018-04-05 06:57:08,1855.62774488008,80.500002576,0.0,0.5747330183914561,1856.2277448992797,81.10000259520002,0.7199994039200001,1.0954500350544,1024,-24.9,98,P-GPS,
0.355955302086011,36.888281265295895,26200,2018-04-05 06:57:08,1855.62774488008,80.500002576,0.0,0.5834540186705279,1856.2277448992797,81.10000259520002,0.7199994039200001,1.0954500350544,1024,-24.9,98,P-GPS,
0.35595527385713793,36.888281366344295,26300,2018-04-05 06:57:08,1855.62774488008,80.500002576,0.0,0.594313019018016,1856.2277448992797,81.10000259520002,0.7199994039200001,1.0954500350544,1024,-24.9,98,P-GPS,
0.35595524673779494,36.8882814437838,26400,2018-04-05 06:57:08,1855.62774488008,80.500002576,0.0,0.6025980192831359,1856.2277448992797,81.10000259520002,0.7199994039200001,1.0954500350544,1024,-24.9,98,P-GPS,
0.355955223150903,36.8882815437958,26500,2018-04-05 06:57:09,1855.62774488008,80.500002576,0.0,0.613442019630144,1856.2277448992797,81.10000259520002,0.7199994039200001,1.0954500350544,1024,-24.9,98,P-GPS,
0.355955213124777,36.8882816117724,26600,2018-04-05 06:57:09,1855.62774488008,80.500002576,0.0,0.62088001986816,1856.2277448992797,81.10000259520002,0.7199994039200001,1.0954500350544,1024,-24.9,98,P-GPS,
0.35595518983929997,36.888281706547,26700,2018-04-05 06:57:09,1855.62774488008,80.500002576,0.0,0.631177020197664,1856.2277448992797,81.10000259520002,0.7199994039200001,1.0954500350544,1024,-24.9,98,P-GPS,
0.355955164734546,36.888281765646205,26800,2018-04-05 06:57:09,1855.62774488008,80.500002576,0.0,0.63752002040064,1856.2277448992797,81.10000259520002,0.7199994039200001,1.0954500350544,1024,-24.9,98,P-GPS,
0.35595515706457503,36.88828184615829,27000,2018-04-05 06:57:09,1855.7277448832797,80.6000025792,0.0,0.6463900206844799,1856.2277448992797,81.10000259520002,0.7199994039200001,1.0954500350544,1024,-24.9,98,P-GPS,
0.355955164516284,36.8882819174462,27100,2018-04-05 06:57:09,1855.62774488008,80.500002576,0.0,0.654356020939392,1856.2277448992797,81.10000259520002,0.7199994039200001,1.0954500350544,1024,-24.9,98,P-GPS,
0.355955181048552,36.8882819676637,27200,2018-04-05 06:57:09,1855.62774488008,80.500002576,0.0,0.6600580211218561,1856.2277448992797,81.10000259520002,0.7199994039200001,1.0954500350544,1024,-24.9,98,P-GPS,
0.355955225891015,36.8882820360406,27300,2018-04-05 06:57:09,1855.62774488008,80.500002576,0.0,0.6680200213766401,1856.2277448992797,81.10000259520002,0.7199994039200001,1.0954500350544,1024,-24.9,98,P-GPS,
0.355955272404057,36.888282061556204,27400,2018-04-05 06:57:09,1855.62774488008,80.500002576,0.0,0.6712770214808641,1856.2277448992797,81.10000259520002,0.7199994039200001,1.0954500350544,1024,-24.9,98,P-GPS,
0.355955338519189,36.888282106639,27500,2018-04-05 06:57:10,1855.62774488008,80.500002576,0.0,0.6769450216622401,1856.2277448992797,81.10000259520002,0.7199994039200001,1.0954500350544,1024,-24.9,98,P-GPS,
0.3559553949974939,36.8882821134224,27600,2018-04-05 06:57:10,1855.62774488008,80.500002576,0.0,0.678333021706656,1856.2277448992797,81.10000259520002,0.7199994039200001,1.0954500350544,1024,-24.9,98,P-GPS,
0.355955460703988,36.8882821267749,27700,2018-04-05 06:57:10,1855.62774488008,80.500002576,0.0,0.680622021779904,1856.2277448992797,81.10000259520002,0.7199994039200001,1.0954500350544,1024,-24.9,98,P-GPS,
0.35595552096730604,36.8882821034915,27800,2018-04-05 06:57:10,1855.62774488008,80.500002576,0.0,0.678866021723712,1856.2277448992797,81.10000259520002,0.7199994039200001,1.0954500350544,1024,-24.9,98,P-GPS,
0.3559555940248,36.888282097874104,27900,2018-04-05 06:57:10,1855.62774488008,80.500002576,0.0,0.679323021738336,1856.2277448992797,81.10000259520002,0.7199994039200001,1.0954500350544,1024,-24.9,98,P-GPS,
0.355955658039442,36.8882820707858,28000,2018-04-05 06:57:10,1855.62774488008,80.500002576,0.0,0.677367021675744,1856.2277448992797,81.10000259520002,0.7199994039200001,1.0954500350544,1024,-24.9,98,P-GPS,
0.355955729385441,36.8882820682292,28100,2018-04-05 06:57:10,1855.62774488008,80.500002576,0.0,0.6783170217061439,1856.2277448992797,81.10000259520002,0.7199994039200001,1.0954500350544,1024,-24.9,98,P-GPS,
0.3559557942259079,36.88828204377779,28200,2018-04-05 06:57:10,1855.62774488008,80.500002576,0.0,0.67683502165872,1856.2277448992797,81.10000259520002,0.7199994039200001,1.0954500350544,1024,-24.9,98,P-GPS,
0.355955853160111,36.8882820463141,28300,2018-04-05 06:57:10,1855.62774488008,80.500002576,0.0,0.6782690217046079,1856.2277448992797,81.10000259520002,0.7199994039200001,1.0954500350544,1024,-24.9,98,P-GPS,
0.355955902297085,36.888282020701105,28400,2018-04-05 06:57:10,1855.62774488008,80.500002576,0.0,0.676484021647488,1856.2277448992797,81.10000259520002,0.7199994039200001,1.0954500350544,1024,-24.9,98,P-GPS,
0.355955976490724,36.8882820223134,28500,2018-04-05 06:57:11,1855.62774488008,80.500002576,0.0,0.6782730217047361,1856.2277448992797,81.10000259520002,0.7199994039200001,1.0954500350544,1024,-24.9,98,P-GPS,
0.35595604876381703,36.8882819943162,28600,2018-04-05 06:57:11,1855.62774488008,80.500002576,0.0,0.67689502166064,1856.2277448992797,81.10000259520002,0.7199994039200001,1.0954500350544,1024,-24.9,98,P-GPS,
0.35595612158762896,36.8882819766749,28700,2018-04-05 06:57:11,1855.62774488008,80.500002576,0.0,0.67676002165632,1856.2277448992797,81.10000259520002,0.7199994039200001,1.0954500350544,1024,-24.9,98,P-GPS,
0.35595618409056606,36.8882819226504,28800,2018-04-05 06:57:11,1855.62774488008,80.500002576,0.0,0.6725250215208001,1856.2277448992797,81.10000259520002,0.7199994039200001,1.0954500350544,1024,-24.9,98,P-GPS,
0.35595626831348604,36.8882818654195,28900,2018-04-05 06:57:11,1855.62774488008,80.500002576,0.35999970196000003,0.6686510213968321,1856.2277448992797,81.10000259520002,0.7199994039200001,1.0954500350544,1024,-24.9,98,P-GPS,
0.35595634519069896,36.8882817630575,29000,2018-04-05 06:57:11,1855.62774488008,80.500002576,0.35999970196000003,0.6598930211165761,1856.2277448992797,81.10000259520002,0.7199994039200001,1.0954500350544,1024,-24.9,98,P-GPS,
0.35595640107197596,36.888281622642204,29100,2018-04-05 06:57:11,1855.62774488008,80.500002576,0.7199994039200001,0.646607020691424,1856.2277448992797,81.10000259520002,0.7199994039200001,1.0954500350544,1024,-24.9,98,P-GPS,
0.355956404390541,36.888281372229294,29200,2018-04-05 06:57:11,1855.62774488008,80.500002576,0.7199994039200001,0.6200690198422079,1856.2277448992797,81.10000259520002,0.7199994039200001,1.0954500350544,1024,-24.9,98,P-GPS,
0.35595634191752595,36.8882810017618,29300,2018-04-05 06:57:11,1855.62774488008,80.500002576,1.8359984799959999,0.578694018518208,1856.2277448992797,81.10000259520002,1.8359984799959999,1.0954500350544,1024,-24.9,98,P-GPS,
0.355956206140105,36.8882804585202,29400,2018-04-05 06:57:11,1855.62774488008,80.500002576,2.627997824308,0.5165790165305281,1856.2277448992797,81.10000259520002,2.627997824308,1.0954500350544,1024,-24.9,98,P-GPS,
