latitude,longitude,time_millisecond,datetime_utc,altitude_m,ascent_m,speed_kph,distance_m,max_altitude_m,max_ascent_m,max_speed_kph,max_distance_m,rc_throttle,gimbal_pitch_degrees,battery_percent,flycState,message
0.33952905666717,36.901874212627,0,2018-04-07 05:25:03,1679.5321582450335,0.0,0.0,0.0,1679.5321582450335,0.0,0.0,0.0,364,0.0,99,P-GPS,
0.33952909104769396,36.9018742579309,100,2018-04-07 05:25:03,1679.5321582450335,0.0,0.0,0.006324480202383361,1679.5321582450335,0.0,0.0,0.006324480202383361,364,0.0,99,Motors_Started,
0.33952912703793503,36.901874305194,200,2018-04-07 05:25:03,1679.5321582450335,0.0,0.0,0.012930700413782402,1679.5321582450335,0.0,0.0,0.012930700413782402,364,0.0,99,Motors_Started,
0.339529169798431,36.901874309012896,300,2018-04-07 05:25:04,1679.5321582450335,0.0,0.0,0.0165277005288864,1679.5321582450335,0.0,0.0,0.0165277005288864,364,0.0,99,Motors_Started,
0.339529211331081,36.901874326697204,400,2018-04-07 05:25:04,1679.5321582450335,0.0,0.0,0.021371400683884798,1679.5321582450335,0.0,0.0,0.021371400683884798,364,0.0,99,Motors_Started,
0.339529218451453,36.9018743494006,500,2018-04-07 05:25:04,1679.5321582450335,0.0,0.0,0.023559000753888004,1679.5321582450335,0.0,0.0,0.023559000753888004,420,0.0,99,Motors_Started,Setting new Return-To-Home altitude to 30m (98 ft). Setting new Maximum Flight Altitude to 150m (492 ft)
0.33952921882029496,36.9018743774313,600,2018-04-07 05:25:04,1679.5321582450335,0.0,0.0,0.025710800822745603,1679.5321582450335,0.0,0.0,0.025710800822745603,768,0.0,99,Motors_Started,
0.339529221396493,36.901874416121004,700,2018-04-07 05:25:04,1679.5321582450335,0.0,0.0,0.029114800931673596,1679.5321582450335,0.0,0.0,0.029114800931673596,768,0.0,99,Motors_Started,
0.33952922616539194,36.9018744541726,800,2018-04-07 05:25:04,1679.5321582450335,0.0,0.0,0.0328146010500672,1679.5321582450335,0.0,0.0,0.0328146010500672,1024,0.0,99,Motors_Started,
0.339529245626112,36.9018744992677,900,2018-04-07 05:25:04,1679.5321582450335,0.0,0.0,0.038178801221721605,1679.5321582450335,0.0,0.0,0.038178801221721605,1024,0.0,99,Motors_Started,
0.33952925975693504,36.901874546386296,1000,2018-04-07 05:25:04,1679.5321582450335,0.0,0.0,0.0434469013903008,1679.5321582450335,0.0,0.0,0.0434469013903008,1024,0.0,99,Motors_Started,
0.33952926735444,36.901874594178295,1100,2018-04-07 05:25:04,1679.5321582450335,0.0,0.0,0.04846920155101441,1679.5321582450335,0.0,0.0,0.04846920155101441,1024,0.0,99,Motors_Started,
0.33952927688735096,36.9018746426919,1200,2018-04-07 05:25:05,1679.5321582450335,0.0,0.0,0.0537307017193824,1679.5321582450335,0.0,0.0,0.0537307017193824,1024,0.0,99,Motors_Started,
0.33952930832527695,36.9018746993925,1300,2018-04-07 05:25:05,1679.5321582450335,0.0,0.0,0.0609369019499808,1679.5321582450335,0.0,0.0,0.0609369019499808,1024,0.0,99,Motors_Started,
0.33952933271936797,36.901874754177705,1400,2018-04-07 05:25:05,1679.5321582450335,0.0,0.0,0.0675957021630624,1679.5321582450335,0.0,0.0,0.0675957021630624,1024,0.0,99,Motors_Started,
0.339529345949661,36.901874808302395,1500,2018-04-07 05:25:05,1679.5321582450335,0.0,0.0,0.07364000235648001,1679.5321582450335,0.0,0.0,0.07364000235648001,1024,0.0,99,Motors_Started,
0.339529349515139,36.901874849947,1600,2018-04-07 05:25:05,1679.5321582450335,0.0,0.0,0.0779968024958976,1679.5321582450335,0.0,0.0,0.0779968024958976,1024,0.0,99,Assisted_Takeoff,
0.33952935799851797,36.901874877329895,1700,2018-04-07 05:25:05,1679.5321582450335,0.0,0.0,0.0811587025970784,1679.5321582450335,0.0,0.0,0.0811587025970784,1024,0.0,99,Assisted_Takeoff,
0.339529363346328,36.901874900878,1800,2018-04-07 05:25:05,1679.5321582450335,0.0,0.0,0.08379100268131201,1679.5321582450335,0.0,0.0,0.08379100268131201,1024,0.0,99,Assisted_Takeoff,
0.339529352040042,36.9018749347789,1900,2018-04-07 05:25:05,1679.5321582450335,0.0,0.0,0.0867643027764576,1679.5321582450335,0.0,0.0,0.0867643027764576,1024,0.0,99,Assisted_Takeoff,
0.339529341190533,36.9018749547307,2000,2018-04-07 05:25:05,1679.5321582450335,0.0,0.0,0.0883828028282496,1679.5321582450335,0.0,0.0,0.0883828028282496,1024,0.0,99,Assisted_Takeoff,
0.339529336388252,36.9018749688896,2100,2018-04-07 05:25:05,1679.5321582450335,0.0,0.0,0.08966800286937601,1679.5321582450335,0.0,0.0,0.08966800286937601,1024,0.0,99,Assisted_Takeoff,
0.33952933772439003,36.9018749779533,2200,2018-04-07 05:25:05,1679.5321582450335,0.0,0.0,0.0906652029012864,1679.5321582450335,0.0,0.0,0.0906652029012864,1024,0.0,99,Assisted_Takeoff,
0.339529360913433,36.9018750068427,2300,2018-04-07 05:25:06,1679.5321582450335,0.0,0.0,0.094579003026528,1679.5321582450335,0.0,0.0,0.094579003026528,1024,0.0,99,Assisted_Takeoff,
0.33952938314332204,36.9018750348969,2400,2018-04-07 05:25:06,1679.5321582450335,0.0,0.0,0.0983838031482816,1679.5321582450335,0.0,0.0,0.0983838031482816,1024,0.0,99,Assisted_Takeoff,
0.339529396260438,36.9018750773252,2500,2018-04-07 05:25:06,1679.5321582450335,0.0,0.0,0.10330800330585602,1679.5321582450335,0.0,0.0,0.10330800330585602,1024,0.0,99,Assisted_Takeoff,
0.339529406531849,36.9018751239856,2600,2018-04-07 05:25:06,1679.5321582450335,0.0,0.0,0.10855800347385601,1679.5321582450335,0.0,0.0,0.10855800347385601,1024,0.0,99,Assisted_Takeoff,
0.33952941251800894,36.9018751713354,2700,2018-04-07 05:25:06,1679.5321582450335,0.0,0.0,0.11372000363903999,1679.5321582450335,0.0,0.0,0.11372000363903999,1024,0.0,99,Assisted_Takeoff,
0.339529427586815,36.901875227276896,2800,2018-04-07 05:25:06,1679.5321582450335,0.0,0.0,0.12013700384438401,1679.5321582450335,0.0,0.0,0.12013700384438401,1024,0.0,99,Assisted_Takeoff,
0.339529458087572,36.9018752794274,2900,2018-04-07 05:25:06,1679.5321582450335,0.0,0.0,0.126754004056128,1679.5321582450335,0.0,0.0,0.126754004056128,1024,0.0,99,Assisted_Takeoff,
0.339529488986482,36.9018753328165,3000,2018-04-07 05:25:06,1679.5321582450335,0.0,0.0,0.1335250042728,1679.5321582450335,0.0,0.0,0.1335250042728,1024,0.0,99,Assisted_Takeoff,
0.339529505910901,36.9018753083767,3100,2018-04-07 05:25:06,1679.5321582450335,0.0,0.0,0.131696004214272,1679.5321582450335,0.0,0.0,0.1335250042728,1024,0.0,99,Assisted_Takeoff,
0.33952953469202,36.90187528118,3200,2018-04-07 05:25:07,1679.5321582450335,0.0,0.0,0.13017600416563202,1679.5321582450335,0.0,0.0,0.1335250042728,1024,0.0,99,Assisted_Takeoff,
0.339529572372585,36.9018752712543,3300,2018-04-07 05:25:07,1679.5321582450335,0.0,0.0,0.13095000419039998,1679.5321582450335,0.0,0.0,0.1335250042728,1024,0.0,99,Assisted_Takeoff,
0.339529606989234,36.901875263941,3400,2018-04-07 05:25:07,1679.5321582450335,0.0,0.0,0.13196000422272,1679.5321582450335,0.0,0.0,0.1335250042728,1024,0.0,99,Assisted_Takeoff,
0.339529626931973,36.9018752802881,3500,2018-04-07 05:25:07,1679.5321582450335,0.0,0.0,0.13460400430732802,1679.5321582450335,0.0,0.0,0.13460400430732802,1024,0.0,99,Assisted_Takeoff,
0.33952964015331,36.901875302633904,3600,2018-04-07 05:25:07,1679.5321582450335,0.0,0.0,0.137488004399616,1679.5321582450335,0.0,0.0,0.137488004399616,1024,0.0,99,Assisted_Takeoff,
0.339529647535047,36.901875339555,3700,2018-04-07 05:25:07,1679.5321582450335,0.0,0.0,0.141501004528032,1679.5321582450335,0.0,0.0,0.141501004528032,1024,0.0,99,Assisted_Takeoff,
0.339529660478734,36.90187538526779,3800,2018-04-07 05:25:07,1679.5321582450335,0.0,0.0,0.1466750046936,1679.5321582450335,0.0,0.0,0.1466750046936,1024,0.0,99,Assisted_Takeoff,
0.339529689998352,36.9018754355779,3900,2018-04-07 05:25:07,1679.5321582450335,0.0,0.0,0.153152004900864,1679.5321582450335,0.0,0.0,0.153152004900864,1024,0.0,99,Assisted_Takeoff,
0.33952971619838795,36.901875495191604,4000,2018-04-07 05:25:07,1679.5321582450335,0.0,0.0,0.16038000513216,1679.5321582450335,0.0,0.0,0.16038000513216,1024,0.0,99,Assisted_Takeoff,
0.33952973042365997,36.9018755531619,4100,2018-04-07 05:25:07,1679.5321582450335,0.0,0.0,0.16684300533897603,1679.5321582450335,0.0,0.0,0.16684300533897603,1024,0.0,99,Assisted_Takeoff,
0.339529737775271,36.901875619127495,4200,2018-04-07 05:25:07,1679.5321582450335,0.0,0.0,0.17378400556108803,1679.5321582450335,0.0,0.0,0.17378400556108803,1024,0.0,99,Assisted_Takeoff,
0.33952974088967,36.9018756806383,4300,2018-04-07 05:25:08,1679.5321582450335,0.0,0.0,0.18011100576355202,1679.5321582450335,0.0,0.0,0.18011100576355202,1024,0.0,99,Assisted_Takeoff,
0.3395297498355269,36.9018757339065,4400,2018-04-07 05:25:08,1679.5321582450335,0.0,0.0,0.185907005949024,1679.5321582450335,0.0,0.0,0.185907005949024,1024,0.0,99,Assisted_Takeoff,
0.33952977631972603,36.9018757663085,4500,2018-04-07 05:25:08,1679.5321582450335,0.0,0.0,0.190411006093152,1679.5321582450335,0.0,0.0,0.190411006093152,1036,0.0,99,Assisted_Takeoff,
0.33952980023668294,36.9018757834276,4600,2018-04-07 05:25:08,1679.5321582450335,0.0,0.0,0.193263006184416,1679.5321582450335,0.0,0.0,0.193263006184416,1085,0.0,99,Assisted_Takeoff,
0.339529813026482,36.90187579500729,4700,2018-04-07 05:25:08,1679.5321582450335,0.0,0.0,0.19503700624118403,1679.5321582450335,0.0,0.0,0.19503700624118403,1114,0.0,99,Assisted_Takeoff,
0.339529820619102,36.9018758032146,4800,2018-04-07 05:25:08,1679.5321582450335,0.0,0.0,0.19622400627916803,1679.5321582450335,0.0,0.0,0.19622400627916803,1122,0.0,99,Assisted_Takeoff,
0.3395298240266211,36.9018758328951,4900,2018-04-07 05:25:08,1679.5321582450335,0.0,0.0,0.199367006379744,1679.5321582450335,0.0,0.0,0.199367006379744,1127,0.0,99,Assisted_Takeoff,
0.33952982191452896,36.901875850198294,5000,2018-04-07 05:25:08,1679.5321582450335,0.0,0.0,0.201008006432256,1679.5321582450335,0.0,0.0,0.201008006432256,1150,0.0,99,Assisted_Takeoff,
0.33952981886933903,36.9018758631355,5100,2018-04-07 05:25:08,1679.5321582450335,0.0,0.0,0.20217000646944,1679.5321582450335,0.0,0.0,0.20217000646944,1167,0.0,99,Assisted_Takeoff,
0.33952981642992996,36.901875876704395,5200,2018-04-07 05:25:09,1679.5321582450335,0.0,0.0,0.203428006509696,1679.5321582450335,0.0,0.0,0.203428006509696,1176,0.0,99,Assisted_Takeoff,
0.33952980467582106,36.9018759054985,5300,2018-04-07 05:25:09,1679.5321582450335,0.0,0.0,0.205813006586016,1679.5321582450335,0.0,0.0,0.205813006586016,1187,0.0,99,Assisted_Takeoff,
0.339529798455979,36.90187593710721,5400,2018-04-07 05:25:09,1679.5321582450335,0.0,0.0,0.208759006680288,1679.5321582450335,0.0,0.0,0.208759006680288,1188,0.0,99,Assisted_Takeoff,
0.339529783539432,36.901875901930104,5500,2018-04-07 05:25:09,1679.5321582450335,0.0,0.0,0.20451000654432003,1679.5321582450335,0.0,0.0,0.208759006680288,1191,0.0,99,Assisted_Takeoff,
0.33952976495481496,36.901875889783,5600,2018-04-07 05:25:09,1679.5321582450335,0.0,0.0,0.20245700647862402,1679.5321582450335,0.0,0.0,0.208759006680288,1194,0.0,99,Assisted_Takeoff,
0.339529716436141,36.901875905828206,5700,2018-04-07 05:25:09,1679.5321582450335,0.0,0.0,0.20208100646659202,1679.5321582450335,0.0,0.0,0.208759006680288,1180,0.0,99,Assisted_Takeoff,
0.33952966454251604,36.901875913335296,5800,2018-04-07 05:25:09,1679.5321582450335,0.0,0.0,0.20084400642700803,1679.5321582450335,0.0,0.0,0.208759006680288,1162,0.0,99,P-GPS,Obstacle Avoided. Revise Flight Route
0.339529600729495,36.901875911803295,6000,2018-04-07 05:25:09,1679.5321582450335,0.0,0.0,0.198406006348992,1679.5321582450335,0.0,0.0,0.208759006680288,1166,0.0,99,P-GPS,
0.339529625983405,36.90187592174821,6100,2018-04-07 05:25:09,1679.5321582450335,0.0,0.0,0.20032900641052803,1679.5321582450335,0.0,0.0,0.208759006680288,1178,0.0,99,P-GPS,
0.33952966835958803,36.9018759696526,6200,2018-04-07 05:25:09,1679.6321582482337,0.10000000320000002,0.35999970196000003,0.206891006620512,1679.6321582482337,0.10000000320000002,0.35999970196000003,0.208759006680288,1186,0.0,99,P-GPS,
0.33952975,36.9018760755852,6300,2018-04-07 05:25:10,1679.6321582482337,0.10000000320000002,0.0,0.22105100707363198,1679.6321582482337,0.10000000320000002,0.35999970196000003,0.22105100707363198,1191,0.0,99,P-GPS,
0.339529827111708,36.9018762002994,6400,2018-04-07 05:25:10,1679.6321582482337,0.10000000320000002,0.0,0.23706200758598403,1679.6321582482337,0.10000000320000002,0.35999970196000003,0.23706200758598403,1191,0.0,99,P-GPS,
0.33952992954653494,36.9018763750272,6500,2018-04-07 05:25:10,1679.7321582514337,0.20000000640000004,0.35999970196000003,0.25932100829827204,1679.7321582514337,0.20000000640000004,0.35999970196000003,0.25932100829827204,1180,0.0,99,P-GPS,
0.339530009094396,36.9018765485259,6600,2018-04-07 05:25:10,1679.7321582514337,0.20000000640000004,0.35999970196000003,0.2805250089768,1679.7321582514337,0.20000000640000004,0.35999970196000003,0.2805250089768,1181,0.0,99,P-GPS,Home Point Recorded. RTH Altitude:  30m.
0.339530056742668,36.9018767437612,6700,2018-04-07 05:25:10,1679.8321582546334,0.3000000096,0.35999970196000003,0.302647009684704,1679.8321582546334,0.3000000096,0.35999970196000003,0.302647009684704,1189,0.0,99,P-GPS,
0.339530077483344,36.9018769323844,6800,2018-04-07 05:25:10,1679.8321582546334,0.3000000096,0.35999970196000003,0.323051010337632,1679.8321582546334,0.3000000096,0.35999970196000003,0.323051010337632,1211,0.0,99,P-GPS,
0.339530080870508,36.901877160012106,6900,2018-04-07 05:25:10,1679.9321582578336,0.4000000128000001,0.35999970196000003,0.346987011103584,1679.9321582578336,0.4000000128000001,0.35999970196000003,0.346987011103584,1224,0.0,99,P-GPS,
0.339530082423229,36.901877368862294,7000,2018-04-07 05:25:10,1679.9321582578336,0.4000000128000001,0.35999970196000003,0.3690580118098561,1679.9321582578336,0.4000000128000001,0.35999970196000003,0.3690580118098561,1222,0.0,99,P-GPS,
0.339530072419698,36.90187755585389,7100,2018-04-07 05:25:10,1680.0321582610336,0.500000016,0.35999970196000003,0.38856201243398397,1680.0321582610336,0.500000016,0.35999970196000003,0.38856201243398397,1211,0.0,99,P-GPS,
0.339530073492028,36.901877728810895,7200,2018-04-07 05:25:11,1680.1321582642336,0.6000000192,0.35999970196000003,0.40703601302515197,1680.1321582642336,0.6000000192,0.35999970196000003,0.40703601302515197,1203,0.0,99,P-GPS,
0.339530047392142,36.9018778288251,7300,2018-04-07 05:25:11,1680.1321582642336,0.6000000192,0.0,0.41695601334259197,1680.1321582642336,0.6000000192,0.35999970196000003,0.41695601334259197,1201,0.0,99,P-GPS,
0.339530057229572,36.901877933224604,7400,2018-04-07 05:25:11,1680.2321582674335,0.7000000224000001,0.0,0.42844601371027197,1680.2321582674335,0.7000000224000001,0.35999970196000003,0.42844601371027197,1186,0.0,99,P-GPS,
0.339530082204204,36.9018779822467,7500,2018-04-07 05:25:11,1680.3321582706337,0.8000000256000002,0.0,0.434434013901888,1680.3321582706337,0.8000000256000002,0.35999970196000003,0.434434013901888,1187,0.0,99,P-GPS,
0.33953012177702097,36.9018780472873,7600,2018-04-07 05:25:11,1680.4321582738337,0.9000000288000001,0.0,0.4425750141624001,1680.4321582738337,0.9000000288000001,0.35999970196000003,0.4425750141624001,1193,0.0,99,P-GPS,
0.339530316882525,36.9018782036284,7800,2018-04-07 05:25:11,1680.5321582770337,1.000000032,0.0,0.465417014893344,1680.5321582770337,1.000000032,0.35999970196000003,0.465417014893344,1213,0.0,99,P-GPS,
0.33953043686220696,36.9018783130672,7900,2018-04-07 05:25:11,1680.6321582802336,1.1000000352,0.0,0.48112501539600006,1680.6321582802336,1.1000000352,0.35999970196000003,0.48112501539600006,1219,0.0,99,P-GPS,
0.339530532759646,36.901878412519395,8000,2018-04-07 05:25:11,1680.7321582834338,1.2000000384,0.0,0.49505201584166403,1680.7321582834338,1.2000000384,0.35999970196000003,0.49505201584166403,1227,0.0,99,P-GPS,
0.339530600322159,36.901878513029295,8100,2018-04-07 05:25:11,1680.7321582834338,1.2000000384,0.0,0.5081000162592,1680.7321582834338,1.2000000384,0.35999970196000003,0.5081000162592,1228,0.0,99,P-GPS,
0.339530664384332,36.9018786020301,8200,2018-04-07 05:25:11,1680.8321582866336,1.3000000416000002,0.0,0.519833016634656,1680.8321582866336,1.3000000416000002,0.35999970196000003,0.519833016634656,1228,0.0,99,P-GPS,
0.3395307566283561,36.9018786943745,8300,2018-04-07 05:25:12,1680.9321582898335,1.4000000448000003,0.0,0.533038017057216,1680.9321582898335,1.4000000448000003,0.35999970196000003,0.533038017057216,1229,0.0,99,P-GPS,
0.33953085923579807,36.9018787725354,8400,2018-04-07 05:25:12,1681.0321582930335,1.5000000480000002,0.0,0.54526501744848,1681.0321582930335,1.5000000480000002,0.35999970196000003,0.54526501744848,1231,0.0,99,P-GPS,
0.33953095464796,36.9018788294854,8500,2018-04-07 05:25:12,1681.0321582930335,1.5000000480000002,0.0,0.5551060177633921,1681.0321582930335,1.5000000480000002,0.35999970196000003,0.5551060177633921,1231,0.0,99,P-GPS,
0.339531041062155,36.9018788828039,8600,2018-04-07 05:25:12,1681.1321582962337,1.6000000512000003,0.0,0.564283018057056,1681.1321582962337,1.6000000512000003,0.35999970196000003,0.564283018057056,1236,0.0,99,P-GPS,
0.3395310623198631,36.9018788739864,8700,2018-04-07 05:25:12,1681.2321582994336,1.7000000544000002,0.0,0.564311018057952,1681.2321582994336,1.7000000544000002,0.35999970196000003,0.564311018057952,1240,0.0,99,P-GPS,
0.33953109273594,36.9018788879343,8800,2018-04-07 05:25:12,1681.3321583026336,1.8000000576000001,0.0,0.567078018146496,1681.3321583026336,1.8000000576000001,0.35999970196000003,0.567078018146496,1244,0.0,99,P-GPS,
0.339531155528741,36.9018789030749,8900,2018-04-07 05:25:12,1681.4321583058336,1.9000000607999998,0.0,0.571439018286048,1681.4321583058336,1.9000000607999998,0.35999970196000003,0.571439018286048,1248,0.0,99,P-GPS,
0.339531208383147,36.9018789299664,9000,2018-04-07 05:25:12,1681.5321583090338,2.000000064,0.0,0.576584018450688,1681.5321583090338,2.000000064,0.35999970196000003,0.576584018450688,1267,0.0,99,P-GPS,
0.33953124908121995,36.9018789214893,9100,2018-04-07 05:25:12,1681.6321583122335,2.1000000672,0.0,0.577622018483904,1681.6321583122335,2.1000000672,0.35999970196000003,0.577622018483904,1297,0.0,99,P-GPS,
0.339531289083132,36.901878927801704,9200,2018-04-07 05:25:13,1681.7321583154335,2.2000000704,0.0,0.5801480185647361,1681.7321583154335,2.2000000704,0.35999970196000003,0.5801480185647361,1302,0.0,99,P-GPS,
0.33953137648905,36.901878946817796,9300,2018-04-07 05:25:13,1681.8321583186334,2.3000000736,0.0,0.586272018760704,1681.8321583186334,2.3000000736,0.35999970196000003,0.586272018760704,1297,0.0,99,P-GPS,
0.339531462524631,36.901878974951295,9400,2018-04-07 05:25:13,1681.9321583218336,2.4000000768,0.0,0.59333501898672,1681.9321583218336,2.4000000768,0.35999970196000003,0.59333501898672,1297,0.0,99,P-GPS,
0.339531522474169,36.9018789364115,9500,2018-04-07 05:25:13,1682.1321583282336,2.6000000832000003,0.0,0.592568018962176,1682.1321583282336,2.6000000832000003,0.35999970196000003,0.59333501898672,1302,0.0,99,P-GPS,
0.33953159383177006,36.9018789224122,9600,2018-04-07 05:25:13,1682.2321583314338,2.7000000863999998,0.0,0.594911019037152,1682.2321583314338,2.7000000863999998,0.35999970196000003,0.594911019037152,1302,0.0,99,P-GPS,
0.33953165541626495,36.901878887390396,9700,2018-04-07 05:25:13,1682.3321583346337,2.8000000896000006,0.0,0.5947830190330561,1682.3321583346337,2.8000000896000006,0.35999970196000003,0.594911019037152,1303,0.0,99,P-GPS,
0.33953171951100697,36.901878871461896,9800,2018-04-07 05:25:13,1682.5321583410334,3.0000000960000004,0.0,0.59674001909568,1682.5321583410334,3.0000000960000004,0.35999970196000003,0.59674001909568,1297,0.0,99,P-GPS,
0.339531808781493,36.901878801227795,9900,2018-04-07 05:25:13,1682.6321583442336,3.1000000992,0.0,0.595017019040544,1682.6321583442336,3.1000000992,0.35999970196000003,0.59674001909568,1296,-0.2,99,P-GPS,
0.33953188778382504,36.9018787582449,10000,2018-04-07 05:25:13,1682.8321583506336,3.3000001056,0.0,0.59552001905664,1682.8321583506336,3.3000001056,0.35999970196000003,0.59674001909568,1290,-0.6,99,P-GPS,
0.339531943643525,36.901878757786704,10100,2018-04-07 05:25:13,1682.9321583538335,3.4000001088000005,0.0,0.59878501916112,1682.9321583538335,3.4000001088000005,0.35999970196000003,0.59878501916112,1296,-1.1,99,P-GPS,
0.339531999208477,36.901878774242,10200,2018-04-07 05:25:13,1683.0321583570337,3.500000112,0.0,0.603657019317024,1683.0321583570337,3.500000112,0.35999970196000003,0.603657019317024,1299,-1.7,99,P-GPS,
0.33953207323672696,36.9018787937506,10300,2018-04-07 05:25:14,1683.2321583634337,3.7000001184,0.0,0.60997001951904,1683.2321583634337,3.7000001184,0.35999970196000003,0.60997001951904,1302,-2.4,99,P-GPS,
0.339532142128864,36.9018788186316,10400,2018-04-07 05:25:14,1683.3321583666334,3.8000001215999997,0.0,0.616513019728416,1683.3321583666334,3.8000001215999997,0.35999970196000003,0.616513019728416,1297,-3.1,99,P-GPS,
0.33953220176004106,36.9018787937892,10500,2018-04-07 05:25:14,1683.4321583698338,3.9000001248,0.0,0.617949019774368,1683.4321583698338,3.9000001248,0.35999970196000003,0.617949019774368,1296,-3.9,99,P-GPS,
0.339532269817601,36.901878794091104,10600,2018-04-07 05:25:14,1683.6321583762335,4.100000131200001,0.0,0.622291019913312,1683.6321583762335,4.100000131200001,0.35999970196000003,0.622291019913312,1297,-4.6,99,P-GPS,
0.33953233639246194,36.901878786733796,10700,2018-04-07 05:25:14,1683.7321583794335,4.2000001344,0.0,0.625907020029024,1683.7321583794335,4.2000001344,0.35999970196000003,0.625907020029024,1302,-5.4,99,P-GPS,
0.339532401193949,36.9018788067178,10800,2018-04-07 05:25:14,1683.9321583858336,4.4000001408,0.0,0.631929020221728,1683.9321583858336,4.4000001408,0.35999970196000003,0.631929020221728,1302,-6.3,99,P-GPS,
0.339532478291815,36.9018788132486,10900,2018-04-07 05:25:14,1684.0321583890336,4.5000001439999995,0.0,0.63759502040304,1684.0321583890336,4.5000001439999995,0.35999970196000003,0.63759502040304,1302,-7.2,99,P-GPS,
0.339532546693791,36.901878816985004,11000,2018-04-07 05:25:14,1684.1321583922338,4.6000001472,0.0,0.6424950205598401,1684.1321583922338,4.6000001472,0.35999970196000003,0.6424950205598401,1303,-8.1,99,P-GPS,
0.339532599964265,36.90187881879,11100,2018-04-07 05:25:14,1684.3321583986335,4.8000001536,0.0,0.6462490206799679,1684.3321583986335,4.8000001536,0.35999970196000003,0.6462490206799679,1301,-8.1,99,P-GPS,
0.33953264823623097,36.901878821314504,11200,2018-04-07 05:25:15,1684.4321584018335,4.9000001568,0.0,0.6497580207922561,1684.4321584018335,4.9000001568,0.35999970196000003,0.6497580207922561,1302,-9.1,99,P-GPS,
0.33953268604951503,36.9018788420629,11300,2018-04-07 05:25:15,1684.6321584082336,5.1000001632,0.0,0.65416502093328,1684.6321584082336,5.1000001632,0.35999970196000003,0.65416502093328,1303,-10.2,99,P-GPS,
0.33953272847292304,36.901878878211,11400,2018-04-07 05:25:15,1684.7321584114336,5.200000166400001,0.0,0.6602410211277121,1684.7321584114336,5.200000166400001,0.35999970196000003,0.6602410211277121,1303,-11.5,99,P-GPS,
0.339532774147521,36.9018788506985,11500,2018-04-07 05:25:15,1684.8321584146336,5.3000001696,0.0,0.6610040211521281,1684.8321584146336,5.3000001696,0.35999970196000003,0.6610040211521281,1303,-12.9,99,P-GPS,
0.339532822937331,36.901878851465,11600,2018-04-07 05:25:15,1685.0321584210337,5.500000176000001,0.0,0.664477021263264,1685.0321584210337,5.500000176000001,0.35999970196000003,0.664477021263264,1304,-14.3,99,P-GPS,
0.339532873288005,36.9018788296182,11700,2018-04-07 05:25:15,1685.1321584242337,5.600000179200001,0.0,0.6661460213166721,1685.1321584242337,5.600000179200001,0.35999970196000003,0.6661460213166721,1304,-15.6,99,P-GPS,
0.33953292707144,36.9018788332176,11800,2018-04-07 05:25:15,1685.3321584306336,5.8000001856,0.0,0.67028002144896,1685.3321584306336,5.8000001856,0.35999970196000003,0.67028002144896,1304,-17.0,99,P-GPS,
0.339532984684974,36.9018788652588,11900,2018-04-07 05:25:15,1685.4321584338336,5.9000001888,0.0,0.6771310216681921,1685.4321584338336,5.9000001888,0.35999970196000003,0.6771310216681921,1304,-18.4,99,P-GPS,
0.339533044133765,36.9018789210076,12000,2018-04-07 05:25:15,1685.6321584402335,6.1000001952,0.0,0.6861330219562561,1685.6321584402335,6.1000001952,0.35999970196000003,0.6861330219562561,1305,-19.8,99,P-GPS,
0.339533097786109,36.9018789542628,12100,2018-04-07 05:25:15,1685.7321584434337,6.2000001984,0.0,0.6928150221700802,1685.7321584434337,6.2000001984,0.35999970196000003,0.6928150221700802,1302,-21.2,99,P-GPS,
0.339533147702803,36.9018790055729,12200,2018-04-07 05:25:16,1685.8321584466337,6.300000201600001,0.0,0.7007580224242561,1685.8321584466337,6.300000201600001,0.35999970196000003,0.7007580224242561,1303,-22.8,99,P-GPS,
0.339533225933253,36.901879013846504,12300,2018-04-07 05:25:16,1686.0321584530334,6.500000208,0.0,0.707132022628224,1686.0321584530334,6.500000208,0.35999970196000003,0.707132022628224,1301,-24.3,99,P-GPS,
0.339533291122308,36.9018790473095,12400,2018-04-07 05:25:16,1686.1321584562336,6.6000002112,0.0,0.714701022870432,1686.1321584562336,6.6000002112,0.35999970196000003,0.714701022870432,1301,-25.8,99,P-GPS,
0.33953334641938104,36.9018790388496,12500,2018-04-07 05:25:16,1686.3321584626335,6.800000217600001,0.0,0.718064022978048,1686.3321584626335,6.800000217600001,0.35999970196000003,0.718064022978048,1295,-27.3,99,P-GPS,
0.33953339879014,36.9018790633944,12600,2018-04-07 05:25:16,1686.4321584658337,6.9000002208,0.0,0.7239780231672961,1686.4321584658337,6.9000002208,0.35999970196000003,0.7239780231672961,1287,-27.3,99,P-GPS,
0.339533452538563,36.9018790854254,12700,2018-04-07 05:25:16,1686.6321584722336,7.100000227200002,0.0,0.72979502335344,1686.6321584722336,7.100000227200002,0.35999970196000003,0.72979502335344,1287,-28.4,99,P-GPS,
0.33953350697744505,36.9018791278451,12800,2018-04-07 05:25:16,1686.7321584754336,7.200000230400001,0.0,0.737354023595328,1686.7321584754336,7.200000230400001,0.35999970196000003,0.737354023595328,1280,-28.4,99,P-GPS,
0.33953355762286797,36.9018791591775,12900,2018-04-07 05:25:16,1686.8321584786338,7.3000002336000005,0.0,0.7437190237990081,1686.8321584786338,7.3000002336000005,0.35999970196000003,0.7437190237990081,1263,-28.4,99,P-GPS,
0.33953360753467704,36.901879199835,13000,2018-04-07 05:25:16,1687.0321584850335,7.50000024,0.0,0.7508000240256,1687.0321584850335,7.50000024,0.35999970196000003,0.7508000240256,1255,-28.4,99,P-GPS,
0.339533655754532,36.901879229874204,13100,2018-04-07 05:25:16,1687.1321584882335,7.600000243199999,0.0,0.7568840242202879,1687.1321584882335,7.600000243199999,0.35999970196000003,0.7568840242202879,1242,-28.4,99,P-GPS,
0.33953370084207496,36.9018792713795,13200,2018-04-07 05:25:17,1687.2321584914337,7.7000002464,0.0,0.7636750244375999,1687.2321584914337,7.7000002464,0.35999970196000003,0.7636750244375999,1240,-28.4,99,P-GPS,
0.33953370375699,36.9018792618918,13300,2018-04-07 05:25:17,1687.3321584946336,7.8000002496,0.0,0.7631170244197439,1687.3321584946336,7.8000002496,0.35999970196000003,0.7636750244375999,1244,-28.4,99,P-GPS,
0.33953371896258505,36.9018792714202,13400,2018-04-07 05:25:17,1687.4321584978336,7.9000002528,0.0,0.7650420244813441,1687.4321584978336,7.9000002528,0.35999970196000003,0.7650420244813441,1281,-28.4,99,P-GPS,
0.33953374025042,36.9018792817088,13500,2018-04-07 05:25:17,1687.5321585010336,8.000000256,0.0,0.7674880245596161,1687.5321585010336,8.000000256,0.35999970196000003,0.7674880245596161,1296,-28.4,99,P-GPS,
0.33953376094957105,36.90187928359521,13600,2018-04-07 05:25:17,1687.6321585042338,8.1000002592,0.0,0.7692060246145921,1687.6321585042338,8.1000002592,0.35999970196000003,0.7692060246145921,1307,-28.4,99,P-GPS,
0.33953378563271097,36.901879281182104,13700,2018-04-07 05:25:17,1687.8321585106335,8.3000002656,0.0,0.7708790246681281,1687.8321585106335,8.3000002656,0.35999970196000003,0.7708790246681281,1336,-28.4,99,P-GPS,
0.33953380800508903,36.9018792773792,13800,2018-04-07 05:25:17,1687.9321585138334,8.4000002688,0.0,0.7722700247126401,1687.9321585138334,8.4000002688,0.35999970196000003,0.7722700247126401,1357,-28.4,99,P-GPS,
0.33953384999288894,36.9018792444923,13900,2018-04-07 05:25:17,1688.0321585170336,8.500000272000001,0.0,0.77282002473024,1688.0321585170336,8.500000272000001,0.35999970196000003,0.77282002473024,1370,-28.4,99,P-GPS,
0.33953388666463397,36.901879227992,14000,2018-04-07 05:25:17,1688.2321585234336,8.700000278400001,0.0,0.7743160247781121,1688.2321585234336,8.700000278400001,0.35999970196000003,0.7743160247781121,1364,-28.4,99,P-GPS,
0.3395338991629411,36.9018791622609,14100,2018-04-07 05:25:17,1688.4321585298337,8.9000002848,0.0,0.770039024641248,1688.4321585298337,8.9000002848,0.35999970196000003,0.7743160247781121,1368,-28.4,99,P-GPS,
0.33953391323351195,36.9018791214086,14200,2018-04-07 05:25:17,1688.5321585330337,9.000000287999999,0.0,0.767898024572736,1688.5321585330337,9.000000287999999,0.35999970196000003,0.7743160247781121,1386,-28.4,99,P-GPS,
0.33953394945173504,36.901879042618106,14300,2018-04-07 05:25:18,1688.7321585394338,9.2000002944,0.0,0.7645560244657921,1688.7321585394338,9.2000002944,0.35999970196000003,0.7743160247781121,1405,-28.4,99,P-GPS,
0.33953397493036896,36.901878992582105,14400,2018-04-07 05:25:18,1688.9321585458335,9.400000300800002,0.0,0.7626860244059521,1688.9321585458335,9.400000300800002,0.35999970196000003,0.7743160247781121,1418,-28.4,99,P-GPS,
0.33953401433871394,36.9018789551043,14500,2018-04-07 05:25:18,1689.1321585522337,9.6000003072,0.0,0.7629480244143361,1689.1321585522337,9.6000003072,0.35999970196000003,0.7743160247781121,1432,-28.4,99,P-GPS,
0.339534036171263,36.9018789355015,14600,2018-04-07 05:25:18,1689.3321585586336,9.8000003136,0.0,0.7632030244224961,1689.3321585586336,9.8000003136,0.35999970196000003,0.7743160247781121,1443,-28.4,99,P-GPS,
0.339534082019289,36.901878891266,14700,2018-04-07 05:25:18,1689.6321585682338,10.100000323200002,0.0,0.7635500244336,1689.6321585682338,10.100000323200002,0.35999970196000003,0.7743160247781121,1461,-28.4,99,P-GPS,
0.339534131000442,36.9018788423413,14800,2018-04-07 05:25:18,1689.8321585746335,10.300000329600001,0.0,0.7638680244437761,1689.8321585746335,10.300000329600001,0.35999970196000003,0.7743160247781121,1465,-28.4,99,P-GPS,
0.339534162732302,36.90187881043929,14900,2018-04-07 05:25:18,1690.0321585810336,10.500000336,0.0,0.7641000244512001,1690.0321585810336,10.500000336,0.35999970196000003,0.7743160247781121,1482,-28.4,99,P-GPS,
0.33953419441042304,36.901878800159295,15000,2018-04-07 05:25:18,1690.3321585906338,10.800000345599999,0.0,0.76596002451072,1690.3321585906338,10.800000345599999,0.35999970196000003,0.7743160247781121,1501,-28.4,99,P-GPS,
0.339534213714812,36.901878803538104,15100,2018-04-07 05:25:18,1690.6321586002334,11.1000003552,0.0,0.767812024569984,1690.6321586002334,11.1000003552,0.35999970196000003,0.7743160247781121,1545,-28.4,99,P-GPS,
0.339534247352766,36.9018788272821,15200,2018-04-07 05:25:19,1690.9321586098336,11.4000003648,0.0,0.772362024715584,1690.9321586098336,11.4000003648,0.35999970196000003,0.7743160247781121,1542,-28.4,99,P-GPS,
0.339534309518615,36.9018788380546,15300,2018-04-07 05:25:19,1691.2321586194337,11.700000374400002,0.0,0.778334024906688,1691.2321586194337,11.700000374400002,0.35999970196000003,0.778334024906688,1520,-28.4,99,P-GPS,
0.339534384462865,36.9018788497906,15400,2018-04-07 05:25:19,1691.5321586290336,12.000000384000002,0.0,0.7854640251348479,1691.5321586290336,12.000000384000002,0.35999970196000003,0.7854640251348479,1504,-28.4,99,P-GPS,
0.339534471277657,36.9018788665649,15500,2018-04-07 05:25:19,1691.9321586418337,12.4000003968,0.0,0.793986025407552,1691.9321586418337,12.4000003968,0.35999970196000003,0.793986025407552,1492,-28.4,99,P-GPS,
0.339534554854288,36.901878887339,15600,2018-04-07 05:25:19,1692.2321586514338,12.700000406400001,0.0,0.8025520256816641,1692.2321586514338,12.700000406400001,0.35999970196000003,0.8025520256816641,1484,-28.4,99,P-GPS,
0.33953462235736304,36.9018789461498,15700,2018-04-07 05:25:19,1692.6321586642337,13.100000419199999,0.0,0.8125080260002561,1692.6321586642337,13.100000419199999,0.35999970196000003,0.8125080260002561,1482,-28.4,99,P-GPS,
0.339534686847816,36.901878992256606,15800,2018-04-07 05:25:19,1692.9321586738336,13.4000004288,0.0,0.8212930262813759,1692.9321586738336,13.4000004288,0.35999970196000003,0.8212930262813759,1486,-28.4,99,P-GPS,
0.3395347518528581,36.9018790323595,15900,2018-04-07 05:25:19,1693.2321586834335,13.7000004384,0.0,0.8296910265501121,1693.2321586834335,13.7000004384,0.35999970196000003,0.8296910265501121,1465,-28.4,99,P-GPS,
0.33953491915430895,36.9018791112228,16100,2018-04-07 05:25:19,1693.9321587058337,14.400000460800001,0.0,0.8495750271864001,1693.9321587058337,14.400000460800001,0.35999970196000003,0.8495750271864001,1466,-28.4,99,P-GPS,
0.339535114939688,36.9018792427215,16300,2018-04-07 05:25:20,1694.5321587250337,15.00000048,0.0,0.8756630280212162,1694.5321587250337,15.00000048,0.35999970196000003,0.8756630280212162,1464,-28.4,99,P-GPS,
0.339535209345472,36.901879337363404,16400,2018-04-07 05:25:20,1694.8321587346336,15.3000004896,0.0,0.8904650284948801,1694.8321587346336,15.3000004896,0.35999970196000003,0.8904650284948801,1449,-28.4,99,P-GPS,
0.339535311496135,36.9018793846736,16500,2018-04-07 05:25:20,1695.1321587442335,15.6000004992,0.0,0.9025660288821121,1695.1321587442335,15.6000004992,0.35999970196000003,0.9025660288821121,1468,-28.4,99,P-GPS,
0.33953540739357396,36.901879447100896,16600,2018-04-07 05:25:20,1695.4321587538336,15.900000508800002,0.0,0.91521002928672,1695.4321587538336,15.900000508800002,0.35999970196000003,0.91521002928672,1489,-28.4,99,P-GPS,
0.339535466639623,36.9018794689905,16700,2018-04-07 05:25:20,1695.7321587634337,16.2000005184,0.0,0.9218450294990401,1695.7321587634337,16.2000005184,0.35999970196000003,0.9218450294990401,1497,-28.4,99,P-GPS,
0.339535524651312,36.901879499096104,16800,2018-04-07 05:25:20,1696.0321587730336,16.500000528,0.0,0.9289580297266561,1696.0321587730336,16.500000528,0.35999970196000003,0.9289580297266561,1507,-28.4,99,P-GPS,
0.33953558845863296,36.9018794455763,16900,2018-04-07 05:25:20,1696.4321587858337,16.900000540799997,0.0,0.9307300297833601,1696.4321587858337,16.900000540799997,0.35999970196000003,0.9307300297833601,1515,-28.4,99,P-GPS,
0.339535644635066,36.901879408955004,17000,2018-04-07 05:25:20,1696.7321587954334,17.2000005504,0.0,0.9330860298587521,1696.7321587954334,17.2000005504,0.35999970196000003,0.9330860298587521,1516,-28.4,99,P-GPS,
0.339535677624084,36.9018793757876,17100,2018-04-07 05:25:20,1697.0321588050335,17.50000056,0.0,0.933697029878304,1697.0321588050335,17.50000056,0.35999970196000003,0.933697029878304,1506,-28.4,99,P-GPS,
0.33953571029881296,36.90187936932529,17200,2018-04-07 05:25:21,1697.3321588146337,17.8000005696,0.0,0.9361240299559681,1697.3321588146337,17.8000005696,0.35999970196000003,0.9361240299559681,1508,-28.4,99,P-GPS,
0.339535734606597,36.9018793105896,17300,2018-04-07 05:25:21,1697.7321588274335,18.2000005824,0.0,0.93428502989712,1697.7321588274335,18.2000005824,0.35999970196000003,0.9361240299559681,1521,-28.4,99,P-GPS,
0.339535758948578,36.9018792888091,17400,2018-04-07 05:25:21,1698.0321588370336,18.500000592000003,0.0,0.934973029919136,1698.0321588370336,18.500000592000003,0.35999970196000003,0.9361240299559681,1525,-28.4,99,P-GPS,
0.339535786632126,36.9018792209003,17500,2018-04-07 05:25:21,1698.4321588498337,18.900000604800002,0.0,0.9329020298528641,1698.4321588498337,18.900000604800002,0.35999970196000003,0.9361240299559681,1531,-28.4,99,P-GPS,
0.339535810275504,36.901879183835796,17600,2018-04-07 05:25:21,1698.7321588594336,19.2000006144,0.0,0.932563029842016,1698.7321588594336,19.2000006144,0.35999970196000003,0.9361240299559681,1542,-28.4,99,P-GPS,
0.33953584709299395,36.901879186420295,17700,2018-04-07 05:25:21,1699.1321588722337,19.6000006272,0.0,0.9360330299530562,1699.1321588722337,19.6000006272,0.35999970196000003,0.9361240299559681,1543,-28.4,99,P-GPS,
0.339535873071561,36.9018791977623,17800,2018-04-07 05:25:21,1699.4321588818334,19.900000636800005,0.0,0.9391090300514879,1699.4321588818334,19.900000636800005,0.35999970196000003,0.9391090300514879,1554,-28.4,99,P-GPS,
0.339535953293598,36.901879239147796,17900,2018-04-07 05:25:21,1699.8321588946337,20.3000006496,0.0,0.949028030368896,1699.8321588946337,20.3000006496,0.35999970196000003,0.949028030368896,1569,-28.4,99,P-GPS,
0.339536004273666,36.9018792741674,18000,2018-04-07 05:25:21,1700.1321589042336,20.600000659200003,0.0,0.955904030588928,1700.1321589042336,20.600000659200003,0.35999970196000003,0.955904030588928,1569,-28.4,99,P-GPS,
0.33953605943557796,36.9018793237217,18100,2018-04-07 05:25:21,1700.5321589170335,21.000000672,0.0,0.964107030851424,1700.5321589170335,21.000000672,0.35999970196000003,0.964107030851424,1580,-28.4,99,P-GPS,
0.33953608772327803,36.9018793625998,18200,2018-04-07 05:25:21,1700.9321589298336,21.400000684800002,0.0,0.9691980310143361,1700.9321589298336,21.400000684800002,0.35999970196000003,0.9691980310143361,1566,-28.4,99,P-GPS,
0.33953608624628,36.9018792998963,18300,2018-04-07 05:25:22,1701.3321589426334,21.8000006976,0.0,0.9649610308787522,1701.3321589426334,21.8000006976,0.35999970196000003,0.9691980310143361,1566,-28.4,99,P-GPS,
0.33953607049759804,36.9018792602409,18400,2018-04-07 05:25:22,1701.7321589554335,22.2000007104,0.0,0.9609610307507521,1701.7321589554335,22.2000007104,0.35999970196000003,0.9691980310143361,1556,-28.4,99,P-GPS,
0.339536049331083,36.9018791318234,18500,2018-04-07 05:25:22,1702.1321589682339,22.6000007232,0.0,0.9507630304244161,1702.1321589682339,22.6000007232,0.35999970196000003,0.9691980310143361,1551,-28.4,99,P-GPS,
0.33953602976532804,36.9018790516069,18600,2018-04-07 05:25:22,1702.5321589810337,23.000000735999997,0.0,0.9438710302038721,1702.5321589810337,23.000000735999997,0.35999970196000003,0.9691980310143361,1554,-28.4,99,P-GPS,
0.339535985939015,36.901878860166995,18700,2018-04-07 05:25:22,1702.9321589938338,23.400000748800004,0.0,0.9278460296910721,1702.9321589938338,23.400000748800004,0.35999970196000003,0.9691980310143361,1571,-28.4,99,P-GPS,
0.33953593771915996,36.9018786618172,18800,2018-04-07 05:25:22,1703.3321590066337,23.800000761600003,0.0,0.91123502915952,1703.3321590066337,23.800000761600003,0.35999970196000003,0.9691980310143361,1586,-28.4,99,P-GPS,
0.33953588817538,36.9018784989251,18900,2018-04-07 05:25:22,1703.7321590194338,24.2000007744,0.0,0.8968560286993923,1703.7321590194338,24.2000007744,0.35999970196000003,0.9691980310143361,1587,-28.4,99,P-GPS,
0.33953584180380797,36.9018783635443,19000,2018-04-07 05:25:22,1704.1321590322336,24.600000787200003,0.0,0.884544028305408,1704.1321590322336,24.600000787200003,0.35999970196000003,0.9691980310143361,1583,-28.4,99,P-GPS,
0.33953578052057504,36.901878173998206,19100,2018-04-07 05:25:22,1704.5321590450337,25.000000800000002,0.0,0.8678500277711999,1704.5321590450337,25.000000800000002,0.35999970196000003,0.9691980310143361,1577,-28.4,99,P-GPS,
0.33953572384421005,36.901878056285796,19200,2018-04-07 05:25:23,1704.9321590578336,25.400000812800002,0.0,0.8558130273860161,1704.9321590578336,25.400000812800002,0.35999970196000003,0.9691980310143361,1578,-28.5,99,P-GPS,
0.339535650792213,36.9018779284604,19300,2018-04-07 05:25:23,1705.3321590706337,25.800000825599998,0.0,0.841716026934912,1705.3321590706337,25.800000825599998,0.35999970196000003,0.9691980310143361,1570,-28.7,99,P-GPS,
0.33953551371142604,36.901877666505705,19500,2018-04-07 05:25:23,1706.1321590962336,26.6000008512,0.0,0.814332026058624,1706.1321590962336,26.6000008512,0.35999970196000003,0.9691980310143361,1567,-28.8,99,P-GPS,
0.33953545825313697,36.9018775434295,19600,2018-04-07 05:25:23,1706.5321591090335,27.000000864000004,0.0,0.8024900256796801,1706.5321591090335,27.000000864000004,0.35999970196000003,0.9691980310143361,1566,-29.0,99,P-GPS,
0.339535410795393,36.901877377633795,19700,2018-04-07 05:25:23,1706.9321591218336,27.4000008768,0.0,0.7894210252614721,1706.9321591218336,27.4000008768,0.35999970196000003,0.9691980310143361,1560,-29.1,99,P-GPS,
0.33953536838745507,36.9018772645057,19800,2018-04-07 05:25:23,1707.3321591346337,27.8000008896,0.0,0.7796450249486401,1707.3321591346337,27.8000008896,0.35999970196000003,0.9691980310143361,1561,-29.2,99,P-GPS,
0.33953532639802597,36.9018771013234,19900,2018-04-07 05:25:23,1707.7321591474335,28.200000902400003,0.0,0.7676750245656,1707.7321591474335,28.200000902400003,0.35999970196000003,0.9691980310143361,1561,-29.2,99,P-GPS,
0.339535291130815,36.901877002914,20000,2018-04-07 05:25:23,1708.1321591602336,28.600000915200003,0.0,0.759579024306528,1708.1321591602336,28.600000915200003,0.35999970196000003,0.9691980310143361,1554,-29.3,99,P-GPS,
0.339535251067835,36.9018769407266,20100,2018-04-07 05:25:23,1708.5321591730335,29.000000928,0.0,0.7527010240864321,1708.5321591730335,29.000000928,0.35999970196000003,0.9691980310143361,1552,-29.5,99,P-GPS,
0.3395352196632931,36.9018769139646,20200,2018-04-07 05:25:23,1708.9321591858336,29.4000009408,0.0,0.7483060239457922,1708.9321591858336,29.4000009408,0.35999970196000003,0.9691980310143361,1550,-29.7,99,P-GPS,
0.33953518218791096,36.9018768542171,20300,2018-04-07 05:25:24,1709.3321591986335,29.8000009536,0.0,0.74183502373872,1709.3321591986335,29.8000009536,0.35999970196000003,0.9691980310143361,1546,-30.0,99,P-GPS,
0.33953515710824494,36.901876840366604,20400,2018-04-07 05:25:24,1709.7321592114336,30.200000966400005,0.0,0.738664023637248,1709.7321592114336,30.200000966400005,0.35999970196000003,0.9691980310143361,1547,-30.3,99,P-GPS,
0.3395351610832769,36.9018768145146,20500,2018-04-07 05:25:24,1710.0321592210337,30.500000976,0.0,0.7379380236140161,1710.0321592210337,30.500000976,0.35999970196000003,0.9691980310143361,1547,-30.6,99,P-GPS,
0.33953516360003705,36.9018768279636,20600,2018-04-07 05:25:24,1710.4321592338335,30.900000988800006,0.0,0.7387830236410561,1710.4321592338335,30.900000988800006,0.35999970196000003,0.9691980310143361,1547,-30.9,99,P-GPS,
0.33953513930365303,36.901876832291,20700,2018-04-07 05:25:24,1710.8321592466336,31.300001001600002,0.0,0.7364910235677121,1710.8321592466336,31.300001001600002,0.35999970196000003,0.9691980310143361,1546,-31.3,99,P-GPS,
0.3395351209698161,36.9018768531122,20800,2018-04-07 05:25:24,1711.1321592562335,31.6000010112,0.0,0.7355400235372801,1711.1321592562335,31.6000010112,0.35999970196000003,0.9691980310143361,1541,-31.8,99,P-GPS,
0.33953510058821096,36.901876839778794,20900,2018-04-07 05:25:24,1711.5321592690336,32.000001024,0.0,0.73287002345184,1711.5321592690336,32.000001024,0.35999970196000003,0.9691980310143361,1536,-32.4,99,P-GPS,
0.339535079007257,36.9018768531978,21000,2018-04-07 05:25:24,1711.8321592786338,32.300001033600005,0.0,0.7312670234005441,1711.8321592786338,32.300001033600005,0.35999970196000003,0.9691980310143361,1544,-32.9,99,P-GPS,
0.33953503201362,36.901876805304106,21100,2018-04-07 05:25:24,1712.2321592914336,32.700001046400004,0.0,0.7243480231791359,1712.2321592914336,32.700001046400004,0.35999970196000003,0.9691980310143361,1552,-33.4,99,P-GPS,
0.339535006626992,36.9018767958249,21200,2018-04-07 05:25:25,1712.5321593010337,33.000001056,0.0,0.7213390230828479,1712.5321593010337,33.000001056,0.35999970196000003,0.9691980310143361,1567,-33.4,99,P-GPS,
0.3395350115685061,36.9018768051885,21300,2018-04-07 05:25:25,1712.9321593138336,33.4000010688,0.0,0.7222580231122562,1712.9321593138336,33.4000010688,0.35999970196000003,0.9691980310143361,1566,-33.4,99,P-GPS,
0.33953501998267605,36.9018768142234,21400,2018-04-07 05:25:25,1713.3321593266337,33.800001081599994,0.0,0.7235170231525441,1713.3321593266337,33.800001081599994,0.35999970196000003,0.9691980310143361,1568,-33.4,99,P-GPS,
0.339535024870451,36.9018768284561,21500,2018-04-07 05:25:25,1713.6321593362338,34.1000010912,0.0,0.724649023188768,1713.6321593362338,34.1000010912,0.35999970196000003,0.9691980310143361,1581,-33.4,99,P-GPS,
0.33953501489786,36.9018768509089,21600,2018-04-07 05:25:25,1714.0321593490337,34.500001104,0.0,0.7246410231885121,1714.0321593490337,34.500001104,0.35999970196000003,0.9691980310143361,1583,-33.4,99,P-GPS,
0.33953502902542504,36.901876846928396,21700,2018-04-07 05:25:25,1714.4321593618338,34.9000011168,0.0,0.725899023228768,1714.4321593618338,34.9000011168,0.35999970196000003,0.9691980310143361,1587,-33.4,99,P-GPS,
0.339535030478812,36.901876876808,21800,2018-04-07 05:25:25,1714.8321593746336,35.300001129600005,0.0,0.727394023276608,1714.8321593746336,35.300001129600005,0.35999970196000003,0.9691980310143361,1584,-33.4,99,P-GPS,
0.339535031001542,36.901876841267,21900,2018-04-07 05:25:25,1715.2321593874337,35.7000011424,0.0,0.7258460232270721,1715.2321593874337,35.7000011424,0.35999970196000003,0.9691980310143361,1586,-33.4,99,P-GPS,
0.339535021156784,36.901876842385796,22000,2018-04-07 05:25:25,1715.6321594002336,36.1000011552,0.0,0.724894023196608,1715.6321594002336,36.1000011552,0.35999970196000003,0.9691980310143361,1591,-33.4,99,P-GPS,
0.339535022948887,36.9018768144182,22100,2018-04-07 05:25:25,1716.0321594130337,36.500001168000004,0.0,0.7238280231624962,1716.0321594130337,36.500001168000004,0.35999970196000003,0.9691980310143361,1609,-33.4,99,P-GPS,
0.339535027175513,36.901876814678396,22200,2018-04-07 05:25:25,1716.4321594258336,36.900001180800004,0.0,0.7242700231766401,1716.4321594258336,36.900001180800004,0.35999970196000003,0.9691980310143361,1619,-33.4,99,P-GPS,
0.33953505427770597,36.9018768204126,22300,2018-04-07 05:25:26,1716.8321594386337,37.3000011936,0.0,0.7272880232732161,1716.8321594386337,37.3000011936,0.35999970196000003,0.9691980310143361,1619,-33.4,99,P-GPS,
0.33953507246823994,36.9018768430292,22400,2018-04-07 05:25:26,1717.2321594514335,37.700001206399996,0.0,0.730148023364736,1717.2321594514335,37.700001206399996,0.35999970196000003,0.9691980310143361,1628,-33.4,99,P-GPS,
0.33953510239741197,36.901876791087496,22500,2018-04-07 05:25:26,1717.6321594642336,38.1000012192,0.0,0.730913023389216,1717.6321594642336,38.1000012192,0.35999970196000003,0.9691980310143361,1634,-33.4,99,P-GPS,
0.33953513374984495,36.9018767807336,22600,2018-04-07 05:25:26,1718.1321594802334,38.600001235200004,0.0,0.733673023477536,1718.1321594802334,38.600001235200004,0.35999970196000003,0.9691980310143361,1634,-33.4,99,P-GPS,
0.339535198153176,36.901876758633,22700,2018-04-07 05:25:26,1718.5321594930335,39.000001248000004,0.0,0.73933002365856,1718.5321594930335,39.000001248000004,0.35999970196000003,0.9691980310143361,1643,-33.4,99,P-GPS,
0.339535240139348,36.9018767750369,22800,2018-04-07 05:25:26,1719.0321595090338,39.500001264000005,0.0,0.744342023818944,1719.0321595090338,39.500001264000005,0.35999970196000003,0.9691980310143361,1647,-33.4,99,P-GPS,
0.3395352885285611,36.90187673192779,22900,2018-04-07 05:25:26,1719.4321595218337,39.900001276800005,0.0,0.7475060239201922,1719.4321595218337,39.900001276800005,0.35999970196000003,0.9691980310143361,1650,-33.4,99,P-GPS,
0.33953530027615597,36.901876726839106,23000,2018-04-07 05:25:26,1719.9321595378335,40.400001292800006,0.0,0.7485060239521921,1719.9321595378335,40.400001292800006,0.35999970196000003,0.9691980310143361,1644,-33.4,99,P-GPS,
0.3395353155135071,36.901876699752705,23100,2018-04-07 05:25:26,1720.4321595538336,40.90000130880001,0.0,0.748961023966752,1720.4321595538336,40.90000130880001,0.35999970196000003,0.9691980310143361,1644,-33.4,99,P-GPS,
0.33953531016569705,36.901876711698606,23200,2018-04-07 05:25:27,1720.9321595698336,41.4000013248,0.0,0.7489000239647999,1720.9321595698336,41.4000013248,0.35999970196000003,0.9691980310143361,1651,-33.4,99,P-GPS,
0.33953529815429395,36.901876706883996,23300,2018-04-07 05:25:27,1721.3321595826337,41.80000133760001,0.35999970196000003,0.7474610239187521,1721.3321595826337,41.80000133760001,0.35999970196000003,0.9691980310143361,1654,-33.4,99,P-GPS,
0.33953527560360103,36.9018767315455,23400,2018-04-07 05:25:27,1721.8321595986336,42.30000135360001,0.0,0.7461580238770561,1721.8321595986336,42.30000135360001,0.35999970196000003,0.9691980310143361,1649,-33.4,99,P-GPS,
0.33953526887161406,36.9018767236969,23500,2018-04-07 05:25:27,1722.3321596146336,42.800001369600004,0.0,0.745137023844384,1722.3321596146336,42.800001369600004,0.35999970196000003,0.9691980310143361,1648,-33.4,99,P-GPS,
0.339535253779195,36.901876745376796,23600,2018-04-07 05:25:27,1722.7321596274335,43.200001382399996,0.0,0.74449002382368,1722.7321596274335,43.200001382399996,0.35999970196000003,0.9691980310143361,1649,-33.4,99,P-GPS,
0.339535228881915,36.901876723125206,23700,2018-04-07 05:25:27,1723.2321596434338,43.700001398400005,0.0,0.7409920237117439,1723.2321596434338,43.700001398400005,0.35999970196000003,0.9691980310143361,1647,-33.4,99,P-GPS,
0.339535207800079,36.90187673463,23800,2018-04-07 05:25:27,1723.7321596594336,44.2000014144,0.0,0.7393050236577601,1723.7321596594336,44.2000014144,0.35999970196000003,0.9691980310143361,1642,-33.4,99,P-GPS,
0.33953518107242703,36.901876685884,23900,2018-04-07 05:25:27,1724.2321596754336,44.7000014304,0.0,0.734509023504288,1724.2321596754336,44.7000014304,0.35999970196000003,0.9691980310143361,1634,-33.4,99,P-GPS,
0.339535167570998,36.9018766745913,24000,2018-04-07 05:25:27,1724.6321596882335,45.10000144320001,0.0,0.732647023444704,1724.6321596882335,45.10000144320001,0.35999970196000003,0.9691980310143361,1633,-33.4,99,P-GPS,
0.33953517839526504,36.9018766172291,24100,2018-04-07 05:25:27,1725.1321597042338,45.6000014592,0.0,0.731407023405024,1725.1321597042338,45.6000014592,0.35999970196000003,0.9691980310143361,1634,-33.4,99,P-GPS,
0.339535191048275,36.901876593329796,24200,2018-04-07 05:25:27,1725.6321597202336,46.1000014752,0.0,0.731751023416032,1725.6321597202336,46.1000014752,0.35999970196000003,0.9691980310143361,1641,-33.4,99,P-GPS,
0.339535210799672,36.9018765043044,24300,2018-04-07 05:25:28,1726.0321597330337,46.50000148800001,0.0,0.730286023369152,1726.0321597330337,46.50000148800001,0.35999970196000003,0.9691980310143361,1647,-33.4,99,P-GPS,
0.339535217671706,36.9018764520051,24400,2018-04-07 05:25:28,1726.5321597490336,47.000001504000004,0.0,0.72899502332784,1726.5321597490336,47.000001504000004,0.35999970196000003,0.9691980310143361,1659,-33.4,99,P-GPS,
0.339535204077456,36.901876390522105,24500,2018-04-07 05:25:28,1726.9321597618336,47.400001516799996,0.0,0.7252630232084162,1726.9321597618336,47.400001516799996,0.35999970196000003,0.9691980310143361,1659,-33.4,99,P-GPS,
0.339535180004168,36.9018763621071,24600,2018-04-07 05:25:28,1727.4321597778337,47.900001532800005,0.0,0.721687023093984,1727.4321597778337,47.900001532800005,0.35999970196000003,0.9691980310143361,1671,-33.4,99,P-GPS,
0.339535108074982,36.9018763001948,24700,2018-04-07 05:25:28,1727.8321597906338,48.300001545600004,0.0,0.711869022779808,1727.8321597906338,48.300001545600004,0.35999970196000003,0.9691980310143361,1684,-33.4,99,P-GPS,
0.33953504607767704,36.901876291985296,24800,2018-04-07 05:25:28,1728.3321598066336,48.8000015616,0.0,0.705056022561792,1728.3321598066336,48.8000015616,0.35999970196000003,0.9691980310143361,1684,-33.4,99,P-GPS,
0.339534978505393,36.9018762367344,24900,2018-04-07 05:25:28,1728.8321598226335,49.30000157760001,0.35999970196000003,0.6959500222704001,1728.8321598226335,49.30000157760001,0.35999970196000003,0.9691980310143361,1684,-33.4,99,P-GPS,
0.33953493421415903,36.901876239796294,25000,2018-04-07 05:25:28,1729.3321598386337,49.8000015936,0.35999970196000003,0.691402022124864,1729.3321598386337,49.8000015936,0.35999970196000003,0.9691980310143361,1684,-33.4,99,P-GPS,
0.339534893235994,36.90187620154129,25100,2018-04-07 05:25:28,1729.8321598546336,50.3000016096,0.35999970196000003,0.6857110219427521,1729.8321598546336,50.3000016096,0.35999970196000003,0.9691980310143361,1684,-33.4,99,P-GPS,
0.339534874717329,36.9018762072305,25200,2018-04-07 05:25:29,1730.4321598738336,50.9000016288,0.35999970196000003,0.683967021886944,1730.4321598738336,50.9000016288,0.35999970196000003,0.9691980310143361,1682,-33.4,99,P-GPS,
0.339534849664533,36.901876175241796,25300,2018-04-07 05:25:29,1730.9321598898337,51.4000016448,0.35999970196000003,0.680183021765856,1730.9321598898337,51.4000016448,0.35999970196000003,0.9691980310143361,1674,-33.4,99,P-GPS,
0.33953482658948103,36.9018761857252,25400,2018-04-07 05:25:29,1731.4321599058337,51.90000166080001,0.35999970196000003,0.678129021700128,1731.4321599058337,51.90000166080001,0.35999970196000003,0.9691980310143361,1668,-33.4,99,P-GPS,
0.33953481847820094,36.9018761115726,25500,2018-04-07 05:25:29,1731.9321599218335,52.400001676799995,0.0,0.6746490215887679,1731.9321599218335,52.400001676799995,0.35999970196000003,0.9691980310143361,1669,-33.4,98,P-GPS,
0.33953482745255603,36.9018760745724,25600,2018-04-07 05:25:29,1732.4321599378336,52.90000169280001,0.0,0.6743220215783039,1732.4321599378336,52.90000169280001,0.35999970196000003,0.9691980310143361,1665,-33.4,98,P-GPS,
0.339534838823167,36.9018759972026,25700,2018-04-07 05:25:29,1732.9321599538337,53.400001708800005,0.0,0.672939021534048,1732.9321599538337,53.400001708800005,0.35999970196000003,0.9691980310143361,1665,-33.4,98,P-GPS,
0.33953483313012606,36.9018759485884,25800,2018-04-07 05:25:29,1733.4321599698335,53.900001724800006,0.0,0.6707580214642561,1733.4321599698335,53.900001724800006,0.35999970196000003,0.9691980310143361,1671,-33.4,98,P-GPS,
0.33953485586727594,36.90187583893329,25900,2018-04-07 05:25:29,1733.9321599858338,54.40000174080001,0.0,0.66978502143312,1733.9321599858338,54.40000174080001,0.35999970196000003,0.9691980310143361,1676,-33.4,98,P-GPS,
0.3395348738518111,36.9018757671693,26000,2018-04-07 05:25:29,1734.4321600018336,54.9000017568,0.0,0.669606021427392,1734.4321600018336,54.9000017568,0.35999970196000003,0.9691980310143361,1681,-33.4,98,P-GPS,
0.339534889317958,36.9018756667493,26100,2018-04-07 05:25:30,1734.9321600178337,55.40000177280001,0.0,0.6684790213913279,1734.9321600178337,55.40000177280001,0.35999970196000003,0.9691980310143361,1684,-33.4,98,P-GPS,
0.339534921459371,36.901875574482006,26300,2018-04-07 05:25:30,1735.9321600498338,56.400001804800006,0.0,0.6695530214256962,1735.9321600498338,56.400001804800006,0.35999970196000003,0.9691980310143361,1684,-33.4,98,P-GPS,
0.339534931012638,36.901875583712794,26400,2018-04-07 05:25:30,1736.4321600658336,56.90000182080001,0.0,0.67082002146624,1736.4321600658336,56.90000182080001,0.35999970196000003,0.9691980310143361,1684,-33.4,98,P-GPS,
0.339534892751532,36.9018755301674,26500,2018-04-07 05:25:30,1736.9321600818334,57.4000018368,0.0,0.6653410212909121,1736.9321600818334,57.4000018368,0.35999970196000003,0.9691980310143361,1684,-33.4,98,P-GPS,
0.33953487199212795,36.901875479565,26600,2018-04-07 05:25:30,1737.4321600978337,57.90000185280001,0.0,0.661869021179808,1737.4321600978337,57.90000185280001,0.35999970196000003,0.9691980310143361,1684,-33.4,98,P-GPS,
0.339534883619218,36.901875462214704,26700,2018-04-07 05:25:30,1737.9321601138336,58.400001868800004,0.0,0.6627250212072,1737.9321601138336,58.400001868800004,0.35999970196000003,0.9691980310143361,1684,-33.4,98,P-GPS,
0.339534909260697,36.901875459581,26800,2018-04-07 05:25:30,1738.4321601298336,58.900001884800005,0.0,0.665452021294464,1738.4321601298336,58.900001884800005,0.35999970196000003,0.9691980310143361,1684,-33.4,98,P-GPS,
0.339534950009252,36.9018753928563,26900,2018-04-07 05:25:30,1738.9321601458337,59.4000019008,0.0,0.6683880213884161,1738.9321601458337,59.4000019008,0.35999970196000003,0.9691980310143361,1684,-33.4,98,P-GPS,
0.339534974781956,36.9018753561847,27000,2018-04-07 05:25:30,1739.4321601618337,59.9000019168,0.0,0.670304021449728,1739.4321601618337,59.9000019168,0.35999970196000003,0.9691980310143361,1684,-33.4,98,P-GPS,
0.339535001372004,36.901875267520104,27100,2018-04-07 05:25:30,1739.9321601778336,60.40000193280001,0.0,0.6714150214852801,1739.9321601778336,60.40000193280001,0.35999970196000003,0.9691980310143361,1674,-33.4,98,P-GPS,
0.339535015832586,36.901875221351105,27200,2018-04-07 05:25:31,1740.4321601938339,60.9000019488,0.0,0.672122021507904,1740.4321601938339,60.9000019488,0.35999970196000003,0.9691980310143361,1684,-33.4,98,P-GPS,
0.339535020150406,36.901875104072204,27300,2018-04-07 05:25:31,1740.9321602098337,61.400001964800005,0.0,0.6705440214574079,1740.9321602098337,61.400001964800005,0.35999970196000003,0.9691980310143361,1684,-33.4,98,P-GPS,
0.339535022509207,36.9018750639468,27400,2018-04-07 05:25:31,1741.4321602258335,61.9000019808,0.0,0.670159021445088,1741.4321602258335,61.9000019808,0.35999970196000003,0.9691980310143361,1684,-33.4,98,P-GPS,
0.33953502359212195,36.901874972146295,27500,2018-04-07 05:25:31,1741.9321602418336,62.4000019968,0.0,0.6689120214051839,1741.9321602418336,62.4000019968,0.35999970196000003,0.9691980310143361,1684,-33.4,98,P-GPS,
0.33953502789609996,36.901874933018796,27600,2018-04-07 05:25:31,1742.4321602578336,62.9000020128,0.0,0.6688520214032639,1742.4321602578336,62.9000020128,0.35999970196000003,0.9691980310143361,1684,-33.5,98,P-GPS,
0.339535033822007,36.9018747887445,27700,2018-04-07 05:25:31,1743.0321602770334,63.500002032,0.0,0.6677760213688321,1743.0321602770334,63.500002032,0.35999970196000003,0.9691980310143361,1684,-33.5,98,P-GPS,
0.339535046281232,36.9018747003357,27800,2018-04-07 05:25:31,1743.5321602930337,64.000002048,0.0,0.668286021385152,1743.5321602930337,64.000002048,0.35999970196000003,0.9691980310143361,1684,-33.6,98,P-GPS,
0.339535058064653,36.9018745849807,27900,2018-04-07 05:25:31,1744.0321603090335,64.500002064,0.0,0.6686750213975999,1744.0321603090335,64.500002064,0.35999970196000003,0.9691980310143361,1684,-33.7,98,P-GPS,
0.339535066762172,36.9018745371951,28000,2018-04-07 05:25:31,1744.5321603250336,65.00000208,0.0,0.669333021418656,1744.5321603250336,65.00000208,0.35999970196000003,0.9691980310143361,1684,-33.9,98,P-GPS,
0.3395351031253269,36.9018744262596,28100,2018-04-07 05:25:31,1745.0321603410337,65.500002096,0.0,0.672823021530336,1745.0321603410337,65.500002096,0.35999970196000003,0.9691980310143361,1665,-34.2,98,P-GPS,
0.3395351359368449,36.901874361385005,28200,2018-04-07 05:25:32,1745.5321603570337,66.000002112,0.0,0.6762540216401279,1745.5321603570337,66.000002112,0.35999970196000003,0.9691980310143361,1658,-34.3,98,P-GPS,
0.339535160375718,36.901874215736,28300,2018-04-07 05:25:32,1746.0321603730335,66.500002128,0.0,0.67877002172064,1746.0321603730335,66.500002128,0.35999970196000003,0.9691980310143361,1661,-34.3,98,P-GPS,
0.33953518034451297,36.9018741227065,28400,2018-04-07 05:25:32,1746.5321603890334,67.00000214399999,0.0,0.681064021794048,1746.5321603890334,67.00000214399999,0.35999970196000003,0.9691980310143361,1668,-34.3,98,P-GPS,
0.33953517776180103,36.901874010544,28500,2018-04-07 05:25:32,1747.0321604050337,67.50000216000001,0.0,0.6810740217943679,1747.0321604050337,67.50000216000001,0.35999970196000003,0.9691980310143361,1669,-34.3,98,P-GPS,
0.339535170068217,36.9018739470248,28600,2018-04-07 05:25:32,1747.5321604210335,68.00000217600001,0.0,0.680489021775648,1747.5321604210335,68.00000217600001,0.35999970196000003,0.9691980310143361,1661,-34.3,98,P-GPS,
0.3395351457018089,36.9018738014015,28700,2018-04-07 05:25:32,1748.0321604370336,68.500002192,0.0,0.67868002171776,1748.0321604370336,68.500002192,0.35999970196000003,0.9691980310143361,1658,-34.3,98,P-GPS,
0.33953512223674603,36.901873737605,28800,2018-04-07 05:25:32,1748.5321604530336,69.000002208,0.0,0.676594021651008,1748.5321604530336,69.000002208,0.35999970196000003,0.9691980310143361,1662,-34.3,98,P-GPS,
0.339535097937104,36.9018736331231,28900,2018-04-07 05:25:32,1748.9321604658337,69.4000022208,0.0,0.6749100215971201,1748.9321604658337,69.4000022208,0.35999970196000003,0.9691980310143361,1665,-34.3,98,P-GPS,
0.33953507504932395,36.901873594462295,29000,2018-04-07 05:25:32,1749.4321604818335,69.9000022368,0.35999970196000003,0.6728020215296641,1749.4321604818335,69.9000022368,0.35999970196000003,0.9691980310143361,1665,-34.3,98,P-GPS,
0.33953505884874896,36.901873493764,29100,2018-04-07 05:25:32,1749.9321604978336,70.4000022528,0.0,0.672249021511968,1749.9321604978336,70.4000022528,0.35999970196000003,0.9691980310143361,1661,-34.3,98,P-GPS,
