latitude,longitude,time_millisecond,datetime_utc,altitude_m,ascent_m,speed_kph,distance_m,max_altitude_m,max_ascent_m,max_speed_kph,max_distance_m,rc_throttle,gimbal_pitch_degrees,battery_percent,flycState,message
0.343868248063327,36.9120001450413,0,2018-04-08 05:26:33,1641.2123328188077,0.0,0.0,0.0,1641.2123328188077,0.0,0.0,0.0,364,0.0,99,Motors_Started,
0.343868247776285,36.9120001370856,100,2018-04-08 05:26:33,1641.2123328188077,0.0,0.0,0.0008852890283292481,1641.2123328188077,0.0,0.0,0.0008852890283292481,364,0.0,99,Motors_Started,
0.343868245852049,36.9120001337622,200,2018-04-08 05:26:33,1641.2123328188077,0.0,0.0,0.0012781600409011201,1641.2123328188077,0.0,0.0,0.0012781600409011201,364,0.0,99,Motors_Started,
0.343868216359994,36.9120001255286,300,2018-04-08 05:26:33,1641.2123328188077,0.0,0.0,0.0041398401324748806,1641.2123328188077,0.0,0.0,0.0041398401324748806,364,0.0,99,Motors_Started,
0.34386819049089,36.9120001218369,400,2018-04-08 05:26:34,1641.2123328188077,0.0,0.0,0.006902860220891521,1641.2123328188077,0.0,0.0,0.006902860220891521,364,0.0,99,Motors_Started,
0.343868175215708,36.9120001154092,500,2018-04-08 05:26:34,1641.2123328188077,0.0,0.0,0.008745640279860481,1641.2123328188077,0.0,0.0,0.008745640279860481,364,0.0,99,Motors_Started,
0.34386816265225,36.9120001129347,600,2018-04-08 05:26:34,1641.2123328188077,0.0,0.0,0.010147100324707201,1641.2123328188077,0.0,0.0,0.010147100324707201,364,0.0,99,Motors_Started,Setting new Return-To-Home altitude to 30m (98 ft). Setting new Maximum Flight Altitude to 150m (492 ft)
0.343868123111861,36.9120001082252,700,2018-04-08 05:26:34,1641.2123328188077,0.0,0.0,0.014486000463552001,1641.2123328188077,0.0,0.0,0.014486000463552001,364,0.0,99,Motors_Started,
0.343868089725611,36.9120001058678,800,2018-04-08 05:26:34,1641.2123328188077,0.0,0.0,0.018139000580448,1641.2123328188077,0.0,0.0,0.018139000580448,364,0.0,99,Motors_Started,
0.34386806933393,36.912000102319,900,2018-04-08 05:26:34,1641.2123328188077,0.0,0.0,0.0204357006539424,1641.2123328188077,0.0,0.0,0.0204357006539424,364,0.0,99,Motors_Started,
0.34386805315698,36.912000100106,1000,2018-04-08 05:26:34,1641.2123328188077,0.0,0.0,0.022243300711785603,1641.2123328188077,0.0,0.0,0.022243300711785603,364,0.0,99,Motors_Started,
0.343868049953779,36.9120000592904,1100,2018-04-08 05:26:34,1641.2123328188077,0.0,0.0,0.024006200768198403,1641.2123328188077,0.0,0.0,0.024006200768198403,364,0.0,99,Motors_Started,
0.343868045516677,36.9120000263524,1200,2018-04-08 05:26:34,1641.2123328188077,0.0,0.0,0.026106600835411203,1641.2123328188077,0.0,0.0,0.026106600835411203,376,0.0,99,Motors_Started,
0.343868013779359,36.9119999979358,1300,2018-04-08 05:26:34,1641.2123328188077,0.0,0.0,0.030763800984441602,1641.2123328188077,0.0,0.0,0.030763800984441602,471,0.0,99,Motors_Started,
0.34386798638173,36.9119999770802,1400,2018-04-08 05:26:34,1641.2123328188077,0.0,0.0,0.03457900110652801,1641.2123328188077,0.0,0.0,0.03457900110652801,761,0.0,99,Motors_Started,
0.343867935062157,36.9119999636712,1500,2018-04-08 05:26:35,1641.2123328188077,0.0,0.0,0.0402289012873248,1641.2123328188077,0.0,0.0,0.0402289012873248,1024,0.0,99,Motors_Started,
0.343867885491126,36.9119999496191,1600,2018-04-08 05:26:35,1641.2123328188077,0.0,0.0,0.0458038014657216,1641.2123328188077,0.0,0.0,0.0458038014657216,1024,0.0,99,Assisted_Takeoff,
0.343867826846736,36.9119999467281,1700,2018-04-08 05:26:35,1641.2123328188077,0.0,0.0,0.0517736016567552,1641.2123328188077,0.0,0.0,0.0517736016567552,1024,0.0,99,Assisted_Takeoff,
0.343867773962381,36.9119999401102,1800,2018-04-08 05:26:35,1641.2123328188077,0.0,0.0,0.0574374018379968,1641.2123328188077,0.0,0.0,0.0574374018379968,1024,0.0,99,Assisted_Takeoff,
0.343867740283869,36.9119999410157,1900,2018-04-08 05:26:35,1641.2123328188077,0.0,0.0,0.0608557019473824,1641.2123328188077,0.0,0.0,0.0608557019473824,1024,0.0,99,Assisted_Takeoff,
0.343867712007008,36.911999939247,2000,2018-04-08 05:26:35,1641.2123328188077,0.0,0.0,0.06385460204334721,1641.2123328188077,0.0,0.0,0.06385460204334721,1024,0.0,99,Assisted_Takeoff,
0.343867704264622,36.911999908165,2100,2018-04-08 05:26:35,1641.2123328188077,0.0,0.0,0.0659618021107776,1641.2123328188077,0.0,0.0,0.0659618021107776,1024,0.0,99,Assisted_Takeoff,
0.343867693755662,36.9119998795949,2200,2018-04-08 05:26:35,1641.2123328188077,0.0,0.0,0.0683457021870624,1641.2123328188077,0.0,0.0,0.0683457021870624,1085,0.0,99,Assisted_Takeoff,
0.343867665507756,36.9119998609503,2300,2018-04-08 05:26:35,1641.2123328188077,0.0,0.0,0.0720763023064416,1641.2123328188077,0.0,0.0,0.0720763023064416,1202,0.0,99,Assisted_Takeoff,
0.343867636716307,36.9119998466381,2400,2018-04-08 05:26:35,1641.2123328188077,0.0,0.0,0.07565170242085441,1641.2123328188077,0.0,0.0,0.07565170242085441,1283,0.0,99,Assisted_Takeoff,
0.343867625909443,36.9119998428534,2500,2018-04-08 05:26:35,1641.2123328188077,0.0,0.0,0.076916502461328,1641.2123328188077,0.0,0.0,0.076916502461328,1329,0.0,99,Assisted_Takeoff,
0.343867613619373,36.9119998379374,2600,2018-04-08 05:26:36,1641.2123328188077,0.0,0.0,0.0783848025083136,1641.2123328188077,0.0,0.0,0.0783848025083136,1338,0.0,99,Assisted_Takeoff,
0.343867616770158,36.9119998435644,2700,2018-04-08 05:26:36,1641.2123328188077,0.0,0.0,0.0777979024895328,1641.2123328188077,0.0,0.0,0.0783848025083136,1337,0.0,99,Assisted_Takeoff,
0.34386760879694,36.9119998676579,2800,2018-04-08 05:26:36,1641.2123328188077,0.0,0.0,0.077494002479808,1641.2123328188077,0.0,0.0,0.0783848025083136,1336,0.0,99,Assisted_Takeoff,
0.343867586092207,36.911999906016,2900,2018-04-08 05:26:36,1641.2123328188077,0.0,0.0,0.078267002504544,1641.2123328188077,0.0,0.0,0.0783848025083136,1336,0.0,99,P-GPS,Obstacle Avoided. Revise Flight Route
0.343867619176998,36.9119999439115,3000,2018-04-08 05:26:36,1641.2123328188077,0.0,0.0,0.073425502349616,1641.2123328188077,0.0,0.0,0.0783848025083136,1328,0.0,99,P-GPS,
0.343867705317513,36.9119999656227,3100,2018-04-08 05:26:36,1641.2123328188077,0.0,0.0,0.0635689020342048,1641.2123328188077,0.0,0.0,0.0783848025083136,1326,0.0,99,P-GPS,
0.343867796751793,36.9120000182679,3200,2018-04-08 05:26:36,1641.3123328220079,0.1000000032,0.35999970196000003,0.052131001668192005,1641.3123328220079,0.1000000032,0.35999970196000003,0.0783848025083136,1326,0.0,99,P-GPS,
0.343867887780515,36.912000134701,3300,2018-04-08 05:26:36,1641.4123328252076,0.2000000064,0.35999970196000003,0.0400821012826272,1641.4123328252076,0.2000000064,0.35999970196000003,0.0783848025083136,1326,0.0,99,P-GPS,
0.343867969723741,36.9120002686465,3400,2018-04-08 05:26:36,1641.5123328284076,0.3000000096,0.35999970196000003,0.033867801083769605,1641.5123328284076,0.3000000096,0.35999970196000003,0.0783848025083136,1323,0.0,99,P-GPS,
0.343868074063058,36.9120003928152,3500,2018-04-08 05:26:37,1641.6123328316075,0.4000000128,0.503999582744,0.0336692010774144,1641.6123328316075,0.4000000128,0.503999582744,0.0783848025083136,1316,0.0,99,P-GPS,
0.343868197418489,36.912000492744,3600,2018-04-08 05:26:37,1641.8123328380077,0.6000000192,0.35999970196000003,0.03907400125036801,1641.8123328380077,0.6000000192,0.503999582744,0.0783848025083136,1315,0.0,99,P-GPS,Home Point Recorded. RTH Altitude:  30m.
0.343868357586303,36.912000592802,3700,2018-04-08 05:26:37,1641.9123328412077,0.7000000224,0.35999970196000003,0.051260801640345605,1641.9123328412077,0.7000000224,0.503999582744,0.0783848025083136,1308,0.0,99,P-GPS,
0.343868520123817,36.9120006860331,3800,2018-04-08 05:26:37,1642.1123328476078,0.9000000288000001,0.503999582744,0.06733970215487041,1642.1123328476078,0.9000000288000001,0.503999582744,0.0783848025083136,1307,0.0,99,P-GPS,
0.343868685649246,36.9120007902962,3900,2018-04-08 05:26:37,1642.3123328540075,1.1000000352000001,0.503999582744,0.0866994027743808,1642.3123328540075,1.1000000352000001,0.503999582744,0.0866994027743808,1315,0.0,99,P-GPS,
0.343868803278423,36.9120008893278,4000,2018-04-08 05:26:37,1642.4123328572077,1.2000000384,0.35999970196000003,0.10326000330432002,1642.4123328572077,1.2000000384,0.503999582744,0.10326000330432002,1316,0.0,99,P-GPS,
0.343868898366117,36.9120009904397,4100,2018-04-08 05:26:37,1642.6123328636077,1.4000000448,0.35999970196000003,0.11860900379548801,1642.6123328636077,1.4000000448,0.503999582744,0.11860900379548801,1315,0.0,99,P-GPS,
0.34386898079093,36.9120010802863,4200,2018-04-08 05:26:37,1642.7123328668076,1.5000000480000002,0.0,0.13212200422790402,1642.7123328668076,1.5000000480000002,0.503999582744,0.13212200422790402,1309,0.0,99,P-GPS,
0.343869027670423,36.9120011634171,4300,2018-04-08 05:26:37,1642.9123328732078,1.7000000544000002,0.0,0.142623004563936,1642.9123328732078,1.7000000544000002,0.503999582744,0.142623004563936,1308,0.0,99,P-GPS,
0.343869076042945,36.9120012182977,4400,2018-04-08 05:26:37,1643.0123328764078,1.8000000576000001,0.0,0.15074000482368,1643.0123328764078,1.8000000576000001,0.503999582744,0.15074000482368,1313,0.0,99,P-GPS,
0.343869117308733,36.912001232519,4500,2018-04-08 05:26:38,1643.2123328828077,2.000000064,0.0,0.154818004954176,1643.2123328828077,2.000000064,0.503999582744,0.154818004954176,1319,0.0,99,P-GPS,
0.343869172495683,36.9120012305745,4600,2018-04-08 05:26:38,1643.3123328860077,2.1000000672000003,0.0,0.158558005073856,1643.3123328860077,2.1000000672000003,0.503999582744,0.158558005073856,1326,0.0,99,P-GPS,
0.343869218052625,36.9120012194141,4700,2018-04-08 05:26:38,1643.5123328924076,2.3000000736,0.0,0.16096500515088003,1643.5123328924076,2.3000000736,0.503999582744,0.16096500515088003,1322,0.0,99,P-GPS,
0.343869267528723,36.9120011970045,4800,2018-04-08 05:26:38,1643.6123328956078,2.4000000768,0.0,0.162904005212928,1643.6123328956078,2.4000000768,0.503999582744,0.162904005212928,1321,0.0,99,P-GPS,
0.34386933170224,36.9120011621361,4900,2018-04-08 05:26:38,1643.8123329020077,2.6000000832000003,0.0,0.165272005288704,1643.8123329020077,2.6000000832000003,0.503999582744,0.165272005288704,1312,0.0,99,P-GPS,
0.343869382049047,36.9120011285192,5000,2018-04-08 05:26:38,1643.9123329052074,2.7000000864,0.0,0.1669250053416,1643.9123329052074,2.7000000864,0.503999582744,0.1669250053416,1318,0.0,99,P-GPS,
0.34386944062316,36.912001146713,5100,2018-04-08 05:26:38,1644.1123329116076,2.9000000928,0.0,0.173193005542176,1644.1123329116076,2.9000000928,0.503999582744,0.173193005542176,1325,0.0,99,P-GPS,
0.343869477144578,36.91200116906,5200,2018-04-08 05:26:38,1644.2123329148076,3.0000000960000004,0.0,0.17790300569289602,1644.2123329148076,3.0000000960000004,0.503999582744,0.17790300569289602,1311,0.0,99,P-GPS,
0.343869505097329,36.912001184478,5300,2018-04-08 05:26:38,1644.4123329212077,3.2000001024,0.0,0.18139000580448,1644.4123329212077,3.2000001024,0.503999582744,0.18139000580448,1316,0.0,99,P-GPS,
0.343869521633261,36.9120011968578,5400,2018-04-08 05:26:38,1644.6123329276077,3.4000001088000005,0.0,0.183684005877888,1644.6123329276077,3.4000001088000005,0.503999582744,0.183684005877888,1343,0.0,99,P-GPS,
0.343869480832801,36.9120012120317,5500,2018-04-08 05:26:39,1644.7123329308079,3.500000112,0.0,0.18130900580188802,1644.7123329308079,3.500000112,0.503999582744,0.183684005877888,1405,0.0,99,P-GPS,
0.343869428908744,36.9120012207056,5600,2018-04-08 05:26:39,1644.9123329372076,3.7000001184,0.0,0.17763100568419202,1644.9123329372076,3.7000001184,0.503999582744,0.183684005877888,1415,0.0,99,P-GPS,
0.343869366095995,36.9120012234482,5700,2018-04-08 05:26:39,1645.0123329404075,3.8000001216000006,0.0,0.17274300552777602,1645.0123329404075,3.8000001216000006,0.503999582744,0.183684005877888,1414,0.0,99,P-GPS,
0.343869311730392,36.9120012350336,5800,2018-04-08 05:26:39,1645.2123329468077,4.000000128,0.0,0.169363005419616,1645.2123329468077,4.000000128,0.503999582744,0.183684005877888,1416,0.0,99,P-GPS,
0.343869284375688,36.9120012356484,5900,2018-04-08 05:26:39,1645.4123329532076,4.200000134400001,0.0,0.16730200535366402,1645.4123329532076,4.200000134400001,0.503999582744,0.183684005877888,1418,0.0,99,P-GPS,
0.343869242884564,36.9120012221691,6000,2018-04-08 05:26:39,1645.6123329596078,4.4000001408000005,0.0,0.163054005217728,1645.6123329596078,4.4000001408000005,0.503999582744,0.183684005877888,1418,0.0,99,P-GPS,
0.34386917752045,36.9120012007915,6100,2018-04-08 05:26:39,1645.8123329660075,4.6000001472,0.0,0.15642000500544,1645.8123329660075,4.6000001472,0.503999582744,0.183684005877888,1427,0.0,99,P-GPS,
0.343869100896359,36.9120011797245,6200,2018-04-08 05:26:39,1646.1123329756076,4.9000001568,0.0,0.14911000477152,1646.1123329756076,4.9000001568,0.503999582744,0.183684005877888,1445,0.0,99,P-GPS,
0.343868985033942,36.9120011320359,6300,2018-04-08 05:26:39,1646.3123329820078,5.1000001632,0.0,0.13698000438336003,1646.3123329820078,5.1000001632,0.503999582744,0.183684005877888,1470,0.0,99,P-GPS,
0.343868883726711,36.9120011032497,6400,2018-04-08 05:26:39,1646.5123329884077,5.3000001696000005,0.0,0.127872004091904,1646.5123329884077,5.3000001696000005,0.503999582744,0.183684005877888,1501,0.0,99,P-GPS,
0.343868807087608,36.9120011016034,6500,2018-04-08 05:26:40,1646.8123329980076,5.6000001792,0.0,0.123207003942624,1646.8123329980076,5.6000001792,0.503999582744,0.183684005877888,1549,0.0,99,P-GPS,
0.343868624721777,36.9120010972955,6700,2018-04-08 05:26:40,1647.3123330140077,6.100000195200001,0.0,0.113878003644096,1647.3123330140077,6.100000195200001,0.503999582744,0.183684005877888,1582,0.0,99,P-GPS,
0.34386846292205,36.9120011563317,6900,2018-04-08 05:26:40,1648.0123330364077,6.800000217600001,0.0,0.11497000367904,1648.0123330364077,6.800000217600001,0.503999582744,0.183684005877888,1640,0.0,99,P-GPS,
0.343868386713835,36.9120012003023,7000,2018-04-08 05:26:40,1648.3123330460078,7.1000002272,0.0,0.118358003787456,1648.3123330460078,7.1000002272,0.503999582744,0.183684005877888,1672,0.0,99,P-GPS,
0.343868290257688,36.9120012186658,7100,2018-04-08 05:26:40,1648.7123330588076,7.50000024,0.0,0.119484003823488,1648.7123330588076,7.50000024,0.503999582744,0.183684005877888,1672,0.0,99,P-GPS,
0.343868195729593,36.9120012406434,7200,2018-04-08 05:26:40,1649.1123330716077,7.9000002528,0.0,0.121974003903168,1649.1123330716077,7.9000002528,0.503999582744,0.183684005877888,1684,0.0,99,P-GPS,
0.343868112747203,36.912001278081,7300,2018-04-08 05:26:40,1649.5123330844076,8.300000265600001,0.0,0.12689400406060802,1649.5123330844076,8.300000265600001,0.503999582744,0.183684005877888,1684,0.0,99,P-GPS,
0.343868055222966,36.9120013158741,7400,2018-04-08 05:26:40,1649.9123330972077,8.700000278400001,0.0,0.13195600422259202,1649.9123330972077,8.700000278400001,0.503999582744,0.183684005877888,1684,0.0,99,P-GPS,
0.343868015913015,36.9120013333607,7500,2018-04-08 05:26:41,1650.4123331132075,9.2000002944,0.0,0.134644004308608,1650.4123331132075,9.2000002944,0.503999582744,0.183684005877888,1684,0.0,99,P-GPS,
0.343867939187031,36.9120013610817,7600,2018-04-08 05:26:41,1650.9123331292078,9.7000003104,0.0,0.139523004464736,1650.9123331292078,9.7000003104,0.503999582744,0.183684005877888,1684,0.0,99,P-GPS,
0.343867801596643,36.9120014107701,7700,2018-04-08 05:26:41,1651.4123331452076,10.2000003264,0.0,0.14925400477612802,1651.4123331452076,10.2000003264,0.503999582744,0.183684005877888,1684,0.0,99,P-GPS,
0.343867642823582,36.9120014715766,7800,2018-04-08 05:26:41,1651.9123331612077,10.700000342400001,0.0,0.16214500518864003,1651.9123331612077,10.700000342400001,0.503999582744,0.183684005877888,1684,0.0,99,P-GPS,
0.343867476584538,36.9120015322729,7900,2018-04-08 05:26:41,1652.4123331772078,11.2000003584,0.0,0.17651700564854403,1652.4123331772078,11.2000003584,0.503999582744,0.183684005877888,1684,0.0,99,P-GPS,
0.343867326883717,36.9120015759851,8000,2018-04-08 05:26:41,1652.9123331932076,11.7000003744,0.0,0.18925000605600004,1652.9123331932076,11.7000003744,0.503999582744,0.18925000605600004,1684,0.0,99,P-GPS,
0.34386721864135,36.9120016116583,8100,2018-04-08 05:26:41,1653.4123332092076,12.200000390400001,0.0,0.199261006376352,1653.4123332092076,12.200000390400001,0.503999582744,0.199261006376352,1684,-0.1,99,P-GPS,
0.343867107962424,36.9120016611471,8200,2018-04-08 05:26:41,1653.9123332252077,12.700000406400001,0.0,0.21095000675040002,1653.9123332252077,12.700000406400001,0.503999582744,0.21095000675040002,1684,-1.5,99,P-GPS,
0.343866986135984,36.9120017355903,8300,2018-04-08 05:26:41,1654.4123332412078,13.2000004224,0.0,0.225784007225088,1654.4123332412078,13.2000004224,0.503999582744,0.225784007225088,1684,-5.7,99,P-GPS,
0.343866861801842,36.9120018133779,8400,2018-04-08 05:26:42,1654.9123332572076,13.7000004384,0.0,0.24121600771891202,1654.9123332572076,13.7000004384,0.503999582744,0.24121600771891202,1684,-11.3,99,P-GPS,
0.34386676030337,36.9120018883527,8500,2018-04-08 05:26:42,1655.4123332732077,14.2000004544,0.0,0.25486500815568,1655.4123332732077,14.2000004544,0.503999582744,0.25486500815568,1684,-17.0,99,P-GPS,
0.343866655203697,36.9120019631816,8600,2018-04-08 05:26:42,1655.9123332892077,14.7000004704,0.0,0.268804008601728,1655.9123332892077,14.7000004704,0.503999582744,0.268804008601728,1684,-22.6,99,P-GPS,
0.343866526703181,36.9120020222248,8700,2018-04-08 05:26:42,1656.4123333052078,15.200000486400002,0.0,0.283232009063424,1656.4123333052078,15.200000486400002,0.503999582744,0.283232009063424,1684,-22.6,99,P-GPS,
0.343866398540771,36.9120020861195,8800,2018-04-08 05:26:42,1656.9123333212076,15.700000502400002,0.0,0.29815600954099203,1656.9123333212076,15.700000502400002,0.503999582744,0.29815600954099203,1684,-27.0,99,P-GPS,
0.343866292825647,36.9120021670563,8900,2018-04-08 05:26:42,1657.4123333372077,16.2000005184,0.0,0.31279101000931203,1657.4123333372077,16.2000005184,0.503999582744,0.31279101000931203,1684,-27.0,99,P-GPS,
0.343866188091661,36.9120022428526,9000,2018-04-08 05:26:42,1657.9123333532077,16.7000005344,0.0,0.32695601046259204,1657.9123333532077,16.7000005344,0.503999582744,0.32695601046259204,1684,-27.0,99,P-GPS,
0.343866058485024,36.9120023361676,9100,2018-04-08 05:26:42,1658.5123333724077,17.3000005536,0.0,0.344472011023104,1658.5123333724077,17.3000005536,0.503999582744,0.344472011023104,1684,-27.0,99,P-GPS,
0.343865932726605,36.9120024175313,9200,2018-04-08 05:26:42,1659.0123333884078,17.8000005696,0.0,0.360774011544768,1659.0123333884078,17.8000005696,0.503999582744,0.360774011544768,1684,-27.0,99,P-GPS,
0.343865834288997,36.9120024678069,9300,2018-04-08 05:26:42,1659.5123334044076,18.3000005856,0.0,0.372521011920672,1659.5123334044076,18.3000005856,0.503999582744,0.372521011920672,1684,-27.0,99,P-GPS,
0.343865759079107,36.9120025116966,9400,2018-04-08 05:26:43,1660.012333420408,18.8000006016,0.0,0.381939012222048,1660.012333420408,18.8000006016,0.503999582744,0.381939012222048,1684,-27.0,99,P-GPS,
0.343865704092864,36.9120025324005,9500,2018-04-08 05:26:43,1660.5123334364077,19.300000617600002,0.0,0.38796501241488,1660.5123334364077,19.300000617600002,0.503999582744,0.38796501241488,1684,-27.0,99,P-GPS,
0.343865648211383,36.9120025571336,9600,2018-04-08 05:26:43,1661.0123334524076,19.800000633600003,0.0,0.39438501262032005,1661.0123334524076,19.800000633600003,0.503999582744,0.39438501262032005,1684,-27.0,99,P-GPS,
0.343865569002849,36.9120025990868,9700,2018-04-08 05:26:43,1661.5123334684076,20.3000006496,0.0,0.404024012928768,1661.5123334684076,20.3000006496,0.503999582744,0.404024012928768,1684,-27.0,99,P-GPS,
0.343865476907217,36.9120026434339,9800,2018-04-08 05:26:43,1662.1123334876077,20.900000668800004,0.0,0.41492001327744005,1662.1123334876077,20.900000668800004,0.503999582744,0.41492001327744005,1684,-27.0,99,P-GPS,
0.343865356766522,36.9120026922123,9900,2018-04-08 05:26:43,1662.6123335036077,21.400000684800002,0.0,0.428504013712128,1662.6123335036077,21.400000684800002,0.503999582744,0.428504013712128,1684,-27.0,99,P-GPS,
0.343865255409928,36.9120027258134,10000,2018-04-08 05:26:43,1663.1123335196078,21.900000700800003,0.0,0.43945601406259205,1663.1123335196078,21.900000700800003,0.503999582744,0.43945601406259205,1684,-27.0,99,P-GPS,
0.3438651970353,36.912002745054,10100,2018-04-08 05:26:43,1663.6123335356076,22.4000007168,0.0,0.445777014264864,1663.6123335356076,22.4000007168,0.503999582744,0.445777014264864,1684,-27.0,99,P-GPS,
0.343865153663119,36.912002739513,10200,2018-04-08 05:26:43,1664.1123335516077,22.900000732800002,0.0,0.449063014370016,1664.1123335516077,22.900000732800002,0.503999582744,0.449063014370016,1684,-27.0,99,P-GPS,
0.3438651078098,36.9120026972764,10300,2018-04-08 05:26:43,1664.6123335676077,23.4000007488,0.0,0.45000501440016,1664.6123335676077,23.4000007488,0.503999582744,0.45000501440016,1684,-27.0,99,P-GPS,
0.343865063110844,36.9120026579221,10400,2018-04-08 05:26:44,1665.2123335868077,24.000000768000003,0.0,0.45115001443680003,1665.2123335868077,24.000000768000003,0.503999582744,0.45115001443680003,1684,-27.0,99,P-GPS,
0.343865019118226,36.912002638731,10500,2018-04-08 05:26:44,1665.7123336028076,24.500000784,0.0,0.453693014518176,1665.7123336028076,24.500000784,0.503999582744,0.453693014518176,1684,-27.0,99,P-GPS,
0.343864973923816,36.9120026334432,10600,2018-04-08 05:26:44,1666.2123336188079,25.000000800000002,0.0,0.4573250146344,1666.2123336188079,25.000000800000002,0.503999582744,0.4573250146344,1684,-27.0,99,P-GPS,
0.343864962271689,36.9120026555557,10700,2018-04-08 05:26:44,1666.8123336380077,25.6000008192,0.0,0.459846014715072,1666.8123336380077,25.6000008192,0.503999582744,0.459846014715072,1684,-27.0,99,P-GPS,
0.343864956068132,36.9120026679808,10800,2018-04-08 05:26:44,1667.3123336540077,26.100000835200003,0.0,0.46123401475948805,1667.3123336540077,26.100000835200003,0.503999582744,0.46123401475948805,1684,-27.0,99,P-GPS,
0.343864943587533,36.9120025963552,11000,2018-04-08 05:26:44,1668.3123336860076,27.100000867200002,0.0,0.45754601464147204,1668.3123336860076,27.100000867200002,0.503999582744,0.46123401475948805,1684,-27.0,99,P-GPS,
0.343864949881673,36.9120025700271,11100,2018-04-08 05:26:44,1668.8123337020074,27.600000883200003,0.0,0.455244014567808,1668.8123337020074,27.600000883200003,0.503999582744,0.46123401475948805,1684,-27.0,99,P-GPS,
0.343864957878758,36.9120025484654,11300,2018-04-08 05:26:44,1669.9123337372075,28.7000009184,0.0,0.453109014499488,1669.9123337372075,28.7000009184,0.503999582744,0.46123401475948805,1684,-27.0,99,P-GPS,
0.343864992484007,36.9120025425299,11500,2018-04-08 05:26:45,1671.0123337724076,29.8000009536,0.0,0.44961601438771204,1671.0123337724076,29.8000009536,0.503999582744,0.46123401475948805,1684,-27.0,99,P-GPS,
0.343865033642318,36.9120025083392,11700,2018-04-08 05:26:45,1672.0123338044077,30.8000009856,0.0,0.44367601419763203,1672.0123338044077,30.8000009856,0.503999582744,0.46123401475948805,1684,-27.0,99,P-GPS,
0.34386503817611,36.9120024873749,11800,2018-04-08 05:26:45,1672.5123338204075,31.300001001600002,0.0,0.441891014140512,1672.5123338204075,31.300001001600002,0.503999582744,0.46123401475948805,1684,-27.0,99,P-GPS,
0.343865049122307,36.9120024434231,11900,2018-04-08 05:26:45,1673.1123338396078,31.9000010208,0.0,0.43803901401724804,1673.1123338396078,31.9000010208,0.503999582744,0.46123401475948805,1684,-27.0,99,P-GPS,
0.343865049730531,36.9120024033946,12000,2018-04-08 05:26:45,1673.6123338556076,32.4000010368,0.0,0.435401013932832,1673.6123338556076,32.4000010368,0.503999582744,0.46123401475948805,1684,-27.0,99,P-GPS,
0.343865094044359,36.9120023315206,12100,2018-04-08 05:26:45,1674.1123338716077,32.9000010528,0.0,0.426782013657024,1674.1123338716077,32.9000010528,0.503999582744,0.46123401475948805,1684,-27.0,99,P-GPS,
0.34386511750922,36.9120022621518,12200,2018-04-08 05:26:45,1674.6123338876077,33.4000010688,0.0,0.42027001344864,1674.6123338876077,33.4000010688,0.503999582744,0.46123401475948805,1684,-27.0,99,P-GPS,
0.343865131429973,36.9120021824363,12300,2018-04-08 05:26:45,1675.1123339036078,33.9000010848,0.0,0.414073013250336,1675.1123339036078,33.9000010848,0.503999582744,0.46123401475948805,1684,-27.0,99,P-GPS,
0.343865128551088,36.9120021210107,12400,2018-04-08 05:26:46,1675.6123339196076,34.4000011008,0.0,0.41064501314064006,1675.6123339196076,34.4000011008,0.503999582744,0.46123401475948805,1684,-27.0,99,P-GPS,
0.343865164355686,36.9120020176364,12500,2018-04-08 05:26:46,1676.1123339356077,34.900001116800006,0.0,0.401202012838464,1676.1123339356077,34.900001116800006,0.503999582744,0.46123401475948805,1684,-27.0,99,P-GPS,
0.34386518308727,36.9120019350332,12600,2018-04-08 05:26:46,1676.6123339516078,35.4000011328,0.0,0.39471201263078404,1676.6123339516078,35.4000011328,0.503999582744,0.46123401475948805,1684,-27.0,99,P-GPS,
0.343865214990727,36.9120018683975,12700,2018-04-08 05:26:46,1677.2123339708075,36.000001152,0.0,0.38793801241401604,1677.2123339708075,36.000001152,0.503999582744,0.46123401475948805,1684,-27.0,99,P-GPS,
0.343865238906259,36.9120018281886,12800,2018-04-08 05:26:46,1677.7123339868078,36.500001168000004,0.0,0.38342601226963197,1677.7123339868078,36.500001168000004,0.503999582744,0.46123401475948805,1684,-27.0,99,P-GPS,
0.343865295644709,36.9120017594423,12900,2018-04-08 05:26:46,1678.2123340028077,37.000001184000006,0.0,0.374204011974528,1678.2123340028077,37.000001184000006,0.503999582744,0.46123401475948805,1684,-27.0,99,P-GPS,
0.343865339256067,36.9120016974094,13000,2018-04-08 05:26:46,1678.8123340220077,37.6000012032,0.0,0.366658011733056,1678.8123340220077,37.6000012032,0.503999582744,0.46123401475948805,1684,-27.0,99,P-GPS,
0.343865388268771,36.912001567118,13200,2018-04-08 05:26:46,1679.8123340540076,38.600001235200004,0.0,0.3551750113656,1679.8123340540076,38.600001235200004,0.503999582744,0.46123401475948805,1684,-27.0,99,P-GPS,
0.343865415700317,36.9120015441155,13300,2018-04-08 05:26:46,1680.3123340700079,39.100001251200005,0.0,0.351306011241792,1680.3123340700079,39.100001251200005,0.503999582744,0.46123401475948805,1684,-27.0,99,P-GPS,
0.343865424550096,36.9120015372496,13400,2018-04-08 05:26:46,1680.8123340860077,39.60000126720001,0.0,0.350086011202752,1680.8123340860077,39.60000126720001,0.503999582744,0.46123401475948805,1684,-27.0,99,P-GPS,
0.343865465912777,36.9120015167452,13500,2018-04-08 05:26:47,1681.3123341020078,40.10000128320001,0.0,0.344952011038464,1681.3123341020078,40.10000128320001,0.503999582744,0.46123401475948805,1684,-27.0,99,P-GPS,
0.343865484701153,36.9120014967771,13600,2018-04-08 05:26:47,1681.8123341180076,40.6000012992,0.0,0.342097010947104,1681.8123341180076,40.6000012992,0.503999582744,0.46123401475948805,1684,-27.0,99,P-GPS,
0.343865505544015,36.9120014488536,13700,2018-04-08 05:26:47,1682.4123341372076,41.2000013184,0.0,0.33769501080624004,1682.4123341372076,41.2000013184,0.503999582744,0.46123401475948805,1684,-27.0,99,P-GPS,
0.34386550696585,36.9120014125281,13800,2018-04-08 05:26:47,1682.9123341532077,41.7000013344,0.0,0.335837010746784,1682.9123341532077,41.7000013344,0.503999582744,0.46123401475948805,1684,-27.0,99,P-GPS,
0.343865503451058,36.9120013546296,13900,2018-04-08 05:26:47,1683.4123341692077,42.2000013504,0.0,0.33354301067337605,1683.4123341692077,42.2000013504,0.503999582744,0.46123401475948805,1684,-27.0,99,P-GPS,
0.343865478517341,36.91200131173,14000,2018-04-08 05:26:47,1683.9123341852078,42.7000013664,0.0,0.334202010694464,1683.9123341852078,42.7000013664,0.503999582744,0.46123401475948805,1684,-27.0,99,P-GPS,
0.343865466701148,36.9120012483601,14100,2018-04-08 05:26:47,1684.4123342012076,43.2000013824,0.0,0.33275101064803203,1684.4123342012076,43.2000013824,0.503999582744,0.46123401475948805,1684,-27.0,99,P-GPS,
0.343865444196662,36.9120012012166,14200,2018-04-08 05:26:47,1684.912334217208,43.7000013984,0.0,0.333194010662208,1684.912334217208,43.7000013984,0.503999582744,0.46123401475948805,1684,-27.0,99,P-GPS,
0.343865430220745,36.9120011758598,14300,2018-04-08 05:26:47,1685.4123342332077,44.2000014144,0.0,0.33367001067744,1685.4123342332077,44.2000014144,0.503999582744,0.46123401475948805,1684,-27.0,99,P-GPS,
0.343865395072003,36.912001176443,14400,2018-04-08 05:26:47,1685.9123342492076,44.7000014304,0.0,0.33736501079568,1685.9123342492076,44.7000014304,0.503999582744,0.46123401475948805,1684,-27.0,99,P-GPS,
0.343865361658368,36.9120012156581,14500,2018-04-08 05:26:48,1686.5123342684078,45.3000014496,0.0,0.342354010955328,1686.5123342684078,45.3000014496,0.503999582744,0.46123401475948805,1684,-27.0,99,P-GPS,
0.343865336665823,36.9120013379095,14700,2018-04-08 05:26:48,1687.5123343004077,46.300001481600006,0.0,0.34988601119635204,1687.5123343004077,46.300001481600006,0.503999582744,0.46123401475948805,1684,-27.0,99,P-GPS,
0.343865337519535,36.912001398829,14800,2018-04-08 05:26:48,1688.0123343164078,46.8000014976,0.0,0.352423011277536,1688.0123343164078,46.8000014976,0.503999582744,0.46123401475948805,1684,-27.0,99,P-GPS,
0.343865364108158,36.9120014527043,14900,2018-04-08 05:26:48,1688.5123343324076,47.3000015136,0.0,0.352141011268512,1688.5123343324076,47.3000015136,0.503999582744,0.46123401475948805,1684,-27.0,99,P-GPS,
0.343865371860773,36.9120014995936,15000,2018-04-08 05:26:48,1689.0123343484076,47.8000015296,0.0,0.353546011313472,1689.0123343484076,47.8000015296,0.503999582744,0.46123401475948805,1684,-27.0,99,P-GPS,
0.343865390873874,36.9120015301616,15100,2018-04-08 05:26:48,1689.5123343644077,48.300001545600004,0.0,0.353104011299328,1689.5123343644077,48.300001545600004,0.503999582744,0.46123401475948805,1684,-27.0,99,P-GPS,
0.343865388436704,36.9120015517252,15200,2018-04-08 05:26:48,1690.0123343804078,48.800001561600006,0.0,0.3544000113408,1690.0123343804078,48.800001561600006,0.503999582744,0.46123401475948805,1684,-27.0,99,P-GPS,
0.343865397690541,36.9120015781336,15300,2018-04-08 05:26:48,1690.6123343996076,49.4000015808,0.0,0.3547860113531521,1690.6123343996076,49.4000015808,0.503999582744,0.46123401475948805,1684,-27.0,99,P-GPS,
0.343865383975378,36.912001600309,15400,2018-04-08 05:26:48,1691.1123344156078,49.9000015968,0.0,0.35725901143228805,1691.1123344156078,49.9000015968,0.503999582744,0.46123401475948805,1684,-27.0,99,P-GPS,
0.343865342187266,36.9120015911536,15500,2018-04-08 05:26:49,1691.6123344316077,50.4000016128,0.0,0.360954011550528,1691.6123344316077,50.4000016128,0.503999582744,0.46123401475948805,1684,-27.0,99,P-GPS,
0.343865306102372,36.9120015841483,15600,2018-04-08 05:26:49,1692.1123344476075,50.9000016288,0.0,0.36420801165465605,1692.1123344476075,50.9000016288,0.503999582744,0.46123401475948805,1684,-27.0,99,P-GPS,
0.343865314223626,36.9120015645413,15700,2018-04-08 05:26:49,1692.6123344636078,51.4000016448,0.0,0.362442011598144,1692.6123344636078,51.4000016448,0.503999582744,0.46123401475948805,1684,-27.0,99,P-GPS,
0.343865332138342,36.9120015545176,15800,2018-04-08 05:26:49,1693.1123344796076,51.90000166080001,0.0,0.360163011525216,1693.1123344796076,51.90000166080001,0.503999582744,0.46123401475948805,1684,-27.0,99,P-GPS,
0.343865365838991,36.9120015484908,15900,2018-04-08 05:26:49,1693.6123344956077,52.40000167680001,0.0,0.356499011407968,1693.6123344956077,52.40000167680001,0.503999582744,0.46123401475948805,1684,-27.0,99,P-GPS,
0.343865383966422,36.9120015700212,16100,2018-04-08 05:26:49,1694.6123345276078,53.400001708800005,0.0,0.355747011383904,1694.6123345276078,53.400001708800005,0.503999582744,0.46123401475948805,1684,-27.0,99,P-GPS,
0.343865348173223,36.9120015665133,16300,2018-04-08 05:26:49,1695.6123345596075,54.40000174080001,0.0,0.35914401149260805,1695.6123345596075,54.40000174080001,0.503999582744,0.46123401475948805,1684,-27.0,99,P-GPS,
0.343865315529435,36.9120015606884,16400,2018-04-08 05:26:49,1696.1123345756077,54.9000017568,0.0,0.36212501158800003,1696.1123345756077,54.9000017568,0.503999582744,0.46123401475948805,1684,-27.0,99,P-GPS,
0.343865298449703,36.9120015456042,16500,2018-04-08 05:26:50,1696.6123345916076,55.4000017728,0.0,0.363113011619616,1696.6123345916076,55.4000017728,0.503999582744,0.46123401475948805,1684,-27.0,99,P-GPS,
0.343865278492104,36.9120015350203,16600,2018-04-08 05:26:50,1697.1123346076076,55.900001788800004,0.0,0.3646190116678081,1697.1123346076076,55.900001788800004,0.503999582744,0.46123401475948805,1684,-27.0,99,P-GPS,
0.343865246577248,36.912001525381,16700,2018-04-08 05:26:50,1697.6123346236077,56.400001804800006,0.0,0.367387011756384,1697.6123346236077,56.400001804800006,0.503999582744,0.46123401475948805,1684,-27.0,99,P-GPS,
0.34386521097702,36.9120015182879,16800,2018-04-08 05:26:50,1698.1123346396078,56.90000182080001,0.0,0.370662011861184,1698.1123346396078,56.90000182080001,0.503999582744,0.46123401475948805,1684,-27.0,99,P-GPS,
0.343865192942003,36.9120015139104,16900,2018-04-08 05:26:50,1698.6123346556076,57.4000018368,0.0,0.37229101191331204,1698.6123346556076,57.4000018368,0.503999582744,0.46123401475948805,1684,-27.0,99,P-GPS,
0.34386515740793,36.9120015103188,17000,2018-04-08 05:26:50,1699.1123346716079,57.9000018528,0.0,0.375739012023648,1699.1123346716079,57.9000018528,0.503999582744,0.46123401475948805,1684,-27.0,99,P-GPS,
0.34386510191178,36.9120015113608,17100,2018-04-08 05:26:50,1699.6123346876077,58.400001868800004,0.0,0.38143901220604803,1699.6123346876077,58.400001868800004,0.503999582744,0.46123401475948805,1684,-27.0,99,P-GPS,
0.343865053074744,36.9120015187237,17200,2018-04-08 05:26:50,1700.1123347036075,58.900001884800005,0.0,0.386749012375968,1700.1123347036075,58.900001884800005,0.503999582744,0.46123401475948805,1684,-27.0,99,P-GPS,
0.343865051790512,36.9120015256085,17300,2018-04-08 05:26:50,1700.6123347196078,59.40000190080001,0.0,0.38718301238985603,1700.6123347196078,59.40000190080001,0.503999582744,0.46123401475948805,1684,-27.0,99,P-GPS,
0.343865050931508,36.9120015336636,17400,2018-04-08 05:26:51,1701.1123347356076,59.9000019168,0.0,0.387627012404064,1701.1123347356076,59.9000019168,0.503999582744,0.46123401475948805,1684,-27.0,99,P-GPS,
0.343865078277968,36.9120015393866,17600,2018-04-08 05:26:51,1702.1123347676075,60.9000019488,0.0,0.38509501232304005,1702.1123347676075,60.9000019488,0.503999582744,0.46123401475948805,1684,-27.0,98,P-GPS,
0.343865098905875,36.9120015658281,17800,2018-04-08 05:26:51,1703.2123348028076,62.000001984,0.0,0.38419701229430403,1703.2123348028076,62.000001984,0.503999582744,0.46123401475948805,1684,-27.0,98,P-GPS,
0.343865107023872,36.9120015858278,17900,2018-04-08 05:26:51,1703.7123348188077,62.50000200000001,0.0,0.38429601229747207,1703.7123348188077,62.50000200000001,0.503999582744,0.46123401475948805,1684,-27.0,98,P-GPS,
0.343865087702995,36.9120016125946,18000,2018-04-08 05:26:51,1704.2123348348077,63.000002015999996,0.0,0.387494012399808,1704.2123348348077,63.000002015999996,0.503999582744,0.46123401475948805,1684,-27.0,98,P-GPS,
0.343864986841449,36.9120016982828,18200,2018-04-08 05:26:51,1705.2123348668079,64.000002048,0.0,0.40169901285436804,1705.2123348668079,64.000002048,0.503999582744,0.46123401475948805,1684,-27.0,98,P-GPS,
0.343864964385816,36.9120017369687,18300,2018-04-08 05:26:51,1705.7123348828077,64.500002064,0.0,0.405814012986048,1705.7123348828077,64.500002064,0.503999582744,0.46123401475948805,1684,-27.0,98,P-GPS,
0.343864952925031,36.9120017229653,18500,2018-04-08 05:26:52,1706.7123349148076,65.500002096,0.0,0.406286013001152,1706.7123349148076,65.500002096,0.503999582744,0.46123401475948805,1684,-27.0,98,P-GPS,
0.343864936690666,36.9120016833081,18700,2018-04-08 05:26:52,1707.8123349500077,66.6000021312,0.0,0.40603701299318407,1707.8123349500077,66.6000021312,0.503999582744,0.46123401475948805,1684,-27.0,98,P-GPS,
0.343864929002375,36.9120017252382,18900,2018-04-08 05:26:52,1708.8123349820078,67.6000021632,0.0,0.40879501308144,1708.8123349820078,67.6000021632,0.503999582744,0.46123401475948805,1684,-27.0,98,P-GPS,
0.343864937441379,36.9120017559837,19000,2018-04-08 05:26:52,1709.2123349948076,68.000002176,0.0,0.409433013101856,1709.2123349948076,68.000002176,0.503999582744,0.46123401475948805,1684,-27.0,98,P-GPS,
0.343865002766613,36.9120017510755,19200,2018-04-08 05:26:52,1710.2123350268078,69.000002208,0.0,0.402671012885472,1710.2123350268078,69.000002208,0.503999582744,0.46123401475948805,1684,-27.0,98,P-GPS,
0.3438650685128,36.912001710491,19300,2018-04-08 05:26:52,1710.7123350428078,69.500002224,0.0,0.39411701261174403,1710.7123350428078,69.500002224,0.503999582744,0.46123401475948805,1684,-27.0,98,P-GPS,
0.343865188789674,36.9120016230738,19500,2018-04-08 05:26:53,1711.8123350780077,70.60000225920001,0.0,0.377833012090656,1711.8123350780077,70.60000225920001,0.503999582744,0.46123401475948805,1684,-27.0,98,P-GPS,
0.343865237428853,36.9120015878722,19600,2018-04-08 05:26:53,1712.3123350940077,71.1000022752,0.0,0.371262011880384,1712.3123350940077,71.1000022752,0.503999582744,0.46123401475948805,1684,-27.0,98,P-GPS,
0.343865289517077,36.9120015461454,19700,2018-04-08 05:26:53,1712.8123351100076,71.6000022912,0.0,0.364037011649184,1712.8123351100076,71.6000022912,0.503999582744,0.46123401475948805,1684,-27.0,98,P-GPS,
0.343865314526517,36.9120015168474,19800,2018-04-08 05:26:53,1713.3123351260078,72.1000023072,0.0,0.36013301152425603,1713.3123351260078,72.1000023072,0.503999582744,0.46123401475948805,1684,-27.0,98,P-GPS,
0.343865354820938,36.9120014915388,19900,2018-04-08 05:26:53,1713.8123351420077,72.6000023232,0.0,0.35488201135622405,1713.8123351420077,72.6000023232,0.503999582744,0.46123401475948805,1684,-27.0,98,P-GPS,
0.343865392424153,36.9120014584393,20000,2018-04-08 05:26:53,1714.3123351580075,73.1000023392,0.0,0.34954201118534406,1714.3123351580075,73.1000023392,0.503999582744,0.46123401475948805,1684,-27.0,98,P-GPS,
0.343865423684171,36.9120013853571,20100,2018-04-08 05:26:53,1714.8123351740078,73.6000023552,0.0,0.34303901097724804,1714.8123351740078,73.6000023552,0.503999582744,0.46123401475948805,1684,-27.0,98,P-GPS,
0.343865432665243,36.9120013152341,20200,2018-04-08 05:26:53,1715.2123351868079,74.00000236800001,0.0,0.33905601084979203,1715.2123351868079,74.00000236800001,0.503999582744,0.46123401475948805,1684,-27.0,98,P-GPS,
0.34386545392519,36.9120012777504,20300,2018-04-08 05:26:53,1715.7123352028077,74.50000238400001,0.0,0.335286010729152,1715.7123352028077,74.50000238400001,0.503999582744,0.46123401475948805,1684,-27.0,98,P-GPS,
0.343865462113414,36.9120012486757,20400,2018-04-08 05:26:53,1716.2123352188075,75.0000024,0.0,0.333238010663616,1716.2123352188075,75.0000024,0.503999582744,0.46123401475948805,1684,-27.0,98,P-GPS,
0.343865501496518,36.9120012161723,20500,2018-04-08 05:26:54,1716.7123352348078,75.500002416,0.0,0.327839010490848,1716.7123352348078,75.500002416,0.503999582744,0.46123401475948805,1684,-27.0,98,P-GPS,
0.343865526353494,36.9120011766852,20600,2018-04-08 05:26:54,1717.2123352508077,76.000002432,0.0,0.323683010357856,1717.2123352508077,76.000002432,0.503999582744,0.46123401475948805,1684,-27.0,98,P-GPS,
0.343865579093503,36.9120011243165,20700,2018-04-08 05:26:54,1717.7123352668077,76.500002448,0.0,0.31615301011689606,1717.7123352668077,76.500002448,0.503999582744,0.46123401475948805,1684,-27.0,98,P-GPS,
0.343865613432094,36.9120010687959,20800,2018-04-08 05:26:54,1718.2123352828078,77.000002464,0.0,0.31047400993516805,1718.2123352828078,77.000002464,0.503999582744,0.46123401475948805,1684,-27.0,98,P-GPS,
0.34386568394494,36.9120010143201,20900,2018-04-08 05:26:54,1718.7123352988078,77.50000248,0.0,0.301086009634752,1718.7123352988078,77.50000248,0.503999582744,0.46123401475948805,1684,-27.0,98,P-GPS,
0.34386572422837,36.9120009712146,21000,2018-04-08 05:26:54,1719.2123353148077,78.00000249600001,0.0,0.29532000945024,1719.2123353148077,78.00000249600001,0.503999582744,0.46123401475948805,1660,-27.0,98,P-GPS,
0.343865756914295,36.912000934739,21100,2018-04-08 05:26:54,1719.7123353308075,78.500002512,0.0,0.29061700929974404,1719.7123353308075,78.500002512,0.503999582744,0.46123401475948805,1556,-27.0,98,P-GPS,
0.343865769684349,36.9120009046767,21200,2018-04-08 05:26:54,1720.2123353468078,79.000002528,0.0,0.288266009224512,1720.2123353468078,79.000002528,0.503999582744,0.46123401475948805,1448,-27.0,98,P-GPS,
0.343865812905492,36.9120008727933,21300,2018-04-08 05:26:54,1720.6123353596076,79.4000025408,0.0,0.282639009044448,1720.6123353596076,79.4000025408,0.503999582744,0.46123401475948805,1271,-27.0,98,P-GPS,
0.343865821923204,36.9120008457179,21400,2018-04-08 05:26:54,1721.0123353724077,79.80000255360001,0.0,0.280828008986496,1721.0123353724077,79.80000255360001,0.503999582744,0.46123401475948805,1080,-27.0,98,P-GPS,
0.343865848065226,36.9120007989623,21500,2018-04-08 05:26:55,1721.3123353820079,80.1000025632,0.0,0.27662400885196803,1721.3123353820079,80.1000025632,0.503999582744,0.46123401475948805,1024,-27.0,98,P-GPS,
0.34386585322719,36.9120007627233,21600,2018-04-08 05:26:55,1721.6123353916075,80.4000025728,0.0,0.27503600880115203,1721.6123353916075,80.4000025728,0.503999582744,0.46123401475948805,1024,-27.0,98,P-GPS,
0.343865873524523,36.912000721379,21700,2018-04-08 05:26:55,1721.7123353948077,80.500002576,0.0,0.27173000869536,1721.7123353948077,80.500002576,0.503999582744,0.46123401475948805,1024,-27.0,98,P-GPS,
0.343865880532939,36.9120006905164,21800,2018-04-08 05:26:55,1721.8123353980077,80.6000025792,0.0,0.27018100864579203,1721.8123353980077,80.6000025792,0.503999582744,0.46123401475948805,1024,-27.0,98,P-GPS,
0.343865905073793,36.9120006399337,21900,2018-04-08 05:26:55,1721.9123354012077,80.7000025824,0.0,0.266303008521696,1721.9123354012077,80.7000025824,0.503999582744,0.46123401475948805,1024,-27.0,98,P-GPS,
0.343865930795677,36.9120006043906,22000,2018-04-08 05:26:55,1721.9123354012077,80.7000025824,0.0,0.26270800840665604,1721.9123354012077,80.7000025824,0.503999582744,0.46123401475948805,1024,-27.0,98,P-GPS,
0.343866015303371,36.9120005904674,22100,2018-04-08 05:26:55,1721.9123354012077,80.7000025824,0.0,0.25318900810204803,1721.9123354012077,80.7000025824,0.503999582744,0.46123401475948805,1024,-27.0,98,P-GPS,
0.343866099016792,36.9120005922204,22200,2018-04-08 05:26:55,1721.9123354012077,80.7000025824,0.0,0.244106007811392,1721.9123354012077,80.7000025824,0.503999582744,0.46123401475948805,1024,-27.0,98,P-GPS,
0.343866187134339,36.9120005377387,22300,2018-04-08 05:26:55,1721.9123354012077,80.7000025824,0.0,0.23331100746595201,1721.9123354012077,80.7000025824,0.503999582744,0.46123401475948805,1024,-27.0,98,P-GPS,
0.343866268636536,36.912000489902,22400,2018-04-08 05:26:55,1721.9123354012077,80.7000025824,0.0,0.22344000715008,1721.9123354012077,80.7000025824,0.503999582744,0.46123401475948805,1024,-27.0,98,P-GPS,
0.343866450016903,36.9120004284573,22600,2018-04-08 05:26:56,1721.9123354012077,80.7000025824,0.0,0.202422006477504,1721.9123354012077,80.7000025824,0.503999582744,0.46123401475948805,1024,-27.0,98,P-GPS,
0.343866567162584,36.9120004203977,22700,2018-04-08 05:26:56,1721.9123354012077,80.7000025824,0.0,0.18941800606137602,1721.9123354012077,80.7000025824,0.503999582744,0.46123401475948805,1024,-27.0,98,P-GPS,
0.343866627658668,36.9120004269769,22800,2018-04-08 05:26:56,1721.9123354012077,80.7000025824,0.7199994039200001,0.18290600585299202,1721.9123354012077,80.7000025824,0.7199994039200001,0.46123401475948805,1024,-27.0,98,P-GPS,
0.34386643062295,36.912000391849,22900,2018-04-08 05:26:56,1721.9123354012077,80.7000025824,2.15999821176,0.20396500652688002,1721.9123354012077,80.7000025824,2.15999821176,0.46123401475948805,1024,-27.0,98,P-GPS,
0.343865748092606,36.9120002796986,23000,2018-04-08 05:26:56,1721.9123354012077,80.7000025824,4.31999642352,0.27841500890928,1721.9123354012077,80.7000025824,4.31999642352,0.46123401475948805,1024,-27.0,98,P-GPS,
0.343864465308035,36.9120000473927,23100,2018-04-08 05:26:56,1721.9123354012077,80.7000025824,6.11999493332,0.420806013465792,1721.9123354012077,80.7000025824,6.11999493332,0.46123401475948805,1024,-27.0,98,P-GPS,
0.343862752083987,36.9119997763568,23200,2018-04-08 05:26:56,1721.9123354012077,80.7000025824,6.11999493332,0.61256001960192,1721.9123354012077,80.7000025824,6.11999493332,0.61256001960192,1024,-27.0,98,P-GPS,
0.343860549198228,36.9119993791146,23300,2018-04-08 05:26:56,1721.9123354012077,80.7000025824,9.395992221156,0.860387027532384,1721.9123354012077,80.7000025824,9.395992221156,0.860387027532384,1024,-27.0,98,P-GPS,
0.343858038388365,36.9119989654063,23400,2018-04-08 05:26:56,1722.0123354044076,80.80000258560001,9.395992221156,1.14293003657376,1722.0123354044076,80.80000258560001,9.395992221156,1.14293003657376,1024,-27.0,98,P-GPS,
0.343855272925687,36.9119985026508,23500,2018-04-08 05:26:57,1722.0123354044076,80.80000258560001,11.915990134876,1.45443004654176,1722.0123354044076,80.80000258560001,11.915990134876,1.45443004654176,1024,-27.0,98,P-GPS,
0.343852266979285,36.9119980387153,23600,2018-04-08 05:26:57,1722.0123354044076,80.80000258560001,11.915990134876,1.79256005736192,1722.0123354044076,80.80000258560001,11.915990134876,1.79256005736192,1024,-27.0,98,P-GPS,
0.343848964371097,36.9119975030241,23700,2018-04-08 05:26:57,1722.1123354076078,80.9000025888,13.751988614872,2.164500069264,1722.1123354076078,80.9000025888,13.751988614872,2.164500069264,1024,-27.0,98,P-GPS,
0.343845428628353,36.9119969619707,23800,2018-04-08 05:26:57,1722.1123354076078,80.9000025888,13.751988614872,2.56223008199136,1722.1123354076078,80.9000025888,13.751988614872,2.56223008199136,1024,-27.0,98,P-GPS,
0.343841700896948,36.9119964067858,23900,2018-04-08 05:26:57,1722.1123354076078,80.9000025888,15.587987094868001,2.98133009540256,1722.1123354076078,80.9000025888,15.587987094868001,2.98133009540256,1024,-27.0,98,P-GPS,
0.343833566553747,36.9119953100242,24100,2018-04-08 05:26:57,1722.2123354108078,81.000002592,17.387985604668,3.89409012461088,1722.2123354108078,81.000002592,17.387985604668,3.89409012461088,1024,-27.0,98,P-GPS,
0.343829144198155,36.9119947458485,24200,2018-04-08 05:26:57,1722.2123354108078,81.000002592,17.387985604668,4.38984014047488,1722.2123354108078,81.000002592,17.387985604668,4.38984014047488,1024,-27.0,98,P-GPS,
0.343824510581267,36.911994106365,24300,2018-04-08 05:26:57,1722.2123354108078,81.000002592,19.187984114467998,4.91001015712032,1722.2123354108078,81.000002592,19.187984114467998,4.91001015712032,1024,-27.0,98,P-GPS,
0.343819635716914,36.9119934401653,24400,2018-04-08 05:26:57,1722.2123354108078,81.000002592,20.267983220348,5.45717017462944,1722.2123354108078,81.000002592,20.267983220348,5.45717017462944,1024,-27.0,98,P-GPS,
0.343814601932711,36.9119927502167,24500,2018-04-08 05:26:58,1722.2123354108078,81.000002592,20.987982624268,6.022190192710081,1722.2123354108078,81.000002592,20.987982624268,6.022190192710081,1024,-27.0,98,P-GPS,
0.343809330988439,36.9119920494323,24600,2018-04-08 05:26:58,1722.2123354108078,81.000002592,22.103981700344,6.613500211632001,1722.2123354108078,81.000002592,22.103981700344,6.613500211632001,1024,-27.0,98,P-GPS,
0.343803779968084,36.9119912579924,24700,2018-04-08 05:26:58,1722.2123354108078,81.000002592,22.823981104264,7.23704023158528,1722.2123354108078,81.000002592,22.823981104264,7.23704023158528,1024,-27.0,98,P-GPS,
0.343797988126916,36.9119904526028,24800,2018-04-08 05:26:58,1722.3123354140075,81.1000025952,22.823981104264,7.88733025239456,1722.3123354140075,81.1000025952,22.823981104264,7.88733025239456,1024,-27.0,98,P-GPS,
0.343791899466005,36.9119895892597,24900,2018-04-08 05:26:58,1722.3123354140075,81.1000025952,24.65997958426,8.57119027427808,1722.3123354140075,81.1000025952,24.65997958426,8.57119027427808,1024,-27.0,98,P-GPS,
0.343785623201831,36.9119887144101,25000,2018-04-08 05:26:58,1722.3123354140075,81.1000025952,25.37997898818,9.2759002968288,1722.3123354140075,81.1000025952,25.37997898818,9.2759002968288,1024,-27.0,98,P-GPS,
0.3437723676221,36.9119867466176,25200,2018-04-08 05:26:58,1722.4123354172075,81.2000025984,27.17997749798,10.766100344515202,1722.4123354172075,81.2000025984,27.17997749798,10.766100344515202,1024,-27.0,98,P-GPS,
0.343765441862808,36.9119857286714,25300,2018-04-08 05:26:58,1722.4123354172075,81.2000025984,27.17997749798,11.544500369424,1722.4123354172075,81.2000025984,27.17997749798,11.544500369424,1024,-27.0,98,P-GPS,
0.343758384955151,36.9119847274525,25400,2018-04-08 05:26:59,1722.4123354172075,81.2000025984,28.655976276016,12.3372003947904,1722.4123354172075,81.2000025984,28.655976276016,12.3372003947904,1024,-27.0,98,P-GPS,
0.343751049309992,36.9119836502691,25500,2018-04-08 05:26:59,1722.4123354172075,81.2000025984,28.655976276016,13.161700421174402,1722.4123354172075,81.2000025984,28.655976276016,13.161700421174402,1024,-27.0,98,P-GPS,
0.343743594723284,36.9119825763875,25600,2018-04-08 05:26:59,1722.4123354172075,81.2000025984,30.095975083855997,13.9992004479744,1722.4123354172075,81.2000025984,30.095975083855997,13.9992004479744,1024,-27.0,98,P-GPS,
0.343735842391875,36.9119814326159,25700,2018-04-08 05:26:59,1722.4123354172075,81.2000025984,30.095975083855997,14.8706004758592,1722.4123354172075,81.2000025984,30.095975083855997,14.8706004758592,1024,-27.0,98,P-GPS,
0.343727980759305,36.9119803041328,25800,2018-04-08 05:26:59,1722.3123354140075,81.1000025952,31.571973861891998,15.753900504124802,1722.4123354172075,81.2000025984,31.571973861891998,15.753900504124802,1024,-27.0,98,P-GPS,
0.343719824743142,36.9119790672657,25900,2018-04-08 05:26:59,1722.3123354140075,81.1000025952,32.291973265812,16.6712005334784,1722.4123354172075,81.2000025984,32.291973265812,16.6712005334784,1024,-27.0,98,P-GPS,
0.34371157905834,36.9119778367174,26000,2018-04-08 05:26:59,1722.3123354140075,81.1000025952,33.047972639928,17.5983005631456,1722.4123354172075,81.2000025984,33.047972639928,17.5983005631456,1024,-27.0,98,P-GPS,
0.343702857164403,36.9119765222777,26100,2018-04-08 05:26:59,1722.2123354108078,81.000002592,33.767972043848005,18.5791005945312,1722.4123354172075,81.2000025984,33.767972043848005,18.5791005945312,1024,-27.0,98,P-GPS,
0.343694074431798,36.9119752242912,26200,2018-04-08 05:26:59,1722.2123354108078,81.000002592,34.523971417964,19.566400626124803,1722.4123354172075,81.2000025984,34.523971417964,19.566400626124803,1024,-27.0,98,P-GPS,
0.343685509910689,36.9119739094211,26300,2018-04-08 05:26:59,1722.2123354108078,81.000002592,34.523971417964,20.53000065696,1722.4123354172075,81.2000025984,34.523971417964,20.53000065696,1024,-27.0,98,P-GPS,
0.343676946588114,36.9119725869025,26400,2018-04-08 05:27:00,1722.2123354108078,81.000002592,35.63997049404,21.493500687792,1722.4123354172075,81.2000025984,35.63997049404,21.493500687792,1024,-27.0,98,P-GPS,
0.343667430234975,36.9119710490206,26500,2018-04-08 05:27:00,1722.1123354076078,80.9000025888,35.63997049404,22.5653007220896,1722.4123354172075,81.2000025984,35.63997049404,22.5653007220896,1024,-27.0,98,P-GPS,
0.343657759296904,36.9119695315811,26600,2018-04-08 05:27:00,1722.2123354108078,81.000002592,37.07996930188,23.653900756924802,1722.4123354172075,81.2000025984,37.07996930188,23.653900756924802,1024,-27.0,98,P-GPS,
0.343647922700482,36.9119679800682,26700,2018-04-08 05:27:00,1722.1123354076078,80.9000025888,37.835968675996,24.7612007923584,1722.4123354172075,81.2000025984,37.835968675996,24.7612007923584,1024,-27.0,98,P-GPS,
0.343638136325272,36.9119664694785,26800,2018-04-08 05:27:00,1722.1123354076078,80.9000025888,38.555968079916,25.8624008275968,1722.4123354172075,81.2000025984,38.555968079916,25.8624008275968,1024,-27.0,98,P-GPS,
0.343628117694867,36.9119649040004,26900,2018-04-08 05:27:00,1722.1123354076078,80.9000025888,38.87996781168,26.990000863680002,1722.4123354172075,81.2000025984,38.87996781168,26.990000863680002,1024,-27.0,98,P-GPS,
0.343618102607955,36.9119633655383,27000,2018-04-08 05:27:00,1722.1123354076078,80.9000025888,39.599967215599996,28.1168008997376,1722.4123354172075,81.2000025984,39.599967215599996,28.1168008997376,1024,-27.0,98,P-GPS,
0.343608052476929,36.911961803377,27100,2018-04-08 05:27:00,1722.1123354076078,80.9000025888,39.95996691756,29.2478009359296,1722.4123354172075,81.2000025984,39.95996691756,29.2478009359296,1024,-27.0,98,P-GPS,
0.343597970610786,36.9119602567546,27200,2018-04-08 05:27:00,1722.1123354076078,80.9000025888,39.95996691756,30.3821009722272,1722.4123354172075,81.2000025984,39.95996691756,30.3821009722272,1024,-27.0,98,P-GPS,
0.343587863497247,36.9119587061281,27300,2018-04-08 05:27:00,1722.1123354076078,80.9000025888,41.075965993636,31.519201008614402,1722.4123354172075,81.2000025984,41.075965993636,31.519201008614402,1024,-27.0,98,P-GPS,
0.343577673971414,36.9119571581525,27400,2018-04-08 05:27:00,1722.1123354076078,80.9000025888,41.435965695596,32.6653010452896,1722.4123354172075,81.2000025984,41.435965695596,32.6653010452896,1024,-27.0,98,P-GPS,
0.343566956517065,36.9119554855184,27500,2018-04-08 05:27:01,1722.0123354044076,80.80000258560001,41.795965397555996,33.871501083888,1722.4123354172075,81.2000025984,41.795965397555996,33.871501083888,1024,-27.0,98,P-GPS,
0.343556148260679,36.9119538157151,27600,2018-04-08 05:27:01,1722.0123354044076,80.80000258560001,42.551964771672004,35.0877011228064,1722.4123354172075,81.2000025984,42.551964771672004,35.0877011228064,1024,-27.0,98,P-GPS,
0.343545172938967,36.9119520714996,27700,2018-04-08 05:27:01,1722.0123354044076,80.80000258560001,42.911964473632,36.323501162352,1722.4123354172075,81.2000025984,42.911964473632,36.323501162352,1024,-27.0,98,P-GPS,
0.343534243969284,36.9119503531074,27800,2018-04-08 05:27:01,1722.0123354044076,80.80000258560001,42.911964473632,37.553701201718404,1722.4123354172075,81.2000025984,42.911964473632,37.553701201718404,1024,-27.0,98,P-GPS,
0.343523180086273,36.9119485898221,27900,2018-04-08 05:27:01,1722.0123354044076,80.80000258560001,43.271964175592004,38.799601241587204,1722.4123354172075,81.2000025984,43.271964175592004,38.799601241587204,1024,-27.0,98,P-GPS,
0.343512152107195,36.9119468550365,28000,2018-04-08 05:27:01,1722.0123354044076,80.80000258560001,43.271964175592004,40.041001281312,1722.4123354172075,81.2000025984,43.271964175592004,40.041001281312,1024,-27.0,98,P-GPS,
0.343501239500118,36.9119451032025,28100,2018-04-08 05:27:01,1722.0123354044076,80.80000258560001,44.027963549708,41.27000132064,1722.4123354172075,81.2000025984,44.027963549708,41.27000132064,1024,-27.0,98,P-GPS,
0.343490336403154,36.9119433762796,28200,2018-04-08 05:27:01,1721.9123354012077,80.7000025824,44.027963549708,42.4976013599232,1722.4123354172075,81.2000025984,44.027963549708,42.4976013599232,1024,-27.0,98,P-GPS,
0.343479161264849,36.9119415733215,28300,2018-04-08 05:27:01,1721.9123354012077,80.7000025824,44.387963251668,43.7563014002016,1722.4123354172075,81.2000025984,44.387963251668,43.7563014002016,1024,-27.0,98,P-GPS,
0.343467940191396,36.9119397934073,28400,2018-04-08 05:27:01,1721.9123354012077,80.7000025824,44.387963251668,45.0197014406304,1722.4123354172075,81.2000025984,44.387963251668,45.0197014406304,1024,-27.0,98,P-GPS,
0.343456820263856,36.91193801581,28500,2018-04-08 05:27:02,1721.8123353980077,80.6000025792,44.747962953628,46.272001480704006,1722.4123354172075,81.2000025984,44.747962953628,46.272001480704006,1024,-27.0,98,P-GPS,
0.343434352348452,36.911934460611,28700,2018-04-08 05:27:02,1721.8123353980077,80.6000025792,45.107962655588,48.801601561651204,1722.4123354172075,81.2000025984,45.107962655588,48.801601561651204,1024,-27.0,98,P-GPS,
0.34341143750985,36.9119308391536,28900,2018-04-08 05:27:02,1721.7123353948077,80.500002576,45.503962327744,51.3814016442048,1722.4123354172075,81.2000025984,45.503962327744,51.3814016442048,1024,-27.0,98,P-GPS,
0.343399970658602,36.9119290345339,29000,2018-04-08 05:27:02,1721.7123353948077,80.500002576,45.503962327744,52.6723016855136,1722.4123354172075,81.2000025984,45.503962327744,52.6723016855136,1024,-27.0,98,P-GPS,
0.343388224652969,36.9119271719638,29100,2018-04-08 05:27:02,1721.7123353948077,80.500002576,45.827962059507996,53.994801727833604,1722.4123354172075,81.2000025984,45.827962059507996,53.994801727833604,1024,-27.0,98,P-GPS,
0.343376542482342,36.9119253468438,29200,2018-04-08 05:27:02,1721.7123353948077,80.500002576,45.827962059507996,55.309701769910404,1722.4123354172075,81.2000025984,45.827962059507996,55.309701769910404,1024,-27.0,98,P-GPS,
0.34336500460488,36.9119235328755,29300,2018-04-08 05:27:02,1721.7123353948077,80.500002576,45.827962059507996,56.608501811472,1722.4123354172075,81.2000025984,45.827962059507996,56.608501811472,1024,-27.0,98,P-GPS,
0.343353521443136,36.9119217649179,29400,2018-04-08 05:27:03,1721.7123353948077,80.500002576,46.187961761468,57.90060185281921,1722.4123354172075,81.2000025984,46.187961761468,57.90060185281921,1024,-27.0,98,P-GPS,
0.343342343178219,36.9119200382863,29500,2018-04-08 05:27:03,1721.7123353948077,80.500002576,46.187961761468,59.158401893068806,1722.4123354172075,81.2000025984,46.187961761468,59.158401893068806,1024,-27.0,98,P-GPS,
0.343331190968405,36.9119183315424,29600,2018-04-08 05:27:03,1721.7123353948077,80.500002576,46.187961761468,60.413001933216,1722.4123354172075,81.2000025984,46.187961761468,60.413001933216,1024,-27.0,98,P-GPS,
0.343319658145633,36.9119165304128,29700,2018-04-08 05:27:03,1721.7123353948077,80.500002576,46.187961761468,61.7111019747552,1722.4123354172075,81.2000025984,46.187961761468,61.7111019747552,1024,-27.0,98,P-GPS,
0.34330802475016,36.9119147439379,29800,2018-04-08 05:27:03,1721.7123353948077,80.500002576,46.187961761468,63.019902016636806,1722.4123354172075,81.2000025984,46.187961761468,63.019902016636806,1024,-27.0,98,P-GPS,
0.34329632939565,36.9119129591075,29900,2018-04-08 05:27:03,1721.7123353948077,80.500002576,46.187961761468,64.3356020587392,1722.4123354172075,81.2000025984,46.187961761468,64.3356020587392,1024,-27.0,98,P-GPS,
0.343284701419639,36.9119112180267,30000,2018-04-08 05:27:03,1721.7123353948077,80.500002576,46.187961761468,65.6431021005792,1722.4123354172075,81.2000025984,46.187961761468,65.6431021005792,1024,-27.0,98,P-GPS,
0.343261441767791,36.9119076746003,30200,2018-04-08 05:27:03,1721.7123353948077,80.500002576,46.187961761468,68.2596021843072,1722.4123354172075,81.2000025984,46.187961761468,68.2596021843072,1024,-27.0,98,P-GPS,
0.343238598893386,36.9119042679387,30400,2018-04-08 05:27:03,1721.7123353948077,80.500002576,46.187961761468,70.8279022664928,1722.4123354172075,81.2000025984,46.187961761468,70.8279022664928,1024,-27.0,98,P-GPS,
0.343227040797163,36.9119025500689,30500,2018-04-08 05:27:03,1721.7123353948077,80.500002576,46.187961761468,72.1273023080736,1722.4123354172075,81.2000025984,46.187961761468,72.1273023080736,1024,-27.0,98,P-GPS,
0.343215481033414,36.9119008525495,30600,2018-04-08 05:27:04,1721.7123353948077,80.500002576,46.115961821076,73.4266023496512,1722.4123354172075,81.2000025984,46.187961761468,73.4266023496512,1024,-27.0,98,P-GPS,
0.343204079528366,36.9118991858467,30700,2018-04-08 05:27:04,1721.7123353948077,80.500002576,46.115961821076,74.708002390656,1722.4123354172075,81.2000025984,46.187961761468,74.708002390656,1024,-27.0,98,P-GPS,
0.343192728101228,36.911897545738,30800,2018-04-08 05:27:04,1721.7123353948077,80.500002576,46.115961821076,75.9834024314688,1722.4123354172075,81.2000025984,46.187961761468,75.9834024314688,1024,-27.0,98,P-GPS,
0.343181335507026,36.9118959255856,30900,2018-04-08 05:27:04,1721.7123353948077,80.500002576,46.115961821076,77.263002472416,1722.4123354172075,81.2000025984,46.187961761468,77.263002472416,1024,-27.0,98,P-GPS,
0.343169928165634,36.9118943273938,31000,2018-04-08 05:27:04,1721.7123353948077,80.500002576,45.755962119116,78.54390251340482,1722.4123354172075,81.2000025984,46.187961761468,78.54390251340482,1024,-27.0,98,P-GPS,
0.343158519834149,36.9118926915076,31100,2018-04-08 05:27:04,1721.7123353948077,80.500002576,45.755962119116,79.825502554416,1722.4123354172075,81.2000025984,46.187961761468,79.825502554416,1024,-27.0,98,P-GPS,
0.343147117860109,36.9118910770509,31200,2018-04-08 05:27:04,1721.7123353948077,80.500002576,45.755962119116,81.1061025953952,1722.4123354172075,81.2000025984,46.187961761468,81.1061025953952,1024,-27.0,98,P-GPS,
