latitude,longitude,time_millisecond,datetime_utc,altitude_m,ascent_m,speed_kph,distance_m,max_altitude_m,max_ascent_m,max_speed_kph,max_distance_m,rc_throttle,gimbal_pitch_degrees,battery_percent,flycState,message
0.305868263980141,36.8800455250839,0,2018-04-14 11:52:35,1776.0447345334396,0.0,0.0,0.0,1776.0447345334396,0.0,0.0,0.0,364,0.0,99,Motors_Started,
0.305868263758469,36.8800455459604,100,2018-04-14 11:52:35,1776.0447345334396,0.0,0.0,0.00232169007429408,1776.0447345334396,0.0,0.0,0.00232169007429408,364,0.0,99,Motors_Started,
0.305868247197753,36.880045577481,200,2018-04-14 11:52:35,1776.0447345334396,0.0,0.0,0.0061183801957881605,1776.0447345334396,0.0,0.0,0.0061183801957881605,367,0.0,99,Motors_Started,
0.305868218259489,36.880045614639,300,2018-04-14 11:52:35,1776.0447345334396,0.0,0.0,0.011181800357817602,1776.0447345334396,0.0,0.0,0.011181800357817602,682,0.0,99,Motors_Started,
0.305868190262568,36.8800456448133,400,2018-04-14 11:52:35,1776.0447345334396,0.0,0.0,0.0156358005003456,1776.0447345334396,0.0,0.0,0.0156358005003456,1024,0.0,99,Motors_Started,
0.3058681735826189,36.88004566223629,500,2018-04-14 11:52:35,1776.0447345334396,0.0,0.0,0.0182669005845408,1776.0447345334396,0.0,0.0,0.0182669005845408,1024,0.0,99,Motors_Started,
0.305868160212687,36.8800456890993,600,2018-04-14 11:52:35,1776.0447345334396,0.0,0.0,0.0215831006906592,1776.0447345334396,0.0,0.0,0.0215831006906592,1024,0.0,99,Motors_Started,Setting new Return-To-Home altitude to 30m (98 ft). Setting new Maximum Flight Altitude to 150m (492 ft)
0.305868152307965,36.880045724039896,700,2018-04-14 11:52:36,1776.0447345334396,0.0,0.0,0.025371800811897598,1776.0447345334396,0.0,0.0,0.025371800811897598,1024,0.0,99,Motors_Started,
0.305868147311848,36.8800457512206,800,2018-04-14 11:52:36,1776.0447345334396,0.0,0.0,0.028297100905507203,1776.0447345334396,0.0,0.0,0.028297100905507203,1024,0.0,99,Motors_Started,
0.305868143941173,36.880045767395295,900,2018-04-14 11:52:36,1776.0447345334396,0.0,0.0,0.030071400962284802,1776.0447345334396,0.0,0.0,0.030071400962284802,1024,0.0,99,Motors_Started,
0.305868145448552,36.88004579138,1000,2018-04-14 11:52:36,1776.0447345334396,0.0,0.0,0.032414501037264,1776.0447345334396,0.0,0.0,0.032414501037264,1024,0.0,99,Motors_Started,
0.305868148150242,36.8800458237629,1100,2018-04-14 11:52:36,1776.0447345334396,0.0,0.0,0.0356247011399904,1776.0447345334396,0.0,0.0,0.0356247011399904,1024,0.0,99,Motors_Started,
0.305868180452516,36.8800458488209,1200,2018-04-14 11:52:36,1776.0447345334396,0.0,0.0,0.037180001189760004,1776.0447345334396,0.0,0.0,0.037180001189760004,1024,0.0,99,Motors_Started,
0.305868219215793,36.8800458649466,1300,2018-04-14 11:52:36,1776.0447345334396,0.0,0.0,0.0381207012198624,1776.0447345334396,0.0,0.0,0.0381207012198624,1024,0.0,99,Motors_Started,
0.305868254458883,36.8800458895434,1400,2018-04-14 11:52:36,1776.0447345334396,0.0,0.0,0.0405434012973888,1776.0447345334396,0.0,0.0,0.0405434012973888,1024,0.0,99,Motors_Started,
0.305868274356789,36.8800459226161,1500,2018-04-14 11:52:37,1776.0447345334396,0.0,0.0,0.0442224014151168,1776.0447345334396,0.0,0.0,0.0442224014151168,1024,0.0,99,Assisted_Takeoff,
0.30586830499871104,36.8800459514037,1600,2018-04-14 11:52:37,1776.0447345334396,0.0,0.0,0.047627601524083206,1776.0447345334396,0.0,0.0,0.047627601524083206,1024,0.0,99,Assisted_Takeoff,
0.305868331206177,36.8800459643777,1700,2018-04-14 11:52:37,1776.0447345334396,0.0,0.0,0.0494202015814464,1776.0447345334396,0.0,0.0,0.0494202015814464,1024,0.0,99,Assisted_Takeoff,
0.30586834323488205,36.8800459697796,1800,2018-04-14 11:52:37,1776.0447345334396,0.0,0.0,0.0502314016074048,1776.0447345334396,0.0,0.0,0.0502314016074048,1024,0.0,99,Assisted_Takeoff,
0.30586835196970297,36.8800459726049,1900,2018-04-14 11:52:37,1776.0447345334396,0.0,0.0,0.0507192016230144,1776.0447345334396,0.0,0.0,0.0507192016230144,1024,0.0,99,Assisted_Takeoff,
0.3058683415356,36.880045984031604,2000,2018-04-14 11:52:37,1776.0447345334396,0.0,0.0,0.051760701656342396,1776.0447345334396,0.0,0.0,0.051760701656342396,1024,0.0,99,Assisted_Takeoff,
0.305868317352698,36.8800460114025,2100,2018-04-14 11:52:37,1776.0447345334396,0.0,0.0,0.054405601740979206,1776.0447345334396,0.0,0.0,0.054405601740979206,1024,0.0,99,Assisted_Takeoff,
0.305868300995843,36.8800460521551,2200,2018-04-14 11:52:37,1776.0447345334396,0.0,0.0,0.05875710188022721,1776.0447345334396,0.0,0.0,0.05875710188022721,1024,0.0,99,Assisted_Takeoff,
0.305868314791919,36.8800460939768,2300,2018-04-14 11:52:37,1776.0447345334396,0.0,0.0,0.06351530203248959,1776.0447345334396,0.0,0.0,0.06351530203248959,1024,0.0,99,Assisted_Takeoff,
0.305868326146906,36.880046130303,2400,2018-04-14 11:52:37,1776.0447345334396,0.0,0.0,0.0676572021650304,1776.0447345334396,0.0,0.0,0.0676572021650304,1024,0.0,99,Assisted_Takeoff,
0.305868332740578,36.880046151310104,2500,2018-04-14 11:52:37,1776.0447345334396,0.0,0.0,0.0700577022418464,1776.0447345334396,0.0,0.0,0.0700577022418464,1024,0.0,99,Assisted_Takeoff,
0.30586833610809805,36.8800461817856,2600,2018-04-14 11:52:38,1776.0447345334396,0.0,0.0,0.07346740235095679,1776.0447345334396,0.0,0.0,0.07346740235095679,1024,0.0,99,Assisted_Takeoff,
0.30586834148537295,36.8800462172108,2700,2018-04-14 11:52:38,1776.0447345334396,0.0,0.0,0.07744870247835842,1776.0447345334396,0.0,0.0,0.07744870247835842,1024,0.0,99,Assisted_Takeoff,
0.305868340865241,36.880046244887204,2800,2018-04-14 11:52:38,1776.0447345334396,0.0,0.0,0.0805007025760224,1776.0447345334396,0.0,0.0,0.0805007025760224,1024,0.0,99,Assisted_Takeoff,
0.305868341676715,36.8800462607094,2900,2018-04-14 11:52:38,1776.0447345334396,0.0,0.0,0.08225990263231679,1776.0447345334396,0.0,0.0,0.08225990263231679,1024,0.0,99,Assisted_Takeoff,
0.30586834123861306,36.8800463186358,3100,2018-04-14 11:52:38,1776.0447345334396,0.0,0.0,0.08866380283724162,1776.0447345334396,0.0,0.0,0.08866380283724162,1024,0.0,99,Assisted_Takeoff,
0.305868335799101,36.8800463438798,3200,2018-04-14 11:52:38,1776.0447345334396,0.0,0.0,0.09140340292490881,1776.0447345334396,0.0,0.0,0.09140340292490881,1024,0.0,99,Assisted_Takeoff,
0.30586833540115005,36.8800463584061,3300,2018-04-14 11:52:38,1776.0447345334396,0.0,0.0,0.09300890297628481,1776.0447345334396,0.0,0.0,0.09300890297628481,1024,0.0,99,Assisted_Takeoff,
0.305868334588251,36.8800463626965,3400,2018-04-14 11:52:38,1776.0447345334396,0.0,0.0,0.0934767029912544,1776.0447345334396,0.0,0.0,0.0934767029912544,1024,0.0,99,Assisted_Takeoff,
0.305868333738967,36.8800463648173,3500,2018-04-14 11:52:38,1776.0447345334396,0.0,0.0,0.09370380299852162,1776.0447345334396,0.0,0.0,0.09370380299852162,1024,0.0,99,Assisted_Takeoff,
0.305868330670571,36.8800463572943,3600,2018-04-14 11:52:38,1776.0447345334396,0.0,0.0,0.0928422029709504,1776.0447345334396,0.0,0.0,0.09370380299852162,1024,0.0,99,Assisted_Takeoff,
0.305868332323645,36.8800463517765,3700,2018-04-14 11:52:39,1776.0447345334396,0.0,0.0,0.09224560295185921,1776.0447345334396,0.0,0.0,0.09370380299852162,1024,0.0,99,Assisted_Takeoff,
0.305868328932309,36.8800463593985,3800,2018-04-14 11:52:39,1776.0447345334396,0.0,0.0,0.09306030297792961,1776.0447345334396,0.0,0.0,0.09370380299852162,1024,0.0,99,Assisted_Takeoff,
0.30586832959305,36.880046381263206,3900,2018-04-14 11:52:39,1776.0447345334396,0.0,0.0,0.09549020305568641,1776.0447345334396,0.0,0.0,0.09549020305568641,1024,0.0,99,Assisted_Takeoff,
0.305868349194732,36.88004639965,4000,2018-04-14 11:52:39,1776.0447345334396,0.0,0.0,0.0977163031269216,1776.0447345334396,0.0,0.0,0.0977163031269216,1024,0.0,99,Assisted_Takeoff,
0.305868379911359,36.88004641006629,4100,2018-04-14 11:52:39,1776.0447345334396,0.0,0.0,0.0992549031761568,1776.0447345334396,0.0,0.0,0.0992549031761568,1024,0.0,99,Assisted_Takeoff,
0.30586840762340506,36.880046415980296,4200,2018-04-14 11:52:39,1776.0447345334396,0.0,0.0,0.100351003211232,1776.0447345334396,0.0,0.0,0.100351003211232,1024,0.0,99,Assisted_Takeoff,
0.30586842855715396,36.880046417639704,4300,2018-04-14 11:52:39,1776.0447345334396,0.0,0.0,0.100929003229728,1776.0447345334396,0.0,0.0,0.100929003229728,1024,0.0,99,Assisted_Takeoff,
0.305868444548271,36.880046415169296,4400,2018-04-14 11:52:39,1776.0447345334396,0.0,0.0,0.100998003231936,1776.0447345334396,0.0,0.0,0.100998003231936,1024,0.0,99,Assisted_Takeoff,
0.305868455431009,36.8800464129211,4500,2018-04-14 11:52:39,1776.0447345334396,0.0,0.0,0.10100100323203201,1776.0447345334396,0.0,0.0,0.10100100323203201,1024,0.0,99,Assisted_Takeoff,
0.305868461837104,36.8800464074364,4600,2018-04-14 11:52:39,1776.0447345334396,0.0,0.0,0.10055800321785599,1776.0447345334396,0.0,0.0,0.10100100323203201,1024,0.0,99,Assisted_Takeoff,
0.30586846884175395,36.8800464035855,4700,2018-04-14 11:52:40,1776.0447345334396,0.0,0.0,0.10031500321008001,1776.0447345334396,0.0,0.0,0.10100100323203201,1024,0.0,99,Assisted_Takeoff,
0.30586846600307105,36.880046417648295,4800,2018-04-14 11:52:40,1776.0447345334396,0.0,0.0,0.101768003256576,1776.0447345334396,0.0,0.0,0.101768003256576,1024,0.0,99,Assisted_Takeoff,
0.305868468471487,36.8800464433703,4900,2018-04-14 11:52:40,1776.0447345334396,0.0,0.0,0.104619003347808,1776.0447345334396,0.0,0.0,0.104619003347808,1066,0.0,99,Assisted_Takeoff,
0.30586846493725395,36.8800464697929,5000,2018-04-14 11:52:40,1776.0447345334396,0.0,0.0,0.10740700343702402,1776.0447345334396,0.0,0.0,0.10740700343702402,1154,0.0,99,Assisted_Takeoff,
0.305868464437729,36.8800464847635,5100,2018-04-14 11:52:40,1776.0447345334396,0.0,0.0,0.10902400348876802,1776.0447345334396,0.0,0.0,0.10902400348876802,1234,0.0,99,Assisted_Takeoff,
0.30586845571161,36.8800464967135,5200,2018-04-14 11:52:40,1776.0447345334396,0.0,0.0,0.110133003524256,1776.0447345334396,0.0,0.0,0.110133003524256,1291,0.0,99,Assisted_Takeoff,
0.305868448363867,36.8800465035711,5300,2018-04-14 11:52:40,1776.0447345334396,0.0,0.0,0.11072700354326402,1776.0447345334396,0.0,0.0,0.11072700354326402,1329,0.0,99,Assisted_Takeoff,
0.305868434693284,36.8800465070891,5400,2018-04-14 11:52:40,1776.0447345334396,0.0,0.0,0.11084100354691201,1776.0447345334396,0.0,0.0,0.11084100354691201,1311,0.0,99,Assisted_Takeoff,
0.30586842403577896,36.8800465081383,5500,2018-04-14 11:52:40,1776.0447345334396,0.0,0.0,0.11076000354432002,1776.0447345334396,0.0,0.0,0.11084100354691201,1298,0.0,99,Assisted_Takeoff,
0.30586839517634196,36.880046520945704,5600,2018-04-14 11:52:41,1776.0447345334396,0.0,0.0,0.11170100357443201,1776.0447345334396,0.0,0.0,0.11170100357443201,1298,0.0,99,Assisted_Takeoff,
0.305868314492438,36.8800465653136,5700,2018-04-14 11:52:41,1776.0447345334396,0.0,0.0,0.11581500370608,1776.0447345334396,0.0,0.0,0.11581500370608,1304,0.0,99,Assisted_Takeoff,Home Point Recorded. RTH Altitude:  30m.
0.3058680401651189,36.880046672902004,5800,2018-04-14 11:52:41,1776.0447345334396,0.0,1.151999046272,0.130047004161504,1776.0447345334396,0.0,1.151999046272,0.130047004161504,1303,0.0,99,P-GPS,
0.30586761644772,36.8800468226685,5900,2018-04-14 11:52:41,1776.0447345334396,0.0,1.475998778036,0.161267005160544,1776.0447345334396,0.0,1.475998778036,0.161267005160544,1313,0.0,99,P-GPS,
0.305867128211239,36.8800469667019,6000,2018-04-14 11:52:41,1776.1447345366396,0.10000000320000002,1.475998778036,0.204092006530944,1776.1447345366396,0.10000000320000002,1.475998778036,0.204092006530944,1330,0.0,99,P-GPS,
0.305866643351759,36.880047047613296,6100,2018-04-14 11:52:41,1776.2447345398398,0.20000000640000004,1.4399988078400001,0.24728000791295998,1776.2447345398398,0.20000000640000004,1.475998778036,0.24728000791295998,1344,0.0,99,P-GPS,
0.305866151532462,36.8800470395277,6200,2018-04-14 11:52:41,1776.2447345398398,0.20000000640000004,1.4399988078400001,0.28904800924953605,1776.2447345398398,0.20000000640000004,1.475998778036,0.28904800924953605,1345,0.0,99,P-GPS,
0.30586570692307896,36.88004697157729,6300,2018-04-14 11:52:41,1776.4447345462395,0.4000000128000001,1.07999910588,0.32670401045452807,1776.4447345462395,0.4000000128000001,1.475998778036,0.32670401045452807,1352,0.0,99,P-GPS,
0.305865292692523,36.880046850035896,6400,2018-04-14 11:52:41,1776.5447345494395,0.500000016,1.07999910588,0.36178701157718396,1776.5447345494395,0.500000016,1.475998778036,0.36178701157718396,1358,0.0,99,P-GPS,
0.305864934405938,36.8800467128126,6500,2018-04-14 11:52:41,1776.6447345526396,0.6000000192,1.07999910588,0.393121012579872,1776.6447345526396,0.6000000192,1.475998778036,0.393121012579872,1360,0.0,99,P-GPS,
0.305864621785809,36.8800465523515,6600,2018-04-14 11:52:42,1776.8447345590396,0.8000000256000002,1.07999910588,0.42083601346675203,1776.8447345590396,0.8000000256000002,1.475998778036,0.42083601346675203,1372,0.0,99,P-GPS,
0.305864342923935,36.8800464095493,6700,2018-04-14 11:52:42,1777.0447345654397,1.000000032,1.07999910588,0.44700101430403205,1777.0447345654397,1.000000032,1.475998778036,0.44700101430403205,1387,0.0,99,P-GPS,
0.30586410204755204,36.88004627932,6800,2018-04-14 11:52:42,1777.2447345718394,1.2000000384,0.7199994039200001,0.470371015051872,1777.2447345718394,1.2000000384,1.475998778036,0.470371015051872,1406,0.0,99,P-GPS,
0.30586388052583696,36.880046167948706,6900,2018-04-14 11:52:42,1777.4447345782396,1.4000000448000003,0.7919993443119999,0.49268101576579204,1777.4447345782396,1.4000000448000003,1.475998778036,0.49268101576579204,1414,0.0,99,P-GPS,
0.305863649061657,36.8800460729055,7000,2018-04-14 11:52:42,1777.6447345846395,1.6000000512000003,0.7199994039200001,0.51681001653792,1777.6447345846395,1.6000000512000003,1.475998778036,0.51681001653792,1419,0.0,99,P-GPS,
0.30586340138346696,36.8800459806279,7100,2018-04-14 11:52:42,1777.8447345910397,1.8000000576000001,0.7199994039200001,0.543118017379776,1777.8447345910397,1.8000000576000001,1.475998778036,0.543118017379776,1419,0.0,99,P-GPS,
0.30586314001617,36.880045825437605,7200,2018-04-14 11:52:42,1778.0447345974394,2.000000064,0.7919993443119999,0.570794018265408,1778.0447345974394,2.000000064,1.475998778036,0.570794018265408,1434,0.0,99,P-GPS,
0.305862874532167,36.8800456190686,7300,2018-04-14 11:52:42,1778.2447346038396,2.2000000704,0.7919993443119999,0.5994310191817921,1778.2447346038396,2.2000000704,1.475998778036,0.5994310191817921,1452,0.0,99,P-GPS,
0.305862629954942,36.8800454072069,7400,2018-04-14 11:52:42,1778.5447346134397,2.50000008,0.7919993443119999,0.6266750200535999,1778.5447346134397,2.50000008,1.475998778036,0.6266750200535999,1463,0.0,99,P-GPS,
0.305862447893274,36.8800452267464,7500,2018-04-14 11:52:42,1778.7447346198396,2.7000000863999998,0.503999582744,0.6476350207243201,1778.7447346198396,2.7000000863999998,1.475998778036,0.6476350207243201,1458,0.0,99,P-GPS,
0.305862297550846,36.880045054569,7600,2018-04-14 11:52:42,1779.0447346294395,3.0000000960000004,0.503999582744,0.665563021298016,1779.0447346294395,3.0000000960000004,1.475998778036,0.665563021298016,1458,0.0,99,P-GPS,
0.30586217807516697,36.880044906475895,7700,2018-04-14 11:52:43,1779.2447346358397,3.2000001024000007,0.35999970196000003,0.6802770217688641,1779.2447346358397,3.2000001024000007,1.475998778036,0.6802770217688641,1475,0.0,99,P-GPS,
0.305862059882702,36.880044786998404,7800,2018-04-14 11:52:43,1779.5447346454396,3.500000112,0.35999970196000003,0.694799022233568,1779.5447346454396,3.500000112,1.475998778036,0.694799022233568,1509,-0.1,99,P-GPS,
0.305861954449909,36.8800446925336,7900,2018-04-14 11:52:43,1779.8447346550397,3.8000001215999997,0.35999970196000003,0.70774002264768,1779.8447346550397,3.8000001215999997,1.475998778036,0.70774002264768,1542,-0.3,99,P-GPS,
0.30586184156698604,36.8800446595401,8000,2018-04-14 11:52:43,1780.1447346646396,4.100000131200001,0.35999970196000003,0.720668023061376,1780.1447346646396,4.100000131200001,1.475998778036,0.720668023061376,1549,-0.5,99,P-GPS,
0.30586172613595397,36.88004465475,8100,2018-04-14 11:52:43,1780.4447346742397,4.4000001408,0.35999970196000003,0.733462023470784,1780.4447346742397,4.4000001408,1.475998778036,0.733462023470784,1566,-0.5,99,P-GPS,
0.30586158557111104,36.8800446722499,8200,2018-04-14 11:52:43,1780.7447346838394,4.700000150400001,0.35999970196000003,0.7487110239587521,1780.7447346838394,4.700000150400001,1.475998778036,0.7487110239587521,1572,-0.5,99,P-GPS,
0.305861452073715,36.880044669094296,8300,2018-04-14 11:52:43,1781.0447346934395,5.00000016,0.35999970196000003,0.763483024431456,1781.0447346934395,5.00000016,1.475998778036,0.763483024431456,1569,-0.5,99,P-GPS,
0.305861330631283,36.8800446512821,8400,2018-04-14 11:52:43,1781.4447347062396,5.4000001727999996,0.0,0.77713002486816,1781.4447347062396,5.4000001727999996,1.475998778036,0.77713002486816,1566,-0.5,99,P-GPS,
0.305861241880271,36.880044607632,8500,2018-04-14 11:52:43,1781.8447347190395,5.8000001856,0.0,0.787537025201184,1781.8447347190395,5.8000001856,1.475998778036,0.787537025201184,1570,-0.5,99,P-GPS,
0.30586115974033395,36.8800445822976,8600,2018-04-14 11:52:44,1782.1447347286396,6.1000001952,0.0,0.7969610255027522,1782.1447347286396,6.1000001952,1.475998778036,0.7969610255027522,1572,-0.5,99,P-GPS,
0.30586109683761403,36.8800445632545,8700,2018-04-14 11:52:44,1782.5447347414395,6.500000208,0.0,0.8041750257336,1782.5447347414395,6.500000208,1.475998778036,0.8041750257336,1582,-0.5,99,P-GPS,
0.30586102640130397,36.8800445699644,8800,2018-04-14 11:52:44,1782.9447347542396,6.9000002208,0.0,0.8118410259789122,1782.9447347542396,6.9000002208,1.475998778036,0.8118410259789122,1585,-0.5,99,P-GPS,
0.305860983916829,36.8800445758326,8900,2018-04-14 11:52:44,1783.3447347670397,7.3000002336000005,0.0,0.8164400261260801,1783.3447347670397,7.3000002336000005,1.475998778036,0.8164400261260801,1590,-0.5,99,P-GPS,
0.305860951398023,36.8800445352583,9000,2018-04-14 11:52:44,1783.7447347798395,7.7000002464,0.0,0.82062002625984,1783.7447347798395,7.7000002464,1.475998778036,0.82062002625984,1591,-0.5,99,P-GPS,
0.305860924118737,36.88004444834671,9100,2018-04-14 11:52:44,1784.1447347926396,8.1000002592,0.0,0.8249730263991361,1784.1447347926396,8.1000002592,1.475998778036,0.8249730263991361,1609,-0.5,99,P-GPS,
0.305860847706852,36.880044336874,9200,2018-04-14 11:52:44,1784.5447348054395,8.500000272000001,0.0,0.8352530267280962,1784.5447348054395,8.500000272000001,1.475998778036,0.8352530267280962,1613,-0.5,99,P-GPS,
0.305860773449806,36.880044232032496,9300,2018-04-14 11:52:44,1784.9447348182396,8.9000002848,0.0,0.845312027049984,1784.9447348182396,8.9000002848,1.475998778036,0.845312027049984,1612,-0.5,99,P-GPS,
0.30586067994048,36.880044173053896,9400,2018-04-14 11:52:44,1785.3447348310394,9.3000002976,0.0,0.856688027414016,1785.3447348310394,9.3000002976,1.475998778036,0.856688027414016,1619,-0.5,99,P-GPS,
0.305860609182146,36.8800441518592,9500,2018-04-14 11:52:44,1785.7447348438398,9.7000003104,0.0,0.864849027675168,1785.7447348438398,9.7000003104,1.475998778036,0.864849027675168,1620,-0.5,99,P-GPS,
0.3058605480585,36.8800441424929,9600,2018-04-14 11:52:44,1786.1447348566398,10.100000323200002,0.0,0.871724027895168,1786.1447348566398,10.100000323200002,1.475998778036,0.871724027895168,1614,-1.0,99,P-GPS,
0.30586053680839503,36.8800441310499,9700,2018-04-14 11:52:45,1786.5447348694397,10.500000336,0.0,0.8731800279417601,1786.5447348694397,10.500000336,1.475998778036,0.8731800279417601,1615,-2.0,99,P-GPS,
0.305860545216866,36.880044143567204,9800,2018-04-14 11:52:45,1787.0447348854395,11.000000352000002,0.0,0.872014027904448,1787.0447348854395,11.000000352000002,1.475998778036,0.8731800279417601,1621,-3.3,99,P-GPS,
0.30586056999771194,36.8800441557294,9900,2018-04-14 11:52:45,1787.4447348982396,11.4000003648,0.0,0.8690630278100161,1787.4447348982396,11.4000003648,1.475998778036,0.8731800279417601,1624,-4.6,99,P-GPS,
0.305860605083352,36.8800441934915,10000,2018-04-14 11:52:45,1787.8447349110397,11.8000003776,0.0,0.8644930276637761,1787.8447349110397,11.8000003776,1.475998778036,0.8731800279417601,1625,-6.0,99,P-GPS,
0.305860646159224,36.880044221159295,10100,2018-04-14 11:52:45,1788.2447349238396,12.2000003904,0.0,0.8594680275029762,1788.2447349238396,12.2000003904,1.475998778036,0.8731800279417601,1625,-7.5,99,P-GPS,
0.305860683630534,36.8800442286382,10200,2018-04-14 11:52:45,1788.7447349398394,12.700000406400001,0.0,0.8552210273670721,1788.7447349398394,12.700000406400001,1.475998778036,0.8731800279417601,1629,-8.9,99,P-GPS,
0.305860710957453,36.880044198963,10300,2018-04-14 11:52:45,1789.1447349526395,13.100000419199999,0.0,0.8527900272892801,1789.1447349526395,13.100000419199999,1.475998778036,0.8731800279417601,1629,-10.8,99,P-GPS,
0.30586075290861303,36.8800441768743,10400,2018-04-14 11:52:45,1789.5447349654396,13.500000432000002,0.0,0.848626027156032,1789.5447349654396,13.500000432000002,1.475998778036,0.8731800279417601,1629,-12.7,99,P-GPS,
0.305860811271639,36.8800441543871,10500,2018-04-14 11:52:45,1790.0447349814397,14.000000448,0.0,0.8426870269659841,1790.0447349814397,14.000000448,1.475998778036,0.8731800279417601,1630,-12.7,99,P-GPS,
0.305860865453227,36.88004412821039,10600,2018-04-14 11:52:46,1790.4447349942398,14.400000460800001,0.0,0.8372970267935042,1790.4447349942398,14.400000460800001,1.475998778036,0.8731800279417601,1638,-15.4,99,P-GPS,
0.305860913938519,36.8800440935875,10700,2018-04-14 11:52:46,1790.9447350102396,14.9000004768,0.0,0.8327270266472642,1790.9447350102396,14.9000004768,1.475998778036,0.8731800279417601,1646,-15.4,99,P-GPS,
0.30586094909051803,36.8800440537854,10800,2018-04-14 11:52:46,1791.3447350230397,15.3000004896,0.0,0.829751026552032,1791.3447350230397,15.3000004896,1.475998778036,0.8731800279417601,1645,-16.6,99,P-GPS,
0.305860992172633,36.8800440157581,10900,2018-04-14 11:52:46,1791.8447350390395,15.8000005056,0.0,0.825904026428928,1791.8447350390395,15.8000005056,1.475998778036,0.8731800279417601,1644,-16.9,99,P-GPS,
0.305861058212958,36.88004399235339,11000,2018-04-14 11:52:46,1792.2447350518394,16.2000005184,0.0,0.819252026216064,1792.2447350518394,16.2000005184,1.475998778036,0.8731800279417601,1644,-16.9,99,P-GPS,
0.30586115379977,36.8800439772345,11100,2018-04-14 11:52:46,1792.7447350678397,16.7000005344,0.0,0.8092140258948479,1792.7447350678397,16.7000005344,1.475998778036,0.8731800279417601,1648,-16.9,99,P-GPS,
0.30586123495164896,36.8800439596535,11200,2018-04-14 11:52:46,1793.2447350838395,17.2000005504,0.0,0.8008210256262721,1793.2447350838395,17.2000005504,1.475998778036,0.8731800279417601,1648,-16.9,99,P-GPS,
0.305861303072718,36.8800439597253,11300,2018-04-14 11:52:46,1793.6447350966396,17.6000005632,0.0,0.793427025389664,1793.6447350966396,17.6000005632,1.475998778036,0.8731800279417601,1645,-16.9,99,P-GPS,
0.305861355604286,36.8800439823035,11400,2018-04-14 11:52:46,1794.1447351126394,18.100000579200003,0.0,0.787177025189664,1794.1447351126394,18.100000579200003,1.475998778036,0.8731800279417601,1647,-16.9,99,P-GPS,
0.30586140954079305,36.8800440155664,11500,2018-04-14 11:52:46,1794.6447351286397,18.6000005952,0.0,0.78052002497664,1794.6447351286397,18.6000005952,1.475998778036,0.8731800279417601,1656,-16.9,99,P-GPS,
0.305861472371862,36.880044061203,11600,2018-04-14 11:52:46,1795.1447351446395,19.1000006112,0.0,0.7726130247236161,1795.1447351446395,19.1000006112,1.475998778036,0.8731800279417601,1661,-16.9,99,P-GPS,
0.30586155201050896,36.8800440999037,11700,2018-04-14 11:52:47,1795.6447351606396,19.6000006272,0.0,0.763052024417664,1795.6447351606396,19.6000006272,1.475998778036,0.8731800279417601,1661,-16.9,99,P-GPS,
0.30586159053868,36.880044137971794,11800,2018-04-14 11:52:47,1796.1447351766396,20.1000006432,0.0,0.757989024255648,1796.1447351766396,20.1000006432,1.475998778036,0.8731800279417601,1666,-16.9,99,P-GPS,
0.305861603767752,36.8800441792556,11900,2018-04-14 11:52:47,1796.6447351926397,20.600000659200003,0.0,0.755626024180032,1796.6447351926397,20.600000659200003,1.475998778036,0.8731800279417601,1665,-16.9,99,P-GPS,
0.305861618886633,36.8800441890063,12000,2018-04-14 11:52:47,1797.1447352086395,21.1000006752,0.0,0.7537630241204161,1797.1447352086395,21.1000006752,1.475998778036,0.8731800279417601,1666,-16.9,99,P-GPS,
0.30586166849351504,36.8800441696489,12100,2018-04-14 11:52:47,1797.6447352246398,21.600000691199998,0.0,0.7487860239611521,1797.6447352246398,21.600000691199998,1.475998778036,0.8731800279417601,1669,-16.9,99,P-GPS,
0.305861731502085,36.8800441279537,12200,2018-04-14 11:52:47,1798.1447352406396,22.1000007072,0.0,0.74288002377216,1798.1447352406396,22.1000007072,1.475998778036,0.8731800279417601,1669,-16.9,99,P-GPS,
0.30586181248256894,36.8800441099183,12300,2018-04-14 11:52:47,1798.6447352566395,22.6000007232,0.0,0.734503023504096,1798.6447352566395,22.6000007232,1.475998778036,0.8731800279417601,1669,-16.9,99,P-GPS,
0.305861884406055,36.8800441046114,12400,2018-04-14 11:52:47,1799.1447352726398,23.100000739200006,0.0,0.7268210232582721,1799.1447352726398,23.100000739200006,1.475998778036,0.8731800279417601,1684,-16.9,99,P-GPS,
0.30586194905365305,36.880044136514705,12600,2018-04-14 11:52:48,1800.2447353078396,24.2000007744,0.0,0.71903502300912,1800.2447353078396,24.2000007744,1.475998778036,0.8731800279417601,1682,-16.9,99,P-GPS,
0.30586197295473305,36.8800441680069,12700,2018-04-14 11:52:48,1800.7447353238397,24.7000007904,0.0,0.7156920229021441,1800.7447353238397,24.7000007904,1.475998778036,0.8731800279417601,1682,-16.9,99,P-GPS,
0.305861998346653,36.880044196142,12800,2018-04-14 11:52:48,1801.2447353398395,25.200000806400006,0.0,0.712277022792864,1801.2447353398395,25.200000806400006,1.475998778036,0.8731800279417601,1684,-16.9,99,P-GPS,
0.305862019435817,36.880044221534,12900,2018-04-14 11:52:48,1801.7447353558396,25.7000008224,0.0,0.7094000227008,1801.7447353558396,25.7000008224,1.475998778036,0.8731800279417601,1684,-16.9,99,P-GPS,
0.305862023276909,36.8800442373006,13000,2018-04-14 11:52:48,1802.3447353750396,26.300000841600003,0.0,0.708626022676032,1802.3447353750396,26.300000841600003,1.475998778036,0.8731800279417601,1684,-16.9,99,P-GPS,
0.305862033922862,36.880044256212294,13100,2018-04-14 11:52:48,1802.8447353910396,26.8000008576,0.0,0.7070430226253761,1802.8447353910396,26.8000008576,1.475998778036,0.8731800279417601,1684,-16.9,99,P-GPS,
0.30586202595081396,36.8800442591767,13200,2018-04-14 11:52:48,1803.3447354070395,27.3000008736,0.0,0.707847022651104,1803.3447354070395,27.3000008736,1.475998778036,0.8731800279417601,1684,-16.9,99,P-GPS,
0.30586202440908505,36.8800442677409,13300,2018-04-14 11:52:48,1803.9447354262395,27.9000008928,0.0,0.707826022650432,1803.9447354262395,27.9000008928,1.475998778036,0.8731800279417601,1684,-16.9,99,P-GPS,
0.305862008337157,36.8800442642709,13400,2018-04-14 11:52:48,1804.4447354422396,28.400000908800006,0.0,0.709654022708928,1804.4447354422396,28.400000908800006,1.475998778036,0.8731800279417601,1684,-16.9,99,P-GPS,
0.30586200741505,36.880044273470396,13500,2018-04-14 11:52:48,1804.9447354582396,28.9000009248,0.0,0.7095530227056961,1804.9447354582396,28.9000009248,1.475998778036,0.8731800279417601,1684,-16.9,99,P-GPS,
0.305861977803018,36.88004428738729,13600,2018-04-14 11:52:48,1805.5447354774396,29.500000944,0.0,0.7124820227994241,1805.5447354774396,29.500000944,1.475998778036,0.8731800279417601,1684,-16.9,99,P-GPS,
0.305861947855118,36.8800443201302,13700,2018-04-14 11:52:49,1806.0447354934397,30.00000096,0.0,0.7150590228818879,1806.0447354934397,30.00000096,1.475998778036,0.8731800279417601,1684,-16.9,99,P-GPS,
0.30586190865602897,36.8800443562843,13800,2018-04-14 11:52:49,1806.5447355094398,30.500000976,0.0,0.718603022995296,1806.5447355094398,30.500000976,1.475998778036,0.8731800279417601,1684,-16.9,99,P-GPS,
0.305861896088919,36.880044402271,13900,2018-04-14 11:52:49,1807.0447355254396,31.000000992,0.0,0.719072023010304,1807.0447355254396,31.000000992,1.475998778036,0.8731800279417601,1684,-16.9,99,P-GPS,
0.305861888602555,36.8800444445911,14000,2018-04-14 11:52:49,1807.5447355414394,31.500001007999998,0.0,0.719091023010912,1807.5447355414394,31.500001007999998,1.475998778036,0.8731800279417601,1684,-16.9,99,P-GPS,
0.305861901961903,36.8800444863264,14100,2018-04-14 11:52:49,1808.0447355574397,32.000001024,0.0,0.716863022939616,1808.0447355574397,32.000001024,1.475998778036,0.8731800279417601,1684,-16.9,99,P-GPS,
0.305861877638242,36.880044536703295,14200,2018-04-14 11:52:49,1808.6447355766395,32.6000010432,0.0,0.71865502299696,1808.6447355766395,32.6000010432,1.475998778036,0.8731800279417601,1684,-16.9,99,P-GPS,
0.30586181968395504,36.8800445991696,14300,2018-04-14 11:52:49,1809.1447355926398,33.100001059200004,0.0,0.7240040231681281,1809.1447355926398,33.100001059200004,1.475998778036,0.8731800279417601,1684,-16.9,99,P-GPS,
0.30586172039161796,36.8800446750607,14400,2018-04-14 11:52:49,1809.6447356086396,33.6000010752,0.0,0.7338010234816321,1809.6447356086396,33.6000010752,1.475998778036,0.8731800279417601,1684,-16.9,99,P-GPS,
0.305861634301891,36.8800447652863,14500,2018-04-14 11:52:49,1810.2447356278396,34.2000010944,0.0,0.742086023746752,1810.2447356278396,34.2000010944,1.475998778036,0.8731800279417601,1684,-16.9,99,P-GPS,
0.305861555341898,36.8800448329535,14600,2018-04-14 11:52:50,1810.7447356438397,34.7000011104,0.0,0.7500010240000321,1810.7447356438397,34.7000011104,1.475998778036,0.8731800279417601,1684,-16.9,99,P-GPS,
0.305861515607458,36.8800448608346,14700,2018-04-14 11:52:50,1811.2447356598395,35.2000011264,0.0,0.7540870241307841,1811.2447356598395,35.2000011264,1.475998778036,0.8731800279417601,1684,-16.9,99,P-GPS,
0.305861452088778,36.8800448616466,14800,2018-04-14 11:52:50,1811.8447356790398,35.8000011456,0.0,0.761108024355456,1811.8447356790398,35.8000011456,1.475998778036,0.8731800279417601,1684,-16.9,99,P-GPS,
0.30586139393337897,36.880044859734,14900,2018-04-14 11:52:50,1812.3447356950396,36.3000011616,0.0,0.7675660245621121,1812.3447356950396,36.3000011616,1.475998778036,0.8731800279417601,1684,-16.9,99,P-GPS,
0.30586132961920504,36.8800448444106,15000,2018-04-14 11:52:50,1812.8447357110394,36.8000011776,0.0,0.774849024795168,1812.8447357110394,36.8000011776,1.475998778036,0.8731800279417601,1684,-16.9,99,P-GPS,
0.30586129581962795,36.8800448299486,15100,2018-04-14 11:52:50,1813.3447357270397,37.3000011936,0.0,0.7787480249199361,1813.3447357270397,37.3000011936,1.475998778036,0.8731800279417601,1684,-16.9,99,P-GPS,
0.305861255738736,36.8800448231067,15200,2018-04-14 11:52:50,1813.9447357462395,37.90000121280001,0.0,0.7832590250642879,1813.9447357462395,37.90000121280001,1.475998778036,0.8731800279417601,1684,-16.9,99,P-GPS,
0.305861237307193,36.880044832936605,15300,2018-04-14 11:52:50,1814.4447357622396,38.4000012288,0.0,0.7851910251261122,1814.4447357622396,38.4000012288,1.475998778036,0.8731800279417601,1684,-16.9,99,P-GPS,
0.305861198397152,36.8800448598849,15400,2018-04-14 11:52:50,1814.9447357782396,38.9000012448,0.0,0.78921002525472,1814.9447357782396,38.9000012448,1.475998778036,0.8731800279417601,1684,-16.9,99,P-GPS,
0.305861172314364,36.8800448989256,15500,2018-04-14 11:52:50,1815.4447357942397,39.4000012608,0.0,0.7917050253345601,1815.4447357942397,39.4000012608,1.475998778036,0.8731800279417601,1684,-16.9,99,P-GPS,
0.305861132852281,36.8800449291403,15600,2018-04-14 11:52:51,1815.9447358102395,39.900001276800005,0.0,0.795789025465248,1815.9447358102395,39.900001276800005,1.475998778036,0.8731800279417601,1684,-16.9,99,P-GPS,
0.305861089358577,36.880044964648796,15800,2018-04-14 11:52:51,1816.9447358422397,40.90000130880001,0.0,0.8002920256093441,1816.9447358422397,40.90000130880001,1.475998778036,0.8731800279417601,1684,-16.9,99,P-GPS,
0.30586109385634,36.880044996116396,15900,2018-04-14 11:52:51,1817.4447358582395,41.4000013248,0.0,0.799528025584896,1817.4447358582395,41.4000013248,1.475998778036,0.8731800279417601,1684,-16.9,99,P-GPS,
0.30586109383802,36.880045036164496,16000,2018-04-14 11:52:51,1817.9447358742398,41.9000013408,0.0,0.79921502557488,1817.9447358742398,41.9000013408,1.475998778036,0.8731800279417601,1684,-16.9,99,P-GPS,
0.305861115134403,36.880045074162204,16100,2018-04-14 11:52:51,1818.5447358934396,42.50000136,0.0,0.7965750254904,1818.5447358934396,42.50000136,1.475998778036,0.8731800279417601,1684,-16.9,99,P-GPS,
0.305861111365777,36.88004511140821,16200,2018-04-14 11:52:51,1819.0447359094394,43.000001376,0.0,0.796744025495808,1819.0447359094394,43.000001376,1.475998778036,0.8731800279417601,1684,-16.9,99,P-GPS,
0.305861121451952,36.880045150135004,16300,2018-04-14 11:52:51,1819.5447359254397,43.500001391999994,0.0,0.795386025452352,1819.5447359254397,43.500001391999994,1.475998778036,0.8731800279417601,1684,-16.9,99,P-GPS,
0.305861116045518,36.880045197719205,16400,2018-04-14 11:52:51,1820.0447359414395,44.00000140800001,0.0,0.795727025463264,1820.0447359414395,44.00000140800001,1.475998778036,0.8731800279417601,1684,-16.9,99,P-GPS,
0.30586112264641496,36.8800452439788,16500,2018-04-14 11:52:51,1820.6447359606398,44.6000014272,0.0,0.7947750254328,1820.6447359606398,44.6000014272,1.475998778036,0.8731800279417601,1684,-16.9,99,P-GPS,
0.30586107753811,36.88004527997229,16600,2018-04-14 11:52:52,1821.1447359766396,45.10000144320001,0.0,0.799641025588512,1821.1447359766396,45.10000144320001,1.475998778036,0.8731800279417601,1684,-16.9,98,P-GPS,
0.30586103547703003,36.8800452946491,16700,2018-04-14 11:52:52,1821.6447359926397,45.6000014592,0.0,0.8042620257363841,1821.6447359926397,45.6000014592,1.475998778036,0.8731800279417601,1684,-16.9,98,P-GPS,
0.305860955889272,36.8800452755,16800,2018-04-14 11:52:52,1822.1447360086397,46.1000014752,0.0,0.8131780260216961,1822.1447360086397,46.1000014752,1.475998778036,0.8731800279417601,1684,-16.9,98,P-GPS,
0.30586091206133,36.880045251237995,16900,2018-04-14 11:52:52,1822.7447360278395,46.7000014944,0.0,0.81814502618064,1822.7447360278395,46.7000014944,1.475998778036,0.8731800279417601,1684,-16.9,98,P-GPS,
0.305860856852193,36.88004523650321,17000,2018-04-14 11:52:52,1823.2447360438396,47.2000015104,0.0,0.824343026378976,1823.2447360438396,47.2000015104,1.475998778036,0.8731800279417601,1684,-16.9,98,P-GPS,
0.305860817478046,36.8800452467174,17100,2018-04-14 11:52:52,1823.7447360598396,47.700001526399994,0.0,0.8286750265176,1823.7447360598396,47.700001526399994,1.475998778036,0.8731800279417601,1684,-16.9,98,P-GPS,
0.30586074421597903,36.8800452615975,17200,2018-04-14 11:52:52,1824.2447360758397,48.200001542399995,0.0,0.8367570267762241,1824.2447360758397,48.200001542399995,1.475998778036,0.8731800279417601,1684,-16.9,98,P-GPS,
0.30586069131841803,36.8800452854222,17300,2018-04-14 11:52:52,1824.7447360918395,48.70000155840001,0.0,0.8425480269615361,1824.7447360918395,48.70000155840001,1.475998778036,0.8731800279417601,1684,-16.9,98,P-GPS,
0.305860605769741,36.8800452996385,17400,2018-04-14 11:52:52,1825.3447361110395,49.30000157760001,0.0,0.852009027264288,1825.3447361110395,49.30000157760001,1.475998778036,0.8731800279417601,1684,-16.9,98,P-GPS,
0.305860540453667,36.8800453095471,17500,2018-04-14 11:52:52,1825.8447361270396,49.8000015936,0.0,0.859238027495616,1825.8447361270396,49.8000015936,1.475998778036,0.8731800279417601,1684,-16.9,98,P-GPS,
0.305860451568308,36.8800453295886,17600,2018-04-14 11:52:52,1826.2447361398395,50.200001606399994,0.0,0.8690600278099201,1826.2447361398395,50.200001606399994,1.475998778036,0.8731800279417601,1684,-16.9,98,P-GPS,
0.30586038621070805,36.88004535653371,17700,2018-04-14 11:52:53,1826.8447361590397,50.800001625600004,0.0,0.8762560280401921,1826.8447361590397,50.800001625600004,1.475998778036,0.8762560280401921,1684,-16.9,98,P-GPS,
0.305860281347872,36.8800453611937,17800,2018-04-14 11:52:53,1827.3447361750395,51.3000016416,0.0,0.8879040284129279,1827.3447361750395,51.3000016416,1.475998778036,0.8879040284129279,1684,-16.9,98,P-GPS,
0.30586019549711796,36.880045339335204,17900,2018-04-14 11:52:53,1827.8447361910396,51.800001657600006,0.0,0.8975020287200639,1827.8447361910396,51.800001657600006,1.475998778036,0.8975020287200639,1684,-16.9,98,P-GPS,
0.30586008918659496,36.880045301491705,18000,2018-04-14 11:52:53,1828.3447362070397,52.3000016736,0.0,0.909427029101664,1828.3447362070397,52.3000016736,1.475998778036,0.909427029101664,1684,-16.9,98,P-GPS,
0.30586001777769706,36.880045257778,18100,2018-04-14 11:52:53,1828.8447362230395,52.8000016896,0.0,0.9175100293603199,1828.8447362230395,52.8000016896,1.475998778036,0.9175100293603199,1684,-16.9,98,P-GPS,
0.305859936792734,36.8800451976825,18200,2018-04-14 11:52:53,1829.3447362390395,53.3000017056,0.0,0.9267490296559681,1829.3447362390395,53.3000017056,1.475998778036,0.9267490296559681,1684,-16.9,98,P-GPS,
0.305859907699768,36.8800451434858,18300,2018-04-14 11:52:53,1829.8447362550396,53.8000017216,0.0,0.9302380297676159,1829.8447362550396,53.8000017216,1.475998778036,0.9302380297676159,1684,-16.9,98,P-GPS,
0.3058598737906789,36.8800450947073,18400,2018-04-14 11:52:53,1830.3447362710397,54.300001737600006,0.0,0.9342670298965439,1830.3447362710397,54.300001737600006,1.475998778036,0.9342670298965439,1684,-16.9,98,P-GPS,
0.305859840762577,36.8800450769047,18500,2018-04-14 11:52:53,1830.8447362870395,54.8000017536,0.0,0.9380380300172162,1830.8447362870395,54.8000017536,1.475998778036,0.9380380300172162,1684,-16.9,98,P-GPS,
0.305859777666886,36.8800450598952,18600,2018-04-14 11:52:54,1831.3447363030398,55.3000017696,0.0,0.9451470302447039,1831.3447363030398,55.3000017696,1.475998778036,0.9451470302447039,1684,-16.9,98,P-GPS,
0.305859728029471,36.88004505068871,18700,2018-04-14 11:52:54,1831.8447363190396,55.8000017856,0.0,0.95071503042288,1831.8447363190396,55.8000017856,1.475998778036,0.95071503042288,1684,-16.9,98,P-GPS,
0.305859658903651,36.880045037587294,18800,2018-04-14 11:52:54,1832.4447363382394,56.400001804800006,0.0,0.9584710306710721,1832.4447363382394,56.400001804800006,1.475998778036,0.9584710306710721,1684,-16.9,98,P-GPS,
0.305859617822081,36.880045032918204,18900,2018-04-14 11:52:54,1832.9447363542397,56.90000182080001,0.0,0.963062030817984,1832.9447363542397,56.90000182080001,1.475998778036,0.963062030817984,1684,-16.9,98,P-GPS,
0.305859452670176,36.88004495271821,19100,2018-04-14 11:52:54,1833.9447363862396,57.90000185280001,0.0,0.9819360314219522,1833.9447363862396,57.90000185280001,1.475998778036,0.9819360314219522,1684,-16.9,98,P-GPS,
0.30585937378183503,36.8800448518654,19200,2018-04-14 11:52:54,1834.5447364054396,58.500001872,0.0,0.9914750317272,1834.5447364054396,58.500001872,1.475998778036,0.9914750317272,1684,-16.9,98,P-GPS,
0.305859320067609,36.880044720384895,19300,2018-04-14 11:52:54,1835.0447364214394,59.000001888,0.35999970196000003,0.9986350319563199,1835.0447364214394,59.000001888,1.475998778036,0.9986350319563199,1684,-16.9,98,P-GPS,
0.30585925297734495,36.8800445721776,19400,2018-04-14 11:52:54,1835.5447364374397,59.500001904,0.35999970196000003,1.00767003224544,1835.5447364374397,59.500001904,1.475998778036,1.00767003224544,1684,-16.9,98,P-GPS,
0.305859249992407,36.880044458274,19500,2018-04-14 11:52:54,1836.1447364566395,60.100001923200004,0.503999582744,1.0094100323011201,1836.1447364566395,60.100001923200004,1.475998778036,1.0094100323011201,1684,-16.9,98,P-GPS,
0.30585926606270697,36.880044329151296,19600,2018-04-14 11:52:54,1836.5447364694396,60.500001936,0.35999970196000003,1.00942003230144,1836.5447364694396,60.500001936,1.475998778036,1.00942003230144,1684,-17.0,98,P-GPS,
0.305859324965969,36.8800442281751,19700,2018-04-14 11:52:55,1837.0447364854397,61.000001952,0.35999970196000003,1.00448003214336,1837.0447364854397,61.000001952,1.475998778036,1.00942003230144,1684,-17.1,98,P-GPS,
0.30585931929817,36.880044146598294,19800,2018-04-14 11:52:55,1837.5447365014397,61.500001968,0.0,1.0064500322064,1837.5447365014397,61.500001968,1.475998778036,1.00942003230144,1684,-17.3,98,P-GPS,
0.305859287690886,36.8800440742709,19900,2018-04-14 11:52:55,1838.1447365206395,62.1000019872,0.0,1.01117003235744,1838.1447365206395,62.1000019872,1.475998778036,1.01117003235744,1684,-17.5,98,P-GPS,
0.305859218614734,36.8800440006488,20000,2018-04-14 11:52:55,1838.6447365366398,62.600002003200004,0.0,1.02008003264256,1838.6447365366398,62.600002003200004,1.475998778036,1.02008003264256,1684,-17.5,98,P-GPS,
0.30585920674663397,36.8800439635639,20100,2018-04-14 11:52:55,1839.1447365526396,63.100002019200005,0.35999970196000003,1.0220800327065602,1839.1447365526396,63.100002019200005,1.475998778036,1.0220800327065602,1684,-17.7,98,P-GPS,
0.305859184155231,36.8800439306925,20200,2018-04-14 11:52:55,1839.6447365686395,63.600002035200006,0.35999970196000003,1.02518003280576,1839.6447365686395,63.600002035200006,1.475998778036,1.02518003280576,1684,-17.8,98,P-GPS,
0.305859193136099,36.8800438977105,20300,2018-04-14 11:52:55,1840.1447365846398,64.1000020512,0.35999970196000003,1.0248400327948801,1840.1447365846398,64.1000020512,1.475998778036,1.02518003280576,1684,-18.0,98,P-GPS,
0.30585916827708803,36.880043853793296,20400,2018-04-14 11:52:55,1840.6447366006396,64.60000206720001,0.35999970196000003,1.0284300329097602,1840.6447366006396,64.60000206720001,1.475998778036,1.0284300329097602,1684,-18.3,98,P-GPS,
0.305859160128354,36.880043820144294,20500,2018-04-14 11:52:55,1841.1447366166396,65.1000020832,0.0,1.03000003296,1841.1447366166396,65.1000020832,1.475998778036,1.03000003296,1684,-18.8,98,P-GPS,
0.305859119287793,36.880043779095104,20600,2018-04-14 11:52:56,1841.6447366326397,65.60000209920001,0.0,1.03531003312992,1841.6447366326397,65.60000209920001,1.475998778036,1.03531003312992,1684,-19.3,98,P-GPS,
0.30585908969000897,36.8800437520282,20700,2018-04-14 11:52:56,1842.1447366486398,66.10000211520001,0.0,1.03912003325184,1842.1447366486398,66.10000211520001,1.475998778036,1.03912003325184,1684,-19.9,98,P-GPS,
0.30585903370329,36.880043759482,20800,2018-04-14 11:52:56,1842.6447366646396,66.6000021312,0.0,1.04507003344224,1842.6447366646396,66.6000021312,1.475998778036,1.04507003344224,1684,-20.5,98,P-GPS,
0.30585900502150604,36.8800438314501,20900,2018-04-14 11:52:56,1843.1447366806394,67.10000214720002,0.0,1.0467400334956802,1843.1447366806394,67.10000214720002,1.475998778036,1.0467400334956802,1684,-21.1,98,P-GPS,
0.305858932081057,36.880043928968604,21000,2018-04-14 11:52:56,1843.6447366966397,67.60000216319999,0.35999970196000003,1.05283003369056,1843.6447366966397,67.60000216319999,1.475998778036,1.05283003369056,1684,-21.7,98,P-GPS,
0.30585888178819204,36.8800440209092,21100,2018-04-14 11:52:56,1844.1447367126395,68.1000021792,0.0,1.05668003381376,1844.1447367126395,68.1000021792,1.475998778036,1.05668003381376,1684,-22.4,98,P-GPS,
0.305858816366269,36.8800440884701,21200,2018-04-14 11:52:56,1844.6447367286396,68.6000021952,0.0,1.0627100340067202,1844.6447367286396,68.6000021952,1.475998778036,1.0627100340067202,1684,-23.1,98,P-GPS,
0.30585878978843395,36.8800441407355,21300,2018-04-14 11:52:56,1845.1447367446397,69.1000022112,0.0,1.06478003407296,1845.1447367446397,69.1000022112,1.475998778036,1.06478003407296,1684,-23.9,98,P-GPS,
0.305858761426639,36.8800441922769,21400,2018-04-14 11:52:56,1845.6447367606397,69.60000222720001,0.35999970196000003,1.06709003414688,1845.6447367606397,69.60000222720001,1.475998778036,1.06709003414688,1684,-24.6,98,P-GPS,
0.30585878151431,36.8800442582469,21500,2018-04-14 11:52:56,1846.1447367766395,70.1000022432,0.35999970196000003,1.06388003404416,1846.1447367766395,70.1000022432,1.475998778036,1.06709003414688,1684,-25.3,98,P-GPS,
0.30585876538782897,36.8800442952949,21600,2018-04-14 11:52:56,1846.6447367926398,70.60000225920001,0.35999970196000003,1.06512003408384,1846.6447367926398,70.60000225920001,1.475998778036,1.06709003414688,1684,-25.3,98,P-GPS,
0.305858751669003,36.8800443146734,21700,2018-04-14 11:52:57,1847.1447368086397,71.10000227520001,0.35999970196000003,1.0663600341235202,1847.1447368086397,71.10000227520001,1.475998778036,1.06709003414688,1649,-25.6,98,P-GPS,
0.30585870223351397,36.880044316665504,21800,2018-04-14 11:52:57,1847.6447368246395,71.6000022912,0.0,1.0717800342969601,1847.6447368246395,71.6000022912,1.475998778036,1.0717800342969601,1615,-25.6,98,P-GPS,
0.305858675965898,36.8800443398326,21900,2018-04-14 11:52:57,1848.1447368406396,72.1000023072,0.0,1.07436003437952,1848.1447368406396,72.1000023072,1.475998778036,1.07436003437952,1583,-25.6,98,P-GPS,
0.305858610043229,36.8800443646036,22000,2018-04-14 11:52:57,1848.6447368566396,72.6000023232,0.0,1.0813100346019202,1848.6447368566396,72.6000023232,1.475998778036,1.0813100346019202,1542,-25.6,98,P-GPS,
0.305858568688893,36.8800444352542,22100,2018-04-14 11:52:57,1849.0447368694397,73.00000233600001,0.35999970196000003,1.08497003471904,1849.0447368694397,73.00000233600001,1.475998778036,1.08497003471904,1413,-25.6,98,P-GPS,
0.305858497313379,36.880044506976,22200,2018-04-14 11:52:57,1849.4447368822396,73.4000023488,0.35999970196000003,1.092000034944,1849.4447368822396,73.4000023488,1.475998778036,1.092000034944,1358,-25.6,98,P-GPS,
0.305858454254877,36.880044549306795,22300,2018-04-14 11:52:57,1849.8447368950397,73.80000236160001,0.0,1.09628003508096,1849.8447368950397,73.80000236160001,1.475998778036,1.09628003508096,1375,-25.6,98,P-GPS,
0.30585837456452697,36.880044555671,22400,2018-04-14 11:52:57,1850.1447369046398,74.1000023712,0.0,1.10503003536096,1850.1447369046398,74.1000023712,1.475998778036,1.10503003536096,1371,-25.6,98,P-GPS,
0.30585835675912,36.8800445740819,22500,2018-04-14 11:52:57,1850.3447369110395,74.30000237760001,0.35999970196000003,1.10681003541792,1850.3447369110395,74.30000237760001,1.475998778036,1.10681003541792,1361,-25.6,98,P-GPS,
0.305858302738748,36.8800445954776,22600,2018-04-14 11:52:58,1850.5447369174396,74.500002384,0.0,1.11256003560192,1850.5447369174396,74.500002384,1.475998778036,1.11256003560192,1364,-25.6,98,P-GPS,
0.305858244293893,36.8800446103813,22700,2018-04-14 11:52:58,1850.7447369238396,74.7000023904,0.0,1.1188800358041602,1850.7447369238396,74.7000023904,1.475998778036,1.1188800358041602,1355,-25.6,98,P-GPS,
0.305858142243378,36.8800446003437,22800,2018-04-14 11:52:58,1850.9447369302397,74.9000023968,0.0,1.1302900361692803,1850.9447369302397,74.9000023968,1.475998778036,1.1302900361692803,1349,-25.6,98,P-GPS,
0.305858066286237,36.8800445753026,22900,2018-04-14 11:52:58,1851.1447369366394,75.1000024032,0.0,1.1389500364464,1851.1447369366394,75.1000024032,1.475998778036,1.1389500364464,1346,-25.6,98,P-GPS,
0.30585795436409496,36.8800445449214,23000,2018-04-14 11:52:58,1851.3447369430396,75.30000240960001,0.0,1.15166003685312,1851.3447369430396,75.30000240960001,1.475998778036,1.15166003685312,1349,-25.6,98,P-GPS,
0.30585787349638,36.880044537719,23100,2018-04-14 11:52:58,1851.5447369494395,75.50000241600002,0.0,1.1606900371420799,1851.5447369494395,75.50000241600002,1.475998778036,1.1606900371420799,1356,-25.6,98,P-GPS,
0.305857775518605,36.880044510157,23200,2018-04-14 11:52:58,1851.6447369526397,75.60000241920001,0.0,1.1718300374985602,1851.6447369526397,75.60000241920001,1.475998778036,1.1718300374985602,1357,-25.6,98,P-GPS,
0.305857708190588,36.8800444656344,23300,2018-04-14 11:52:58,1851.8447369590397,75.80000242560001,0.0,1.17977003775264,1851.8447369590397,75.80000242560001,1.475998778036,1.17977003775264,1352,-25.6,98,P-GPS,
0.30585760723357397,36.8800444279319,23400,2018-04-14 11:52:58,1851.9447369622394,75.90000242880001,0.0,1.19136003812352,1851.9447369622394,75.90000242880001,1.475998778036,1.19136003812352,1365,-25.6,98,P-GPS,
0.30585751353372,36.88004442380271,23500,2018-04-14 11:52:58,1852.1447369686396,76.10000243520001,0.0,1.20177003845664,1852.1447369686396,76.10000243520001,1.475998778036,1.20177003845664,1387,-25.6,98,P-GPS,
0.305857397483473,36.8800444034168,23600,2018-04-14 11:52:58,1852.2447369718395,76.2000024384,0.0,1.2148400388748801,1852.2447369718395,76.2000024384,1.475998778036,1.2148400388748801,1395,-25.6,98,P-GPS,
0.305857310598658,36.880044369172104,23700,2018-04-14 11:52:59,1852.4447369782397,76.4000024448,0.35999970196000003,1.2248500391952,1852.4447369782397,76.4000024448,1.475998778036,1.2248500391952,1395,-25.6,98,P-GPS,
0.305857190119857,36.880044348010294,23800,2018-04-14 11:52:59,1852.6447369846396,76.6000024512,0.35999970196000003,1.23842003962944,1852.6447369846396,76.6000024512,1.475998778036,1.23842003962944,1415,-25.6,98,P-GPS,
0.305856927564203,36.8800443977539,24000,2018-04-14 11:52:59,1853.1447370006397,77.1000024672,0.0,1.2669000405408,1853.1447370006397,77.1000024672,1.475998778036,1.2669000405408,1415,-25.6,98,P-GPS,
0.305856797588317,36.8800444499692,24100,2018-04-14 11:52:59,1853.3447370070396,77.3000024736,0.0,1.2807300409833602,1853.3447370070396,77.3000024736,1.475998778036,1.2807300409833602,1425,-25.6,98,P-GPS,
0.30585663868556606,36.8800445073175,24200,2018-04-14 11:52:59,1853.5447370134398,77.50000248,0.0,1.2977500415279999,1853.5447370134398,77.50000248,1.475998778036,1.2977500415279999,1421,-25.6,98,P-GPS,
0.305856519583615,36.8800445528912,24300,2018-04-14 11:52:59,1853.8447370230394,77.8000024896,0.0,1.3105200419366403,1853.8447370230394,77.8000024896,1.475998778036,1.3105200419366403,1415,-25.6,98,P-GPS,
0.305856371115933,36.880044577934896,24400,2018-04-14 11:52:59,1854.0447370294396,78.00000249600001,0.35999970196000003,1.326750042456,1854.0447370294396,78.00000249600001,1.475998778036,1.326750042456,1415,-25.6,98,P-GPS,
0.305856297647868,36.8800445748806,24500,2018-04-14 11:52:59,1854.3447370390397,78.3000025056,0.35999970196000003,1.3349200427174401,1854.3447370390397,78.3000025056,1.475998778036,1.3349200427174401,1416,-25.6,98,P-GPS,
0.305856222725602,36.8800445423646,24600,2018-04-14 11:53:00,1854.5447370454397,78.500002512,0.35999970196000003,1.3435100429923201,1854.5447370454397,78.500002512,1.475998778036,1.3435100429923201,1416,-25.6,98,P-GPS,
0.305856211806885,36.8800445084585,24700,2018-04-14 11:53:00,1854.8447370550396,78.8000025216,0.35999970196000003,1.34503004304096,1854.8447370550396,78.8000025216,1.475998778036,1.34503004304096,1394,-25.6,98,P-GPS,
0.30585617099970697,36.880044457751296,24800,2018-04-14 11:53:00,1855.0447370614397,79.00000252800001,0.35999970196000003,1.35004004320128,1855.0447370614397,79.00000252800001,1.475998778036,1.35004004320128,1384,-25.6,98,P-GPS,
0.305856136498678,36.8800444313444,24900,2018-04-14 11:53:00,1855.3447370710396,79.30000253760001,0.35999970196000003,1.35412004333184,1855.3447370710396,79.30000253760001,1.475998778036,1.35412004333184,1385,-25.6,98,P-GPS,
0.305856064816202,36.880044413092705,25000,2018-04-14 11:53:00,1855.5447370774398,79.500002544,0.35999970196000003,1.3622500435920002,1855.5447370774398,79.500002544,1.475998778036,1.3622500435920002,1389,-25.6,98,P-GPS,
0.30585606195421194,36.8800444017159,25100,2018-04-14 11:53:00,1855.7447370838395,79.70000255040001,0.35999970196000003,1.36268004360576,1855.7447370838395,79.70000255040001,1.475998778036,1.36268004360576,1382,-25.6,98,P-GPS,
0.30585599718448,36.880044372298705,25200,2018-04-14 11:53:00,1856.0447370934396,80.00000256,0.35999970196000003,1.3701500438448002,1856.0447370934396,80.00000256,1.475998778036,1.3701500438448002,1346,-25.6,98,P-GPS,
0.30585592195199607,36.88004434625321,25300,2018-04-14 11:53:00,1856.2447370998398,80.20000256640002,0.0,1.37875004412,1856.2447370998398,80.20000256640002,1.475998778036,1.37875004412,1297,-25.6,98,P-GPS,
0.305855788413074,36.8800443009728,25400,2018-04-14 11:53:00,1856.4447371062395,80.4000025728,0.0,1.39402004460864,1856.4447371062395,80.4000025728,1.475998778036,1.39402004460864,1233,-25.6,98,P-GPS,
0.305855707946771,36.880044263291296,25500,2018-04-14 11:53:00,1856.6447371126396,80.6000025792,0.0,1.40334004490688,1856.6447371126396,80.6000025792,1.475998778036,1.40334004490688,1101,-25.6,98,P-GPS,
0.30585560209546897,36.8800442350745,25600,2018-04-14 11:53:01,1856.7447371158396,80.7000025824,0.0,1.41537004529184,1856.7447371158396,80.7000025824,1.475998778036,1.41537004529184,1024,-25.6,98,P-GPS,
0.305855538251507,36.8800442268152,25700,2018-04-14 11:53:01,1856.8447371190396,80.80000258560001,0.0,1.4225200455206402,1856.8447371190396,80.80000258560001,1.475998778036,1.4225200455206402,1024,-25.6,98,P-GPS,
0.305855427357728,36.8800442201441,25800,2018-04-14 11:53:01,1856.9447371222395,80.9000025888,0.35999970196000003,1.43487004591584,1856.9447371222395,80.9000025888,1.475998778036,1.43487004591584,1024,-25.6,98,P-GPS,
0.30585535815211495,36.8800442338583,25900,2018-04-14 11:53:01,1856.8447371190396,80.80000258560001,0.35999970196000003,1.4423700461558402,1856.9447371222395,80.9000025888,1.475998778036,1.4423700461558402,1024,-25.6,98,P-GPS,
0.305855253986252,36.8800441971647,26000,2018-04-14 11:53:01,1856.8447371190396,80.80000258560001,0.35999970196000003,1.4543100465379202,1856.9447371222395,80.9000025888,1.475998778036,1.4543100465379202,1024,-25.6,98,P-GPS,
0.30585519999926297,36.8800441218827,26100,2018-04-14 11:53:01,1856.8447371190396,80.80000258560001,0.35999970196000003,1.4611500467568002,1856.9447371222395,80.9000025888,1.475998778036,1.4611500467568002,1024,-25.6,98,P-GPS,
0.305855105963136,36.880044028686,26200,2018-04-14 11:53:01,1856.7447371158396,80.7000025824,0.35999970196000003,1.4726800471257602,1856.9447371222395,80.9000025888,1.475998778036,1.4726800471257602,1024,-25.6,98,P-GPS,
0.305855066501052,36.880043940727404,26300,2018-04-14 11:53:01,1856.7447371158396,80.7000025824,0.35999970196000003,1.47818004730176,1856.9447371222395,80.9000025888,1.475998778036,1.47818004730176,1024,-25.6,98,P-GPS,
0.305855014832967,36.8800438448197,26400,2018-04-14 11:53:01,1856.7447371158396,80.7000025824,0.35999970196000003,1.4851900475260802,1856.9447371222395,80.9000025888,1.475998778036,1.4851900475260802,1024,-25.6,98,P-GPS,
0.305854992359625,36.8800437780981,26500,2018-04-14 11:53:01,1856.7447371158396,80.7000025824,0.35999970196000003,1.4886200476358402,1856.9447371222395,80.9000025888,1.475998778036,1.4886200476358402,1024,-25.6,98,P-GPS,
0.305854909655026,36.8800437149587,26600,2018-04-14 11:53:01,1856.7447371158396,80.7000025824,0.35999970196000003,1.4986600479571202,1856.9447371222395,80.9000025888,1.475998778036,1.4986600479571202,1024,-25.6,98,P-GPS,
0.305854850733851,36.8800436736065,26700,2018-04-14 11:53:02,1856.7447371158396,80.7000025824,0.35999970196000003,1.50578004818496,1856.9447371222395,80.9000025888,1.475998778036,1.50578004818496,1024,-25.6,98,P-GPS,
0.305854732541386,36.8800436315911,26800,2018-04-14 11:53:02,1856.6447371126396,80.6000025792,0.35999970196000003,1.51944004862208,1856.9447371222395,80.9000025888,1.475998778036,1.51944004862208,1024,-25.6,98,P-GPS,
0.30585460261679603,36.880043620401395,26900,2018-04-14 11:53:02,1856.6447371126396,80.6000025792,0.0,1.5339200490854399,1856.9447371222395,80.9000025888,1.475998778036,1.5339200490854399,1024,-25.6,98,P-GPS,
0.305854405040942,36.8800436055831,27000,2018-04-14 11:53:02,1856.6447371126396,80.6000025792,0.0,1.55591004978912,1856.9447371222395,80.9000025888,1.475998778036,1.55591004978912,1024,-25.6,98,P-GPS,
0.305854260749405,36.880043582366206,27100,2018-04-14 11:53:02,1856.6447371126396,80.6000025792,0.0,1.57216005030912,1856.9447371222395,80.9000025888,1.475998778036,1.57216005030912,1024,-25.6,98,P-GPS,
0.30585408092359195,36.880043521613004,27200,2018-04-14 11:53:02,1856.6447371126396,80.6000025792,0.35999970196000003,1.5929000509728002,1856.9447371222395,80.9000025888,1.475998778036,1.5929000509728002,1024,-25.6,98,P-GPS,
0.30585395315587605,36.8800434618085,27300,2018-04-14 11:53:02,1856.6447371126396,80.6000025792,0.35999970196000003,1.6079100514531202,1856.9447371222395,80.9000025888,1.475998778036,1.6079100514531202,1024,-25.6,98,P-GPS,
0.30585379594670603,36.8800433800105,27400,2018-04-14 11:53:02,1856.7447371158396,80.7000025824,0.35999970196000003,1.6265200520486403,1856.9447371222395,80.9000025888,1.475998778036,1.6265200520486403,1024,-25.6,98,P-GPS,
0.30585370580256,36.8800433129244,27500,2018-04-14 11:53:02,1856.7447371158396,80.7000025824,0.35999970196000003,1.63754005240128,1856.9447371222395,80.9000025888,1.475998778036,1.63754005240128,1024,-25.6,98,P-GPS,
0.305853556650118,36.880043243934104,27600,2018-04-14 11:53:02,1856.7447371158396,80.7000025824,0.35999970196000003,1.6551000529632,1856.9447371222395,80.9000025888,1.475998778036,1.6551000529632,1024,-25.6,98,P-GPS,
0.305853441313943,36.8800432056795,27700,2018-04-14 11:53:03,1856.7447371158396,80.7000025824,0.35999970196000003,1.66843005338976,1856.9447371222395,80.9000025888,1.475998778036,1.66843005338976,1024,-25.6,98,P-GPS,
0.305853285245499,36.880043172014396,27800,2018-04-14 11:53:03,1856.7447371158396,80.7000025824,0.0,1.6861500539568002,1856.9447371222395,80.9000025888,1.475998778036,1.6861500539568002,1024,-25.6,98,P-GPS,
0.305853139193614,36.8800431520797,27900,2018-04-14 11:53:03,1856.8447371190396,80.80000258560001,0.0,1.70254005448128,1856.9447371222395,80.9000025888,1.475998778036,1.70254005448128,1024,-25.6,98,P-GPS,
0.305852916342681,36.8800431201223,28000,2018-04-14 11:53:03,1856.8447371190396,80.80000258560001,0.0,1.7275800552825602,1856.9447371222395,80.9000025888,1.475998778036,1.7275800552825602,1024,-25.6,98,P-GPS,
0.305852766380902,36.880043108937,28100,2018-04-14 11:53:03,1856.8447371190396,80.80000258560001,0.0,1.744250055816,1856.9447371222395,80.9000025888,1.475998778036,1.744250055816,1024,-25.6,98,P-GPS,
0.305852578184886,36.8800431036668,28200,2018-04-14 11:53:03,1856.9447371222395,80.9000025888,0.0,1.7650200564806398,1856.9447371222395,80.9000025888,1.475998778036,1.7650200564806398,1024,-25.6,98,P-GPS,
0.305852446961612,36.8800431184417,28300,2018-04-14 11:53:03,1856.9447371222395,80.9000025888,0.0,1.7791900569340802,1856.9447371222395,80.9000025888,1.475998778036,1.7791900569340802,1024,-25.6,98,P-GPS,
0.305852259153166,36.8800431061064,28400,2018-04-14 11:53:03,1856.9447371222395,80.9000025888,0.0,1.8000500576016003,1856.9447371222395,80.9000025888,1.475998778036,1.8000500576016003,1024,-25.6,98,P-GPS,
0.30585211830741604,36.8800430985064,28500,2018-04-14 11:53:03,1856.9447371222395,80.9000025888,0.0,1.8156600581011202,1856.9447371222395,80.9000025888,1.475998778036,1.8156600581011202,1024,-25.6,98,P-GPS,
0.3058519547204461,36.8800430809135,28600,2018-04-14 11:53:04,1856.9447371222395,80.9000025888,0.0,1.8339400586860801,1856.9447371222395,80.9000025888,1.475998778036,1.8339400586860801,1024,-25.7,97,P-GPS,
0.305851870266084,36.8800430790977,28700,2018-04-14 11:53:04,1856.8447371190396,80.80000258560001,0.35999970196000003,1.84326005898432,1856.9447371222395,80.9000025888,1.475998778036,1.84326005898432,1024,-25.8,97,P-GPS,
0.305851739972651,36.8800430645818,28800,2018-04-14 11:53:04,1856.8447371190396,80.80000258560001,0.35999970196000003,1.8578300594505601,1856.9447371222395,80.9000025888,1.475998778036,1.8578300594505601,1024,-26.0,97,P-GPS,
0.305851647599165,36.8800430622184,28900,2018-04-14 11:53:04,1856.8447371190396,80.80000258560001,0.35999970196000003,1.8680300597769601,1856.9447371222395,80.9000025888,1.475998778036,1.8680300597769601,1024,-26.2,97,P-GPS,
0.305851525716646,36.8800430271735,29000,2018-04-14 11:53:04,1856.8447371190396,80.80000258560001,0.35999970196000003,1.8820100602243204,1856.9447371222395,80.9000025888,1.475998778036,1.8820100602243204,1024,-26.4,97,P-GPS,
0.30585146218616,36.8800429939267,29100,2018-04-14 11:53:04,1856.8447371190396,80.80000258560001,0.35999970196000003,1.8895400604652801,1856.9447371222395,80.9000025888,1.475998778036,1.8895400604652801,1024,-26.4,97,P-GPS,
0.30585136115260897,36.8800429434324,29200,2018-04-14 11:53:04,1856.8447371190396,80.80000258560001,0.35999970196000003,1.9015000608480002,1856.9447371222395,80.9000025888,1.475998778036,1.9015000608480002,1024,-26.4,97,P-GPS,
0.30585131397333,36.8800429166287,29300,2018-04-14 11:53:04,1856.8447371190396,80.80000258560001,0.35999970196000003,1.90713006102816,1856.9447371222395,80.9000025888,1.475998778036,1.90713006102816,1024,-26.4,97,P-GPS,
