latitude,longitude,time_millisecond,datetime_utc,altitude_m,ascent_m,speed_kph,distance_m,max_altitude_m,max_ascent_m,max_speed_kph,max_distance_m,rc_throttle,gimbal_pitch_degrees,battery_percent,flycState,message
0.352821033222062,36.8834155343048,0,2018-04-04 08:02:05,1768.5715897942928,0.0,0.0,0.0,1768.5715897942928,0.0,0.0,0.0,364,0.0,99,Motors_Started,
0.352821027929415,36.8834155386959,100,2018-04-04 08:02:05,1768.5715897942928,0.0,0.0,0.000764761024472352,1768.5715897942928,0.0,0.0,0.000764761024472352,364,0.0,99,Motors_Started,
0.352820999582683,36.8834155170752,200,2018-04-04 08:02:06,1768.5715897942928,0.0,0.0,0.00420303013449696,1768.5715897942928,0.0,0.0,0.00420303013449696,364,0.0,99,Motors_Started,
0.352820970515569,36.8834154925473,300,2018-04-04 08:02:06,1768.5715897942928,0.0,0.0,0.00837798026809536,1768.5715897942928,0.0,0.0,0.00837798026809536,364,0.0,99,Motors_Started,
0.352820949661104,36.8834154428743,400,2018-04-04 08:02:06,1768.5715897942928,0.0,0.0,0.0137742004407744,1768.5715897942928,0.0,0.0,0.0137742004407744,364,0.0,99,Motors_Started,
0.352820935005515,36.883415398786,500,2018-04-04 08:02:06,1768.5715897942928,0.0,0.0,0.018612000595584002,1768.5715897942928,0.0,0.0,0.018612000595584002,364,0.0,99,Motors_Started,
0.352820929272782,36.8834153640205,600,2018-04-04 08:02:06,1768.5715897942928,0.0,0.0,0.022185900709948803,1768.5715897942928,0.0,0.0,0.022185900709948803,364,0.0,99,Motors_Started,Setting new Return-To-Home altitude to 30m (98 ft). Setting new Maximum Flight Altitude to 150m (492 ft)
0.352820923536791,36.8834153382973,700,2018-04-04 08:02:06,1768.5715897942928,0.0,0.0,0.024977700799286403,1768.5715897942928,0.0,0.0,0.024977700799286403,364,0.0,99,Motors_Started,
0.352820925459984,36.8834153245578,800,2018-04-04 08:02:06,1768.5715897942928,0.0,0.0,0.026223100839139202,1768.5715897942928,0.0,0.0,0.026223100839139202,543,0.0,99,Motors_Started,
0.352820924858681,36.8834153124429,900,2018-04-04 08:02:06,1768.5715897942928,0.0,0.0,0.0274577008786464,1768.5715897942928,0.0,0.0,0.0274577008786464,1024,0.0,99,Motors_Started,
0.352820929482647,36.8834153126201,1000,2018-04-04 08:02:06,1768.5715897942928,0.0,0.0,0.027218000870976,1768.5715897942928,0.0,0.0,0.0274577008786464,1024,0.0,99,Motors_Started,
0.352820930391116,36.8834153124922,1100,2018-04-04 08:02:06,1768.5715897942928,0.0,0.0,0.027188300870025602,1768.5715897942928,0.0,0.0,0.0274577008786464,1024,0.0,99,Motors_Started,
0.352820912612171,36.8834153199548,1200,2018-04-04 08:02:07,1768.5715897942928,0.0,0.0,0.027351000875232002,1768.5715897942928,0.0,0.0,0.0274577008786464,1024,0.0,99,Motors_Started,
0.352820886786678,36.8834153278932,1300,2018-04-04 08:02:07,1768.5715897942928,0.0,0.0,0.0281436009005952,1768.5715897942928,0.0,0.0,0.0281436009005952,1024,0.0,99,Motors_Started,
0.352820866951416,36.8834153089474,1400,2018-04-04 08:02:07,1768.5715897942928,0.0,0.0,0.0311437009965984,1768.5715897942928,0.0,0.0,0.0311437009965984,1024,0.0,99,Motors_Started,
0.352820851794673,36.8834152884557,1500,2018-04-04 08:02:07,1768.5715897942928,0.0,0.0,0.033978001087296004,1768.5715897942928,0.0,0.0,0.033978001087296004,1024,0.0,99,Assisted_Takeoff,
0.352820879269984,36.8834153017787,1600,2018-04-04 08:02:07,1768.5715897942928,0.0,0.0,0.031011900992380804,1768.5715897942928,0.0,0.0,0.033978001087296004,1024,0.0,99,Assisted_Takeoff,
0.352820903311924,36.8834153225162,1700,2018-04-04 08:02:07,1768.5715897942928,0.0,0.0,0.0276296008841472,1768.5715897942928,0.0,0.0,0.033978001087296004,1024,0.0,99,Assisted_Takeoff,
0.352820934085037,36.8834153154245,1800,2018-04-04 08:02:07,1768.5715897942928,0.0,0.0,0.026720700855062403,1768.5715897942928,0.0,0.0,0.033978001087296004,1024,0.0,99,Assisted_Takeoff,
0.352820953910529,36.8834153026801,1900,2018-04-04 08:02:07,1768.5715897942928,0.0,0.0,0.0272258008712256,1768.5715897942928,0.0,0.0,0.033978001087296004,1024,0.0,99,Assisted_Takeoff,
0.352820942603428,36.8834153236237,2000,2018-04-04 08:02:07,1768.5715897942928,0.0,0.0,0.025504000816128004,1768.5715897942928,0.0,0.0,0.033978001087296004,1024,0.0,99,Assisted_Takeoff,
0.352820927839547,36.8834153480526,2100,2018-04-04 08:02:08,1768.5715897942928,0.0,0.0,0.023797600761523204,1768.5715897942928,0.0,0.0,0.033978001087296004,1024,0.0,99,Assisted_Takeoff,
0.352820903193658,36.883415391946,2300,2018-04-04 08:02:08,1768.5715897942928,0.0,0.0,0.021440800686105602,1768.5715897942928,0.0,0.0,0.033978001087296004,1024,0.0,99,Assisted_Takeoff,
0.352820894591199,36.8834154081425,2400,2018-04-04 08:02:08,1768.5715897942928,0.0,0.0,0.0208448006670336,1768.5715897942928,0.0,0.0,0.033978001087296004,1024,0.0,99,Assisted_Takeoff,
0.352820890391646,36.8834154215126,2500,2018-04-04 08:02:08,1768.5715897942928,0.0,0.0,0.0202389006476448,1768.5715897942928,0.0,0.0,0.033978001087296004,1024,0.0,99,Assisted_Takeoff,
0.352820917759886,36.8834154613367,2600,2018-04-04 08:02:08,1768.5715897942928,0.0,0.0,0.015189200486054402,1768.5715897942928,0.0,0.0,0.033978001087296004,1024,0.0,99,Assisted_Takeoff,
0.352820945949473,36.883415501104,2700,2018-04-04 08:02:08,1768.5715897942928,0.0,0.0,0.0103838003322816,1768.5715897942928,0.0,0.0,0.033978001087296004,1024,0.0,99,Assisted_Takeoff,
0.352820973337051,36.8834155329371,2800,2018-04-04 08:02:08,1768.5715897942928,0.0,0.0,0.00666131021316192,1768.5715897942928,0.0,0.0,0.033978001087296004,1024,0.0,99,Assisted_Takeoff,
0.35282099375896,36.8834155589949,2900,2018-04-04 08:02:08,1768.5715897942928,0.0,0.0,0.00517666016565312,1768.5715897942928,0.0,0.0,0.033978001087296004,1024,0.0,99,Assisted_Takeoff,
0.3528210095968,36.8834155730802,3000,2018-04-04 08:02:08,1768.5715897942928,0.0,0.0,0.00504933016157856,1768.5715897942928,0.0,0.0,0.033978001087296004,1024,0.0,99,Assisted_Takeoff,
0.352821023721312,36.8834155883855,3100,2018-04-04 08:02:08,1768.5715897942928,0.0,0.0,0.006106090195394881,1768.5715897942928,0.0,0.0,0.033978001087296004,1024,0.0,99,Assisted_Takeoff,
0.352821032483969,36.8834155939317,3200,2018-04-04 08:02:09,1768.5715897942928,0.0,0.0,0.00663126021220032,1768.5715897942928,0.0,0.0,0.033978001087296004,1024,0.0,99,Assisted_Takeoff,
0.352821040446246,36.8834155994127,3300,2018-04-04 08:02:09,1768.5715897942928,0.0,0.0,0.007284680233109761,1768.5715897942928,0.0,0.0,0.033978001087296004,1024,0.0,99,Assisted_Takeoff,
0.352821041785438,36.883415592882,3400,2018-04-04 08:02:09,1768.5715897942928,0.0,0.0,0.00658326021066432,1768.5715897942928,0.0,0.0,0.033978001087296004,1024,0.0,99,Assisted_Takeoff,
0.352821047851188,36.8834155966227,3500,2018-04-04 08:02:09,1768.5715897942928,0.0,0.0,0.00711839022778848,1768.5715897942928,0.0,0.0,0.033978001087296004,1024,0.0,99,Assisted_Takeoff,
0.352821047025364,36.883415562658,3600,2018-04-04 08:02:09,1768.5715897942928,0.0,0.0,0.0035067901122172803,1768.5715897942928,0.0,0.0,0.033978001087296004,1024,0.0,99,Assisted_Takeoff,
0.3528210504797,36.8834155348905,3700,2018-04-04 08:02:09,1768.5715897942928,0.0,0.0,0.0019202600614483202,1768.5715897942928,0.0,0.0,0.033978001087296004,1024,0.0,99,Assisted_Takeoff,
0.35282104707727,36.8834154991823,3800,2018-04-04 08:02:09,1768.5715897942928,0.0,0.0,0.00419869013435808,1768.5715897942928,0.0,0.0,0.033978001087296004,1024,0.0,99,Assisted_Takeoff,
0.352821048522718,36.8834154814612,3900,2018-04-04 08:02:09,1768.5715897942928,0.0,0.0,0.006117800195769601,1768.5715897942928,0.0,0.0,0.033978001087296004,1024,0.0,99,Assisted_Takeoff,
0.35282104252923,36.8834154582571,4000,2018-04-04 08:02:09,1768.5715897942928,0.0,0.0,0.00851991027263712,1768.5715897942928,0.0,0.0,0.033978001087296004,1024,0.0,99,Assisted_Takeoff,
0.35282104267294,36.8834154495082,4100,2018-04-04 08:02:09,1768.5715897942928,0.0,0.0,0.009488110303619521,1768.5715897942928,0.0,0.0,0.033978001087296004,1024,0.0,99,Assisted_Takeoff,
0.352821036827029,36.8834154387626,4200,2018-04-04 08:02:09,1768.5715897942928,0.0,0.0,0.0106322003402304,1768.5715897942928,0.0,0.0,0.033978001087296004,1024,0.0,99,Assisted_Takeoff,
0.352821035424532,36.8834154351981,4300,2018-04-04 08:02:10,1768.5715897942928,0.0,0.0,0.0110238003527616,1768.5715897942928,0.0,0.0,0.033978001087296004,1024,0.0,99,Assisted_Takeoff,
0.352821029997539,36.8834154301631,4400,2018-04-04 08:02:10,1768.5715897942928,0.0,0.0,0.011586500370768001,1768.5715897942928,0.0,0.0,0.033978001087296004,1024,0.0,99,Assisted_Takeoff,
0.352821029978812,36.8834154313669,4500,2018-04-04 08:02:10,1768.5715897942928,0.0,0.0,0.011452800366489602,1768.5715897942928,0.0,0.0,0.033978001087296004,1024,0.0,99,Assisted_Takeoff,
0.352821026137719,36.8834154012714,4600,2018-04-04 08:02:10,1768.5715897942928,0.0,0.0,0.014814800474073601,1768.5715897942928,0.0,0.0,0.033978001087296004,1024,0.0,99,Assisted_Takeoff,
0.352821027268877,36.8834153762334,4700,2018-04-04 08:02:10,1768.5715897942928,0.0,0.0,0.0175906005628992,1768.5715897942928,0.0,0.0,0.033978001087296004,1024,0.0,99,Assisted_Takeoff,
0.352821024668456,36.8834153511932,4800,2018-04-04 08:02:10,1768.5715897942928,0.0,0.0,0.02038500065232,1768.5715897942928,0.0,0.0,0.033978001087296004,1024,0.0,99,Assisted_Takeoff,
0.352821025552294,36.8834153388792,4900,2018-04-04 08:02:10,1768.5715897942928,0.0,0.0,0.021748800695961603,1768.5715897942928,0.0,0.0,0.033978001087296004,1024,0.0,99,Assisted_Takeoff,
0.352821022481863,36.8834152988147,5000,2018-04-04 08:02:10,1768.5715897942928,0.0,0.0,0.0262147008388704,1768.5715897942928,0.0,0.0,0.033978001087296004,1024,0.0,99,Assisted_Takeoff,
0.352821023159499,36.8834152667038,5100,2018-04-04 08:02:10,1768.5715897942928,0.0,0.0,0.0297793009529376,1768.5715897942928,0.0,0.0,0.033978001087296004,1024,0.0,99,Assisted_Takeoff,
0.352821020592053,36.8834152361704,5200,2018-04-04 08:02:11,1768.5715897942928,0.0,0.0,0.033183501061872,1768.5715897942928,0.0,0.0,0.033978001087296004,1024,0.0,99,Assisted_Takeoff,
0.352821049595659,36.8834152084548,5400,2018-04-04 08:02:11,1768.5715897942928,0.0,0.0,0.036281501161008,1768.5715897942928,0.0,0.0,0.036281501161008,1024,0.0,99,Assisted_Takeoff,
0.352821081880782,36.8834152047751,5500,2018-04-04 08:02:11,1768.5715897942928,0.0,0.0,0.0370424011853568,1768.5715897942928,0.0,0.0,0.0370424011853568,1029,0.0,99,Assisted_Takeoff,
0.352821109517716,36.8834151740003,5600,2018-04-04 08:02:11,1768.5715897942928,0.0,0.0,0.0409558013105856,1768.5715897942928,0.0,0.0,0.0409558013105856,1024,0.0,99,Assisted_Takeoff,
0.352821131905768,36.8834151475651,5700,2018-04-04 08:02:11,1768.5715897942928,0.0,0.0,0.0443851014203232,1768.5715897942928,0.0,0.0,0.0443851014203232,1025,0.0,99,Assisted_Takeoff,
0.352821145581033,36.883415123088,5800,2018-04-04 08:02:11,1768.5715897942928,0.0,0.0,0.0474053015169696,1768.5715897942928,0.0,0.0,0.0474053015169696,1075,0.0,99,Assisted_Takeoff,
0.352821159613335,36.8834151100846,5900,2018-04-04 08:02:11,1768.5715897942928,0.0,0.0,0.0492243015751776,1768.5715897942928,0.0,0.0,0.0492243015751776,1130,0.0,99,Assisted_Takeoff,
0.35282116352038,36.883415100499,6000,2018-04-04 08:02:11,1768.5715897942928,0.0,0.0,0.05037010161184321,1768.5715897942928,0.0,0.0,0.05037010161184321,1149,0.0,99,Assisted_Takeoff,
0.35282116991874,36.8834150963804,6100,2018-04-04 08:02:11,1768.5715897942928,0.0,0.0,0.051016401632524806,1768.5715897942928,0.0,0.0,0.051016401632524806,1151,0.0,99,Assisted_Takeoff,
0.352821166114694,36.8834150665584,6200,2018-04-04 08:02:12,1768.5715897942928,0.0,0.0,0.054073901730364804,1768.5715897942928,0.0,0.0,0.054073901730364804,1140,0.0,99,Assisted_Takeoff,
0.352821167583754,36.8834150381233,6300,2018-04-04 08:02:12,1768.5715897942928,0.0,0.0,0.0571647018292704,1768.5715897942928,0.0,0.0,0.0571647018292704,1163,0.0,99,Assisted_Takeoff,
0.352821160596101,36.883415013088,6400,2018-04-04 08:02:12,1768.5715897942928,0.0,0.0,0.05966710190934721,1768.5715897942928,0.0,0.0,0.05966710190934721,1197,0.0,99,Assisted_Takeoff,
0.35282116088515,36.883415000214,6500,2018-04-04 08:02:12,1768.5715897942928,0.0,0.0,0.0610662019541184,1768.5715897942928,0.0,0.0,0.0610662019541184,1204,0.0,99,Assisted_Takeoff,
0.352821153462906,36.8834149616543,6600,2018-04-04 08:02:12,1768.5715897942928,0.0,0.0,0.06506970208223041,1768.5715897942928,0.0,0.0,0.06506970208223041,1194,0.0,99,Assisted_Takeoff,
0.352821154268782,36.8834149322825,6700,2018-04-04 08:02:12,1768.5715897942928,0.0,0.0,0.0682872021851904,1768.5715897942928,0.0,0.0,0.0682872021851904,1191,0.0,99,Assisted_Takeoff,
0.352821152616319,36.8834149210691,6800,2018-04-04 08:02:12,1768.5715897942928,0.0,0.0,0.0694748022231936,1768.5715897942928,0.0,0.0,0.0694748022231936,1182,0.0,99,Assisted_Takeoff,
0.352821158666802,36.8834149413794,6900,2018-04-04 08:02:12,1768.5715897942928,0.0,0.0,0.0673953021566496,1768.5715897942928,0.0,0.0,0.0694748022231936,1187,0.0,99,Assisted_Takeoff,
0.352821132591953,36.8834149677503,7000,2018-04-04 08:02:12,1768.5715897942928,0.0,0.0,0.0639649020468768,1768.5715897942928,0.0,0.0,0.0694748022231936,1189,0.0,99,P-GPS,
0.352821075837423,36.8834149676738,7100,2018-04-04 08:02:12,1768.5715897942928,0.0,0.0,0.0631896020220672,1768.5715897942928,0.0,0.0,0.0694748022231936,1225,0.0,99,P-GPS,
0.352821013504454,36.8834149110595,7200,2018-04-04 08:02:13,1768.5715897942928,0.0,0.0,0.069342002218944,1768.5715897942928,0.0,0.0,0.0694748022231936,1234,0.0,99,P-GPS,Obstacle Avoided. Revise Flight Route
0.352820968282158,36.883414827204,7300,2018-04-04 08:02:13,1768.5715897942928,0.0,0.0,0.0789634025268288,1768.5715897942928,0.0,0.0,0.0789634025268288,1240,0.0,99,P-GPS,
0.352820927886976,36.8834147024248,7400,2018-04-04 08:02:13,1768.6715897974927,0.1000000032,0.0,0.0932471029839072,1768.6715897974927,0.1000000032,0.0,0.0932471029839072,1243,0.0,99,P-GPS,
0.352820896782271,36.8834145662952,7500,2018-04-04 08:02:13,1768.6715897974927,0.1000000032,0.0,0.10871100347875201,1768.6715897974927,0.1000000032,0.0,0.10871100347875201,1257,0.0,99,P-GPS,
0.352820867891028,36.8834144088522,7600,2018-04-04 08:02:13,1768.771589800693,0.2000000064,0.35999970196000003,0.126498004047936,1768.771589800693,0.2000000064,0.35999970196000003,0.126498004047936,1250,0.0,99,P-GPS,
0.352820845677423,36.8834142650673,7700,2018-04-04 08:02:13,1768.871589803893,0.3000000096,0.35999970196000003,0.142677004565664,1768.871589803893,0.3000000096,0.35999970196000003,0.142677004565664,1266,0.0,99,P-GPS,
0.352820829238078,36.8834141611043,7800,2018-04-04 08:02:13,1768.9715898070929,0.4000000128,0.35999970196000003,0.154381004940192,1768.9715898070929,0.4000000128,0.35999970196000003,0.154381004940192,1269,0.0,99,P-GPS,Home Point Recorded. RTH Altitude:  30m.
0.352820799804359,36.8834140749662,7900,2018-04-04 08:02:13,1769.0715898102926,0.500000016,0.0,0.164347005259104,1769.0715898102926,0.500000016,0.35999970196000003,0.164347005259104,1269,0.0,99,P-GPS,Obstacle Avoided. Revise Flight Route
0.352820741748703,36.8834140388186,8000,2018-04-04 08:02:13,1769.171589813493,0.6000000192,0.0,0.16943300542185602,1769.171589813493,0.6000000192,0.35999970196000003,0.16943300542185602,1259,0.0,99,P-GPS,
0.352820681952239,36.8834140198738,8100,2018-04-04 08:02:13,1769.2715898166928,0.7000000224,0.0,0.172882005532224,1769.2715898166928,0.7000000224,0.35999970196000003,0.172882005532224,1261,0.0,99,P-GPS,
0.352820614075843,36.8834140070936,8200,2018-04-04 08:02:14,1769.3715898198927,0.8000000256,0.0,0.176112005635584,1769.3715898198927,0.8000000256,0.35999970196000003,0.176112005635584,1257,0.0,99,P-GPS,
0.352820551907348,36.8834139715915,8300,2018-04-04 08:02:14,1769.4715898230927,0.9000000288000001,0.0,0.181836005818752,1769.4715898230927,0.9000000288000001,0.35999970196000003,0.181836005818752,1292,0.0,99,P-GPS,
0.352820490047238,36.8834138983632,8400,2018-04-04 08:02:14,1769.571589826293,1.000000032,0.0,0.191689006134048,1769.571589826293,1.000000032,0.35999970196000003,0.191689006134048,1299,0.0,99,P-GPS,
0.35282043852612,36.883413834425,8500,2018-04-04 08:02:14,1769.6715898294929,1.1000000352000001,0.0,0.200268006408576,1769.6715898294929,1.1000000352000001,0.35999970196000003,0.200268006408576,1265,0.0,99,P-GPS,
0.352820364779591,36.8834137495093,8600,2018-04-04 08:02:14,1769.7715898326928,1.2000000384,0.0,0.21194000678208,1769.7715898326928,1.2000000384,0.35999970196000003,0.21194000678208,1237,0.0,99,P-GPS,
0.352820214167656,36.8834136091334,8800,2018-04-04 08:02:14,1770.0715898422927,1.5000000480000002,0.0,0.23265700744502402,1770.0715898422927,1.5000000480000002,0.35999970196000003,0.23265700744502402,1242,0.0,99,P-GPS,
0.352820166816168,36.8834135462688,8900,2018-04-04 08:02:14,1770.1715898454927,1.6000000512,0.0,0.24116100771715202,1770.1715898454927,1.6000000512,0.35999970196000003,0.24116100771715202,1237,0.0,99,P-GPS,
0.352820109952125,36.8834134370195,9000,2018-04-04 08:02:14,1770.2715898486927,1.7000000544000002,0.0,0.254826008154432,1770.2715898486927,1.7000000544000002,0.35999970196000003,0.254826008154432,1237,0.0,99,P-GPS,
0.352820071288997,36.8834133302446,9100,2018-04-04 08:02:14,1770.3715898518928,1.8000000576000001,0.0,0.267427008557664,1770.3715898518928,1.8000000576000001,0.35999970196000003,0.267427008557664,1235,0.0,99,P-GPS,
0.35281999947024,36.8834131567246,9200,2018-04-04 08:02:15,1770.4715898550928,1.9000000608000003,0.0,0.288307009225824,1770.4715898550928,1.9000000608000003,0.35999970196000003,0.288307009225824,1228,0.0,99,P-GPS,
0.35281994469488,36.8834130107169,9300,2018-04-04 08:02:15,1770.5715898582928,2.000000064,0.0,0.305628009780096,1770.5715898582928,2.000000064,0.35999970196000003,0.305628009780096,1243,0.0,99,P-GPS,
0.352819906198057,36.883412894089,9400,2018-04-04 08:02:15,1770.671589861493,2.1000000672000003,0.0,0.31923401021548803,1770.671589861493,2.1000000672000003,0.35999970196000003,0.31923401021548803,1221,0.0,99,P-GPS,
0.352819899809468,36.8834128176583,9500,2018-04-04 08:02:15,1770.771589864693,2.2000000704000002,0.0,0.32734101047491204,1770.771589864693,2.2000000704000002,0.35999970196000003,0.32734101047491204,1212,0.0,99,P-GPS,
0.352819855080488,36.8834127625006,9600,2018-04-04 08:02:15,1770.871589867893,2.3000000736,0.0,0.3349250107176,1770.871589867893,2.3000000736,0.35999970196000003,0.3349250107176,1199,0.0,99,P-GPS,
0.352819826043906,36.8834127206815,9700,2018-04-04 08:02:15,1770.9715898710926,2.4000000768,0.0,0.34047001089504,1770.9715898710926,2.4000000768,0.35999970196000003,0.34047001089504,1205,0.0,99,P-GPS,
0.352819775187804,36.8834126244362,9800,2018-04-04 08:02:15,1770.9715898710926,2.4000000768,0.0,0.35253701128118403,1770.9715898710926,2.4000000768,0.35999970196000003,0.35253701128118403,1216,0.0,99,P-GPS,
0.352819748311353,36.8834125254817,9900,2018-04-04 08:02:15,1771.0715898742928,2.50000008,0.0,0.363827011642464,1771.0715898742928,2.50000008,0.35999970196000003,0.363827011642464,1221,-0.1,99,P-GPS,
0.35281974899418,36.883412483077,10000,2018-04-04 08:02:15,1771.1715898774928,2.6000000832000003,0.0,0.36813901178044806,1771.1715898774928,2.6000000832000003,0.35999970196000003,0.36813901178044806,1200,-0.4,99,P-GPS,
0.352819774755859,36.8834124666232,10100,2018-04-04 08:02:15,1771.2715898806928,2.7000000864,0.0,0.368729011799328,1771.2715898806928,2.7000000864,0.35999970196000003,0.368729011799328,1197,-1.0,99,P-GPS,
0.352819789179089,36.8834124328609,10200,2018-04-04 08:02:16,1771.3715898838927,2.8000000896,0.0,0.37160501189136,1771.3715898838927,2.8000000896,0.35999970196000003,0.37160501189136,1220,-2.6,99,P-GPS,
0.352819815342994,36.883412353152,10400,2018-04-04 08:02:16,1771.471589887093,2.9000000928,0.0,0.378796012121472,1771.471589887093,2.9000000928,0.35999970196000003,0.378796012121472,1215,-3.5,99,P-GPS,
0.352819833458924,36.8834123183448,10500,2018-04-04 08:02:16,1771.571589890293,3.0000000960000004,0.0,0.38170501221456005,1771.571589890293,3.0000000960000004,0.35999970196000003,0.38170501221456005,1211,-3.5,99,P-GPS,
0.352819811443786,36.8834122733294,10600,2018-04-04 08:02:16,1771.6715898934929,3.1000000992000003,0.0,0.38725101239203197,1771.6715898934929,3.1000000992000003,0.35999970196000003,0.38725101239203197,1216,-4.4,99,P-GPS,
0.352819797310215,36.8834122307807,10700,2018-04-04 08:02:16,1771.6715898934929,3.1000000992000003,0.0,0.392233012551456,1771.6715898934929,3.1000000992000003,0.35999970196000003,0.392233012551456,1216,-5.4,99,P-GPS,
0.352819771693366,36.8834121767755,10800,2018-04-04 08:02:16,1771.7715898966926,3.2000001024,0.0,0.398857012763424,1771.7715898966926,3.2000001024,0.35999970196000003,0.398857012763424,1216,-6.3,99,P-GPS,
0.35281976571657,36.8834121308375,10900,2018-04-04 08:02:16,1771.8715898998928,3.3000001056,0.0,0.403874012923968,1771.8715898998928,3.3000001056,0.35999970196000003,0.403874012923968,1216,-7.2,99,P-GPS,
0.352819713435783,36.8834121375191,11000,2018-04-04 08:02:16,1771.9715899030928,3.4000001088000005,0.0,0.405247012967904,1771.9715899030928,3.4000001088000005,0.35999970196000003,0.405247012967904,1214,-8.2,99,P-GPS,
0.352819672916839,36.883412160353,11100,2018-04-04 08:02:16,1772.0715899062927,3.500000112,0.0,0.40454501294544004,1772.0715899062927,3.500000112,0.35999970196000003,0.405247012967904,1214,-9.0,99,P-GPS,
0.352819621471036,36.883412167294,11200,2018-04-04 08:02:17,1772.0715899062927,3.500000112,0.0,0.406007012992224,1772.0715899062927,3.500000112,0.35999970196000003,0.406007012992224,1241,-9.4,99,P-GPS,
0.352819564673149,36.8834121083301,11400,2018-04-04 08:02:17,1772.271589912693,3.7000001184,0.0,0.4145090132642881,1772.271589912693,3.7000001184,0.35999970196000003,0.4145090132642881,1244,-9.4,99,P-GPS,
0.35281955081224,36.8834120549268,11500,2018-04-04 08:02:17,1772.3715899158929,3.8000001216000006,0.0,0.42057601345843204,1772.3715899158929,3.8000001216000006,0.35999970196000003,0.42057601345843204,1250,-9.5,99,P-GPS,
0.352819532414487,36.8834120328717,11600,2018-04-04 08:02:17,1772.4715899190928,3.9000001248,0.0,0.42363501355632005,1772.4715899190928,3.9000001248,0.35999970196000003,0.42363501355632005,1250,-9.5,99,P-GPS,
0.35281952523651,36.8834120229596,11700,2018-04-04 08:02:17,1772.5715899222928,4.000000128,0.0,0.42496301359881605,1772.5715899222928,4.000000128,0.35999970196000003,0.42496301359881605,1244,-9.5,99,P-GPS,
0.352819519697968,36.8834119902438,11800,2018-04-04 08:02:17,1772.671589925493,4.100000131200001,0.0,0.4285500137136001,1772.671589925493,4.100000131200001,0.35999970196000003,0.4285500137136001,1246,-9.5,99,P-GPS,
0.352819521854028,36.8834119591001,11900,2018-04-04 08:02:17,1772.7715899286927,4.200000134400001,0.0,0.43164401381260803,1772.7715899286927,4.200000134400001,0.35999970196000003,0.43164401381260803,1242,-9.4,99,P-GPS,
0.352819525099517,36.8834119769879,12000,2018-04-04 08:02:17,1772.8715899318927,4.3000001376,0.0,0.42967101374947203,1772.8715899318927,4.3000001376,0.35999970196000003,0.43164401381260803,1245,-9.5,99,P-GPS,
0.352819532390264,36.8834120082392,12100,2018-04-04 08:02:17,1772.9715899350929,4.4000001408000005,0.0,0.42615501363696007,1772.9715899350929,4.4000001408000005,0.35999970196000003,0.43164401381260803,1246,-9.5,99,P-GPS,
0.352819510028777,36.8834120172308,12200,2018-04-04 08:02:17,1773.0715899382928,4.500000144,0.0,0.42621801363897605,1773.0715899382928,4.500000144,0.35999970196000003,0.43164401381260803,1244,-9.4,99,P-GPS,
0.352819490711665,36.8834120075684,12300,2018-04-04 08:02:18,1773.1715899414928,4.6000001472,0.0,0.42806001369792,1773.1715899414928,4.6000001472,0.35999970196000003,0.43164401381260803,1244,-9.4,99,P-GPS,
0.352819463906459,36.8834120192933,12400,2018-04-04 08:02:18,1773.2715899446928,4.7000001504,0.0,0.428073013698336,1773.2715899446928,4.7000001504,0.35999970196000003,0.43164401381260803,1245,-9.5,99,P-GPS,
0.352819450360858,36.8834120332909,12500,2018-04-04 08:02:18,1773.371589947893,4.8000001536,0.0,0.42727001367264,1773.371589947893,4.8000001536,0.35999970196000003,0.43164401381260803,1246,-9.4,99,P-GPS,
0.352819406704819,36.8834120197044,12600,2018-04-04 08:02:18,1773.471589951093,4.9000001568,0.0,0.430664013781248,1773.471589951093,4.9000001568,0.35999970196000003,0.43164401381260803,1245,-9.5,99,P-GPS,
0.35281936939676,36.8834119978595,12700,2018-04-04 08:02:18,1773.5715899542927,5.00000016,0.0,0.43461901390780805,1773.5715899542927,5.00000016,0.35999970196000003,0.43461901390780805,1245,-9.5,99,P-GPS,
0.352819330921514,36.8834120085927,12800,2018-04-04 08:02:18,1773.6715899574926,5.1000001632,0.0,0.43538301393225604,1773.6715899574926,5.1000001632,0.35999970196000003,0.43538301393225604,1246,-9.5,99,P-GPS,
0.352819311214186,36.8834120210301,12900,2018-04-04 08:02:18,1773.7715899606928,5.200000166400001,0.0,0.435098013923136,1773.7715899606928,5.200000166400001,0.35999970196000003,0.43538301393225604,1244,-9.5,99,P-GPS,
0.352819269268828,36.8834119754816,13000,2018-04-04 08:02:18,1773.8715899638928,5.3000001696000005,0.0,0.44170301413449603,1773.8715899638928,5.3000001696000005,0.35999970196000003,0.44170301413449603,1245,-9.5,99,P-GPS,
0.352819239231262,36.883411922278,13100,2018-04-04 08:02:18,1773.9715899670928,5.4000001728,0.0,0.448488014351616,1773.9715899670928,5.4000001728,0.35999970196000003,0.448488014351616,1246,-9.6,99,P-GPS,
0.352819192580515,36.883411879483,13200,2018-04-04 08:02:19,1774.0715899702927,5.5000001759999995,0.0,0.45506501456208,1774.0715899702927,5.5000001759999995,0.35999970196000003,0.45506501456208,1249,-9.6,99,P-GPS,
0.352819162543865,36.8834118503034,13300,2018-04-04 08:02:19,1774.171589973493,5.6000001792,0.0,0.459468014702976,1774.171589973493,5.6000001792,0.35999970196000003,0.459468014702976,1249,-9.7,99,P-GPS,
0.352819138401165,36.8834118372962,13400,2018-04-04 08:02:19,1774.271589976693,5.7000001824,0.0,0.46197701478326403,1774.271589976693,5.7000001824,0.35999970196000003,0.46197701478326403,1254,-9.9,99,P-GPS,
0.352819129291853,36.8834118287809,13500,2018-04-04 08:02:19,1774.3715899798929,5.8000001856,0.0,0.463282014825024,1774.3715899798929,5.8000001856,0.35999970196000003,0.463282014825024,1257,-10.1,99,P-GPS,
0.352819118547786,36.8834118512444,13600,2018-04-04 08:02:19,1774.4715899830926,5.9000001888,0.0,0.46161101477155203,1774.4715899830926,5.9000001888,0.35999970196000003,0.463282014825024,1255,-10.1,99,P-GPS,
0.352819116825554,36.8834118697098,13700,2018-04-04 08:02:19,1774.5715899862928,6.000000192000001,0.0,0.459879014716128,1774.5715899862928,6.000000192000001,0.35999970196000003,0.463282014825024,1252,-10.4,99,P-GPS,
0.352819057517726,36.8834118678194,13800,2018-04-04 08:02:19,1774.6715899894928,6.100000195200001,0.0,0.46315701482102406,1774.6715899894928,6.100000195200001,0.35999970196000003,0.463282014825024,1253,-10.7,99,P-GPS,
0.352818898969517,36.8834117042351,14100,2018-04-04 08:02:19,1774.9715899990929,6.4000002048,0.0,0.487584015602688,1774.9715899990929,6.4000002048,0.35999970196000003,0.487584015602688,1253,-11.9,99,P-GPS,
0.352818863126244,36.8834116480061,14200,2018-04-04 08:02:19,1775.0715900022929,6.500000208,0.0,0.49498701583958404,1775.0715900022929,6.500000208,0.35999970196000003,0.49498701583958404,1252,-12.3,99,P-GPS,
0.352818840918339,36.8834116065908,14300,2018-04-04 08:02:20,1775.1715900054928,6.6000002112,0.0,0.500212016006784,1775.1715900054928,6.6000002112,0.35999970196000003,0.500212016006784,1255,-12.6,99,P-GPS,
0.352818781742516,36.8834115223343,14400,2018-04-04 08:02:20,1775.271590008693,6.7000002144,0.0,0.511602016371264,1775.271590008693,6.7000002144,0.35999970196000003,0.511602016371264,1255,-13.0,99,P-GPS,
0.352818736549429,36.8834114418046,14500,2018-04-04 08:02:20,1775.371590011893,6.800000217600001,0.0,0.521871016699872,1775.371590011893,6.800000217600001,0.35999970196000003,0.521871016699872,1256,-13.4,99,P-GPS,
0.352818709599292,36.8834113449266,14600,2018-04-04 08:02:20,1775.4715900150927,6.900000220800001,0.0,0.532739017047648,1775.4715900150927,6.900000220800001,0.35999970196000003,0.532739017047648,1257,-13.8,99,P-GPS,
0.352818697346192,36.883411259991,14700,2018-04-04 08:02:20,1775.5715900182927,7.000000224,0.0,0.541671017333472,1775.5715900182927,7.000000224,0.35999970196000003,0.541671017333472,1267,-14.2,99,P-GPS,
0.352818663415729,36.8834112085195,14800,2018-04-04 08:02:20,1775.7715900246928,7.200000230400001,0.0,0.5485030175520961,1775.7715900246928,7.200000230400001,0.35999970196000003,0.5485030175520961,1261,-14.6,99,P-GPS,
0.352818639070695,36.8834111716281,14900,2018-04-04 08:02:20,1775.8715900278928,7.3000002336000005,0.0,0.553402017708864,1775.8715900278928,7.3000002336000005,0.35999970196000003,0.553402017708864,1260,-15.0,99,P-GPS,
0.352818622532167,36.8834111411633,15000,2018-04-04 08:02:20,1775.9715900310928,7.4000002368,0.0,0.557257017832224,1775.9715900310928,7.4000002368,0.35999970196000003,0.557257017832224,1264,-15.4,99,P-GPS,
0.352818628775443,36.8834111051973,15100,2018-04-04 08:02:20,1776.071590034293,7.50000024,0.0,0.56043501793392,1776.071590034293,7.50000024,0.35999970196000003,0.56043501793392,1275,-15.7,99,P-GPS,
0.352818590686494,36.8834110388173,15200,2018-04-04 08:02:21,1776.171590037493,7.600000243200001,0.0,0.5689430182061761,1776.171590037493,7.600000243200001,0.35999970196000003,0.5689430182061761,1275,-15.8,99,P-GPS,
0.352818561250741,36.8834109535552,15300,2018-04-04 08:02:21,1776.2715900406927,7.7000002464,0.0,0.578839018522848,1776.2715900406927,7.7000002464,0.35999970196000003,0.578839018522848,1271,-15.8,99,P-GPS,
0.35281853191277,36.8834108626207,15400,2018-04-04 08:02:21,1776.3715900438926,7.8000002496,0.0,0.589291018857312,1776.3715900438926,7.8000002496,0.35999970196000003,0.589291018857312,1269,-15.8,99,P-GPS,
0.352818535848159,36.8834107805402,15500,2018-04-04 08:02:21,1776.5715900502928,8.000000256,0.0,0.5971500191088001,1776.5715900502928,8.000000256,0.35999970196000003,0.5971500191088001,1269,-15.8,99,P-GPS,
0.35281851510308,36.8834107092754,15600,2018-04-04 08:02:21,1776.6715900534928,8.1000002592,0.0,0.605241019367712,1776.6715900534928,8.1000002592,0.35999970196000003,0.605241019367712,1272,-15.8,99,P-GPS,
0.352818522638807,36.883410650298,15700,2018-04-04 08:02:21,1776.7715900566927,8.200000262400001,0.0,0.610679019541728,1776.7715900566927,8.200000262400001,0.35999970196000003,0.610679019541728,1277,-15.8,99,P-GPS,
0.352818518835627,36.8834105867784,15800,2018-04-04 08:02:21,1776.871590059893,8.300000265600001,0.0,0.617161019749152,1776.871590059893,8.300000265600001,0.35999970196000003,0.617161019749152,1280,-15.8,99,P-GPS,
0.352818527483911,36.883410522155,15900,2018-04-04 08:02:21,1776.971590063093,8.400000268800001,0.0,0.6231450199406401,1776.971590063093,8.400000268800001,0.35999970196000003,0.6231450199406401,1291,-15.8,99,P-GPS,
0.352818502907549,36.8834104949083,16000,2018-04-04 08:02:21,1777.1715900694926,8.6000002752,0.0,0.627079020066528,1777.1715900694926,8.6000002752,0.35999970196000003,0.627079020066528,1292,-15.8,99,P-GPS,
0.352818492648886,36.8834104804949,16100,2018-04-04 08:02:21,1777.2715900726928,8.700000278400001,0.0,0.629023020128736,1777.2715900726928,8.700000278400001,0.35999970196000003,0.629023020128736,1295,-15.8,99,P-GPS,
0.352818411233429,36.8834104732535,16200,2018-04-04 08:02:22,1777.3715900758928,8.800000281600001,0.0,0.633856020283392,1777.3715900758928,8.800000281600001,0.35999970196000003,0.633856020283392,1299,-15.8,99,P-GPS,
0.352818343365058,36.8834104524205,16300,2018-04-04 08:02:22,1777.571590082293,9.000000288,0.0,0.6394100204611199,1777.571590082293,9.000000288,0.35999970196000003,0.6394100204611199,1290,-15.8,99,P-GPS,
0.352818270543294,36.8834104245289,16400,2018-04-04 08:02:22,1777.6715900854929,9.1000002912,0.0,0.64596502067088,1777.6715900854929,9.1000002912,0.35999970196000003,0.64596502067088,1289,-15.8,99,P-GPS,
0.352818244742364,36.8834103887429,16500,2018-04-04 08:02:22,1777.7715900886928,9.2000002944,0.0,0.6508310208265919,1777.7715900886928,9.2000002944,0.35999970196000003,0.6508310208265919,1296,-15.8,99,P-GPS,
0.352818226290128,36.8834103106298,16600,2018-04-04 08:02:22,1777.971590095093,9.4000003008,0.0,0.659449021102368,1777.971590095093,9.4000003008,0.35999970196000003,0.659449021102368,1305,-15.8,99,P-GPS,
0.352818238922655,36.8834102339559,16700,2018-04-04 08:02:22,1778.0715900982927,9.500000304,0.0,0.6663160213221121,1778.0715900982927,9.500000304,0.35999970196000003,0.6663160213221121,1319,-15.8,99,P-GPS,
0.352818213301996,36.8834101385102,16800,2018-04-04 08:02:22,1778.1715901014927,9.6000003072,0.0,0.6770380216652161,1778.1715901014927,9.6000003072,0.35999970196000003,0.6770380216652161,1325,-15.8,99,P-GPS,
0.352818192231718,36.8834100642482,16900,2018-04-04 08:02:22,1778.3715901078929,9.8000003136,0.0,0.6854450219342401,1778.3715901078929,9.8000003136,0.35999970196000003,0.6854450219342401,1326,-15.8,99,P-GPS,
0.352818129842492,36.8834099360593,17000,2018-04-04 08:02:22,1778.4715901110928,9.900000316800002,0.0,0.701293022441376,1778.4715901110928,9.900000316800002,0.35999970196000003,0.701293022441376,1327,-15.8,99,P-GPS,
0.352818101502974,36.8834098127234,17100,2018-04-04 08:02:22,1778.6715901174928,10.100000323200002,0.0,0.714928022877696,1778.6715901174928,10.100000323200002,0.35999970196000003,0.714928022877696,1331,-15.8,99,P-GPS,
0.35281810286532,36.8834097203441,17200,2018-04-04 08:02:23,1778.871590123893,10.3000003296,0.0,0.724018023168576,1778.871590123893,10.3000003296,0.35999970196000003,0.724018023168576,1334,-15.8,99,P-GPS,
0.352818132449478,36.8834096479741,17300,2018-04-04 08:02:23,1778.9715901270927,10.400000332800001,0.0,0.729753023352096,1778.9715901270927,10.400000332800001,0.35999970196000003,0.729753023352096,1347,-15.8,99,P-GPS,
0.352818125094814,36.8834095932839,17400,2018-04-04 08:02:23,1779.1715901334928,10.600000339200001,0.0,0.735573023538336,1779.1715901334928,10.600000339200001,0.35999970196000003,0.735573023538336,1348,-15.8,99,P-GPS,
0.352818124897416,36.8834095376174,17500,2018-04-04 08:02:23,1779.3715901398928,10.8000003456,0.0,0.741147023716704,1779.3715901398928,10.8000003456,0.35999970196000003,0.741147023716704,1357,-15.8,99,P-GPS,
0.35281812970041,36.8834094903329,17600,2018-04-04 08:02:23,1779.571590146293,11.000000351999999,0.0,0.7456500238607999,1779.571590146293,11.000000351999999,0.35999970196000003,0.7456500238607999,1357,-15.8,98,P-GPS,
0.352818140834667,36.8834094459952,17700,2018-04-04 08:02:23,1779.7715901526926,11.2000003584,0.0,0.74956502398608,1779.7715901526926,11.2000003584,0.35999970196000003,0.74956502398608,1358,-15.8,98,P-GPS,
0.352818101643567,36.8834093870687,17800,2018-04-04 08:02:23,1779.9715901590928,11.4000003648,0.0,0.75735502423536,1779.9715901590928,11.4000003648,0.35999970196000003,0.75735502423536,1357,-15.8,98,P-GPS,
0.352818066265825,36.8834093122354,17900,2018-04-04 08:02:23,1780.1715901654927,11.6000003712,0.0,0.76656002452992,1780.1715901654927,11.6000003712,0.35999970196000003,0.76656002452992,1356,-15.8,98,P-GPS,
0.352818003261606,36.8834092374878,18000,2018-04-04 08:02:23,1780.3715901718929,11.8000003776,0.0,0.777084024866688,1780.3715901718929,11.8000003776,0.35999970196000003,0.777084024866688,1349,-15.8,98,P-GPS,
0.352817966842525,36.8834091691207,18100,2018-04-04 08:02:23,1780.4715901750928,11.9000003808,0.0,0.7856910251421121,1780.4715901750928,11.9000003808,0.35999970196000003,0.7856910251421121,1331,-15.8,98,P-GPS,
0.352817929141222,36.883409114786,18200,2018-04-04 08:02:24,1780.671590181493,12.1000003872,0.0,0.7929550253745601,1780.671590181493,12.1000003872,0.35999970196000003,0.7929550253745601,1338,-15.8,98,P-GPS,
0.352817918952226,36.8834090643328,18300,2018-04-04 08:02:24,1780.8715901878927,12.300000393600001,0.0,0.7985000255520001,1780.8715901878927,12.300000393600001,0.35999970196000003,0.7985000255520001,1352,-15.8,98,P-GPS,
0.352817910694336,36.8834090246519,18400,2018-04-04 08:02:24,1781.0715901942929,12.500000400000001,0.0,0.802875025692,1781.0715901942929,12.500000400000001,0.35999970196000003,0.802875025692,1361,-15.8,98,P-GPS,
0.352817926225391,36.8834089878565,18500,2018-04-04 08:02:24,1781.2715902006928,12.700000406400001,0.0,0.8058250257864,1781.2715902006928,12.700000406400001,0.35999970196000003,0.8058250257864,1363,-15.8,98,P-GPS,
0.352817900145606,36.8834089558803,18600,2018-04-04 08:02:24,1781.471590207093,12.9000004128,0.0,0.8102810259289921,1781.471590207093,12.9000004128,0.35999970196000003,0.8102810259289921,1359,-15.8,98,P-GPS,
0.352817880017962,36.8834089201949,18700,2018-04-04 08:02:24,1781.6715902134927,13.100000419200002,0.0,0.8148260260744321,1781.6715902134927,13.100000419200002,0.35999970196000003,0.8148260260744321,1357,-15.8,98,P-GPS,
0.352817848160254,36.8834089142085,18800,2018-04-04 08:02:24,1781.8715902198928,13.3000004256,0.0,0.8169570261426241,1781.8715902198928,13.3000004256,0.35999970196000003,0.8169570261426241,1365,-15.8,98,P-GPS,
0.352817840691345,36.8834089106637,18900,2018-04-04 08:02:24,1782.0715902262928,13.500000432,0.0,0.817673026165536,1782.0715902262928,13.500000432,0.35999970196000003,0.817673026165536,1357,-15.8,98,P-GPS,
0.352817804329157,36.8834089050095,19000,2018-04-04 08:02:24,1782.271590232693,13.7000004384,0.0,0.820002026240064,1782.271590232693,13.7000004384,0.35999970196000003,0.820002026240064,1359,-15.8,98,P-GPS,
0.352817790133858,36.8834088924574,19100,2018-04-04 08:02:24,1782.4715902390926,13.9000004448,0.0,0.8219480263023361,1782.4715902390926,13.9000004448,0.35999970196000003,0.8219480263023361,1366,-15.8,98,P-GPS,
0.352817765973653,36.8834088697101,19200,2018-04-04 08:02:25,1782.6715902454928,14.100000451200001,0.0,0.825401026412832,1782.6715902454928,14.100000451200001,0.35999970196000003,0.825401026412832,1384,-15.8,98,P-GPS,
0.352817765659465,36.8834088346374,19300,2018-04-04 08:02:25,1782.8715902518927,14.300000457600001,0.0,0.8289200265254401,1782.8715902518927,14.300000457600001,0.35999970196000003,0.8289200265254401,1380,-15.8,98,P-GPS,
0.352817727914881,36.8834088002062,19400,2018-04-04 08:02:25,1783.0715902582929,14.500000464000001,0.0,0.834204026694528,1783.0715902582929,14.500000464000001,0.35999970196000003,0.834204026694528,1368,-15.8,98,P-GPS,
0.352817699117884,36.8834087670114,19500,2018-04-04 08:02:25,1783.2715902646928,14.7000004704,0.0,0.83893002684576,1783.2715902646928,14.7000004704,0.35999970196000003,0.83893002684576,1354,-15.8,98,P-GPS,
0.352817613155735,36.8834087151556,19600,2018-04-04 08:02:25,1783.4715902710927,14.9000004768,0.0,0.8483490271471681,1783.4715902710927,14.9000004768,0.35999970196000003,0.8483490271471681,1351,-15.9,98,P-GPS,
0.352817549389176,36.883408672821,19700,2018-04-04 08:02:25,1783.6715902774927,15.1000004832,0.0,0.855747027383904,1783.6715902774927,15.1000004832,0.35999970196000003,0.855747027383904,1351,-16.1,98,P-GPS,
0.352817492862323,36.8834086516991,19800,2018-04-04 08:02:25,1783.8715902838928,15.3000004896,0.0,0.860699027542368,1783.8715902838928,15.3000004896,0.35999970196000003,0.860699027542368,1349,-16.7,98,P-GPS,
0.352817478035544,36.8834086380502,19900,2018-04-04 08:02:25,1784.071590290293,15.500000496,0.0,0.8628040276097281,1784.071590290293,15.500000496,0.35999970196000003,0.8628040276097281,1346,-17.4,98,P-GPS,
0.35281744082972,36.8834085365152,20000,2018-04-04 08:02:25,1784.2715902966927,15.700000502400002,0.0,0.874737027991584,1784.2715902966927,15.700000502400002,0.35999970196000003,0.874737027991584,1349,-17.4,98,P-GPS,
0.35281742526149,36.8834084046462,20100,2018-04-04 08:02:25,1784.4715903030929,15.900000508800002,0.0,0.8885880284348161,1784.4715903030929,15.900000508800002,0.35999970196000003,0.8885880284348161,1358,-18.1,98,P-GPS,
0.352817402661436,36.8834082835761,20200,2018-04-04 08:02:25,1784.6715903094928,16.1000005152,0.0,0.9017440288558081,1784.6715903094928,16.1000005152,0.35999970196000003,0.9017440288558081,1348,-18.9,98,P-GPS,
0.352817402726675,36.8834082084825,20300,2018-04-04 08:02:26,1784.871590315893,16.3000005216,0.0,0.9092150290948801,1784.871590315893,16.3000005216,0.35999970196000003,0.9092150290948801,1360,-19.7,98,P-GPS,
0.352817367669228,36.8834081846841,20400,2018-04-04 08:02:26,1785.0715903222929,16.500000528,0.0,0.913321029226272,1785.0715903222929,16.500000528,0.35999970196000003,0.913321029226272,1354,-20.5,98,P-GPS,
0.35281733724511,36.8834081849273,20500,2018-04-04 08:02:26,1785.1715903254926,16.600000531200003,0.0,0.914812029273984,1785.1715903254926,16.600000531200003,0.35999970196000003,0.914812029273984,1362,-21.3,98,P-GPS,
0.352817261896396,36.8834081712446,20600,2018-04-04 08:02:26,1785.3715903318928,16.800000537600003,0.0,0.919961029438752,1785.3715903318928,16.800000537600003,0.35999970196000003,0.919961029438752,1371,-22.1,98,P-GPS,
0.352817208958429,36.8834081531981,20700,2018-04-04 08:02:26,1785.5715903382927,17.000000544,0.0,0.924441029582112,1785.5715903382927,17.000000544,0.35999970196000003,0.924441029582112,1373,-22.9,98,P-GPS,
0.352817142572569,36.8834081242083,20800,2018-04-04 08:02:26,1785.7715903446929,17.2000005504,0.0,0.9307130297828161,1785.7715903446929,17.2000005504,0.35999970196000003,0.9307130297828161,1376,-23.6,98,P-GPS,
0.352817113206737,36.883408092754,20900,2018-04-04 08:02:26,1785.9715903510926,17.400000556800002,0.0,0.935329029930528,1785.9715903510926,17.400000556800002,0.35999970196000003,0.935329029930528,1376,-23.6,98,P-GPS,
0.352817098992456,36.8834080881301,21000,2018-04-04 08:02:26,1786.2715903606927,17.7000005664,0.0,0.936522029968704,1786.2715903606927,17.7000005664,0.35999970196000003,0.936522029968704,1363,-25.1,98,P-GPS,
0.352817107266173,36.8834080845351,21100,2018-04-04 08:02:26,1786.4715903670929,17.9000005728,0.0,0.936446029966272,1786.4715903670929,17.9000005728,0.35999970196000003,0.936522029968704,1379,-25.9,98,P-GPS,
0.352817066446374,36.8834080633411,21200,2018-04-04 08:02:27,1786.6715903734928,18.1000005792,0.0,0.9406520301008641,1786.6715903734928,18.1000005792,0.35999970196000003,0.9406520301008641,1382,-26.6,98,P-GPS,
0.352817034637469,36.8834080415632,21300,2018-04-04 08:02:27,1786.871590379893,18.3000005856,0.0,0.944452030222464,1786.871590379893,18.3000005856,0.35999970196000003,0.944452030222464,1382,-26.6,98,P-GPS,
0.352816965098127,36.8834080335419,21400,2018-04-04 08:02:27,1787.0715903862927,18.500000592000003,0.0,0.9489010303648321,1787.0715903862927,18.500000592000003,0.35999970196000003,0.9489010303648321,1384,-26.6,98,P-GPS,
0.352816922261297,36.8834080274835,21500,2018-04-04 08:02:27,1787.2715903926928,18.700000598400003,0.0,0.951772030456704,1787.2715903926928,18.700000598400003,0.35999970196000003,0.951772030456704,1384,-26.6,98,P-GPS,
0.352816841951935,36.8834080291693,21600,2018-04-04 08:02:27,1787.4715903990927,18.900000604800002,0.0,0.9559310305897921,1787.4715903990927,18.900000604800002,0.35999970196000003,0.9559310305897921,1378,-26.6,98,P-GPS,
0.352816790713148,36.8834080314814,21700,2018-04-04 08:02:27,1787.671590405493,19.1000006112,0.0,0.9584980306719361,1787.671590405493,19.1000006112,0.35999970196000003,0.9584980306719361,1373,-26.6,98,P-GPS,
0.352816743098972,36.8834080718956,21800,2018-04-04 08:02:27,1787.9715904150928,19.4000006208,0.0,0.957216030630912,1787.9715904150928,19.4000006208,0.35999970196000003,0.9584980306719361,1374,-26.6,98,P-GPS,
0.352816735401216,36.8834081207506,21900,2018-04-04 08:02:27,1788.1715904214927,19.6000006272,0.0,0.952939030494048,1788.1715904214927,19.6000006272,0.35999970196000003,0.9584980306719361,1364,-26.6,98,P-GPS,
0.352816703119654,36.8834082064164,22000,2018-04-04 08:02:27,1788.371590427893,19.800000633600003,0.0,0.946531030288992,1788.371590427893,19.800000633600003,0.35999970196000003,0.9584980306719361,1364,-26.6,98,P-GPS,
0.352816680811702,36.8834082791595,22100,2018-04-04 08:02:27,1788.5715904342928,20.00000064,0.0,0.9408500301072,1788.5715904342928,20.00000064,0.35999970196000003,0.9584980306719361,1360,-26.6,98,P-GPS,
0.352816618658473,36.8834083602167,22200,2018-04-04 08:02:27,1788.671590437493,20.1000006432,0.0,0.9367350299755199,1788.671590437493,20.1000006432,0.35999970196000003,0.9584980306719361,1346,-26.6,98,P-GPS,
0.352816584776151,36.8834084130199,22300,2018-04-04 08:02:28,1788.8715904438927,20.3000006496,0.0,0.9337300298793599,1788.8715904438927,20.3000006496,0.35999970196000003,0.9584980306719361,1354,-26.6,98,P-GPS,
0.352816527872821,36.8834084543123,22400,2018-04-04 08:02:28,1789.071590450293,20.500000656,0.0,0.933221029863072,1789.071590450293,20.500000656,0.35999970196000003,0.9584980306719361,1332,-26.6,98,P-GPS,
0.352816506858362,36.8834084773288,22500,2018-04-04 08:02:28,1789.2715904566928,20.7000006624,0.35999970196000003,0.932322029834304,1789.2715904566928,20.7000006624,0.35999970196000003,0.9584980306719361,1324,-26.6,98,P-GPS,
0.352816483915011,36.8834084928147,22600,2018-04-04 08:02:28,1789.471590463093,20.900000668800004,0.35999970196000003,0.93225502983216,1789.471590463093,20.900000668800004,0.35999970196000003,0.9584980306719361,1320,-26.6,98,P-GPS,
0.352816491449415,36.8834084957557,22700,2018-04-04 08:02:28,1789.6715904694927,21.1000006752,0.35999970196000003,0.931526029808832,1789.6715904694927,21.1000006752,0.35999970196000003,0.9584980306719361,1324,-26.6,98,P-GPS,
0.352816507225984,36.8834085786735,22800,2018-04-04 08:02:28,1789.7715904726927,21.200000678400002,0.35999970196000003,0.922834029530688,1789.7715904726927,21.200000678400002,0.35999970196000003,0.9584980306719361,1323,-26.6,98,P-GPS,
0.352816541239293,36.8834086727657,22900,2018-04-04 08:02:28,1789.8715904758928,21.3000006816,0.35999970196000003,0.912004029184128,1789.8715904758928,21.3000006816,0.35999970196000003,0.9584980306719361,1307,-26.6,98,P-GPS,
0.352816560136572,36.8834087719631,23000,2018-04-04 08:02:28,1790.0715904822928,21.500000688,0.0,0.901634028852288,1790.0715904822928,21.500000688,0.35999970196000003,0.9584980306719361,1306,-26.6,98,P-GPS,
0.352816580166229,36.8834088479281,23100,2018-04-04 08:02:28,1790.271590488693,21.7000006944,0.0,0.8933640285876481,1790.271590488693,21.7000006944,0.35999970196000003,0.9584980306719361,1306,-26.6,98,P-GPS,
0.352816550415982,36.8834089031867,23200,2018-04-04 08:02:29,1790.371590491893,21.8000006976,0.0,0.89010502848336,1790.371590491893,21.8000006976,0.35999970196000003,0.9584980306719361,1309,-26.6,98,P-GPS,
0.352816534397997,36.8834089280263,23300,2018-04-04 08:02:29,1790.5715904982926,22.000000703999998,0.0,0.8888190284422081,1790.5715904982926,22.000000703999998,0.35999970196000003,0.9584980306719361,1315,-26.6,98,P-GPS,
0.35281651792771,36.8834089543903,23400,2018-04-04 08:02:29,1790.7715905046928,22.2000007104,0.0,0.8874320283978241,1790.7715905046928,22.2000007104,0.35999970196000003,0.9584980306719361,1306,-26.5,98,P-GPS,
0.352816535984508,36.8834089675313,23500,2018-04-04 08:02:29,1790.8715905078927,22.300000713600003,0.0,0.8850920283229441,1790.8715905078927,22.300000713600003,0.35999970196000003,0.9584980306719361,1306,-26.3,98,P-GPS,
0.352816507283386,36.8834089408645,23600,2018-04-04 08:02:29,1791.071590514293,22.50000072,0.0,0.8893420284589441,1791.071590514293,22.50000072,0.35999970196000003,0.9584980306719361,1307,-26.2,98,P-GPS,
0.352816464124124,36.8834089016803,23700,2018-04-04 08:02:29,1791.2715905206928,22.7000007264,0.0,0.895652028660864,1791.2715905206928,22.7000007264,0.35999970196000003,0.9584980306719361,1306,-26.0,98,P-GPS,
0.352816373339389,36.8834089016033,23800,2018-04-04 08:02:29,1791.371590523893,22.8000007296,0.0,0.9014250288456,1791.371590523893,22.8000007296,0.35999970196000003,0.9584980306719361,1305,-25.8,98,P-GPS,
0.352816297467944,36.8834089160832,23900,2018-04-04 08:02:29,1791.5715905302927,23.000000736000004,0.0,0.9049920289597441,1791.5715905302927,23.000000736000004,0.35999970196000003,0.9584980306719361,1307,-25.8,98,P-GPS,
0.352816193990099,36.8834089315411,24000,2018-04-04 08:02:29,1791.6715905334927,23.1000007392,0.0,0.910349029131168,1791.6715905334927,23.1000007392,0.35999970196000003,0.9584980306719361,1307,-25.8,98,P-GPS,
0.352816116698244,36.883408937083,24100,2018-04-04 08:02:29,1791.8715905398928,23.300000745600002,0.0,0.9149630292788161,1791.8715905398928,23.300000745600002,0.35999970196000003,0.9584980306719361,1308,-25.8,98,P-GPS,
0.352816049412159,36.8834089416723,24200,2018-04-04 08:02:30,1791.9715905430928,23.4000007488,0.0,0.9190460294094721,1791.9715905430928,23.4000007488,0.35999970196000003,0.9584980306719361,1313,-25.8,98,P-GPS,
0.352816014327944,36.8834089351691,24300,2018-04-04 08:02:30,1792.171590549493,23.6000007552,0.0,0.9219800295033601,1792.171590549493,23.6000007552,0.35999970196000003,0.9584980306719361,1313,-25.8,98,P-GPS,
0.352815918120083,36.883408927799,24400,2018-04-04 08:02:30,1792.271590552693,23.7000007584,0.0,0.9291440297326081,1792.271590552693,23.7000007584,0.35999970196000003,0.9584980306719361,1315,-25.7,98,P-GPS,
0.35281582500993,36.8834089167531,24500,2018-04-04 08:02:30,1792.3715905558927,23.8000007616,0.0,0.936483029967456,1792.3715905558927,23.8000007616,0.35999970196000003,0.9584980306719361,1317,-25.6,98,P-GPS,
0.35281574200529,36.8834089694103,24600,2018-04-04 08:02:30,1792.5715905622928,24.000000768000003,0.0,0.937654030004928,1792.5715905622928,24.000000768000003,0.35999970196000003,0.9584980306719361,1317,-25.6,98,P-GPS,
0.352815704868421,36.8834090409675,24700,2018-04-04 08:02:30,1792.6715905654928,24.100000771200005,0.0,0.9340860298907521,1792.6715905654928,24.100000771200005,0.35999970196000003,0.9584980306719361,1317,-25.4,98,P-GPS,
0.352815609404963,36.8834090768949,24800,2018-04-04 08:02:30,1792.8715905718927,24.3000007776,0.0,0.9377940300094081,1792.8715905718927,24.3000007776,0.35999970196000003,0.9584980306719361,1313,-25.1,98,P-GPS,
0.352815441539663,36.8834090729136,25000,2018-04-04 08:02:30,1793.1715905814926,24.600000787200003,0.0,0.9502420304077441,1793.1715905814926,24.600000787200003,0.35999970196000003,0.9584980306719361,1310,-24.7,98,P-GPS,
0.352815383611228,36.8834090724944,25100,2018-04-04 08:02:30,1793.3715905878928,24.800000793600002,0.0,0.95450503054416,1793.3715905878928,24.800000793600002,0.35999970196000003,0.9584980306719361,1310,-24.6,98,P-GPS,
0.352815346755877,36.8834090633342,25200,2018-04-04 08:02:31,1793.4715905910928,24.9000007968,0.0,0.9579730306551361,1793.4715905910928,24.9000007968,0.35999970196000003,0.9584980306719361,1310,-24.4,98,P-GPS,
0.352815369199906,36.8834090514021,25300,2018-04-04 08:02:31,1793.671590597493,25.100000803200004,0.0,0.9573260306344321,1793.671590597493,25.100000803200004,0.35999970196000003,0.9584980306719361,1311,-24.3,98,P-GPS,
0.352815377762875,36.8834090744653,25400,2018-04-04 08:02:31,1793.771590600693,25.2000008064,0.0,0.954769030552608,1793.771590600693,25.2000008064,0.35999970196000003,0.9584980306719361,1309,-24.2,98,P-GPS,
0.352815391515288,36.8834091068554,25500,2018-04-04 08:02:31,1793.9715906070928,25.400000812800002,0.0,0.951052030433664,1793.9715906070928,25.400000812800002,0.35999970196000003,0.9584980306719361,1307,-24.0,98,P-GPS,
0.352815361808399,36.883409144843,25600,2018-04-04 08:02:31,1794.071590610293,25.500000816000004,0.0,0.9500710304022721,1794.071590610293,25.500000816000004,0.35999970196000003,0.9584980306719361,1325,-23.8,98,P-GPS,
0.352815346648603,36.8834091556551,25700,2018-04-04 08:02:31,1794.1715906134928,25.6000008192,0.0,0.9502930304093761,1794.1715906134928,25.6000008192,0.35999970196000003,0.9584980306719361,1325,-23.7,98,P-GPS,
0.352815303961997,36.8834091758392,25800,2018-04-04 08:02:31,1794.3715906198927,25.8000008256,0.0,0.9517900304572801,1794.3715906198927,25.8000008256,0.35999970196000003,0.9584980306719361,1331,-23.7,98,P-GPS,
0.3528152931017,36.8834091805162,25900,2018-04-04 08:02:31,1794.4715906230929,25.9000008288,0.0,0.9522130304708161,1794.4715906230929,25.9000008288,0.35999970196000003,0.9584980306719361,1333,-23.7,98,P-GPS,
0.352815268684811,36.8834091845958,26000,2018-04-04 08:02:31,1794.6715906294928,26.100000835200003,0.0,0.9537000305184001,1794.6715906294928,26.100000835200003,0.35999970196000003,0.9584980306719361,1335,-23.7,98,P-GPS,
0.352815278122255,36.8834091880576,26100,2018-04-04 08:02:31,1794.7715906326928,26.200000838400005,0.0,0.952709030486688,1794.7715906326928,26.200000838400005,0.35999970196000003,0.9584980306719361,1348,-23.7,98,P-GPS,
0.352815243603313,36.8834092115779,26200,2018-04-04 08:02:32,1794.9715906390927,26.4000008448,0.0,0.9533620305075841,1794.9715906390927,26.4000008448,0.35999970196000003,0.9584980306719361,1356,-23.7,98,P-GPS,
0.352815225155485,36.8834092288224,26300,2018-04-04 08:02:32,1795.1715906454926,26.6000008512,0.0,0.953337030506784,1795.1715906454926,26.6000008512,0.35999970196000003,0.9584980306719361,1358,-23.7,98,P-GPS,
0.352815205597669,36.8834092540832,26400,2018-04-04 08:02:32,1795.3715906518928,26.8000008576,0.0,0.9527510304880321,1795.3715906518928,26.8000008576,0.35999970196000003,0.9584980306719361,1360,-23.7,98,P-GPS,
0.352815210137771,36.8834092754544,26500,2018-04-04 08:02:32,1795.4715906550928,26.900000860800002,0.0,0.9506660304213121,1795.4715906550928,26.900000860800002,0.35999970196000003,0.9584980306719361,1374,-23.7,98,P-GPS,
0.35281518579518,36.8834092875436,26600,2018-04-04 08:02:32,1795.671590661493,27.100000867200002,0.0,0.95153003044896,1795.671590661493,27.100000867200002,0.35999970196000003,0.9584980306719361,1377,-23.7,98,P-GPS,
0.35281516327726,36.8834092807099,26700,2018-04-04 08:02:32,1795.8715906678926,27.3000008736,0.0,0.9537970305215041,1795.8715906678926,27.3000008736,0.35999970196000003,0.9584980306719361,1380,-23.7,98,P-GPS,
0.352815121774532,36.8834092681542,26800,2018-04-04 08:02:32,1796.0715906742928,27.50000088,0.0,0.9579770306552641,1796.0715906742928,27.50000088,0.35999970196000003,0.9584980306719361,1384,-23.7,98,P-GPS,
0.352815092226823,36.8834092553157,26900,2018-04-04 08:02:32,1796.2715906806927,27.7000008864,0.0,0.9612710307606721,1796.2715906806927,27.7000008864,0.35999970196000003,0.9612710307606721,1380,-23.7,98,P-GPS,
0.352815011801842,36.8834092484607,27000,2018-04-04 08:02:32,1796.4715906870929,27.9000008928,0.0,0.96799003097568,1796.4715906870929,27.9000008928,0.35999970196000003,0.96799003097568,1381,-23.7,98,P-GPS,
0.35281494605423,36.8834092423592,27100,2018-04-04 08:02:32,1796.6715906934926,28.1000008992,0.0,0.9735500311536001,1796.6715906934926,28.1000008992,0.35999970196000003,0.9735500311536001,1381,-23.7,98,P-GPS,
0.352814869980247,36.8834092494006,27200,2018-04-04 08:02:32,1796.8715906998927,28.300000905600005,0.0,0.978892031324544,1796.8715906998927,28.300000905600005,0.35999970196000003,0.978892031324544,1382,-23.7,98,P-GPS,
0.352814840228168,36.8834092620717,27300,2018-04-04 08:02:33,1797.0715907062927,28.500000912,0.0,0.980208031366656,1797.0715907062927,28.500000912,0.35999970196000003,0.980208031366656,1386,-23.7,98,P-GPS,
0.352814802456002,36.8834092636596,27400,2018-04-04 08:02:33,1797.2715907126928,28.7000009184,0.0,0.9830390314572481,1797.2715907126928,28.7000009184,0.35999970196000003,0.9830390314572481,1382,-23.6,98,P-GPS,
0.352814797632551,36.8834092357488,27500,2018-04-04 08:02:33,1797.471590719093,28.9000009248,0.0,0.9856200315398401,1797.471590719093,28.9000009248,0.35999970196000003,0.9856200315398401,1380,-23.6,98,P-GPS,
0.352814731613803,36.8834091976348,27600,2018-04-04 08:02:33,1797.6715907254927,29.1000009312,0.0,0.9938000318016,1797.6715907254927,29.1000009312,0.35999970196000003,0.9938000318016,1369,-23.6,98,P-GPS,
0.352814673992534,36.8834091617792,27700,2018-04-04 08:02:33,1797.8715907318929,29.300000937600004,0.0,1.0011500320368,1797.8715907318929,29.300000937600004,0.35999970196000003,1.0011500320368,1364,-23.6,98,P-GPS,
0.352814577839429,36.8834091580964,27800,2018-04-04 08:02:33,1798.0715907382928,29.500000944,0.0,1.00902003228864,1798.0715907382928,29.500000944,0.35999970196000003,1.00902003228864,1372,-23.6,98,P-GPS,
0.352814520928976,36.8834091694442,27900,2018-04-04 08:02:33,1798.271590744693,29.700000950400003,0.0,1.0126500324048,1798.271590744693,29.700000950400003,0.35999970196000003,1.0126500324048,1379,-23.6,98,P-GPS,
0.352814442375687,36.8834091870607,28000,2018-04-04 08:02:33,1798.471590751093,29.900000956800003,0.0,1.0175500325616,1798.471590751093,29.900000956800003,0.35999970196000003,1.0175500325616,1383,-23.6,98,P-GPS,
0.352814402062335,36.8834092028928,28100,2018-04-04 08:02:33,1798.6715907574928,30.1000009632,0.0,1.01957003262624,1798.6715907574928,30.1000009632,0.35999970196000003,1.01957003262624,1390,-23.6,98,P-GPS,
0.352814343252708,36.8834092244974,28200,2018-04-04 08:02:33,1798.8715907638928,30.300000969600003,0.0,1.02266003272512,1798.8715907638928,30.300000969600003,0.35999970196000003,1.02266003272512,1401,-23.6,98,P-GPS,
0.352814308028243,36.8834092494999,28300,2018-04-04 08:02:34,1799.071590770293,30.500000976,0.0,1.0236100327555202,1799.071590770293,30.500000976,0.35999970196000003,1.0236100327555202,1422,-23.6,98,P-GPS,
0.352814208551485,36.8834092646282,28400,2018-04-04 08:02:34,1799.2715907766928,30.700000982400002,0.0,1.03058003297856,1799.2715907766928,30.700000982400002,0.35999970196000003,1.03058003297856,1423,-23.6,98,P-GPS,
0.352814124343017,36.8834092798659,28500,2018-04-04 08:02:34,1799.4715907830928,30.900000988800002,0.0,1.03636003316352,1799.4715907830928,30.900000988800002,0.35999970196000003,1.03636003316352,1420,-23.6,98,P-GPS,
0.352814024225873,36.8834093108956,28600,2018-04-04 08:02:34,1799.771590792693,31.2000009984,0.0,1.0423500333552,1799.771590792693,31.2000009984,0.35999970196000003,1.0423500333552,1412,-23.6,98,P-GPS,
0.352813969880219,36.8834093467194,28700,2018-04-04 08:02:34,1799.9715907990928,31.400001004800004,0.0,1.044250033416,1799.9715907990928,31.400001004800004,0.35999970196000003,1.044250033416,1413,-23.6,98,P-GPS,
0.352813872743534,36.8834093927753,28800,2018-04-04 08:02:34,1800.171590805493,31.6000010112,0.0,1.0490500335696,1800.171590805493,31.6000010112,0.35999970196000003,1.0490500335696,1420,-23.6,98,P-GPS,
0.352813805888173,36.8834094301408,28900,2018-04-04 08:02:34,1800.3715908118927,31.800001017600003,0.0,1.05202003366464,1800.3715908118927,31.800001017600003,0.35999970196000003,1.05202003366464,1424,-23.6,98,P-GPS,
0.352813724195244,36.8834094657676,29000,2018-04-04 08:02:34,1800.6715908214928,32.1000010272,0.0,1.05644003380608,1800.6715908214928,32.1000010272,0.35999970196000003,1.05644003380608,1425,-23.6,98,P-GPS,
0.352813683443026,36.8834094887607,29100,2018-04-04 08:02:34,1800.8715908278928,32.3000010336,0.0,1.0583100338659202,1800.8715908278928,32.3000010336,0.35999970196000003,1.0583100338659202,1422,-23.6,98,P-GPS,
0.352813647644942,36.8834095275048,29200,2018-04-04 08:02:35,1801.1715908374927,32.6000010432,0.0,1.0586600338771202,1801.1715908374927,32.6000010432,0.35999970196000003,1.0586600338771202,1423,-23.6,98,P-GPS,
0.352813636760015,36.8834095561108,29300,2018-04-04 08:02:35,1801.3715908438928,32.800001049600006,0.0,1.0576000338432001,1801.3715908438928,32.800001049600006,0.35999970196000003,1.0586600338771202,1432,-23.6,98,P-GPS,
0.35281359006072,36.8834095871569,29400,2018-04-04 08:02:35,1801.6715908534927,33.100001059200004,0.0,1.05948003390336,1801.6715908534927,33.100001059200004,0.35999970196000003,1.05948003390336,1439,-23.6,98,P-GPS,
0.352813551237393,36.8834096092382,29500,2018-04-04 08:02:35,1801.8715908598929,33.3000010656,0.0,1.06133003396256,1801.8715908598929,33.3000010656,0.35999970196000003,1.06133003396256,1427,-23.6,98,P-GPS,
0.352813460740689,36.8834096193446,29600,2018-04-04 08:02:35,1802.1715908694928,33.600001075200005,0.0,1.0685500341936,1802.1715908694928,33.600001075200005,0.35999970196000003,1.0685500341936,1420,-23.6,98,P-GPS,
0.35281339269575,36.8834096183872,29700,2018-04-04 08:02:35,1802.471590879093,33.9000010848,0.0,1.07459003438688,1802.471590879093,33.9000010848,0.35999970196000003,1.07459003438688,1420,-23.6,98,P-GPS,
0.352813285113004,36.8834096121726,29800,2018-04-04 08:02:35,1802.6715908854928,34.1000010912,0.0,1.0844900347036799,1802.6715908854928,34.1000010912,0.35999970196000003,1.0844900347036799,1423,-23.6,98,P-GPS,
0.352813213973207,36.8834096059398,29900,2018-04-04 08:02:35,1802.871590891893,34.3000010976,0.0,1.0912100349187202,1802.871590891893,34.3000010976,0.35999970196000003,1.0912100349187202,1423,-23.6,98,P-GPS,
