latitude,longitude,time_millisecond,datetime_utc,altitude_m,ascent_m,speed_kph,distance_m,max_altitude_m,max_ascent_m,max_speed_kph,max_distance_m,rc_throttle,gimbal_pitch_degrees,battery_percent,flycState,message
0.343868248063327,36.9120001450413,0,2018-04-08 05:26:33,1641.212332818808,0.0,0.0,0.0,1641.212332818808,0.0,0.0,0.0,364,0.0,99,Motors_Started,
0.34386824777628494,36.9120001370856,100,2018-04-08 05:26:33,1641.212332818808,0.0,0.0,0.0008852890283292482,1641.212332818808,0.0,0.0,0.0008852890283292482,364,0.0,99,Motors_Started,
0.343868245852049,36.912000133762206,200,2018-04-08 05:26:33,1641.212332818808,0.0,0.0,0.0012781600409011201,1641.212332818808,0.0,0.0,0.0012781600409011201,364,0.0,99,Motors_Started,
0.343868216359994,36.9120001255286,300,2018-04-08 05:26:33,1641.212332818808,0.0,0.0,0.0041398401324748806,1641.212332818808,0.0,0.0,0.0041398401324748806,364,0.0,99,Motors_Started,
0.34386819049089,36.912000121836904,400,2018-04-08 05:26:34,1641.212332818808,0.0,0.0,0.0069028602208915215,1641.212332818808,0.0,0.0,0.0069028602208915215,364,0.0,99,Motors_Started,
0.343868175215708,36.9120001154092,500,2018-04-08 05:26:34,1641.212332818808,0.0,0.0,0.008745640279860481,1641.212332818808,0.0,0.0,0.008745640279860481,364,0.0,99,Motors_Started,
0.34386816265225,36.912000112934706,600,2018-04-08 05:26:34,1641.212332818808,0.0,0.0,0.010147100324707201,1641.212332818808,0.0,0.0,0.010147100324707201,364,0.0,99,Motors_Started,Setting new Return-To-Home altitude to 30m (98 ft). Setting new Maximum Flight Altitude to 150m (492 ft)
0.34386812311186105,36.9120001082252,700,2018-04-08 05:26:34,1641.212332818808,0.0,0.0,0.014486000463552001,1641.212332818808,0.0,0.0,0.014486000463552001,364,0.0,99,Motors_Started,
0.343868089725611,36.9120001058678,800,2018-04-08 05:26:34,1641.212332818808,0.0,0.0,0.018139000580448,1641.212332818808,0.0,0.0,0.018139000580448,364,0.0,99,Motors_Started,
0.34386806933393,36.912000102319006,900,2018-04-08 05:26:34,1641.212332818808,0.0,0.0,0.0204357006539424,1641.212332818808,0.0,0.0,0.0204357006539424,364,0.0,99,Motors_Started,
0.34386805315698,36.912000100106,1000,2018-04-08 05:26:34,1641.212332818808,0.0,0.0,0.022243300711785603,1641.212332818808,0.0,0.0,0.022243300711785603,364,0.0,99,Motors_Started,
0.343868049953779,36.9120000592904,1100,2018-04-08 05:26:34,1641.212332818808,0.0,0.0,0.024006200768198403,1641.212332818808,0.0,0.0,0.024006200768198403,364,0.0,99,Motors_Started,
0.343868045516677,36.9120000263524,1200,2018-04-08 05:26:34,1641.212332818808,0.0,0.0,0.026106600835411203,1641.212332818808,0.0,0.0,0.026106600835411203,376,0.0,99,Motors_Started,
0.343868013779359,36.911999997935794,1300,2018-04-08 05:26:34,1641.212332818808,0.0,0.0,0.030763800984441602,1641.212332818808,0.0,0.0,0.030763800984441602,471,0.0,99,Motors_Started,
0.34386798638173,36.9119999770802,1400,2018-04-08 05:26:34,1641.212332818808,0.0,0.0,0.03457900110652801,1641.212332818808,0.0,0.0,0.03457900110652801,761,0.0,99,Motors_Started,
0.343867935062157,36.9119999636712,1500,2018-04-08 05:26:35,1641.212332818808,0.0,0.0,0.0402289012873248,1641.212332818808,0.0,0.0,0.0402289012873248,1024,0.0,99,Motors_Started,
0.343867885491126,36.9119999496191,1600,2018-04-08 05:26:35,1641.212332818808,0.0,0.0,0.0458038014657216,1641.212332818808,0.0,0.0,0.0458038014657216,1024,0.0,99,Assisted_Takeoff,
0.343867826846736,36.9119999467281,1700,2018-04-08 05:26:35,1641.212332818808,0.0,0.0,0.05177360165675521,1641.212332818808,0.0,0.0,0.05177360165675521,1024,0.0,99,Assisted_Takeoff,
0.34386777396238105,36.9119999401102,1800,2018-04-08 05:26:35,1641.212332818808,0.0,0.0,0.0574374018379968,1641.212332818808,0.0,0.0,0.0574374018379968,1024,0.0,99,Assisted_Takeoff,
0.34386774028386896,36.9119999410157,1900,2018-04-08 05:26:35,1641.212332818808,0.0,0.0,0.0608557019473824,1641.212332818808,0.0,0.0,0.0608557019473824,1024,0.0,99,Assisted_Takeoff,
0.343867712007008,36.911999939246996,2000,2018-04-08 05:26:35,1641.212332818808,0.0,0.0,0.0638546020433472,1641.212332818808,0.0,0.0,0.0638546020433472,1024,0.0,99,Assisted_Takeoff,
0.34386770426462204,36.911999908165,2100,2018-04-08 05:26:35,1641.212332818808,0.0,0.0,0.0659618021107776,1641.212332818808,0.0,0.0,0.0659618021107776,1024,0.0,99,Assisted_Takeoff,
0.343867693755662,36.9119998795949,2200,2018-04-08 05:26:35,1641.212332818808,0.0,0.0,0.0683457021870624,1641.212332818808,0.0,0.0,0.0683457021870624,1085,0.0,99,Assisted_Takeoff,
0.34386766550775605,36.911999860950296,2300,2018-04-08 05:26:35,1641.212332818808,0.0,0.0,0.0720763023064416,1641.212332818808,0.0,0.0,0.0720763023064416,1202,0.0,99,Assisted_Takeoff,
0.34386763671630705,36.9119998466381,2400,2018-04-08 05:26:35,1641.212332818808,0.0,0.0,0.07565170242085441,1641.212332818808,0.0,0.0,0.07565170242085441,1283,0.0,99,Assisted_Takeoff,
0.343867625909443,36.9119998428534,2500,2018-04-08 05:26:35,1641.212332818808,0.0,0.0,0.07691650246132799,1641.212332818808,0.0,0.0,0.07691650246132799,1329,0.0,99,Assisted_Takeoff,
0.343867613619373,36.9119998379374,2600,2018-04-08 05:26:36,1641.212332818808,0.0,0.0,0.0783848025083136,1641.212332818808,0.0,0.0,0.0783848025083136,1338,0.0,99,Assisted_Takeoff,
0.34386761677015804,36.9119998435644,2700,2018-04-08 05:26:36,1641.212332818808,0.0,0.0,0.0777979024895328,1641.212332818808,0.0,0.0,0.0783848025083136,1337,0.0,99,Assisted_Takeoff,
0.34386760879694,36.9119998676579,2800,2018-04-08 05:26:36,1641.212332818808,0.0,0.0,0.07749400247980799,1641.212332818808,0.0,0.0,0.0783848025083136,1336,0.0,99,Assisted_Takeoff,
0.34386758609220697,36.911999906016,2900,2018-04-08 05:26:36,1641.212332818808,0.0,0.0,0.078267002504544,1641.212332818808,0.0,0.0,0.0783848025083136,1336,0.0,99,P-GPS,Obstacle Avoided. Revise Flight Route
0.343867619176998,36.9119999439115,3000,2018-04-08 05:26:36,1641.212332818808,0.0,0.0,0.07342550234961599,1641.212332818808,0.0,0.0,0.0783848025083136,1328,0.0,99,P-GPS,
0.343867705317513,36.911999965622705,3100,2018-04-08 05:26:36,1641.212332818808,0.0,0.0,0.0635689020342048,1641.212332818808,0.0,0.0,0.0783848025083136,1326,0.0,99,P-GPS,
0.343867796751793,36.9120000182679,3200,2018-04-08 05:26:36,1641.3123328220079,0.10000000320000002,0.35999970196000003,0.052131001668192005,1641.3123328220079,0.10000000320000002,0.35999970196000003,0.0783848025083136,1326,0.0,99,P-GPS,
0.343867887780515,36.912000134700996,3300,2018-04-08 05:26:36,1641.4123328252076,0.20000000640000004,0.35999970196000003,0.0400821012826272,1641.4123328252076,0.20000000640000004,0.35999970196000003,0.0783848025083136,1326,0.0,99,P-GPS,
0.34386796972374106,36.912000268646494,3400,2018-04-08 05:26:36,1641.5123328284076,0.3000000096,0.35999970196000003,0.0338678010837696,1641.5123328284076,0.3000000096,0.35999970196000003,0.0783848025083136,1323,0.0,99,P-GPS,
0.34386807406305797,36.9120003928152,3500,2018-04-08 05:26:37,1641.6123328316078,0.4000000128000001,0.503999582744,0.0336692010774144,1641.6123328316078,0.4000000128000001,0.503999582744,0.0783848025083136,1316,0.0,99,P-GPS,
0.343868197418489,36.912000492744,3600,2018-04-08 05:26:37,1641.8123328380077,0.6000000192,0.35999970196000003,0.039074001250367994,1641.8123328380077,0.6000000192,0.503999582744,0.0783848025083136,1315,0.0,99,P-GPS,Home Point Recorded. RTH Altitude:  30m.
0.34386835758630296,36.912000592802,3700,2018-04-08 05:26:37,1641.9123328412077,0.7000000224000001,0.35999970196000003,0.051260801640345605,1641.9123328412077,0.7000000224000001,0.503999582744,0.0783848025083136,1308,0.0,99,P-GPS,
0.343868520123817,36.9120006860331,3800,2018-04-08 05:26:37,1642.1123328476078,0.9000000288000001,0.503999582744,0.0673397021548704,1642.1123328476078,0.9000000288000001,0.503999582744,0.0783848025083136,1307,0.0,99,P-GPS,
0.34386868564924605,36.912000790296204,3900,2018-04-08 05:26:37,1642.3123328540075,1.1000000352,0.503999582744,0.0866994027743808,1642.3123328540075,1.1000000352,0.503999582744,0.0866994027743808,1315,0.0,99,P-GPS,
0.343868803278423,36.9120008893278,4000,2018-04-08 05:26:37,1642.4123328572077,1.2000000384,0.35999970196000003,0.10326000330432002,1642.4123328572077,1.2000000384,0.503999582744,0.10326000330432002,1316,0.0,99,P-GPS,
0.343868898366117,36.9120009904397,4100,2018-04-08 05:26:37,1642.6123328636077,1.4000000448000003,0.35999970196000003,0.11860900379548799,1642.6123328636077,1.4000000448000003,0.503999582744,0.11860900379548799,1315,0.0,99,P-GPS,
0.34386898079093003,36.912001080286295,4200,2018-04-08 05:26:37,1642.7123328668076,1.5000000480000002,0.0,0.13212200422790402,1642.7123328668076,1.5000000480000002,0.503999582744,0.13212200422790402,1309,0.0,99,P-GPS,
0.343869027670423,36.9120011634171,4300,2018-04-08 05:26:37,1642.9123328732078,1.7000000544000002,0.0,0.142623004563936,1642.9123328732078,1.7000000544000002,0.503999582744,0.142623004563936,1308,0.0,99,P-GPS,
0.34386907604294503,36.9120012182977,4400,2018-04-08 05:26:37,1643.0123328764078,1.8000000576000001,0.0,0.15074000482368,1643.0123328764078,1.8000000576000001,0.503999582744,0.15074000482368,1313,0.0,99,P-GPS,
0.34386911730873304,36.912001232519,4500,2018-04-08 05:26:38,1643.2123328828077,2.000000064,0.0,0.154818004954176,1643.2123328828077,2.000000064,0.503999582744,0.154818004954176,1319,0.0,99,P-GPS,
0.343869172495683,36.912001230574496,4600,2018-04-08 05:26:38,1643.3123328860077,2.1000000672,0.0,0.158558005073856,1643.3123328860077,2.1000000672,0.503999582744,0.158558005073856,1326,0.0,99,P-GPS,
0.343869218052625,36.9120012194141,4700,2018-04-08 05:26:38,1643.5123328924078,2.3000000736,0.0,0.16096500515088003,1643.5123328924078,2.3000000736,0.503999582744,0.16096500515088003,1322,0.0,99,P-GPS,
0.34386926752872304,36.9120011970045,4800,2018-04-08 05:26:38,1643.6123328956078,2.4000000768,0.0,0.16290400521292803,1643.6123328956078,2.4000000768,0.503999582744,0.16290400521292803,1321,0.0,99,P-GPS,
0.34386933170223993,36.9120011621361,4900,2018-04-08 05:26:38,1643.8123329020077,2.6000000832000003,0.0,0.16527200528870403,1643.8123329020077,2.6000000832000003,0.503999582744,0.16527200528870403,1312,0.0,99,P-GPS,
0.343869382049047,36.9120011285192,5000,2018-04-08 05:26:38,1643.912332905208,2.7000000863999998,0.0,0.1669250053416,1643.912332905208,2.7000000863999998,0.503999582744,0.1669250053416,1318,0.0,99,P-GPS,
0.34386944062316,36.912001146713,5100,2018-04-08 05:26:38,1644.1123329116076,2.9000000928,0.0,0.173193005542176,1644.1123329116076,2.9000000928,0.503999582744,0.173193005542176,1325,0.0,99,P-GPS,
0.34386947714457805,36.91200116906,5200,2018-04-08 05:26:38,1644.2123329148076,3.0000000960000004,0.0,0.17790300569289602,1644.2123329148076,3.0000000960000004,0.503999582744,0.17790300569289602,1311,0.0,99,P-GPS,
0.34386950509732894,36.912001184478,5300,2018-04-08 05:26:38,1644.4123329212077,3.2000001024000007,0.0,0.18139000580448,1644.4123329212077,3.2000001024000007,0.503999582744,0.18139000580448,1316,0.0,99,P-GPS,
0.343869521633261,36.912001196857794,5400,2018-04-08 05:26:38,1644.6123329276077,3.4000001088000005,0.0,0.183684005877888,1644.6123329276077,3.4000001088000005,0.503999582744,0.183684005877888,1343,0.0,99,P-GPS,
0.343869480832801,36.912001212031704,5500,2018-04-08 05:26:39,1644.7123329308079,3.500000112,0.0,0.18130900580188802,1644.7123329308079,3.500000112,0.503999582744,0.183684005877888,1405,0.0,99,P-GPS,
0.34386942890874395,36.9120012207056,5600,2018-04-08 05:26:39,1644.9123329372076,3.7000001184,0.0,0.177631005684192,1644.9123329372076,3.7000001184,0.503999582744,0.183684005877888,1415,0.0,99,P-GPS,
0.343869366095995,36.91200122344821,5700,2018-04-08 05:26:39,1645.0123329404075,3.8000001215999997,0.0,0.17274300552777602,1645.0123329404075,3.8000001215999997,0.503999582744,0.183684005877888,1414,0.0,99,P-GPS,
0.343869311730392,36.9120012350336,5800,2018-04-08 05:26:39,1645.2123329468077,4.000000128,0.0,0.169363005419616,1645.2123329468077,4.000000128,0.503999582744,0.183684005877888,1416,0.0,99,P-GPS,
0.343869284375688,36.9120012356484,5900,2018-04-08 05:26:39,1645.4123329532079,4.2000001344,0.0,0.16730200535366402,1645.4123329532079,4.2000001344,0.503999582744,0.183684005877888,1418,0.0,99,P-GPS,
0.34386924288456394,36.9120012221691,6000,2018-04-08 05:26:39,1645.6123329596078,4.4000001408,0.0,0.16305400521772803,1645.6123329596078,4.4000001408,0.503999582744,0.183684005877888,1418,0.0,99,P-GPS,
0.34386917752045,36.9120012007915,6100,2018-04-08 05:26:39,1645.812332966008,4.6000001472,0.0,0.15642000500544,1645.812332966008,4.6000001472,0.503999582744,0.183684005877888,1427,0.0,99,P-GPS,
0.343869100896359,36.9120011797245,6200,2018-04-08 05:26:39,1646.1123329756076,4.9000001568,0.0,0.14911000477152,1646.1123329756076,4.9000001568,0.503999582744,0.183684005877888,1445,0.0,99,P-GPS,
0.34386898503394203,36.9120011320359,6300,2018-04-08 05:26:39,1646.3123329820078,5.1000001632,0.0,0.13698000438336003,1646.3123329820078,5.1000001632,0.503999582744,0.183684005877888,1470,0.0,99,P-GPS,
0.343868883726711,36.9120011032497,6400,2018-04-08 05:26:39,1646.5123329884077,5.3000001696,0.0,0.12787200409190402,1646.5123329884077,5.3000001696,0.503999582744,0.183684005877888,1501,0.0,99,P-GPS,
0.34386880708760803,36.9120011016034,6500,2018-04-08 05:26:40,1646.8123329980076,5.600000179200001,0.0,0.12320700394262402,1646.8123329980076,5.600000179200001,0.503999582744,0.183684005877888,1549,0.0,99,P-GPS,
0.343868624721777,36.9120010972955,6700,2018-04-08 05:26:40,1647.3123330140077,6.1000001952,0.0,0.11387800364409599,1647.3123330140077,6.1000001952,0.503999582744,0.183684005877888,1582,0.0,99,P-GPS,
0.34386846292205,36.9120011563317,6900,2018-04-08 05:26:40,1648.0123330364077,6.800000217600001,0.0,0.11497000367903999,1648.0123330364077,6.800000217600001,0.503999582744,0.183684005877888,1640,0.0,99,P-GPS,
0.343868386713835,36.91200120030229,7000,2018-04-08 05:26:40,1648.3123330460078,7.100000227200002,0.0,0.11835800378745599,1648.3123330460078,7.100000227200002,0.503999582744,0.183684005877888,1672,0.0,99,P-GPS,
0.343868290257688,36.91200121866579,7100,2018-04-08 05:26:40,1648.7123330588076,7.50000024,0.0,0.11948400382348799,1648.7123330588076,7.50000024,0.503999582744,0.183684005877888,1672,0.0,99,P-GPS,
0.34386819572959304,36.9120012406434,7200,2018-04-08 05:26:40,1649.1123330716077,7.9000002528,0.0,0.121974003903168,1649.1123330716077,7.9000002528,0.503999582744,0.183684005877888,1684,0.0,99,P-GPS,
0.343868112747203,36.912001278081,7300,2018-04-08 05:26:40,1649.5123330844076,8.3000002656,0.0,0.12689400406060802,1649.5123330844076,8.3000002656,0.503999582744,0.183684005877888,1684,0.0,99,P-GPS,
0.343868055222966,36.9120013158741,7400,2018-04-08 05:26:40,1649.9123330972077,8.700000278400001,0.0,0.131956004222592,1649.9123330972077,8.700000278400001,0.503999582744,0.183684005877888,1684,0.0,99,P-GPS,
0.343868015913015,36.912001333360706,7500,2018-04-08 05:26:41,1650.4123331132078,9.2000002944,0.0,0.134644004308608,1650.4123331132078,9.2000002944,0.503999582744,0.183684005877888,1684,0.0,99,P-GPS,
0.343867939187031,36.91200136108171,7600,2018-04-08 05:26:41,1650.9123331292078,9.7000003104,0.0,0.139523004464736,1650.9123331292078,9.7000003104,0.503999582744,0.183684005877888,1684,0.0,99,P-GPS,
0.34386780159664304,36.9120014107701,7700,2018-04-08 05:26:41,1651.4123331452076,10.2000003264,0.0,0.14925400477612802,1651.4123331452076,10.2000003264,0.503999582744,0.183684005877888,1684,0.0,99,P-GPS,
0.343867642823582,36.9120014715766,7800,2018-04-08 05:26:41,1651.9123331612077,10.700000342400001,0.0,0.16214500518864003,1651.9123331612077,10.700000342400001,0.503999582744,0.183684005877888,1684,0.0,99,P-GPS,
0.343867476584538,36.912001532272896,7900,2018-04-08 05:26:41,1652.4123331772078,11.200000358400002,0.0,0.17651700564854403,1652.4123331772078,11.200000358400002,0.503999582744,0.183684005877888,1684,0.0,99,P-GPS,
0.34386732688371696,36.9120015759851,8000,2018-04-08 05:26:41,1652.9123331932076,11.700000374400002,0.0,0.18925000605600004,1652.9123331932076,11.700000374400002,0.503999582744,0.18925000605600004,1684,0.0,99,P-GPS,
0.34386721864134995,36.9120016116583,8100,2018-04-08 05:26:41,1653.4123332092076,12.2000003904,0.0,0.199261006376352,1653.4123332092076,12.2000003904,0.503999582744,0.199261006376352,1684,-0.1,99,P-GPS,
0.34386710796242403,36.9120016611471,8200,2018-04-08 05:26:41,1653.9123332252077,12.700000406400001,0.0,0.21095000675040002,1653.9123332252077,12.700000406400001,0.503999582744,0.21095000675040002,1684,-1.5,99,P-GPS,
0.343866986135984,36.912001735590295,8300,2018-04-08 05:26:41,1654.4123332412078,13.2000004224,0.0,0.225784007225088,1654.4123332412078,13.2000004224,0.503999582744,0.225784007225088,1684,-5.7,99,P-GPS,
0.343866861801842,36.9120018133779,8400,2018-04-08 05:26:42,1654.9123332572076,13.7000004384,0.0,0.241216007718912,1654.9123332572076,13.7000004384,0.503999582744,0.241216007718912,1684,-11.3,99,P-GPS,
0.34386676030337,36.912001888352705,8500,2018-04-08 05:26:42,1655.4123332732079,14.200000454400003,0.0,0.25486500815568,1655.4123332732079,14.200000454400003,0.503999582744,0.25486500815568,1684,-17.0,99,P-GPS,
0.343866655203697,36.9120019631816,8600,2018-04-08 05:26:42,1655.9123332892077,14.7000004704,0.0,0.268804008601728,1655.9123332892077,14.7000004704,0.503999582744,0.268804008601728,1684,-22.6,99,P-GPS,
0.343866526703181,36.9120020222248,8700,2018-04-08 05:26:42,1656.4123333052078,15.200000486399999,0.0,0.283232009063424,1656.4123333052078,15.200000486399999,0.503999582744,0.283232009063424,1684,-22.6,99,P-GPS,
0.343866398540771,36.9120020861195,8800,2018-04-08 05:26:42,1656.9123333212078,15.700000502400002,0.0,0.29815600954099203,1656.9123333212078,15.700000502400002,0.503999582744,0.29815600954099203,1684,-27.0,99,P-GPS,
0.343866292825647,36.9120021670563,8900,2018-04-08 05:26:42,1657.4123333372077,16.2000005184,0.0,0.312791010009312,1657.4123333372077,16.2000005184,0.503999582744,0.312791010009312,1684,-27.0,99,P-GPS,
0.34386618809166103,36.9120022428526,9000,2018-04-08 05:26:42,1657.9123333532077,16.7000005344,0.0,0.32695601046259204,1657.9123333532077,16.7000005344,0.503999582744,0.32695601046259204,1684,-27.0,99,P-GPS,
0.343866058485024,36.9120023361676,9100,2018-04-08 05:26:42,1658.5123333724077,17.3000005536,0.0,0.344472011023104,1658.5123333724077,17.3000005536,0.503999582744,0.344472011023104,1684,-27.0,99,P-GPS,
0.34386593272660504,36.9120024175313,9200,2018-04-08 05:26:42,1659.0123333884078,17.8000005696,0.0,0.360774011544768,1659.0123333884078,17.8000005696,0.503999582744,0.360774011544768,1684,-27.0,99,P-GPS,
0.343865834288997,36.9120024678069,9300,2018-04-08 05:26:42,1659.5123334044076,18.3000005856,0.0,0.372521011920672,1659.5123334044076,18.3000005856,0.503999582744,0.372521011920672,1684,-27.0,99,P-GPS,
0.343865759079107,36.9120025116966,9400,2018-04-08 05:26:43,1660.012333420408,18.800000601600004,0.0,0.381939012222048,1660.012333420408,18.800000601600004,0.503999582744,0.381939012222048,1684,-27.0,99,P-GPS,
0.34386570409286404,36.9120025324005,9500,2018-04-08 05:26:43,1660.5123334364077,19.300000617600002,0.0,0.3879650124148801,1660.5123334364077,19.300000617600002,0.503999582744,0.3879650124148801,1684,-27.0,99,P-GPS,
0.343865648211383,36.912002557133604,9600,2018-04-08 05:26:43,1661.0123334524076,19.800000633599996,0.0,0.39438501262032005,1661.0123334524076,19.800000633599996,0.503999582744,0.39438501262032005,1684,-27.0,99,P-GPS,
0.34386556900284904,36.9120025990868,9700,2018-04-08 05:26:43,1661.5123334684079,20.3000006496,0.0,0.404024012928768,1661.5123334684079,20.3000006496,0.503999582744,0.404024012928768,1684,-27.0,99,P-GPS,
0.34386547690721697,36.9120026434339,9800,2018-04-08 05:26:43,1662.1123334876077,20.900000668800004,0.0,0.41492001327744005,1662.1123334876077,20.900000668800004,0.503999582744,0.41492001327744005,1684,-27.0,99,P-GPS,
0.343865356766522,36.9120026922123,9900,2018-04-08 05:26:43,1662.6123335036077,21.400000684800002,0.0,0.428504013712128,1662.6123335036077,21.400000684800002,0.503999582744,0.428504013712128,1684,-27.0,99,P-GPS,
0.34386525540992796,36.9120027258134,10000,2018-04-08 05:26:43,1663.1123335196078,21.900000700799996,0.0,0.439456014062592,1663.1123335196078,21.900000700799996,0.503999582744,0.439456014062592,1684,-27.0,99,P-GPS,
0.3438651970353,36.912002745054004,10100,2018-04-08 05:26:43,1663.6123335356076,22.400000716800005,0.0,0.445777014264864,1663.6123335356076,22.400000716800005,0.503999582744,0.445777014264864,1684,-27.0,99,P-GPS,
0.3438651536631189,36.912002739513,10200,2018-04-08 05:26:43,1664.1123335516077,22.900000732800002,0.0,0.449063014370016,1664.1123335516077,22.900000732800002,0.503999582744,0.449063014370016,1684,-27.0,99,P-GPS,
0.3438651078098,36.9120026972764,10300,2018-04-08 05:26:43,1664.6123335676077,23.400000748800004,0.0,0.45000501440016,1664.6123335676077,23.400000748800004,0.503999582744,0.45000501440016,1684,-27.0,99,P-GPS,
0.34386506311084397,36.9120026579221,10400,2018-04-08 05:26:44,1665.2123335868077,24.000000768000003,0.0,0.4511500144368,1665.2123335868077,24.000000768000003,0.503999582744,0.4511500144368,1684,-27.0,99,P-GPS,
0.34386501911822603,36.912002638730996,10500,2018-04-08 05:26:44,1665.7123336028078,24.500000784000004,0.0,0.45369301451817606,1665.7123336028078,24.500000784000004,0.503999582744,0.45369301451817606,1684,-27.0,99,P-GPS,
0.343864973923816,36.9120026334432,10600,2018-04-08 05:26:44,1666.2123336188079,25.000000800000002,0.0,0.4573250146344,1666.2123336188079,25.000000800000002,0.503999582744,0.4573250146344,1684,-27.0,99,P-GPS,
0.34386496227168895,36.9120026555557,10700,2018-04-08 05:26:44,1666.8123336380077,25.600000819200005,0.0,0.4598460147150721,1666.8123336380077,25.600000819200005,0.503999582744,0.4598460147150721,1684,-27.0,99,P-GPS,
0.343864956068132,36.91200266798079,10800,2018-04-08 05:26:44,1667.3123336540077,26.100000835200003,0.0,0.4612340147594881,1667.3123336540077,26.100000835200003,0.503999582744,0.4612340147594881,1684,-27.0,99,P-GPS,
0.343864943587533,36.91200259635521,11000,2018-04-08 05:26:44,1668.3123336860076,27.100000867200002,0.0,0.45754601464147204,1668.3123336860076,27.100000867200002,0.503999582744,0.4612340147594881,1684,-27.0,99,P-GPS,
0.343864949881673,36.912002570027106,11100,2018-04-08 05:26:44,1668.812333702008,27.6000008832,0.0,0.455244014567808,1668.812333702008,27.6000008832,0.503999582744,0.4612340147594881,1684,-27.0,99,P-GPS,
0.34386495787875804,36.9120025484654,11300,2018-04-08 05:26:44,1669.9123337372075,28.7000009184,0.0,0.4531090144994881,1669.9123337372075,28.7000009184,0.503999582744,0.4612340147594881,1684,-27.0,99,P-GPS,
0.34386499248400704,36.9120025425299,11500,2018-04-08 05:26:45,1671.0123337724076,29.8000009536,0.0,0.449616014387712,1671.0123337724076,29.8000009536,0.503999582744,0.4612340147594881,1684,-27.0,99,P-GPS,
0.343865033642318,36.91200250833921,11700,2018-04-08 05:26:45,1672.0123338044077,30.8000009856,0.0,0.44367601419763203,1672.0123338044077,30.8000009856,0.503999582744,0.4612340147594881,1684,-27.0,99,P-GPS,
0.34386503817611,36.9120024873749,11800,2018-04-08 05:26:45,1672.5123338204075,31.300001001600002,0.0,0.44189101414051196,1672.5123338204075,31.300001001600002,0.503999582744,0.4612340147594881,1684,-27.0,99,P-GPS,
0.343865049122307,36.9120024434231,11900,2018-04-08 05:26:45,1673.1123338396078,31.9000010208,0.0,0.438039014017248,1673.1123338396078,31.9000010208,0.503999582744,0.4612340147594881,1684,-27.0,99,P-GPS,
0.343865049730531,36.9120024033946,12000,2018-04-08 05:26:45,1673.6123338556076,32.4000010368,0.0,0.435401013932832,1673.6123338556076,32.4000010368,0.503999582744,0.4612340147594881,1684,-27.0,99,P-GPS,
0.34386509404435905,36.9120023315206,12100,2018-04-08 05:26:45,1674.1123338716077,32.9000010528,0.0,0.426782013657024,1674.1123338716077,32.9000010528,0.503999582744,0.4612340147594881,1684,-27.0,99,P-GPS,
0.34386511750921994,36.9120022621518,12200,2018-04-08 05:26:45,1674.6123338876077,33.4000010688,0.0,0.42027001344864007,1674.6123338876077,33.4000010688,0.503999582744,0.4612340147594881,1684,-27.0,99,P-GPS,
0.34386513142997305,36.9120021824363,12300,2018-04-08 05:26:45,1675.1123339036078,33.9000010848,0.0,0.414073013250336,1675.1123339036078,33.9000010848,0.503999582744,0.4612340147594881,1684,-27.0,99,P-GPS,
0.343865128551088,36.9120021210107,12400,2018-04-08 05:26:46,1675.6123339196076,34.4000011008,0.0,0.41064501314064006,1675.6123339196076,34.4000011008,0.503999582744,0.4612340147594881,1684,-27.0,99,P-GPS,
0.343865164355686,36.9120020176364,12500,2018-04-08 05:26:46,1676.1123339356075,34.9000011168,0.0,0.401202012838464,1676.1123339356075,34.9000011168,0.503999582744,0.4612340147594881,1684,-27.0,99,P-GPS,
0.34386518308727004,36.9120019350332,12600,2018-04-08 05:26:46,1676.6123339516075,35.40000113280001,0.0,0.39471201263078404,1676.6123339516075,35.40000113280001,0.503999582744,0.4612340147594881,1684,-27.0,99,P-GPS,
0.34386521499072703,36.912001868397496,12700,2018-04-08 05:26:46,1677.2123339708075,36.000001151999996,0.0,0.38793801241401604,1677.2123339708075,36.000001151999996,0.503999582744,0.4612340147594881,1684,-27.0,99,P-GPS,
0.3438652389062589,36.9120018281886,12800,2018-04-08 05:26:46,1677.7123339868074,36.500001168000004,0.0,0.38342601226963197,1677.7123339868074,36.500001168000004,0.503999582744,0.4612340147594881,1684,-27.0,99,P-GPS,
0.343865295644709,36.9120017594423,12900,2018-04-08 05:26:46,1678.2123340028077,37.000001184000006,0.0,0.374204011974528,1678.2123340028077,37.000001184000006,0.503999582744,0.4612340147594881,1684,-27.0,99,P-GPS,
0.34386533925606705,36.912001697409394,13000,2018-04-08 05:26:46,1678.8123340220075,37.60000120320001,0.0,0.36665801173305607,1678.8123340220075,37.60000120320001,0.503999582744,0.4612340147594881,1684,-27.0,99,P-GPS,
0.343865388268771,36.912001567118004,13200,2018-04-08 05:26:46,1679.8123340540076,38.600001235200004,0.0,0.3551750113656,1679.8123340540076,38.600001235200004,0.503999582744,0.4612340147594881,1684,-27.0,99,P-GPS,
0.34386541570031703,36.9120015441155,13300,2018-04-08 05:26:46,1680.3123340700076,39.100001251200005,0.0,0.351306011241792,1680.3123340700076,39.100001251200005,0.503999582744,0.4612340147594881,1684,-27.0,99,P-GPS,
0.343865424550096,36.9120015372496,13400,2018-04-08 05:26:46,1680.8123340860075,39.60000126719999,0.0,0.350086011202752,1680.8123340860075,39.60000126719999,0.503999582744,0.4612340147594881,1684,-27.0,99,P-GPS,
0.34386546591277695,36.91200151674521,13500,2018-04-08 05:26:47,1681.3123341020078,40.10000128320001,0.0,0.344952011038464,1681.3123341020078,40.10000128320001,0.503999582744,0.4612340147594881,1684,-27.0,99,P-GPS,
0.343865484701153,36.9120014967771,13600,2018-04-08 05:26:47,1681.8123341180076,40.6000012992,0.0,0.342097010947104,1681.8123341180076,40.6000012992,0.503999582744,0.4612340147594881,1684,-27.0,99,P-GPS,
0.343865505544015,36.9120014488536,13700,2018-04-08 05:26:47,1682.4123341372074,41.200001318400005,0.0,0.33769501080624004,1682.4123341372074,41.200001318400005,0.503999582744,0.4612340147594881,1684,-27.0,99,P-GPS,
0.34386550696585,36.9120014125281,13800,2018-04-08 05:26:47,1682.9123341532077,41.7000013344,0.0,0.335837010746784,1682.9123341532077,41.7000013344,0.503999582744,0.4612340147594881,1684,-27.0,99,P-GPS,
0.343865503451058,36.9120013546296,13900,2018-04-08 05:26:47,1683.4123341692075,42.2000013504,0.0,0.33354301067337605,1683.4123341692075,42.2000013504,0.503999582744,0.4612340147594881,1684,-27.0,99,P-GPS,
0.343865478517341,36.91200131173,14000,2018-04-08 05:26:47,1683.9123341852073,42.7000013664,0.0,0.334202010694464,1683.9123341852073,42.7000013664,0.503999582744,0.4612340147594881,1684,-27.0,99,P-GPS,
0.343865466701148,36.9120012483601,14100,2018-04-08 05:26:47,1684.4123342012076,43.200001382399996,0.0,0.332751010648032,1684.4123342012076,43.200001382399996,0.503999582744,0.4612340147594881,1684,-27.0,99,P-GPS,
0.343865444196662,36.912001201216604,14200,2018-04-08 05:26:47,1684.9123342172074,43.700001398400005,0.0,0.333194010662208,1684.9123342172074,43.700001398400005,0.503999582744,0.4612340147594881,1684,-27.0,99,P-GPS,
0.343865430220745,36.91200117585979,14300,2018-04-08 05:26:47,1685.4123342332075,44.2000014144,0.0,0.33367001067744,1685.4123342332075,44.2000014144,0.503999582744,0.4612340147594881,1684,-27.0,99,P-GPS,
0.34386539507200303,36.912001176443,14400,2018-04-08 05:26:47,1685.9123342492076,44.7000014304,0.0,0.33736501079568,1685.9123342492076,44.7000014304,0.503999582744,0.4612340147594881,1684,-27.0,99,P-GPS,
0.34386536165836795,36.9120012156581,14500,2018-04-08 05:26:48,1686.5123342684076,45.3000014496,0.0,0.342354010955328,1686.5123342684076,45.3000014496,0.503999582744,0.4612340147594881,1684,-27.0,99,P-GPS,
0.34386533666582303,36.9120013379095,14700,2018-04-08 05:26:48,1687.5123343004077,46.3000014816,0.0,0.349886011196352,1687.5123343004077,46.3000014816,0.503999582744,0.4612340147594881,1684,-27.0,99,P-GPS,
0.34386533751953496,36.912001398829005,14800,2018-04-08 05:26:48,1688.0123343164075,46.80000149760001,0.0,0.35242301127753606,1688.0123343164075,46.80000149760001,0.503999582744,0.4612340147594881,1684,-27.0,99,P-GPS,
0.34386536410815804,36.912001452704295,14900,2018-04-08 05:26:48,1688.5123343324074,47.30000151360001,0.0,0.352141011268512,1688.5123343324074,47.30000151360001,0.503999582744,0.4612340147594881,1684,-27.0,99,P-GPS,
0.34386537186077304,36.9120014995936,15000,2018-04-08 05:26:48,1689.0123343484076,47.8000015296,0.0,0.353546011313472,1689.0123343484076,47.8000015296,0.503999582744,0.4612340147594881,1684,-27.0,99,P-GPS,
0.34386539087387397,36.912001530161604,15100,2018-04-08 05:26:48,1689.5123343644075,48.300001545600004,0.0,0.353104011299328,1689.5123343644075,48.300001545600004,0.503999582744,0.4612340147594881,1684,-27.0,99,P-GPS,
0.343865388436704,36.912001551725204,15200,2018-04-08 05:26:48,1690.0123343804075,48.8000015616,0.0,0.3544000113408,1690.0123343804075,48.8000015616,0.503999582744,0.4612340147594881,1684,-27.0,99,P-GPS,
0.343865397690541,36.912001578133605,15300,2018-04-08 05:26:48,1690.6123343996076,49.4000015808,0.0,0.35478601135315196,1690.6123343996076,49.4000015808,0.503999582744,0.4612340147594881,1684,-27.0,99,P-GPS,
0.34386538397537797,36.912001600309,15400,2018-04-08 05:26:48,1691.1123344156074,49.900001596799996,0.0,0.357259011432288,1691.1123344156074,49.900001596799996,0.503999582744,0.4612340147594881,1684,-27.0,99,P-GPS,
0.343865342187266,36.912001591153604,15500,2018-04-08 05:26:49,1691.6123344316077,50.40000161280001,0.0,0.36095401155052803,1691.6123344316077,50.40000161280001,0.503999582744,0.4612340147594881,1684,-27.0,99,P-GPS,
0.34386530610237204,36.9120015841483,15600,2018-04-08 05:26:49,1692.1123344476075,50.9000016288,0.0,0.36420801165465605,1692.1123344476075,50.9000016288,0.503999582744,0.4612340147594881,1684,-27.0,99,P-GPS,
0.34386531422362604,36.9120015645413,15700,2018-04-08 05:26:49,1692.6123344636076,51.4000016448,0.0,0.362442011598144,1692.6123344636076,51.4000016448,0.503999582744,0.4612340147594881,1684,-27.0,99,P-GPS,
0.343865332138342,36.9120015545176,15800,2018-04-08 05:26:49,1693.1123344796074,51.90000166080001,0.0,0.360163011525216,1693.1123344796074,51.90000166080001,0.503999582744,0.4612340147594881,1684,-27.0,99,P-GPS,
0.343865365838991,36.9120015484908,15900,2018-04-08 05:26:49,1693.6123344956077,52.400001676799995,0.0,0.3564990114079681,1693.6123344956077,52.400001676799995,0.503999582744,0.4612340147594881,1684,-27.0,99,P-GPS,
0.343865383966422,36.912001570021204,16100,2018-04-08 05:26:49,1694.6123345276073,53.400001708800005,0.0,0.355747011383904,1694.6123345276073,53.400001708800005,0.503999582744,0.4612340147594881,1684,-27.0,99,P-GPS,
0.343865348173223,36.9120015665133,16300,2018-04-08 05:26:49,1695.6123345596075,54.40000174080001,0.0,0.35914401149260805,1695.6123345596075,54.40000174080001,0.503999582744,0.4612340147594881,1684,-27.0,99,P-GPS,
0.343865315529435,36.9120015606884,16400,2018-04-08 05:26:49,1696.1123345756075,54.9000017568,0.0,0.36212501158800003,1696.1123345756075,54.9000017568,0.503999582744,0.4612340147594881,1684,-27.0,99,P-GPS,
0.343865298449703,36.912001545604205,16500,2018-04-08 05:26:50,1696.6123345916076,55.40000177280001,0.0,0.36311301161961607,1696.6123345916076,55.40000177280001,0.503999582744,0.4612340147594881,1684,-27.0,99,P-GPS,
0.343865278492104,36.9120015350203,16600,2018-04-08 05:26:50,1697.1123346076076,55.900001788800004,0.0,0.3646190116678081,1697.1123346076076,55.900001788800004,0.503999582744,0.4612340147594881,1684,-27.0,99,P-GPS,
0.343865246577248,36.912001525381,16700,2018-04-08 05:26:50,1697.6123346236075,56.400001804800006,0.0,0.36738701175638394,1697.6123346236075,56.400001804800006,0.503999582744,0.4612340147594881,1684,-27.0,99,P-GPS,
0.34386521097702005,36.912001518287894,16800,2018-04-08 05:26:50,1698.1123346396073,56.90000182080001,0.0,0.37066201186118397,1698.1123346396073,56.90000182080001,0.503999582744,0.4612340147594881,1684,-27.0,99,P-GPS,
0.343865192942003,36.9120015139104,16900,2018-04-08 05:26:50,1698.6123346556076,57.4000018368,0.0,0.372291011913312,1698.6123346556076,57.4000018368,0.503999582744,0.4612340147594881,1684,-27.0,99,P-GPS,
0.34386515740792994,36.9120015103188,17000,2018-04-08 05:26:50,1699.1123346716074,57.90000185280001,0.0,0.37573901202364807,1699.1123346716074,57.90000185280001,0.503999582744,0.4612340147594881,1684,-27.0,99,P-GPS,
0.34386510191178,36.9120015113608,17100,2018-04-08 05:26:50,1699.6123346876075,58.400001868800004,0.0,0.38143901220604803,1699.6123346876075,58.400001868800004,0.503999582744,0.4612340147594881,1684,-27.0,99,P-GPS,
0.34386505307474396,36.912001518723706,17200,2018-04-08 05:26:50,1700.1123347036075,58.900001884800005,0.0,0.38674901237596804,1700.1123347036075,58.900001884800005,0.503999582744,0.4612340147594881,1684,-27.0,99,P-GPS,
0.34386505179051197,36.9120015256085,17300,2018-04-08 05:26:50,1700.6123347196076,59.4000019008,0.0,0.38718301238985603,1700.6123347196076,59.4000019008,0.503999582744,0.4612340147594881,1684,-27.0,99,P-GPS,
0.34386505093150804,36.9120015336636,17400,2018-04-08 05:26:51,1701.1123347356074,59.9000019168,0.0,0.387627012404064,1701.1123347356074,59.9000019168,0.503999582744,0.4612340147594881,1684,-27.0,99,P-GPS,
0.34386507827796803,36.9120015393866,17600,2018-04-08 05:26:51,1702.1123347676075,60.9000019488,0.0,0.38509501232304005,1702.1123347676075,60.9000019488,0.503999582744,0.4612340147594881,1684,-27.0,98,P-GPS,
0.343865098905875,36.9120015658281,17800,2018-04-08 05:26:51,1703.2123348028076,62.000001984,0.0,0.384197012294304,1703.2123348028076,62.000001984,0.503999582744,0.4612340147594881,1684,-27.0,98,P-GPS,
0.34386510702387196,36.9120015858278,17900,2018-04-08 05:26:51,1703.7123348188074,62.50000200000001,0.0,0.38429601229747196,1703.7123348188074,62.50000200000001,0.503999582744,0.4612340147594881,1684,-27.0,98,P-GPS,
0.343865087702995,36.9120016125946,18000,2018-04-08 05:26:51,1704.2123348348075,63.000002015999996,0.0,0.387494012399808,1704.2123348348075,63.000002015999996,0.503999582744,0.4612340147594881,1684,-27.0,98,P-GPS,
0.343864986841449,36.91200169828279,18200,2018-04-08 05:26:51,1705.2123348668076,64.000002048,0.0,0.40169901285436804,1705.2123348668076,64.000002048,0.503999582744,0.4612340147594881,1684,-27.0,98,P-GPS,
0.343864964385816,36.912001736968705,18300,2018-04-08 05:26:51,1705.7123348828075,64.500002064,0.0,0.405814012986048,1705.7123348828075,64.500002064,0.503999582744,0.4612340147594881,1684,-27.0,98,P-GPS,
0.34386495292503105,36.9120017229653,18500,2018-04-08 05:26:52,1706.7123349148076,65.500002096,0.0,0.40628601300115197,1706.7123349148076,65.500002096,0.503999582744,0.4612340147594881,1684,-27.0,98,P-GPS,
0.343864936690666,36.9120016833081,18700,2018-04-08 05:26:52,1707.8123349500077,66.6000021312,0.0,0.40603701299318395,1707.8123349500077,66.6000021312,0.503999582744,0.4612340147594881,1684,-27.0,98,P-GPS,
0.34386492900237503,36.912001725238206,18900,2018-04-08 05:26:52,1708.8123349820073,67.60000216319999,0.0,0.40879501308144006,1708.8123349820073,67.60000216319999,0.503999582744,0.4612340147594881,1684,-27.0,98,P-GPS,
0.34386493744137897,36.9120017559837,19000,2018-04-08 05:26:52,1709.2123349948074,68.00000217600001,0.0,0.4094330131018561,1709.2123349948074,68.00000217600001,0.503999582744,0.4612340147594881,1684,-27.0,98,P-GPS,
0.3438650027666131,36.9120017510755,19200,2018-04-08 05:26:52,1710.2123350268075,69.000002208,0.0,0.40267101288547197,1710.2123350268075,69.000002208,0.503999582744,0.4612340147594881,1684,-27.0,98,P-GPS,
0.34386506851279997,36.912001710491,19300,2018-04-08 05:26:52,1710.7123350428074,69.500002224,0.0,0.39411701261174403,1710.7123350428074,69.500002224,0.503999582744,0.4612340147594881,1684,-27.0,98,P-GPS,
0.34386518878967404,36.9120016230738,19500,2018-04-08 05:26:53,1711.8123350780074,70.60000225920001,0.0,0.377833012090656,1711.8123350780074,70.60000225920001,0.503999582744,0.4612340147594881,1684,-27.0,98,P-GPS,
0.343865237428853,36.912001587872204,19600,2018-04-08 05:26:53,1712.3123350940077,71.10000227520001,0.0,0.37126201188038394,1712.3123350940077,71.10000227520001,0.503999582744,0.4612340147594881,1684,-27.0,98,P-GPS,
0.343865289517077,36.9120015461454,19700,2018-04-08 05:26:53,1712.8123351100076,71.6000022912,0.0,0.364037011649184,1712.8123351100076,71.6000022912,0.503999582744,0.4612340147594881,1684,-27.0,98,P-GPS,
0.3438653145265169,36.912001516847404,19800,2018-04-08 05:26:53,1713.3123351260074,72.1000023072,0.0,0.36013301152425603,1713.3123351260074,72.1000023072,0.503999582744,0.4612340147594881,1684,-27.0,98,P-GPS,
0.34386535482093794,36.912001491538796,19900,2018-04-08 05:26:53,1713.8123351420074,72.6000023232,0.0,0.35488201135622405,1713.8123351420074,72.6000023232,0.503999582744,0.4612340147594881,1684,-27.0,98,P-GPS,
0.34386539242415304,36.9120014584393,20000,2018-04-08 05:26:53,1714.3123351580075,73.1000023392,0.0,0.34954201118534406,1714.3123351580075,73.1000023392,0.503999582744,0.4612340147594881,1684,-27.0,98,P-GPS,
0.343865423684171,36.9120013853571,20100,2018-04-08 05:26:53,1714.8123351740076,73.6000023552,0.0,0.34303901097724804,1714.8123351740076,73.6000023552,0.503999582744,0.4612340147594881,1684,-27.0,98,P-GPS,
0.343865432665243,36.9120013152341,20200,2018-04-08 05:26:53,1715.2123351868074,74.00000236800001,0.0,0.33905601084979203,1715.2123351868074,74.00000236800001,0.503999582744,0.4612340147594881,1684,-27.0,98,P-GPS,
0.34386545392518997,36.9120012777504,20300,2018-04-08 05:26:53,1715.7123352028075,74.500002384,0.0,0.335286010729152,1715.7123352028075,74.500002384,0.503999582744,0.4612340147594881,1684,-27.0,98,P-GPS,
0.343865462113414,36.9120012486757,20400,2018-04-08 05:26:53,1716.2123352188075,75.0000024,0.0,0.333238010663616,1716.2123352188075,75.0000024,0.503999582744,0.4612340147594881,1684,-27.0,98,P-GPS,
0.343865501496518,36.91200121617229,20500,2018-04-08 05:26:54,1716.7123352348076,75.50000241600002,0.0,0.32783901049084807,1716.7123352348076,75.50000241600002,0.503999582744,0.4612340147594881,1684,-27.0,98,P-GPS,
0.34386552635349393,36.9120011766852,20600,2018-04-08 05:26:54,1717.2123352508074,76.000002432,0.0,0.32368301035785607,1717.2123352508074,76.000002432,0.503999582744,0.4612340147594881,1684,-27.0,98,P-GPS,
0.34386557909350296,36.912001124316504,20700,2018-04-08 05:26:54,1717.7123352668077,76.500002448,0.0,0.31615301011689606,1717.7123352668077,76.500002448,0.503999582744,0.4612340147594881,1684,-27.0,98,P-GPS,
0.343865613432094,36.9120010687959,20800,2018-04-08 05:26:54,1718.2123352828075,77.000002464,0.0,0.31047400993516805,1718.2123352828075,77.000002464,0.503999582744,0.4612340147594881,1684,-27.0,98,P-GPS,
0.34386568394494,36.912001014320104,20900,2018-04-08 05:26:54,1718.7123352988074,77.50000248,0.0,0.30108600963475196,1718.7123352988074,77.50000248,0.503999582744,0.4612340147594881,1684,-27.0,98,P-GPS,
0.34386572422837,36.9120009712146,21000,2018-04-08 05:26:54,1719.2123353148077,78.00000249600001,0.0,0.29532000945024,1719.2123353148077,78.00000249600001,0.503999582744,0.4612340147594881,1660,-27.0,98,P-GPS,
0.34386575691429494,36.912000934739,21100,2018-04-08 05:26:54,1719.7123353308075,78.500002512,0.0,0.290617009299744,1719.7123353308075,78.500002512,0.503999582744,0.4612340147594881,1556,-27.0,98,P-GPS,
0.343865769684349,36.9120009046767,21200,2018-04-08 05:26:54,1720.2123353468075,79.00000252800001,0.0,0.288266009224512,1720.2123353468075,79.00000252800001,0.503999582744,0.4612340147594881,1448,-27.0,98,P-GPS,
0.34386581290549206,36.9120008727933,21300,2018-04-08 05:26:54,1720.6123353596074,79.4000025408,0.0,0.282639009044448,1720.6123353596074,79.4000025408,0.503999582744,0.4612340147594881,1271,-27.0,98,P-GPS,
0.343865821923204,36.9120008457179,21400,2018-04-08 05:26:54,1721.0123353724075,79.80000255360001,0.0,0.280828008986496,1721.0123353724075,79.80000255360001,0.503999582744,0.4612340147594881,1080,-27.0,98,P-GPS,
0.343865848065226,36.912000798962296,21500,2018-04-08 05:26:55,1721.3123353820074,80.1000025632,0.0,0.27662400885196803,1721.3123353820074,80.1000025632,0.503999582744,0.4612340147594881,1024,-27.0,98,P-GPS,
0.34386585322719,36.912000762723295,21600,2018-04-08 05:26:55,1721.6123353916075,80.4000025728,0.0,0.275036008801152,1721.6123353916075,80.4000025728,0.503999582744,0.4612340147594881,1024,-27.0,98,P-GPS,
0.343865873524523,36.912000721379,21700,2018-04-08 05:26:55,1721.7123353948075,80.500002576,0.0,0.27173000869535996,1721.7123353948075,80.500002576,0.503999582744,0.4612340147594881,1024,-27.0,98,P-GPS,
0.343865880532939,36.9120006905164,21800,2018-04-08 05:26:55,1721.8123353980075,80.6000025792,0.0,0.27018100864579203,1721.8123353980075,80.6000025792,0.503999582744,0.4612340147594881,1024,-27.0,98,P-GPS,
0.343865905073793,36.91200063993371,21900,2018-04-08 05:26:55,1721.9123354012077,80.7000025824,0.0,0.266303008521696,1721.9123354012077,80.7000025824,0.503999582744,0.4612340147594881,1024,-27.0,98,P-GPS,
0.343865930795677,36.9120006043906,22000,2018-04-08 05:26:55,1721.9123354012077,80.7000025824,0.0,0.26270800840665604,1721.9123354012077,80.7000025824,0.503999582744,0.4612340147594881,1024,-27.0,98,P-GPS,
0.343866015303371,36.9120005904674,22100,2018-04-08 05:26:55,1721.9123354012077,80.7000025824,0.0,0.25318900810204803,1721.9123354012077,80.7000025824,0.503999582744,0.4612340147594881,1024,-27.0,98,P-GPS,
0.34386609901679205,36.912000592220394,22200,2018-04-08 05:26:55,1721.9123354012077,80.7000025824,0.0,0.244106007811392,1721.9123354012077,80.7000025824,0.503999582744,0.4612340147594881,1024,-27.0,98,P-GPS,
0.343866187134339,36.912000537738706,22300,2018-04-08 05:26:55,1721.9123354012077,80.7000025824,0.0,0.23331100746595201,1721.9123354012077,80.7000025824,0.503999582744,0.4612340147594881,1024,-27.0,98,P-GPS,
0.343866268636536,36.912000489902,22400,2018-04-08 05:26:55,1721.9123354012077,80.7000025824,0.0,0.22344000715007997,1721.9123354012077,80.7000025824,0.503999582744,0.4612340147594881,1024,-27.0,98,P-GPS,
0.34386645001690297,36.9120004284573,22600,2018-04-08 05:26:56,1721.9123354012077,80.7000025824,0.0,0.202422006477504,1721.9123354012077,80.7000025824,0.503999582744,0.4612340147594881,1024,-27.0,98,P-GPS,
0.343866567162584,36.9120004203977,22700,2018-04-08 05:26:56,1721.9123354012077,80.7000025824,0.0,0.189418006061376,1721.9123354012077,80.7000025824,0.503999582744,0.4612340147594881,1024,-27.0,98,P-GPS,
0.343866627658668,36.9120004269769,22800,2018-04-08 05:26:56,1721.9123354012077,80.7000025824,0.7199994039200001,0.18290600585299197,1721.9123354012077,80.7000025824,0.7199994039200001,0.4612340147594881,1024,-27.0,98,P-GPS,
0.34386643062295,36.912000391849,22900,2018-04-08 05:26:56,1721.9123354012077,80.7000025824,2.15999821176,0.20396500652688002,1721.9123354012077,80.7000025824,2.15999821176,0.4612340147594881,1024,-27.0,98,P-GPS,
0.343865748092606,36.9120002796986,23000,2018-04-08 05:26:56,1721.9123354012077,80.7000025824,4.31999642352,0.27841500890928,1721.9123354012077,80.7000025824,4.31999642352,0.4612340147594881,1024,-27.0,98,P-GPS,
0.34386446530803494,36.9120000473927,23100,2018-04-08 05:26:56,1721.9123354012077,80.7000025824,6.11999493332,0.420806013465792,1721.9123354012077,80.7000025824,6.11999493332,0.4612340147594881,1024,-27.0,98,P-GPS,
0.343862752083987,36.911999776356794,23200,2018-04-08 05:26:56,1721.9123354012077,80.7000025824,6.11999493332,0.61256001960192,1721.9123354012077,80.7000025824,6.11999493332,0.61256001960192,1024,-27.0,98,P-GPS,
0.34386054919822806,36.9119993791146,23300,2018-04-08 05:26:56,1721.9123354012077,80.7000025824,9.395992221156,0.860387027532384,1721.9123354012077,80.7000025824,9.395992221156,0.860387027532384,1024,-27.0,98,P-GPS,
0.343858038388365,36.9119989654063,23400,2018-04-08 05:26:56,1722.0123354044076,80.80000258560001,9.395992221156,1.14293003657376,1722.0123354044076,80.80000258560001,9.395992221156,1.14293003657376,1024,-27.0,98,P-GPS,
0.34385527292568696,36.911998502650796,23500,2018-04-08 05:26:57,1722.0123354044076,80.80000258560001,11.915990134876001,1.4544300465417601,1722.0123354044076,80.80000258560001,11.915990134876001,1.4544300465417601,1024,-27.0,98,P-GPS,
0.34385226697928495,36.911998038715296,23600,2018-04-08 05:26:57,1722.0123354044076,80.80000258560001,11.915990134876001,1.79256005736192,1722.0123354044076,80.80000258560001,11.915990134876001,1.79256005736192,1024,-27.0,98,P-GPS,
0.343848964371097,36.911997503024104,23700,2018-04-08 05:26:57,1722.1123354076076,80.9000025888,13.751988614872003,2.164500069264,1722.1123354076076,80.9000025888,13.751988614872003,2.164500069264,1024,-27.0,98,P-GPS,
0.34384542862835304,36.9119969619707,23800,2018-04-08 05:26:57,1722.1123354076076,80.9000025888,13.751988614872003,2.5622300819913604,1722.1123354076076,80.9000025888,13.751988614872003,2.5622300819913604,1024,-27.0,98,P-GPS,
0.343841700896948,36.911996406785796,23900,2018-04-08 05:26:57,1722.1123354076076,80.9000025888,15.587987094867998,2.98133009540256,1722.1123354076076,80.9000025888,15.587987094867998,2.98133009540256,1024,-27.0,98,P-GPS,
0.34383356655374697,36.9119953100242,24100,2018-04-08 05:26:57,1722.2123354108073,81.000002592,17.387985604668,3.89409012461088,1722.2123354108073,81.000002592,17.387985604668,3.89409012461088,1024,-27.0,98,P-GPS,
0.343829144198155,36.911994745848496,24200,2018-04-08 05:26:57,1722.2123354108073,81.000002592,17.387985604668,4.38984014047488,1722.2123354108073,81.000002592,17.387985604668,4.38984014047488,1024,-27.0,98,P-GPS,
0.34382451058126695,36.911994106365,24300,2018-04-08 05:26:57,1722.2123354108073,81.000002592,19.187984114467998,4.91001015712032,1722.2123354108073,81.000002592,19.187984114467998,4.91001015712032,1024,-27.0,98,P-GPS,
0.34381963571691404,36.9119934401653,24400,2018-04-08 05:26:57,1722.2123354108073,81.000002592,20.267983220348,5.45717017462944,1722.2123354108073,81.000002592,20.267983220348,5.45717017462944,1024,-27.0,98,P-GPS,
0.343814601932711,36.911992750216704,24500,2018-04-08 05:26:58,1722.2123354108073,81.000002592,20.987982624268,6.022190192710081,1722.2123354108073,81.000002592,20.987982624268,6.022190192710081,1024,-27.0,98,P-GPS,
0.34380933098843897,36.9119920494323,24600,2018-04-08 05:26:58,1722.2123354108073,81.000002592,22.103981700344,6.613500211632001,1722.2123354108073,81.000002592,22.103981700344,6.613500211632001,1024,-27.0,98,P-GPS,
0.3438037799680839,36.9119912579924,24700,2018-04-08 05:26:58,1722.2123354108073,81.000002592,22.823981104263996,7.237040231585281,1722.2123354108073,81.000002592,22.823981104263996,7.237040231585281,1024,-27.0,98,P-GPS,
0.343797988126916,36.911990452602794,24800,2018-04-08 05:26:58,1722.3123354140075,81.10000259520002,22.823981104263996,7.88733025239456,1722.3123354140075,81.10000259520002,22.823981104263996,7.88733025239456,1024,-27.0,98,P-GPS,
0.34379189946600497,36.911989589259704,24900,2018-04-08 05:26:58,1722.3123354140075,81.10000259520002,24.659979584260004,8.57119027427808,1722.3123354140075,81.10000259520002,24.659979584260004,8.57119027427808,1024,-27.0,98,P-GPS,
0.343785623201831,36.9119887144101,25000,2018-04-08 05:26:58,1722.3123354140075,81.10000259520002,25.37997898818,9.2759002968288,1722.3123354140075,81.10000259520002,25.37997898818,9.2759002968288,1024,-27.0,98,P-GPS,
0.34377236762209995,36.9119867466176,25200,2018-04-08 05:26:58,1722.4123354172075,81.2000025984,27.17997749798,10.766100344515202,1722.4123354172075,81.2000025984,27.17997749798,10.766100344515202,1024,-27.0,98,P-GPS,
0.343765441862808,36.9119857286714,25300,2018-04-08 05:26:58,1722.4123354172075,81.2000025984,27.17997749798,11.544500369424,1722.4123354172075,81.2000025984,27.17997749798,11.544500369424,1024,-27.0,98,P-GPS,
0.343758384955151,36.911984727452506,25400,2018-04-08 05:26:59,1722.4123354172075,81.2000025984,28.655976276016,12.3372003947904,1722.4123354172075,81.2000025984,28.655976276016,12.3372003947904,1024,-27.0,98,P-GPS,
0.34375104930999195,36.9119836502691,25500,2018-04-08 05:26:59,1722.4123354172075,81.2000025984,28.655976276016,13.161700421174402,1722.4123354172075,81.2000025984,28.655976276016,13.161700421174402,1024,-27.0,98,P-GPS,
0.34374359472328403,36.9119825763875,25600,2018-04-08 05:26:59,1722.4123354172075,81.2000025984,30.095975083855997,13.9992004479744,1722.4123354172075,81.2000025984,30.095975083855997,13.9992004479744,1024,-27.0,98,P-GPS,
0.343735842391875,36.9119814326159,25700,2018-04-08 05:26:59,1722.4123354172075,81.2000025984,30.095975083855997,14.870600475859199,1722.4123354172075,81.2000025984,30.095975083855997,14.870600475859199,1024,-27.0,98,P-GPS,
0.343727980759305,36.9119803041328,25800,2018-04-08 05:26:59,1722.3123354140075,81.10000259520002,31.571973861892,15.753900504124802,1722.4123354172075,81.2000025984,31.571973861892,15.753900504124802,1024,-27.0,98,P-GPS,
0.343719824743142,36.911979067265705,25900,2018-04-08 05:26:59,1722.3123354140075,81.10000259520002,32.291973265812004,16.6712005334784,1722.4123354172075,81.2000025984,32.291973265812004,16.6712005334784,1024,-27.0,98,P-GPS,
0.34371157905834004,36.9119778367174,26000,2018-04-08 05:26:59,1722.3123354140075,81.10000259520002,33.047972639928,17.5983005631456,1722.4123354172075,81.2000025984,33.047972639928,17.5983005631456,1024,-27.0,98,P-GPS,
0.3437028571644031,36.911976522277705,26100,2018-04-08 05:26:59,1722.2123354108073,81.000002592,33.767972043848,18.5791005945312,1722.4123354172075,81.2000025984,33.767972043848,18.5791005945312,1024,-27.0,98,P-GPS,
0.343694074431798,36.911975224291204,26200,2018-04-08 05:26:59,1722.2123354108073,81.000002592,34.523971417964,19.566400626124803,1722.4123354172075,81.2000025984,34.523971417964,19.566400626124803,1024,-27.0,98,P-GPS,
0.34368550991068897,36.9119739094211,26300,2018-04-08 05:26:59,1722.2123354108073,81.000002592,34.523971417964,20.53000065696,1722.4123354172075,81.2000025984,34.523971417964,20.53000065696,1024,-27.0,98,P-GPS,
0.343676946588114,36.9119725869025,26400,2018-04-08 05:27:00,1722.2123354108073,81.000002592,35.63997049404,21.493500687792,1722.4123354172075,81.2000025984,35.63997049404,21.493500687792,1024,-27.0,98,P-GPS,
0.343667430234975,36.9119710490206,26500,2018-04-08 05:27:00,1722.1123354076076,80.9000025888,35.63997049404,22.5653007220896,1722.4123354172075,81.2000025984,35.63997049404,22.5653007220896,1024,-27.0,98,P-GPS,
0.343657759296904,36.9119695315811,26600,2018-04-08 05:27:00,1722.2123354108073,81.000002592,37.07996930188,23.653900756924802,1722.4123354172075,81.2000025984,37.07996930188,23.653900756924802,1024,-27.0,98,P-GPS,
0.343647922700482,36.911967980068205,26700,2018-04-08 05:27:00,1722.1123354076076,80.9000025888,37.83596867599599,24.7612007923584,1722.4123354172075,81.2000025984,37.83596867599599,24.7612007923584,1024,-27.0,98,P-GPS,
0.34363813632527196,36.9119664694785,26800,2018-04-08 05:27:00,1722.1123354076076,80.9000025888,38.55596807991599,25.862400827596804,1722.4123354172075,81.2000025984,38.55596807991599,25.862400827596804,1024,-27.0,98,P-GPS,
0.343628117694867,36.9119649040004,26900,2018-04-08 05:27:00,1722.1123354076076,80.9000025888,38.87996781168,26.99000086368,1722.4123354172075,81.2000025984,38.87996781168,26.99000086368,1024,-27.0,98,P-GPS,
0.34361810260795506,36.9119633655383,27000,2018-04-08 05:27:00,1722.1123354076076,80.9000025888,39.599967215599996,28.116800899737605,1722.4123354172075,81.2000025984,39.599967215599996,28.116800899737605,1024,-27.0,98,P-GPS,
0.343608052476929,36.911961803377,27100,2018-04-08 05:27:00,1722.1123354076076,80.9000025888,39.95996691756,29.247800935929604,1722.4123354172075,81.2000025984,39.95996691756,29.247800935929604,1024,-27.0,98,P-GPS,
0.343597970610786,36.911960256754604,27200,2018-04-08 05:27:00,1722.1123354076076,80.9000025888,39.95996691756,30.3821009722272,1722.4123354172075,81.2000025984,39.95996691756,30.3821009722272,1024,-27.0,98,P-GPS,
0.343587863497247,36.911958706128104,27300,2018-04-08 05:27:00,1722.1123354076076,80.9000025888,41.075965993636,31.519201008614402,1722.4123354172075,81.2000025984,41.075965993636,31.519201008614402,1024,-27.0,98,P-GPS,
0.343577673971414,36.9119571581525,27400,2018-04-08 05:27:00,1722.1123354076076,80.9000025888,41.435965695596,32.6653010452896,1722.4123354172075,81.2000025984,41.435965695596,32.6653010452896,1024,-27.0,98,P-GPS,
0.34356695651706504,36.9119554855184,27500,2018-04-08 05:27:01,1722.0123354044076,80.80000258560001,41.795965397555996,33.871501083888,1722.4123354172075,81.2000025984,41.795965397555996,33.871501083888,1024,-27.0,98,P-GPS,
0.34355614826067893,36.9119538157151,27600,2018-04-08 05:27:01,1722.0123354044076,80.80000258560001,42.551964771672004,35.0877011228064,1722.4123354172075,81.2000025984,42.551964771672004,35.0877011228064,1024,-27.0,98,P-GPS,
0.34354517293896697,36.9119520714996,27700,2018-04-08 05:27:01,1722.0123354044076,80.80000258560001,42.911964473632004,36.323501162352,1722.4123354172075,81.2000025984,42.911964473632004,36.323501162352,1024,-27.0,98,P-GPS,
0.343534243969284,36.9119503531074,27800,2018-04-08 05:27:01,1722.0123354044076,80.80000258560001,42.911964473632004,37.5537012017184,1722.4123354172075,81.2000025984,42.911964473632004,37.5537012017184,1024,-27.0,98,P-GPS,
0.34352318008627303,36.9119485898221,27900,2018-04-08 05:27:01,1722.0123354044076,80.80000258560001,43.271964175592004,38.7996012415872,1722.4123354172075,81.2000025984,43.271964175592004,38.7996012415872,1024,-27.0,98,P-GPS,
0.34351215210719505,36.911946855036504,28000,2018-04-08 05:27:01,1722.0123354044076,80.80000258560001,43.271964175592004,40.041001281312,1722.4123354172075,81.2000025984,43.271964175592004,40.041001281312,1024,-27.0,98,P-GPS,
0.34350123950011796,36.9119451032025,28100,2018-04-08 05:27:01,1722.0123354044076,80.80000258560001,44.027963549708,41.27000132064,1722.4123354172075,81.2000025984,44.027963549708,41.27000132064,1024,-27.0,98,P-GPS,
0.34349033640315396,36.9119433762796,28200,2018-04-08 05:27:01,1721.9123354012077,80.7000025824,44.027963549708,42.4976013599232,1722.4123354172075,81.2000025984,44.027963549708,42.4976013599232,1024,-27.0,98,P-GPS,
0.343479161264849,36.9119415733215,28300,2018-04-08 05:27:01,1721.9123354012077,80.7000025824,44.387963251668,43.75630140020161,1722.4123354172075,81.2000025984,44.387963251668,43.75630140020161,1024,-27.0,98,P-GPS,
0.34346794019139604,36.9119397934073,28400,2018-04-08 05:27:01,1721.9123354012077,80.7000025824,44.387963251668,45.0197014406304,1722.4123354172075,81.2000025984,44.387963251668,45.0197014406304,1024,-27.0,98,P-GPS,
0.34345682026385604,36.91193801581,28500,2018-04-08 05:27:02,1721.8123353980075,80.6000025792,44.747962953628,46.272001480704006,1722.4123354172075,81.2000025984,44.747962953628,46.272001480704006,1024,-27.0,98,P-GPS,
0.343434352348452,36.911934460611,28700,2018-04-08 05:27:02,1721.8123353980075,80.6000025792,45.107962655588,48.801601561651204,1722.4123354172075,81.2000025984,45.107962655588,48.801601561651204,1024,-27.0,98,P-GPS,
0.34341143750985,36.9119308391536,28900,2018-04-08 05:27:02,1721.7123353948075,80.500002576,45.503962327744006,51.3814016442048,1722.4123354172075,81.2000025984,45.503962327744006,51.3814016442048,1024,-27.0,98,P-GPS,
0.34339997065860195,36.9119290345339,29000,2018-04-08 05:27:02,1721.7123353948075,80.500002576,45.503962327744006,52.6723016855136,1722.4123354172075,81.2000025984,45.503962327744006,52.6723016855136,1024,-27.0,98,P-GPS,
0.34338822465296903,36.9119271719638,29100,2018-04-08 05:27:02,1721.7123353948075,80.500002576,45.827962059507996,53.994801727833604,1722.4123354172075,81.2000025984,45.827962059507996,53.994801727833604,1024,-27.0,98,P-GPS,
0.34337654248234195,36.911925346843795,29200,2018-04-08 05:27:02,1721.7123353948075,80.500002576,45.827962059507996,55.309701769910404,1722.4123354172075,81.2000025984,45.827962059507996,55.309701769910404,1024,-27.0,98,P-GPS,
0.34336500460488,36.9119235328755,29300,2018-04-08 05:27:02,1721.7123353948075,80.500002576,45.827962059507996,56.608501811472,1722.4123354172075,81.2000025984,45.827962059507996,56.608501811472,1024,-27.0,98,P-GPS,
0.34335352144313597,36.9119217649179,29400,2018-04-08 05:27:03,1721.7123353948075,80.500002576,46.187961761468,57.90060185281921,1722.4123354172075,81.2000025984,46.187961761468,57.90060185281921,1024,-27.0,98,P-GPS,
0.343342343178219,36.9119200382863,29500,2018-04-08 05:27:03,1721.7123353948075,80.500002576,46.187961761468,59.1584018930688,1722.4123354172075,81.2000025984,46.187961761468,59.1584018930688,1024,-27.0,98,P-GPS,
0.34333119096840503,36.911918331542395,29600,2018-04-08 05:27:03,1721.7123353948075,80.500002576,46.187961761468,60.413001933216,1722.4123354172075,81.2000025984,46.187961761468,60.413001933216,1024,-27.0,98,P-GPS,
0.343319658145633,36.911916530412796,29700,2018-04-08 05:27:03,1721.7123353948075,80.500002576,46.187961761468,61.71110197475521,1722.4123354172075,81.2000025984,46.187961761468,61.71110197475521,1024,-27.0,98,P-GPS,
0.34330802475016,36.9119147439379,29800,2018-04-08 05:27:03,1721.7123353948075,80.500002576,46.187961761468,63.0199020166368,1722.4123354172075,81.2000025984,46.187961761468,63.0199020166368,1024,-27.0,98,P-GPS,
0.34329632939565,36.9119129591075,29900,2018-04-08 05:27:03,1721.7123353948075,80.500002576,46.187961761468,64.3356020587392,1722.4123354172075,81.2000025984,46.187961761468,64.3356020587392,1024,-27.0,98,P-GPS,
0.343284701419639,36.9119112180267,30000,2018-04-08 05:27:03,1721.7123353948075,80.500002576,46.187961761468,65.6431021005792,1722.4123354172075,81.2000025984,46.187961761468,65.6431021005792,1024,-27.0,98,P-GPS,
0.343261441767791,36.91190767460029,30200,2018-04-08 05:27:03,1721.7123353948075,80.500002576,46.187961761468,68.2596021843072,1722.4123354172075,81.2000025984,46.187961761468,68.2596021843072,1024,-27.0,98,P-GPS,
0.343238598893386,36.9119042679387,30400,2018-04-08 05:27:03,1721.7123353948075,80.500002576,46.187961761468,70.8279022664928,1722.4123354172075,81.2000025984,46.187961761468,70.8279022664928,1024,-27.0,98,P-GPS,
0.34322704079716304,36.911902550068895,30500,2018-04-08 05:27:03,1721.7123353948075,80.500002576,46.187961761468,72.1273023080736,1722.4123354172075,81.2000025984,46.187961761468,72.1273023080736,1024,-27.0,98,P-GPS,
0.343215481033414,36.9119008525495,30600,2018-04-08 05:27:04,1721.7123353948075,80.500002576,46.11596182107599,73.4266023496512,1722.4123354172075,81.2000025984,46.187961761468,73.4266023496512,1024,-27.0,98,P-GPS,
0.343204079528366,36.91189918584671,30700,2018-04-08 05:27:04,1721.7123353948075,80.500002576,46.11596182107599,74.708002390656,1722.4123354172075,81.2000025984,46.187961761468,74.708002390656,1024,-27.0,98,P-GPS,
0.34319272810122803,36.911897545738,30800,2018-04-08 05:27:04,1721.7123353948075,80.500002576,46.11596182107599,75.98340243146879,1722.4123354172075,81.2000025984,46.187961761468,75.98340243146879,1024,-27.0,98,P-GPS,
0.343181335507026,36.911895925585604,30900,2018-04-08 05:27:04,1721.7123353948075,80.500002576,46.11596182107599,77.263002472416,1722.4123354172075,81.2000025984,46.187961761468,77.263002472416,1024,-27.0,98,P-GPS,
