latitude,longitude,time_millisecond,datetime_utc,altitude_m,ascent_m,speed_kph,distance_m,max_altitude_m,max_ascent_m,max_speed_kph,max_distance_m,rc_throttle,gimbal_pitch_degrees,battery_percent,flycState,message
0.35052415966036404,36.8971100373263,0,2018-04-17 05:21:40,1765.9756424112325,0.0,0.0,0.0,1765.9756424112325,0.0,0.0,0.0,364,0.0,100,Motors_Started,
0.350524134111045,36.8971100609466,100,2018-04-17 05:21:40,1765.9756424112325,0.0,0.0,0.0038693701238198407,1765.9756424112325,0.0,0.0,0.0038693701238198407,364,0.0,100,Motors_Started,Setting new Return-To-Home altitude to 45m (148 ft). Setting new Maximum Flight Altitude to 150m (492 ft)
0.350524108247894,36.8971100816593,200,2018-04-17 05:21:40,1765.9756424112325,0.0,0.0,0.00754939024158048,1765.9756424112325,0.0,0.0,0.00754939024158048,364,0.0,100,Motors_Started,
0.350524088761068,36.897110120297896,300,2018-04-17 05:21:40,1765.9756424112325,0.0,0.0,0.012136600388371199,1765.9756424112325,0.0,0.0,0.012136600388371199,364,0.0,100,Motors_Started,
0.350524073992251,36.8971101589084,400,2018-04-17 05:21:40,1765.9756424112325,0.0,0.0,0.016539700529270403,1765.9756424112325,0.0,0.0,0.016539700529270403,364,0.0,100,Motors_Started,
0.350524066343043,36.897110182661706,500,2018-04-17 05:21:40,1765.9756424112325,0.0,0.0,0.0192067006146144,1765.9756424112325,0.0,0.0,0.0192067006146144,364,0.0,100,Motors_Started,
0.350524059728354,36.8971102038808,600,2018-04-17 05:21:40,1765.9756424112325,0.0,0.0,0.021599700691190403,1765.9756424112325,0.0,0.0,0.021599700691190403,364,0.0,100,Motors_Started,
0.35052406035846,36.8971102415114,700,2018-04-17 05:21:40,1765.9756424112325,0.0,0.0,0.0252491008079712,1765.9756424112325,0.0,0.0,0.0252491008079712,470,0.0,100,Motors_Started,
0.35052406022370597,36.897110281013,800,2018-04-17 05:21:40,1765.9756424112325,0.0,0.0,0.029268300936585605,1765.9756424112325,0.0,0.0,0.029268300936585605,666,0.0,100,Motors_Started,
0.35052406568072403,36.8971103609804,900,2018-04-17 05:21:41,1765.9756424112325,0.0,0.0,0.0374783011993056,1765.9756424112325,0.0,0.0,0.0374783011993056,746,0.0,100,Motors_Started,
0.350524070468909,36.8971104421599,1000,2018-04-17 05:21:41,1765.9756424112325,0.0,0.0,0.0460988014751616,1765.9756424112325,0.0,0.0,0.0460988014751616,877,0.0,100,Motors_Started,
0.350524079825083,36.8971105691994,1100,2018-04-17 05:21:41,1765.9756424112325,0.0,0.0,0.05980900191388801,1765.9756424112325,0.0,0.0,0.05980900191388801,992,0.0,100,Motors_Started,
0.35052408470603896,36.8971106745786,1200,2018-04-17 05:21:41,1765.9756424112325,0.0,0.0,0.07135350228331201,1765.9756424112325,0.0,0.0,0.07135350228331201,1024,0.0,100,Motors_Started,
0.350524091570592,36.8971108769969,1300,2018-04-17 05:21:41,1765.9756424112325,0.0,0.0,0.0936813029978016,1765.9756424112325,0.0,0.0,0.0936813029978016,1024,0.0,100,Motors_Started,
0.35052409726465,36.8971110552171,1400,2018-04-17 05:21:41,1765.9756424112325,0.0,0.0,0.11340600362899202,1765.9756424112325,0.0,0.0,0.11340600362899202,1024,0.0,100,Motors_Started,
0.35052410315234006,36.8971113484509,1500,2018-04-17 05:21:41,1765.9756424112325,0.0,0.0,0.145938004670016,1765.9756424112325,0.0,0.0,0.145938004670016,1024,0.0,100,Motors_Started,
0.35052410701297304,36.8971115997275,1600,2018-04-17 05:21:41,1765.9756424112325,0.0,0.0,0.17384400556300802,1765.9756424112325,0.0,0.0,0.17384400556300802,1024,0.0,100,Assisted_Takeoff,
0.35052414493256395,36.8971119853445,1700,2018-04-17 05:21:41,1765.9756424112325,0.0,0.0,0.216634006932288,1765.9756424112325,0.0,0.0,0.216634006932288,1044,0.0,100,Assisted_Takeoff,
0.35052417770886696,36.89711230607001,1800,2018-04-17 05:21:41,1765.9756424112325,0.0,0.0,0.252301008073632,1765.9756424112325,0.0,0.0,0.252301008073632,1094,0.0,100,Assisted_Takeoff,
0.350524208245805,36.8971127669421,1900,2018-04-17 05:21:42,1765.9756424112325,0.0,0.0,0.303592009714944,1765.9756424112325,0.0,0.0,0.303592009714944,1146,0.0,100,Assisted_Takeoff,
0.350524227045021,36.897113067368004,2000,2018-04-17 05:21:42,1765.9756424112325,0.0,0.0,0.337036010785152,1765.9756424112325,0.0,0.0,0.337036010785152,1183,0.0,100,Assisted_Takeoff,
0.35052424125823306,36.897113518944295,2100,2018-04-17 05:21:42,1765.9756424112325,0.0,0.0,0.38727601239283205,1765.9756424112325,0.0,0.0,0.38727601239283205,1204,0.0,100,Assisted_Takeoff,
0.3505242538038161,36.897113912623,2200,2018-04-17 05:21:42,1765.9756424112325,0.0,0.0,0.431076013794432,1765.9756424112325,0.0,0.0,0.431076013794432,1230,0.0,100,Assisted_Takeoff,
0.350524258099651,36.8971143439888,2300,2018-04-17 05:21:42,1765.9756424112325,0.0,0.0,0.47904301532937604,1765.9756424112325,0.0,0.0,0.47904301532937604,1252,0.0,100,Assisted_Takeoff,
0.350524264703501,36.897114721574,2400,2018-04-17 05:21:42,1765.9756424112325,0.0,0.0,0.521038016673216,1765.9756424112325,0.0,0.0,0.521038016673216,1273,0.0,100,Assisted_Takeoff,
0.350524295718031,36.8971151161099,2500,2018-04-17 05:21:42,1765.9756424112325,0.0,0.0,0.564984018079488,1765.9756424112325,0.0,0.0,0.564984018079488,1291,0.0,100,Assisted_Takeoff,
0.35052433471931504,36.8971154721665,2600,2018-04-17 05:21:42,1765.9756424112325,0.0,0.0,0.604689019350048,1765.9756424112325,0.0,0.0,0.604689019350048,1299,0.0,100,Assisted_Takeoff,
0.350524387293604,36.8971158014142,2700,2018-04-17 05:21:42,1765.9756424112325,0.0,0.0,0.641489020527648,1765.9756424112325,0.0,0.0,0.641489020527648,1305,0.0,100,P-GPS,Obstacle Avoided. Revise Flight Route
0.35052447886559,36.8971161341644,2800,2018-04-17 05:21:42,1765.9756424112325,0.0,0.35999970196000003,0.678922021725504,1765.9756424112325,0.0,0.35999970196000003,0.678922021725504,1310,0.0,100,P-GPS,
0.35052462364335807,36.897116506989704,2900,2018-04-17 05:21:42,1765.9756424112325,0.0,0.35999970196000003,0.7213000230816,1765.9756424112325,0.0,0.35999970196000003,0.7213000230816,1315,0.0,100,P-GPS,
0.350524773417174,36.897116869869706,3000,2018-04-17 05:21:43,1766.0756424144324,0.10000000320000002,0.0,0.7628660244117121,1766.0756424144324,0.10000000320000002,0.35999970196000003,0.7628660244117121,1323,0.0,100,P-GPS,
0.350524936717747,36.897117298796395,3100,2018-04-17 05:21:43,1766.1756424176324,0.20000000640000004,0.0,0.81211502598768,1766.1756424176324,0.20000000640000004,0.35999970196000003,0.81211502598768,1323,0.0,100,P-GPS,Home Point Recorded. RTH Altitude:  45m.
0.350525066984068,36.897117683098,3200,2018-04-17 05:21:43,1766.2756424208324,0.3000000096,0.0,0.8562070273986241,1766.2756424208324,0.3000000096,0.35999970196000003,0.8562070273986241,1321,0.0,100,P-GPS,
0.350525189982962,36.8971179564262,3300,2018-04-17 05:21:43,1766.3756424240325,0.4000000128000001,0.0,0.888058028417856,1766.3756424240325,0.4000000128000001,0.35999970196000003,0.888058028417856,1322,0.0,100,P-GPS,
0.35052531141412296,36.8971182162195,3400,2018-04-17 05:21:43,1766.4756424272325,0.500000016,0.0,0.918500029392,1766.4756424272325,0.500000016,0.35999970196000003,0.918500029392,1323,0.0,100,P-GPS,
0.350525411122782,36.897118353856,3500,2018-04-17 05:21:43,1766.6756424336322,0.7000000224000001,0.0,0.935244029927808,1766.6756424336322,0.7000000224000001,0.35999970196000003,0.935244029927808,1324,0.0,100,P-GPS,
0.35052550884473904,36.8971185284383,3600,2018-04-17 05:21:43,1766.7756424368324,0.8000000256000002,0.0,0.956092030594944,1766.7756424368324,0.8000000256000002,0.35999970196000003,0.956092030594944,1315,0.0,100,P-GPS,
0.350525683810513,36.8971186965585,3800,2018-04-17 05:21:43,1767.1756424496325,1.2000000384,0.0,0.9777450312878401,1767.1756424496325,1.2000000384,0.35999970196000003,0.9777450312878401,1308,0.0,100,P-GPS,
0.35052570941545397,36.8971186615499,3900,2018-04-17 05:21:44,1767.2756424528325,1.3000000416000002,0.0,0.97441003118112,1767.2756424528325,1.3000000416000002,0.35999970196000003,0.9777450312878401,1306,0.0,100,P-GPS,
0.35052572314557695,36.897118683657204,4000,2018-04-17 05:21:44,1767.4756424592322,1.5000000480000002,0.0,0.9771010312672321,1767.4756424592322,1.5000000480000002,0.35999970196000003,0.9777450312878401,1304,0.0,100,P-GPS,
0.35052569938281397,36.89711856343771,4100,2018-04-17 05:21:44,1767.6756424656323,1.7000000544000002,0.0,0.9634750308312,1767.6756424656323,1.7000000544000002,0.35999970196000003,0.9777450312878401,1308,0.0,100,P-GPS,
0.350525685130265,36.8971185290314,4200,2018-04-17 05:21:44,1767.7756424688323,1.8000000576000001,0.0,0.9594280307016961,1767.7756424688323,1.8000000576000001,0.35999970196000003,0.9777450312878401,1307,0.0,100,P-GPS,
0.35052563903502004,36.8971184297662,4300,2018-04-17 05:21:44,1767.9756424752325,2.000000064,0.0,0.947662030325184,1767.9756424752325,2.000000064,0.35999970196000003,0.9777450312878401,1308,0.0,100,P-GPS,
0.35052559373501596,36.8971183879187,4400,2018-04-17 05:21:44,1768.0756424784324,2.1000000672,0.0,0.942214030150848,1768.0756424784324,2.1000000672,0.35999970196000003,0.9777450312878401,1304,0.0,100,P-GPS,
0.35052556424160497,36.8971183354867,4500,2018-04-17 05:21:44,1768.1756424816324,2.2000000704,0.0,0.9359150299492801,1768.1756424816324,2.2000000704,0.35999970196000003,0.9777450312878401,1305,0.0,100,P-GPS,
0.350525544519774,36.8971183369609,4600,2018-04-17 05:21:44,1768.3756424880326,2.4000000768,0.0,0.9357130299428161,1768.3756424880326,2.4000000768,0.35999970196000003,0.9777450312878401,1305,0.0,100,P-GPS,
0.35052550954838,36.8971183188486,4700,2018-04-17 05:21:44,1768.4756424912323,2.50000008,0.0,0.9330930298589762,1768.4756424912323,2.50000008,0.35999970196000003,0.9777450312878401,1301,0.0,100,P-GPS,
0.350525483540908,36.897118326149,4800,2018-04-17 05:21:44,1768.6756424976325,2.7000000863999998,0.0,0.9334340298698879,1768.6756424976325,2.7000000863999998,0.35999970196000003,0.9777450312878401,1303,0.0,100,P-GPS,
0.35052546888374103,36.8971183520767,4900,2018-04-17 05:21:44,1768.7756425008324,2.8000000896000006,0.0,0.936026029952832,1768.7756425008324,2.8000000896000006,0.35999970196000003,0.9777450312878401,1303,0.0,100,P-GPS,
0.350525453727151,36.8971183978485,5000,2018-04-17 05:21:45,1768.9756425072324,3.0000000960000004,0.0,0.94079503010544,1768.9756425072324,3.0000000960000004,0.35999970196000003,0.9777450312878401,1304,0.0,100,P-GPS,
0.350525478126586,36.8971184540896,5100,2018-04-17 05:21:45,1769.0756425104325,3.1000000992,0.0,0.947392030316544,1769.0756425104325,3.1000000992,0.35999970196000003,0.9777450312878401,1304,0.0,100,P-GPS,
0.350525499516045,36.897118524954,5200,2018-04-17 05:21:45,1769.1756425136325,3.2000001024000007,0.0,0.955547030577504,1769.1756425136325,3.2000001024000007,0.35999970196000003,0.9777450312878401,1302,0.0,100,P-GPS,
0.35052551988151803,36.89711863267,5300,2018-04-17 05:21:45,1769.3756425200322,3.4000001088000005,0.0,0.967732030967424,1769.3756425200322,3.4000001088000005,0.35999970196000003,0.9777450312878401,1302,0.0,100,P-GPS,
0.350525526335907,36.8971187438708,5400,2018-04-17 05:21:45,1769.4756425232324,3.500000112,0.0,0.9800590313618879,1769.4756425232324,3.500000112,0.35999970196000003,0.9800590313618879,1302,0.0,100,P-GPS,
0.3505255017763761,36.89711883634529,5500,2018-04-17 05:21:45,1769.6756425296323,3.7000001184,0.0,0.9898040316737281,1769.6756425296323,3.7000001184,0.35999970196000003,0.9898040316737281,1294,0.0,100,P-GPS,
0.35052547632252395,36.8971189289551,5600,2018-04-17 05:21:45,1769.7756425328323,3.8000001215999997,0.0,0.9995670319861442,1769.7756425328323,3.8000001215999997,0.35999970196000003,0.9995670319861442,1294,0.0,100,P-GPS,
0.350525469102207,36.8971190649601,5700,2018-04-17 05:21:45,1769.9756425392325,4.000000128,0.0,1.0144200324614399,1769.9756425392325,4.000000128,0.35999970196000003,1.0144200324614399,1289,0.0,100,P-GPS,
0.35052547265399603,36.8971191937385,5800,2018-04-17 05:21:45,1770.0756425424324,4.100000131200001,0.0,1.0286500329168002,1770.0756425424324,4.100000131200001,0.35999970196000003,1.0286500329168002,1290,0.0,100,P-GPS,
0.350525448542644,36.8971193404081,5900,2018-04-17 05:21:46,1770.1756425456322,4.2000001344,0.0,1.04442003342144,1770.1756425456322,4.2000001344,0.35999970196000003,1.04442003342144,1288,0.0,100,P-GPS,
0.350525414552794,36.897119459403896,6000,2018-04-17 05:21:46,1770.3756425520323,4.4000001408,0.0,1.05703003382496,1770.3756425520323,4.4000001408,0.35999970196000003,1.05703003382496,1284,0.0,100,P-GPS,
0.35052537493198804,36.8971195509935,6100,2018-04-17 05:21:46,1770.4756425552323,4.5000001439999995,0.0,1.0665500341296,1770.4756425552323,4.5000001439999995,0.35999970196000003,1.0665500341296,1275,0.0,100,P-GPS,
0.35052534116035,36.8971196083411,6200,2018-04-17 05:21:46,1770.5756425584325,4.6000001472,0.0,1.0724100343171201,1770.5756425584325,4.6000001472,0.35999970196000003,1.0724100343171201,1269,0.0,100,P-GPS,
0.35052531680132104,36.8971196308472,6300,2018-04-17 05:21:46,1770.6756425616325,4.700000150400001,0.0,1.07457003438624,1770.6756425616325,4.700000150400001,0.35999970196000003,1.07457003438624,1254,0.0,100,P-GPS,
0.350525298271918,36.89711964519,6400,2018-04-17 05:21:46,1770.8756425680324,4.9000001568,0.0,1.07591003442912,1770.8756425680324,4.9000001568,0.35999970196000003,1.07591003442912,1236,0.0,100,P-GPS,
0.350525276591324,36.8971196953229,6500,2018-04-17 05:21:46,1770.9756425712326,5.00000016,0.0,1.08117003459744,1770.9756425712326,5.00000016,0.35999970196000003,1.08117003459744,1222,0.0,100,P-GPS,
0.35052527386230603,36.8971197450179,6600,2018-04-17 05:21:46,1771.0756425744323,5.1000001632,0.0,1.08662003477184,1771.0756425744323,5.1000001632,0.35999970196000003,1.08662003477184,1198,0.0,100,P-GPS,
0.350525272343884,36.8971197768778,6700,2018-04-17 05:21:46,1771.1756425776323,5.200000166400001,0.0,1.09012003488384,1771.1756425776323,5.200000166400001,0.35999970196000003,1.09012003488384,1168,0.0,100,P-GPS,
0.350525285452095,36.897119808995704,6800,2018-04-17 05:21:46,1771.2756425808323,5.3000001696,0.0,1.09384003500288,1771.2756425808323,5.3000001696,0.35999970196000003,1.09384003500288,1093,0.0,100,P-GPS,
0.350525338497182,36.897119824907996,6900,2018-04-17 05:21:47,1771.3756425840324,5.4000001727999996,0.0,1.09628003508096,1771.3756425840324,5.4000001727999996,0.35999970196000003,1.09628003508096,1024,0.0,100,P-GPS,
0.350525400677484,36.8971198454902,7000,2018-04-17 05:21:47,1771.3756425840324,5.4000001727999996,0.0,1.0994000351808002,1771.3756425840324,5.4000001727999996,0.35999970196000003,1.0994000351808002,1024,0.0,100,P-GPS,
0.35052544201573804,36.8971198775225,7100,2018-04-17 05:21:47,1771.4756425872324,5.500000176000001,0.0,1.1035200353126402,1771.4756425872324,5.500000176000001,0.35999970196000003,1.1035200353126402,1024,0.0,99,P-GPS,
0.35052547911790105,36.897119912450705,7200,2018-04-17 05:21:47,1771.4756425872324,5.500000176000001,0.0,1.10791003545312,1771.4756425872324,5.500000176000001,0.35999970196000003,1.10791003545312,1024,0.0,99,P-GPS,
0.350525549316407,36.8971199940184,7300,2018-04-17 05:21:47,1771.4756425872324,5.500000176000001,0.0,1.11796003577472,1771.4756425872324,5.500000176000001,0.35999970196000003,1.11796003577472,1024,0.0,99,P-GPS,
0.35052561518828995,36.89712007398129,7400,2018-04-17 05:21:47,1771.4756425872324,5.500000176000001,0.0,1.12779003608928,1771.4756425872324,5.500000176000001,0.35999970196000003,1.12779003608928,1024,0.0,99,P-GPS,
0.350525706591528,36.897120164640604,7500,2018-04-17 05:21:47,1771.4756425872324,5.500000176000001,0.0,1.1392600364563201,1771.4756425872324,5.500000176000001,0.35999970196000003,1.1392600364563201,1024,0.0,99,P-GPS,
0.350525781858922,36.8971202497638,7600,2018-04-17 05:21:47,1771.4756425872324,5.500000176000001,0.0,1.1499000367968002,1771.4756425872324,5.500000176000001,0.35999970196000003,1.1499000367968002,1024,0.0,99,P-GPS,
0.350525819021134,36.897120340861896,7700,2018-04-17 05:21:47,1771.4756425872324,5.500000176000001,0.0,1.16056003713792,1771.4756425872324,5.500000176000001,0.35999970196000003,1.16056003713792,1024,0.0,99,P-GPS,
0.35052584134923803,36.8971204345767,7800,2018-04-17 05:21:47,1771.4756425872324,5.500000176000001,0.0,1.17124003747968,1771.4756425872324,5.500000176000001,0.35999970196000003,1.17124003747968,1024,0.0,99,P-GPS,
0.35052583807861,36.8971205203347,7900,2018-04-17 05:21:48,1771.4756425872324,5.500000176000001,0.0,1.1806000377792,1771.4756425872324,5.500000176000001,0.35999970196000003,1.1806000377792,1024,0.0,99,P-GPS,
0.35052584461976394,36.8971206027225,8000,2018-04-17 05:21:48,1771.4756425872324,5.500000176000001,0.0,1.1897600380723201,1771.4756425872324,5.500000176000001,0.35999970196000003,1.1897600380723201,1024,0.0,99,P-GPS,
0.35052586366523103,36.8971206546101,8100,2018-04-17 05:21:48,1771.4756425872324,5.500000176000001,0.0,1.1957900382652802,1771.4756425872324,5.500000176000001,0.35999970196000003,1.1957900382652802,1024,0.0,99,P-GPS,
0.35052590622146,36.8971207123677,8200,2018-04-17 05:21:48,1771.4756425872324,5.500000176000001,0.0,1.20289003849248,1771.4756425872324,5.500000176000001,0.35999970196000003,1.20289003849248,1024,0.0,99,P-GPS,
0.350526014915008,36.89712076954729,8300,2018-04-17 05:21:48,1771.5756425904324,5.600000179200001,0.35999970196000003,1.21117003875744,1771.5756425904324,5.600000179200001,0.35999970196000003,1.21117003875744,1024,0.0,99,P-GPS,
0.35052616423925104,36.8971208504716,8400,2018-04-17 05:21:48,1771.5756425904324,5.600000179200001,0.35999970196000003,1.2229500391344001,1771.5756425904324,5.600000179200001,0.35999970196000003,1.2229500391344001,1024,0.0,99,P-GPS,
0.350526377837263,36.897120959286,8500,2018-04-17 05:21:48,1771.5756425904324,5.600000179200001,0.7199994039200001,1.2393600396595201,1771.5756425904324,5.600000179200001,0.7199994039200001,1.2393600396595201,1024,0.0,99,P-GPS,
0.350526670491753,36.897121121787706,8600,2018-04-17 05:21:48,1771.5756425904324,5.600000179200001,1.151999046272,1.2638700404438399,1771.5756425904324,5.600000179200001,1.151999046272,1.2638700404438399,1024,0.0,99,P-GPS,
0.350527191101024,36.8971214336012,8700,2018-04-17 05:21:48,1771.5756425904324,5.600000179200001,2.735997734896,1.3113800419641601,1771.5756425904324,5.600000179200001,2.735997734896,1.3113800419641601,1024,0.0,99,P-GPS,
0.35052803977519803,36.8971219462578,8800,2018-04-17 05:21:48,1771.4756425872324,5.500000176000001,4.823996006263999,1.3928400445708802,1771.5756425904324,5.600000179200001,4.823996006263999,1.3928400445708802,1024,0.0,99,P-GPS,
0.35052943665832603,36.8971228067299,8900,2018-04-17 05:21:48,1771.4756425872324,5.500000176000001,6.911994277631999,1.53649004916768,1771.5756425904324,5.600000179200001,6.911994277631999,1.53649004916768,1024,0.0,99,P-GPS,
0.35053126636293797,36.89712391131221,9000,2018-04-17 05:21:49,1771.4756425872324,5.500000176000001,8.531992936452,1.7334800554713603,1771.5756425904324,5.600000179200001,8.531992936452,1.7334800554713603,1024,0.0,99,P-GPS,
0.35053366099187105,36.8971254205673,9100,2018-04-17 05:21:49,1771.4756425872324,5.500000176000001,9.827991863508,2.01068006434176,1771.5756425904324,5.600000179200001,9.827991863508,2.01068006434176,1024,0.0,99,P-GPS,
0.350536364914836,36.897127099207,9200,2018-04-17 05:21:49,1771.4756425872324,5.500000176000001,11.123990790564,2.3328500746512,1771.5756425904324,5.600000179200001,11.123990790564,2.3328500746512,1024,0.0,99,P-GPS,
0.35053950056517497,36.897129113861105,9300,2018-04-17 05:21:49,1771.4756425872324,5.500000176000001,12.419989717619998,2.72227008711264,1771.5756425904324,5.600000179200001,12.419989717619998,2.72227008711264,1024,0.0,99,P-GPS,
0.350542858201742,36.8971312388916,9400,2018-04-17 05:21:49,1771.4756425872324,5.500000176000001,12.419989717619998,3.1436601005971205,1771.5756425904324,5.600000179200001,12.419989717619998,3.1436601005971205,1024,0.0,99,P-GPS,
0.350546510423828,36.8971337477783,9500,2018-04-17 05:21:49,1771.4756425872324,5.500000176000001,15.011987571732002,3.6235501159536003,1771.5756425904324,5.600000179200001,15.011987571732002,3.6235501159536003,1024,0.0,99,P-GPS,
0.35055036443292303,36.8971363360926,9600,2018-04-17 05:21:49,1771.4756425872324,5.500000176000001,15.011987571732002,4.12856013211392,1771.5756425904324,5.600000179200001,15.011987571732002,4.12856013211392,1024,0.0,99,P-GPS,
0.350554470474668,36.8971392721412,9700,2018-04-17 05:21:49,1771.4756425872324,5.500000176000001,17.27998569408,4.68307014985824,1771.5756425904324,5.600000179200001,17.27998569408,4.68307014985824,1024,0.0,99,P-GPS,
0.350558795068252,36.8971422634519,9800,2018-04-17 05:21:49,1771.5756425904324,5.600000179200001,18.395984770156,5.261000168352001,1771.5756425904324,5.600000179200001,18.395984770156,5.261000168352001,1024,0.0,99,P-GPS,
0.35056332178756294,36.8971455335932,9900,2018-04-17 05:21:50,1771.5756425904324,5.600000179200001,19.691983697212,5.8777601880883195,1771.5756425904324,5.600000179200001,19.691983697212,5.8777601880883195,1024,0.0,99,P-GPS,
0.350568067535848,36.8971488432866,10000,2018-04-17 05:21:50,1771.5756425904324,5.600000179200001,20.195983279956,6.51648020852736,1771.5756425904324,5.600000179200001,20.195983279956,6.51648020852736,1024,0.0,99,P-GPS,
0.350572794215054,36.897152280331895,10100,2018-04-17 05:21:50,1771.5756425904324,5.600000179200001,20.195983279956,7.16371022923872,1771.5756425904324,5.600000179200001,20.195983279956,7.16371022923872,1024,0.0,99,P-GPS,
0.350577482352247,36.897155603487,10200,2018-04-17 05:21:50,1771.6756425936323,5.7000001824,20.195983279956,7.79991024959712,1771.6756425936323,5.7000001824,20.195983279956,7.79991024959712,1024,0.0,99,P-GPS,
0.35058160515230896,36.8971586946993,10300,2018-04-17 05:21:50,1771.6756425936323,5.7000001824,16.775986111336,8.37186026789952,1771.6756425936323,5.7000001824,20.195983279956,8.37186026789952,1024,0.0,99,P-GPS,
0.350585323958213,36.8971614874678,10400,2018-04-17 05:21:50,1771.6756425936323,5.7000001824,14.579987929380003,8.88821028442272,1771.6756425936323,5.7000001824,20.195983279956,8.88821028442272,1024,0.0,99,P-GPS,
0.350588204167569,36.8971637617074,10500,2018-04-17 05:21:50,1771.6756425936323,5.7000001824,12.491989658011999,9.29612029747584,1771.6756425936323,5.7000001824,20.195983279956,9.29612029747584,1024,0.0,99,P-GPS,
0.35059074231249293,36.8971657661052,10600,2018-04-17 05:21:50,1771.7756425968325,5.8000001856,10.691991148212,9.655630308980161,1771.7756425968325,5.8000001856,20.195983279956,9.655630308980161,1024,0.0,99,P-GPS,
0.35059256080893203,36.897167244677,10700,2018-04-17 05:21:50,1771.7756425968325,5.8000001856,8.891992638411999,9.916240317319682,1771.7756425968325,5.8000001856,20.195983279956,9.916240317319682,1024,0.0,99,P-GPS,
0.35059416244874103,36.8971685805511,10800,2018-04-17 05:21:50,1771.7756425968325,5.8000001856,7.775993562336,10.148200324742401,1771.7756425968325,5.8000001856,20.195983279956,10.148200324742401,1024,0.0,99,P-GPS,
0.350595467229723,36.8971695839405,10900,2018-04-17 05:21:50,1771.7756425968325,5.8000001856,8.0999932941,10.331100330595202,1771.7756425968325,5.8000001856,20.195983279956,10.331100330595202,1024,0.0,99,P-GPS,
0.350596893166938,36.8971706817437,11000,2018-04-17 05:21:51,1771.6756425936323,5.7000001824,7.595993711356,10.531000336992001,1771.7756425968325,5.8000001856,20.195983279956,10.531000336992001,1024,0.0,99,P-GPS,
0.350598295270247,36.8971716317017,11100,2018-04-17 05:21:51,1771.6756425936323,5.7000001824,6.803994367043999,10.718500342992002,1771.7756425968325,5.8000001856,20.195983279956,10.718500342992002,1024,0.0,99,P-GPS,
0.35059965283886896,36.897172607529605,11200,2018-04-17 05:21:51,1771.6756425936323,5.7000001824,6.803994367043999,10.9039003489248,1771.7756425968325,5.8000001856,20.195983279956,10.9039003489248,1024,0.0,99,P-GPS,
0.350600951562039,36.89717343110579,11300,2018-04-17 05:21:51,1771.6756425936323,5.7000001824,5.003995857244,11.073600354355202,1771.7756425968325,5.8000001856,20.195983279956,11.073600354355202,1024,0.0,99,P-GPS,
0.35060205714523807,36.897174196826896,11400,2018-04-17 05:21:51,1771.6756425936323,5.7000001824,5.003995857244,11.2226003591232,1771.7756425968325,5.8000001856,20.195983279956,11.2226003591232,1024,0.0,99,P-GPS,
0.35060304542184395,36.897174798699496,11500,2018-04-17 05:21:51,1771.5756425904324,5.600000179200001,3.7079969301880005,11.350000363200001,1771.7756425968325,5.8000001856,20.195983279956,11.350000363200001,1066,0.0,99,P-GPS,
0.350603799801783,36.8971753123292,11600,2018-04-17 05:21:51,1771.5756425904324,5.600000179200001,2.9159975858759997,11.4511003664352,1771.7756425968325,5.8000001856,20.195983279956,11.4511003664352,1131,0.0,99,P-GPS,
0.350604454012874,36.8971756591556,11700,2018-04-17 05:21:51,1771.5756425904324,5.600000179200001,2.4119980031319996,11.5318003690176,1771.7756425968325,5.8000001856,20.195983279956,11.5318003690176,1182,0.0,99,P-GPS,
0.350604899854785,36.8971759242355,11800,2018-04-17 05:21:51,1771.5756425904324,5.600000179200001,2.087998271368,11.5889003708448,1771.7756425968325,5.8000001856,20.195983279956,11.5889003708448,1187,0.0,99,P-GPS,
0.350605326643902,36.897176086109795,11900,2018-04-17 05:21:52,1771.5756425904324,5.600000179200001,1.6199986588200002,11.637000372384001,1771.7756425968325,5.8000001856,20.195983279956,11.637000372384001,1197,0.0,99,P-GPS,
0.350605941088391,36.897176292979104,12100,2018-04-17 05:21:52,1771.5756425904324,5.600000179200001,1.151999046272,11.704600374547201,1771.7756425968325,5.8000001856,20.195983279956,11.704600374547201,1196,0.0,99,P-GPS,
0.35060616532512895,36.8971763494296,12200,2018-04-17 05:21:52,1771.6756425936323,5.7000001824,1.151999046272,11.7279003752928,1771.7756425968325,5.8000001856,20.195983279956,11.7279003752928,1196,0.0,99,P-GPS,
0.350606445202542,36.8971763988655,12300,2018-04-17 05:21:52,1771.7756425968325,5.8000001856,0.7199994039200001,11.755600376179201,1771.7756425968325,5.8000001856,20.195983279956,11.755600376179201,1190,0.0,99,P-GPS,
0.35060662024072997,36.8971764307607,12400,2018-04-17 05:21:52,1771.8756426000325,5.9000001888,0.35999970196000003,11.773000376736,1771.8756426000325,5.9000001888,20.195983279956,11.773000376736,1195,0.0,99,P-GPS,
0.35060691693019896,36.897176573231505,12500,2018-04-17 05:21:52,1771.9756426032322,6.000000192000001,0.35999970196000003,11.808600377875202,1771.9756426032322,6.000000192000001,20.195983279956,11.808600377875202,1197,0.0,99,P-GPS,
0.35060708790379097,36.8971766809807,12600,2018-04-17 05:21:52,1772.0756426064322,6.1000001952,0.35999970196000003,11.830900378588801,1772.0756426064322,6.1000001952,20.195983279956,11.830900378588801,1199,0.0,99,P-GPS,
0.350607306473544,36.897176845021896,12700,2018-04-17 05:21:52,1772.0756426064322,6.1000001952,0.0,11.8613003795616,1772.0756426064322,6.1000001952,20.195983279956,11.8613003795616,1182,0.0,99,P-GPS,
0.3506074072286311,36.897176951614796,12800,2018-04-17 05:21:52,1772.1756426096324,6.2000001984,0.0,11.87750038008,1772.1756426096324,6.2000001984,20.195983279956,11.87750038008,1205,0.0,99,P-GPS,
0.350607530052391,36.8971771159515,12900,2018-04-17 05:21:52,1772.2756426128324,6.300000201600001,0.0,11.8996003807872,1772.2756426128324,6.300000201600001,20.195983279956,11.8996003807872,1260,0.0,99,P-GPS,
0.3506075729195511,36.89717723902729,13000,2018-04-17 05:21:53,1772.2756426128324,6.300000201600001,0.0,11.9119003811808,1772.2756426128324,6.300000201600001,20.195983279956,11.9119003811808,1307,0.0,99,P-GPS,
0.35060768379704604,36.8971773720769,13100,2018-04-17 05:21:53,1772.3756426160323,6.400000204800001,0.0,11.930800381785598,1772.3756426160323,6.400000204800001,20.195983279956,11.930800381785598,1325,0.0,99,P-GPS,
0.350607708822973,36.897177444445,13200,2018-04-17 05:21:53,1772.4756426192323,6.500000208,0.0,11.938000382016002,1772.4756426192323,6.500000208,20.195983279956,11.938000382016002,1300,0.0,99,P-GPS,
0.350607752504355,36.8971775268296,13300,2018-04-17 05:21:53,1772.5756426224325,6.6000002112,0.0,11.947500382320001,1772.5756426224325,6.6000002112,20.195983279956,11.947500382320001,1301,0.0,99,P-GPS,
0.350607746036176,36.8971775595684,13400,2018-04-17 05:21:53,1772.6756426256325,6.7000002144,0.0,11.949200382374402,1772.6756426256325,6.7000002144,20.195983279956,11.949200382374402,1324,0.0,99,P-GPS,
0.350607789528658,36.8971776210207,13500,2018-04-17 05:21:53,1772.8756426320326,6.9000002208,0.0,11.9573003826336,1772.8756426320326,6.9000002208,20.195983279956,11.9573003826336,1325,0.0,99,P-GPS,
0.350607802855844,36.8971776498112,13600,2018-04-17 05:21:53,1772.9756426352324,7.000000224,0.0,11.960500382736,1772.9756426352324,7.000000224,20.195983279956,11.960500382736,1324,0.0,99,P-GPS,
0.35060783068269497,36.8971777134218,13700,2018-04-17 05:21:53,1773.1756426416323,7.200000230400001,0.0,11.9673003829536,1773.1756426416323,7.200000230400001,20.195983279956,11.9673003829536,1326,0.0,99,P-GPS,
0.350607812033754,36.8971777315406,13800,2018-04-17 05:21:53,1773.2756426448325,7.3000002336000005,0.0,11.967000382944,1773.2756426448325,7.3000002336000005,20.195983279956,11.9673003829536,1326,0.0,99,P-GPS,
0.35060781796129,36.8971777863509,13900,2018-04-17 05:21:53,1773.4756426512324,7.50000024,0.0,11.9713003830816,1773.4756426512324,7.50000024,20.195983279956,11.9713003830816,1327,0.0,99,P-GPS,
0.35060779630298494,36.8971777993436,14000,2018-04-17 05:21:54,1773.6756426576326,7.7000002464,0.0,11.970300383049599,1773.6756426576326,7.7000002464,20.195983279956,11.9713003830816,1326,0.0,99,P-GPS,
0.35060782046258004,36.8971778571174,14100,2018-04-17 05:21:54,1773.7756426608323,7.8000002496,0.0,11.976500383248,1773.7756426608323,7.8000002496,20.195983279956,11.976500383248,1326,0.0,99,P-GPS,
0.350607827021952,36.897177870975206,14200,2018-04-17 05:21:54,1773.9756426672323,8.000000256,0.0,11.978000383296001,1773.9756426672323,8.000000256,20.195983279956,11.978000383296001,1325,0.0,99,P-GPS,
0.350607841834279,36.8971779225351,14300,2018-04-17 05:21:54,1774.0756426704324,8.1000002592,0.0,11.9829003834528,1774.0756426704324,8.1000002592,20.195983279956,11.9829003834528,1332,0.0,99,P-GPS,
0.35060784019932106,36.897177930590296,14400,2018-04-17 05:21:54,1774.2756426768324,8.3000002656,0.0,11.983300383465599,1774.2756426768324,8.3000002656,20.195983279956,11.983300383465599,1329,0.0,99,P-GPS,
0.35060783653206495,36.8971779606441,14500,2018-04-17 05:21:54,1774.4756426832325,8.500000272000001,0.0,11.9851003835232,1774.4756426832325,8.500000272000001,20.195983279956,11.9851003835232,1327,0.0,99,P-GPS,
0.35060782629892306,36.897177950045204,14600,2018-04-17 05:21:54,1774.6756426896322,8.700000278400001,0.0,11.983500383472,1774.6756426896322,8.700000278400001,20.195983279956,11.9851003835232,1327,-0.4,99,P-GPS,
0.35060784019932106,36.897177967941296,14700,2018-04-17 05:21:54,1774.7756426928322,8.8000002816,0.0,11.985900383548799,1774.7756426928322,8.8000002816,20.195983279956,11.985900383548799,1331,-3.2,99,P-GPS,
0.35060783705316806,36.897177945189,14800,2018-04-17 05:21:54,1774.9756426992324,9.000000287999999,0.0,11.9841003834912,1774.9756426992324,9.000000287999999,20.195983279956,11.985900383548799,1325,-7.5,99,P-GPS,
0.35060783134058604,36.8971779185268,14900,2018-04-17 05:21:55,1775.1756427056325,9.2000002944,0.0,11.9817003834144,1775.1756427056325,9.2000002944,20.195983279956,11.985900383548799,1323,-12.2,99,P-GPS,
0.350607816932113,36.8971778789019,15000,2018-04-17 05:21:55,1775.2756427088325,9.3000002976,0.0,11.9777003832864,1775.2756427088325,9.3000002976,20.195983279956,11.985900383548799,1318,-12.4,99,P-GPS,
0.35060781654780104,36.8971778997186,15100,2018-04-17 05:21:55,1775.4756427152322,9.500000304,0.0,11.9791003833312,1775.4756427152322,9.500000304,20.195983279956,11.985900383548799,1317,-12.4,99,P-GPS,
0.35060779901923,36.897177901675605,15200,2018-04-17 05:21:55,1775.6756427216324,9.7000003104,0.0,11.9777003832864,1775.6756427216324,9.7000003104,20.195983279956,11.985900383548799,1316,-12.4,99,P-GPS,
0.350607756380052,36.8971779025449,15300,2018-04-17 05:21:55,1775.7756427248323,9.8000003136,0.0,11.9741003831712,1775.7756427248323,9.8000003136,20.195983279956,11.985900383548799,1314,-12.4,99,P-GPS,
0.35060769553487003,36.897177882379204,15400,2018-04-17 05:21:55,1775.9756427312325,10.00000032,0.0,11.96750038296,1775.9756427312325,10.00000032,20.195983279956,11.985900383548799,1317,-12.4,99,P-GPS,
0.350607660783876,36.897177888139,15500,2018-04-17 05:21:55,1776.0756427344324,10.100000323200002,0.0,11.9649003828768,1776.0756427344324,10.100000323200002,20.195983279956,11.985900383548799,1321,-12.4,99,P-GPS,
0.35060762420251007,36.8971778705812,15600,2018-04-17 05:21:55,1776.2756427408324,10.300000329600001,0.0,11.960500382736,1776.2756427408324,10.300000329600001,20.195983279956,11.985900383548799,1323,-13.7,99,P-GPS,
0.350607577668094,36.897177891072396,15700,2018-04-17 05:21:55,1776.3756427440326,10.400000332800001,0.0,11.9579003826528,1776.3756427440326,10.400000332800001,20.195983279956,11.985900383548799,1323,-17.6,99,P-GPS,
0.350607524502654,36.89717787365171,15800,2018-04-17 05:21:55,1776.5756427504323,10.6000003392,0.0,11.9521003824672,1776.5756427504323,10.6000003392,20.195983279956,11.985900383548799,1315,-22.8,99,P-GPS,
0.35060745623828193,36.897177849302004,15900,2018-04-17 05:21:56,1776.6756427536322,10.700000342400001,0.0,11.944500382224001,1776.6756427536322,10.700000342400001,20.195983279956,11.985900383548799,1313,-26.1,99,P-GPS,
0.35060738253490703,36.897177813865206,16000,2018-04-17 05:21:56,1776.8756427600324,10.9000003488,0.0,11.935600381939201,1776.8756427600324,10.9000003488,20.195983279956,11.985900383548799,1308,-26.1,99,P-GPS,
0.350607336853796,36.8971777961404,16100,2018-04-17 05:21:56,1777.0756427664323,11.1000003552,0.35999970196000003,11.930500381776001,1777.0756427664323,11.1000003552,20.195983279956,11.985900383548799,1306,-26.1,99,P-GPS,
0.35060728343431896,36.8971777648961,16200,2018-04-17 05:21:56,1777.1756427696325,11.200000358400002,0.35999970196000003,11.923700381558403,1777.1756427696325,11.200000358400002,20.195983279956,11.985900383548799,1303,-26.1,99,P-GPS,
0.350607245615335,36.8971777702063,16300,2018-04-17 05:21:56,1777.3756427760322,11.4000003648,0.0,11.9208003814656,1777.3756427760322,11.4000003648,20.195983279956,11.985900383548799,1305,-26.1,99,P-GPS,
0.35060721178278303,36.89717776175279,16400,2018-04-17 05:21:56,1777.5756427824324,11.6000003712,0.0,11.9173003813536,1777.5756427824324,11.6000003712,20.195983279956,11.985900383548799,1306,-26.1,99,P-GPS,
0.3506071931989799,36.897177784663604,16500,2018-04-17 05:21:56,1777.6756427856324,11.700000374400002,0.0,11.9173003813536,1777.6756427856324,11.700000374400002,20.195983279956,11.985900383548799,1306,-26.1,99,P-GPS,
0.350607174862701,36.89717779301861,16600,2018-04-17 05:21:56,1777.8756427920325,11.900000380800002,0.0,11.9163003813216,1777.8756427920325,11.900000380800002,20.195983279956,11.985900383548799,1307,-26.1,99,P-GPS,
0.350607158519637,36.8971778240188,16700,2018-04-17 05:21:56,1777.9756427952325,12.000000384000002,0.0,11.9171003813472,1777.9756427952325,12.000000384000002,20.195983279956,11.985900383548799,1309,-26.1,99,P-GPS,
0.350607142052811,36.897177841049796,16800,2018-04-17 05:21:56,1778.1756428016322,12.2000003904,0.0,11.9168003813376,1778.1756428016322,12.2000003904,20.195983279956,11.985900383548799,1311,-26.1,99,P-GPS,
0.350607181910606,36.8971778733262,16900,2018-04-17 05:21:57,1778.3756428080324,12.4000003968,0.0,11.922500381519999,1778.3756428080324,12.4000003968,20.195983279956,11.985900383548799,1317,-26.1,99,P-GPS,
0.35060723758384993,36.897177902951796,17100,2018-04-17 05:21:57,1778.6756428176325,12.700000406400001,0.0,11.929400381740802,1778.6756428176325,12.700000406400001,20.195983279956,11.985900383548799,1317,-26.1,99,P-GPS,
0.35060723682173806,36.897177896408294,17200,2018-04-17 05:21:57,1778.7756428208324,12.800000409600003,0.0,11.928900381724802,1778.7756428208324,12.800000409600003,20.195983279956,11.985900383548799,1312,-26.1,99,P-GPS,
0.35060723660678306,36.897177885762204,17300,2018-04-17 05:21:57,1778.9756428272322,13.000000416,0.0,11.928100381699199,1778.9756428272322,13.000000416,20.195983279956,11.985900383548799,1302,-26.1,99,P-GPS,
0.350607238925687,36.89717785367,17400,2018-04-17 05:21:57,1779.1756428336323,13.2000004224,0.0,11.9261003816352,1779.1756428336323,13.2000004224,20.195983279956,11.985900383548799,1303,-26.1,99,P-GPS,
0.350607253431867,36.8971778333758,17500,2018-04-17 05:21:57,1779.3756428400325,13.4000004288,0.0,11.925900381628802,1779.3756428400325,13.4000004288,20.195983279956,11.985900383548799,1310,-26.1,99,P-GPS,
0.350607272328331,36.8971778044097,17600,2018-04-17 05:21:57,1779.4756428432324,13.500000432000002,0.0,11.925500381616002,1779.4756428432324,13.500000432000002,20.195983279956,11.985900383548799,1310,-26.1,99,P-GPS,
0.350607291400667,36.897177765315796,17700,2018-04-17 05:21:57,1779.6756428496324,13.7000004384,0.0,11.9244003815808,1779.6756428496324,13.7000004384,20.195983279956,11.985900383548799,1317,-26.1,99,P-GPS,
0.350607307821896,36.897177709717496,17800,2018-04-17 05:21:57,1779.7756428528326,13.8000004416,0.0,11.9219003815008,1779.7756428528326,13.8000004416,20.195983279956,11.985900383548799,1317,-26.1,99,P-GPS,
0.35060734148509004,36.8971776448265,17900,2018-04-17 05:21:57,1779.9756428592323,14.000000448,0.0,11.920200381446403,1779.9756428592323,14.000000448,20.195983279956,11.985900383548799,1308,-26.1,99,P-GPS,
0.350607374066998,36.897177572244296,18000,2018-04-17 05:21:58,1780.1756428656324,14.200000454400003,0.0,11.918000381376,1780.1756428656324,14.200000454400003,20.195983279956,11.985900383548799,1301,-26.1,99,P-GPS,
0.35060741500608006,36.8971774779846,18100,2018-04-17 05:21:58,1780.3756428720324,14.400000460800001,0.0,11.9149003812768,1780.3756428720324,14.400000460800001,20.195983279956,11.985900383548799,1301,-26.1,99,P-GPS,
0.35060743646897197,36.897177391137795,18200,2018-04-17 05:21:58,1780.4756428752323,14.500000464,0.0,11.910700381142401,1780.4756428752323,14.500000464,20.195983279956,11.985900383548799,1301,-26.1,99,P-GPS,
0.350607444526513,36.8971773371454,18300,2018-04-17 05:21:58,1780.6756428816325,14.7000004704,0.0,11.907600381043201,1780.6756428816325,14.7000004704,20.195983279956,11.985900383548799,1295,-26.1,99,P-GPS,
0.350607444767522,36.897177293152396,18400,2018-04-17 05:21:58,1780.7756428848325,14.8000004736,0.0,11.904600380947201,1780.7756428848325,14.8000004736,20.195983279956,11.985900383548799,1302,-26.1,99,P-GPS,
0.35060740603661,36.897177224728395,18500,2018-04-17 05:21:58,1780.9756428912324,15.00000048,0.0,11.8964003806848,1780.9756428912324,15.00000048,20.195983279956,11.985900383548799,1303,-26.1,99,P-GPS,
0.350607357450355,36.8971771514396,18600,2018-04-17 05:21:58,1781.0756428944323,15.100000483200002,0.0,11.887100380387201,1781.0756428944323,15.100000483200002,20.195983279956,11.985900383548799,1302,-26.1,99,P-GPS,
0.35060733528397603,36.897177079508296,18700,2018-04-17 05:21:58,1781.2756429008323,15.3000004896,0.0,11.880200380166402,1781.2756429008323,15.3000004896,20.195983279956,11.985900383548799,1318,-26.1,99,P-GPS,
0.35060731543650003,36.8971770165487,18800,2018-04-17 05:21:58,1781.4756429072324,15.500000496,0.0,11.874000379968,1781.4756429072324,15.500000496,20.195983279956,11.985900383548799,1291,-26.1,99,P-GPS,
0.35060727390466495,36.897177027533004,18900,2018-04-17 05:21:59,1781.5756429104324,15.6000004992,0.0,11.871200379878402,1781.5756429104324,15.6000004992,20.195983279956,11.985900383548799,1282,-26.1,99,P-GPS,
0.35060722790437804,36.897177038016295,19000,2018-04-17 05:21:59,1781.7756429168323,15.8000005056,0.0,11.868000379776,1781.7756429168323,15.8000005056,20.195983279956,11.985900383548799,1294,-26.1,99,P-GPS,
0.350607204865153,36.897177046024396,19100,2018-04-17 05:21:59,1781.9756429232323,16.000000512,0.0,11.866500379728002,1781.9756429232323,16.000000512,20.195983279956,11.985900383548799,1291,-26.1,99,P-GPS,
0.35060717701876,36.897177027515895,19200,2018-04-17 05:21:59,1782.0756429264325,16.1000005152,0.0,11.862800379609599,1782.0756429264325,16.1000005152,20.195983279956,11.985900383548799,1286,-26.1,99,P-GPS,
0.350607142951712,36.8971770299654,19300,2018-04-17 05:21:59,1782.2756429328324,16.3000005216,0.0,11.8601003795232,1782.2756429328324,16.3000005216,20.195983279956,11.985900383548799,1256,-26.1,99,P-GPS,
0.35060710758190805,36.8971770288391,19400,2018-04-17 05:21:59,1782.4756429392326,16.500000528,0.0,11.8569003794208,1782.4756429392326,16.500000528,20.195983279956,11.985900383548799,1262,-26.1,99,P-GPS,
0.350607098892531,36.89717705195971,19500,2018-04-17 05:21:59,1782.5756429424325,16.6000005312,0.0,11.8578003794496,1782.5756429424325,16.6000005312,20.195983279956,11.985900383548799,1299,-26.1,99,P-GPS,
0.35060708626883297,36.8971770651452,19600,2018-04-17 05:21:59,1782.6756429456323,16.7000005344,0.0,11.8576003794432,1782.6756429456323,16.7000005344,20.195983279956,11.985900383548799,1336,-26.1,99,P-GPS,
0.35060709384435496,36.897177096907704,19700,2018-04-17 05:21:59,1782.7756429488322,16.8000005376,0.0,11.860500379536,1782.7756429488322,16.8000005376,20.195983279956,11.985900383548799,1356,-26.1,99,P-GPS,
0.35060709768748305,36.89717712527,19800,2018-04-17 05:21:59,1782.9756429552324,17.000000544000002,0.0,11.862800379609599,1782.9756429552324,17.000000544000002,20.195983279956,11.985900383548799,1370,-26.1,99,P-GPS,
0.350607095166651,36.8971771677855,19900,2018-04-17 05:22:00,1783.0756429584324,17.1000005472,0.0,11.865600379699202,1783.0756429584324,17.1000005472,20.195983279956,11.985900383548799,1390,-26.1,99,P-GPS,
0.35060708748039604,36.8971772010083,20000,2018-04-17 05:22:00,1783.2756429648325,17.3000005536,0.0,11.867200379750402,1783.2756429648325,17.3000005536,20.195983279956,11.985900383548799,1415,-26.1,99,P-GPS,
0.350607093824814,36.8971772259875,20100,2018-04-17 05:22:00,1783.4756429712322,17.50000056,0.0,11.869500379824002,1783.4756429712322,17.50000056,20.195983279956,11.985900383548799,1443,-26.1,99,P-GPS,
0.350607099993359,36.8971772381066,20200,2018-04-17 05:22:00,1783.6756429776324,17.700000566400004,0.0,11.870900379868802,1783.6756429776324,17.700000566400004,20.195983279956,11.985900383548799,1459,-26.1,99,P-GPS,
0.35060714245666497,36.8971772352931,20300,2018-04-17 05:22:00,1783.9756429872325,18.000000575999998,0.0,11.8744003799808,1783.9756429872325,18.000000575999998,20.195983279956,11.985900383548799,1459,-26.1,99,P-GPS,
0.350607178634177,36.8971772323682,20400,2018-04-17 05:22:00,1784.2756429968324,18.3000005856,0.0,11.877300380073601,1784.2756429968324,18.3000005856,20.195983279956,11.985900383548799,1459,-26.1,99,P-GPS,
0.35060721231691194,36.8971772258204,20500,2018-04-17 05:22:00,1784.4756430032323,18.500000592000003,0.0,11.879700380150402,1784.4756430032323,18.500000592000003,20.195983279956,11.985900383548799,1459,-26.1,99,P-GPS,
0.350607236255039,36.897177215675505,20600,2018-04-17 05:22:00,1784.7756430128325,18.800000601600004,0.0,11.881100380195202,1784.7756430128325,18.800000601600004,20.195983279956,11.985900383548799,1463,-26.1,99,P-GPS,
0.350607301646836,36.8971771942678,20700,2018-04-17 05:22:00,1785.0756430224324,19.1000006112,0.0,11.8853003803296,1785.0756430224324,19.1000006112,20.195983279956,11.985900383548799,1479,-26.1,99,P-GPS,
0.350607362674404,36.8971771676442,20800,2018-04-17 05:22:00,1785.2756430288325,19.300000617600002,0.0,11.8887003804384,1785.2756430288325,19.300000617600002,20.195983279956,11.985900383548799,1508,-26.1,99,P-GPS,
0.350607399555403,36.89717718044,20900,2018-04-17 05:22:01,1785.5756430384324,19.6000006272,0.0,11.8928003805696,1785.5756430384324,19.6000006272,20.195983279956,11.985900383548799,1535,-26.1,99,P-GPS,
0.350607397177875,36.8971772054748,21000,2018-04-17 05:22:01,1785.8756430480323,19.900000636800005,0.0,11.8943003806176,1785.8756430480323,19.900000636800005,20.195983279956,11.985900383548799,1548,-26.1,99,P-GPS,
0.350607351796398,36.8971772560113,21100,2018-04-17 05:22:01,1786.1756430576322,20.200000646400003,0.0,11.8939003806048,1786.1756430576322,20.200000646400003,20.195983279956,11.985900383548799,1586,-26.1,99,P-GPS,
0.350607299692704,36.8971773244053,21200,2018-04-17 05:22:01,1786.5756430704323,20.600000659200003,0.0,11.894200380614402,1786.5756430704323,20.600000659200003,20.195983279956,11.985900383548799,1608,-26.1,99,P-GPS,
0.350607249933969,36.897177446462,21300,2018-04-17 05:22:01,1786.8756430800324,20.900000668800004,0.0,11.8984003807488,1786.8756430800324,20.900000668800004,20.195983279956,11.985900383548799,1611,-26.1,99,P-GPS,
0.350607191381636,36.8971775666429,21400,2018-04-17 05:22:01,1787.2756430928323,21.300000681600004,0.0,11.9018003808576,1787.2756430928323,21.300000681600004,20.195983279956,11.985900383548799,1608,-26.1,99,P-GPS,
0.350607090398567,36.8971777226418,21500,2018-04-17 05:22:01,1787.6756431056324,21.700000694400003,0.0,11.904100380931201,1787.6756431056324,21.700000694400003,20.195983279956,11.985900383548799,1616,-26.1,99,P-GPS,
0.3506069856049389,36.897177866453,21600,2018-04-17 05:22:01,1788.0756431184323,22.1000007072,0.0,11.9052003809664,1788.0756431184323,22.1000007072,20.195983279956,11.985900383548799,1622,-26.1,99,P-GPS,
0.350606891389683,36.8971779918799,21700,2018-04-17 05:22:01,1788.4756431312323,22.50000072,0.0,11.9059003809888,1788.4756431312323,22.50000072,20.195983279956,11.985900383548799,1656,-26.1,99,P-GPS,
0.35060669376172,36.8971781523024,21900,2018-04-17 05:22:01,1789.3756431600325,23.400000748800004,0.0,11.9003003808096,1789.3756431600325,23.400000748800004,20.195983279956,11.985900383548799,1684,-26.1,99,P-GPS,
0.3506065818941311,36.8971782117805,22000,2018-04-17 05:22:02,1789.7756431728326,23.800000761600003,0.0,11.8949003806368,1789.7756431728326,23.800000761600003,20.195983279956,11.985900383548799,1684,-26.1,99,P-GPS,
0.35060650810607696,36.8971782569426,22100,2018-04-17 05:22:02,1790.2756431888324,24.3000007776,0.0,11.8918003805376,1790.2756431888324,24.3000007776,20.195983279956,11.985900383548799,1684,-26.1,99,P-GPS,
0.35060646299166404,36.897178308528204,22200,2018-04-17 05:22:02,1790.7756432048322,24.8000007936,0.0,11.891600380531202,1790.7756432048322,24.8000007936,20.195983279956,11.985900383548799,1684,-26.1,99,P-GPS,
0.350606411910633,36.897178398364204,22300,2018-04-17 05:22:02,1791.1756432176323,25.200000806400006,0.0,11.8936003805952,1791.1756432176323,25.200000806400006,20.195983279956,11.985900383548799,1684,-26.1,99,P-GPS,
0.35060633896285603,36.8971784917802,22400,2018-04-17 05:22:02,1791.6756432336324,25.7000008224,0.0,11.894000380608,1791.6756432336324,25.7000008224,20.195983279956,11.985900383548799,1684,-26.1,99,P-GPS,
0.350606229140592,36.8971785973839,22500,2018-04-17 05:22:02,1792.1756432496325,26.200000838399998,0.0,11.892100380547202,1792.1756432496325,26.200000838399998,20.195983279956,11.985900383548799,1684,-26.1,99,P-GPS,
0.35060611620474397,36.8971786878537,22600,2018-04-17 05:22:02,1792.7756432688323,26.8000008576,0.0,11.889000380448001,1792.7756432688323,26.8000008576,20.195983279956,11.985900383548799,1684,-26.1,99,P-GPS,
0.350606016504889,36.897178785141,22700,2018-04-17 05:22:02,1793.2756432848325,27.3000008736,0.0,11.8874003803968,1793.2756432848325,27.3000008736,20.195983279956,11.985900383548799,1684,-26.1,99,P-GPS,
0.35060591506585603,36.897178865474295,22800,2018-04-17 05:22:02,1793.7756433008324,27.8000008896,0.0,11.884500380304,1793.7756433008324,27.8000008896,20.195983279956,11.985900383548799,1684,-26.1,99,P-GPS,
0.350605777963899,36.897178962911504,22900,2018-04-17 05:22:03,1794.2756433168322,28.300000905599997,0.0,11.879900380156801,1794.2756433168322,28.300000905599997,20.195983279956,11.985900383548799,1684,-26.1,99,P-GPS,
0.350605643969013,36.897179055895,23000,2018-04-17 05:22:03,1794.7756433328325,28.800000921600002,0.0,11.875200380006401,1794.7756433328325,28.800000921600002,20.195983279956,11.985900383548799,1684,-26.1,99,P-GPS,
0.35060553105270603,36.897179177168,23100,2018-04-17 05:22:03,1795.2756433488323,29.300000937600004,0.0,11.874300379977601,1795.2756433488323,29.300000937600004,20.195983279956,11.985900383548799,1684,-26.1,98,P-GPS,
0.350605436967726,36.8971792935505,23200,2018-04-17 05:22:03,1795.7756433648324,29.8000009536,0.0,11.874700379990403,1795.7756433648324,29.8000009536,20.195983279956,11.985900383548799,1684,-26.1,98,P-GPS,
0.350605354236257,36.8971794335889,23300,2018-04-17 05:22:03,1796.2756433808324,30.300000969600003,0.0,11.877800380089601,1796.2756433808324,30.300000969600003,20.195983279956,11.985900383548799,1684,-26.1,98,P-GPS,
0.35060526622863003,36.8971795719528,23400,2018-04-17 05:22:03,1796.8756434000322,30.900000988800006,0.0,11.880400380172802,1796.8756434000322,30.900000988800006,20.195983279956,11.985900383548799,1684,-26.1,98,P-GPS,
0.35060516357152,36.8971797217851,23500,2018-04-17 05:22:03,1797.3756434160325,31.400001004800004,0.0,11.8826003802432,1797.3756434160325,31.400001004800004,20.195983279956,11.985900383548799,1684,-26.1,98,P-GPS,
0.35060506267313,36.897179868452604,23600,2018-04-17 05:22:03,1797.8756434320323,31.9000010208,0.0,11.884800380313601,1797.8756434320323,31.9000010208,20.195983279956,11.985900383548799,1684,-26.1,98,P-GPS,
0.35060496553970194,36.897180058599204,23700,2018-04-17 05:22:03,1798.3756434480324,32.4000010368,0.0,11.890400380492801,1798.3756434480324,32.4000010368,20.195983279956,11.985900383548799,1684,-26.1,98,P-GPS,
0.35060487935593204,36.8971802203793,23800,2018-04-17 05:22:03,1798.8756434640322,32.9000010528,0.0,11.895000380639999,1798.8756434640322,32.9000010528,20.195983279956,11.985900383548799,1684,-26.1,98,P-GPS,
0.35060482075149,36.8971803728409,23900,2018-04-17 05:22:03,1799.3756434800325,33.4000010688,0.0,11.9012003808384,1799.3756434800325,33.4000010688,20.195983279956,11.985900383548799,1684,-26.1,98,P-GPS,
0.350604767260361,36.8971804890992,24000,2018-04-17 05:22:04,1799.8756434960324,33.9000010848,0.0,11.9052003809664,1799.8756434960324,33.9000010848,20.195983279956,11.985900383548799,1684,-26.1,98,P-GPS,
0.350604711613173,36.897180585397294,24100,2018-04-17 05:22:04,1800.3756435120322,34.4000011008,0.0,11.907600381043201,1800.3756435120322,34.4000011008,20.195983279956,11.985900383548799,1684,-26.1,98,P-GPS,
0.350604658682229,36.89718065839921,24200,2018-04-17 05:22:04,1800.8756435280325,34.9000011168,0.0,11.908500381072,1800.8756435280325,34.9000011168,20.195983279956,11.985900383548799,1684,-26.1,98,P-GPS,
0.350604609040743,36.8971807789398,24400,2018-04-17 05:22:04,1801.9756435632326,36.000001151999996,0.0,11.913200381222401,1801.9756435632326,36.000001151999996,20.195983279956,11.985900383548799,1684,-26.1,98,P-GPS,
0.35060460141962496,36.8971808375015,24500,2018-04-17 05:22:04,1802.4756435792324,36.500001168000004,0.0,11.916900381340799,1802.4756435792324,36.500001168000004,20.195983279956,11.985900383548799,1684,-26.1,98,P-GPS,
0.350604601126505,36.8971808813874,24600,2018-04-17 05:22:04,1802.9756435952324,37.000001184000006,0.0,11.9201003814432,1802.9756435952324,37.000001184000006,20.195983279956,11.985900383548799,1684,-26.1,98,P-GPS,
0.350604629285558,36.8971809208411,24700,2018-04-17 05:22:04,1803.4756436112323,37.5000012,0.0,11.925300381609599,1803.4756436112323,37.5000012,20.195983279956,11.985900383548799,1684,-26.1,98,P-GPS,
0.350604665215547,36.8971809450751,24800,2018-04-17 05:22:04,1803.9756436272326,38.000001216,0.0,11.930100381763202,1803.9756436272326,38.000001216,20.195983279956,11.985900383548799,1684,-26.1,98,P-GPS,
0.35060469989489,36.8971809972175,24900,2018-04-17 05:22:04,1804.4756436432324,38.500001232,0.0,11.936800381977601,1804.4756436432324,38.500001232,20.195983279956,11.985900383548799,1684,-26.1,98,P-GPS,
0.350604725435406,36.8971810343201,25000,2018-04-17 05:22:05,1804.9756436592322,39.000001248000004,0.0,11.941700382134401,1804.9756436592322,39.000001248000004,20.195983279956,11.985900383548799,1684,-26.1,98,P-GPS,
0.350604765814303,36.8971810635645,25100,2018-04-17 05:22:05,1805.4756436752325,39.500001264000005,0.0,11.9472003823104,1805.4756436752325,39.500001264000005,20.195983279956,11.985900383548799,1684,-26.1,98,P-GPS,
0.35060480195924604,36.8971810806084,25200,2018-04-17 05:22:05,1805.9756436912323,40.00000128,0.0,11.951500382448002,1805.9756436912323,40.00000128,20.195983279956,11.985900383548799,1684,-26.1,98,P-GPS,
0.350604849692196,36.8971811159467,25300,2018-04-17 05:22:05,1806.4756437072324,40.500001296,0.0,11.9581003826592,1806.4756437072324,40.500001296,20.195983279956,11.985900383548799,1684,-26.1,98,P-GPS,
0.35060489678679696,36.8971811252695,25400,2018-04-17 05:22:05,1806.9756437232325,41.000001311999995,0.0,11.962700382806402,1806.9756437232325,41.000001311999995,20.195983279956,11.985900383548799,1684,-26.1,98,P-GPS,
0.35060493474257,36.8971811486342,25500,2018-04-17 05:22:05,1807.4756437392325,41.500001328,0.0,11.9676003829632,1807.4756437392325,41.500001328,20.195983279956,11.985900383548799,1684,-26.1,98,P-GPS,
0.35060496792374396,36.8971811506041,25600,2018-04-17 05:22:05,1807.9756437552323,42.000001344,0.0,11.970500383056,1807.9756437552323,42.000001344,20.195983279956,11.985900383548799,1684,-26.1,98,P-GPS,
0.350605017591286,36.8971811563168,25700,2018-04-17 05:22:05,1808.4756437712326,42.50000136,0.0,11.9751003832032,1808.4756437712326,42.50000136,20.195983279956,11.985900383548799,1684,-26.1,98,P-GPS,
0.35060506601469704,36.8971811452126,25800,2018-04-17 05:22:05,1809.0756437904324,43.1000013792,0.0,11.9783003833056,1809.0756437904324,43.1000013792,20.195983279956,11.985900383548799,1684,-26.5,98,P-GPS,
0.350605122658493,36.8971811178395,25900,2018-04-17 05:22:05,1809.5756438064323,43.6000013952,0.0,11.981000383392,1809.5756438064323,43.6000013952,20.195983279956,11.985900383548799,1684,-27.5,98,P-GPS,
0.35060517362227606,36.897181079949,26000,2018-04-17 05:22:06,1810.0756438224325,44.100001411200004,0.0,11.98250038344,1810.0756438224325,44.100001411200004,20.195983279956,11.985900383548799,1684,-28.6,98,P-GPS,
0.350605218072284,36.8971810644424,26100,2018-04-17 05:22:06,1810.5756438384324,44.6000014272,0.0,11.9851003835232,1810.5756438384324,44.6000014272,20.195983279956,11.985900383548799,1684,-28.9,98,P-GPS,
0.35060525520732105,36.897181045180204,26200,2018-04-17 05:22:06,1811.0756438544322,45.10000144320001,0.0,11.986800383577599,1811.0756438544322,45.10000144320001,20.195983279956,11.986800383577599,1684,-28.9,98,P-GPS,
0.35060530286862,36.897181006339004,26300,2018-04-17 05:22:06,1811.5756438704325,45.6000014592,0.0,11.9879003836128,1811.5756438704325,45.6000014592,20.195983279956,11.9879003836128,1684,-28.9,98,P-GPS,
0.350605337287412,36.8971809529804,26400,2018-04-17 05:22:06,1812.0756438864323,46.1000014752,0.0,11.9869003835808,1812.0756438864323,46.1000014752,20.195983279956,11.9879003836128,1684,-28.9,98,P-GPS,
0.35060537435731104,36.8971809248151,26500,2018-04-17 05:22:06,1812.5756439024324,46.600001491200004,0.0,11.9879003836128,1812.5756439024324,46.600001491200004,20.195983279956,11.9879003836128,1684,-28.9,98,P-GPS,
0.350605400692507,36.897180899099396,26600,2018-04-17 05:22:06,1813.0756439184324,47.1000015072,0.0,11.9883003836256,1813.0756439184324,47.1000015072,20.195983279956,11.9883003836256,1684,-28.9,98,P-GPS,
0.35060542960715896,36.8971809004012,26700,2018-04-17 05:22:06,1813.5756439344325,47.60000152320001,0.0,11.990800383705599,1813.5756439344325,47.60000152320001,20.195983279956,11.990800383705599,1684,-28.9,98,P-GPS,
0.350605442804069,36.8971808784925,26800,2018-04-17 05:22:06,1814.0756439504323,48.1000015392,0.0,11.990300383689599,1814.0756439504323,48.1000015392,20.195983279956,11.990800383705599,1684,-27.5,98,P-GPS,
0.350605454203177,36.897180833009294,26900,2018-04-17 05:22:07,1814.5756439664322,48.6000015552,0.0,11.9879003836128,1814.5756439664322,48.6000015552,20.195983279956,11.990800383705599,1684,-22.3,98,P-GPS,
0.3506054582156631,36.8971807703194,27000,2018-04-17 05:22:07,1815.0756439824324,49.1000015712,0.35999970196000003,11.9837003834784,1815.0756439824324,49.1000015712,20.195983279956,11.990800383705599,1684,-18.8,98,P-GPS,
0.350605490126652,36.897180707111296,27100,2018-04-17 05:22:07,1815.5756439984323,49.6000015872,0.35999970196000003,11.9817003834144,1815.5756439984323,49.6000015872,20.195983279956,11.990800383705599,1684,-18.8,98,P-GPS,
0.350605528753343,36.8971806410212,27200,2018-04-17 05:22:07,1816.0756440144323,50.100001603200006,0.0,11.9802003833664,1816.0756440144323,50.100001603200006,20.195983279956,11.990800383705599,1684,-18.8,98,P-GPS,
0.350605576303908,36.897180587157294,27300,2018-04-17 05:22:07,1816.5756440304324,50.6000016192,0.0,11.9802003833664,1816.5756440304324,50.6000016192,20.195983279956,11.990800383705599,1684,-18.8,98,P-GPS,
0.35060562341804996,36.897180530008896,27400,2018-04-17 05:22:07,1817.0756440464324,51.1000016352,0.0,11.98000038336,1817.0756440464324,51.1000016352,20.195983279956,11.990800383705599,1684,-18.8,98,P-GPS,
0.35060568938305897,36.897180480752795,27500,2018-04-17 05:22:07,1817.6756440656325,51.700001654400005,0.0,11.982000383424,1817.6756440656325,51.700001654400005,20.195983279956,11.990800383705599,1684,-18.8,98,P-GPS,
0.35060575214329104,36.897180425347294,27600,2018-04-17 05:22:07,1818.1756440816325,52.200001670400006,0.0,11.983300383465599,1818.1756440816325,52.200001670400006,20.195983279956,11.990800383705599,1684,-18.8,98,P-GPS,
0.350605822928494,36.897180383298505,27700,2018-04-17 05:22:07,1818.6756440976324,52.7000016864,0.0,11.9862003835584,1818.6756440976324,52.7000016864,20.195983279956,11.990800383705599,1684,-18.8,98,P-GPS,
0.350605888457081,36.8971803354257,27800,2018-04-17 05:22:07,1819.1756441136322,53.2000017024,0.0,11.988200383622402,1819.1756441136322,53.2000017024,20.195983279956,11.990800383705599,1684,-18.8,98,P-GPS,
0.350605927031662,36.897180298246,27900,2018-04-17 05:22:07,1819.6756441296325,53.7000017184,0.0,11.9888003836416,1819.6756441296325,53.7000017184,20.195983279956,11.990800383705599,1684,-18.9,98,P-GPS,
0.350605954676127,36.8971802546042,28000,2018-04-17 05:22:08,1820.2756441488323,54.300001737600006,0.0,11.9879003836128,1820.2756441488323,54.300001737600006,20.195983279956,11.990800383705599,1684,-19.2,98,P-GPS,
0.35060600928762503,36.8971802187734,28100,2018-04-17 05:22:08,1820.7756441648326,54.8000017536,0.0,11.990000383680002,1820.7756441648326,54.8000017536,20.195983279956,11.990800383705599,1684,-19.5,98,P-GPS,
0.350606065573164,36.8971801812725,28200,2018-04-17 05:22:08,1821.2756441808324,55.3000017696,0.0,11.992000383744,1821.2756441808324,55.3000017696,20.195983279956,11.992000383744,1684,-19.6,98,P-GPS,
0.35060609157615696,36.89718015113311,28300,2018-04-17 05:22:08,1821.7756441968322,55.8000017856,0.0,11.992000383744,1821.7756441968322,55.8000017856,20.195983279956,11.992000383744,1684,-19.6,98,P-GPS,
0.35060610363315703,36.897180118492706,28400,2018-04-17 05:22:08,1822.2756442128325,56.3000018016,0.0,11.990700383702402,1822.2756442128325,56.3000018016,20.195983279956,11.992000383744,1684,-19.6,98,P-GPS,
0.350606124008248,36.897180122436794,28600,2018-04-17 05:22:08,1823.3756442480324,57.4000018368,0.0,11.992700383766401,1823.3756442480324,57.4000018368,20.195983279956,11.992700383766401,1684,-19.6,98,P-GPS,
0.350606149021148,36.8971801527946,28700,2018-04-17 05:22:08,1823.8756442640324,57.90000185280001,0.0,11.997000383904002,1823.8756442640324,57.90000185280001,20.195983279956,11.997000383904002,1684,-19.6,98,P-GPS,
0.35060617013880996,36.8971801746819,28800,2018-04-17 05:22:08,1824.3756442800325,58.400001868800004,0.0,12.000400384012801,1824.3756442800325,58.400001868800004,20.195983279956,12.000400384012801,1684,-19.6,98,P-GPS,
0.35060621683606996,36.897180205634996,28900,2018-04-17 05:22:09,1824.8756442960323,58.900001884800005,0.0,12.006500384208001,1824.8756442960323,58.900001884800005,20.195983279956,12.006500384208001,1684,-19.6,98,P-GPS,
0.350606266731594,36.8971802299719,29000,2018-04-17 05:22:09,1825.3756443120326,59.4000019008,0.0,12.012500384400001,1825.3756443120326,59.4000019008,20.195983279956,12.012500384400001,1684,-19.6,98,P-GPS,
0.350606342350019,36.89718025309679,29100,2018-04-17 05:22:09,1825.8756443280324,59.9000019168,0.0,12.0206003846592,1825.8756443280324,59.9000019168,20.195983279956,12.0206003846592,1684,-19.6,98,P-GPS,
