latitude,longitude,time_millisecond,datetime_utc,altitude_m,ascent_m,speed_kph,distance_m,max_altitude_m,max_ascent_m,max_speed_kph,max_distance_m,rc_throttle,gimbal_pitch_degrees,battery_percent,flycState,message
0.376646726204369,36.9241177423292,0,2018-04-16 06:20:34,1626.580984650595,0.0,0.0,0.0,1626.580984650595,0.0,0.0,0.0,364,0.0,99,Motors_Started,
0.376646719959083,36.9241177146594,100,2018-04-16 06:20:34,1626.580984650595,0.0,0.0,0.0031543901009404803,1626.580984650595,0.0,0.0,0.0031543901009404803,364,0.0,99,Motors_Started,
0.376646731250917,36.9241176883989,200,2018-04-16 06:20:34,1626.580984650595,0.0,0.0,0.0060234501927504,1626.580984650595,0.0,0.0,0.0060234501927504,364,0.0,99,Motors_Started,
0.376646755007269,36.9241176729453,300,2018-04-16 06:20:34,1626.580984650595,0.0,0.0,0.00835418026733376,1626.580984650595,0.0,0.0,0.00835418026733376,364,0.0,99,Motors_Started,
0.376646779270474,36.9241176613914,400,2018-04-16 06:20:34,1626.580984650595,0.0,0.0,0.0107627003444064,1626.580984650595,0.0,0.0,0.0107627003444064,369,0.0,99,Motors_Started,
0.37664679342918395,36.9241176543231,500,2018-04-16 06:20:34,1626.580984650595,0.0,0.0,0.0123152003940864,1626.580984650595,0.0,0.0,0.0123152003940864,690,0.0,99,Motors_Started,
0.37664682440849895,36.9241176326791,600,2018-04-16 06:20:35,1626.580984650595,0.0,0.0,0.0163691005238112,1626.580984650595,0.0,0.0,0.0163691005238112,1016,0.0,99,Motors_Started,
0.376646861339573,36.9241176014292,700,2018-04-16 06:20:35,1626.580984650595,0.0,0.0,0.0217104006947328,1626.580984650595,0.0,0.0,0.0217104006947328,1024,0.0,99,Motors_Started,
0.37664689686021097,36.92411757287471,800,2018-04-16 06:20:35,1626.580984650595,0.0,0.0,0.026744300855817603,1626.580984650595,0.0,0.0,0.026744300855817603,1024,0.0,99,Motors_Started,
0.37664691776149295,36.9241175566173,900,2018-04-16 06:20:35,1626.580984650595,0.0,0.0,0.029669600949427197,1626.580984650595,0.0,0.0,0.029669600949427197,1024,0.0,99,Motors_Started,
0.37664695347774896,36.924117546271795,1000,2018-04-16 06:20:35,1626.580984650595,0.0,0.0,0.03337850106811201,1626.580984650595,0.0,0.0,0.03337850106811201,1024,0.0,99,Motors_Started,
0.376646993646373,36.9241175409321,1100,2018-04-16 06:20:35,1626.580984650595,0.0,0.0,0.0372307011913824,1626.580984650595,0.0,0.0,0.0372307011913824,1024,0.0,99,Motors_Started,
0.376647028378437,36.9241175213694,1200,2018-04-16 06:20:35,1626.580984650595,0.0,0.0,0.0416289013321248,1626.580984650595,0.0,0.0,0.0416289013321248,1024,0.0,99,Motors_Started,
0.376647050218925,36.92411749265779,1300,2018-04-16 06:20:35,1626.580984650595,0.0,0.0,0.0454884014556288,1626.580984650595,0.0,0.0,0.0454884014556288,1024,0.0,99,Motors_Started,
0.3766470625672121,36.9241174679339,1400,2018-04-16 06:20:35,1626.580984650595,0.0,0.0,0.0482729015447328,1626.580984650595,0.0,0.0,0.0482729015447328,1024,0.0,99,Motors_Started,Setting new Return-To-Home altitude to 30m (98 ft). Setting new Maximum Flight Altitude to 150m (492 ft)
0.376647070560633,36.924117453322,1500,2018-04-16 06:20:36,1626.580984650595,0.0,0.0,0.0499936015997952,1626.580984650595,0.0,0.0,0.0499936015997952,1024,0.0,99,Assisted_Takeoff,
0.376647090362105,36.9241174448659,1600,2018-04-16 06:20:36,1626.580984650595,0.0,0.0,0.052289501673264,1626.580984650595,0.0,0.0,0.052289501673264,1024,0.0,99,Assisted_Takeoff,
0.376647119629722,36.924117440770395,1700,2018-04-16 06:20:36,1626.580984650595,0.0,0.0,0.055124701763990404,1626.580984650595,0.0,0.0,0.055124701763990404,1024,0.0,99,Assisted_Takeoff,
0.376647141612291,36.9241174225802,1800,2018-04-16 06:20:36,1626.580984650595,0.0,0.0,0.05829560186545919,1626.580984650595,0.0,0.0,0.05829560186545919,1024,0.0,99,Assisted_Takeoff,
0.376647155455693,36.924117395740105,1900,2018-04-16 06:20:36,1626.580984650595,0.0,0.0,0.061352701963286405,1626.580984650595,0.0,0.0,0.061352701963286405,1024,0.0,99,Assisted_Takeoff,
0.37664718072324105,36.924117373460604,2000,2018-04-16 06:20:36,1626.580984650595,0.0,0.0,0.065095502083056,1626.580984650595,0.0,0.0,0.065095502083056,1024,0.0,99,Assisted_Takeoff,
0.37664721427264797,36.9241173614908,2100,2018-04-16 06:20:36,1626.580984650595,0.0,0.0,0.0688439022030048,1626.580984650595,0.0,0.0,0.0688439022030048,1024,0.0,99,Assisted_Takeoff,
0.37664724110004105,36.9241173549218,2200,2018-04-16 06:20:36,1626.580984650595,0.0,0.0,0.0716564022930048,1626.580984650595,0.0,0.0,0.0716564022930048,1024,0.0,99,Assisted_Takeoff,
0.376647258103032,36.9241173520955,2300,2018-04-16 06:20:36,1626.580984650595,0.0,0.0,0.0733616023475712,1626.580984650595,0.0,0.0,0.0733616023475712,1024,0.0,99,Assisted_Takeoff,
0.3766472658129,36.92411733507,2400,2018-04-16 06:20:36,1626.580984650595,0.0,0.0,0.0751798024057536,1626.580984650595,0.0,0.0,0.0751798024057536,1024,0.0,99,Assisted_Takeoff,
0.37664727049956204,36.9241173082817,2500,2018-04-16 06:20:36,1626.580984650595,0.0,0.0,0.07741780247736961,1626.580984650595,0.0,0.0,0.07741780247736961,1024,0.0,99,Assisted_Takeoff,
0.37664726616973293,36.9241172839875,2600,2018-04-16 06:20:37,1626.580984650595,0.0,0.0,0.0787627025204064,1626.580984650595,0.0,0.0,0.0787627025204064,1024,0.0,99,Assisted_Takeoff,
0.376647264491825,36.924117271319496,2700,2018-04-16 06:20:37,1626.580984650595,0.0,0.0,0.07954100254531202,1626.580984650595,0.0,0.0,0.07954100254531202,1024,0.0,99,Assisted_Takeoff,
0.37664727523528096,36.9241172635109,2800,2018-04-16 06:20:37,1626.580984650595,0.0,0.0,0.0810121025923872,1626.580984650595,0.0,0.0,0.0810121025923872,1024,0.0,99,Assisted_Takeoff,
0.37664730132051094,36.924117260879996,2900,2018-04-16 06:20:37,1626.580984650595,0.0,0.0,0.0834077026690464,1626.580984650595,0.0,0.0,0.0834077026690464,1024,0.0,99,Assisted_Takeoff,
0.37664734407123707,36.9241172635045,3000,2018-04-16 06:20:37,1626.580984650595,0.0,0.0,0.08692750278168,1626.580984650595,0.0,0.0,0.08692750278168,1024,0.0,99,Assisted_Takeoff,
0.37664738938920506,36.92411726752479,3100,2018-04-16 06:20:37,1626.580984650595,0.0,0.0,0.0907024029024768,1626.580984650595,0.0,0.0,0.0907024029024768,1024,0.0,99,Assisted_Takeoff,
0.37664742943305,36.9241172754216,3200,2018-04-16 06:20:37,1626.580984650595,0.0,0.0,0.0938703030038496,1626.580984650595,0.0,0.0,0.0938703030038496,1024,0.0,99,Assisted_Takeoff,
0.37664745620650103,36.9241172832808,3300,2018-04-16 06:20:37,1626.580984650595,0.0,0.0,0.0958968030686976,1626.580984650595,0.0,0.0,0.0958968030686976,1024,0.0,99,Assisted_Takeoff,
0.376647474364059,36.924117274378,3400,2018-04-16 06:20:37,1626.580984650595,0.0,0.0,0.0981334031402688,1626.580984650595,0.0,0.0,0.0981334031402688,1024,0.0,99,Assisted_Takeoff,
0.37664748823880895,36.924117253917295,3500,2018-04-16 06:20:37,1626.580984650595,0.0,0.0,0.10065400322092802,1626.580984650595,0.0,0.0,0.10065400322092802,1024,0.0,99,Assisted_Takeoff,
0.37664747241236896,36.924117231604,3600,2018-04-16 06:20:37,1626.580984650595,0.0,0.0,0.10055700321782401,1626.580984650595,0.0,0.0,0.10065400322092802,1024,0.0,99,Assisted_Takeoff,
0.376647447599157,36.924117221768604,3700,2018-04-16 06:20:38,1626.580984650595,0.0,0.0,0.09892860316571521,1626.580984650595,0.0,0.0,0.10065400322092802,1024,0.0,99,Assisted_Takeoff,
0.3766474292541239,36.924117211605704,3800,2018-04-16 06:20:38,1626.580984650595,0.0,0.0,0.09795830313466561,1626.580984650595,0.0,0.0,0.10065400322092802,1024,0.0,99,Assisted_Takeoff,
0.37664743887802504,36.9241172082575,3900,2018-04-16 06:20:38,1626.580984650595,0.0,0.0,0.0990374031691968,1626.580984650595,0.0,0.0,0.10065400322092802,1024,0.0,99,Assisted_Takeoff,
0.376647442538563,36.9241172051496,4000,2018-04-16 06:20:38,1626.580984650595,0.0,0.0,0.0995704031862528,1626.580984650595,0.0,0.0,0.10065400322092802,1024,0.0,99,Assisted_Takeoff,
0.376647446591557,36.924117205865706,4100,2018-04-16 06:20:38,1626.580984650595,0.0,0.0,0.0998838031962816,1626.580984650595,0.0,0.0,0.10065400322092802,1024,0.0,99,Assisted_Takeoff,
0.376647444898993,36.92411720656229,4200,2018-04-16 06:20:38,1626.580984650595,0.0,0.0,0.0996866031899712,1626.580984650595,0.0,0.0,0.10065400322092802,1024,0.0,99,Assisted_Takeoff,
0.376647445908628,36.9241172093476,4300,2018-04-16 06:20:38,1626.580984650595,0.0,0.0,0.099592003186944,1626.580984650595,0.0,0.0,0.10065400322092802,1024,0.0,99,Assisted_Takeoff,
0.37664744041263,36.9241172113719,4400,2018-04-16 06:20:38,1626.580984650595,0.0,0.0,0.098967003166944,1626.580984650595,0.0,0.0,0.10065400322092802,1024,0.0,99,Assisted_Takeoff,
0.376647439656218,36.924117214945,4500,2018-04-16 06:20:38,1626.580984650595,0.0,0.0,0.0986628031572096,1626.580984650595,0.0,0.0,0.10065400322092802,1024,0.0,99,Assisted_Takeoff,
0.37664744281377005,36.9241172204202,4600,2018-04-16 06:20:39,1626.580984650595,0.0,0.0,0.0985857031547424,1626.580984650595,0.0,0.0,0.10065400322092802,1024,0.0,99,Assisted_Takeoff,
0.37664750318711,36.9241171899545,4700,2018-04-16 06:20:39,1626.580984650595,0.0,0.0,0.106014003392448,1626.580984650595,0.0,0.0,0.106014003392448,1024,0.0,99,Assisted_Takeoff,
0.376647625104641,36.9241171198082,4800,2018-04-16 06:20:39,1626.580984650595,0.0,0.0,0.121593003890976,1626.580984650595,0.0,0.0,0.121593003890976,1024,0.0,99,Assisted_Takeoff,
0.37664771978217204,36.9241170772008,4900,2018-04-16 06:20:39,1626.580984650595,0.0,0.0,0.132963004254816,1626.580984650595,0.0,0.0,0.132963004254816,1024,0.0,99,Assisted_Takeoff,
0.376647874626026,36.9241170298221,5000,2018-04-16 06:20:39,1626.580984650595,0.0,0.0,0.15029400480940802,1626.580984650595,0.0,0.0,0.15029400480940802,1024,0.0,99,Assisted_Takeoff,
0.376648022384724,36.9241170023556,5100,2018-04-16 06:20:39,1626.580984650595,0.0,0.0,0.165977005311264,1626.580984650595,0.0,0.0,0.165977005311264,1024,0.0,99,Assisted_Takeoff,
0.376648222754173,36.9241169781144,5200,2018-04-16 06:20:39,1626.580984650595,0.0,0.0,0.18686800597977601,1626.580984650595,0.0,0.0,0.18686800597977601,1024,0.0,99,Assisted_Takeoff,
0.37664840138633704,36.9241169645566,5300,2018-04-16 06:20:39,1626.580984650595,0.0,0.0,0.20539000657248002,1626.580984650595,0.0,0.0,0.20539000657248002,1024,0.0,99,Assisted_Takeoff,
0.376648641752406,36.924116956491496,5400,2018-04-16 06:20:39,1626.580984650595,0.0,0.0,0.23024900736796802,1626.580984650595,0.0,0.0,0.23024900736796802,1024,0.0,99,Assisted_Takeoff,
0.376648862079658,36.924116952727104,5500,2018-04-16 06:20:39,1626.580984650595,0.0,0.0,0.253233008103456,1626.580984650595,0.0,0.0,0.253233008103456,1024,0.0,99,Assisted_Takeoff,
0.37664910675540403,36.924116954077896,5600,2018-04-16 06:20:40,1626.580984650595,0.0,0.0,0.278867008923744,1626.580984650595,0.0,0.0,0.278867008923744,1024,0.0,99,Assisted_Takeoff,
0.37664931501059296,36.9241169562647,5700,2018-04-16 06:20:40,1626.580984650595,0.0,0.0,0.30086900962780805,1626.580984650595,0.0,0.0,0.30086900962780805,1024,0.0,99,Assisted_Takeoff,
0.37664951855835704,36.9241169431459,5800,2018-04-16 06:20:40,1626.580984650595,0.0,0.0,0.32299401033580805,1626.580984650595,0.0,0.0,0.32299401033580805,1024,0.0,99,Assisted_Takeoff,
0.376649682837009,36.924116917534704,5900,2018-04-16 06:20:40,1626.580984650595,0.0,0.0,0.34134901092316805,1626.580984650595,0.0,0.0,0.34134901092316805,1024,0.0,99,Assisted_Takeoff,
0.37664981071993703,36.924116854299506,6000,2018-04-16 06:20:40,1626.580984650595,0.0,0.0,0.35694901142236807,1626.580984650595,0.0,0.0,0.35694901142236807,1024,0.0,99,Assisted_Takeoff,
0.37664991220131,36.924116781117505,6100,2018-04-16 06:20:40,1626.580984650595,0.0,0.0,0.3700750118424,1626.580984650595,0.0,0.0,0.3700750118424,1024,0.0,99,Assisted_Takeoff,
0.37665000888121597,36.9241166910394,6200,2018-04-16 06:20:40,1626.580984650595,0.0,0.0,0.38331601226611206,1626.580984650595,0.0,0.0,0.38331601226611206,1024,0.0,99,Assisted_Takeoff,
0.37665012643736695,36.924116619677896,6300,2018-04-16 06:20:40,1626.580984650595,0.0,0.0,0.39820301274249603,1626.580984650595,0.0,0.0,0.39820301274249603,1024,0.0,99,Assisted_Takeoff,
0.376650226837046,36.924116531171606,6400,2018-04-16 06:20:40,1626.580984650595,0.0,0.0,0.411932013181824,1626.580984650595,0.0,0.0,0.411932013181824,1024,0.0,99,Assisted_Takeoff,
0.37665033452482594,36.92411646405171,6500,2018-04-16 06:20:40,1626.580984650595,0.0,0.0,0.425702013622464,1626.580984650595,0.0,0.0,0.425702013622464,1024,0.0,99,Assisted_Takeoff,
0.37665045020053206,36.9241164068696,6600,2018-04-16 06:20:41,1626.580984650595,0.0,0.0,0.439954014078528,1626.580984650595,0.0,0.0,0.439954014078528,1024,0.0,99,Assisted_Takeoff,
0.37665051267171396,36.9241162968052,6700,2018-04-16 06:20:41,1626.580984650595,0.0,0.0,0.45071801442297604,1626.580984650595,0.0,0.0,0.45071801442297604,1024,0.0,99,Assisted_Takeoff,
0.376650554573614,36.924116163346795,6800,2018-04-16 06:20:41,1626.580984650595,0.0,0.0,0.46052601473683197,1626.580984650595,0.0,0.0,0.46052601473683197,1024,0.0,99,Assisted_Takeoff,
0.376650623664015,36.924116058220704,6900,2018-04-16 06:20:41,1626.580984650595,0.0,0.0,0.472152015108864,1626.580984650595,0.0,0.0,0.472152015108864,1024,0.0,99,Assisted_Takeoff,
0.37665067991332,36.9241159481389,7000,2018-04-16 06:20:41,1626.580984650595,0.0,0.0,0.4828290154505281,1626.580984650595,0.0,0.0,0.4828290154505281,1024,0.0,99,Assisted_Takeoff,
0.37665075673272297,36.924115865316,7100,2018-04-16 06:20:41,1626.580984650595,0.0,0.0,0.494438015822016,1626.580984650595,0.0,0.0,0.494438015822016,1024,0.0,99,Assisted_Takeoff,
0.37665082744993894,36.9241157878272,7200,2018-04-16 06:20:41,1626.580984650595,0.0,0.0,0.5052250161672001,1626.580984650595,0.0,0.0,0.5052250161672001,1024,0.0,99,Assisted_Takeoff,
0.3766509091404249,36.92411572463521,7300,2018-04-16 06:20:41,1626.580984650595,0.0,0.0,0.51645501652656,1626.580984650595,0.0,0.0,0.51645501652656,1024,0.0,99,Assisted_Takeoff,
0.376650968057122,36.9241156464459,7400,2018-04-16 06:20:41,1626.580984650595,0.0,0.0,0.526157016837024,1626.580984650595,0.0,0.0,0.526157016837024,1024,0.0,99,Assisted_Takeoff,
0.376651027786005,36.9241155654851,7500,2018-04-16 06:20:41,1626.580984650595,0.0,0.0,0.536125017156,1626.580984650595,0.0,0.0,0.536125017156,1024,0.0,99,Assisted_Takeoff,
0.376651065336295,36.9241154678394,7600,2018-04-16 06:20:42,1626.580984650595,0.0,0.0,0.5448090174338879,1626.580984650595,0.0,0.0,0.5448090174338879,1024,0.0,99,Assisted_Takeoff,
0.37665111220739095,36.9241153755091,7700,2018-04-16 06:20:42,1626.580984650595,0.0,0.0,0.554233017735456,1626.580984650595,0.0,0.0,0.554233017735456,1024,0.0,99,Assisted_Takeoff,
0.376651160544495,36.924115266451004,7800,2018-04-16 06:20:42,1626.580984650595,0.0,0.0,0.5647810180729921,1626.580984650595,0.0,0.0,0.5647810180729921,1024,0.0,99,Assisted_Takeoff,
0.3766512302993,36.9241151669885,7900,2018-04-16 06:20:42,1626.580984650595,0.0,0.0,0.5769760184632321,1626.580984650595,0.0,0.0,0.5769760184632321,1024,0.0,99,Assisted_Takeoff,
0.376651286210704,36.924115073652,8000,2018-04-16 06:20:42,1626.580984650595,0.0,0.0,0.5875550188017601,1626.580984650595,0.0,0.0,0.5875550188017601,1024,0.0,99,Assisted_Takeoff,
0.37665134258784205,36.9241150009984,8100,2018-04-16 06:20:42,1626.580984650595,0.0,0.0,0.5970590191058879,1626.580984650595,0.0,0.0,0.5970590191058879,1024,0.0,99,Assisted_Takeoff,
0.37665138531251297,36.924114917093604,8200,2018-04-16 06:20:42,1626.580984650595,0.0,0.0,0.6059340193898879,1626.580984650595,0.0,0.0,0.6059340193898879,1024,0.0,99,Assisted_Takeoff,
0.376651433788848,36.924114832570794,8300,2018-04-16 06:20:42,1626.580984650595,0.0,0.0,0.61544001969408,1626.580984650595,0.0,0.0,0.61544001969408,1024,0.0,99,Assisted_Takeoff,
0.37665147147389205,36.9241147369949,8400,2018-04-16 06:20:42,1626.580984650595,0.0,0.0,0.6246300199881599,1626.580984650595,0.0,0.0,0.6246300199881599,1024,0.0,99,Assisted_Takeoff,
0.37665151588644497,36.924114645126295,8500,2018-04-16 06:20:42,1626.580984650595,0.0,0.0,0.634297020297504,1626.580984650595,0.0,0.0,0.634297020297504,1024,0.0,99,Assisted_Takeoff,
0.376651569675579,36.924114560448,8600,2018-04-16 06:20:42,1626.580984650595,0.0,0.0,0.6444500206224,1626.580984650595,0.0,0.0,0.6444500206224,1024,0.0,99,Assisted_Takeoff,
0.37665164310741106,36.924114494076,8700,2018-04-16 06:20:43,1626.580984650595,0.0,0.0,0.65533002097056,1626.580984650595,0.0,0.0,0.65533002097056,1024,0.0,99,Assisted_Takeoff,
0.376651731276254,36.924114436272795,8800,2018-04-16 06:20:43,1626.580984650595,0.0,0.0,0.667054021345728,1626.580984650595,0.0,0.0,0.667054021345728,1024,0.0,99,Assisted_Takeoff,
0.376651826125789,36.9241143843737,8900,2018-04-16 06:20:43,1626.580984650595,0.0,0.0,0.679037021729184,1626.580984650595,0.0,0.0,0.679037021729184,1024,0.0,99,Assisted_Takeoff,
0.376651936836368,36.9241143205129,9000,2018-04-16 06:20:43,1626.580984650595,0.0,0.0,0.6932250221832,1626.580984650595,0.0,0.0,0.6932250221832,1024,0.0,99,Assisted_Takeoff,
0.3766520445392121,36.92411424752179,9100,2018-04-16 06:20:43,1626.580984650595,0.0,0.0,0.7076920226461441,1626.580984650595,0.0,0.0,0.7076920226461441,1024,0.0,99,Assisted_Takeoff,
0.37665216367861704,36.9241141794911,9200,2018-04-16 06:20:43,1626.580984650595,0.0,0.0,0.72292002313344,1626.580984650595,0.0,0.0,0.72292002313344,1024,0.0,99,Assisted_Takeoff,
0.3766522770859,36.9241141220393,9300,2018-04-16 06:20:43,1626.580984650595,0.0,0.0,0.7369720235831041,1626.580984650595,0.0,0.0,0.7369720235831041,1024,0.0,99,Assisted_Takeoff,
0.37665237686147796,36.924114070482105,9400,2018-04-16 06:20:43,1626.580984650595,0.0,0.0,0.749399023980768,1626.580984650595,0.0,0.0,0.749399023980768,1024,0.0,99,Assisted_Takeoff,
0.37665246131258295,36.9241140234761,9500,2018-04-16 06:20:43,1626.580984650595,0.0,0.0,0.7601220243239041,1626.580984650595,0.0,0.0,0.7601220243239041,1024,0.0,99,Assisted_Takeoff,
0.376652547975116,36.9241139599279,9600,2018-04-16 06:20:44,1626.580984650595,0.0,0.0,0.7720540247057279,1626.580984650595,0.0,0.0,0.7720540247057279,1039,0.0,99,Assisted_Takeoff,
0.37665264222782596,36.924113888418205,9700,2018-04-16 06:20:44,1626.580984650595,0.0,0.0,0.785176025125632,1626.580984650595,0.0,0.0,0.785176025125632,1024,0.0,99,Assisted_Takeoff,
0.376652737521926,36.924113819477,9800,2018-04-16 06:20:44,1626.580984650595,0.0,0.0,0.79824002554368,1626.580984650595,0.0,0.0,0.79824002554368,1024,0.0,99,Assisted_Takeoff,
0.376652835213096,36.924113762229204,9900,2018-04-16 06:20:44,1626.580984650595,0.0,0.0,0.8108180259461761,1626.580984650595,0.0,0.0,0.8108180259461761,1024,0.0,99,Assisted_Takeoff,
0.376652897246227,36.9241136864445,10000,2018-04-16 06:20:44,1626.580984650595,0.0,0.0,0.821204026278528,1626.580984650595,0.0,0.0,0.821204026278528,1024,0.0,99,Assisted_Takeoff,
0.37665294127121,36.9241136064197,10100,2018-04-16 06:20:44,1626.580984650595,0.0,0.0,0.830197026566304,1626.580984650595,0.0,0.0,0.830197026566304,1024,0.0,99,Assisted_Takeoff,
0.37665300213186204,36.924113545739395,10200,2018-04-16 06:20:44,1626.580984650595,0.0,0.0,0.8395720268663039,1626.580984650595,0.0,0.0,0.8395720268663039,1024,0.0,99,Assisted_Takeoff,
0.376653100467896,36.924113512221396,10300,2018-04-16 06:20:44,1626.580984650595,0.0,0.0,0.85074002722368,1626.580984650595,0.0,0.0,0.85074002722368,1024,0.0,99,Assisted_Takeoff,
0.37665320616612397,36.9241134826234,10400,2018-04-16 06:20:44,1626.580984650595,0.0,0.0,0.862362027595584,1626.580984650595,0.0,0.0,0.862362027595584,1024,0.0,99,Assisted_Takeoff,
0.376653312841419,36.9241134485615,10500,2018-04-16 06:20:44,1626.580984650595,0.0,0.0,0.8743620279795841,1626.580984650595,0.0,0.0,0.8743620279795841,1024,0.0,99,Assisted_Takeoff,
0.37665343919890293,36.9241134338351,10600,2018-04-16 06:20:45,1626.580984650595,0.0,0.0,0.8870500283856,1626.580984650595,0.0,0.0,0.8870500283856,1026,0.0,99,Assisted_Takeoff,
0.376653575875022,36.924113430371705,10700,2018-04-16 06:20:45,1626.580984650595,0.0,0.0,0.900084028802688,1626.580984650595,0.0,0.0,0.900084028802688,1053,0.0,99,Assisted_Takeoff,
0.37665371668006004,36.924113427429,10800,2018-04-16 06:20:45,1626.580984650595,0.0,0.0,0.9135450292334399,1626.580984650595,0.0,0.0,0.9135450292334399,1037,0.0,99,Assisted_Takeoff,
0.37665384349676506,36.9241134097108,10900,2018-04-16 06:20:45,1626.580984650595,0.0,0.0,0.926599029651168,1626.580984650595,0.0,0.0,0.926599029651168,1042,0.0,99,Assisted_Takeoff,
0.37665396859709,36.9241134041569,11000,2018-04-16 06:20:45,1626.580984650595,0.0,0.0,0.938827030042464,1626.580984650595,0.0,0.0,0.938827030042464,1067,0.0,99,Assisted_Takeoff,
0.376654086936115,36.924113405083496,11100,2018-04-16 06:20:45,1626.580984650595,0.0,0.0,0.9500880304028161,1626.580984650595,0.0,0.0,0.9500880304028161,1126,0.0,99,Assisted_Takeoff,
0.3766542004256339,36.92411339943121,11200,2018-04-16 06:20:45,1626.580984650595,0.0,0.0,0.961299030761568,1626.580984650595,0.0,0.0,0.961299030761568,1171,0.0,99,Assisted_Takeoff,
0.37665431237383096,36.9241133811824,11300,2018-04-16 06:20:45,1626.580984650595,0.0,0.0,0.9730930311389762,1626.580984650595,0.0,0.0,0.9730930311389762,1184,0.0,99,Assisted_Takeoff,
0.37665441783105,36.9241133684842,11400,2018-04-16 06:20:45,1626.580984650595,0.0,0.0,0.9839750314871999,1626.580984650595,0.0,0.0,0.9839750314871999,1184,0.0,99,Assisted_Takeoff,
0.376654526718586,36.924113365616,11500,2018-04-16 06:20:45,1626.580984650595,0.0,0.0,0.9946750318296,1626.580984650595,0.0,0.0,0.9946750318296,1184,0.0,99,Assisted_Takeoff,
0.376654627317343,36.9241133500877,11600,2018-04-16 06:20:46,1626.580984650595,0.0,0.0,1.0052800321689601,1626.580984650595,0.0,0.0,1.0052800321689601,1175,0.0,99,Assisted_Takeoff,
0.37665473127965005,36.924113325233705,11700,2018-04-16 06:20:46,1626.580984650595,0.0,0.0,1.0167400325356801,1626.580984650595,0.0,0.0,1.0167400325356801,1175,0.0,99,Assisted_Takeoff,
0.37665482762246794,36.924113303557895,11800,2018-04-16 06:20:46,1626.580984650595,0.0,0.0,1.0272900328732801,1626.580984650595,0.0,0.0,1.0272900328732801,1199,0.0,99,Assisted_Takeoff,
0.376654931478927,36.9241132954854,11900,2018-04-16 06:20:46,1626.580984650595,0.0,0.0,1.03786003321152,1626.580984650595,0.0,0.0,1.03786003321152,1257,0.0,99,Assisted_Takeoff,
0.37665504752021706,36.924113281593,12000,2018-04-16 06:20:46,1626.580984650595,0.0,0.0,1.0499500335984,1626.580984650595,0.0,0.0,1.0499500335984,1277,0.0,99,Assisted_Takeoff,
0.376655195036888,36.924113281988,12100,2018-04-16 06:20:46,1626.580984650595,0.0,0.0,1.0644200340614398,1626.580984650595,0.0,0.0,1.0644200340614398,1298,0.0,99,Assisted_Takeoff,
0.37665534088765995,36.9241132556887,12200,2018-04-16 06:20:46,1626.580984650595,0.0,0.0,1.08014003456448,1626.580984650595,0.0,0.0,1.08014003456448,1281,0.0,99,P-GPS,
0.37665547646132297,36.924113219567396,12300,2018-04-16 06:20:46,1626.580984650595,0.0,0.0,1.09537003505184,1626.580984650595,0.0,0.0,1.09537003505184,1299,0.0,99,P-GPS,
0.37665564733069395,36.9241131541721,12400,2018-04-16 06:20:46,1626.6809846537947,0.10000000320000002,0.0,1.1156000356992,1626.6809846537947,0.10000000320000002,0.0,1.1156000356992,1308,0.0,99,P-GPS,Home Point Recorded. RTH Altitude:  30m.
0.376655844440813,36.9241130860489,12500,2018-04-16 06:20:46,1626.6809846537947,0.10000000320000002,0.0,1.1385600364339201,1626.6809846537947,0.10000000320000002,0.0,1.1385600364339201,1327,0.0,99,P-GPS,
0.376656083572928,36.9241129717935,12600,2018-04-16 06:20:47,1626.7809846569949,0.20000000640000004,0.0,1.16802003737664,1626.7809846569949,0.20000000640000004,0.0,1.16802003737664,1336,0.0,99,P-GPS,
0.37665632740554705,36.9241128497526,12700,2018-04-16 06:20:47,1626.8809846601948,0.3000000096,0.0,1.19834003834688,1626.8809846601948,0.3000000096,0.0,1.19834003834688,1365,0.0,99,P-GPS,
0.376656574433988,36.92411267505621,12800,2018-04-16 06:20:47,1626.9809846633948,0.4000000128000001,0.0,1.2316500394128,1626.9809846633948,0.4000000128000001,0.0,1.2316500394128,1392,0.0,99,P-GPS,
0.37665678301079497,36.9241125160381,12900,2018-04-16 06:20:47,1627.180984669795,0.6000000192,0.0,1.26037004033184,1627.180984669795,0.6000000192,0.0,1.26037004033184,1377,0.0,99,P-GPS,
0.376657003125941,36.9241123501711,13000,2018-04-16 06:20:47,1627.280984672995,0.7000000224000001,0.0,1.29061004129952,1627.280984672995,0.7000000224000001,0.0,1.29061004129952,1357,0.0,99,P-GPS,
0.37665721593670204,36.9241122512519,13100,2018-04-16 06:20:47,1627.4809846793946,0.9000000288000001,0.0,1.3166800421337599,1627.4809846793946,0.9000000288000001,0.0,1.3166800421337599,1375,0.0,99,P-GPS,
0.37665740605428205,36.9241121544632,13200,2018-04-16 06:20:47,1627.6809846857948,1.1000000352,0.0,1.3404000428928002,1627.6809846857948,1.1000000352,0.0,1.3404000428928002,1409,0.0,99,P-GPS,
0.376657570891083,36.9241120850424,13300,2018-04-16 06:20:47,1627.8809846921947,1.3000000416000002,0.0,1.3602200435270402,1627.8809846921947,1.3000000416000002,0.0,1.3602200435270402,1403,0.0,99,P-GPS,
0.376657687104175,36.9241120154245,13400,2018-04-16 06:20:47,1628.0809846985949,1.5000000480000002,0.0,1.37526004400832,1628.0809846985949,1.5000000480000002,0.0,1.37526004400832,1389,0.0,99,P-GPS,
0.37665778484582596,36.924111956459896,13500,2018-04-16 06:20:47,1628.280984704995,1.7000000544000002,0.0,1.3879300444137601,1628.280984704995,1.7000000544000002,0.0,1.3879300444137601,1419,0.0,99,P-GPS,
0.376657812982081,36.9241119126447,13600,2018-04-16 06:20:48,1628.4809847113947,1.9000000607999998,0.0,1.3929700445750401,1628.4809847113947,1.9000000607999998,0.0,1.3929700445750401,1478,0.0,99,P-GPS,
0.376657843058628,36.924111883597,13700,2018-04-16 06:20:48,1628.680984717795,2.1000000672,0.0,1.3974300447177601,1628.680984717795,2.1000000672,0.0,1.3974300447177601,1500,0.0,99,P-GPS,
0.37665776711858506,36.924111873981204,13800,2018-04-16 06:20:48,1628.8809847241948,2.3000000736,0.0,1.3904700444950402,1628.8809847241948,2.3000000736,0.0,1.3974300447177601,1524,0.0,99,P-GPS,
0.37665766547355295,36.9241118691538,13900,2018-04-16 06:20:48,1629.180984733795,2.6000000832000003,0.0,1.380750044184,1629.180984733795,2.6000000832000003,0.0,1.3974300447177601,1534,0.0,99,P-GPS,
0.376657476320012,36.924111885389294,14000,2018-04-16 06:20:48,1629.4809847433949,2.9000000928,0.0,1.36139004356448,1629.4809847433949,2.9000000928,0.0,1.3974300447177601,1560,0.0,99,P-GPS,
0.37665735611804707,36.9241118951389,14100,2018-04-16 06:20:48,1629.7809847529948,3.2000001024000007,0.0,1.34914004317248,1629.7809847529948,3.2000001024000007,0.0,1.3974300447177601,1541,0.0,99,P-GPS,
0.37665720499193,36.924111891167996,14200,2018-04-16 06:20:48,1630.0809847625949,3.500000112,0.0,1.33466004270912,1630.0809847625949,3.500000112,0.0,1.3974300447177601,1535,0.0,99,P-GPS,
0.37665714622708596,36.9241118393738,14300,2018-04-16 06:20:48,1630.3809847721948,3.8000001215999997,0.0,1.33178004261696,1630.3809847721948,3.8000001215999997,0.0,1.3974300447177601,1557,0.0,99,P-GPS,
0.37665709768886996,36.9241117884234,14400,2018-04-16 06:20:48,1630.7809847849949,4.2000001344,0.0,1.3299000425568002,1630.7809847849949,4.2000001344,0.0,1.3974300447177601,1576,0.0,99,P-GPS,
0.376656981711903,36.9241117647921,14500,2018-04-16 06:20:48,1631.1809847977947,4.6000001472,0.0,1.3200500422416,1631.1809847977947,4.6000001472,0.0,1.3974300447177601,1614,0.0,99,P-GPS,
0.37665686580088703,36.9241117493247,14600,2018-04-16 06:20:48,1631.4809848073949,4.9000001568,0.0,1.30981004191392,1631.4809848073949,4.9000001568,0.0,1.3974300447177601,1631,0.0,99,P-GPS,
0.376656781803303,36.924111743979104,14700,2018-04-16 06:20:49,1631.880984820195,5.3000001696,0.0,1.3020800416665603,1631.880984820195,5.3000001696,0.0,1.3974300447177601,1625,0.0,99,P-GPS,
0.37665663753456397,36.9241117263791,14800,2018-04-16 06:20:49,1632.2809848329948,5.7000001824,0.0,1.28934004125888,1632.2809848329948,5.7000001824,0.0,1.3974300447177601,1607,0.0,99,P-GPS,
0.376656500444821,36.9241117104777,14900,2018-04-16 06:20:49,1632.680984845795,6.1000001952,0.0,1.27726004087232,1632.680984845795,6.1000001952,0.0,1.3974300447177601,1604,-1.1,99,P-GPS,
0.376656380278681,36.9241117045165,15000,2018-04-16 06:20:49,1633.0809848585948,6.500000208,0.0,1.2662600405203202,1633.0809848585948,6.500000208,0.0,1.3974300447177601,1602,-3.7,99,P-GPS,
0.37665616523450896,36.9241117448426,15100,2018-04-16 06:20:49,1633.4809848713949,6.9000002208,0.0,1.24364003979648,1633.4809848713949,6.9000002208,0.0,1.3974300447177601,1613,-8.3,99,P-GPS,
0.3766559345328479,36.924111805075896,15200,2018-04-16 06:20:49,1633.9809848873947,7.4000002368,0.0,1.21842003898944,1633.9809848873947,7.4000002368,0.0,1.3974300447177601,1602,-13.1,99,P-GPS,
0.37665577090842406,36.924111882203604,15300,2018-04-16 06:20:49,1634.3809849001948,7.8000002496,0.0,1.19848003835136,1634.3809849001948,7.8000002496,0.0,1.3974300447177601,1609,-17.6,99,P-GPS,
0.376655593301365,36.9241119610395,15400,2018-04-16 06:20:49,1634.7809849129947,8.200000262400001,0.0,1.17714003766848,1634.7809849129947,8.200000262400001,0.0,1.3974300447177601,1610,-21.0,99,P-GPS,
0.37665544132357204,36.9241120155252,15500,2018-04-16 06:20:49,1635.180984925795,8.6000002752,0.0,1.1596800371097602,1635.180984925795,8.6000002752,0.0,1.3974300447177601,1612,-24.8,99,P-GPS,
0.37665525058148397,36.924112061788996,15600,2018-04-16 06:20:50,1635.6809849417948,9.1000002912,0.0,1.13916003645312,1635.6809849417948,9.1000002912,0.0,1.3974300447177601,1601,-26.7,99,P-GPS,
0.376655095201058,36.9241121145622,15700,2018-04-16 06:20:50,1636.080984954595,9.500000304,0.0,1.12153003588896,1636.080984954595,9.500000304,0.0,1.3974300447177601,1595,-26.7,99,P-GPS,
0.37665490404615903,36.924112184468,15800,2018-04-16 06:20:50,1636.4809849673948,9.900000316799998,0.0,1.09957003518624,1636.4809849673948,9.900000316799998,0.0,1.3974300447177601,1595,-26.7,99,P-GPS,
0.37665472273927597,36.92411227037971,15900,2018-04-16 06:20:50,1636.8809849801949,10.300000329600001,0.0,1.07753003448096,1636.8809849801949,10.300000329600001,0.0,1.3974300447177601,1592,-26.7,99,P-GPS,
0.37665451860812105,36.9241123486273,16000,2018-04-16 06:20:50,1637.280984992995,10.700000342400001,0.0,1.05389003372448,1637.280984992995,10.700000342400001,0.0,1.3974300447177601,1599,-26.7,99,P-GPS,
0.37665434724126,36.9241124160241,16100,2018-04-16 06:20:50,1637.6809850057948,11.1000003552,0.0,1.03397003308704,1637.6809850057948,11.1000003552,0.0,1.3974300447177601,1600,-26.7,99,P-GPS,
0.376654165233331,36.9241124722056,16200,2018-04-16 06:20:50,1638.080985018595,11.500000367999998,0.0,1.01382003244224,1638.080985018595,11.500000367999998,0.0,1.3974300447177601,1582,-26.7,99,P-GPS,
0.3766540167127249,36.924112528438,16300,2018-04-16 06:20:50,1638.4809850313948,11.900000380800002,0.0,0.996738031895616,1638.4809850313948,11.900000380800002,0.0,1.3974300447177601,1571,-26.6,99,P-GPS,
0.3766538790961789,36.924112586135,16400,2018-04-16 06:20:50,1638.9809850473948,12.4000003968,0.0,0.980564031378048,1638.9809850473948,12.4000003968,0.0,1.3974300447177601,1584,-26.6,99,P-GPS,
0.376653765477199,36.924112644439,16500,2018-04-16 06:20:50,1639.3809850601947,12.800000409600003,0.0,0.966526030928832,1639.3809850601947,12.800000409600003,0.0,1.3974300447177601,1587,-26.6,99,P-GPS,
0.37665365066701206,36.9241126852817,16600,2018-04-16 06:20:51,1639.780985072995,13.2000004224,0.0,0.9535290305129279,1639.780985072995,13.2000004224,0.0,1.3974300447177601,1594,-26.6,99,P-GPS,
0.37665354301465004,36.9241127093745,16700,2018-04-16 06:20:51,1640.0809850825947,13.500000432000002,0.0,0.9422930301533761,1640.0809850825947,13.500000432000002,0.0,1.3974300447177601,1610,-26.7,99,P-GPS,
0.376653457860871,36.92411270087,16800,2018-04-16 06:20:51,1640.4809850953948,13.9000004448,0.0,0.935259029928288,1640.4809850953948,13.9000004448,0.0,1.3974300447177601,1620,-26.7,99,P-GPS,
0.376653406174059,36.924112676427704,16900,2018-04-16 06:20:51,1640.8809851081946,14.300000457600001,0.0,0.9323040298337281,1640.8809851081946,14.300000457600001,0.0,1.3974300447177601,1639,-26.7,99,P-GPS,
0.376653371219508,36.924112637610605,17000,2018-04-16 06:20:51,1641.380985124195,14.8000004736,0.0,0.9318330298186561,1641.380985124195,14.8000004736,0.0,1.3974300447177601,1663,-26.7,99,P-GPS,
0.376653317241475,36.9241126092674,17100,2018-04-16 06:20:51,1641.780985136995,15.200000486399999,0.0,0.929013029728416,1641.780985136995,15.200000486399999,0.0,1.3974300447177601,1665,-26.7,99,P-GPS,
0.37665327781521796,36.9241125740514,17200,2018-04-16 06:20:51,1642.1809851497949,15.6000004992,0.0,0.9279780296952961,1642.1809851497949,15.6000004992,0.0,1.3974300447177601,1682,-26.7,99,P-GPS,
0.376653241391811,36.924112556832,17300,2018-04-16 06:20:51,1642.6809851657947,16.1000005152,0.0,0.9259930296317761,1642.6809851657947,16.1000005152,0.0,1.3974300447177601,1684,-26.7,99,P-GPS,
0.37665322766972703,36.9241125300365,17400,2018-04-16 06:20:51,1643.0809851785948,16.500000528,0.0,0.92666002965312,1643.0809851785948,16.500000528,0.0,1.3974300447177601,1684,-26.7,99,P-GPS,
0.37665320503517,36.9241125168132,17500,2018-04-16 06:20:51,1643.5809851945946,17.000000544000002,0.0,0.92562002961984,1643.5809851945946,17.000000544000002,0.0,1.3974300447177601,1684,-26.7,99,P-GPS,
0.37665318844702506,36.9241124957005,17600,2018-04-16 06:20:52,1644.080985210595,17.50000056,0.0,0.925663029621216,1644.080985210595,17.50000056,0.0,1.3974300447177601,1684,-26.7,99,P-GPS,
0.37665315468368205,36.924112474561,17700,2018-04-16 06:20:52,1644.5809852265947,18.000000575999998,0.0,0.924239029575648,1644.5809852265947,18.000000575999998,0.0,1.3974300447177601,1684,-26.7,99,P-GPS,
0.376653121016416,36.924112448615496,17800,2018-04-16 06:20:52,1645.0809852425948,18.500000592000003,0.0,0.923184029541888,1645.0809852425948,18.500000592000003,0.0,1.3974300447177601,1684,-26.7,99,P-GPS,
0.37665305473711697,36.924112435816205,17900,2018-04-16 06:20:52,1645.5809852585949,19.000000608,0.0,0.918432029389824,1645.5809852585949,19.000000608,0.0,1.3974300447177601,1684,-26.6,99,P-GPS,
0.376652977224811,36.92411242862379,18000,2018-04-16 06:20:52,1646.080985274595,19.500000624000002,0.0,0.912361029195552,1646.080985274595,19.500000624000002,0.0,1.3974300447177601,1684,-26.7,99,P-GPS,
0.37665288308202105,36.9241124492911,18100,2018-04-16 06:20:52,1646.5809852905948,20.00000064,0.0,0.9029100288931201,1646.5809852905948,20.00000064,0.0,1.3974300447177601,1684,-26.7,99,P-GPS,
0.37665278250932,36.9241124824681,18200,2018-04-16 06:20:52,1647.080985306595,20.500000655999997,0.0,0.8920350285451201,1647.080985306595,20.500000655999997,0.0,1.3974300447177601,1684,-26.6,99,P-GPS,
0.37665270126299205,36.9241125362493,18300,2018-04-16 06:20:52,1647.6809853257948,21.1000006752,0.0,0.881293028201376,1647.6809853257948,21.1000006752,0.0,1.3974300447177601,1684,-26.6,99,P-GPS,
0.376652615800623,36.9241125679681,18400,2018-04-16 06:20:52,1648.1809853417947,21.600000691199998,0.0,0.8718170278981442,1648.1809853417947,21.600000691199998,0.0,1.3974300447177601,1684,-26.7,99,P-GPS,
0.37665252179706393,36.9241125761322,18500,2018-04-16 06:20:52,1648.680985357795,22.1000007072,0.0,0.863387027628384,1648.680985357795,22.1000007072,0.0,1.3974300447177601,1684,-26.7,99,P-GPS,
0.37665240620441,36.92411255694871,18600,2018-04-16 06:20:53,1649.1809853737948,22.6000007232,0.0,0.855271027368672,1649.1809853737948,22.6000007232,0.0,1.3974300447177601,1684,-26.8,99,P-GPS,
0.37665226499796,36.924112517141296,18700,2018-04-16 06:20:53,1649.6809853897948,23.100000739200006,0.0,0.846772027096704,1649.6809853897948,23.100000739200006,0.0,1.3974300447177601,1684,-26.9,99,P-GPS,
0.37665209355293294,36.92411245718,18800,2018-04-16 06:20:53,1650.180985405795,23.6000007552,0.0,0.837671026805472,1650.180985405795,23.6000007552,0.0,1.3974300447177601,1684,-27.1,99,P-GPS,
0.376651929530354,36.9241124128979,18900,2018-04-16 06:20:53,1650.7809854249947,24.2000007744,0.0,0.8282890265052479,1650.7809854249947,24.2000007744,0.0,1.3974300447177601,1684,-27.3,99,P-GPS,
0.376651750339634,36.9241123647016,19000,2018-04-16 06:20:53,1651.280985440995,24.7000007904,0.0,0.8184010261888321,1651.280985440995,24.7000007904,0.0,1.3974300447177601,1684,-27.3,99,P-GPS,
0.37665157943647204,36.9241123254247,19100,2018-04-16 06:20:53,1651.7809854569948,25.200000806400006,0.0,0.8087940258814079,1651.7809854569948,25.200000806400006,0.0,1.3974300447177601,1684,-27.6,99,P-GPS,
0.37665139401410297,36.924112285335205,19200,2018-04-16 06:20:53,1652.2809854729949,25.7000008224,0.0,0.79856502555408,1652.2809854729949,25.7000008224,0.0,1.3974300447177601,1684,-28.1,99,P-GPS,
0.37665122159526704,36.924112263096205,19300,2018-04-16 06:20:53,1652.7809854889947,26.200000838399998,0.0,0.7881460252206721,1652.7809854889947,26.200000838399998,0.0,1.3974300447177601,1684,-28.6,99,P-GPS,
0.37665102264826394,36.9241122532995,19400,2018-04-16 06:20:53,1653.3809855081947,26.8000008576,0.0,0.7751600248051199,1653.3809855081947,26.8000008576,0.0,1.3974300447177601,1684,-29.1,99,P-GPS,
0.376650824318034,36.9241122722313,19500,2018-04-16 06:20:53,1653.8809855241948,27.3000008736,0.0,0.760077024322464,1653.8809855241948,27.3000008736,0.0,1.3974300447177601,1675,-29.6,99,P-GPS,
0.376650619447159,36.9241122847389,19600,2018-04-16 06:20:53,1654.3809855401948,27.8000008896,0.0,0.745507023856224,1654.3809855401948,27.8000008896,0.0,1.3974300447177601,1656,-30.0,99,P-GPS,
0.376650424379109,36.924112290698,19700,2018-04-16 06:20:54,1654.9809855593949,28.400000908800006,0.0,0.7325730234423361,1654.9809855593949,28.400000908800006,0.0,1.3974300447177601,1651,-30.0,99,P-GPS,
0.37665020593596793,36.924112277275,19800,2018-04-16 06:20:54,1655.480985575395,28.9000009248,0.0,0.7204750230552001,1655.480985575395,28.9000009248,0.0,1.3974300447177601,1645,-30.0,99,P-GPS,
0.37664999242782504,36.9241122564428,19900,2018-04-16 06:20:54,1655.880985588195,29.300000937600004,0.0,0.709996022719872,1655.880985588195,29.300000937600004,0.0,1.3974300447177601,1635,-30.0,99,P-GPS,
0.37664976938473604,36.924112214095395,20000,2018-04-16 06:20:54,1656.3809856041948,29.8000009536,0.0,0.7017540224561281,1656.3809856041948,29.8000009536,0.0,1.3974300447177601,1637,-30.0,99,P-GPS,
0.37664959024653294,36.924112153822996,20100,2018-04-16 06:20:54,1656.8809856201947,30.300000969600003,0.0,0.6983250223464,1656.8809856201947,30.300000969600003,0.0,1.3974300447177601,1639,-30.1,99,P-GPS,
0.37664940582606504,36.924112089445295,20200,2018-04-16 06:20:54,1657.380985636195,30.8000009856,0.0,0.6956750222616,1657.380985636195,30.8000009856,0.0,1.3974300447177601,1637,-30.1,99,P-GPS,
0.376649241826284,36.9241120575434,20300,2018-04-16 06:20:54,1657.8809856521948,31.300001001600002,0.0,0.691303022121696,1657.8809856521948,31.300001001600002,0.0,1.3974300447177601,1639,-30.1,99,P-GPS,
0.37664909161046795,36.9241120399996,20400,2018-04-16 06:20:54,1658.3809856681949,31.800001017600003,0.0,0.68651502196848,1658.3809856681949,31.800001017600003,0.0,1.3974300447177601,1651,-30.0,99,P-GPS,
0.376648950407274,36.9241120219232,20500,2018-04-16 06:20:54,1658.7809856809947,32.2000010304,0.0,0.682526021840832,1658.7809856809947,32.2000010304,0.0,1.3974300447177601,1674,-30.0,99,P-GPS,
0.37664881417531393,36.9241120030492,20600,2018-04-16 06:20:54,1659.2809856969948,32.700001046400004,0.0,0.6791550217329602,1659.2809856969948,32.700001046400004,0.0,1.3974300447177601,1684,-30.0,99,P-GPS,
0.37664870184036103,36.9241119871349,20700,2018-04-16 06:20:55,1659.7809857129948,33.2000010624,0.0,0.676659021653088,1659.7809857129948,33.2000010624,0.0,1.3974300447177601,1684,-30.0,99,P-GPS,
0.37664858533699996,36.924111965102,20800,2018-04-16 06:20:55,1660.280985728995,33.70000107840001,0.0,0.6748960215966721,1660.280985728995,33.70000107840001,0.0,1.3974300447177601,1684,-30.0,99,P-GPS,
0.37664848091994896,36.9241119601755,20900,2018-04-16 06:20:55,1660.7809857449947,34.2000010944,0.0,0.6719540215025279,1660.7809857449947,34.2000010944,0.0,1.3974300447177601,1684,-30.0,99,P-GPS,
0.376648371702653,36.9241119609732,21000,2018-04-16 06:20:55,1661.280985760995,34.7000011104,0.0,0.6684430213901761,1661.280985760995,34.7000011104,0.0,1.3974300447177601,1684,-30.0,99,P-GPS,
0.376648282130498,36.9241119755759,21100,2018-04-16 06:20:55,1661.7809857769948,35.2000011264,0.0,0.664217021254944,1661.7809857769948,35.2000011264,0.0,1.3974300447177601,1684,-30.0,99,P-GPS,
0.376648182314209,36.92411198816,21200,2018-04-16 06:20:55,1662.2809857929947,35.7000011424,0.0,0.6600560211217921,1662.2809857929947,35.7000011424,0.0,1.3974300447177601,1684,-30.0,99,P-GPS,
0.376648102061232,36.924111991571,21300,2018-04-16 06:20:55,1662.780985808995,36.200001158400006,0.0,0.6575540210417279,1662.780985808995,36.200001158400006,0.0,1.3974300447177601,1684,-30.0,99,P-GPS,
0.376648025716521,36.9241119768569,21400,2018-04-16 06:20:55,1663.3809858281948,36.8000011776,0.0,0.657227021031264,1663.3809858281948,36.8000011776,0.0,1.3974300447177601,1684,-30.1,99,P-GPS,
0.376647969568586,36.9241119670184,21500,2018-04-16 06:20:55,1663.8809858441948,37.3000011936,0.0,0.656952021022464,1663.8809858441948,37.3000011936,0.0,1.3974300447177601,1684,-30.1,99,P-GPS,
0.376647912892221,36.9241119477825,21600,2018-04-16 06:20:55,1664.3809858601949,37.800001209600005,0.0,0.657749021047968,1664.3809858601949,37.800001209600005,0.0,1.3974300447177601,1684,-30.1,99,P-GPS,
0.37664788408423205,36.924111913682104,21700,2018-04-16 06:20:56,1664.880985876195,38.3000012256,0.0,0.660833021146656,1664.880985876195,38.3000012256,0.0,1.3974300447177601,1684,-30.0,99,P-GPS,
0.376647835301546,36.9241118546645,21800,2018-04-16 06:20:56,1665.3809858921948,38.8000012416,0.0,0.6662460213198721,1665.3809858921948,38.8000012416,0.0,1.3974300447177601,1684,-30.1,99,P-GPS,
0.376647756176063,36.9241118097069,21900,2018-04-16 06:20:56,1665.8809859081948,39.3000012576,0.0,0.6695990214271681,1665.8809859081948,39.3000012576,0.0,1.3974300447177601,1684,-30.1,99,P-GPS,
0.376647642349049,36.9241117607472,22000,2018-04-16 06:20:56,1666.3809859241949,39.80000127360001,0.0,0.6729310215337921,1666.3809859241949,39.80000127360001,0.0,1.3974300447177601,1684,-30.1,99,P-GPS,
0.37664754619146706,36.924111731662705,22100,2018-04-16 06:20:56,1666.980985943395,40.400001292800006,0.0,0.6746000215872,1666.980985943395,40.400001292800006,0.0,1.3974300447177601,1684,-30.0,99,P-GPS,
0.37664746091412893,36.924111712476,22200,2018-04-16 06:20:56,1667.480985959395,40.90000130880001,0.0,0.6755010216160321,1667.480985959395,40.90000130880001,0.0,1.3974300447177601,1684,-30.0,99,P-GPS,
0.37664741620906705,36.9241117112052,22300,2018-04-16 06:20:56,1667.9809859753948,41.4000013248,0.0,0.675058021601856,1667.9809859753948,41.4000013248,0.0,1.3974300447177601,1684,-30.0,99,P-GPS,
0.37664736285330297,36.92411169804029,22400,2018-04-16 06:20:56,1668.480985991395,41.9000013408,0.0,0.675866021627712,1668.480985991395,41.9000013408,0.0,1.3974300447177601,1684,-30.0,99,P-GPS,
0.37664730553492404,36.924111698184795,22500,2018-04-16 06:20:56,1668.980986007395,42.4000013568,0.0,0.6752120216067841,1668.980986007395,42.4000013568,0.0,1.3974300447177601,1684,-30.0,99,P-GPS,
0.376647240427901,36.924111696035,22600,2018-04-16 06:20:57,1669.4809860233947,42.900001372800006,0.0,0.6747980215935361,1669.4809860233947,42.900001372800006,0.0,1.3974300447177601,1684,-30.0,99,P-GPS,
0.376647202478845,36.9241117116682,22700,2018-04-16 06:20:57,1670.080986042595,43.500001391999994,0.0,0.6727200215270399,1670.080986042595,43.500001391999994,0.0,1.3974300447177601,1684,-30.0,99,P-GPS,
0.37664717623077104,36.924111738676295,22800,2018-04-16 06:20:57,1670.5809860585948,44.00000140800001,0.0,0.6695010214240321,1670.5809860585948,44.00000140800001,0.0,1.3974300447177601,1684,-30.0,99,P-GPS,
0.376647129563433,36.9241117134658,22900,2018-04-16 06:20:57,1671.0809860745949,44.500001424,0.0,0.6719310215017921,1671.0809860745949,44.500001424,0.0,1.3974300447177601,1684,-30.0,99,P-GPS,
0.376647087776339,36.924111715500004,23000,2018-04-16 06:20:57,1671.580986090595,45.00000144,0.0,0.6714110214851521,1671.580986090595,45.00000144,0.0,1.3974300447177601,1684,-30.0,99,P-GPS,
0.376646947915798,36.9241117144781,23200,2018-04-16 06:20:57,1672.5809861225948,46.000001471999994,0.0,0.670773021464736,1672.5809861225948,46.000001471999994,0.0,1.3974300447177601,1684,-30.0,99,P-GPS,
0.376646862234606,36.924111742145705,23300,2018-04-16 06:20:57,1673.0809861385949,46.50000148800001,0.0,0.667414021357248,1673.0809861385949,46.50000148800001,0.0,1.3974300447177601,1684,-30.0,99,P-GPS,
0.37664676891071996,36.92411175804661,23400,2018-04-16 06:20:57,1673.580986154595,47.000001504000004,0.0,0.6654910212957121,1673.580986154595,47.000001504000004,0.0,1.3974300447177601,1684,-30.0,99,P-GPS,
0.37664668028326603,36.924111760388605,23500,2018-04-16 06:20:57,1674.0809861705948,47.500001520000005,0.0,0.6652330212874561,1674.0809861705948,47.500001520000005,0.0,1.3974300447177601,1684,-30.1,99,P-GPS,
0.376646587602615,36.924111745503204,23600,2018-04-16 06:20:58,1674.5809861865948,48.000001536000006,0.0,0.667047021345504,1674.5809861865948,48.000001536000006,0.0,1.3974300447177601,1684,-30.0,99,P-GPS,
0.376646532163664,36.9241117480336,23700,2018-04-16 06:20:58,1675.1809862057949,48.6000015552,0.0,0.6669370213419841,1675.1809862057949,48.6000015552,0.0,1.3974300447177601,1684,-30.0,99,P-GPS,
0.376646412003733,36.9241117874684,23900,2018-04-16 06:20:58,1676.180986237795,49.6000015872,0.0,0.6631240212199679,1676.180986237795,49.6000015872,0.0,1.3974300447177601,1684,-30.0,99,P-GPS,
0.376646345254526,36.9241118014293,24000,2018-04-16 06:20:58,1676.6809862537948,50.100001603200006,0.0,0.6620070211842239,1676.6809862537948,50.100001603200006,0.0,1.3974300447177601,1684,-30.0,99,P-GPS,
0.376646300240874,36.9241118272212,24100,2018-04-16 06:20:58,1677.1809862697949,50.6000016192,0.0,0.6594850211035201,1677.1809862697949,50.6000016192,0.0,1.3974300447177601,1684,-30.0,99,P-GPS,
0.376646248001714,36.9241118515174,24200,2018-04-16 06:20:58,1677.680986285795,51.1000016352,0.0,0.6572350210315201,1677.680986285795,51.1000016352,0.0,1.3974300447177601,1684,-30.0,99,P-GPS,
0.376646206312021,36.924111896945,24300,2018-04-16 06:20:58,1678.180986301795,51.600001651199996,0.0,0.652594020883008,1678.180986301795,51.600001651199996,0.0,1.3974300447177601,1684,-30.0,99,P-GPS,
0.37664616977910104,36.9241119261554,24400,2018-04-16 06:20:58,1678.6809863177948,52.1000016672,0.0,0.6497330207914561,1678.6809863177948,52.1000016672,0.0,1.3974300447177601,1684,-30.0,99,P-GPS,
0.37664615797715606,36.9241119447125,24500,2018-04-16 06:20:58,1679.1809863337946,52.600001683200006,0.0,0.6478060207297921,1679.1809863337946,52.600001683200006,0.0,1.3974300447177601,1684,-30.0,99,P-GPS,
0.376646149251445,36.92411196544511,24600,2018-04-16 06:20:59,1679.680986349795,53.1000016992,0.0,0.645607020659424,1679.680986349795,53.1000016992,0.0,1.3974300447177601,1684,-30.0,99,P-GPS,
0.376646109614507,36.924111943467395,24700,2018-04-16 06:20:59,1680.1809863657948,53.6000017152,0.0,0.64849002075168,1680.1809863657948,53.6000017152,0.0,1.3974300447177601,1684,-30.0,99,P-GPS,
0.376646052961348,36.9241119408711,24800,2018-04-16 06:20:59,1680.6809863817948,54.100001731199995,0.0,0.649473020783136,1680.6809863817948,54.100001731199995,0.0,1.3974300447177601,1684,-30.0,99,P-GPS,
0.37664599381381897,36.9241119752258,24900,2018-04-16 06:20:59,1681.1809863977949,54.6000017472,0.0,0.6464740206871681,1681.1809863977949,54.6000017472,0.0,1.3974300447177601,1684,-30.0,99,P-GPS,
0.37664593948109,36.924112014302004,25000,2018-04-16 06:20:59,1681.680986413795,55.1000017632,0.0,0.642958020574656,1681.680986413795,55.1000017632,0.0,1.3974300447177601,1684,-30.0,99,P-GPS,
0.376645880663118,36.92411201964121,25100,2018-04-16 06:20:59,1682.1809864297948,55.6000017792,0.0,0.6432930205853761,1682.1809864297948,55.6000017792,0.0,1.3974300447177601,1684,-30.0,99,P-GPS,
0.37664584749832897,36.924112038386205,25200,2018-04-16 06:20:59,1682.7809864489948,56.2000017984,0.0,0.6417820205370239,1682.7809864489948,56.2000017984,0.0,1.3974300447177601,1684,-30.0,99,P-GPS,
0.376645815529938,36.9241120601044,25300,2018-04-16 06:20:59,1683.2809864649948,56.700001814400004,0.0,0.6399480204783361,1683.2809864649948,56.700001814400004,0.0,1.3974300447177601,1684,-30.0,99,P-GPS,
0.3766457970732561,36.9241120856848,25400,2018-04-16 06:20:59,1683.7809864809947,57.200001830400005,0.0,0.637469020399008,1683.7809864809947,57.200001830400005,0.0,1.3974300447177601,1684,-30.0,98,P-GPS,
0.376645758292981,36.9241120721291,25500,2018-04-16 06:20:59,1684.280986496995,57.7000018464,0.0,0.639668020469376,1684.280986496995,57.7000018464,0.0,1.3974300447177601,1684,-30.0,98,P-GPS,
0.376645733931052,36.9241120635132,25600,2018-04-16 06:20:59,1684.7809865129948,58.2000018624,0.0,0.641074020514368,1684.7809865129948,58.2000018624,0.0,1.3974300447177601,1684,-30.0,98,P-GPS,
0.376645731783134,36.92411201448721,25700,2018-04-16 06:21:00,1685.2809865289948,58.7000018784,0.35999970196000003,0.646486020687552,1685.2809865289948,58.7000018784,0.35999970196000003,1.3974300447177601,1684,-30.1,98,P-GPS,
0.376645742170775,36.9241119822625,25800,2018-04-16 06:21:00,1685.780986544995,59.2000018944,0.0,0.6498210207942721,1685.780986544995,59.2000018944,0.35999970196000003,1.3974300447177601,1684,-30.1,98,P-GPS,
0.37664570311091705,36.9241119630994,25900,2018-04-16 06:21:00,1686.280986560995,59.700001910400005,0.0,0.6526650208852801,1686.280986560995,59.700001910400005,0.35999970196000003,1.3974300447177601,1667,-30.0,98,P-GPS,
0.376645670497255,36.92411198787529,26000,2018-04-16 06:21:00,1686.880986580195,60.30000192960001,0.0,0.650597020819104,1686.880986580195,60.30000192960001,0.35999970196000003,1.3974300447177601,1572,-30.0,98,P-GPS,
0.376645630757064,36.9241120429551,26100,2018-04-16 06:21:00,1687.3809865961948,60.800001945599995,0.0,0.6453930206525761,1687.3809865961948,60.800001945599995,0.35999970196000003,1.3974300447177601,1372,-30.0,98,P-GPS,
0.37664560795900104,36.92411211598721,26200,2018-04-16 06:21:00,1687.8809866121949,61.3000019616,0.0,0.6379090204130881,1687.8809866121949,61.3000019616,0.35999970196000003,1.3974300447177601,1282,-30.0,98,P-GPS,
0.37664560497294397,36.9241121710413,26300,2018-04-16 06:21:00,1688.2809866249947,61.7000019744,0.0,0.63197002022304,1688.2809866249947,61.7000019744,0.35999970196000003,1.3974300447177601,1345,-30.0,98,P-GPS,
0.3766456145929761,36.9241122457987,26400,2018-04-16 06:21:00,1688.6809866377948,62.1000019872,0.0,0.62361001995552,1688.6809866377948,62.1000019872,0.35999970196000003,1.3974300447177601,1371,-30.0,98,P-GPS,
0.3766456343363839,36.9241123122812,26500,2018-04-16 06:21:00,1688.9809866473947,62.4000019968,0.0,0.6159280197096961,1688.9809866473947,62.4000019968,0.35999970196000003,1.3974300447177601,1395,-30.0,98,P-GPS,
0.376645654202739,36.9241123857185,26600,2018-04-16 06:21:01,1689.2809866569949,62.7000020064,0.0,0.607487019439584,1689.2809866569949,62.7000020064,0.35999970196000003,1.3974300447177601,1423,-30.0,98,P-GPS,
0.37664562709856103,36.924112411186,26700,2018-04-16 06:21:01,1689.4809866633948,62.9000020128,0.0,0.605312019369984,1689.4809866633948,62.9000020128,0.35999970196000003,1.3974300447177601,1446,-30.0,98,P-GPS,
0.37664559809210596,36.9241124114119,26800,2018-04-16 06:21:01,1689.780986672995,63.2000020224,0.0,0.6059470193903039,1689.780986672995,63.2000020224,0.35999970196000003,1.3974300447177601,1460,-30.0,98,P-GPS,
0.376645582617206,36.924112406964504,26900,2018-04-16 06:21:01,1689.9809866793948,63.4000020288,0.0,0.606789019417248,1689.9809866793948,63.4000020288,0.35999970196000003,1.3974300447177601,1486,-30.0,98,P-GPS,
0.376645569301522,36.92411240257071,27000,2018-04-16 06:21:01,1690.2809866889947,63.7000020384,0.0,0.607578019442496,1690.2809866889947,63.7000020384,0.35999970196000003,1.3974300447177601,1504,-30.0,98,P-GPS,
0.376645556869064,36.924112359760706,27100,2018-04-16 06:21:01,1690.480986695395,63.900002044800004,0.0,0.612524019600768,1690.480986695395,63.900002044800004,0.35999970196000003,1.3974300447177601,1521,-30.1,98,P-GPS,
0.376645563177249,36.9241123366513,27200,2018-04-16 06:21:01,1690.780986704995,64.2000020544,0.0,0.6148870196763839,1690.780986704995,64.2000020544,0.35999970196000003,1.3974300447177601,1524,-30.0,98,P-GPS,
0.37664561782223205,36.9241122640946,27300,2018-04-16 06:21:01,1691.080986714595,64.500002064,0.0,0.621544019889408,1691.080986714595,64.500002064,0.35999970196000003,1.3974300447177601,1525,-30.0,98,P-GPS,
0.3766456805958471,36.9241122155964,27400,2018-04-16 06:21:01,1691.3809867241948,64.8000020736,0.0,0.625496020015872,1691.3809867241948,64.8000020736,0.35999970196000003,1.3974300447177601,1538,-30.0,98,P-GPS,
0.37664573695649795,36.924112125979796,27500,2018-04-16 06:21:01,1691.7809867369947,65.2000020864,0.0,0.6341730202935361,1691.7809867369947,65.2000020864,0.35999970196000003,1.3974300447177601,1549,-30.1,98,P-GPS,
0.37664589601283094,36.9241119744823,27700,2018-04-16 06:21:02,1692.380986756195,65.8000021056,0.0,0.6480160207365121,1692.380986756195,65.8000021056,0.35999970196000003,1.3974300447177601,1549,-30.0,98,P-GPS,
0.376645978271135,36.9241119033008,27800,2018-04-16 06:21:02,1692.7809867689948,66.20000211840001,0.0,0.6546270209480639,1692.7809867689948,66.20000211840001,0.35999970196000003,1.3974300447177601,1548,-30.0,98,P-GPS,
0.3766460517129421,36.9241118672197,27900,2018-04-16 06:21:02,1693.080986778595,66.500002128,0.0,0.6576250210440001,1693.080986778595,66.500002128,0.35999970196000003,1.3974300447177601,1551,-30.0,98,P-GPS,
0.376646124301444,36.9241118347364,28000,2018-04-16 06:21:02,1693.4809867913948,66.9000021408,0.0,0.6603470211311041,1693.4809867913948,66.9000021408,0.35999970196000003,1.3974300447177601,1554,-30.0,98,P-GPS,
0.3766462025359639,36.9241118296719,28100,2018-04-16 06:21:02,1693.780986800995,67.2000021504,0.0,0.660083021122656,1693.780986800995,67.2000021504,0.35999970196000003,1.3974300447177601,1554,-30.0,98,P-GPS,
0.3766462612946,36.9241118292666,28200,2018-04-16 06:21:02,1694.180986813795,67.60000216319999,0.0,0.659584021106688,1694.180986813795,67.60000216319999,0.35999970196000003,1.3974300447177601,1554,-30.0,98,P-GPS,
0.37664623424319393,36.9241117627124,28300,2018-04-16 06:21:02,1694.4809868233947,67.9000021728,0.0,0.667202021350464,1694.4809868233947,67.9000021728,0.35999970196000003,1.3974300447177601,1555,-30.0,98,P-GPS,
0.37664621540382703,36.9241116934639,28400,2018-04-16 06:21:02,1694.8809868361948,68.30000218560001,0.0,0.6750500216016,1694.8809868361948,68.30000218560001,0.35999970196000003,1.3974300447177601,1554,-30.0,98,P-GPS,
0.37664623215471404,36.9241116497268,28500,2018-04-16 06:21:02,1695.1809868457947,68.6000021952,0.0,0.679744021751808,1695.1809868457947,68.6000021952,0.35999970196000003,1.3974300447177601,1552,-30.0,98,P-GPS,
0.376646247524885,36.9241116036985,28600,2018-04-16 06:21:03,1695.5809868585948,69.000002208,0.0,0.6847110219107521,1695.5809868585948,69.000002208,0.35999970196000003,1.3974300447177601,1552,-30.0,98,P-GPS,
0.376646263355396,36.92411160077621,28700,2018-04-16 06:21:03,1695.9809868713949,69.4000022208,0.0,0.6849000219168,1695.9809868713949,69.4000022208,0.35999970196000003,1.3974300447177601,1557,-30.0,98,P-GPS,
0.37664625623115705,36.9241115749271,28800,2018-04-16 06:21:03,1696.3809868841947,69.8000022336,0.0,0.6878260220104321,1696.3809868841947,69.8000022336,0.35999970196000003,1.3974300447177601,1565,-30.0,98,P-GPS,
0.376646245212291,36.9241115531495,28900,2018-04-16 06:21:03,1696.6809868937949,70.1000022432,0.0,0.6903350220907201,1696.6809868937949,70.1000022432,0.35999970196000003,1.3974300447177601,1571,-30.0,98,P-GPS,
0.37664621397619,36.924111502321104,29000,2018-04-16 06:21:03,1697.0809869065947,70.50000225600002,0.0,0.6962460222798721,1697.0809869065947,70.50000225600002,0.35999970196000003,1.3974300447177601,1572,-30.0,98,P-GPS,
0.37664619080109096,36.9241114561853,29100,2018-04-16 06:21:03,1697.4809869193948,70.90000226880001,0.0,0.701573022450336,1697.4809869193948,70.90000226880001,0.35999970196000003,1.3974300447177601,1572,-30.0,98,P-GPS,
0.37664614834328203,36.9241113878634,29200,2018-04-16 06:21:03,1697.780986928995,71.2000022784,0.0,0.7095560227057921,1697.780986928995,71.2000022784,0.35999970196000003,1.3974300447177601,1574,-30.0,98,P-GPS,
0.37664610181538,36.9241113561901,29300,2018-04-16 06:21:03,1698.1809869417948,71.6000022912,0.0,0.713549022833568,1698.1809869417948,71.6000022912,0.35999970196000003,1.3974300447177601,1574,-30.0,98,P-GPS,
0.376646047574353,36.924111300602796,29400,2018-04-16 06:21:03,1698.580986954595,72.00000230399999,0.0,0.7203080230498561,1698.580986954595,72.00000230399999,0.35999970196000003,1.3974300447177601,1580,-30.0,98,P-GPS,
0.376646021689625,36.9241112532137,29500,2018-04-16 06:21:03,1698.9809869673948,72.40000231680001,0.0,0.725854023227328,1698.9809869673948,72.40000231680001,0.35999970196000003,1.3974300447177601,1582,-30.0,98,P-GPS,
0.376645967232524,36.9241112081635,29600,2018-04-16 06:21:03,1699.3809869801948,72.8000023296,0.0,0.7315090234082879,1699.3809869801948,72.8000023296,0.35999970196000003,1.3974300447177601,1584,-30.0,98,P-GPS,
0.37664589827881106,36.924111219663104,29700,2018-04-16 06:21:04,1699.7809869929947,73.2000023424,0.0,0.7311650233972802,1699.7809869929947,73.2000023424,0.35999970196000003,1.3974300447177601,1584,-30.0,98,P-GPS,
0.37664581792741497,36.9241112281654,29800,2018-04-16 06:21:04,1700.1809870057948,73.6000023552,0.0,0.731407023405024,1700.1809870057948,73.6000023552,0.35999970196000003,1.3974300447177601,1585,-30.0,98,P-GPS,
0.37664576819615997,36.924111264295796,29900,2018-04-16 06:21:04,1700.5809870185947,74.00000236800001,0.0,0.7282160233029121,1700.5809870185947,74.00000236800001,0.35999970196000003,1.3974300447177601,1586,-30.0,98,P-GPS,
0.376645725897938,36.9241113105151,30000,2018-04-16 06:21:04,1700.9809870313948,74.4000023808,0.0,0.72384002316288,1700.9809870313948,74.4000023808,0.35999970196000003,1.3974300447177601,1586,-30.0,98,P-GPS,
0.37664566395203003,36.924111277436104,30100,2018-04-16 06:21:04,1701.3809870441946,74.8000023936,0.0,0.7285610233139521,1701.3809870441946,74.8000023936,0.35999970196000003,1.3974300447177601,1586,-30.0,98,P-GPS,
0.37664562852568895,36.924111286012796,30200,2018-04-16 06:21:04,1701.7809870569947,75.20000240640002,0.0,0.7282690233046081,1701.7809870569947,75.20000240640002,0.35999970196000003,1.3974300447177601,1587,-30.0,98,P-GPS,
0.376645615434271,36.924111300716795,30300,2018-04-16 06:21:04,1702.180987069795,75.60000241920001,0.0,0.726903023260896,1702.180987069795,75.60000241920001,0.35999970196000003,1.3974300447177601,1587,-30.0,98,P-GPS,
0.37664559616138205,36.9241113119289,30400,2018-04-16 06:21:04,1702.580987082595,76.000002432,0.0,0.7260430232333761,1702.580987082595,76.000002432,0.35999970196000003,1.3974300447177601,1587,-30.0,98,P-GPS,
0.3766455792174221,36.924111332517,30500,2018-04-16 06:21:04,1702.980987095395,76.4000024448,0.0,0.724117023171744,1702.980987095395,76.4000024448,0.35999970196000003,1.3974300447177601,1589,-30.0,98,P-GPS,
0.37664557021650397,36.9241113659574,30600,2018-04-16 06:21:05,1703.3809871081949,76.8000024576,0.0,0.72063502306032,1703.3809871081949,76.8000024576,0.35999970196000003,1.3974300447177601,1599,-30.0,98,P-GPS,
0.376645522535154,36.9241113557094,30700,2018-04-16 06:21:05,1703.780987120995,77.20000247040001,0.0,0.72272002312704,1703.780987120995,77.20000247040001,0.35999970196000003,1.3974300447177601,1615,-30.0,98,P-GPS,
0.37664546287273204,36.9241113600839,30800,2018-04-16 06:21:05,1704.1809871337948,77.6000024832,0.0,0.7235010231520321,1704.1809871337948,77.6000024832,0.35999970196000003,1.3974300447177601,1609,-30.0,98,P-GPS,
0.376645403591976,36.924111399911205,30900,2018-04-16 06:21:05,1704.580987146595,78.00000249600001,0.0,0.7204730230551359,1704.580987146595,78.00000249600001,0.35999970196000003,1.3974300447177601,1587,-30.0,98,P-GPS,
0.37664532775600107,36.9241114162376,31000,2018-04-16 06:21:05,1704.980987159395,78.4000025088,0.0,0.7204690230550079,1704.980987159395,78.4000025088,0.35999970196000003,1.3974300447177601,1584,-30.0,98,P-GPS,
0.37664526968059897,36.9241114364296,31100,2018-04-16 06:21:05,1705.3809871721949,78.8000025216,0.0,0.7197030230304962,1705.3809871721949,78.8000025216,0.35999970196000003,1.3974300447177601,1571,-30.0,98,P-GPS,
