latitude,longitude,time_millisecond,datetime_utc,altitude_m,ascent_m,speed_kph,distance_m,max_altitude_m,max_ascent_m,max_speed_kph,max_distance_m,rc_throttle,gimbal_pitch_degrees,battery_percent,flycState,message
0.35006563334253804,36.9146539837755,100,2017-11-12 06:53:42,1650.1780313056834,0.0,0.0,0.0,1650.1780313056834,0.0,0.0,0.0,1024,0.0,100,Motors_Started,
0.35006568385600606,36.914654081403604,200,2017-11-12 06:53:42,1650.1780313056834,0.0,0.0,0.012223800391161601,1650.1780313056834,0.0,0.0,0.012223800391161601,1024,0.0,100,Motors_Started,
0.35006571204857,36.914654160549205,300,2017-11-12 06:53:42,1650.1780313056834,0.0,0.0,0.021518400688588804,1650.1780313056834,0.0,0.0,0.021518400688588804,1024,0.0,100,Motors_Started,
0.35006574252182,36.914654226120895,400,2017-11-12 06:53:42,1650.1780313056834,0.0,0.0,0.029558500945872,1650.1780313056834,0.0,0.0,0.029558500945872,1024,0.0,100,Motors_Started,
0.350065781211309,36.9146542856457,500,2017-11-12 06:53:42,1650.1780313056834,0.0,0.0,0.0373804011961728,1650.1780313056834,0.0,0.0,0.0373804011961728,1024,0.0,100,Motors_Started,
0.35006581021781497,36.9146543450899,600,2017-11-12 06:53:42,1650.1780313056834,0.0,0.0,0.0447358014315456,1650.1780313056834,0.0,0.0,0.0447358014315456,1024,0.0,100,Motors_Started,
0.350065826175192,36.914654422862704,700,2017-11-12 06:53:42,1650.1780313056834,0.0,0.0,0.0533297017065504,1650.1780313056834,0.0,0.0,0.0533297017065504,1024,0.0,100,Motors_Started,
0.350065844197513,36.9146544905672,800,2017-11-12 06:53:42,1650.1780313056834,0.0,0.0,0.061040701953302405,1650.1780313056834,0.0,0.0,0.061040701953302405,1024,0.0,100,Motors_Started,
0.35006587476027695,36.9146545516734,900,2017-11-12 06:53:42,1650.1780313056834,0.0,0.0,0.0686222021959104,1650.1780313056834,0.0,0.0,0.0686222021959104,1024,0.0,100,Motors_Started,
0.350065904850016,36.914654614849,1000,2017-11-12 06:53:42,1650.1780313056834,0.0,0.0,0.07639750244472,1650.1780313056834,0.0,0.0,0.07639750244472,541,0.0,100,Motors_Started,
0.35006594732745605,36.914654649702,1100,2017-11-12 06:53:43,1650.1780313056834,0.0,0.0,0.08187280261992959,1650.1780313056834,0.0,0.0,0.08187280261992959,1024,0.0,100,Motors_Started,
0.350065983691387,36.9146546739248,1200,2017-11-12 06:53:43,1650.1780313056834,0.0,0.0,0.0860704027542528,1650.1780313056834,0.0,0.0,0.0860704027542528,1024,0.0,100,Motors_Started,
0.35006600337028004,36.9146547223638,1300,2017-11-12 06:53:43,1650.1780313056834,0.0,0.0,0.09186550293969602,1650.1780313056834,0.0,0.0,0.09186550293969602,1024,0.0,100,Motors_Started,
0.35006601385078007,36.91465474552329,1400,2017-11-12 06:53:43,1650.1780313056834,0.0,0.0,0.0946902030300864,1650.1780313056834,0.0,0.0,0.0946902030300864,1024,0.0,100,Motors_Started,
0.350066017929485,36.9146547639736,1500,2017-11-12 06:53:43,1650.1780313056834,0.0,0.0,0.09672970309535041,1650.1780313056834,0.0,0.0,0.09672970309535041,1024,0.0,100,Motors_Started,
0.350066012036789,36.9146547532725,1600,2017-11-12 06:53:43,1650.1780313056834,0.0,0.0,0.0953726030519232,1650.1780313056834,0.0,0.0,0.09672970309535041,1024,0.0,100,Assisted_Takeoff,
0.350066010218841,36.9146547457836,1700,2017-11-12 06:53:43,1650.1780313056834,0.0,0.0,0.09453630302516161,1650.1780313056834,0.0,0.0,0.09672970309535041,1024,0.0,100,Assisted_Takeoff,
0.35006599657610604,36.9146547324216,1800,2017-11-12 06:53:43,1650.1780313056834,0.0,0.0,0.092534502961104,1650.1780313056834,0.0,0.0,0.09672970309535041,1024,0.0,100,Assisted_Takeoff,
0.350065990076617,36.9146547469317,1900,2017-11-12 06:53:43,1650.1780313056834,0.0,0.0,0.093680502997776,1650.1780313056834,0.0,0.0,0.09672970309535041,1024,0.0,100,Assisted_Takeoff,
0.35006599095590696,36.9146547451249,2000,2017-11-12 06:53:43,1650.1780313056834,0.0,0.0,0.09354000299328,1650.1780313056834,0.0,0.0,0.09672970309535041,1024,0.0,100,Assisted_Takeoff,
0.35006601290630796,36.9146547462505,2100,2017-11-12 06:53:44,1650.1780313056834,0.0,0.0,0.0947157030309024,1650.1780313056834,0.0,0.0,0.09672970309535041,1024,0.0,100,Assisted_Takeoff,
0.35006603410246,36.91465474545571,2200,2017-11-12 06:53:44,1650.1780313056834,0.0,0.0,0.09571120306275839,1650.1780313056834,0.0,0.0,0.09672970309535041,1024,0.0,100,Assisted_Takeoff,
0.350066054631671,36.9146547814454,2400,2017-11-12 06:53:44,1650.1780313056834,0.0,0.0,0.100316003210112,1650.1780313056834,0.0,0.0,0.100316003210112,1024,0.0,100,Assisted_Takeoff,
0.35006606049179906,36.91465478973279,2500,2017-11-12 06:53:44,1650.1780313056834,0.0,0.0,0.10143600324595202,1650.1780313056834,0.0,0.0,0.10143600324595202,1024,0.0,100,Assisted_Takeoff,
0.350066061809502,36.914654787730605,2600,2017-11-12 06:53:44,1650.1780313056834,0.0,0.0,0.101308003241856,1650.1780313056834,0.0,0.0,0.10143600324595202,1024,0.0,100,Assisted_Takeoff,
0.35006606353307396,36.9146547854057,2700,2017-11-12 06:53:44,1650.1780313056834,0.0,0.0,0.10117000323744002,1650.1780313056834,0.0,0.0,0.10143600324595202,1024,0.0,100,Assisted_Takeoff,
0.350066044216652,36.9146547739009,2800,2017-11-12 06:53:44,1650.1780313056834,0.0,0.0,0.0990354031691328,1650.1780313056834,0.0,0.0,0.10143600324595202,1024,0.0,100,Assisted_Takeoff,
0.350066013932088,36.914654768794605,2900,2017-11-12 06:53:44,1650.1780313056834,0.0,0.0,0.0970161031045152,1650.1780313056834,0.0,0.0,0.10143600324595202,1024,0.0,100,Assisted_Takeoff,
0.35006597446412707,36.9146547713829,3000,2017-11-12 06:53:44,1650.1780313056834,0.0,0.0,0.09544740305431679,1650.1780313056834,0.0,0.0,0.10143600324595202,1024,0.0,100,Assisted_Takeoff,
0.35006595276109004,36.91465479512,3100,2017-11-12 06:53:45,1650.1780313056834,0.0,0.0,0.09696530310288959,1650.1780313056834,0.0,0.0,0.10143600324595202,1024,0.0,100,Assisted_Takeoff,
0.350065928006668,36.914654817043,3200,2017-11-12 06:53:45,1650.1780313056834,0.0,0.0,0.098286003145152,1650.1780313056834,0.0,0.0,0.10143600324595202,1024,0.0,100,Assisted_Takeoff,
0.350065914251201,36.9146548303375,3300,2017-11-12 06:53:45,1650.1780313056834,0.0,0.0,0.0991887031740384,1650.1780313056834,0.0,0.0,0.10143600324595202,1024,0.0,99,Assisted_Takeoff,Setting new Return-To-Home altitude to 30m (98 ft). Setting new Maximum Flight Altitude to 150m (492 ft)
0.350065900094985,36.914654838980496,3400,2017-11-12 06:53:45,1650.1780313056834,0.0,0.0,0.0996214031878848,1650.1780313056834,0.0,0.0,0.10143600324595202,1024,0.0,99,Assisted_Takeoff,
0.350065893116937,36.9146548452461,3500,2017-11-12 06:53:45,1650.1780313056834,0.0,0.0,0.10006000320192,1650.1780313056834,0.0,0.0,0.10143600324595202,1024,0.0,99,Assisted_Takeoff,
0.35006588731065696,36.914654845408,3600,2017-11-12 06:53:45,1650.1780313056834,0.0,0.0,0.09989270319656642,1650.1780313056834,0.0,0.0,0.10143600324595202,1024,0.0,99,Assisted_Takeoff,
0.35006588542773,36.91465484642,3700,2017-11-12 06:53:45,1650.1780313056834,0.0,0.0,0.0999417031981344,1650.1780313056834,0.0,0.0,0.10143600324595202,1024,0.0,99,Assisted_Takeoff,
0.350065885679477,36.9146548422826,3800,2017-11-12 06:53:45,1650.1780313056834,0.0,0.0,0.0995081031842592,1650.1780313056834,0.0,0.0,0.10143600324595202,1024,0.0,99,Assisted_Takeoff,
0.35006588808334,36.914654841251995,3900,2017-11-12 06:53:45,1650.1780313056834,0.0,0.0,0.0994739031831648,1650.1780313056834,0.0,0.0,0.10143600324595202,1024,0.0,99,Assisted_Takeoff,
0.350065890733786,36.914654842142504,4000,2017-11-12 06:53:45,1650.1780313056834,0.0,0.0,0.0996531031888992,1650.1780313056834,0.0,0.0,0.10143600324595202,1024,0.0,99,Assisted_Takeoff,
0.350065895284193,36.91465483493371,4100,2017-11-12 06:53:46,1650.1780313056834,0.0,0.0,0.09903320316906239,1650.1780313056834,0.0,0.0,0.10143600324595202,1024,0.0,99,Assisted_Takeoff,
0.35006589902624197,36.91465482917471,4200,2017-11-12 06:53:46,1650.1780313056834,0.0,0.0,0.0985452031534464,1650.1780313056834,0.0,0.0,0.10143600324595202,1024,0.0,99,Assisted_Takeoff,
0.35006590235669,36.9146548272474,4300,2017-11-12 06:53:46,1650.1780313056834,0.0,0.0,0.0984527031504864,1650.1780313056834,0.0,0.0,0.10143600324595202,1024,0.0,99,Assisted_Takeoff,
0.35006589237268704,36.9146548221639,4400,2017-11-12 06:53:46,1650.1780313056834,0.0,0.0,0.09758080312258559,1650.1780313056834,0.0,0.0,0.10143600324595202,1024,0.0,99,Assisted_Takeoff,
0.350065865676969,36.91465482063529,4500,2017-11-12 06:53:46,1650.1780313056834,0.0,0.0,0.09658220309063041,1650.1780313056834,0.0,0.0,0.10143600324595202,1024,0.0,99,Assisted_Takeoff,
0.35006583407289105,36.9146548028198,4600,2017-11-12 06:53:46,1650.1780313056834,0.0,0.0,0.09377660300085122,1650.1780313056834,0.0,0.0,0.10143600324595202,1024,0.0,99,Assisted_Takeoff,
0.350065816877998,36.9146547723849,4700,2017-11-12 06:53:46,1650.1780313056834,0.0,0.0,0.0900403028812896,1650.1780313056834,0.0,0.0,0.10143600324595202,1024,0.0,99,Assisted_Takeoff,
0.35006579828786,36.9146547349224,4800,2017-11-12 06:53:46,1650.1780313056834,0.0,0.0,0.0855209027366688,1650.1780313056834,0.0,0.0,0.10143600324595202,1024,0.0,99,Assisted_Takeoff,
0.35006578824265006,36.914654715836704,4900,2017-11-12 06:53:46,1650.1780313056834,0.0,0.0,0.08321070266274241,1650.1780313056834,0.0,0.0,0.10143600324595202,1024,0.0,99,Assisted_Takeoff,
0.350065779415339,36.9146546941698,5000,2017-11-12 06:53:46,1650.1780313056834,0.0,0.0,0.080651502580848,1650.1780313056834,0.0,0.0,0.10143600324595202,1024,0.0,99,Assisted_Takeoff,
0.35006577447301096,36.914654682937396,5100,2017-11-12 06:53:47,1650.1780313056834,0.0,0.0,0.0793179025381728,1650.1780313056834,0.0,0.0,0.10143600324595202,1024,0.0,99,Assisted_Takeoff,
0.350065758948724,36.9146546584563,5200,2017-11-12 06:53:47,1650.1780313056834,0.0,0.0,0.0763164024421248,1650.1780313056834,0.0,0.0,0.10143600324595202,1024,0.0,99,Assisted_Takeoff,
0.35006572816996195,36.9146546226609,5300,2017-11-12 06:53:47,1650.1780313056834,0.0,0.0,0.07182500229840001,1650.1780313056834,0.0,0.0,0.10143600324595202,1024,0.0,99,Assisted_Takeoff,
0.35006569575670005,36.914654584159,5400,2017-11-12 06:53:47,1650.1780313056834,0.0,0.0,0.0671249021479968,1650.1780313056834,0.0,0.0,0.10143600324595202,1024,0.0,99,Assisted_Takeoff,
0.35006567790251597,36.9146545642913,5500,2017-11-12 06:53:47,1650.1780313056834,0.0,0.0,0.0647456020718592,1650.1780313056834,0.0,0.0,0.10143600324595202,1024,0.0,99,Assisted_Takeoff,
0.35006564822804304,36.9146545314024,5600,2017-11-12 06:53:47,1650.1780313056834,0.0,0.0,0.0609208019494656,1650.1780313056834,0.0,0.0,0.10143600324595202,1024,0.0,99,Assisted_Takeoff,
0.35006560977890305,36.9146544924809,5700,2017-11-12 06:53:47,1650.1780313056834,0.0,0.0,0.056630801812185605,1650.1780313056834,0.0,0.0,0.10143600324595202,1024,0.0,99,Assisted_Takeoff,
0.350065572192583,36.9146544541969,5800,2017-11-12 06:53:47,1650.1780313056834,0.0,0.0,0.0527529016880928,1650.1780313056834,0.0,0.0,0.10143600324595202,1024,0.0,99,Assisted_Takeoff,
0.350065550444765,36.914654433222,5900,2017-11-12 06:53:47,1650.1780313056834,0.0,0.0,0.0508233016263456,1650.1780313056834,0.0,0.0,0.10143600324595202,1024,0.0,99,Assisted_Takeoff,
0.35006551971602606,36.9146544037412,6000,2017-11-12 06:53:47,1650.1780313056834,0.0,0.0,0.04838110154819521,1650.1780313056834,0.0,0.0,0.10143600324595202,1024,0.0,99,Assisted_Takeoff,
0.35006547979497604,36.9146543652305,6100,2017-11-12 06:53:48,1650.1780313056834,0.0,0.0,0.0457271014632672,1650.1780313056834,0.0,0.0,0.10143600324595202,1024,0.0,99,Assisted_Takeoff,
0.35006544142155893,36.914654330059,6200,2017-11-12 06:53:48,1650.1780313056834,0.0,0.0,0.0440271014088672,1650.1780313056834,0.0,0.0,0.10143600324595202,1024,0.0,99,Assisted_Takeoff,
0.35006541961705,36.91465431106489,6300,2017-11-12 06:53:48,1650.1780313056834,0.0,0.0,0.0434691013910112,1650.1780313056834,0.0,0.0,0.10143600324595202,1024,0.0,99,Assisted_Takeoff,
0.35006540474813497,36.9146542861564,6400,2017-11-12 06:53:48,1650.1780313056834,0.0,0.0,0.0421537013489184,1650.1780313056834,0.0,0.0,0.10143600324595202,1024,0.0,99,Assisted_Takeoff,
0.35006539594761604,36.914654250984505,6500,2017-11-12 06:53:48,1650.1780313056834,0.0,0.0,0.0397481012719392,1650.1780313056834,0.0,0.0,0.10143600324595202,1024,0.0,99,Assisted_Takeoff,
0.35006538252364,36.9146542193716,6600,2017-11-12 06:53:48,1650.1780313056834,0.0,0.0,0.038267401224556796,1650.1780313056834,0.0,0.0,0.10143600324595202,1024,0.0,99,Assisted_Takeoff,
0.350065351152328,36.914654203710604,6700,2017-11-12 06:53:48,1650.1780313056834,0.0,0.0,0.039786501273168,1650.1780313056834,0.0,0.0,0.10143600324595202,1024,0.0,99,Assisted_Takeoff,
0.35006532461398304,36.914654180441,6800,2017-11-12 06:53:48,1650.1780313056834,0.0,0.0,0.040706501302608,1650.1780313056834,0.0,0.0,0.10143600324595202,1024,0.0,99,Assisted_Takeoff,
0.350065307345149,36.9146541473323,6900,2017-11-12 06:53:48,1650.1780313056834,0.0,0.0,0.040559601297907207,1650.1780313056834,0.0,0.0,0.10143600324595202,1024,0.0,99,Assisted_Takeoff,
0.350065284511972,36.914654118632704,7000,2017-11-12 06:53:48,1650.1780313056834,0.0,0.0,0.04159000133088,1650.1780313056834,0.0,0.0,0.10143600324595202,1027,0.0,99,Assisted_Takeoff,
0.350065248244591,36.9146541047554,7100,2017-11-12 06:53:49,1650.1780313056834,0.0,0.0,0.04488870143643841,1650.1780313056834,0.0,0.0,0.10143600324595202,1035,0.0,99,Assisted_Takeoff,
0.350065217354687,36.9146540985928,7200,2017-11-12 06:53:49,1650.1780313056834,0.0,0.0,0.0479901015356832,1650.1780313056834,0.0,0.0,0.10143600324595202,1058,0.0,99,Assisted_Takeoff,
0.35006517379676194,36.9146540867633,7400,2017-11-12 06:53:49,1650.1780313056834,0.0,0.0,0.0523719016759008,1650.1780313056834,0.0,0.0,0.10143600324595202,1202,0.0,99,Assisted_Takeoff,
0.350065137269644,36.914654061305704,7500,2017-11-12 06:53:49,1650.1780313056834,0.0,0.0,0.055836001786752,1650.1780313056834,0.0,0.0,0.10143600324595202,1274,0.0,99,Assisted_Takeoff,
0.35006510635292204,36.9146540397211,7600,2017-11-12 06:53:49,1650.1780313056834,0.0,0.0,0.058933801885881605,1650.1780313056834,0.0,0.0,0.10143600324595202,1289,0.0,99,Assisted_Takeoff,
0.35006508790855395,36.914654028989894,7700,2017-11-12 06:53:49,1650.1780313056834,0.0,0.0,0.0608636019476352,1650.1780313056834,0.0,0.0,0.10143600324595202,1306,0.0,99,Assisted_Takeoff,
0.350065065901559,36.9146540245727,7800,2017-11-12 06:53:49,1650.1780313056834,0.0,0.0,0.06326580202450562,1650.1780313056834,0.0,0.0,0.10143600324595202,1340,0.0,99,Assisted_Takeoff,
0.350065035159284,36.914654031671,7900,2017-11-12 06:53:49,1650.1780313056834,0.0,0.0,0.06673450213550401,1650.1780313056834,0.0,0.0,0.10143600324595202,1397,0.0,99,Assisted_Takeoff,
0.350065036007703,36.9146540788188,8000,2017-11-12 06:53:49,1650.1780313056834,0.0,0.0,0.0672629021524128,1650.1780313056834,0.0,0.0,0.10143600324595202,1432,0.0,99,Assisted_Takeoff,
0.350065085634636,36.9146541386917,8100,2017-11-12 06:53:50,1650.1780313056834,0.0,0.35999970196000003,0.0632979020255328,1650.1780313056834,0.0,0.35999970196000003,0.10143600324595202,1471,0.0,99,GPS_Atti,Obstacle Avoided. Revise Flight Route
0.350065176343852,36.9146542135312,8200,2017-11-12 06:53:50,1650.1780313056834,0.0,0.35999970196000003,0.05688210182022721,1650.1780313056834,0.0,0.35999970196000003,0.10143600324595202,1502,0.0,99,GPS_Atti,
0.35006527698596596,36.9146542871686,8300,2017-11-12 06:53:50,1650.278031308883,0.10000000320000002,0.35999970196000003,0.0520456016654592,1650.278031308883,0.10000000320000002,0.35999970196000003,0.10143600324595202,1514,0.0,99,GPS_Atti,
0.350065402046343,36.9146543284693,8400,2017-11-12 06:53:50,1650.378031312083,0.20000000640000004,0.35999970196000003,0.046161601477171195,1650.378031312083,0.20000000640000004,0.35999970196000003,0.10143600324595202,1506,0.0,99,GPS_Atti,
0.35006553671194396,36.914654312399705,8500,2017-11-12 06:53:50,1650.4780313152833,0.3000000096,0.35999970196000003,0.038091501218927994,1650.4780313152833,0.3000000096,0.35999970196000003,0.10143600324595202,1502,0.0,99,GPS_Atti,
0.350065668653464,36.914654284894,8600,2017-11-12 06:53:50,1650.6780313216832,0.500000016,0.0,0.0337151010788832,1650.6780313216832,0.500000016,0.35999970196000003,0.10143600324595202,1503,0.0,99,GPS_Atti,
0.350065758277194,36.914654258229206,8700,2017-11-12 06:53:50,1650.8780313280834,0.7000000224000001,0.0,0.0335339010730848,1650.8780313280834,0.7000000224000001,0.35999970196000003,0.10143600324595202,1507,0.0,99,GPS_Atti,
0.35006584193155793,36.9146542201869,8800,2017-11-12 06:53:50,1651.178031337683,1.000000032,0.0,0.0350604011219328,1651.178031337683,1.000000032,0.35999970196000003,0.10143600324595202,1510,0.0,99,GPS_Atti,
0.35006590635149204,36.914654171647,8900,2017-11-12 06:53:50,1651.4780313472831,1.3000000416000002,0.0,0.036854101179331196,1651.4780313472831,1.3000000416000002,0.35999970196000003,0.10143600324595202,1501,0.0,99,GPS_Atti,
0.350065974972265,36.914654157101296,9000,2017-11-12 06:53:50,1651.7780313568833,1.6000000512000003,0.0,0.042601001363232006,1651.7780313568833,1.6000000512000003,0.35999970196000003,0.10143600324595202,1504,0.0,99,GPS_Atti,
0.350066040397859,36.9146541457963,9100,2017-11-12 06:53:51,1652.0780313664834,1.9000000607999998,0.0,0.0487209015590688,1652.0780313664834,1.9000000607999998,0.35999970196000003,0.10143600324595202,1521,0.0,99,GPS_Atti,
0.35006608886727403,36.9146541421349,9200,2017-11-12 06:53:51,1652.378031376083,2.2000000704,0.0,0.05363080171618561,1652.378031376083,2.2000000704,0.35999970196000003,0.10143600324595202,1519,0.0,99,GPS_Atti,
0.350066103343331,36.9146541234789,9300,2017-11-12 06:53:51,1652.7780313888834,2.6000000832000003,0.0,0.054527001744864,1652.7780313888834,2.6000000832000003,0.35999970196000003,0.10143600324595202,1516,0.0,99,GPS_Atti,
0.350066120247893,36.9146541557846,9400,2017-11-12 06:53:51,1653.078031398483,2.9000000928,0.0,0.0574262018376384,1653.078031398483,2.9000000928,0.35999970196000003,0.10143600324595202,1521,0.0,99,GPS_Atti,Home Point Recorded. RTH Altitude:  30m.
0.35006615413668896,36.9146542159805,9500,2017-11-12 06:53:51,1653.4780314112832,3.3000001056,0.0,0.0634112020291584,1653.4780314112832,3.3000001056,0.35999970196000003,0.10143600324595202,1543,0.0,99,GPS_Atti,
0.350066191952364,36.9146542782153,9600,2017-11-12 06:53:51,1653.7780314208833,3.6000001152000003,0.0,0.07022170224709441,1653.7780314208833,3.6000001152000003,0.35999970196000003,0.10143600324595202,1559,0.0,99,GPS_Atti,
0.350066229032339,36.914654278099796,9700,2017-11-12 06:53:51,1654.1780314336831,4.000000128,0.0,0.07388890236444481,1654.1780314336831,4.000000128,0.35999970196000003,0.10143600324595202,1577,0.0,99,GPS_Atti,
0.35006623031753803,36.9146542538239,9800,2017-11-12 06:53:51,1654.4780314432833,4.3000001376,0.0,0.0728636023316352,1654.4780314432833,4.3000001376,0.35999970196000003,0.10143600324595202,1617,0.0,99,GPS_Atti,
0.350066198793947,36.9146542008819,9900,2017-11-12 06:53:51,1654.7780314528832,4.6000001472,0.0,0.06735720215543041,1654.7780314528832,4.6000001472,0.35999970196000003,0.10143600324595202,1644,0.0,99,GPS_Atti,
0.35006617924336403,36.9146541561475,10000,2017-11-12 06:53:51,1655.1780314656833,5.00000016,0.0,0.06366180203717761,1655.1780314656833,5.00000016,0.35999970196000003,0.10143600324595202,1674,0.0,99,GPS_Atti,
0.350066214912114,36.9146540061242,10100,2017-11-12 06:53:52,1655.5780314784834,5.4000001727999996,0.0,0.06472180207109761,1655.5780314784834,5.4000001727999996,0.35999970196000003,0.10143600324595202,1684,0.0,99,GPS_Atti,
0.350066237020633,36.914653908161,10200,2017-11-12 06:53:52,1655.9780314912832,5.8000001856,0.0,0.0676572021650304,1655.9780314912832,5.8000001856,0.35999970196000003,0.10143600324595202,1684,0.0,99,GPS_Atti,
0.35006628703209497,36.9146537368258,10300,2017-11-12 06:53:52,1656.3780315040833,6.2000001984,0.0,0.07770850248667202,1656.3780315040833,6.2000001984,0.35999970196000003,0.10143600324595202,1684,0.0,99,GPS_Atti,
0.350066296749529,36.914653509657896,10400,2017-11-12 06:53:52,1656.8780315200831,6.7000002144,0.35999970196000003,0.0906782029017024,1656.8780315200831,6.7000002144,0.35999970196000003,0.10143600324595202,1684,0.0,99,GPS_Atti,
0.35006626828272497,36.914653267114794,10500,2017-11-12 06:53:52,1657.2780315328832,7.100000227200002,0.35999970196000003,0.106476003407232,1657.2780315328832,7.100000227200002,0.35999970196000003,0.106476003407232,1684,0.0,99,GPS_Atti,
0.35006624512226897,36.9146530082455,10600,2017-11-12 06:53:52,1657.7780315488833,7.600000243199999,0.0,0.128051004097632,1657.7780315488833,7.600000243199999,0.35999970196000003,0.128051004097632,1684,0.0,99,GPS_Atti,
0.35006620908747493,36.9146528179279,10700,2017-11-12 06:53:52,1658.2780315648833,8.1000002592,0.0,0.14459500462704,1658.2780315648833,8.1000002592,0.35999970196000003,0.14459500462704,1684,0.0,99,GPS_Atti,
0.35006615941052505,36.9146526291483,10800,2017-11-12 06:53:52,1658.7780315808832,8.6000002752,0.0,0.16160100517123202,1658.7780315808832,8.6000002752,0.35999970196000003,0.16160100517123202,1684,-0.1,99,GPS_Atti,
0.35006609245424897,36.9146524506371,10900,2017-11-12 06:53:52,1659.2780315968832,9.1000002912,0.0,0.17797200569510402,1659.2780315968832,9.1000002912,0.35999970196000003,0.17797200569510402,1684,-0.5,99,GPS_Atti,
0.350066019871163,36.914652267475795,11000,2017-11-12 06:53:52,1659.7780316128833,9.6000003072,0.0,0.19564000626048003,1659.7780316128833,9.6000003072,0.35999970196000003,0.19564000626048003,1684,-1.1,99,GPS_Atti,
0.35006590174050206,36.9146520878969,11100,2017-11-12 06:53:53,1660.378031632083,10.2000003264,0.0,0.21293200681382402,1660.378031632083,10.2000003264,0.35999970196000003,0.21293200681382402,1684,-1.8,99,GPS_Atti,
0.35006579986722103,36.914651912971294,11200,2017-11-12 06:53:53,1660.8780316480834,10.700000342400001,0.0,0.2310250073928,1660.8780316480834,10.700000342400001,0.35999970196000003,0.2310250073928,1684,-2.5,99,GPS_Atti,
0.35006568343546,36.914651794893,11300,2017-11-12 06:53:53,1661.3780316640832,11.200000358400002,0.0,0.24347600779123202,1661.3780316640832,11.200000358400002,0.35999970196000003,0.24347600779123202,1684,-3.4,99,GPS_Atti,
0.350065586811329,36.9146516732351,11400,2017-11-12 06:53:53,1661.878031680083,11.700000374400002,0.0,0.256993008223776,1661.878031680083,11.700000374400002,0.35999970196000003,0.256993008223776,1684,-4.7,99,GPS_Atti,
0.350065472200321,36.914651611061295,11500,2017-11-12 06:53:53,1662.3780316960833,12.2000003904,0.0,0.26446300846281606,1662.3780316960833,12.2000003904,0.35999970196000003,0.26446300846281606,1684,-4.7,99,GPS_Atti,
0.3500653619902331,36.914651544836104,11600,2017-11-12 06:53:53,1662.8780317120832,12.700000406400001,0.0,0.27289300873257605,1662.8780317120832,12.700000406400001,0.35999970196000003,0.27289300873257605,1684,-6.0,99,GPS_Atti,
0.35006527310395896,36.9146515177753,11700,2017-11-12 06:53:53,1663.3780317280832,13.2000004224,0.0,0.27714000886848006,1663.3780317280832,13.2000004224,0.35999970196000003,0.27714000886848006,1684,-7.3,99,GPS_Atti,
0.350065183819122,36.9146514864853,11800,2017-11-12 06:53:53,1663.8780317440833,13.7000004384,0.0,0.282172009029504,1663.8780317440833,13.7000004384,0.35999970196000003,0.282172009029504,1684,-8.5,99,GPS_Atti,
0.35006504347534,36.91465146590279,11900,2017-11-12 06:53:53,1664.3780317600833,14.200000454400003,0.0,0.28757900920252805,1664.3780317600833,14.200000454400003,0.35999970196000003,0.28757900920252805,1684,-9.8,99,GPS_Atti,
0.35006491917142696,36.9146514491138,12000,2017-11-12 06:53:53,1664.8780317760832,14.7000004704,0.0,0.29284000937088,1664.8780317760832,14.7000004704,0.35999970196000003,0.29284000937088,1684,-11.1,99,GPS_Atti,
0.35006483365043295,36.9146514553198,12100,2017-11-12 06:53:54,1665.378031792083,15.200000486399999,0.0,0.29490300943689607,1665.378031792083,15.200000486399999,0.35999970196000003,0.29490300943689607,1684,-11.9,99,GPS_Atti,
0.350064744298627,36.914651466669895,12200,2017-11-12 06:53:54,1665.8780318080833,15.700000502400002,0.0,0.29686000949952,1665.8780318080833,15.700000502400002,0.35999970196000003,0.29686000949952,1684,-12.7,99,GPS_Atti,
0.35006461037193204,36.9146514769741,12300,2017-11-12 06:53:54,1666.378031824083,16.2000005184,0.0,0.30108500963472,1666.378031824083,16.2000005184,0.35999970196000003,0.30108500963472,1684,-13.4,99,GPS_Atti,
0.35006448475457697,36.914651495227,12400,2017-11-12 06:53:54,1666.8780318400832,16.7000005344,0.0,0.304792009753344,1666.8780318400832,16.7000005344,0.35999970196000003,0.304792009753344,1684,-13.6,99,GPS_Atti,
0.350064363689943,36.914651478911,12500,2017-11-12 06:53:54,1667.3780318560832,17.2000005504,0.0,0.312292009993344,1667.3780318560832,17.2000005504,0.35999970196000003,0.312292009993344,1684,-13.6,99,GPS_Atti,
0.35006425489197096,36.914651468060896,12600,2017-11-12 06:53:54,1667.8780318720833,17.700000566400004,0.0,0.319003010208096,1667.8780318720833,17.700000566400004,0.35999970196000003,0.319003010208096,1684,-13.6,99,GPS_Atti,
0.350064119638502,36.9146514887155,12700,2017-11-12 06:53:54,1668.3780318880831,18.2000005824,0.0,0.324531010384992,1668.3780318880831,18.2000005824,0.35999970196000003,0.324531010384992,1684,-13.6,99,GPS_Atti,
0.35006400642398605,36.9146515057002,12800,2017-11-12 06:53:54,1668.8780319040834,18.7000005984,0.0,0.329656010548992,1668.8780319040834,18.7000005984,0.35999970196000003,0.329656010548992,1684,-13.6,99,GPS_Atti,
0.35006390705267,36.9146515661026,12900,2017-11-12 06:53:54,1669.3780319200832,19.2000006144,0.0,0.33035901057148803,1669.3780319200832,19.2000006144,0.35999970196000003,0.33035901057148803,1684,-13.6,99,GPS_Atti,
0.350063813386606,36.914651635267795,13000,2017-11-12 06:53:54,1669.978031939283,19.800000633599996,0.0,0.330406010572992,1669.978031939283,19.800000633599996,0.35999970196000003,0.330406010572992,1684,-13.6,99,GPS_Atti,
0.35006371611618603,36.914651742509996,13100,2017-11-12 06:53:55,1670.4780319552833,20.3000006496,0.0,0.32798901049564805,1670.4780319552833,20.3000006496,0.35999970196000003,0.330406010572992,1684,-13.6,99,GPS_Atti,
0.35006362485452003,36.914651833414,13200,2017-11-12 06:53:55,1670.9780319712831,20.800000665600002,0.0,0.32721601047091203,1670.9780319712831,20.800000665600002,0.35999970196000003,0.330406010572992,1684,-13.6,99,GPS_Atti,
0.350063527817578,36.9146519127289,13300,2017-11-12 06:53:55,1671.4780319872832,21.300000681600004,0.0,0.328431010509792,1671.4780319872832,21.300000681600004,0.35999970196000003,0.330406010572992,1684,-13.6,99,GPS_Atti,
0.35006336568480895,36.9146520180068,13500,2017-11-12 06:53:55,1672.4780320192833,22.3000007136,0.0,0.33373601067955205,1672.4780320192833,22.3000007136,0.35999970196000003,0.33373601067955205,1684,-13.6,99,GPS_Atti,
0.35006329715418605,36.914652136116096,13700,2017-11-12 06:53:55,1673.4780320512834,23.300000745600002,0.0,0.331228010599296,1673.4780320512834,23.300000745600002,0.35999970196000003,0.33373601067955205,1684,-13.6,99,GPS_Atti,
0.350063293110352,36.9146522013177,13800,2017-11-12 06:53:55,1673.9780320672833,23.800000761600003,0.0,0.32713701046838395,1673.9780320672833,23.800000761600003,0.35999970196000003,0.33373601067955205,1684,-13.6,99,GPS_Atti,
0.350063299019161,36.9146523099291,13900,2017-11-12 06:53:55,1674.478032083283,24.3000007776,0.0,0.31942901022172804,1674.478032083283,24.3000007776,0.35999970196000003,0.33373601067955205,1684,-13.6,99,GPS_Atti,
0.35006331815968794,36.914652396451395,14000,2017-11-12 06:53:55,1674.9780320992834,24.8000007936,0.0,0.31216200998918403,1674.9780320992834,24.8000007936,0.35999970196000003,0.33373601067955205,1684,-13.6,99,GPS_Atti,
0.350063351397045,36.9146525166913,14100,2017-11-12 06:53:56,1675.4780321152832,25.3000008096,0.0,0.30168500965392003,1675.4780321152832,25.3000008096,0.35999970196000003,0.33373601067955205,1684,-13.6,99,GPS_Atti,
0.350063377334697,36.91465260718729,14200,2017-11-12 06:53:56,1676.078032134483,25.900000828800003,0.0,0.29389800940473604,1676.078032134483,25.900000828800003,0.35999970196000003,0.33373601067955205,1684,-13.6,99,GPS_Atti,
0.35006334251490007,36.914652717349895,14300,2017-11-12 06:53:56,1676.578032150483,26.4000008448,0.0,0.29109000931488,1676.578032150483,26.4000008448,0.35999970196000003,0.33373601067955205,1684,-13.6,99,GPS_Atti,
0.350063319163624,36.9146527996255,14400,2017-11-12 06:53:56,1677.078032166483,26.9000008608,0.0,0.28908400925068806,1677.078032166483,26.9000008608,0.35999970196000003,0.33373601067955205,1684,-13.6,99,GPS_Atti,
0.350063332953898,36.9146529521274,14500,2017-11-12 06:53:56,1677.5780321824832,27.4000008768,0.0,0.28036400897164804,1677.5780321824832,27.4000008768,0.35999970196000003,0.33373601067955205,1684,-13.6,99,GPS_Atti,
0.3500633489494929,36.914653070427896,14600,2017-11-12 06:53:56,1678.078032198483,27.9000008928,0.0,0.27359000875488004,1678.078032198483,27.9000008928,0.35999970196000003,0.33373601067955205,1684,-13.6,99,GPS_Atti,
0.350063365051547,36.9146532087354,14700,2017-11-12 06:53:56,1678.6780322176833,28.500000912,0.0,0.26656600853011203,1678.6780322176833,28.500000912,0.35999970196000003,0.33373601067955205,1684,-13.6,99,GPS_Atti,
0.350063383674433,36.9146533095183,14800,2017-11-12 06:53:56,1679.178032233683,29.000000928,0.0,0.261171008357472,1679.178032233683,29.000000928,0.35999970196000003,0.33373601067955205,1684,-13.6,99,GPS_Atti,
0.350063413997485,36.914653493888004,15000,2017-11-12 06:53:56,1680.178032265683,30.00000096,0.0,0.252746008087872,1680.178032265683,30.00000096,0.35999970196000003,0.33373601067955205,1684,-13.6,99,GPS_Atti,
0.35006346424190304,36.9146535835481,15100,2017-11-12 06:53:57,1680.778032284883,30.6000009792,0.0,0.24528900784924804,1680.778032284883,30.6000009792,0.35999970196000003,0.33373601067955205,1684,-13.7,99,GPS_Atti,
0.35006350166639594,36.9146536414466,15200,2017-11-12 06:53:57,1681.2780323008828,31.100000995200002,0.0,0.24009300768297598,1681.2780323008828,31.100000995200002,0.35999970196000003,0.33373601067955205,1684,-13.8,99,GPS_Atti,
0.350063549851443,36.9146537321828,15300,2017-11-12 06:53:57,1681.7780323168831,31.6000010112,0.0,0.23338000746816,1681.7780323168831,31.6000010112,0.35999970196000003,0.33373601067955205,1684,-13.8,99,GPS_Atti,
0.350063596397665,36.914653823521,15400,2017-11-12 06:53:57,1682.278032332883,32.1000010272,0.0,0.227221007271072,1682.278032332883,32.1000010272,0.35999970196000003,0.33373601067955205,1684,-13.9,99,GPS_Atti,
0.350063640657348,36.914653897909496,15500,2017-11-12 06:53:57,1682.878032352083,32.700001046400004,0.0,0.22180400709772802,1682.878032352083,32.700001046400004,0.35999970196000003,0.33373601067955205,1684,-14.0,99,GPS_Atti,
0.35006368218755496,36.914653975756295,15600,2017-11-12 06:53:57,1683.378032368083,33.2000010624,0.0,0.21698200694342404,1683.378032368083,33.2000010624,0.35999970196000003,0.33373601067955205,1684,-14.1,99,GPS_Atti,
0.350063700019831,36.9146540162831,15700,2017-11-12 06:53:57,1683.878032384083,33.70000107840001,0.0,0.215028006880896,1683.878032384083,33.70000107840001,0.35999970196000003,0.33373601067955205,1684,-14.4,99,GPS_Atti,
0.35006372161116694,36.9146540585686,15800,2017-11-12 06:53:57,1684.378032400083,34.2000010944,0.0,0.21275900680828802,1684.378032400083,34.2000010944,0.35999970196000003,0.33373601067955205,1684,-14.9,99,GPS_Atti,
0.350063755107242,36.91465407858521,15900,2017-11-12 06:53:57,1684.978032419283,34.800001113600004,0.0,0.20913700669238403,1684.978032419283,34.800001113600004,0.35999970196000003,0.33373601067955205,1684,-15.4,99,GPS_Atti,
0.35006379966085904,36.9146541127156,16000,2017-11-12 06:53:57,1685.478032435283,35.300001129600005,0.0,0.20442000654144,1685.478032435283,35.300001129600005,0.35999970196000003,0.33373601067955205,1684,-15.4,99,GPS_Atti,
0.350063843869043,36.9146541376824,16100,2017-11-12 06:53:58,1685.978032451283,35.8000011456,0.0,0.19973500639152,1685.978032451283,35.8000011456,0.35999970196000003,0.33373601067955205,1684,-15.9,99,GPS_Atti,
0.350063884074307,36.9146541548952,16200,2017-11-12 06:53:58,1686.4780324672831,36.3000011616,0.0,0.195458006254656,1686.4780324672831,36.3000011616,0.35999970196000003,0.33373601067955205,1684,-16.4,99,GPS_Atti,
0.35006389725900394,36.9146542141086,16300,2017-11-12 06:53:58,1686.978032483283,36.8000011776,0.0,0.19475500623216002,1686.978032483283,36.8000011776,0.35999970196000003,0.33373601067955205,1684,-16.4,99,GPS_Atti,
0.35006390929788694,36.9146542435956,16400,2017-11-12 06:53:58,1687.578032502483,37.4000011968,0.0,0.19388900620444804,1687.578032502483,37.4000011968,0.35999970196000003,0.33373601067955205,1684,-17.4,99,GPS_Atti,
0.350063938040534,36.91465431263371,16500,2017-11-12 06:53:58,1688.078032518483,37.90000121280001,0.0,0.19204200614534403,1688.078032518483,37.90000121280001,0.35999970196000003,0.33373601067955205,1684,-17.8,99,GPS_Atti,
0.350063954296883,36.914654348772295,16600,2017-11-12 06:53:58,1688.5780325344829,38.4000012288,0.0,0.191081006114592,1688.5780325344829,38.4000012288,0.35999970196000003,0.33373601067955205,1684,-18.3,99,GPS_Atti,
0.350063953457013,36.9146544208679,16700,2017-11-12 06:53:58,1689.0780325504832,38.9000012448,0.0,0.19303300617705602,1689.0780325504832,38.9000012448,0.35999970196000003,0.33373601067955205,1684,-18.3,99,GPS_Atti,
0.350063949528392,36.9146544528108,16800,2017-11-12 06:53:58,1689.578032566483,39.4000012608,0.0,0.19437900622012802,1689.578032566483,39.4000012608,0.35999970196000003,0.33373601067955205,1684,-19.3,99,GPS_Atti,
0.350063979709159,36.9146545136415,16900,2017-11-12 06:53:58,1690.078032582483,39.900001276800005,0.0,0.193104006179328,1690.078032582483,39.900001276800005,0.35999970196000003,0.33373601067955205,1684,-19.7,99,GPS_Atti,
0.35006400053024,36.914654532846605,17000,2017-11-12 06:53:58,1690.678032601683,40.500001296,0.0,0.19157000613024,1690.678032601683,40.500001296,0.35999970196000003,0.33373601067955205,1684,-20.2,99,GPS_Atti,
0.35006401542806,36.9146545395512,17100,2017-11-12 06:53:59,1691.178032617683,41.000001311999995,0.0,0.190241006087712,1691.178032617683,41.000001311999995,0.35999970196000003,0.33373601067955205,1684,-20.7,99,GPS_Atti,
0.35006402033191597,36.9146545266554,17200,2017-11-12 06:53:59,1691.578032630483,41.4000013248,0.0,0.18926300605641602,1691.578032630483,41.4000013248,0.35999970196000003,0.33373601067955205,1684,-21.2,99,GPS_Atti,
0.350064007473926,36.9146545271368,17300,2017-11-12 06:53:59,1692.078032646483,41.9000013408,0.0,0.19063600610035197,1692.078032646483,41.9000013408,0.35999970196000003,0.33373601067955205,1684,-21.8,99,GPS_Atti,
0.35006398549420603,36.914654511912296,17400,2017-11-12 06:53:59,1692.578032662483,42.4000013568,0.0,0.192432006157824,1692.578032662483,42.4000013568,0.35999970196000003,0.33373601067955205,1684,-22.2,99,GPS_Atti,
0.350063959488973,36.914654512949795,17500,2017-11-12 06:53:59,1693.178032681683,43.000001376,0.0,0.195223006247136,1693.178032681683,43.000001376,0.35999970196000003,0.33373601067955205,1684,-22.2,99,GPS_Atti,
0.350063928845729,36.91465451223971,17600,2017-11-12 06:53:59,1693.6780326976832,43.500001391999994,0.0,0.198451006350432,1693.6780326976832,43.500001391999994,0.35999970196000003,0.33373601067955205,1684,-22.6,99,GPS_Atti,
0.350063895692441,36.9146545054121,17700,2017-11-12 06:53:59,1694.178032713683,44.00000140800001,0.0,0.201756006456192,1694.178032713683,44.00000140800001,0.35999970196000003,0.33373601067955205,1684,-23.1,99,GPS_Atti,
0.350063874835737,36.9146544969911,17800,2017-11-12 06:53:59,1694.6780327296829,44.500001424,0.0,0.20371400651884802,1694.6780327296829,44.500001424,0.35999970196000003,0.33373601067955205,1684,-23.6,99,GPS_Atti,
0.35006386066908896,36.9146544628561,17900,2017-11-12 06:53:59,1695.1780327456831,45.00000144,0.0,0.20420400653452803,1695.1780327456831,45.00000144,0.35999970196000003,0.33373601067955205,1684,-24.0,99,GPS_Atti,
0.35006384700400106,36.9146544354823,18000,2017-11-12 06:53:59,1695.678032761683,45.50000145600001,0.0,0.20490400655692803,1695.678032761683,45.50000145600001,0.35999970196000003,0.33373601067955205,1684,-24.4,99,GPS_Atti,
0.35006381556119004,36.9146544105761,18100,2017-11-12 06:54:00,1696.178032777683,46.000001471999994,0.0,0.20764500664464003,1696.178032777683,46.000001471999994,0.35999970196000003,0.33373601067955205,1684,-24.7,99,GPS_Atti,
0.350063794041302,36.9146543988428,18200,2017-11-12 06:54:00,1696.678032793683,46.50000148800001,0.0,0.20968500670992002,1696.678032793683,46.50000148800001,0.35999970196000003,0.33373601067955205,1684,-24.8,99,GPS_Atti,
0.35006376356660096,36.9146543957207,18400,2017-11-12 06:54:00,1697.678032825683,47.500001520000005,0.0,0.212917006813344,1697.678032825683,47.500001520000005,0.35999970196000003,0.33373601067955205,1684,-24.8,99,GPS_Atti,
0.350063729945543,36.914654384319704,18500,2017-11-12 06:54:00,1698.1780328416828,48.000001536000006,0.0,0.21630500692176005,1698.1780328416828,48.000001536000006,0.35999970196000003,0.33373601067955205,1684,-24.8,99,GPS_Atti,
0.35006369893650896,36.914654376363,18600,2017-11-12 06:54:00,1698.678032857683,48.500001552,0.0,0.21950300702409603,1698.678032857683,48.500001552,0.35999970196000003,0.33373601067955205,1684,-24.8,99,GPS_Atti,
0.35006366805245803,36.9146543414069,18700,2017-11-12 06:54:00,1699.178032873683,49.00000156800001,0.0,0.222141007108512,1699.178032873683,49.00000156800001,0.35999970196000003,0.33373601067955205,1684,-24.8,99,GPS_Atti,
0.35006364526869393,36.9146542529398,18900,2017-11-12 06:54:00,1700.278032908883,50.100001603200006,0.0,0.22310300713929598,1700.278032908883,50.100001603200006,0.35999970196000003,0.33373601067955205,1684,-24.8,99,GPS_Atti,
0.35006365561196,36.914654210110896,19000,2017-11-12 06:54:00,1700.778032924883,50.6000016192,0.0,0.22137100708387197,1700.778032924883,50.6000016192,0.35999970196000003,0.33373601067955205,1684,-24.8,99,GPS_Atti,
0.35006364341409996,36.9146542238717,19100,2017-11-12 06:54:01,1701.2780329408831,51.1000016352,0.0,0.22289700713270402,1701.2780329408831,51.1000016352,0.35999970196000003,0.33373601067955205,1684,-24.8,99,GPS_Atti,
0.350063636611683,36.9146542165045,19200,2017-11-12 06:54:01,1701.7780329568832,51.600001651199996,0.0,0.22355200715366402,1701.7780329568832,51.600001651199996,0.35999970196000003,0.33373601067955205,1684,-24.8,99,GPS_Atti,
0.35006362749626396,36.914654205849,19300,2017-11-12 06:54:01,1702.278032972883,52.1000016672,0.0,0.22442500718160002,1702.278032972883,52.1000016672,0.35999970196000003,0.33373601067955205,1684,-24.8,99,GPS_Atti,
0.350063610825883,36.9146541829949,19400,2017-11-12 06:54:01,1702.7780329888828,52.600001683200006,0.0,0.22600500723216,1702.7780329888828,52.600001683200006,0.35999970196000003,0.33373601067955205,1684,-24.8,99,GPS_Atti,
0.35006358851151803,36.9146541918614,19500,2017-11-12 06:54:01,1703.2780330048831,53.1000016992,0.0,0.22857200731430405,1703.2780330048831,53.1000016992,0.35999970196000003,0.33373601067955205,1684,-24.8,99,GPS_Atti,
0.350063559094695,36.9146541880084,19600,2017-11-12 06:54:01,1703.778033020883,53.6000017152,0.0,0.23178400741708802,1703.778033020883,53.6000017152,0.35999970196000003,0.33373601067955205,1684,-24.9,99,GPS_Atti,
0.3500634913432831,36.91465421642229,19700,2017-11-12 06:54:01,1704.278033036883,54.100001731199995,0.0,0.23960400766732803,1704.278033036883,54.100001731199995,0.35999970196000003,0.33373601067955205,1684,-25.1,99,GPS_Atti,
0.350063435042274,36.9146542266459,19800,2017-11-12 06:54:01,1704.778033052883,54.6000017472,0.0,0.24595200787046398,1704.778033052883,54.6000017472,0.35999970196000003,0.33373601067955205,1684,-25.3,99,GPS_Atti,
0.35006337148980393,36.914654256411204,19900,2017-11-12 06:54:01,1705.2780330688831,55.1000017632,0.0,0.25335200810726405,1705.2780330688831,55.1000017632,0.35999970196000003,0.33373601067955205,1684,-25.3,99,GPS_Atti,
0.35006331798707296,36.9146542704916,20000,2017-11-12 06:54:01,1705.778033084883,55.6000017792,0.0,0.259448008302336,1705.778033084883,55.6000017792,0.35999970196000003,0.33373601067955205,1684,-25.3,99,GPS_Atti,
0.35006330068567,36.9146542880799,20100,2017-11-12 06:54:02,1706.2780331008832,56.10000179520001,0.0,0.261604008371328,1706.2780331008832,56.10000179520001,0.35999970196000003,0.33373601067955205,1684,-25.3,99,GPS_Atti,
0.35006328823031296,36.914654290853704,20200,2017-11-12 06:54:02,1706.778033116883,56.600001811199995,0.0,0.26301700841654396,1706.778033116883,56.600001811199995,0.35999970196000003,0.33373601067955205,1684,-25.3,99,GPS_Atti,
0.350063273243335,36.91465429633121,20300,2017-11-12 06:54:02,1707.278033132883,57.100001827199996,0.0,0.26474900847196803,1707.278033132883,57.100001827199996,0.35999970196000003,0.33373601067955205,1684,-25.3,99,GPS_Atti,
0.35006326436180196,36.9146542917561,20400,2017-11-12 06:54:02,1707.7780331488832,57.600001843200005,0.0,0.265662008501184,1707.7780331488832,57.600001843200005,0.35999970196000003,0.33373601067955205,1684,-25.3,99,GPS_Atti,
0.350063239816265,36.914654301366205,20500,2017-11-12 06:54:02,1708.278033164883,58.100001859200006,0.0,0.26850800859225604,1708.278033164883,58.100001859200006,0.35999970196000003,0.33373601067955205,1684,-25.3,99,GPS_Atti,
0.350063226561545,36.914654302899706,20600,2017-11-12 06:54:02,1708.778033180883,58.60000187520001,0.0,0.26999100863971204,1708.778033180883,58.60000187520001,0.35999970196000003,0.33373601067955205,1684,-25.3,99,GPS_Atti,
0.35006322843873405,36.9146543088216,20700,2017-11-12 06:54:02,1709.278033196883,59.1000018912,0.0,0.269872008635904,1709.278033196883,59.1000018912,0.35999970196000003,0.33373601067955205,1684,-25.3,99,GPS_Atti,
0.350063236985419,36.9146543030606,20800,2017-11-12 06:54:02,1709.7780332128832,59.6000019072,0.0,0.268844008603008,1709.7780332128832,59.6000019072,0.35999970196000003,0.33373601067955205,1684,-25.3,99,GPS_Atti,
0.35006324698589697,36.9146543423655,20900,2017-11-12 06:54:02,1710.278033228883,60.100001923200004,0.0,0.268357008587424,1710.278033228883,60.100001923200004,0.35999970196000003,0.33373601067955205,1684,-25.3,99,GPS_Atti,
0.350063247971106,36.9146543669215,21000,2017-11-12 06:54:02,1710.7780332448829,60.600001939200006,0.0,0.26866800859737605,1710.7780332448829,60.600001939200006,0.35999970196000003,0.33373601067955205,1684,-25.3,99,GPS_Atti,
0.35006324616943607,36.9146543936611,21100,2017-11-12 06:54:03,1711.2780332608831,61.10000195520001,0.0,0.26935300861929606,1711.2780332608831,61.10000195520001,0.35999970196000003,0.33373601067955205,1684,-25.3,99,GPS_Atti,
0.350063267471112,36.9146544058534,21200,2017-11-12 06:54:03,1711.778033276883,61.6000019712,0.0,0.26725300855209605,1711.778033276883,61.6000019712,0.35999970196000003,0.33373601067955205,1684,-25.3,99,GPS_Atti,
0.35006326284857,36.9146544247905,21300,2017-11-12 06:54:03,1712.3780332960832,62.200001990400004,0.0,0.268137008580384,1712.3780332960832,62.200001990400004,0.35999970196000003,0.33373601067955205,1684,-25.3,99,GPS_Atti,
0.350063279694213,36.9146544271809,21400,2017-11-12 06:54:03,1712.878033312083,62.7000020064,0.0,0.266344008523008,1712.878033312083,62.7000020064,0.35999970196000003,0.33373601067955205,1684,-25.3,99,GPS_Atti,
0.350063291791109,36.9146544613143,21500,2017-11-12 06:54:03,1713.378033328083,63.2000020224,0.0,0.26575500850416,1713.378033328083,63.2000020224,0.35999970196000003,0.33373601067955205,1684,-25.3,99,GPS_Atti,
0.35006331611395597,36.9146544686712,21600,2017-11-12 06:54:03,1713.878033344083,63.7000020384,0.0,0.263271008424672,1713.878033344083,63.7000020384,0.35999970196000003,0.33373601067955205,1684,-25.3,99,GPS_Atti,
0.350063351668588,36.9146544671275,21700,2017-11-12 06:54:03,1714.378033360083,64.2000020544,0.0,0.259367008299744,1714.378033360083,64.2000020544,0.35999970196000003,0.33373601067955205,1684,-25.3,99,GPS_Atti,
0.350063384680404,36.914654444327,21800,2017-11-12 06:54:03,1714.878033376083,64.7000020704,0.0,0.255256008168192,1714.878033376083,64.7000020704,0.35999970196000003,0.33373601067955205,1684,-25.3,99,GPS_Atti,
0.350063379323027,36.914654426922496,21900,2017-11-12 06:54:03,1715.378033392083,65.2000020864,0.0,0.25545900817468803,1715.378033392083,65.2000020864,0.35999970196000003,0.33373601067955205,1684,-25.3,99,GPS_Atti,
0.35006338735715903,36.9146543916071,22100,2017-11-12 06:54:04,1716.478033427283,66.3000021216,0.0,0.253851008123232,1716.478033427283,66.3000021216,0.35999970196000003,0.33373601067955205,1684,-25.3,99,GPS_Atti,
0.350063394897669,36.914654371363895,22200,2017-11-12 06:54:04,1716.9780334432833,66.8000021376,0.0,0.252633008084256,1716.9780334432833,66.8000021376,0.35999970196000003,0.33373601067955205,1684,-25.3,99,GPS_Atti,
0.35006338832282596,36.914654385897,22300,2017-11-12 06:54:04,1717.478033459283,67.30000215359999,0.0,0.253633008116256,1717.478033459283,67.30000215359999,0.35999970196000003,0.33373601067955205,1684,-25.3,99,GPS_Atti,
0.350063386190583,36.9146543887996,22400,2017-11-12 06:54:04,1717.878033472083,67.70000216640001,0.0,0.253924008125568,1717.878033472083,67.70000216640001,0.35999970196000003,0.33373601067955205,1684,-25.3,99,GPS_Atti,
0.3500634149161311,36.9146543840641,22500,2017-11-12 06:54:04,1718.378033488083,68.2000021824,0.0,0.250686008021952,1718.378033488083,68.2000021824,0.35999970196000003,0.33373601067955205,1684,-25.3,99,GPS_Atti,
0.350063436838448,36.9146543711445,22600,2017-11-12 06:54:04,1718.8780335040829,68.7000021984,0.0,0.24803400793708802,1718.8780335040829,68.7000021984,0.35999970196000003,0.33373601067955205,1684,-25.3,99,GPS_Atti,
0.350063444592487,36.914654369991496,22700,2017-11-12 06:54:04,1719.3780335200831,69.2000022144,0.0,0.24716300790921603,1719.3780335200831,69.2000022144,0.35999970196000003,0.33373601067955205,1684,-25.3,99,GPS_Atti,
0.35006344952077,36.914654345239896,22800,2017-11-12 06:54:04,1719.878033536083,69.7000022304,0.0,0.246158007877056,1719.878033536083,69.7000022304,0.35999970196000003,0.33373601067955205,1684,-25.3,99,GPS_Atti,
0.350063456639105,36.9146543307755,22900,2017-11-12 06:54:04,1720.378033552083,70.2000022464,0.0,0.24511900784380802,1720.378033552083,70.2000022464,0.35999970196000003,0.33373601067955205,1684,-25.3,99,GPS_Atti,
0.350063477109257,36.9146543043908,23000,2017-11-12 06:54:04,1720.878033568083,70.7000022624,0.0,0.24242200775750403,1720.878033568083,70.7000022624,0.35999970196000003,0.33373601067955205,1684,-25.3,99,GPS_Atti,
0.35006349751915605,36.914654303107,23100,2017-11-12 06:54:05,1721.378033584083,71.2000022784,0.0,0.24015700768502404,1721.378033584083,71.2000022784,0.35999970196000003,0.33373601067955205,1684,-25.3,99,GPS_Atti,
0.350063518977774,36.9146542918963,23200,2017-11-12 06:54:05,1721.878033600083,71.7000022944,0.0,0.237614007603648,1721.878033600083,71.7000022944,0.35999970196000003,0.33373601067955205,1684,-25.3,99,GPS_Atti,
0.35006351888474896,36.9146543108445,23300,2017-11-12 06:54:05,1722.378033616083,72.2000023104,0.0,0.23793700761398404,1722.378033616083,72.2000023104,0.35999970196000003,0.33373601067955205,1684,-25.3,99,GPS_Atti,
0.35006350623479204,36.914654323242395,23500,2017-11-12 06:54:05,1723.378033648083,73.2000023424,0.0,0.239541007665312,1723.378033648083,73.2000023424,0.35999970196000003,0.33373601067955205,1684,-25.3,99,GPS_Atti,
0.35006349986879803,36.9146543063597,23600,2017-11-12 06:54:05,1723.8780336640832,73.7000023584,0.0,0.239952007678464,1723.8780336640832,73.7000023584,0.35999970196000003,0.33373601067955205,1684,-25.3,99,GPS_Atti,
0.350063520088576,36.91465428903079,23700,2017-11-12 06:54:05,1724.378033680083,74.2000023744,0.0,0.23744600759827203,1724.378033680083,74.2000023744,0.35999970196000003,0.33373601067955205,1684,-25.3,99,GPS_Atti,
0.350063526207251,36.9146542597586,23800,2017-11-12 06:54:05,1724.9780336992828,74.8000023936,0.0,0.236328007562496,1724.9780336992828,74.8000023936,0.35999970196000003,0.33373601067955205,1684,-25.3,99,GPS_Atti,
0.35006351994222,36.9146542240816,23900,2017-11-12 06:54:05,1725.4780337152831,75.30000240960001,0.0,0.236537007569184,1725.4780337152831,75.30000240960001,0.35999970196000003,0.33373601067955205,1684,-25.3,99,GPS_Atti,
0.350063518624605,36.9146541913395,24000,2017-11-12 06:54:05,1725.978033731283,75.80000242560001,0.0,0.23630000756160002,1725.978033731283,75.80000242560001,0.35999970196000003,0.33373601067955205,1684,-25.3,99,GPS_Atti,
0.350063486146918,36.91465416436711,24100,2017-11-12 06:54:06,1726.478033747283,76.3000024416,0.0,0.23962400766796804,1726.478033747283,76.3000024416,0.35999970196000003,0.33373601067955205,1684,-25.3,99,GPS_Atti,
0.3500634742116451,36.9146541230878,24200,2017-11-12 06:54:06,1726.978033763283,76.8000024576,0.0,0.24060800769945598,1726.978033763283,76.8000024576,0.35999970196000003,0.33373601067955205,1684,-25.3,99,GPS_Atti,
0.350063453762459,36.914654134996205,24400,2017-11-12 06:54:06,1727.978033795283,77.8000024896,0.0,0.24296500777488003,1727.978033795283,77.8000024896,0.35999970196000003,0.33373601067955205,1684,-25.4,99,GPS_Atti,
0.350063434479443,36.9146541823606,24500,2017-11-12 06:54:06,1728.4780338112832,78.3000025056,0.0,0.24552200785670403,1728.4780338112832,78.3000025056,0.35999970196000003,0.33373601067955205,1684,-25.6,99,GPS_Atti,
0.350063416486765,36.91465419614521,24600,2017-11-12 06:54:06,1728.978033827283,78.8000025216,0.0,0.247656007924992,1728.978033827283,78.8000025216,0.35999970196000003,0.33373601067955205,1684,-25.9,99,GPS_Atti,
0.35006341323679807,36.9146542044169,24800,2017-11-12 06:54:06,1729.978033859283,79.80000255360001,0.0,0.248106007939392,1729.978033859283,79.80000255360001,0.35999970196000003,0.33373601067955205,1684,-25.9,99,GPS_Atti,
0.350063394533508,36.9146541890488,24900,2017-11-12 06:54:06,1730.478033875283,80.30000256960001,0.0,0.25001400800044804,1730.478033875283,80.30000256960001,0.35999970196000003,0.33373601067955205,1684,-25.9,99,GPS_Atti,
0.35006339798703107,36.9146541472404,25000,2017-11-12 06:54:06,1730.978033891283,80.80000258560001,0.0,0.24924900797596805,1730.978033891283,80.80000258560001,0.35999970196000003,0.33373601067955205,1684,-25.9,99,GPS_Atti,
0.350063409031138,36.9146540855796,25100,2017-11-12 06:54:07,1731.478033907283,81.3000026016,0.0,0.247616007923712,1731.478033907283,81.3000026016,0.35999970196000003,0.33373601067955205,1684,-25.9,99,GPS_Atti,
0.350063418278868,36.914654018374,25200,2017-11-12 06:54:07,1731.9780339232832,81.80000261760001,0.0,0.246359007883488,1731.9780339232832,81.80000261760001,0.35999970196000003,0.33373601067955205,1684,-25.9,99,GPS_Atti,
0.350063404506506,36.914654048220704,25300,2017-11-12 06:54:07,1732.478033939283,82.3000026336,0.0,0.24796400793484805,1732.478033939283,82.3000026336,0.35999970196000003,0.33373601067955205,1684,-25.9,98,GPS_Atti,
0.350063398577545,36.914654047168,25400,2017-11-12 06:54:07,1732.9780339552829,82.8000026496,0.0,0.24861900795580802,1732.9780339552829,82.8000026496,0.35999970196000003,0.33373601067955205,1684,-26.0,98,GPS_Atti,
0.350063387612418,36.9146540884267,25500,2017-11-12 06:54:07,1733.4780339712831,83.3000026656,0.0,0.25001000800032,1733.4780339712831,83.3000026656,0.35999970196000003,0.33373601067955205,1684,-26.0,98,GPS_Atti,
0.350063387560715,36.9146541037095,25600,2017-11-12 06:54:07,1733.978033987283,83.8000026816,0.0,0.25010000800320004,1733.978033987283,83.8000026816,0.35999970196000003,0.33373601067955205,1684,-26.6,98,GPS_Atti,
0.3500633850810011,36.914654107259494,25700,2017-11-12 06:54:07,1734.478034003283,84.30000269760001,0.0,0.25039700801270404,1734.478034003283,84.30000269760001,0.35999970196000003,0.33373601067955205,1684,-26.9,98,GPS_Atti,
0.350063394099121,36.914654092923996,25800,2017-11-12 06:54:07,1734.878034016083,84.70000271040001,0.0,0.249313007978016,1734.878034016083,84.70000271040001,0.35999970196000003,0.33373601067955205,1684,-27.2,98,GPS_Atti,
0.350063403158765,36.91465413802629,25900,2017-11-12 06:54:07,1735.3780340320832,85.20000272640002,0.0,0.248603007955296,1735.3780340320832,85.20000272640002,0.35999970196000003,0.33373601067955205,1684,-27.5,98,GPS_Atti,
0.350063422018793,36.9146541491992,26000,2017-11-12 06:54:07,1735.978034051283,85.80000274560001,0.0,0.24660000789120004,1735.978034051283,85.80000274560001,0.35999970196000003,0.33373601067955205,1684,-27.8,98,GPS_Atti,
0.3500634341106,36.91465417534489,26100,2017-11-12 06:54:08,1736.4780340672828,86.3000027616,0.0,0.24549400785580802,1736.4780340672828,86.3000027616,0.35999970196000003,0.33373601067955205,1684,-28.2,98,GPS_Atti,
0.350063456926933,36.9146541745894,26200,2017-11-12 06:54:08,1736.978034083283,86.80000277760001,0.0,0.24295900777468804,1736.978034083283,86.80000277760001,0.35999970196000003,0.33373601067955205,1684,-28.2,98,GPS_Atti,
0.3500634669662899,36.9146541858477,26300,2017-11-12 06:54:08,1737.478034099283,87.3000027936,0.0,0.24196000774272003,1737.478034099283,87.3000027936,0.35999970196000003,0.33373601067955205,1684,-28.5,98,GPS_Atti,
0.350063484650174,36.9146541746658,26400,2017-11-12 06:54:08,1737.978034115283,87.8000028096,0.0,0.239889007676448,1737.978034115283,87.8000028096,0.35999970196000003,0.33373601067955205,1684,-28.8,98,GPS_Atti,
0.35006351352554,36.9146541891815,26500,2017-11-12 06:54:08,1738.478034131283,88.3000028256,0.0,0.236841007578912,1738.478034131283,88.3000028256,0.35999970196000003,0.33373601067955205,1684,-29.1,98,GPS_Atti,
0.3500635434488089,36.9146541837717,26600,2017-11-12 06:54:08,1738.978034147283,88.8000028416,0.0,0.23347100747107202,1738.978034147283,88.8000028416,0.35999970196000003,0.33373601067955205,1684,-29.2,98,GPS_Atti,
0.350063546019715,36.91465424410129,26700,2017-11-12 06:54:08,1739.478034163283,89.3000028576,0.0,0.23392100748547198,1739.478034163283,89.3000028576,0.35999970196000003,0.33373601067955205,1684,-29.2,98,GPS_Atti,
0.35006354776825604,36.91465426741279,26800,2017-11-12 06:54:08,1739.9780341792832,89.8000028736,0.0,0.234064007490048,1739.9780341792832,89.8000028736,0.35999970196000003,0.33373601067955205,1684,-29.2,98,GPS_Atti,
0.35006356243361597,36.9146542966985,26900,2017-11-12 06:54:08,1740.478034195283,90.30000288960001,0.0,0.232912007453184,1740.478034195283,90.30000288960001,0.35999970196000003,0.33373601067955205,1684,-29.2,98,GPS_Atti,
0.35006357356077394,36.9146543070836,27000,2017-11-12 06:54:08,1740.9780342112829,90.80000290560001,0.0,0.23186500741968,1740.9780342112829,90.80000290560001,0.35999970196000003,0.33373601067955205,1684,-29.2,98,GPS_Atti,
0.35006357307244396,36.9146543370442,27100,2017-11-12 06:54:09,1741.4780342272832,91.3000029216,0.0,0.23245800743865602,1741.4780342272832,91.3000029216,0.35999970196000003,0.33373601067955205,1684,-29.2,98,GPS_Atti,
0.350063585512128,36.9146543475619,27200,2017-11-12 06:54:09,1741.978034243283,91.8000029376,0.0,0.231297007401504,1741.978034243283,91.8000029376,0.35999970196000003,0.33373601067955205,1684,-29.2,98,GPS_Atti,
0.35006360072993703,36.9146543665007,27300,2017-11-12 06:54:09,1742.478034259283,92.3000029536,0.0,0.230011007360352,1742.478034259283,92.3000029536,0.35999970196000003,0.33373601067955205,1684,-29.2,98,GPS_Atti,
0.350063625909549,36.9146543631041,27400,2017-11-12 06:54:09,1742.9780342752829,92.8000029696,0.0,0.227189007270048,1742.9780342752829,92.8000029696,0.35999970196000003,0.33373601067955205,1684,-29.2,98,GPS_Atti,
0.350063641067512,36.9146544037375,27500,2017-11-12 06:54:09,1743.4780342912832,93.3000029856,0.0,0.22642200724550401,1743.4780342912832,93.3000029856,0.35999970196000003,0.33373601067955205,1684,-29.2,98,GPS_Atti,
0.350063663453325,36.914654417636,27600,2017-11-12 06:54:09,1743.978034307283,93.8000030016,0.0,0.224314007178048,1743.978034307283,93.8000030016,0.35999970196000003,0.33373601067955205,1684,-29.2,98,GPS_Atti,
0.35006366224990504,36.9146544348748,27700,2017-11-12 06:54:09,1744.4780343232828,94.3000030176,0.0,0.22486400719564803,1744.4780343232828,94.3000030176,0.35999970196000003,0.33373601067955205,1684,-29.2,98,GPS_Atti,
0.350063665440027,36.9146544319476,27800,2017-11-12 06:54:09,1744.978034339283,94.80000303359999,0.0,0.224446007182272,1744.978034339283,94.80000303359999,0.35999970196000003,0.33373601067955205,1684,-29.2,98,GPS_Atti,
0.35006364469080004,36.9146544810249,27900,2017-11-12 06:54:09,1745.478034355283,95.30000304960001,0.0,0.227958007294656,1745.478034355283,95.30000304960001,0.35999970196000003,0.33373601067955205,1684,-29.2,98,GPS_Atti,
0.350063634603608,36.914654502606794,28000,2017-11-12 06:54:09,1745.978034371283,95.80000306560001,0.0,0.229638007348416,1745.978034371283,95.80000306560001,0.35999970196000003,0.33373601067955205,1684,-29.2,98,GPS_Atti,
0.350063611697711,36.9146545247552,28100,2017-11-12 06:54:10,1746.478034387283,96.3000030816,0.0,0.232729007447328,1746.478034387283,96.3000030816,0.35999970196000003,0.33373601067955205,1671,-29.2,98,GPS_Atti,
0.35006359905467493,36.9146545037364,28200,2017-11-12 06:54:10,1746.9780344032831,96.8000030976,0.0,0.23349800747193603,1746.9780344032831,96.8000030976,0.35999970196000003,0.33373601067955205,1655,-29.2,98,GPS_Atti,
0.35006356910881103,36.9146545035053,28400,2017-11-12 06:54:10,1747.9780344352832,97.8000031296,0.0,0.236719007575008,1747.9780344352832,97.8000031296,0.35999970196000003,0.33373601067955205,1655,-29.2,98,GPS_Atti,
0.35006354533332507,36.914654475317995,28500,2017-11-12 06:54:10,1748.478034451283,98.3000031456,0.0,0.238546007633472,1748.478034451283,98.3000031456,0.35999970196000003,0.33373601067955205,1667,-29.2,98,GPS_Atti,
0.350063525029072,36.9146544293709,28600,2017-11-12 06:54:10,1748.978034467283,98.8000031616,0.0,0.239636007668352,1748.978034467283,98.8000031616,0.35999970196000003,0.33373601067955205,1684,-29.2,98,GPS_Atti,
0.350063507837385,36.914654419356204,28700,2017-11-12 06:54:10,1749.478034483283,99.3000031776,0.0,0.241281007720992,1749.478034483283,99.3000031776,0.35999970196000003,0.33373601067955205,1684,-29.2,98,GPS_Atti,
0.350063494365675,36.914654387632496,28800,2017-11-12 06:54:10,1749.978034499283,99.80000319359999,0.0,0.24207000774624,1749.978034499283,99.80000319359999,0.35999970196000003,0.33373601067955205,1681,-29.2,98,GPS_Atti,
0.35006349486397803,36.9146543994839,28900,2017-11-12 06:54:10,1750.478034515283,100.30000320960002,0.0,0.242263007752416,1750.478034515283,100.30000320960002,0.35999970196000003,0.33373601067955205,1680,-29.2,98,GPS_Atti,
0.350063490203982,36.9146543858011,29000,2017-11-12 06:54:10,1750.978034531283,100.80000322560002,0.0,0.242487007759584,1750.978034531283,100.80000322560002,0.35999970196000003,0.33373601067955205,1681,-29.2,98,GPS_Atti,
0.350063447105787,36.91465440801971,29100,2017-11-12 06:54:11,1751.4780345472832,101.3000032416,0.0,0.24765800792505602,1751.4780345472832,101.3000032416,0.35999970196000003,0.33373601067955205,1681,-29.2,98,GPS_Atti,
0.35006341596240603,36.9146543987455,29200,2017-11-12 06:54:11,1751.978034563283,101.8000032576,0.0,0.25086700802774403,1751.978034563283,101.8000032576,0.35999970196000003,0.33373601067955205,1684,-29.2,98,GPS_Atti,
0.350063397275808,36.9146544213615,29400,2017-11-12 06:54:11,1752.9780345952831,102.8000032896,0.0,0.253381008108192,1752.9780345952831,102.8000032896,0.35999970196000003,0.33373601067955205,1684,-29.2,98,GPS_Atti,
0.350063371138875,36.9146544561724,29500,2017-11-12 06:54:11,1753.478034611283,103.30000330560001,0.0,0.256997008223904,1753.478034611283,103.30000330560001,0.35999970196000003,0.33373601067955205,1684,-29.2,98,GPS_Atti,
0.35006336030626195,36.9146544705405,29600,2017-11-12 06:54:11,1754.078034630483,103.90000332480001,0.0,0.258506008272192,1754.078034630483,103.90000332480001,0.35999970196000003,0.33373601067955205,1684,-29.2,98,GPS_Atti,
0.350063368746894,36.9146545123319,29800,2017-11-12 06:54:11,1755.078034662483,104.90000335680001,0.0,0.25860500827536,1755.078034662483,104.90000335680001,0.35999970196000003,0.33373601067955205,1684,-29.2,98,GPS_Atti,
0.3500633476414461,36.9146545651412,29900,2017-11-12 06:54:11,1755.478034675283,105.30000336959999,0.0,0.262277008392864,1755.478034675283,105.30000336959999,0.35999970196000003,0.33373601067955205,1684,-29.2,98,GPS_Atti,
0.35006335353966994,36.9146545822852,30000,2017-11-12 06:54:11,1755.978034691283,105.80000338560002,0.0,0.26211900838780805,1755.978034691283,105.80000338560002,0.35999970196000003,0.33373601067955205,1684,-29.2,98,GPS_Atti,
