latitude,longitude,time_millisecond,datetime_utc,altitude_m,ascent_m,speed_kph,distance_m,max_altitude_m,max_ascent_m,max_speed_kph,max_distance_m,rc_throttle,gimbal_pitch_degrees,battery_percent,flycState,message
0.352821033222062,36.883415534304795,0,2018-04-04 08:02:05,1768.5715897942928,0.0,0.0,0.0,1768.5715897942928,0.0,0.0,0.0,364,0.0,99,Motors_Started,
0.35282102792941494,36.8834155386959,100,2018-04-04 08:02:05,1768.5715897942928,0.0,0.0,0.000764761024472352,1768.5715897942928,0.0,0.0,0.000764761024472352,364,0.0,99,Motors_Started,
0.352820999582683,36.88341551707521,200,2018-04-04 08:02:06,1768.5715897942928,0.0,0.0,0.00420303013449696,1768.5715897942928,0.0,0.0,0.00420303013449696,364,0.0,99,Motors_Started,
0.352820970515569,36.8834154925473,300,2018-04-04 08:02:06,1768.5715897942928,0.0,0.0,0.00837798026809536,1768.5715897942928,0.0,0.0,0.00837798026809536,364,0.0,99,Motors_Started,
0.352820949661104,36.883415442874295,400,2018-04-04 08:02:06,1768.5715897942928,0.0,0.0,0.0137742004407744,1768.5715897942928,0.0,0.0,0.0137742004407744,364,0.0,99,Motors_Started,
0.352820935005515,36.883415398786,500,2018-04-04 08:02:06,1768.5715897942928,0.0,0.0,0.018612000595584,1768.5715897942928,0.0,0.0,0.018612000595584,364,0.0,99,Motors_Started,
0.3528209292727821,36.8834153640205,600,2018-04-04 08:02:06,1768.5715897942928,0.0,0.0,0.022185900709948803,1768.5715897942928,0.0,0.0,0.022185900709948803,364,0.0,99,Motors_Started,Setting new Return-To-Home altitude to 30m (98 ft). Setting new Maximum Flight Altitude to 150m (492 ft)
0.352820923536791,36.8834153382973,700,2018-04-04 08:02:06,1768.5715897942928,0.0,0.0,0.024977700799286403,1768.5715897942928,0.0,0.0,0.024977700799286403,364,0.0,99,Motors_Started,
0.352820925459984,36.883415324557795,800,2018-04-04 08:02:06,1768.5715897942928,0.0,0.0,0.026223100839139202,1768.5715897942928,0.0,0.0,0.026223100839139202,543,0.0,99,Motors_Started,
0.35282092485868105,36.8834153124429,900,2018-04-04 08:02:06,1768.5715897942928,0.0,0.0,0.027457700878646404,1768.5715897942928,0.0,0.0,0.027457700878646404,1024,0.0,99,Motors_Started,
0.35282092948264704,36.8834153126201,1000,2018-04-04 08:02:06,1768.5715897942928,0.0,0.0,0.027218000870976002,1768.5715897942928,0.0,0.0,0.027457700878646404,1024,0.0,99,Motors_Started,
0.352820930391116,36.883415312492204,1100,2018-04-04 08:02:06,1768.5715897942928,0.0,0.0,0.0271883008700256,1768.5715897942928,0.0,0.0,0.027457700878646404,1024,0.0,99,Motors_Started,
0.352820912612171,36.88341531995479,1200,2018-04-04 08:02:07,1768.5715897942928,0.0,0.0,0.027351000875232,1768.5715897942928,0.0,0.0,0.027457700878646404,1024,0.0,99,Motors_Started,
0.352820886786678,36.8834153278932,1300,2018-04-04 08:02:07,1768.5715897942928,0.0,0.0,0.028143600900595204,1768.5715897942928,0.0,0.0,0.028143600900595204,1024,0.0,99,Motors_Started,
0.352820866951416,36.8834153089474,1400,2018-04-04 08:02:07,1768.5715897942928,0.0,0.0,0.0311437009965984,1768.5715897942928,0.0,0.0,0.0311437009965984,1024,0.0,99,Motors_Started,
0.352820851794673,36.8834152884557,1500,2018-04-04 08:02:07,1768.5715897942928,0.0,0.0,0.033978001087296004,1768.5715897942928,0.0,0.0,0.033978001087296004,1024,0.0,99,Assisted_Takeoff,
0.352820879269984,36.883415301778705,1600,2018-04-04 08:02:07,1768.5715897942928,0.0,0.0,0.031011900992380804,1768.5715897942928,0.0,0.0,0.033978001087296004,1024,0.0,99,Assisted_Takeoff,
0.35282090331192406,36.8834153225162,1700,2018-04-04 08:02:07,1768.5715897942928,0.0,0.0,0.0276296008841472,1768.5715897942928,0.0,0.0,0.033978001087296004,1024,0.0,99,Assisted_Takeoff,
0.35282093408503706,36.8834153154245,1800,2018-04-04 08:02:07,1768.5715897942928,0.0,0.0,0.026720700855062403,1768.5715897942928,0.0,0.0,0.033978001087296004,1024,0.0,99,Assisted_Takeoff,
0.35282095391052903,36.8834153026801,1900,2018-04-04 08:02:07,1768.5715897942928,0.0,0.0,0.0272258008712256,1768.5715897942928,0.0,0.0,0.033978001087296004,1024,0.0,99,Assisted_Takeoff,
0.352820942603428,36.8834153236237,2000,2018-04-04 08:02:07,1768.5715897942928,0.0,0.0,0.025504000816128004,1768.5715897942928,0.0,0.0,0.033978001087296004,1024,0.0,99,Assisted_Takeoff,
0.35282092783954705,36.8834153480526,2100,2018-04-04 08:02:08,1768.5715897942928,0.0,0.0,0.0237976007615232,1768.5715897942928,0.0,0.0,0.033978001087296004,1024,0.0,99,Assisted_Takeoff,
0.352820903193658,36.883415391946,2300,2018-04-04 08:02:08,1768.5715897942928,0.0,0.0,0.021440800686105602,1768.5715897942928,0.0,0.0,0.033978001087296004,1024,0.0,99,Assisted_Takeoff,
0.35282089459119903,36.8834154081425,2400,2018-04-04 08:02:08,1768.5715897942928,0.0,0.0,0.0208448006670336,1768.5715897942928,0.0,0.0,0.033978001087296004,1024,0.0,99,Assisted_Takeoff,
0.35282089039164605,36.8834154215126,2500,2018-04-04 08:02:08,1768.5715897942928,0.0,0.0,0.0202389006476448,1768.5715897942928,0.0,0.0,0.033978001087296004,1024,0.0,99,Assisted_Takeoff,
0.352820917759886,36.8834154613367,2600,2018-04-04 08:02:08,1768.5715897942928,0.0,0.0,0.015189200486054402,1768.5715897942928,0.0,0.0,0.033978001087296004,1024,0.0,99,Assisted_Takeoff,
0.35282094594947294,36.883415501104004,2700,2018-04-04 08:02:08,1768.5715897942928,0.0,0.0,0.0103838003322816,1768.5715897942928,0.0,0.0,0.033978001087296004,1024,0.0,99,Assisted_Takeoff,
0.35282097333705104,36.8834155329371,2800,2018-04-04 08:02:08,1768.5715897942928,0.0,0.0,0.0066613102131619206,1768.5715897942928,0.0,0.0,0.033978001087296004,1024,0.0,99,Assisted_Takeoff,
0.35282099375896,36.8834155589949,2900,2018-04-04 08:02:08,1768.5715897942928,0.0,0.0,0.00517666016565312,1768.5715897942928,0.0,0.0,0.033978001087296004,1024,0.0,99,Assisted_Takeoff,
0.35282100959679996,36.8834155730802,3000,2018-04-04 08:02:08,1768.5715897942928,0.0,0.0,0.00504933016157856,1768.5715897942928,0.0,0.0,0.033978001087296004,1024,0.0,99,Assisted_Takeoff,
0.35282102372131197,36.8834155883855,3100,2018-04-04 08:02:08,1768.5715897942928,0.0,0.0,0.006106090195394881,1768.5715897942928,0.0,0.0,0.033978001087296004,1024,0.0,99,Assisted_Takeoff,
0.35282103248396895,36.8834155939317,3200,2018-04-04 08:02:09,1768.5715897942928,0.0,0.0,0.00663126021220032,1768.5715897942928,0.0,0.0,0.033978001087296004,1024,0.0,99,Assisted_Takeoff,
0.35282104044624607,36.8834155994127,3300,2018-04-04 08:02:09,1768.5715897942928,0.0,0.0,0.007284680233109761,1768.5715897942928,0.0,0.0,0.033978001087296004,1024,0.0,99,Assisted_Takeoff,
0.352821041785438,36.883415592882,3400,2018-04-04 08:02:09,1768.5715897942928,0.0,0.0,0.00658326021066432,1768.5715897942928,0.0,0.0,0.033978001087296004,1024,0.0,99,Assisted_Takeoff,
0.35282104785118795,36.883415596622704,3500,2018-04-04 08:02:09,1768.5715897942928,0.0,0.0,0.0071183902277884795,1768.5715897942928,0.0,0.0,0.033978001087296004,1024,0.0,99,Assisted_Takeoff,
0.35282104702536404,36.883415562658,3600,2018-04-04 08:02:09,1768.5715897942928,0.0,0.0,0.0035067901122172803,1768.5715897942928,0.0,0.0,0.033978001087296004,1024,0.0,99,Assisted_Takeoff,
0.3528210504797,36.883415534890496,3700,2018-04-04 08:02:09,1768.5715897942928,0.0,0.0,0.0019202600614483202,1768.5715897942928,0.0,0.0,0.033978001087296004,1024,0.0,99,Assisted_Takeoff,
0.35282104707727,36.8834154991823,3800,2018-04-04 08:02:09,1768.5715897942928,0.0,0.0,0.00419869013435808,1768.5715897942928,0.0,0.0,0.033978001087296004,1024,0.0,99,Assisted_Takeoff,
0.35282104852271795,36.883415481461206,3900,2018-04-04 08:02:09,1768.5715897942928,0.0,0.0,0.006117800195769601,1768.5715897942928,0.0,0.0,0.033978001087296004,1024,0.0,99,Assisted_Takeoff,
0.35282104252922997,36.883415458257105,4000,2018-04-04 08:02:09,1768.5715897942928,0.0,0.0,0.008519910272637122,1768.5715897942928,0.0,0.0,0.033978001087296004,1024,0.0,99,Assisted_Takeoff,
0.35282104267293996,36.883415449508206,4100,2018-04-04 08:02:09,1768.5715897942928,0.0,0.0,0.009488110303619521,1768.5715897942928,0.0,0.0,0.033978001087296004,1024,0.0,99,Assisted_Takeoff,
0.352821036827029,36.883415438762604,4200,2018-04-04 08:02:09,1768.5715897942928,0.0,0.0,0.0106322003402304,1768.5715897942928,0.0,0.0,0.033978001087296004,1024,0.0,99,Assisted_Takeoff,
0.3528210354245321,36.8834154351981,4300,2018-04-04 08:02:10,1768.5715897942928,0.0,0.0,0.0110238003527616,1768.5715897942928,0.0,0.0,0.033978001087296004,1024,0.0,99,Assisted_Takeoff,
0.352821029997539,36.883415430163105,4400,2018-04-04 08:02:10,1768.5715897942928,0.0,0.0,0.011586500370768001,1768.5715897942928,0.0,0.0,0.033978001087296004,1024,0.0,99,Assisted_Takeoff,
0.35282102997881204,36.8834154313669,4500,2018-04-04 08:02:10,1768.5715897942928,0.0,0.0,0.011452800366489602,1768.5715897942928,0.0,0.0,0.033978001087296004,1024,0.0,99,Assisted_Takeoff,
0.352821026137719,36.8834154012714,4600,2018-04-04 08:02:10,1768.5715897942928,0.0,0.0,0.014814800474073601,1768.5715897942928,0.0,0.0,0.033978001087296004,1024,0.0,99,Assisted_Takeoff,
0.35282102726887704,36.883415376233394,4700,2018-04-04 08:02:10,1768.5715897942928,0.0,0.0,0.0175906005628992,1768.5715897942928,0.0,0.0,0.033978001087296004,1024,0.0,99,Assisted_Takeoff,
0.352821024668456,36.88341535119321,4800,2018-04-04 08:02:10,1768.5715897942928,0.0,0.0,0.02038500065232,1768.5715897942928,0.0,0.0,0.033978001087296004,1024,0.0,99,Assisted_Takeoff,
0.35282102555229405,36.8834153388792,4900,2018-04-04 08:02:10,1768.5715897942928,0.0,0.0,0.021748800695961603,1768.5715897942928,0.0,0.0,0.033978001087296004,1024,0.0,99,Assisted_Takeoff,
0.352821022481863,36.883415298814704,5000,2018-04-04 08:02:10,1768.5715897942928,0.0,0.0,0.0262147008388704,1768.5715897942928,0.0,0.0,0.033978001087296004,1024,0.0,99,Assisted_Takeoff,
0.3528210231594989,36.8834152667038,5100,2018-04-04 08:02:10,1768.5715897942928,0.0,0.0,0.0297793009529376,1768.5715897942928,0.0,0.0,0.033978001087296004,1024,0.0,99,Assisted_Takeoff,
0.352821020592053,36.8834152361704,5200,2018-04-04 08:02:11,1768.5715897942928,0.0,0.0,0.033183501061872005,1768.5715897942928,0.0,0.0,0.033978001087296004,1024,0.0,99,Assisted_Takeoff,
0.352821049595659,36.88341520845479,5400,2018-04-04 08:02:11,1768.5715897942928,0.0,0.0,0.036281501161008,1768.5715897942928,0.0,0.0,0.036281501161008,1024,0.0,99,Assisted_Takeoff,
0.35282108188078204,36.8834152047751,5500,2018-04-04 08:02:11,1768.5715897942928,0.0,0.0,0.03704240118535681,1768.5715897942928,0.0,0.0,0.03704240118535681,1029,0.0,99,Assisted_Takeoff,
0.352821109517716,36.8834151740003,5600,2018-04-04 08:02:11,1768.5715897942928,0.0,0.0,0.040955801310585606,1768.5715897942928,0.0,0.0,0.040955801310585606,1024,0.0,99,Assisted_Takeoff,
0.3528211319057679,36.8834151475651,5700,2018-04-04 08:02:11,1768.5715897942928,0.0,0.0,0.044385101420323196,1768.5715897942928,0.0,0.0,0.044385101420323196,1025,0.0,99,Assisted_Takeoff,
0.35282114558103295,36.883415123088,5800,2018-04-04 08:02:11,1768.5715897942928,0.0,0.0,0.0474053015169696,1768.5715897942928,0.0,0.0,0.0474053015169696,1075,0.0,99,Assisted_Takeoff,
0.35282115961333504,36.8834151100846,5900,2018-04-04 08:02:11,1768.5715897942928,0.0,0.0,0.0492243015751776,1768.5715897942928,0.0,0.0,0.0492243015751776,1130,0.0,99,Assisted_Takeoff,
0.35282116352038,36.883415100499,6000,2018-04-04 08:02:11,1768.5715897942928,0.0,0.0,0.050370101611843195,1768.5715897942928,0.0,0.0,0.050370101611843195,1149,0.0,99,Assisted_Takeoff,
0.35282116991874,36.8834150963804,6100,2018-04-04 08:02:11,1768.5715897942928,0.0,0.0,0.051016401632524806,1768.5715897942928,0.0,0.0,0.051016401632524806,1151,0.0,99,Assisted_Takeoff,
0.35282116611469394,36.8834150665584,6200,2018-04-04 08:02:12,1768.5715897942928,0.0,0.0,0.054073901730364804,1768.5715897942928,0.0,0.0,0.054073901730364804,1140,0.0,99,Assisted_Takeoff,
0.352821167583754,36.883415038123296,6300,2018-04-04 08:02:12,1768.5715897942928,0.0,0.0,0.0571647018292704,1768.5715897942928,0.0,0.0,0.0571647018292704,1163,0.0,99,Assisted_Takeoff,
0.35282116059610097,36.883415013088005,6400,2018-04-04 08:02:12,1768.5715897942928,0.0,0.0,0.0596671019093472,1768.5715897942928,0.0,0.0,0.0596671019093472,1197,0.0,99,Assisted_Takeoff,
0.3528211608851501,36.883415000214,6500,2018-04-04 08:02:12,1768.5715897942928,0.0,0.0,0.061066201954118396,1768.5715897942928,0.0,0.0,0.061066201954118396,1204,0.0,99,Assisted_Takeoff,
0.35282115346290605,36.883414961654296,6600,2018-04-04 08:02:12,1768.5715897942928,0.0,0.0,0.0650697020822304,1768.5715897942928,0.0,0.0,0.0650697020822304,1194,0.0,99,Assisted_Takeoff,
0.3528211542687821,36.8834149322825,6700,2018-04-04 08:02:12,1768.5715897942928,0.0,0.0,0.06828720218519041,1768.5715897942928,0.0,0.0,0.06828720218519041,1191,0.0,99,Assisted_Takeoff,
0.35282115261631897,36.883414921069104,6800,2018-04-04 08:02:12,1768.5715897942928,0.0,0.0,0.0694748022231936,1768.5715897942928,0.0,0.0,0.0694748022231936,1182,0.0,99,Assisted_Takeoff,
0.35282115866680197,36.8834149413794,6900,2018-04-04 08:02:12,1768.5715897942928,0.0,0.0,0.0673953021566496,1768.5715897942928,0.0,0.0,0.0694748022231936,1187,0.0,99,Assisted_Takeoff,
0.3528211325919529,36.8834149677503,7000,2018-04-04 08:02:12,1768.5715897942928,0.0,0.0,0.0639649020468768,1768.5715897942928,0.0,0.0,0.0694748022231936,1189,0.0,99,P-GPS,
0.352821075837423,36.8834149676738,7100,2018-04-04 08:02:12,1768.5715897942928,0.0,0.0,0.06318960202206719,1768.5715897942928,0.0,0.0,0.0694748022231936,1225,0.0,99,P-GPS,
0.352821013504454,36.883414911059496,7200,2018-04-04 08:02:13,1768.5715897942928,0.0,0.0,0.069342002218944,1768.5715897942928,0.0,0.0,0.0694748022231936,1234,0.0,99,P-GPS,Obstacle Avoided. Revise Flight Route
0.3528209682821579,36.883414827204,7300,2018-04-04 08:02:13,1768.5715897942928,0.0,0.0,0.0789634025268288,1768.5715897942928,0.0,0.0,0.0789634025268288,1240,0.0,99,P-GPS,
0.352820927886976,36.8834147024248,7400,2018-04-04 08:02:13,1768.6715897974927,0.10000000320000002,0.0,0.09324710298390722,1768.6715897974927,0.10000000320000002,0.0,0.09324710298390722,1243,0.0,99,P-GPS,
0.35282089678227097,36.8834145662952,7500,2018-04-04 08:02:13,1768.6715897974927,0.10000000320000002,0.0,0.10871100347875201,1768.6715897974927,0.10000000320000002,0.0,0.10871100347875201,1257,0.0,99,P-GPS,
0.3528208678910279,36.883414408852204,7600,2018-04-04 08:02:13,1768.771589800693,0.20000000640000004,0.35999970196000003,0.12649800404793599,1768.771589800693,0.20000000640000004,0.35999970196000003,0.12649800404793599,1250,0.0,99,P-GPS,
0.35282084567742295,36.883414265067294,7700,2018-04-04 08:02:13,1768.871589803893,0.3000000096,0.35999970196000003,0.142677004565664,1768.871589803893,0.3000000096,0.35999970196000003,0.142677004565664,1266,0.0,99,P-GPS,
0.35282082923807795,36.8834141611043,7800,2018-04-04 08:02:13,1768.9715898070929,0.4000000128000001,0.35999970196000003,0.154381004940192,1768.9715898070929,0.4000000128000001,0.35999970196000003,0.154381004940192,1269,0.0,99,P-GPS,Home Point Recorded. RTH Altitude:  30m.
0.352820799804359,36.883414074966204,7900,2018-04-04 08:02:13,1769.0715898102926,0.500000016,0.0,0.164347005259104,1769.0715898102926,0.500000016,0.35999970196000003,0.164347005259104,1269,0.0,99,P-GPS,Obstacle Avoided. Revise Flight Route
0.352820741748703,36.8834140388186,8000,2018-04-04 08:02:13,1769.171589813493,0.6000000192,0.0,0.16943300542185602,1769.171589813493,0.6000000192,0.35999970196000003,0.16943300542185602,1259,0.0,99,P-GPS,
0.352820681952239,36.8834140198738,8100,2018-04-04 08:02:13,1769.2715898166928,0.7000000224000001,0.0,0.172882005532224,1769.2715898166928,0.7000000224000001,0.35999970196000003,0.172882005532224,1261,0.0,99,P-GPS,
0.3528206140758429,36.8834140070936,8200,2018-04-04 08:02:14,1769.3715898198927,0.8000000256000002,0.0,0.176112005635584,1769.3715898198927,0.8000000256000002,0.35999970196000003,0.176112005635584,1257,0.0,99,P-GPS,
0.35282055190734796,36.8834139715915,8300,2018-04-04 08:02:14,1769.471589823093,0.9000000288000001,0.0,0.181836005818752,1769.471589823093,0.9000000288000001,0.35999970196000003,0.181836005818752,1292,0.0,99,P-GPS,
0.3528204900472379,36.8834138983632,8400,2018-04-04 08:02:14,1769.571589826293,1.000000032,0.0,0.191689006134048,1769.571589826293,1.000000032,0.35999970196000003,0.191689006134048,1299,0.0,99,P-GPS,
0.35282043852611994,36.883413834425,8500,2018-04-04 08:02:14,1769.6715898294929,1.1000000352,0.0,0.20026800640857598,1769.6715898294929,1.1000000352,0.35999970196000003,0.20026800640857598,1265,0.0,99,P-GPS,
0.35282036477959106,36.883413749509295,8600,2018-04-04 08:02:14,1769.7715898326928,1.2000000384,0.0,0.21194000678207997,1769.7715898326928,1.2000000384,0.35999970196000003,0.21194000678207997,1237,0.0,99,P-GPS,
0.352820214167656,36.8834136091334,8800,2018-04-04 08:02:14,1770.0715898422927,1.5000000480000002,0.0,0.23265700744502402,1770.0715898422927,1.5000000480000002,0.35999970196000003,0.23265700744502402,1242,0.0,99,P-GPS,
0.35282016681616796,36.8834135462688,8900,2018-04-04 08:02:14,1770.1715898454927,1.6000000512000003,0.0,0.241161007717152,1770.1715898454927,1.6000000512000003,0.35999970196000003,0.241161007717152,1237,0.0,99,P-GPS,
0.35282010995212504,36.8834134370195,9000,2018-04-04 08:02:14,1770.2715898486929,1.7000000544000002,0.0,0.254826008154432,1770.2715898486929,1.7000000544000002,0.35999970196000003,0.254826008154432,1237,0.0,99,P-GPS,
0.352820071288997,36.8834133302446,9100,2018-04-04 08:02:14,1770.3715898518928,1.8000000576000001,0.0,0.267427008557664,1770.3715898518928,1.8000000576000001,0.35999970196000003,0.267427008557664,1235,0.0,99,P-GPS,
0.35281999947024,36.8834131567246,9200,2018-04-04 08:02:15,1770.4715898550928,1.9000000607999998,0.0,0.288307009225824,1770.4715898550928,1.9000000607999998,0.35999970196000003,0.288307009225824,1228,0.0,99,P-GPS,
0.35281994469488004,36.88341301071689,9300,2018-04-04 08:02:15,1770.5715898582928,2.000000064,0.0,0.305628009780096,1770.5715898582928,2.000000064,0.35999970196000003,0.305628009780096,1243,0.0,99,P-GPS,
0.35281990619805703,36.883412894089,9400,2018-04-04 08:02:15,1770.671589861493,2.1000000672,0.0,0.31923401021548803,1770.671589861493,2.1000000672,0.35999970196000003,0.31923401021548803,1221,0.0,99,P-GPS,
0.35281989980946793,36.8834128176583,9500,2018-04-04 08:02:15,1770.771589864693,2.2000000704,0.0,0.32734101047491204,1770.771589864693,2.2000000704,0.35999970196000003,0.32734101047491204,1212,0.0,99,P-GPS,
0.35281985508048797,36.8834127625006,9600,2018-04-04 08:02:15,1770.871589867893,2.3000000736,0.0,0.33492501071760006,1770.871589867893,2.3000000736,0.35999970196000003,0.33492501071760006,1199,0.0,99,P-GPS,
0.352819826043906,36.8834127206815,9700,2018-04-04 08:02:15,1770.9715898710926,2.4000000768,0.0,0.34047001089504003,1770.9715898710926,2.4000000768,0.35999970196000003,0.34047001089504003,1205,0.0,99,P-GPS,
0.35281977518780394,36.883412624436204,9800,2018-04-04 08:02:15,1770.9715898710926,2.4000000768,0.0,0.35253701128118403,1770.9715898710926,2.4000000768,0.35999970196000003,0.35253701128118403,1216,0.0,99,P-GPS,
0.35281974831135293,36.8834125254817,9900,2018-04-04 08:02:15,1771.0715898742928,2.50000008,0.0,0.363827011642464,1771.0715898742928,2.50000008,0.35999970196000003,0.363827011642464,1221,-0.1,99,P-GPS,
0.35281974899417995,36.883412483077,10000,2018-04-04 08:02:15,1771.1715898774928,2.6000000832000003,0.0,0.368139011780448,1771.1715898774928,2.6000000832000003,0.35999970196000003,0.368139011780448,1200,-0.4,99,P-GPS,
0.352819774755859,36.8834124666232,10100,2018-04-04 08:02:15,1771.2715898806928,2.7000000863999998,0.0,0.368729011799328,1771.2715898806928,2.7000000863999998,0.35999970196000003,0.368729011799328,1197,-1.0,99,P-GPS,
0.352819789179089,36.8834124328609,10200,2018-04-04 08:02:16,1771.3715898838927,2.8000000896000006,0.0,0.37160501189135997,1771.3715898838927,2.8000000896000006,0.35999970196000003,0.37160501189135997,1220,-2.6,99,P-GPS,
0.35281981534299395,36.883412353151996,10400,2018-04-04 08:02:16,1771.471589887093,2.9000000928,0.0,0.378796012121472,1771.471589887093,2.9000000928,0.35999970196000003,0.378796012121472,1215,-3.5,99,P-GPS,
0.352819833458924,36.883412318344796,10500,2018-04-04 08:02:16,1771.571589890293,3.0000000960000004,0.0,0.38170501221456005,1771.571589890293,3.0000000960000004,0.35999970196000003,0.38170501221456005,1211,-3.5,99,P-GPS,
0.35281981144378605,36.8834122733294,10600,2018-04-04 08:02:16,1771.6715898934929,3.1000000992,0.0,0.38725101239203197,1771.6715898934929,3.1000000992,0.35999970196000003,0.38725101239203197,1216,-4.4,99,P-GPS,
0.352819797310215,36.8834122307807,10700,2018-04-04 08:02:16,1771.6715898934929,3.1000000992,0.0,0.3922330125514561,1771.6715898934929,3.1000000992,0.35999970196000003,0.3922330125514561,1216,-5.4,99,P-GPS,
0.35281977169336604,36.8834121767755,10800,2018-04-04 08:02:16,1771.771589896693,3.2000001024000007,0.0,0.39885701276342395,1771.771589896693,3.2000001024000007,0.35999970196000003,0.39885701276342395,1216,-6.3,99,P-GPS,
0.35281976571657003,36.8834121308375,10900,2018-04-04 08:02:16,1771.8715898998928,3.3000001056,0.0,0.403874012923968,1771.8715898998928,3.3000001056,0.35999970196000003,0.403874012923968,1216,-7.2,99,P-GPS,
0.35281971343578294,36.8834121375191,11000,2018-04-04 08:02:16,1771.9715899030928,3.4000001088000005,0.0,0.405247012967904,1771.9715899030928,3.4000001088000005,0.35999970196000003,0.405247012967904,1214,-8.2,99,P-GPS,
0.35281967291683897,36.883412160353,11100,2018-04-04 08:02:16,1772.0715899062927,3.500000112,0.0,0.40454501294544004,1772.0715899062927,3.500000112,0.35999970196000003,0.405247012967904,1214,-9.0,99,P-GPS,
0.352819621471036,36.883412167294004,11200,2018-04-04 08:02:17,1772.0715899062927,3.500000112,0.0,0.406007012992224,1772.0715899062927,3.500000112,0.35999970196000003,0.406007012992224,1241,-9.4,99,P-GPS,
0.352819564673149,36.8834121083301,11400,2018-04-04 08:02:17,1772.271589912693,3.7000001184,0.0,0.4145090132642881,1772.271589912693,3.7000001184,0.35999970196000003,0.4145090132642881,1244,-9.4,99,P-GPS,
0.35281955081224003,36.883412054926794,11500,2018-04-04 08:02:17,1772.3715899158929,3.8000001215999997,0.0,0.42057601345843204,1772.3715899158929,3.8000001215999997,0.35999970196000003,0.42057601345843204,1250,-9.5,99,P-GPS,
0.3528195324144871,36.8834120328717,11600,2018-04-04 08:02:17,1772.4715899190928,3.9000001248,0.0,0.42363501355632005,1772.4715899190928,3.9000001248,0.35999970196000003,0.42363501355632005,1250,-9.5,99,P-GPS,
0.35281952523651006,36.8834120229596,11700,2018-04-04 08:02:17,1772.571589922293,4.000000128,0.0,0.42496301359881605,1772.571589922293,4.000000128,0.35999970196000003,0.42496301359881605,1244,-9.5,99,P-GPS,
0.352819519697968,36.8834119902438,11800,2018-04-04 08:02:17,1772.671589925493,4.100000131200001,0.0,0.42855001371359996,1772.671589925493,4.100000131200001,0.35999970196000003,0.42855001371359996,1246,-9.5,99,P-GPS,
0.352819521854028,36.8834119591001,11900,2018-04-04 08:02:17,1772.7715899286927,4.2000001344,0.0,0.43164401381260803,1772.7715899286927,4.2000001344,0.35999970196000003,0.43164401381260803,1242,-9.4,99,P-GPS,
0.35281952509951703,36.8834119769879,12000,2018-04-04 08:02:17,1772.8715899318927,4.3000001376,0.0,0.429671013749472,1772.8715899318927,4.3000001376,0.35999970196000003,0.43164401381260803,1245,-9.5,99,P-GPS,
0.352819532390264,36.883412008239205,12100,2018-04-04 08:02:17,1772.9715899350929,4.4000001408,0.0,0.42615501363696007,1772.9715899350929,4.4000001408,0.35999970196000003,0.43164401381260803,1246,-9.5,99,P-GPS,
0.35281951002877704,36.883412017230796,12200,2018-04-04 08:02:17,1773.0715899382928,4.5000001439999995,0.0,0.42621801363897605,1773.0715899382928,4.5000001439999995,0.35999970196000003,0.43164401381260803,1244,-9.4,99,P-GPS,
0.352819490711665,36.883412007568396,12300,2018-04-04 08:02:18,1773.1715899414928,4.6000001472,0.0,0.42806001369792,1773.1715899414928,4.6000001472,0.35999970196000003,0.43164401381260803,1244,-9.4,99,P-GPS,
0.35281946390645896,36.883412019293296,12400,2018-04-04 08:02:18,1773.2715899446928,4.700000150400001,0.0,0.428073013698336,1773.2715899446928,4.700000150400001,0.35999970196000003,0.43164401381260803,1245,-9.5,99,P-GPS,
0.352819450360858,36.883412033290895,12500,2018-04-04 08:02:18,1773.371589947893,4.8000001536,0.0,0.42727001367264,1773.371589947893,4.8000001536,0.35999970196000003,0.43164401381260803,1246,-9.4,99,P-GPS,
0.352819406704819,36.8834120197044,12600,2018-04-04 08:02:18,1773.471589951093,4.9000001568,0.0,0.43066401378124797,1773.471589951093,4.9000001568,0.35999970196000003,0.43164401381260803,1245,-9.5,99,P-GPS,
0.35281936939676,36.883411997859504,12700,2018-04-04 08:02:18,1773.5715899542927,5.00000016,0.0,0.434619013907808,1773.5715899542927,5.00000016,0.35999970196000003,0.434619013907808,1245,-9.5,99,P-GPS,
0.35281933092151396,36.8834120085927,12800,2018-04-04 08:02:18,1773.671589957493,5.1000001632,0.0,0.4353830139322561,1773.671589957493,5.1000001632,0.35999970196000003,0.4353830139322561,1246,-9.5,99,P-GPS,
0.352819311214186,36.883412021030104,12900,2018-04-04 08:02:18,1773.7715899606928,5.200000166400001,0.0,0.435098013923136,1773.7715899606928,5.200000166400001,0.35999970196000003,0.4353830139322561,1244,-9.5,99,P-GPS,
0.35281926926882795,36.8834119754816,13000,2018-04-04 08:02:18,1773.8715899638928,5.3000001696,0.0,0.4417030141344961,1773.8715899638928,5.3000001696,0.35999970196000003,0.4417030141344961,1245,-9.5,99,P-GPS,
0.35281923923126207,36.883411922278,13100,2018-04-04 08:02:18,1773.9715899670928,5.4000001727999996,0.0,0.44848801435161606,1773.9715899670928,5.4000001727999996,0.35999970196000003,0.44848801435161606,1246,-9.6,99,P-GPS,
0.352819192580515,36.883411879483,13200,2018-04-04 08:02:19,1774.071589970293,5.500000176000001,0.0,0.4550650145620801,1774.071589970293,5.500000176000001,0.35999970196000003,0.4550650145620801,1249,-9.6,99,P-GPS,
0.352819162543865,36.883411850303396,13300,2018-04-04 08:02:19,1774.171589973493,5.600000179200001,0.0,0.45946801470297605,1774.171589973493,5.600000179200001,0.35999970196000003,0.45946801470297605,1249,-9.7,99,P-GPS,
0.352819138401165,36.88341183729621,13400,2018-04-04 08:02:19,1774.271589976693,5.7000001824,0.0,0.46197701478326403,1774.271589976693,5.7000001824,0.35999970196000003,0.46197701478326403,1254,-9.9,99,P-GPS,
0.35281912929185294,36.8834118287809,13500,2018-04-04 08:02:19,1774.3715899798929,5.8000001856,0.0,0.463282014825024,1774.3715899798929,5.8000001856,0.35999970196000003,0.463282014825024,1257,-10.1,99,P-GPS,
0.352819118547786,36.8834118512444,13600,2018-04-04 08:02:19,1774.471589983093,5.9000001888,0.0,0.46161101477155203,1774.471589983093,5.9000001888,0.35999970196000003,0.463282014825024,1255,-10.1,99,P-GPS,
0.35281911682555395,36.883411869709796,13700,2018-04-04 08:02:19,1774.5715899862928,6.000000192000001,0.0,0.459879014716128,1774.5715899862928,6.000000192000001,0.35999970196000003,0.463282014825024,1252,-10.4,99,P-GPS,
0.3528190575177261,36.8834118678194,13800,2018-04-04 08:02:19,1774.6715899894928,6.1000001952,0.0,0.463157014821024,1774.6715899894928,6.1000001952,0.35999970196000003,0.463282014825024,1253,-10.7,99,P-GPS,
0.35281889896951707,36.8834117042351,14100,2018-04-04 08:02:19,1774.9715899990929,6.400000204800001,0.0,0.487584015602688,1774.9715899990929,6.400000204800001,0.35999970196000003,0.487584015602688,1253,-11.9,99,P-GPS,
0.35281886312624394,36.8834116480061,14200,2018-04-04 08:02:19,1775.0715900022929,6.500000208,0.0,0.49498701583958404,1775.0715900022929,6.500000208,0.35999970196000003,0.49498701583958404,1252,-12.3,99,P-GPS,
0.352818840918339,36.8834116065908,14300,2018-04-04 08:02:20,1775.1715900054928,6.6000002112,0.0,0.500212016006784,1775.1715900054928,6.6000002112,0.35999970196000003,0.500212016006784,1255,-12.6,99,P-GPS,
0.352818781742516,36.8834115223343,14400,2018-04-04 08:02:20,1775.271590008693,6.7000002144,0.0,0.511602016371264,1775.271590008693,6.7000002144,0.35999970196000003,0.511602016371264,1255,-13.0,99,P-GPS,
0.3528187365494289,36.8834114418046,14500,2018-04-04 08:02:20,1775.371590011893,6.800000217600001,0.0,0.521871016699872,1775.371590011893,6.800000217600001,0.35999970196000003,0.521871016699872,1256,-13.4,99,P-GPS,
0.35281870959929207,36.8834113449266,14600,2018-04-04 08:02:20,1775.4715900150927,6.9000002208,0.0,0.5327390170476479,1775.4715900150927,6.9000002208,0.35999970196000003,0.5327390170476479,1257,-13.8,99,P-GPS,
0.352818697346192,36.883411259991,14700,2018-04-04 08:02:20,1775.5715900182927,7.000000224,0.0,0.5416710173334721,1775.5715900182927,7.000000224,0.35999970196000003,0.5416710173334721,1267,-14.2,99,P-GPS,
0.35281866341572904,36.883411208519504,14800,2018-04-04 08:02:20,1775.7715900246928,7.200000230400001,0.0,0.5485030175520961,1775.7715900246928,7.200000230400001,0.35999970196000003,0.5485030175520961,1261,-14.6,99,P-GPS,
0.35281863907069505,36.883411171628104,14900,2018-04-04 08:02:20,1775.8715900278928,7.3000002336000005,0.0,0.5534020177088641,1775.8715900278928,7.3000002336000005,0.35999970196000003,0.5534020177088641,1260,-15.0,99,P-GPS,
0.35281862253216706,36.88341114116329,15000,2018-04-04 08:02:20,1775.971590031093,7.4000002368,0.0,0.557257017832224,1775.971590031093,7.4000002368,0.35999970196000003,0.557257017832224,1264,-15.4,99,P-GPS,
0.352818628775443,36.8834111051973,15100,2018-04-04 08:02:20,1776.071590034293,7.50000024,0.0,0.56043501793392,1776.071590034293,7.50000024,0.35999970196000003,0.56043501793392,1275,-15.7,99,P-GPS,
0.35281859068649396,36.88341103881729,15200,2018-04-04 08:02:21,1776.171590037493,7.600000243199999,0.0,0.5689430182061761,1776.171590037493,7.600000243199999,0.35999970196000003,0.5689430182061761,1275,-15.8,99,P-GPS,
0.352818561250741,36.883410953555206,15300,2018-04-04 08:02:21,1776.2715900406927,7.7000002464,0.0,0.578839018522848,1776.2715900406927,7.7000002464,0.35999970196000003,0.578839018522848,1271,-15.8,99,P-GPS,
0.3528185319127701,36.8834108626207,15400,2018-04-04 08:02:21,1776.3715900438929,7.8000002496,0.0,0.589291018857312,1776.3715900438929,7.8000002496,0.35999970196000003,0.589291018857312,1269,-15.8,99,P-GPS,
0.352818535848159,36.8834107805402,15500,2018-04-04 08:02:21,1776.5715900502928,8.000000256,0.0,0.5971500191088,1776.5715900502928,8.000000256,0.35999970196000003,0.5971500191088,1269,-15.8,99,P-GPS,
0.35281851510308004,36.883410709275395,15600,2018-04-04 08:02:21,1776.6715900534928,8.1000002592,0.0,0.6052410193677121,1776.6715900534928,8.1000002592,0.35999970196000003,0.6052410193677121,1272,-15.8,99,P-GPS,
0.352818522638807,36.883410650297996,15700,2018-04-04 08:02:21,1776.771590056693,8.200000262400001,0.0,0.610679019541728,1776.771590056693,8.200000262400001,0.35999970196000003,0.610679019541728,1277,-15.8,99,P-GPS,
0.352818518835627,36.883410586778396,15800,2018-04-04 08:02:21,1776.871590059893,8.3000002656,0.0,0.617161019749152,1776.871590059893,8.3000002656,0.35999970196000003,0.617161019749152,1280,-15.8,99,P-GPS,
0.352818527483911,36.883410522154996,15900,2018-04-04 08:02:21,1776.971590063093,8.4000002688,0.0,0.6231450199406401,1776.971590063093,8.4000002688,0.35999970196000003,0.6231450199406401,1291,-15.8,99,P-GPS,
0.352818502907549,36.8834104949083,16000,2018-04-04 08:02:21,1777.171590069493,8.6000002752,0.0,0.627079020066528,1777.171590069493,8.6000002752,0.35999970196000003,0.627079020066528,1292,-15.8,99,P-GPS,
0.352818492648886,36.8834104804949,16100,2018-04-04 08:02:21,1777.2715900726928,8.700000278400001,0.0,0.6290230201287361,1777.2715900726928,8.700000278400001,0.35999970196000003,0.6290230201287361,1295,-15.8,99,P-GPS,
0.35281841123342894,36.8834104732535,16200,2018-04-04 08:02:22,1777.3715900758928,8.8000002816,0.0,0.633856020283392,1777.3715900758928,8.8000002816,0.35999970196000003,0.633856020283392,1299,-15.8,99,P-GPS,
0.352818343365058,36.8834104524205,16300,2018-04-04 08:02:22,1777.571590082293,9.000000287999999,0.0,0.6394100204611199,1777.571590082293,9.000000287999999,0.35999970196000003,0.6394100204611199,1290,-15.8,99,P-GPS,
0.352818270543294,36.8834104245289,16400,2018-04-04 08:02:22,1777.6715900854929,9.1000002912,0.0,0.64596502067088,1777.6715900854929,9.1000002912,0.35999970196000003,0.64596502067088,1289,-15.8,99,P-GPS,
0.352818244742364,36.8834103887429,16500,2018-04-04 08:02:22,1777.7715900886928,9.2000002944,0.0,0.650831020826592,1777.7715900886928,9.2000002944,0.35999970196000003,0.650831020826592,1296,-15.8,99,P-GPS,
0.352818226290128,36.8834103106298,16600,2018-04-04 08:02:22,1777.971590095093,9.400000300800002,0.0,0.659449021102368,1777.971590095093,9.400000300800002,0.35999970196000003,0.659449021102368,1305,-15.8,99,P-GPS,
0.35281823892265507,36.8834102339559,16700,2018-04-04 08:02:22,1778.0715900982927,9.500000304,0.0,0.6663160213221121,1778.0715900982927,9.500000304,0.35999970196000003,0.6663160213221121,1319,-15.8,99,P-GPS,
0.3528182133019961,36.8834101385102,16800,2018-04-04 08:02:22,1778.1715901014927,9.6000003072,0.0,0.6770380216652161,1778.1715901014927,9.6000003072,0.35999970196000003,0.6770380216652161,1325,-15.8,99,P-GPS,
0.35281819223171795,36.8834100642482,16900,2018-04-04 08:02:22,1778.3715901078929,9.8000003136,0.0,0.6854450219342401,1778.3715901078929,9.8000003136,0.35999970196000003,0.6854450219342401,1326,-15.8,99,P-GPS,
0.35281812984249195,36.8834099360593,17000,2018-04-04 08:02:22,1778.4715901110928,9.900000316799998,0.0,0.701293022441376,1778.4715901110928,9.900000316799998,0.35999970196000003,0.701293022441376,1327,-15.8,99,P-GPS,
0.35281810150297405,36.8834098127234,17100,2018-04-04 08:02:22,1778.671590117493,10.100000323200002,0.0,0.7149280228776961,1778.671590117493,10.100000323200002,0.35999970196000003,0.7149280228776961,1331,-15.8,99,P-GPS,
0.35281810286532,36.8834097203441,17200,2018-04-04 08:02:23,1778.871590123893,10.300000329600001,0.0,0.724018023168576,1778.871590123893,10.300000329600001,0.35999970196000003,0.724018023168576,1334,-15.8,99,P-GPS,
0.35281813244947796,36.8834096479741,17300,2018-04-04 08:02:23,1778.9715901270927,10.400000332800001,0.0,0.729753023352096,1778.9715901270927,10.400000332800001,0.35999970196000003,0.729753023352096,1347,-15.8,99,P-GPS,
0.3528181250948139,36.88340959328389,17400,2018-04-04 08:02:23,1779.1715901334928,10.6000003392,0.0,0.735573023538336,1779.1715901334928,10.6000003392,0.35999970196000003,0.735573023538336,1348,-15.8,99,P-GPS,
0.352818124897416,36.883409537617396,17500,2018-04-04 08:02:23,1779.3715901398928,10.800000345599999,0.0,0.741147023716704,1779.3715901398928,10.800000345599999,0.35999970196000003,0.741147023716704,1357,-15.8,99,P-GPS,
0.35281812970041,36.8834094903329,17600,2018-04-04 08:02:23,1779.571590146293,11.000000352000002,0.0,0.7456500238607999,1779.571590146293,11.000000352000002,0.35999970196000003,0.7456500238607999,1357,-15.8,98,P-GPS,
0.35281814083466706,36.883409445995206,17700,2018-04-04 08:02:23,1779.7715901526926,11.200000358400002,0.0,0.74956502398608,1779.7715901526926,11.200000358400002,0.35999970196000003,0.74956502398608,1358,-15.8,98,P-GPS,
0.35281810164356703,36.8834093870687,17800,2018-04-04 08:02:23,1779.9715901590928,11.4000003648,0.0,0.75735502423536,1779.9715901590928,11.4000003648,0.35999970196000003,0.75735502423536,1357,-15.8,98,P-GPS,
0.352818066265825,36.8834093122354,17900,2018-04-04 08:02:23,1780.1715901654927,11.6000003712,0.0,0.76656002452992,1780.1715901654927,11.6000003712,0.35999970196000003,0.76656002452992,1356,-15.8,98,P-GPS,
0.352818003261606,36.8834092374878,18000,2018-04-04 08:02:23,1780.3715901718929,11.8000003776,0.0,0.777084024866688,1780.3715901718929,11.8000003776,0.35999970196000003,0.777084024866688,1349,-15.8,98,P-GPS,
0.35281796684252503,36.8834091691207,18100,2018-04-04 08:02:23,1780.4715901750928,11.900000380800002,0.0,0.7856910251421121,1780.4715901750928,11.900000380800002,0.35999970196000003,0.7856910251421121,1331,-15.8,98,P-GPS,
0.352817929141222,36.883409114786,18200,2018-04-04 08:02:24,1780.671590181493,12.1000003872,0.0,0.7929550253745601,1780.671590181493,12.1000003872,0.35999970196000003,0.7929550253745601,1338,-15.8,98,P-GPS,
0.35281791895222603,36.883409064332795,18300,2018-04-04 08:02:24,1780.8715901878927,12.300000393600001,0.0,0.7985000255520001,1780.8715901878927,12.300000393600001,0.35999970196000003,0.7985000255520001,1352,-15.8,98,P-GPS,
0.352817910694336,36.8834090246519,18400,2018-04-04 08:02:24,1781.0715901942929,12.500000400000001,0.0,0.802875025692,1781.0715901942929,12.500000400000001,0.35999970196000003,0.802875025692,1361,-15.8,98,P-GPS,
0.35281792622539093,36.8834089878565,18500,2018-04-04 08:02:24,1781.2715902006928,12.700000406400001,0.0,0.8058250257864,1781.2715902006928,12.700000406400001,0.35999970196000003,0.8058250257864,1363,-15.8,98,P-GPS,
0.35281790014560604,36.8834089558803,18600,2018-04-04 08:02:24,1781.471590207093,12.900000412799999,0.0,0.8102810259289921,1781.471590207093,12.900000412799999,0.35999970196000003,0.8102810259289921,1359,-15.8,98,P-GPS,
0.352817880017962,36.883408920194896,18700,2018-04-04 08:02:24,1781.6715902134927,13.100000419199999,0.0,0.8148260260744321,1781.6715902134927,13.100000419199999,0.35999970196000003,0.8148260260744321,1357,-15.8,98,P-GPS,
0.35281784816025397,36.883408914208495,18800,2018-04-04 08:02:24,1781.8715902198928,13.3000004256,0.0,0.816957026142624,1781.8715902198928,13.3000004256,0.35999970196000003,0.816957026142624,1365,-15.8,98,P-GPS,
0.352817840691345,36.883408910663704,18900,2018-04-04 08:02:24,1782.0715902262928,13.500000432000002,0.0,0.817673026165536,1782.0715902262928,13.500000432000002,0.35999970196000003,0.817673026165536,1357,-15.8,98,P-GPS,
0.35281780432915705,36.883408905009496,19000,2018-04-04 08:02:24,1782.271590232693,13.7000004384,0.0,0.8200020262400639,1782.271590232693,13.7000004384,0.35999970196000003,0.8200020262400639,1359,-15.8,98,P-GPS,
0.35281779013385794,36.883408892457396,19100,2018-04-04 08:02:24,1782.4715902390926,13.9000004448,0.0,0.8219480263023361,1782.4715902390926,13.9000004448,0.35999970196000003,0.8219480263023361,1366,-15.8,98,P-GPS,
0.352817765973653,36.8834088697101,19200,2018-04-04 08:02:25,1782.6715902454928,14.100000451200001,0.0,0.825401026412832,1782.6715902454928,14.100000451200001,0.35999970196000003,0.825401026412832,1384,-15.8,98,P-GPS,
0.35281776565946504,36.8834088346374,19300,2018-04-04 08:02:25,1782.871590251893,14.300000457600001,0.0,0.82892002652544,1782.871590251893,14.300000457600001,0.35999970196000003,0.82892002652544,1380,-15.8,98,P-GPS,
0.35281772791488103,36.883408800206205,19400,2018-04-04 08:02:25,1783.0715902582929,14.500000464,0.0,0.834204026694528,1783.0715902582929,14.500000464,0.35999970196000003,0.834204026694528,1368,-15.8,98,P-GPS,
0.35281769911788396,36.883408767011396,19500,2018-04-04 08:02:25,1783.271590264693,14.7000004704,0.0,0.83893002684576,1783.271590264693,14.7000004704,0.35999970196000003,0.83893002684576,1354,-15.8,98,P-GPS,
0.352817613155735,36.8834087151556,19600,2018-04-04 08:02:25,1783.4715902710927,14.9000004768,0.0,0.848349027147168,1783.4715902710927,14.9000004768,0.35999970196000003,0.848349027147168,1351,-15.9,98,P-GPS,
0.352817549389176,36.883408672821005,19700,2018-04-04 08:02:25,1783.671590277493,15.100000483200002,0.0,0.855747027383904,1783.671590277493,15.100000483200002,0.35999970196000003,0.855747027383904,1351,-16.1,98,P-GPS,
0.352817492862323,36.8834086516991,19800,2018-04-04 08:02:25,1783.8715902838928,15.3000004896,0.0,0.8606990275423679,1783.8715902838928,15.3000004896,0.35999970196000003,0.8606990275423679,1349,-16.7,98,P-GPS,
0.35281747803554403,36.883408638050206,19900,2018-04-04 08:02:25,1784.071590290293,15.500000496,0.0,0.8628040276097281,1784.071590290293,15.500000496,0.35999970196000003,0.8628040276097281,1346,-17.4,98,P-GPS,
0.35281744082972,36.883408536515205,20000,2018-04-04 08:02:25,1784.2715902966927,15.700000502400002,0.0,0.874737027991584,1784.2715902966927,15.700000502400002,0.35999970196000003,0.874737027991584,1349,-17.4,98,P-GPS,
0.35281742526148996,36.883408404646204,20100,2018-04-04 08:02:25,1784.4715903030929,15.900000508800002,0.0,0.8885880284348161,1784.4715903030929,15.900000508800002,0.35999970196000003,0.8885880284348161,1358,-18.1,98,P-GPS,
0.3528174026614361,36.8834082835761,20200,2018-04-04 08:02:25,1784.6715903094928,16.1000005152,0.0,0.9017440288558081,1784.6715903094928,16.1000005152,0.35999970196000003,0.9017440288558081,1348,-18.9,98,P-GPS,
0.352817402726675,36.8834082084825,20300,2018-04-04 08:02:26,1784.871590315893,16.3000005216,0.0,0.9092150290948801,1784.871590315893,16.3000005216,0.35999970196000003,0.9092150290948801,1360,-19.7,98,P-GPS,
0.35281736766922794,36.8834081846841,20400,2018-04-04 08:02:26,1785.0715903222929,16.500000528,0.0,0.913321029226272,1785.0715903222929,16.500000528,0.35999970196000003,0.913321029226272,1354,-20.5,98,P-GPS,
0.35281733724511,36.8834081849273,20500,2018-04-04 08:02:26,1785.171590325493,16.6000005312,0.0,0.914812029273984,1785.171590325493,16.6000005312,0.35999970196000003,0.914812029273984,1362,-21.3,98,P-GPS,
0.352817261896396,36.883408171244604,20600,2018-04-04 08:02:26,1785.3715903318928,16.8000005376,0.0,0.9199610294387522,1785.3715903318928,16.8000005376,0.35999970196000003,0.9199610294387522,1371,-22.1,98,P-GPS,
0.35281720895842894,36.883408153198104,20700,2018-04-04 08:02:26,1785.571590338293,17.000000544000002,0.0,0.9244410295821122,1785.571590338293,17.000000544000002,0.35999970196000003,0.9244410295821122,1373,-22.9,98,P-GPS,
0.35281714257256896,36.883408124208295,20800,2018-04-04 08:02:26,1785.7715903446929,17.2000005504,0.0,0.9307130297828161,1785.7715903446929,17.2000005504,0.35999970196000003,0.9307130297828161,1376,-23.6,98,P-GPS,
0.35281711320673703,36.883408092754,20900,2018-04-04 08:02:26,1785.971590351093,17.400000556800002,0.0,0.935329029930528,1785.971590351093,17.400000556800002,0.35999970196000003,0.935329029930528,1376,-23.6,98,P-GPS,
0.352817098992456,36.8834080881301,21000,2018-04-04 08:02:26,1786.2715903606927,17.700000566400004,0.0,0.9365220299687039,1786.2715903606927,17.700000566400004,0.35999970196000003,0.9365220299687039,1363,-25.1,98,P-GPS,
0.352817107266173,36.883408084535105,21100,2018-04-04 08:02:26,1786.4715903670929,17.9000005728,0.0,0.936446029966272,1786.4715903670929,17.9000005728,0.35999970196000003,0.9365220299687039,1379,-25.9,98,P-GPS,
0.352817066446374,36.8834080633411,21200,2018-04-04 08:02:27,1786.6715903734928,18.100000579200003,0.0,0.9406520301008641,1786.6715903734928,18.100000579200003,0.35999970196000003,0.9406520301008641,1382,-26.6,98,P-GPS,
0.352817034637469,36.8834080415632,21300,2018-04-04 08:02:27,1786.871590379893,18.3000005856,0.0,0.944452030222464,1786.871590379893,18.3000005856,0.35999970196000003,0.944452030222464,1382,-26.6,98,P-GPS,
0.352816965098127,36.8834080335419,21400,2018-04-04 08:02:27,1787.0715903862929,18.500000592000003,0.0,0.9489010303648321,1787.0715903862929,18.500000592000003,0.35999970196000003,0.9489010303648321,1384,-26.6,98,P-GPS,
0.352816922261297,36.883408027483505,21500,2018-04-04 08:02:27,1787.2715903926928,18.7000005984,0.0,0.951772030456704,1787.2715903926928,18.7000005984,0.35999970196000003,0.951772030456704,1384,-26.6,98,P-GPS,
0.35281684195193497,36.883408029169296,21600,2018-04-04 08:02:27,1787.471590399093,18.900000604800002,0.0,0.9559310305897921,1787.471590399093,18.900000604800002,0.35999970196000003,0.9559310305897921,1378,-26.6,98,P-GPS,
0.352816790713148,36.8834080314814,21700,2018-04-04 08:02:27,1787.671590405493,19.1000006112,0.0,0.9584980306719361,1787.671590405493,19.1000006112,0.35999970196000003,0.9584980306719361,1373,-26.6,98,P-GPS,
0.35281674309897204,36.8834080718956,21800,2018-04-04 08:02:27,1787.9715904150928,19.4000006208,0.0,0.957216030630912,1787.9715904150928,19.4000006208,0.35999970196000003,0.9584980306719361,1374,-26.6,98,P-GPS,
0.352816735401216,36.8834081207506,21900,2018-04-04 08:02:27,1788.1715904214927,19.6000006272,0.0,0.952939030494048,1788.1715904214927,19.6000006272,0.35999970196000003,0.9584980306719361,1364,-26.6,98,P-GPS,
0.35281670311965396,36.8834082064164,22000,2018-04-04 08:02:27,1788.371590427893,19.800000633599996,0.0,0.9465310302889921,1788.371590427893,19.800000633599996,0.35999970196000003,0.9584980306719361,1364,-26.6,98,P-GPS,
0.35281668081170203,36.8834082791595,22100,2018-04-04 08:02:27,1788.5715904342928,20.00000064,0.0,0.9408500301071999,1788.5715904342928,20.00000064,0.35999970196000003,0.9584980306719361,1360,-26.6,98,P-GPS,
0.35281661865847297,36.883408360216706,22200,2018-04-04 08:02:27,1788.671590437493,20.1000006432,0.0,0.9367350299755202,1788.671590437493,20.1000006432,0.35999970196000003,0.9584980306719361,1346,-26.6,98,P-GPS,
0.352816584776151,36.8834084130199,22300,2018-04-04 08:02:28,1788.8715904438927,20.3000006496,0.0,0.9337300298793599,1788.8715904438927,20.3000006496,0.35999970196000003,0.9584980306719361,1354,-26.6,98,P-GPS,
0.35281652787282103,36.883408454312296,22400,2018-04-04 08:02:28,1789.071590450293,20.500000655999997,0.0,0.9332210298630721,1789.071590450293,20.500000655999997,0.35999970196000003,0.9584980306719361,1332,-26.6,98,P-GPS,
0.352816506858362,36.8834084773288,22500,2018-04-04 08:02:28,1789.2715904566928,20.7000006624,0.35999970196000003,0.932322029834304,1789.2715904566928,20.7000006624,0.35999970196000003,0.9584980306719361,1324,-26.6,98,P-GPS,
0.35281648391501097,36.8834084928147,22600,2018-04-04 08:02:28,1789.471590463093,20.900000668800004,0.35999970196000003,0.93225502983216,1789.471590463093,20.900000668800004,0.35999970196000003,0.9584980306719361,1320,-26.6,98,P-GPS,
0.352816491449415,36.8834084957557,22700,2018-04-04 08:02:28,1789.6715904694927,21.1000006752,0.35999970196000003,0.931526029808832,1789.6715904694927,21.1000006752,0.35999970196000003,0.9584980306719361,1324,-26.6,98,P-GPS,
0.352816507225984,36.8834085786735,22800,2018-04-04 08:02:28,1789.7715904726929,21.2000006784,0.35999970196000003,0.922834029530688,1789.7715904726929,21.2000006784,0.35999970196000003,0.9584980306719361,1323,-26.6,98,P-GPS,
0.352816541239293,36.883408672765704,22900,2018-04-04 08:02:28,1789.8715904758928,21.300000681600004,0.35999970196000003,0.912004029184128,1789.8715904758928,21.300000681600004,0.35999970196000003,0.9584980306719361,1307,-26.6,98,P-GPS,
0.35281656013657203,36.8834087719631,23000,2018-04-04 08:02:28,1790.0715904822928,21.500000688,0.0,0.9016340288522879,1790.0715904822928,21.500000688,0.35999970196000003,0.9584980306719361,1306,-26.6,98,P-GPS,
0.352816580166229,36.8834088479281,23100,2018-04-04 08:02:28,1790.271590488693,21.700000694400003,0.0,0.893364028587648,1790.271590488693,21.700000694400003,0.35999970196000003,0.9584980306719361,1306,-26.6,98,P-GPS,
0.3528165504159821,36.883408903186705,23200,2018-04-04 08:02:29,1790.371590491893,21.8000006976,0.0,0.89010502848336,1790.371590491893,21.8000006976,0.35999970196000003,0.9584980306719361,1309,-26.6,98,P-GPS,
0.35281653439799704,36.88340892802629,23300,2018-04-04 08:02:29,1790.571590498293,22.000000704000005,0.0,0.8888190284422081,1790.571590498293,22.000000704000005,0.35999970196000003,0.9584980306719361,1315,-26.6,98,P-GPS,
0.35281651792771,36.8834089543903,23400,2018-04-04 08:02:29,1790.7715905046928,22.2000007104,0.0,0.887432028397824,1790.7715905046928,22.2000007104,0.35999970196000003,0.9584980306719361,1306,-26.5,98,P-GPS,
0.352816535984508,36.883408967531295,23500,2018-04-04 08:02:29,1790.8715905078927,22.3000007136,0.0,0.885092028322944,1790.8715905078927,22.3000007136,0.35999970196000003,0.9584980306719361,1306,-26.3,98,P-GPS,
0.352816507283386,36.8834089408645,23600,2018-04-04 08:02:29,1791.071590514293,22.50000072,0.0,0.8893420284589441,1791.071590514293,22.50000072,0.35999970196000003,0.9584980306719361,1307,-26.2,98,P-GPS,
0.352816464124124,36.8834089016803,23700,2018-04-04 08:02:29,1791.2715905206928,22.700000726400003,0.0,0.895652028660864,1791.2715905206928,22.700000726400003,0.35999970196000003,0.9584980306719361,1306,-26.0,98,P-GPS,
0.352816373339389,36.883408901603296,23800,2018-04-04 08:02:29,1791.371590523893,22.8000007296,0.0,0.9014250288456,1791.371590523893,22.8000007296,0.35999970196000003,0.9584980306719361,1305,-25.8,98,P-GPS,
0.35281629746794396,36.883408916083205,23900,2018-04-04 08:02:29,1791.5715905302927,23.000000735999997,0.0,0.9049920289597441,1791.5715905302927,23.000000735999997,0.35999970196000003,0.9584980306719361,1307,-25.8,98,P-GPS,
0.352816193990099,36.8834089315411,24000,2018-04-04 08:02:29,1791.671590533493,23.100000739200006,0.0,0.910349029131168,1791.671590533493,23.100000739200006,0.35999970196000003,0.9584980306719361,1307,-25.8,98,P-GPS,
0.352816116698244,36.883408937083004,24100,2018-04-04 08:02:29,1791.8715905398928,23.300000745600002,0.0,0.9149630292788161,1791.8715905398928,23.300000745600002,0.35999970196000003,0.9584980306719361,1308,-25.8,98,P-GPS,
0.35281604941215905,36.88340894167229,24200,2018-04-04 08:02:30,1791.9715905430928,23.400000748800004,0.0,0.9190460294094721,1791.9715905430928,23.400000748800004,0.35999970196000003,0.9584980306719361,1313,-25.8,98,P-GPS,
0.352816014327944,36.8834089351691,24300,2018-04-04 08:02:30,1792.171590549493,23.6000007552,0.0,0.9219800295033601,1792.171590549493,23.6000007552,0.35999970196000003,0.9584980306719361,1313,-25.8,98,P-GPS,
0.3528159181200829,36.883408927799,24400,2018-04-04 08:02:30,1792.271590552693,23.700000758399998,0.0,0.929144029732608,1792.271590552693,23.700000758399998,0.35999970196000003,0.9584980306719361,1315,-25.7,98,P-GPS,
0.35281582500993,36.883408916753105,24500,2018-04-04 08:02:30,1792.3715905558927,23.800000761600003,0.0,0.9364830299674561,1792.3715905558927,23.800000761600003,0.35999970196000003,0.9584980306719361,1317,-25.6,98,P-GPS,
0.3528157420052899,36.8834089694103,24600,2018-04-04 08:02:30,1792.5715905622928,24.000000768000003,0.0,0.937654030004928,1792.5715905622928,24.000000768000003,0.35999970196000003,0.9584980306719361,1317,-25.6,98,P-GPS,
0.352815704868421,36.8834090409675,24700,2018-04-04 08:02:30,1792.6715905654928,24.100000771199998,0.0,0.9340860298907522,1792.6715905654928,24.100000771199998,0.35999970196000003,0.9584980306719361,1317,-25.4,98,P-GPS,
0.352815609404963,36.8834090768949,24800,2018-04-04 08:02:30,1792.871590571893,24.3000007776,0.0,0.937794030009408,1792.871590571893,24.3000007776,0.35999970196000003,0.9584980306719361,1313,-25.1,98,P-GPS,
0.35281544153966293,36.8834090729136,25000,2018-04-04 08:02:30,1793.1715905814926,24.600000787200003,0.0,0.9502420304077441,1793.1715905814926,24.600000787200003,0.35999970196000003,0.9584980306719361,1310,-24.7,98,P-GPS,
0.35281538361122794,36.883409072494395,25100,2018-04-04 08:02:30,1793.3715905878928,24.8000007936,0.0,0.9545050305441601,1793.3715905878928,24.8000007936,0.35999970196000003,0.9584980306719361,1310,-24.6,98,P-GPS,
0.352815346755877,36.883409063334206,25200,2018-04-04 08:02:31,1793.4715905910928,24.9000007968,0.0,0.9579730306551361,1793.4715905910928,24.9000007968,0.35999970196000003,0.9584980306719361,1310,-24.4,98,P-GPS,
0.35281536919990597,36.883409051402104,25300,2018-04-04 08:02:31,1793.671590597493,25.100000803199997,0.0,0.9573260306344321,1793.671590597493,25.100000803199997,0.35999970196000003,0.9584980306719361,1311,-24.3,98,P-GPS,
0.352815377762875,36.8834090744653,25400,2018-04-04 08:02:31,1793.771590600693,25.200000806400006,0.0,0.9547690305526079,1793.771590600693,25.200000806400006,0.35999970196000003,0.9584980306719361,1309,-24.2,98,P-GPS,
0.35281539151528796,36.883409106855396,25500,2018-04-04 08:02:31,1793.971590607093,25.400000812800002,0.0,0.9510520304336639,1793.971590607093,25.400000812800002,0.35999970196000003,0.9584980306719361,1307,-24.0,98,P-GPS,
0.35281536180839895,36.883409144843,25600,2018-04-04 08:02:31,1794.071590610293,25.500000816,0.0,0.950071030402272,1794.071590610293,25.500000816,0.35999970196000003,0.9584980306719361,1325,-23.8,98,P-GPS,
0.3528153466486029,36.8834091556551,25700,2018-04-04 08:02:31,1794.1715906134928,25.600000819200005,0.0,0.9502930304093761,1794.1715906134928,25.600000819200005,0.35999970196000003,0.9584980306719361,1325,-23.7,98,P-GPS,
0.352815303961997,36.883409175839205,25800,2018-04-04 08:02:31,1794.371590619893,25.800000825599998,0.0,0.9517900304572802,1794.371590619893,25.800000825599998,0.35999970196000003,0.9584980306719361,1331,-23.7,98,P-GPS,
0.3528152931017,36.8834091805162,25900,2018-04-04 08:02:31,1794.4715906230929,25.900000828800003,0.0,0.9522130304708161,1794.4715906230929,25.900000828800003,0.35999970196000003,0.9584980306719361,1333,-23.7,98,P-GPS,
0.35281526868481106,36.88340918459579,26000,2018-04-04 08:02:31,1794.6715906294928,26.100000835200003,0.0,0.9537000305184001,1794.6715906294928,26.100000835200003,0.35999970196000003,0.9584980306719361,1335,-23.7,98,P-GPS,
0.352815278122255,36.883409188057605,26100,2018-04-04 08:02:31,1794.771590632693,26.200000838399998,0.0,0.952709030486688,1794.771590632693,26.200000838399998,0.35999970196000003,0.9584980306719361,1348,-23.7,98,P-GPS,
0.35281524360331296,36.8834092115779,26200,2018-04-04 08:02:32,1794.9715906390927,26.4000008448,0.0,0.953362030507584,1794.9715906390927,26.4000008448,0.35999970196000003,0.9584980306719361,1356,-23.7,98,P-GPS,
0.35281522515548497,36.8834092288224,26300,2018-04-04 08:02:32,1795.1715906454929,26.6000008512,0.0,0.953337030506784,1795.1715906454929,26.6000008512,0.35999970196000003,0.9584980306719361,1358,-23.7,98,P-GPS,
0.35281520559766905,36.883409254083205,26400,2018-04-04 08:02:32,1795.3715906518928,26.8000008576,0.0,0.9527510304880321,1795.3715906518928,26.8000008576,0.35999970196000003,0.9584980306719361,1360,-23.7,98,P-GPS,
0.352815210137771,36.8834092754544,26500,2018-04-04 08:02:32,1795.4715906550928,26.9000008608,0.0,0.9506660304213121,1795.4715906550928,26.9000008608,0.35999970196000003,0.9584980306719361,1374,-23.7,98,P-GPS,
0.35281518579517995,36.8834092875436,26600,2018-04-04 08:02:32,1795.671590661493,27.100000867200002,0.0,0.95153003044896,1795.671590661493,27.100000867200002,0.35999970196000003,0.9584980306719361,1377,-23.7,98,P-GPS,
0.35281516327726,36.8834092807099,26700,2018-04-04 08:02:32,1795.8715906678926,27.3000008736,0.0,0.9537970305215041,1795.8715906678926,27.3000008736,0.35999970196000003,0.9584980306719361,1380,-23.7,98,P-GPS,
0.35281512177453206,36.8834092681542,26800,2018-04-04 08:02:32,1796.0715906742928,27.50000088,0.0,0.9579770306552641,1796.0715906742928,27.50000088,0.35999970196000003,0.9584980306719361,1384,-23.7,98,P-GPS,
0.35281509222682295,36.883409255315705,26900,2018-04-04 08:02:32,1796.271590680693,27.700000886400005,0.0,0.9612710307606721,1796.271590680693,27.700000886400005,0.35999970196000003,0.9612710307606721,1380,-23.7,98,P-GPS,
0.352815011801842,36.8834092484607,27000,2018-04-04 08:02:32,1796.4715906870929,27.9000008928,0.0,0.9679900309756801,1796.4715906870929,27.9000008928,0.35999970196000003,0.9679900309756801,1381,-23.7,98,P-GPS,
0.35281494605422997,36.88340924235921,27100,2018-04-04 08:02:32,1796.671590693493,28.1000008992,0.0,0.9735500311536001,1796.671590693493,28.1000008992,0.35999970196000003,0.9735500311536001,1381,-23.7,98,P-GPS,
0.352814869980247,36.8834092494006,27200,2018-04-04 08:02:32,1796.8715906998927,28.300000905599997,0.0,0.9788920313245439,1796.8715906998927,28.300000905599997,0.35999970196000003,0.9788920313245439,1382,-23.7,98,P-GPS,
0.352814840228168,36.8834092620717,27300,2018-04-04 08:02:33,1797.071590706293,28.500000912,0.0,0.980208031366656,1797.071590706293,28.500000912,0.35999970196000003,0.980208031366656,1386,-23.7,98,P-GPS,
0.352814802456002,36.8834092636596,27400,2018-04-04 08:02:33,1797.2715907126928,28.7000009184,0.0,0.9830390314572479,1797.2715907126928,28.7000009184,0.35999970196000003,0.9830390314572479,1382,-23.6,98,P-GPS,
0.352814797632551,36.88340923574879,27500,2018-04-04 08:02:33,1797.471590719093,28.9000009248,0.0,0.9856200315398399,1797.471590719093,28.9000009248,0.35999970196000003,0.9856200315398399,1380,-23.6,98,P-GPS,
0.352814731613803,36.8834091976348,27600,2018-04-04 08:02:33,1797.6715907254927,29.1000009312,0.0,0.9938000318016,1797.6715907254927,29.1000009312,0.35999970196000003,0.9938000318016,1369,-23.6,98,P-GPS,
0.35281467399253397,36.883409161779205,27700,2018-04-04 08:02:33,1797.8715907318929,29.300000937600004,0.0,1.0011500320368,1797.8715907318929,29.300000937600004,0.35999970196000003,1.0011500320368,1364,-23.6,98,P-GPS,
0.35281457783942893,36.8834091580964,27800,2018-04-04 08:02:33,1798.0715907382928,29.500000944,0.0,1.00902003228864,1798.0715907382928,29.500000944,0.35999970196000003,1.00902003228864,1372,-23.6,98,P-GPS,
0.352814520928976,36.88340916944421,27900,2018-04-04 08:02:33,1798.271590744693,29.7000009504,0.0,1.0126500324048,1798.271590744693,29.7000009504,0.35999970196000003,1.0126500324048,1379,-23.6,98,P-GPS,
0.352814442375687,36.88340918706071,28000,2018-04-04 08:02:33,1798.471590751093,29.900000956800003,0.0,1.0175500325616,1798.471590751093,29.900000956800003,0.35999970196000003,1.0175500325616,1383,-23.6,98,P-GPS,
0.352814402062335,36.88340920289279,28100,2018-04-04 08:02:33,1798.6715907574928,30.1000009632,0.0,1.01957003262624,1798.6715907574928,30.1000009632,0.35999970196000003,1.01957003262624,1390,-23.6,98,P-GPS,
0.35281434325270794,36.8834092244974,28200,2018-04-04 08:02:33,1798.8715907638928,30.300000969600003,0.0,1.02266003272512,1798.8715907638928,30.300000969600003,0.35999970196000003,1.02266003272512,1401,-23.6,98,P-GPS,
0.352814308028243,36.8834092494999,28300,2018-04-04 08:02:34,1799.071590770293,30.500000976,0.0,1.0236100327555202,1799.071590770293,30.500000976,0.35999970196000003,1.0236100327555202,1422,-23.6,98,P-GPS,
0.35281420855148504,36.883409264628206,28400,2018-04-04 08:02:34,1799.2715907766928,30.700000982400002,0.0,1.0305800329785602,1799.2715907766928,30.700000982400002,0.35999970196000003,1.0305800329785602,1423,-23.6,98,P-GPS,
0.35281412434301707,36.8834092798659,28500,2018-04-04 08:02:34,1799.4715907830928,30.900000988800006,0.0,1.03636003316352,1799.4715907830928,30.900000988800006,0.35999970196000003,1.03636003316352,1420,-23.6,98,P-GPS,
0.352814024225873,36.8834093108956,28600,2018-04-04 08:02:34,1799.771590792693,31.2000009984,0.0,1.0423500333552,1799.771590792693,31.2000009984,0.35999970196000003,1.0423500333552,1412,-23.6,98,P-GPS,
0.352813969880219,36.8834093467194,28700,2018-04-04 08:02:34,1799.9715907990928,31.400001004800004,0.0,1.044250033416,1799.9715907990928,31.400001004800004,0.35999970196000003,1.044250033416,1413,-23.6,98,P-GPS,
0.352813872743534,36.8834093927753,28800,2018-04-04 08:02:34,1800.171590805493,31.6000010112,0.0,1.0490500335696,1800.171590805493,31.6000010112,0.35999970196000003,1.0490500335696,1420,-23.6,98,P-GPS,
0.35281380588817296,36.883409430140794,28900,2018-04-04 08:02:34,1800.3715908118927,31.800001017600003,0.0,1.0520200336646401,1800.3715908118927,31.800001017600003,0.35999970196000003,1.0520200336646401,1424,-23.6,98,P-GPS,
0.3528137241952439,36.883409465767606,29000,2018-04-04 08:02:34,1800.6715908214928,32.1000010272,0.0,1.05644003380608,1800.6715908214928,32.1000010272,0.35999970196000003,1.05644003380608,1425,-23.6,98,P-GPS,
0.352813683443026,36.883409488760705,29100,2018-04-04 08:02:34,1800.871590827893,32.300001033600005,0.0,1.0583100338659202,1800.871590827893,32.300001033600005,0.35999970196000003,1.0583100338659202,1422,-23.6,98,P-GPS,
0.35281364764494205,36.883409527504796,29200,2018-04-04 08:02:35,1801.1715908374927,32.6000010432,0.0,1.0586600338771202,1801.1715908374927,32.6000010432,0.35999970196000003,1.0586600338771202,1423,-23.6,98,P-GPS,
0.35281363676001504,36.8834095561108,29300,2018-04-04 08:02:35,1801.3715908438928,32.800001049600006,0.0,1.0576000338432,1801.3715908438928,32.800001049600006,0.35999970196000003,1.0586600338771202,1432,-23.6,98,P-GPS,
0.35281359006072,36.8834095871569,29400,2018-04-04 08:02:35,1801.671590853493,33.100001059200004,0.0,1.05948003390336,1801.671590853493,33.100001059200004,0.35999970196000003,1.05948003390336,1439,-23.6,98,P-GPS,
0.35281355123739294,36.88340960923821,29500,2018-04-04 08:02:35,1801.8715908598929,33.3000010656,0.0,1.0613300339625602,1801.8715908598929,33.3000010656,0.35999970196000003,1.0613300339625602,1427,-23.6,98,P-GPS,
