latitude,longitude,time_millisecond,datetime_utc,altitude_m,ascent_m,speed_kph,distance_m,max_altitude_m,max_ascent_m,max_speed_kph,max_distance_m,rc_throttle,gimbal_pitch_degrees,battery_percent,flycState,message
0.356510412930327,36.9195166567428,0,2017-11-15 07:14:20,1677.4210741774666,0.0,0.0,0.0,1677.4210741774666,0.0,0.0,0.0,1024,0.0,99,Motors_Started,
0.356510374199211,36.91951665896,100,2017-11-15 07:14:20,1677.4210741774666,0.0,0.0,0.00431419013805408,1677.4210741774666,0.0,0.0,0.00431419013805408,1024,0.0,99,Motors_Started,
0.356510349081887,36.9195166585023,200,2017-11-15 07:14:20,1677.4210741774666,0.0,0.0,0.00710303022729696,1677.4210741774666,0.0,0.0,0.00710303022729696,1024,0.0,99,Motors_Started,
0.356510324344195,36.9195166595852,300,2017-11-15 07:14:20,1677.4210741774666,0.0,0.0,0.00985639031540448,1677.4210741774666,0.0,0.0,0.00985639031540448,1024,0.0,99,Motors_Started,
0.356510286242676,36.9195166588289,400,2017-11-15 07:14:20,1677.4210741774666,0.0,0.0,0.0140903004508896,1677.4210741774666,0.0,0.0,0.0140903004508896,1024,0.0,99,Motors_Started,
0.356510260280801,36.9195166585237,500,2017-11-15 07:14:20,1677.4210741774666,0.0,0.0,0.0169767005432544,1677.4210741774666,0.0,0.0,0.0169767005432544,1024,0.0,99,Motors_Started,
0.356510244536597,36.9195166580816,600,2017-11-15 07:14:21,1677.4210741774666,0.0,0.0,0.018727000599264,1677.4210741774666,0.0,0.0,0.018727000599264,1024,0.0,99,Motors_Started,
0.35651022871891,36.9195166580564,700,2017-11-15 07:14:21,1677.4210741774666,0.0,0.0,0.020486000655552002,1677.4210741774666,0.0,0.0,0.020486000655552002,1024,0.0,99,Motors_Started,
0.356510196033596,36.9195166572706,800,2017-11-15 07:14:21,1677.4210741774666,0.0,0.0,0.0241203007718496,1677.4210741774666,0.0,0.0,0.0241203007718496,372,0.0,99,Motors_Started,
0.356510160312456,36.9195166578653,900,2017-11-15 07:14:21,1677.4210741774666,0.0,0.0,0.0280929008989728,1677.4210741774666,0.0,0.0,0.0280929008989728,819,0.0,99,Motors_Started,
0.356510116810203,36.9195166577475,1000,2017-11-15 07:14:21,1677.4210741774666,0.0,0.0,0.03293060105377921,1677.4210741774666,0.0,0.0,0.03293060105377921,1025,0.0,99,Motors_Started,
0.356510084977787,36.9195166593133,1100,2017-11-15 07:14:21,1677.4210741774666,0.0,0.0,0.0364714011670848,1677.4210741774666,0.0,0.0,0.0364714011670848,1024,0.0,99,Motors_Started,
0.356510061695923,36.9195166561534,1200,2017-11-15 07:14:21,1677.4210741774666,0.0,0.0,0.039059501249904004,1677.4210741774666,0.0,0.0,0.039059501249904004,1024,0.0,99,Motors_Started,
0.356510041052953,36.9195166582572,1300,2017-11-15 07:14:21,1677.4210741774666,0.0,0.0,0.0413554013233728,1677.4210741774666,0.0,0.0,0.0413554013233728,1024,0.0,99,Motors_Started,
0.356510003575128,36.9195166557985,1400,2017-11-15 07:14:21,1677.4210741774666,0.0,0.0,0.0455229014567328,1677.4210741774666,0.0,0.0,0.0455229014567328,1024,0.0,99,Motors_Started,
0.356509979139512,36.9195166583139,1500,2017-11-15 07:14:22,1677.4210741774666,0.0,0.0,0.048240501543696,1677.4210741774666,0.0,0.0,0.048240501543696,1024,0.0,99,Motors_Started,
0.356509963554488,36.9195166588861,1600,2017-11-15 07:14:22,1677.4210741774666,0.0,0.0,0.0499739015991648,1677.4210741774666,0.0,0.0,0.0499739015991648,1024,0.0,99,Assisted_Takeoff,
0.356509942616363,36.9195166567695,1700,2017-11-15 07:14:22,1677.4210741774666,0.0,0.0,0.052301801673657604,1677.4210741774666,0.0,0.0,0.052301801673657604,1032,0.0,99,Assisted_Takeoff,
0.356509910172466,36.9195166615771,1800,2017-11-15 07:14:22,1677.4210741774666,0.0,0.0,0.055912301789193604,1677.4210741774666,0.0,0.0,0.055912301789193604,1375,0.0,99,Assisted_Takeoff,
0.356509868314534,36.9195166461935,1900,2017-11-15 07:14:22,1677.4210741774666,0.0,0.0,0.060576001938432,1677.4210741774666,0.0,0.0,0.060576001938432,1607,0.0,99,Assisted_Takeoff,
0.356509825442896,36.9195166212653,2000,2017-11-15 07:14:22,1677.4210741774666,0.0,0.0,0.0654512020944384,1677.4210741774666,0.0,0.0,0.0654512020944384,1684,0.0,99,Assisted_Takeoff,
0.356509789641555,36.9195165904804,2100,2017-11-15 07:14:22,1677.4210741774666,0.0,0.0,0.06970410223053121,1677.4210741774666,0.0,0.0,0.06970410223053121,1684,0.0,99,Assisted_Takeoff,
0.356509767812263,36.9195165764532,2200,2017-11-15 07:14:22,1677.4210741774666,0.0,0.0,0.072294502313424,1677.4210741774666,0.0,0.0,0.072294502313424,1684,0.0,99,Assisted_Takeoff,
0.356509739142285,36.9195165656106,2300,2017-11-15 07:14:22,1677.4210741774666,0.0,0.0,0.0756116024195712,1677.4210741774666,0.0,0.0,0.0756116024195712,1684,0.0,99,Assisted_Takeoff,
0.356509613084843,36.9195166409127,2500,2017-11-15 07:14:22,1677.4210741774666,0.0,0.0,0.0889651028468832,1677.4210741774666,0.0,0.0,0.0889651028468832,1684,0.0,99,GPS_Atti,
0.356509510310078,36.9195167415498,2600,2017-11-15 07:14:23,1677.4210741774666,0.0,0.0,0.100819003226208,1677.4210741774666,0.0,0.0,0.100819003226208,1684,0.0,99,GPS_Atti,
0.356509376134435,36.9195168596743,2700,2017-11-15 07:14:23,1677.5210741806666,0.1000000032,0.0,0.11748600375955201,1677.5210741806666,0.1000000032,0.0,0.11748600375955201,1684,0.0,99,GPS_Atti,
0.356509225161799,36.9195169258906,2800,2017-11-15 07:14:23,1677.6210741838665,0.2000000064,0.0,0.135436004333952,1677.6210741838665,0.2000000064,0.0,0.135436004333952,1684,0.0,99,GPS_Atti,
0.356509105928351,36.9195169206954,2900,2017-11-15 07:14:23,1677.7210741870667,0.3000000096,0.0,0.148281004744992,1677.7210741870667,0.3000000096,0.0,0.148281004744992,1684,0.0,99,GPS_Atti,
0.356509032381713,36.919516852211,3000,2017-11-15 07:14:23,1677.9210741934667,0.500000016,0.0,0.155057004961824,1677.9210741934667,0.500000016,0.0,0.155057004961824,1684,0.0,99,GPS_Atti,
0.356508955550504,36.9195167912289,3100,2017-11-15 07:14:23,1678.1210741998668,0.7000000224,0.0,0.162758005208256,1678.1210741998668,0.7000000224,0.0,0.162758005208256,1684,0.0,99,GPS_Atti,
0.356508852768412,36.9195167411424,3200,2017-11-15 07:14:23,1678.4210742094665,1.000000032,0.0,0.173753005560096,1678.4210742094665,1.000000032,0.0,0.173753005560096,1684,0.0,99,GPS_Atti,
0.356508728713548,36.9195167415476,3300,2017-11-15 07:14:23,1678.7210742190666,1.3000000416000002,0.0,0.187532006001024,1678.7210742190666,1.3000000416000002,0.0,0.187532006001024,1684,0.0,99,GPS_Atti,
0.356508576130788,36.9195167465982,3400,2017-11-15 07:14:23,1679.1210742318665,1.7000000544000002,0.0,0.20450800654425602,1679.1210742318665,1.7000000544000002,0.0,0.20450800654425602,1684,0.0,99,GPS_Atti,
0.356508418435935,36.9195167445437,3500,2017-11-15 07:14:23,1679.5210742446666,2.1000000672000003,0.35999970196000003,0.22201500710448002,1679.5210742446666,2.1000000672000003,0.35999970196000003,0.22201500710448002,1684,0.0,99,GPS_Atti,
0.356508245370607,36.9195167390076,3600,2017-11-15 07:14:24,1680.0210742606666,2.6000000832000003,0.5075995797636,0.24121900771900803,1680.0210742606666,2.6000000832000003,0.5075995797636,0.24121900771900803,1684,0.0,99,GPS_Atti,
0.35650804932142,36.9195167618834,3700,2017-11-15 07:14:24,1680.5210742766667,3.1000000992000003,0.35999970196000003,0.26310800841945603,1680.5210742766667,3.1000000992000003,0.5075995797636,0.26310800841945603,1684,0.0,99,GPS_Atti,
0.356507882710022,36.9195167757832,3800,2017-11-15 07:14:24,1681.0210742926665,3.6000001152000003,0.0,0.281687009013984,1681.0210742926665,3.6000001152000003,0.5075995797636,0.281687009013984,1684,0.0,99,GPS_Atti,
0.356507744828448,36.9195168578724,3900,2017-11-15 07:14:24,1681.5210743086668,4.100000131200001,0.0,0.297551009521632,1681.5210743086668,4.100000131200001,0.5075995797636,0.297551009521632,1684,0.0,99,GPS_Atti,
0.356507651497437,36.9195169449036,4000,2017-11-15 07:14:24,1682.0210743246666,4.6000001472,0.0,0.30875600988019203,1682.0210743246666,4.6000001472,0.5075995797636,0.30875600988019203,1684,0.0,99,GPS_Atti,
0.356507553759042,36.9195170723852,4100,2017-11-15 07:14:24,1682.5210743406667,5.1000001632,0.0,0.321299010281568,1682.5210743406667,5.1000001632,0.5075995797636,0.321299010281568,1684,0.0,99,GPS_Atti,
0.356507453448521,36.9195171810214,4200,2017-11-15 07:14:24,1683.0210743566668,5.6000001792,0.0,0.334237010695584,1683.0210743566668,5.6000001792,0.5075995797636,0.334237010695584,1684,0.0,99,GPS_Atti,
0.356507361677152,36.9195172886496,4300,2017-11-15 07:14:24,1683.5210743726666,6.100000195200001,0.0,0.34651801108857605,1683.5210743726666,6.100000195200001,0.5075995797636,0.34651801108857605,1684,0.0,99,GPS_Atti,
0.356507303750956,36.9195173635529,4400,2017-11-15 07:14:24,1684.0210743886666,6.6000002112,0.0,0.35458101134659203,1684.0210743886666,6.6000002112,0.5075995797636,0.35458101134659203,1684,0.0,99,GPS_Atti,
0.356507248391596,36.9195174564056,4500,2017-11-15 07:14:25,1684.5210744046665,7.1000002272,0.0,0.362977011615264,1684.5210744046665,7.1000002272,0.5075995797636,0.362977011615264,1684,0.0,99,GPS_Atti,
0.356507148911173,36.9195175360881,4600,2017-11-15 07:14:25,1685.0210744206668,7.600000243200001,0.0,0.37592001202944003,1685.0210744206668,7.600000243200001,0.5075995797636,0.37592001202944003,1684,0.0,99,GPS_Atti,
0.356507025914798,36.9195175515948,4700,2017-11-15 07:14:25,1685.4210744334666,8.000000256,0.35999970196000003,0.38958001246656004,1685.4210744334666,8.000000256,0.5075995797636,0.38958001246656004,1684,0.0,99,GPS_Atti,
0.356506892505338,36.9195174884206,4800,2017-11-15 07:14:25,1685.9210744494667,8.500000272,0.7199994039200001,0.402269012872608,1685.9210744494667,8.500000272,0.7199994039200001,0.402269012872608,1684,0.0,99,GPS_Atti,
0.356506507090098,36.9195170003576,5100,2017-11-15 07:14:25,1687.3210744942667,9.900000316800002,0.35999970196000003,0.436031013952992,1687.3210744942667,9.900000316800002,0.7199994039200001,0.436031013952992,1684,0.0,99,GPS_Atti,
0.35650635708028,36.9195169048209,5200,2017-11-15 07:14:25,1687.8210745102667,10.400000332800001,0.0,0.451878014460096,1687.8210745102667,10.400000332800001,0.7199994039200001,0.451878014460096,1684,0.0,99,GPS_Atti,
0.35650620958315,36.9195168230229,5300,2017-11-15 07:14:25,1688.2210745230666,10.8000003456,0.35999970196000003,0.467803014969696,1688.2210745230666,10.8000003456,0.7199994039200001,0.467803014969696,1684,0.0,99,GPS_Atti,
0.356506023719881,36.9195167844273,5400,2017-11-15 07:14:25,1688.7210745390666,11.3000003616,0.35999970196000003,0.48831301562601603,1688.7210745390666,11.3000003616,0.7199994039200001,0.48831301562601603,1684,0.0,99,GPS_Atti,
0.356505850288966,36.9195167765995,5500,2017-11-15 07:14:25,1689.2210745550667,11.8000003776,0.35999970196000003,0.5075690162422081,1689.2210745550667,11.8000003776,0.7199994039200001,0.5075690162422081,1684,0.0,99,GPS_Atti,
0.356505661694796,36.9195168279017,5600,2017-11-15 07:14:26,1689.7210745710665,12.300000393600001,0.35999970196000003,0.528709016918688,1689.7210745710665,12.300000393600001,0.7199994039200001,0.528709016918688,1684,0.0,99,GPS_Atti,
0.356505492644396,36.9195168927728,5700,2017-11-15 07:14:26,1690.1210745838666,12.700000406400001,0.35999970196000003,0.54779501752944,1690.1210745838666,12.700000406400001,0.7199994039200001,0.54779501752944,1684,0.0,99,GPS_Atti,
0.356505338883457,36.9195169624601,5800,2017-11-15 07:14:26,1690.6210745998665,13.2000004224,0.35999970196000003,0.565288018089216,1690.6210745998665,13.2000004224,0.7199994039200001,0.565288018089216,1684,0.0,99,GPS_Atti,
0.35650522144659,36.919517023197,5900,2017-11-15 07:14:26,1691.1210746158667,13.7000004384,0.0,0.578761018520352,1691.1210746158667,13.7000004384,0.7199994039200001,0.578761018520352,1684,0.0,99,GPS_Atti,
0.356505136169049,36.9195170714736,6000,2017-11-15 07:14:26,1691.6210746318666,14.2000004544,0.0,0.588618018835776,1691.6210746318666,14.2000004544,0.7199994039200001,0.588618018835776,1684,0.0,99,GPS_Atti,
0.356505090869808,36.9195171186518,6100,2017-11-15 07:14:26,1692.1210746478666,14.7000004704,0.0,0.59407001901024,1692.1210746478666,14.7000004704,0.7199994039200001,0.59407001901024,1684,0.0,99,GPS_Atti,
0.356505112654318,36.9195171865865,6200,2017-11-15 07:14:26,1692.6210746638667,15.200000486400002,0.0,0.592361018955552,1692.6210746638667,15.200000486400002,0.7199994039200001,0.59407001901024,1684,0.0,99,GPS_Atti,
0.356505111402044,36.919517218972,6300,2017-11-15 07:14:26,1693.1210746798668,15.700000502400002,0.0,0.592868018971776,1693.1210746798668,15.700000502400002,0.7199994039200001,0.59407001901024,1684,0.0,99,GPS_Atti,
0.356505135909312,36.9195172109547,6400,2017-11-15 07:14:26,1693.6210746958666,16.2000005184,0.0,0.590064018882048,1693.6210746958666,16.2000005184,0.7199994039200001,0.59407001901024,1684,0.0,99,GPS_Atti,
0.356505144020592,36.919517183722,6500,2017-11-15 07:14:26,1694.2210747150666,16.800000537600003,0.0,0.588858018843456,1694.2210747150666,16.800000537600003,0.7199994039200001,0.59407001901024,1684,0.0,99,GPS_Atti,
0.356505133263905,36.9195171690156,6600,2017-11-15 07:14:27,1694.7210747310667,17.3000005536,0.0,0.5898880188764161,1694.7210747310667,17.3000005536,0.7199994039200001,0.59407001901024,1684,0.0,99,GPS_Atti,
0.356505116311803,36.9195171449824,6700,2017-11-15 07:14:27,1695.2210747470665,17.8000005696,0.0,0.591513018928416,1695.2210747470665,17.8000005696,0.7199994039200001,0.59407001901024,1684,0.0,99,GPS_Atti,
0.356505123038091,36.9195170906221,6800,2017-11-15 07:14:27,1695.8210747662667,18.4000005888,0.0,0.590244018887808,1695.8210747662667,18.4000005888,0.7199994039200001,0.59407001901024,1684,0.0,99,GPS_Atti,
0.356505133533412,36.9195170483077,6900,2017-11-15 07:14:27,1696.3210747822666,18.900000604800002,0.0,0.588714018838848,1696.3210747822666,18.900000604800002,0.7199994039200001,0.59407001901024,1684,0.0,99,GPS_Atti,Setting new Return-To-Home altitude to 30m (98 ft). Setting new Maximum Flight Altitude to 120m (394 ft)
0.356505147269337,36.9195170305211,7000,2017-11-15 07:14:27,1696.9210748014666,19.500000624000002,0.0,0.587047018785504,1696.9210748014666,19.500000624000002,0.7199994039200001,0.59407001901024,1684,0.0,99,GPS_Atti,
0.356505155024802,36.9195170303476,7100,2017-11-15 07:14:27,1697.4210748174667,20.00000064,0.0,0.5861850187579201,1697.4210748174667,20.00000064,0.7199994039200001,0.59407001901024,1684,0.0,99,GPS_Atti,Home Point Recorded. RTH Altitude:  30m.
0.35650517772124,36.9195170367617,7200,2017-11-15 07:14:27,1698.0210748366667,20.6000006592,0.0,0.583719018679008,1698.0210748366667,20.6000006592,0.7199994039200001,0.59407001901024,1684,0.0,99,GPS_Atti,
0.356505217591249,36.9195170444182,7300,2017-11-15 07:14:27,1698.5210748526667,21.1000006752,0.0,0.57936001853952,1698.5210748526667,21.1000006752,0.7199994039200001,0.59407001901024,1684,0.0,99,GPS_Atti,
0.356505276330852,36.9195170441901,7400,2017-11-15 07:14:27,1699.1210748718668,21.7000006944,0.0,0.5728440183310081,1699.1210748718668,21.7000006944,0.7199994039200001,0.59407001901024,1684,0.0,99,GPS_Atti,
0.356505344911957,36.9195170108411,7500,2017-11-15 07:14:27,1699.7210748910666,22.300000713600003,0.0,0.564968018078976,1699.7210748910666,22.300000713600003,0.7199994039200001,0.59407001901024,1684,0.0,99,GPS_Atti,
0.356505452837083,36.9195169564892,7600,2017-11-15 07:14:28,1700.2210749070666,22.8000007296,0.0,0.552599017683168,1700.2210749070666,22.8000007296,0.7199994039200001,0.59407001901024,1684,0.0,99,GPS_Atti,
0.35650554625603,36.9195169162867,7700,2017-11-15 07:14:28,1700.8210749262666,23.4000007488,0.0,0.5419730173431361,1700.8210749262666,23.4000007488,0.7199994039200001,0.59407001901024,1684,0.0,99,GPS_Atti,
0.356505698310359,36.9195169134035,7800,2017-11-15 07:14:28,1701.3210749422665,23.9000007648,0.0,0.525071016802272,1701.3210749422665,23.9000007648,0.7199994039200001,0.59407001901024,1684,0.0,99,GPS_Atti,
0.356505831697021,36.9195169567478,7900,2017-11-15 07:14:28,1701.9210749614667,24.500000784,0.35999970196000003,0.510552016337664,1701.9210749614667,24.500000784,0.7199994039200001,0.59407001901024,1684,0.0,99,GPS_Atti,
0.35650602909456,36.9195170306131,8000,2017-11-15 07:14:28,1702.5210749806665,25.100000803200004,0.35999970196000003,0.48927901565692805,1702.5210749806665,25.100000803200004,0.7199994039200001,0.59407001901024,1684,0.0,99,GPS_Atti,
0.356506222384349,36.919517089681,8100,2017-11-15 07:14:28,1703.0210749966668,25.6000008192,0.35999970196000003,0.46849501499184004,1703.0210749966668,25.6000008192,0.7199994039200001,0.59407001901024,1684,0.0,99,GPS_Atti,
0.356506360320069,36.9195171359882,8200,2017-11-15 07:14:28,1703.6210750158666,26.200000838400005,0.0,0.45381501452208006,1703.6210750158666,26.200000838400005,0.7199994039200001,0.59407001901024,1684,0.0,99,GPS_Atti,
0.356506449210313,36.9195171805477,8300,2017-11-15 07:14:28,1704.2210750350666,26.8000008576,0.0,0.444622014227904,1704.2210750350666,26.8000008576,0.7199994039200001,0.59407001901024,1684,0.0,99,GPS_Atti,
0.356506529803635,36.9195172242854,8400,2017-11-15 07:14:28,1704.7210750510667,27.3000008736,0.0,0.43641501396528004,1704.7210750510667,27.3000008736,0.7199994039200001,0.59407001901024,1684,0.0,99,GPS_Atti,
0.356506570560331,36.9195172797426,8500,2017-11-15 07:14:28,1705.3210750702667,27.9000008928,0.0,0.43287501385200006,1705.3210750702667,27.9000008928,0.7199994039200001,0.59407001901024,1684,0.0,99,GPS_Atti,
0.35650662504481,36.9195173369203,8600,2017-11-15 07:14:29,1705.9210750894665,28.500000912,0.0,0.427973013695136,1705.9210750894665,28.500000912,0.7199994039200001,0.59407001901024,1684,0.0,99,GPS_Atti,
0.356506644391539,36.9195174098425,8700,2017-11-15 07:14:29,1706.4210751054668,29.000000928000002,0.0,0.42737001367584,1706.4210751054668,29.000000928000002,0.7199994039200001,0.59407001901024,1684,0.0,99,GPS_Atti,
0.356506676359523,36.9195174801534,8800,2017-11-15 07:14:29,1707.0210751246666,29.6000009472,0.0,0.425499013615968,1707.0210751246666,29.6000009472,0.7199994039200001,0.59407001901024,1684,0.0,99,GPS_Atti,
0.356506696183386,36.9195175358022,8900,2017-11-15 07:14:29,1707.6210751438666,30.2000009664,0.0,0.424728013591296,1707.6210751438666,30.2000009664,0.7199994039200001,0.59407001901024,1684,0.0,99,GPS_Atti,
0.356506684758223,36.9195175833037,9000,2017-11-15 07:14:29,1708.2210751630666,30.8000009856,0.0,0.427207013670624,1708.2210751630666,30.8000009856,0.7199994039200001,0.59407001901024,1684,0.0,99,GPS_Atti,
0.356506656622782,36.9195176055238,9200,2017-11-15 07:14:29,1709.3210751982665,31.9000010208,0.0,0.430843013786976,1709.3210751982665,31.9000010208,0.7199994039200001,0.59407001901024,1684,0.0,99,GPS_Atti,
0.356506674757135,36.9195176128751,9300,2017-11-15 07:14:29,1709.9210752174668,32.50000104,0.0,0.42909001373088,1709.9210752174668,32.50000104,0.7199994039200001,0.59407001901024,1684,0.0,99,GPS_Atti,
0.356506693103999,36.9195176635338,9400,2017-11-15 07:14:29,1710.5210752366665,33.100001059200004,0.0,0.428551013713632,1710.5210752366665,33.100001059200004,0.7199994039200001,0.59407001901024,1684,0.0,99,GPS_Atti,
0.356506732114189,36.9195177167835,9500,2017-11-15 07:14:29,1711.1210752558666,33.7000010784,0.0,0.42596501363088,1711.1210752558666,33.7000010784,0.7199994039200001,0.59407001901024,1684,0.0,99,GPS_Atti,
0.356506756299839,36.9195177523498,9600,2017-11-15 07:14:30,1711.6210752718666,34.2000010944,0.0,0.424499013583968,1711.6210752718666,34.2000010944,0.7199994039200001,0.59407001901024,1684,0.0,99,GPS_Atti,
0.356506802316817,36.9195177926316,9700,2017-11-15 07:14:30,1712.2210752910667,34.800001113600004,0.0,0.42092201346950403,1712.2210752910667,34.800001113600004,0.7199994039200001,0.59407001901024,1684,0.0,99,GPS_Atti,
0.356506843451719,36.9195178330397,9800,2017-11-15 07:14:30,1712.8210753102665,35.4000011328,0.0,0.417946013374272,1712.8210753102665,35.4000011328,0.7199994039200001,0.59407001901024,1684,0.0,99,GPS_Atti,
0.356506895584318,36.9195178876062,9900,2017-11-15 07:14:30,1713.3210753262667,35.9000011488,0.0,0.41440801326105603,1713.3210753262667,35.9000011488,0.7199994039200001,0.59407001901024,1684,0.0,99,GPS_Atti,
0.356506909005954,36.9195179593597,10000,2017-11-15 07:14:30,1713.9210753454665,36.500001168000004,0.0,0.41571201330278407,1713.9210753454665,36.500001168000004,0.7199994039200001,0.59407001901024,1684,0.0,99,GPS_Atti,
0.35650692163698,36.9195180435806,10100,2017-11-15 07:14:30,1714.4210753614668,37.000001184000006,0.0,0.41776201336838403,1714.4210753614668,37.000001184000006,0.7199994039200001,0.59407001901024,1684,0.0,99,GPS_Atti,
0.356506914960766,36.9195181035804,10200,2017-11-15 07:14:30,1715.0210753806666,37.6000012032,0.0,0.42095701347062403,1715.0210753806666,37.6000012032,0.7199994039200001,0.59407001901024,1684,0.0,99,GPS_Atti,
0.356506914500731,36.9195181721997,10300,2017-11-15 07:14:30,1715.5210753966664,38.1000012192,0.0,0.42397901356732803,1715.5210753966664,38.1000012192,0.7199994039200001,0.59407001901024,1684,0.0,99,GPS_Atti,
0.356506904162961,36.9195182347043,10400,2017-11-15 07:14:30,1716.1210754158667,38.7000012384,0.0,0.42783701369078403,1716.1210754158667,38.7000012384,0.7199994039200001,0.59407001901024,1684,0.0,99,GPS_Atti,
0.356506906160655,36.9195183088212,10500,2017-11-15 07:14:30,1716.7210754350667,39.3000012576,0.0,0.431082013794624,1716.7210754350667,39.3000012576,0.7199994039200001,0.59407001901024,1684,0.0,99,GPS_Atti,
0.356506909934574,36.9195183774523,10600,2017-11-15 07:14:31,1717.2210754510668,39.800001273599996,0.0,0.43401301388841607,1717.2210754510668,39.800001273599996,0.7199994039200001,0.59407001901024,1684,0.0,99,GPS_Atti,
0.356506913442649,36.9195184597198,10700,2017-11-15 07:14:31,1717.8210754702666,40.400001292800006,0.0,0.437777014008864,1717.8210754702666,40.400001292800006,0.7199994039200001,0.59407001901024,1684,0.0,99,GPS_Atti,
0.356506886072984,36.9195185334454,10800,2017-11-15 07:14:31,1718.3210754862666,40.9000013088,0.0,0.444276014216832,1718.3210754862666,40.9000013088,0.7199994039200001,0.59407001901024,1684,0.0,99,GPS_Atti,
0.356506874100664,36.9195186152135,10900,2017-11-15 07:14:31,1718.9210755054667,41.500001328,0.0,0.449784014393088,1718.9210755054667,41.500001328,0.7199994039200001,0.59407001901024,1684,0.0,99,GPS_Atti,
0.356506864877157,36.919518692728,11000,2017-11-15 07:14:31,1719.4210755214667,42.000001344,0.0,0.45491001455712005,1719.4210755214667,42.000001344,0.7199994039200001,0.59407001901024,1684,0.0,99,GPS_Atti,
0.356506863862229,36.9195187788358,11100,2017-11-15 07:14:31,1719.9210755374668,42.50000136,0.0,0.45984701471510403,1719.9210755374668,42.50000136,0.7199994039200001,0.59407001901024,1684,0.0,99,GPS_Atti,
0.356506863532469,36.9195188427766,11200,2017-11-15 07:14:31,1720.4210755534666,43.000001376,0.0,0.46356801483417603,1720.4210755534666,43.000001376,0.7199994039200001,0.59407001901024,1684,0.0,99,GPS_Atti,
0.356506868857074,36.9195189172233,11300,2017-11-15 07:14:31,1721.0210755726666,43.6000013952,0.0,0.46746301495881604,1721.0210755726666,43.6000013952,0.7199994039200001,0.59407001901024,1684,0.0,99,GPS_Atti,
0.356506854611039,36.9195189916785,11400,2017-11-15 07:14:31,1721.5210755886667,44.100001411200004,0.0,0.473291015145312,1721.5210755886667,44.100001411200004,0.7199994039200001,0.59407001901024,1684,0.0,99,GPS_Atti,
0.356506843640619,36.9195190687284,11500,2017-11-15 07:14:31,1722.0210756046665,44.600001427200006,0.0,0.47905501532976,1722.0210756046665,44.600001427200006,0.7199994039200001,0.59407001901024,1684,0.0,99,GPS_Atti,
0.356506829499211,36.9195191178631,11600,2017-11-15 07:14:32,1722.6210756238668,45.2000014464,0.0,0.48343101546979206,1722.6210756238668,45.2000014464,0.7199994039200001,0.59407001901024,1684,0.0,99,GPS_Atti,
0.356506834669521,36.9195191692654,11700,2017-11-15 07:14:32,1723.1210756398666,45.7000014624,0.0,0.48622001555904004,1723.1210756398666,45.7000014624,0.7199994039200001,0.59407001901024,1684,0.0,99,GPS_Atti,
0.356506860559745,36.9195192121659,11800,2017-11-15 07:14:32,1723.7210756590666,46.300001481600006,0.0,0.486637015572384,1723.7210756590666,46.300001481600006,0.7199994039200001,0.59407001901024,1684,0.0,99,GPS_Atti,
0.35650690356288,36.9195192716609,11900,2017-11-15 07:14:32,1724.2210756750667,46.8000014976,0.0,0.486686015573952,1724.2210756750667,46.8000014976,0.7199994039200001,0.59407001901024,1684,0.0,99,GPS_Atti,
0.356506928975155,36.9195193379945,12000,2017-11-15 07:14:32,1724.7210756910665,47.3000015136,0.0,0.48888701564438397,1724.7210756910665,47.3000015136,0.7199994039200001,0.59407001901024,1684,0.0,99,GPS_Atti,
0.356506950446189,36.9195193973327,12100,2017-11-15 07:14:32,1725.3210757102665,47.9000015328,0.0,0.49106401571404806,1725.3210757102665,47.9000015328,0.7199994039200001,0.59407001901024,1684,0.0,99,GPS_Atti,
0.356506970476458,36.9195194646245,12200,2017-11-15 07:14:32,1725.8210757262666,48.4000015488,0.0,0.49401501580848006,1725.8210757262666,48.4000015488,0.7199994039200001,0.59407001901024,1684,0.0,99,GPS_Atti,
0.356506977163256,36.9195195251998,12300,2017-11-15 07:14:32,1726.3210757422667,48.9000015648,0.0,0.497729015927328,1726.3210757422667,48.9000015648,0.7199994039200001,0.59407001901024,1684,0.0,99,GPS_Atti,
0.356506960949246,36.919519572553,12400,2017-11-15 07:14:32,1726.8210757582667,49.4000015808,0.0,0.502496016079872,1726.8210757582667,49.4000015808,0.7199994039200001,0.59407001901024,1684,0.0,99,GPS_Atti,
0.356506932090776,36.9195196193768,12500,2017-11-15 07:14:33,1727.3210757742665,49.9000015968,0.0,0.508312016265984,1727.3210757742665,49.9000015968,0.7199994039200001,0.59407001901024,1684,0.0,99,GPS_Atti,
0.356506941317947,36.9195196722072,12600,2017-11-15 07:14:33,1727.9210757934668,50.500001616000006,0.0,0.511364016363648,1727.9210757934668,50.500001616000006,0.7199994039200001,0.59407001901024,1684,0.0,99,GPS_Atti,
0.356506927742016,36.9195197056312,12700,2017-11-15 07:14:33,1728.4210758094666,51.00000163200001,0.0,0.514944016478208,1728.4210758094666,51.00000163200001,0.7199994039200001,0.59407001901024,1684,0.0,99,GPS_Atti,
0.356506883898604,36.9195197224795,12800,2017-11-15 07:14:33,1728.9210758254665,51.500001648,0.0,0.519851016635232,1728.9210758254665,51.500001648,0.7199994039200001,0.59407001901024,1684,0.0,99,GPS_Atti,
0.356506842210438,36.9195197307093,12900,2017-11-15 07:14:33,1729.5210758446667,52.1000016672,0.0,0.523956016766592,1729.5210758446667,52.1000016672,0.7199994039200001,0.59407001901024,1684,0.0,99,GPS_Atti,
0.356506842010139,36.9195197290413,13000,2017-11-15 07:14:33,1730.0210758606665,52.6000016832,0.0,0.523852016763264,1730.0210758606665,52.6000016832,0.7199994039200001,0.59407001901024,1684,0.0,99,GPS_Atti,
0.356506817846066,36.9195197229281,13100,2017-11-15 07:14:33,1730.5210758766668,53.1000016992,0.0,0.5254500168144,1730.5210758766668,53.1000016992,0.7199994039200001,0.59407001901024,1684,0.0,99,GPS_Atti,
0.356506826543992,36.9195197641413,13200,2017-11-15 07:14:33,1731.0210758926667,53.6000017152,0.0,0.527704016886528,1731.0210758926667,53.6000017152,0.7199994039200001,0.59407001901024,1684,0.0,99,GPS_Atti,
0.356506832745921,36.9195198052138,13300,2017-11-15 07:14:33,1731.5210759086665,54.1000017312,0.0,0.530189016966048,1731.5210759086665,54.1000017312,0.7199994039200001,0.59407001901024,1684,0.0,99,GPS_Atti,
0.356506811255346,36.919519834259,13400,2017-11-15 07:14:33,1732.0210759246665,54.6000017472,0.0,0.5341170170917441,1732.0210759246665,54.6000017472,0.7199994039200001,0.59407001901024,1684,0.0,99,GPS_Atti,
0.356506786185451,36.9195198760552,13500,2017-11-15 07:14:34,1732.6210759438666,55.20000176640001,0.0,0.53928501725712,1732.6210759438666,55.20000176640001,0.7199994039200001,0.59407001901024,1684,0.0,99,GPS_Atti,
0.356506747099131,36.9195199117457,13600,2017-11-15 07:14:34,1733.1210759598666,55.7000017824,0.0,0.54517001744544,1733.1210759598666,55.7000017824,0.7199994039200001,0.59407001901024,1684,0.0,99,GPS_Atti,
0.356506706029773,36.9195199380693,13700,2017-11-15 07:14:34,1733.6210759758667,56.2000017984,0.0,0.5505300176169601,1733.6210759758667,56.2000017984,0.7199994039200001,0.59407001901024,1684,0.0,99,GPS_Atti,
0.356506660119051,36.9195199381309,13800,2017-11-15 07:14:34,1734.1210759918667,56.700001814400004,0.0,0.554367017739744,1734.1210759918667,56.700001814400004,0.7199994039200001,0.59407001901024,1684,0.0,99,GPS_Atti,
0.356506617472546,36.9195199364864,13900,2017-11-15 07:14:34,1734.7210760110668,57.3000018336,0.0,0.5578270178504641,1734.7210760110668,57.3000018336,0.7199994039200001,0.59407001901024,1684,0.0,99,GPS_Atti,
0.356506593833239,36.9195199750419,14000,2017-11-15 07:14:34,1735.2210760270666,57.8000018496,0.0,0.5626210180038721,1735.2210760270666,57.8000018496,0.7199994039200001,0.59407001901024,1684,0.0,99,GPS_Atti,
0.356506570318507,36.919520002349,14100,2017-11-15 07:14:34,1735.7210760430667,58.30000186560001,0.0,0.566587018130784,1735.7210760430667,58.30000186560001,0.7199994039200001,0.59407001901024,1684,0.0,99,GPS_Atti,
0.356506571054564,36.9195200290982,14200,2017-11-15 07:14:34,1736.2210760590665,58.8000018816,0.0,0.568483018191456,1736.2210760590665,58.8000018816,0.7199994039200001,0.59407001901024,1684,0.0,99,GPS_Atti,
0.356506587325162,36.9195200555392,14300,2017-11-15 07:14:34,1736.7210760750668,59.3000018976,0.0,0.5690730182103361,1736.7210760750668,59.3000018976,0.7199994039200001,0.59407001901024,1684,0.0,99,GPS_Atti,
0.356506610066383,36.9195200817146,14400,2017-11-15 07:14:34,1737.2210760910666,59.800001913600006,0.0,0.569129018212128,1737.2210760910666,59.800001913600006,0.7199994039200001,0.59407001901024,1684,0.0,99,GPS_Atti,
0.356506640941681,36.9195201048826,14500,2017-11-15 07:14:34,1737.8210761102669,60.4000019328,0.0,0.568318018186176,1737.8210761102669,60.4000019328,0.7199994039200001,0.59407001901024,1684,0.0,99,GPS_Atti,
0.356506640941681,36.9195201290399,14600,2017-11-15 07:14:35,1738.3210761262667,60.9000019488,0.0,0.570134018244288,1738.3210761262667,60.9000019488,0.7199994039200001,0.59407001901024,1684,0.0,99,GPS_Atti,
0.356506638782364,36.9195201664927,14700,2017-11-15 07:14:35,1738.8210761422665,61.400001964800005,0.0,0.573138018340416,1738.8210761422665,61.400001964800005,0.7199994039200001,0.59407001901024,1684,0.0,99,GPS_Atti,
0.356506636938965,36.9195202138914,14800,2017-11-15 07:14:35,1739.3210761582668,61.900001980800006,0.0,0.57689001846048,1739.3210761582668,61.900001980800006,0.7199994039200001,0.59407001901024,1684,0.0,99,GPS_Atti,
0.356506634953892,36.9195202691227,14900,2017-11-15 07:14:35,1739.8210761742666,62.4000019968,0.0,0.581278018600896,1739.8210761742666,62.4000019968,0.7199994039200001,0.59407001901024,1684,0.0,99,GPS_Atti,
0.356506620449342,36.9195203027373,15000,2017-11-15 07:14:35,1740.3210761902667,62.9000020128,0.0,0.585029018720928,1740.3210761902667,62.9000020128,0.7199994039200001,0.59407001901024,1684,0.0,99,GPS_Atti,
0.356506619611507,36.9195203408869,15100,2017-11-15 07:14:35,1740.8210762062665,63.4000020288,0.0,0.5880440188174081,1740.8210762062665,63.4000020288,0.7199994039200001,0.59407001901024,1684,0.0,99,GPS_Atti,
0.356506618522078,36.9195203753409,15200,2017-11-15 07:14:35,1741.3210762222668,63.900002044800004,0.0,0.5908070189058241,1741.3210762222668,63.900002044800004,0.7199994039200001,0.59407001901024,1684,0.0,99,GPS_Atti,
0.356506628575277,36.9195204183024,15300,2017-11-15 07:14:35,1741.8210762382666,64.4000020608,0.0,0.593367018987744,1741.8210762382666,64.4000020608,0.7199994039200001,0.59407001901024,1684,0.0,99,GPS_Atti,
0.356506640158399,36.9195204636129,15400,2017-11-15 07:14:35,1742.3210762542665,64.9000020768,0.0,0.596022019072704,1742.3210762542665,64.9000020768,0.7199994039200001,0.596022019072704,1684,0.0,99,GPS_Atti,
0.356506669039668,36.9195205209833,15500,2017-11-15 07:14:35,1742.8210762702668,65.40000209280001,0.0,0.598331019146592,1742.8210762702668,65.40000209280001,0.7199994039200001,0.598331019146592,1684,0.0,99,GPS_Atti,
0.356506689326823,36.9195205605109,15600,2017-11-15 07:14:36,1743.3210762862666,65.90000210880001,0.0,0.599936019197952,1743.3210762862666,65.90000210880001,0.7199994039200001,0.599936019197952,1684,0.0,99,GPS_Atti,
0.356506712581817,36.9195205833412,15700,2017-11-15 07:14:36,1743.8210763022666,66.40000212480001,0.0,0.599999019199968,1743.8210763022666,66.40000212480001,0.7199994039200001,0.599999019199968,1684,0.0,99,GPS_Atti,
0.356506751272833,36.9195205720639,15800,2017-11-15 07:14:36,1744.4210763214667,67.000002144,0.0,0.5961400190764801,1744.4210763214667,67.000002144,0.7199994039200001,0.599999019199968,1684,0.0,99,GPS_Atti,
0.356506791023151,36.9195205530375,15900,2017-11-15 07:14:36,1744.9210763374665,67.50000216000001,0.0,0.591578018930496,1744.9210763374665,67.50000216000001,0.7199994039200001,0.599999019199968,1684,0.0,99,GPS_Atti,
0.356506825694759,36.9195205294711,16000,2017-11-15 07:14:36,1745.4210763534666,68.000002176,0.0,0.5870340187850881,1745.4210763534666,68.000002176,0.7199994039200001,0.599999019199968,1684,0.0,99,GPS_Atti,
0.356506855711053,36.9195205071912,16100,2017-11-15 07:14:36,1745.9210763694666,68.500002192,0.0,0.5829490186543681,1745.9210763694666,68.500002192,0.7199994039200001,0.599999019199968,1684,0.0,99,GPS_Atti,
0.356506920279672,36.9195205017401,16200,2017-11-15 07:14:36,1746.4210763854667,69.000002208,0.0,0.577652018484864,1746.4210763854667,69.000002208,0.7199994039200001,0.599999019199968,1684,0.0,99,GPS_Atti,
0.356506960082507,36.9195204918471,16300,2017-11-15 07:14:36,1746.9210764014665,69.500002224,0.0,0.5738670183637441,1746.9210764014665,69.500002224,0.7199994039200001,0.599999019199968,1684,0.0,99,GPS_Atti,
0.35650702463362,36.9195204956371,16400,2017-11-15 07:14:36,1747.4210764174668,70.00000224,0.0,0.569404018220928,1747.4210764174668,70.00000224,0.7199994039200001,0.599999019199968,1684,0.0,99,GPS_Atti,
0.356507060581928,36.9195204939525,16500,2017-11-15 07:14:37,1747.9210764334666,70.500002256,0.0,0.5666260181320321,1747.9210764334666,70.500002256,0.7199994039200001,0.599999019199968,1684,0.0,99,GPS_Atti,
0.356507079098151,36.9195205413448,16600,2017-11-15 07:14:37,1748.4210764494665,71.000002272,0.0,0.569262018216384,1748.4210764494665,71.000002272,0.7199994039200001,0.599999019199968,1684,0.0,99,GPS_Atti,
0.356507084349068,36.9195205720029,16700,2017-11-15 07:14:37,1748.9210764654667,71.500002288,0.0,0.5714750182872,1748.9210764654667,71.500002288,0.7199994039200001,0.599999019199968,1684,0.0,99,GPS_Atti,
0.356507120828656,36.9195206056383,16800,2017-11-15 07:14:37,1749.4210764814666,72.000002304,0.0,0.5717240182951681,1749.4210764814666,72.000002304,0.7199994039200001,0.599999019199968,1684,0.0,99,GPS_Atti,
0.356507131419649,36.9195206233093,16900,2017-11-15 07:14:37,1750.0210765006666,72.6000023232,0.0,0.572483018319456,1750.0210765006666,72.6000023232,0.7199994039200001,0.599999019199968,1684,0.0,99,GPS_Atti,
0.356507135909269,36.919520642211,17000,2017-11-15 07:14:37,1750.5210765166667,73.1000023392,0.0,0.5737870183611841,1750.5210765166667,73.1000023392,0.7199994039200001,0.599999019199968,1684,0.0,99,GPS_Atti,
0.356507123921072,36.9195206509429,17100,2017-11-15 07:14:37,1751.0210765326667,73.6000023552,0.0,0.575384018412288,1751.0210765326667,73.6000023552,0.7199994039200001,0.599999019199968,1684,0.0,99,GPS_Atti,
0.356507160142144,36.9195206916503,17200,2017-11-15 07:14:37,1751.5210765486665,74.1000023712,0.0,0.576349018443168,1751.5210765486665,74.1000023712,0.7199994039200001,0.599999019199968,1684,0.0,99,GPS_Atti,
0.356507178567581,36.9195207177529,17300,2017-11-15 07:14:37,1752.0210765646668,74.6000023872,0.0,0.577333018474656,1752.0210765646668,74.6000023872,0.7199994039200001,0.599999019199968,1684,0.0,99,GPS_Atti,
0.356507203506794,36.9195207344903,17400,2017-11-15 07:14:37,1752.5210765806667,75.10000240320001,0.0,0.5770710184662721,1752.5210765806667,75.10000240320001,0.7199994039200001,0.599999019199968,1684,0.0,99,GPS_Atti,
0.356507207726092,36.9195207367579,17500,2017-11-15 07:14:37,1753.0210765966665,75.60000241920001,0.0,0.576979018463328,1753.0210765966665,75.60000241920001,0.7199994039200001,0.599999019199968,1684,0.0,99,GPS_Atti,
0.356507216830315,36.9195207305125,17600,2017-11-15 07:14:38,1753.5210766126668,76.1000024352,0.0,0.575807018425824,1753.5210766126668,76.1000024352,0.7199994039200001,0.599999019199968,1684,0.0,99,GPS_Atti,
0.35650721294322,36.9195207219941,17700,2017-11-15 07:14:38,1754.0210766286666,76.6000024512,0.0,0.5753300184105601,1754.0210766286666,76.6000024512,0.7199994039200001,0.599999019199968,1684,0.0,99,GPS_Atti,
0.356507254604109,36.9195207293203,17800,2017-11-15 07:14:38,1754.5210766446667,77.1000024672,0.0,0.573119018339808,1754.5210766446667,77.1000024672,0.7199994039200001,0.599999019199968,1684,0.0,99,GPS_Atti,
0.35650725902045,36.9195207391566,17900,2017-11-15 07:14:38,1755.0210766606667,77.6000024832,0.0,0.5736830183578561,1755.0210766606667,77.6000024832,0.7199994039200001,0.599999019199968,1684,0.0,99,GPS_Atti,
0.356507257531238,36.9195207570171,18000,2017-11-15 07:14:38,1755.5210766766668,78.1000024992,0.0,0.575357018411424,1755.5210766766668,78.1000024992,0.7199994039200001,0.599999019199968,1684,0.0,99,GPS_Atti,
0.356507233012978,36.9195207601299,18100,2017-11-15 07:14:38,1756.1210766958666,78.70000251840001,0.0,0.577298018473536,1756.1210766958666,78.70000251840001,0.7199994039200001,0.599999019199968,1684,0.0,99,GPS_Atti,
0.356507255917857,36.9195207905053,18200,2017-11-15 07:14:38,1756.6210767118666,79.20000253440001,0.0,0.578422018509504,1756.6210767118666,79.20000253440001,0.7199994039200001,0.599999019199968,1684,0.0,99,GPS_Atti,
0.356507242052063,36.9195208074017,18300,2017-11-15 07:14:38,1757.1210767278667,79.70000255040001,0.0,0.5808510185872321,1757.1210767278667,79.70000255040001,0.7199994039200001,0.599999019199968,1684,0.0,99,GPS_Atti,
0.356507247539512,36.9195208227297,18400,2017-11-15 07:14:38,1757.6210767438665,80.20000256640002,0.0,0.581837018618784,1757.6210767438665,80.20000256640002,0.7199994039200001,0.599999019199968,1684,0.0,99,GPS_Atti,
0.356507228227795,36.9195208373216,18500,2017-11-15 07:14:38,1758.1210767598668,80.7000025824,0.0,0.584429018701728,1758.1210767598668,80.7000025824,0.7199994039200001,0.599999019199968,1684,0.0,99,GPS_Atti,
0.356507247523228,36.9195208560788,18600,2017-11-15 07:14:39,1758.6210767758666,81.2000025984,0.0,0.5847950187134401,1758.6210767758666,81.2000025984,0.7199994039200001,0.599999019199968,1684,0.0,99,GPS_Atti,
0.356507244709684,36.9195208674835,18700,2017-11-15 07:14:39,1759.1210767918665,81.7000026144,0.0,0.585997018751904,1759.1210767918665,81.7000026144,0.7199994039200001,0.599999019199968,1684,0.0,99,GPS_Atti,
0.356507271519571,36.919520874466,18800,2017-11-15 07:14:39,1759.6210768078668,82.20000263040001,0.0,0.584832018714624,1759.6210768078668,82.20000263040001,0.7199994039200001,0.599999019199968,1684,0.0,99,GPS_Atti,
0.356507261067811,36.9195208761597,18900,2017-11-15 07:14:39,1760.1210768238666,82.70000264640001,0.0,0.585678018741696,1760.1210768238666,82.70000264640001,0.7199994039200001,0.599999019199968,1684,0.0,98,GPS_Atti,
0.356507226367705,36.9195208752411,19000,2017-11-15 07:14:39,1760.6210768398666,83.20000266240001,0.0,0.587914018813248,1760.6210768398666,83.20000266240001,0.7199994039200001,0.599999019199968,1684,0.0,98,GPS_Atti,
0.356507181013097,36.9195208780515,19100,2017-11-15 07:14:39,1761.1210768558665,83.70000267840001,0.0,0.5912150189188801,1761.1210768558665,83.70000267840001,0.7199994039200001,0.599999019199968,1684,0.0,98,GPS_Atti,
0.356507176262111,36.919520924696,19200,2017-11-15 07:14:39,1761.6210768718668,84.20000269440001,0.0,0.595661019061152,1761.6210768718668,84.20000269440001,0.7199994039200001,0.599999019199968,1684,0.0,98,GPS_Atti,
0.356507155727433,36.9195209672678,19300,2017-11-15 07:14:39,1762.1210768878666,84.70000271040001,0.0,0.600814019226048,1762.1210768878666,84.70000271040001,0.7199994039200001,0.600814019226048,1684,0.0,98,GPS_Atti,
0.356507172641266,36.9195210005478,19400,2017-11-15 07:14:39,1762.6210769038664,85.2000027264,0.0,0.60264501928464,1762.6210769038664,85.2000027264,0.7199994039200001,0.60264501928464,1684,0.0,98,GPS_Atti,
0.356507155201445,36.9195210237427,19500,2017-11-15 07:14:40,1763.1210769198667,85.7000027424,0.0,0.605872019387904,1763.1210769198667,85.7000027424,0.7199994039200001,0.605872019387904,1684,0.0,98,GPS_Atti,
0.356507158161142,36.9195210268399,19600,2017-11-15 07:14:40,1763.6210769358665,86.2000027584,0.0,0.605951019390432,1763.6210769358665,86.2000027584,0.7199994039200001,0.605951019390432,1684,0.0,98,GPS_Atti,
0.356507139557798,36.9195210311802,19700,2017-11-15 07:14:40,1764.1210769518666,86.7000027744,0.0,0.6075750194424,1764.1210769518666,86.7000027744,0.7199994039200001,0.6075750194424,1684,0.0,98,GPS_Atti,
0.356507121723486,36.9195210278474,19800,2017-11-15 07:14:40,1764.6210769678667,87.2000027904,0.0,0.6084700194710401,1764.6210769678667,87.2000027904,0.7199994039200001,0.6084700194710401,1684,0.0,98,GPS_Atti,
0.356507095777895,36.9195210440672,19900,2017-11-15 07:14:40,1765.1210769838667,87.70000280640001,0.0,0.6116470195727041,1765.1210769838667,87.70000280640001,0.7199994039200001,0.6116470195727041,1684,0.0,98,GPS_Atti,
0.356507120357222,36.9195211075545,20000,2017-11-15 07:14:40,1765.6210769998665,88.20000282240001,0.0,0.6156640197012481,1765.6210769998665,88.20000282240001,0.7199994039200001,0.6156640197012481,1684,0.0,98,GPS_Atti,
0.356507143455479,36.9195211606237,20100,2017-11-15 07:14:40,1766.1210770158668,88.70000283840001,0.0,0.618906019804992,1766.1210770158668,88.70000283840001,0.7199994039200001,0.618906019804992,1684,0.0,98,GPS_Atti,
0.35650720331993,36.9195212255875,20200,2017-11-15 07:14:40,1766.6210770318667,89.20000285440001,0.0,0.620916019869312,1766.6210770318667,89.20000285440001,0.7199994039200001,0.620916019869312,1684,0.0,98,GPS_Atti,
0.356507248610621,36.9195212762842,20300,2017-11-15 07:14:40,1767.1210770478665,89.70000287040001,0.0,0.622677019925664,1767.1210770478665,89.70000287040001,0.7199994039200001,0.622677019925664,1684,0.0,98,GPS_Atti,
0.356507286969434,36.9195213287496,20400,2017-11-15 07:14:40,1767.6210770638666,90.2000028864,0.0,0.625117020003744,1767.6210770638666,90.2000028864,0.7199994039200001,0.625117020003744,1684,0.0,98,GPS_Atti,
0.356507298392969,36.9195213704971,20500,2017-11-15 07:14:40,1768.1210770798666,90.7000029024,0.0,0.62828002010496,1768.1210770798666,90.7000029024,0.7199994039200001,0.62828002010496,1684,0.0,98,GPS_Atti,
0.356507327468022,36.919521421136,20600,2017-11-15 07:14:41,1768.6210770958667,91.2000029184,0.0,0.631222020199104,1768.6210770958667,91.2000029184,0.7199994039200001,0.631222020199104,1684,0.0,98,GPS_Atti,
0.356507331316035,36.9195214582906,20700,2017-11-15 07:14:41,1769.1210771118665,91.7000029344,0.0,0.6344630203028161,1769.1210771118665,91.7000029344,0.7199994039200001,0.6344630203028161,1684,0.0,98,GPS_Atti,
0.356507329394878,36.9195215048215,20800,2017-11-15 07:14:41,1769.6210771278668,92.2000029504,0.0,0.638938020446016,1769.6210771278668,92.2000029504,0.7199994039200001,0.638938020446016,1684,0.0,98,GPS_Atti,
0.356507315857216,36.9195215403905,20900,2017-11-15 07:14:41,1770.1210771438666,92.7000029664,0.0,0.6430840205786881,1770.1210771438666,92.7000029664,0.7199994039200001,0.6430840205786881,1684,0.0,98,GPS_Atti,
0.356507345806744,36.9195215895755,21000,2017-11-15 07:14:41,1770.6210771598667,93.20000298240001,0.0,0.64594502067024,1770.6210771598667,93.20000298240001,0.7199994039200001,0.64594502067024,1684,0.0,98,GPS_Atti,
0.356507378880034,36.9195216409061,21100,2017-11-15 07:14:41,1771.1210771758667,93.70000299840001,0.0,0.6488800207641601,1771.1210771758667,93.70000299840001,0.7199994039200001,0.6488800207641601,1684,0.0,98,GPS_Atti,
0.356507406541191,36.9195216896179,21200,2017-11-15 07:14:41,1771.6210771918666,94.20000301440001,0.0,0.65193002086176,1771.6210771918666,94.20000301440001,0.7199994039200001,0.65193002086176,1684,0.0,98,GPS_Atti,
0.356507423458689,36.9195217347988,21300,2017-11-15 07:14:41,1772.2210772110666,94.8000030336,0.0,0.655292020969344,1772.2210772110666,94.8000030336,0.7199994039200001,0.655292020969344,1059,0.0,98,GPS_Atti,
0.356507447742046,36.919521834277,21400,2017-11-15 07:14:41,1772.7210772270666,95.30000304960001,0.0,0.663502021232064,1772.7210772270666,95.30000304960001,0.7199994039200001,0.663502021232064,1024,0.0,98,GPS_Atti,
0.356507439267623,36.9195218841269,21500,2017-11-15 07:14:41,1773.1210772398667,95.7000030624,0.0,0.6687840214010881,1773.1210772398667,95.7000030624,0.7199994039200001,0.6687840214010881,1024,0.0,98,GPS_Atti,
0.356507438240889,36.9195219397634,21600,2017-11-15 07:14:42,1773.5210772526666,96.10000307520001,0.0,0.6742250215752,1773.5210772526666,96.10000307520001,0.7199994039200001,0.6742250215752,1024,0.0,98,GPS_Atti,
0.356507414394362,36.9195219818599,21700,2017-11-15 07:14:42,1773.8210772622667,96.40000308480002,0.0,0.67960502174736,1773.8210772622667,96.40000308480002,0.7199994039200001,0.67960502174736,1024,0.0,98,GPS_Atti,
0.356507405769309,36.9195219781652,21800,2017-11-15 07:14:42,1774.0210772686667,96.60000309120001,0.0,0.6797180217509761,1774.0210772686667,96.60000309120001,0.7199994039200001,0.6797180217509761,1024,0.0,98,GPS_Atti,
0.356507373126335,36.9195219568954,21900,2017-11-15 07:14:42,1774.2210772750668,96.8000030976,0.0,0.6794590217426881,1774.2210772750668,96.8000030976,0.7199994039200001,0.6797180217509761,1024,0.0,98,GPS_Atti,
0.356507366492868,36.9195219270863,22000,2017-11-15 07:14:42,1774.2210772750668,96.8000030976,0.0,0.676954021662528,1774.2210772750668,96.8000030976,0.7199994039200001,0.6797180217509761,1024,0.0,98,GPS_Atti,
0.356507335775529,36.9195219039396,22100,2017-11-15 07:14:42,1774.3210772782666,96.90000310079999,0.35999970196000003,0.676448021646336,1774.3210772782666,96.90000310079999,0.7199994039200001,0.6797180217509761,1024,0.0,98,GPS_Atti,
0.356507293386317,36.9195218535801,22200,2017-11-15 07:14:42,1774.3210772782666,96.90000310079999,0.5075995797636,0.674038021569216,1774.3210772782666,96.90000310079999,0.7199994039200001,0.6797180217509761,1024,0.0,98,GPS_Atti,
0.35650724055593,36.9195218040022,22300,2017-11-15 07:14:42,1774.3210772782666,96.90000310079999,0.5075995797636,0.6723810215161921,1774.3210772782666,96.90000310079999,0.7199994039200001,0.6797180217509761,1024,0.0,98,GPS_Atti,
0.356507170304856,36.9195217651282,22400,2017-11-15 07:14:42,1774.3210772782666,96.90000310079999,0.5075995797636,0.672859021531488,1774.3210772782666,96.90000310079999,0.7199994039200001,0.6797180217509761,1024,0.0,98,GPS_Atti,
0.356507095701358,36.9195217468165,22500,2017-11-15 07:14:43,1774.3210772782666,96.90000310079999,0.5075995797636,0.675634021620288,1774.3210772782666,96.90000310079999,0.7199994039200001,0.6797180217509761,1024,0.0,98,GPS_Atti,
0.356507058580978,36.9195217338556,22600,2017-11-15 07:14:43,1774.3210772782666,96.90000310079999,0.35999970196000003,0.676694021654208,1774.3210772782666,96.90000310079999,0.7199994039200001,0.6797180217509761,1024,0.0,98,GPS_Atti,
0.356507038611776,36.919521760228,22700,2017-11-15 07:14:43,1774.4210772814665,97.00000310400002,0.35999970196000003,0.68036502177168,1774.4210772814665,97.00000310400002,0.7199994039200001,0.68036502177168,1024,0.0,98,GPS_Atti,
0.35650706181466,36.9195218720118,22800,2017-11-15 07:14:43,1774.4210772814665,97.00000310400002,0.35999970196000003,0.6893700220598401,1774.4210772814665,97.00000310400002,0.7199994039200001,0.6893700220598401,1024,0.0,98,GPS_Atti,
0.356507112973043,36.9195220392587,22900,2017-11-15 07:14:43,1774.4210772814665,97.00000310400002,0.35999970196000003,0.702098022467136,1774.4210772814665,97.00000310400002,0.7199994039200001,0.702098022467136,1024,0.0,98,GPS_Atti,
0.356507190669363,36.9195222629162,23000,2017-11-15 07:14:43,1774.4210772814665,97.00000310400002,0.0,0.7190740230103682,1774.4210772814665,97.00000310400002,0.7199994039200001,0.7190740230103682,1024,0.0,98,GPS_Atti,
0.356507301694232,36.9195225371665,23100,2017-11-15 07:14:43,1774.4210772814665,97.00000310400002,0.0,0.739816023674112,1774.4210772814665,97.00000310400002,0.7199994039200001,0.739816023674112,1024,0.0,98,GPS_Atti,
0.3565074015895,36.9195228266068,23200,2017-11-15 07:14:43,1774.4210772814665,97.00000310400002,0.0,0.763476024431232,1774.4210772814665,97.00000310400002,0.7199994039200001,0.763476024431232,1024,0.0,98,GPS_Atti,
0.356507502006278,36.9195231366691,23300,2017-11-15 07:14:43,1774.4210772814665,97.00000310400002,0.35999970196000003,0.7899650252788801,1774.4210772814665,97.00000310400002,0.7199994039200001,0.7899650252788801,1024,0.0,98,GPS_Atti,
0.356507606407044,36.9195234809804,23400,2017-11-15 07:14:43,1774.4210772814665,97.00000310400002,0.35999970196000003,0.82055502625776,1774.4210772814665,97.00000310400002,0.7199994039200001,0.82055502625776,1024,0.0,98,GPS_Atti,
0.356507694065777,36.9195238230894,23500,2017-11-15 07:14:43,1774.4210772814665,97.00000310400002,0.35999970196000003,0.8523550272753599,1774.4210772814665,97.00000310400002,0.7199994039200001,0.8523550272753599,1024,0.0,98,GPS_Atti,
0.356507765746218,36.9195242216251,23600,2017-11-15 07:14:44,1774.4210772814665,97.00000310400002,0.35999970196000003,0.8912650285204801,1774.4210772814665,97.00000310400002,0.7199994039200001,0.8912650285204801,1024,0.0,98,GPS_Atti,
0.356507840217812,36.9195246157745,23700,2017-11-15 07:14:44,1774.4210772814665,97.00000310400002,0.35999970196000003,0.930168029765376,1774.4210772814665,97.00000310400002,0.7199994039200001,0.930168029765376,1024,0.0,98,GPS_Atti,
0.356507915023236,36.9195249866852,23800,2017-11-15 07:14:44,1774.4210772814665,97.00000310400002,0.35999970196000003,0.967076030946432,1774.4210772814665,97.00000310400002,0.7199994039200001,0.967076030946432,1024,0.0,98,GPS_Atti,
0.356507989511115,36.9195253357885,23900,2017-11-15 07:14:44,1774.4210772814665,97.00000310400002,0.35999970196000003,1.00206003206592,1774.4210772814665,97.00000310400002,0.7199994039200001,1.00206003206592,1024,0.0,98,GPS_Atti,
0.356508102090333,36.9195257007059,24000,2017-11-15 07:14:44,1774.4210772814665,97.00000310400002,0.35999970196000003,1.03804003321728,1774.4210772814665,97.00000310400002,0.7199994039200001,1.03804003321728,1024,0.0,98,GPS_Atti,
0.356508195067158,36.9195260173836,24100,2017-11-15 07:14:44,1774.4210772814665,97.00000310400002,0.35999970196000003,1.0697600342323201,1774.4210772814665,97.00000310400002,0.7199994039200001,1.0697600342323201,1024,0.0,98,GPS_Atti,
0.356508261467369,36.919526365367,24200,2017-11-15 07:14:44,1774.3210772782666,96.90000310079999,0.35999970196000003,1.10583003538656,1774.4210772814665,97.00000310400002,0.7199994039200001,1.10583003538656,1024,0.0,98,GPS_Atti,
0.356508312061495,36.919526663294,24300,2017-11-15 07:14:44,1774.3210772782666,96.90000310079999,0.35999970196000003,1.1370300363849601,1774.4210772814665,97.00000310400002,0.7199994039200001,1.1370300363849601,1024,0.0,98,GPS_Atti,
0.356508384500791,36.9195269738799,24400,2017-11-15 07:14:44,1774.3210772782666,96.90000310079999,0.35999970196000003,1.16927003741664,1774.4210772814665,97.00000310400002,0.7199994039200001,1.16927003741664,1024,0.0,98,GPS_Atti,
0.356508441599737,36.9195272237728,24500,2017-11-15 07:14:44,1774.4210772814665,97.00000310400002,0.0,1.1953700382518402,1774.4210772814665,97.00000310400002,0.7199994039200001,1.1953700382518402,1024,0.0,98,GPS_Atti,
0.356508529541412,36.919527507012,24600,2017-11-15 07:14:45,1774.4210772814665,97.00000310400002,0.0,1.2246400391884802,1774.4210772814665,97.00000310400002,0.7199994039200001,1.2246400391884802,1024,0.0,98,GPS_Atti,
0.35650859394393,36.9195277264117,24700,2017-11-15 07:14:45,1774.4210772814665,97.00000310400002,0.0,1.24750003992,1774.4210772814665,97.00000310400002,0.7199994039200001,1.24750003992,1024,0.0,98,GPS_Atti,
0.356508735013998,36.9195279827282,24800,2017-11-15 07:14:45,1774.4210772814665,97.00000310400002,0.0,1.2732400407436801,1774.4210772814665,97.00000310400002,0.7199994039200001,1.2732400407436801,1024,0.0,98,GPS_Atti,
0.356508826288691,36.9195281613685,24900,2017-11-15 07:14:45,1774.3210772782666,96.90000310079999,0.0,1.2914700413270401,1774.4210772814665,97.00000310400002,0.7199994039200001,1.2914700413270401,1024,0.0,98,GPS_Atti,
0.356508929204316,36.919528402978,25000,2017-11-15 07:14:45,1774.3210772782666,96.90000310079999,0.0,1.31661004213152,1774.4210772814665,97.00000310400002,0.7199994039200001,1.31661004213152,1024,0.0,98,GPS_Atti,
0.356508979921797,36.9195285706649,25100,2017-11-15 07:14:45,1774.3210772782666,96.90000310079999,0.0,1.33442004270144,1774.4210772814665,97.00000310400002,0.7199994039200001,1.33442004270144,1024,0.0,98,GPS_Atti,
0.35650905815184,36.9195287632115,25200,2017-11-15 07:14:45,1774.3210772782666,96.90000310079999,0.0,1.3546900433500801,1774.4210772814665,97.00000310400002,0.7199994039200001,1.3546900433500801,1024,0.0,98,GPS_Atti,
0.356509086160669,36.9195288833867,25300,2017-11-15 07:14:45,1774.3210772782666,96.90000310079999,0.0,1.36763004376416,1774.4210772814665,97.00000310400002,0.7199994039200001,1.36763004376416,1024,0.0,98,GPS_Atti,
0.356509166145767,36.919529013266,25400,2017-11-15 07:14:45,1774.3210772782666,96.90000310079999,0.0,1.38107004419424,1774.4210772814665,97.00000310400002,0.7199994039200001,1.38107004419424,1024,0.0,98,GPS_Atti,
0.356509199340784,36.9195290864467,25500,2017-11-15 07:14:46,1774.3210772782666,96.90000310079999,0.0,1.38881004444192,1774.4210772814665,97.00000310400002,0.7199994039200001,1.38881004444192,1024,0.0,98,GPS_Atti,
0.356509264490757,36.9195292033844,25600,2017-11-15 07:14:46,1774.3210772782666,96.90000310079999,0.0,1.40107004483424,1774.4210772814665,97.00000310400002,0.7199994039200001,1.40107004483424,1024,0.0,98,GPS_Atti,
0.356509282787547,36.9195292558615,25700,2017-11-15 07:14:46,1774.3210772782666,96.90000310079999,0.0,1.4067000450144003,1774.4210772814665,97.00000310400002,0.7199994039200001,1.4067000450144003,1024,0.0,98,GPS_Atti,
0.356509373663271,36.9195293470307,25800,2017-11-15 07:14:46,1774.3210772782666,96.90000310079999,0.0,1.41593004530976,1774.4210772814665,97.00000310400002,0.7199994039200001,1.41593004530976,1024,0.0,98,GPS_Atti,
0.356509397213828,36.9195293869238,25900,2017-11-15 07:14:46,1774.3210772782666,96.90000310079999,0.0,1.4201500454448,1774.4210772814665,97.00000310400002,0.7199994039200001,1.4201500454448,1024,0.0,98,GPS_Atti,
0.35650944273983,36.9195294414041,26000,2017-11-15 07:14:46,1774.3210772782666,96.90000310079999,0.0,1.4257900456252801,1774.4210772814665,97.00000310400002,0.7199994039200001,1.4257900456252801,1024,0.0,98,GPS_Atti,
0.356509429665053,36.9195294601131,26100,2017-11-15 07:14:46,1774.3210772782666,96.90000310079999,0.0,1.4279800456953602,1774.4210772814665,97.00000310400002,0.7199994039200001,1.4279800456953602,1024,0.0,98,GPS_Atti,
0.356509426062528,36.9195294736092,26200,2017-11-15 07:14:46,1774.3210772782666,96.90000310079999,0.35999970196000003,1.429500045744,1774.4210772814665,97.00000310400002,0.7199994039200001,1.429500045744,1024,0.0,98,GPS_Atti,
0.356509412255765,36.9195294846398,26300,2017-11-15 07:14:46,1774.4210772814665,97.00000310400002,0.5075995797636,1.4308500457872002,1774.4210772814665,97.00000310400002,0.7199994039200001,1.4308500457872002,1024,0.0,98,GPS_Atti,
0.356509368275157,36.9195294811442,26400,2017-11-15 07:14:46,1774.4210772814665,97.00000310400002,0.5075995797636,1.4308500457872002,1774.4210772814665,97.00000310400002,0.7199994039200001,1.4308500457872002,1024,0.0,98,GPS_Atti,
0.356509316537456,36.9195294588016,26500,2017-11-15 07:14:47,1774.3210772782666,96.90000310079999,0.35999970196000003,1.4288500457232003,1774.4210772814665,97.00000310400002,0.7199994039200001,1.4308500457872002,1024,0.0,98,GPS_Atti,
0.35650933113727,36.9195294152244,26600,2017-11-15 07:14:47,1774.3210772782666,96.90000310079999,0.5075995797636,1.42388004556416,1774.4210772814665,97.00000310400002,0.7199994039200001,1.4308500457872002,1024,0.0,98,GPS_Atti,
0.356509295709657,36.9195293495337,26700,2017-11-15 07:14:47,1774.3210772782666,96.90000310079999,0.5075995797636,1.4169500453424,1774.4210772814665,97.00000310400002,0.7199994039200001,1.4308500457872002,1024,0.0,98,GPS_Atti,
0.356509276780217,36.9195292822425,26800,2017-11-15 07:14:47,1774.3210772782666,96.90000310079999,0.5075995797636,1.4096800451097602,1774.4210772814665,97.00000310400002,0.7199994039200001,1.4308500457872002,1024,0.0,98,GPS_Atti,
0.356509223919703,36.919529193342,26900,2017-11-15 07:14:47,1774.4210772814665,97.00000310400002,0.5075995797636,1.40038004481216,1774.4210772814665,97.00000310400002,0.7199994039200001,1.4308500457872002,1024,0.0,98,GPS_Atti,
0.356509239581671,36.9195291238004,27000,2017-11-15 07:14:47,1774.4210772814665,97.00000310400002,0.35999970196000003,1.39251004456032,1774.4210772814665,97.00000310400002,0.7199994039200001,1.4308500457872002,1024,0.0,98,GPS_Atti,
0.356509212220962,36.9195290368195,27100,2017-11-15 07:14:47,1774.3210772782666,96.90000310079999,0.35999970196000003,1.38317004426144,1774.4210772814665,97.00000310400002,0.7199994039200001,1.4308500457872002,1024,0.0,98,GPS_Atti,
0.356509211459664,36.9195288991729,27200,2017-11-15 07:14:47,1774.3210772782666,96.90000310079999,0.35999970196000003,1.3679500437743999,1774.4210772814665,97.00000310400002,0.7199994039200001,1.4308500457872002,1024,0.0,98,GPS_Atti,
0.35650917818119,36.9195287615199,27300,2017-11-15 07:14:47,1774.3210772782666,96.90000310079999,0.35999970196000003,1.3530800432985601,1774.4210772814665,97.00000310400002,0.7199994039200001,1.4308500457872002,1024,0.0,98,GPS_Atti,
0.356509160994592,36.9195286408768,27400,2017-11-15 07:14:47,1774.3210772782666,96.90000310079999,0.35999970196000003,1.33994004287808,1774.4210772814665,97.00000310400002,0.7199994039200001,1.4308500457872002,1024,0.0,98,GPS_Atti,
0.356509113460719,36.9195285210731,27500,2017-11-15 07:14:48,1774.3210772782666,96.90000310079999,0.35999970196000003,1.327250042472,1774.4210772814665,97.00000310400002,0.7199994039200001,1.4308500457872002,1024,0.0,98,GPS_Atti,
0.356509077149267,36.9195283391695,27600,2017-11-15 07:14:48,1774.3210772782666,96.90000310079999,0.35999970196000003,1.3076000418432001,1774.4210772814665,97.00000310400002,0.7199994039200001,1.4308500457872002,1024,0.0,98,GPS_Atti,
0.356509020531526,36.9195281781065,27700,2017-11-15 07:14:48,1774.4210772814665,97.00000310400002,0.35999970196000003,1.29054004129728,1774.4210772814665,97.00000310400002,0.7199994039200001,1.4308500457872002,1024,0.0,98,GPS_Atti,
0.356508988605068,36.9195280446685,27800,2017-11-15 07:14:48,1774.4210772814665,97.00000310400002,0.35999970196000003,1.2762500408400002,1774.4210772814665,97.00000310400002,0.7199994039200001,1.4308500457872002,1024,0.0,98,GPS_Atti,
0.356508942960189,36.9195279096171,27900,2017-11-15 07:14:48,1774.4210772814665,97.00000310400002,0.35999970196000003,1.2620000403840002,1774.4210772814665,97.00000310400002,0.7199994039200001,1.4308500457872002,1024,0.0,98,GPS_Atti,
0.356508923194136,36.9195277110644,28000,2017-11-15 07:14:48,1774.3210772782666,96.90000310079999,0.35999970196000003,1.2404000396928,1774.4210772814665,97.00000310400002,0.7199994039200001,1.4308500457872002,1024,-0.1,98,GPS_Atti,
0.356508882042135,36.919527533955,28100,2017-11-15 07:14:48,1774.3210772782666,96.90000310079999,0.35999970196000003,1.2215100390883202,1774.4210772814665,97.00000310400002,0.7199994039200001,1.4308500457872002,1024,-0.6,98,GPS_Atti,
0.356508849573812,36.9195273641408,28200,2017-11-15 07:14:48,1774.3210772782666,96.90000310079999,0.35999970196000003,1.20333003850656,1774.4210772814665,97.00000310400002,0.7199994039200001,1.4308500457872002,1024,-1.4,98,GPS_Atti,
0.356508801089334,36.9195272195653,28300,2017-11-15 07:14:48,1774.3210772782666,96.90000310079999,0.35999970196000003,1.1882300380233601,1774.4210772814665,97.00000310400002,0.7199994039200001,1.4308500457872002,1024,-2.3,98,GPS_Atti,
0.356508758536871,36.9195270876368,28400,2017-11-15 07:14:48,1774.3210772782666,96.90000310079999,0.35999970196000003,1.17446003758272,1774.4210772814665,97.00000310400002,0.7199994039200001,1.4308500457872002,1024,-2.3,98,GPS_Atti,
0.356508696424353,36.9195269806548,28500,2017-11-15 07:14:48,1774.3210772782666,96.90000310079999,0.35999970196000003,1.16382003724224,1774.4210772814665,97.00000310400002,0.7199994039200001,1.4308500457872002,1024,-3.2,98,GPS_Atti,
