latitude,longitude,time_millisecond,datetime_utc,altitude_m,ascent_m,speed_kph,distance_m,max_altitude_m,max_ascent_m,max_speed_kph,max_distance_m,rc_throttle,gimbal_pitch_degrees,battery_percent,flycState,message
0.307534436341555,36.8793866441519,0,2018-03-31 05:57:32,1770.603328159317,0.0,0.0,0.0,1770.603328159317,0.0,0.0,0.0,364,0.0,100,Motors_Started,
0.307534437736317,36.8793866808518,100,2018-03-31 05:57:32,1770.603328159317,0.0,0.0,0.00408414013069248,1770.603328159317,0.0,0.0,0.00408414013069248,364,0.0,100,Motors_Started,Setting new Return-To-Home altitude to 30m (98 ft). Setting new Maximum Flight Altitude to 120m (394 ft)
0.307534433812581,36.8793867249997,200,2018-03-31 05:57:32,1770.603328159317,0.0,0.0,0.00899504028784128,1770.603328159317,0.0,0.0,0.00899504028784128,364,0.0,100,Motors_Started,
0.307534480244812,36.8793867242974,300,2018-03-31 05:57:33,1770.603328159317,0.0,0.0,0.0101622003251904,1770.603328159317,0.0,0.0,0.0101622003251904,364,0.0,100,Motors_Started,
0.307534512621332,36.87938673741,400,2018-03-31 05:57:33,1770.603328159317,0.0,0.0,0.0133981004287392,1770.603328159317,0.0,0.0,0.0133981004287392,364,0.0,100,Motors_Started,
0.307534549953207,36.8793867535406,500,2018-03-31 05:57:33,1770.603328159317,0.0,0.0,0.0175386005612352,1770.603328159317,0.0,0.0,0.0175386005612352,364,0.0,100,Motors_Started,
0.307534572861547,36.8793867805474,600,2018-03-31 05:57:33,1770.603328159317,0.0,0.0,0.021460400686732804,1770.603328159317,0.0,0.0,0.021460400686732804,364,0.0,100,Motors_Started,
0.307534592671975,36.8793868137068,700,2018-03-31 05:57:33,1770.603328159317,0.0,0.0,0.0256467008206944,1770.603328159317,0.0,0.0,0.0256467008206944,364,0.0,100,Motors_Started,
0.307534607720426,36.8793868497472,800,2018-03-31 05:57:33,1770.603328159317,0.0,0.0,0.0297648009524736,1770.603328159317,0.0,0.0,0.0297648009524736,364,0.0,100,Motors_Started,
0.307534618048832,36.8793868925773,900,2018-03-31 05:57:33,1770.603328159317,0.0,0.0,0.034227401095276805,1770.603328159317,0.0,0.0,0.034227401095276805,364,0.0,100,Motors_Started,
0.307534626019658,36.8793869348528,1000,2018-03-31 05:57:33,1770.603328159317,0.0,0.0,0.0386003012352096,1770.603328159317,0.0,0.0,0.0386003012352096,364,0.0,100,Motors_Started,
0.307534628193021,36.8793869438104,1100,2018-03-31 05:57:33,1770.603328159317,0.0,0.0,0.039568101266179205,1770.603328159317,0.0,0.0,0.039568101266179205,364,0.0,100,Motors_Started,
0.307534630881378,36.8793869628487,1200,2018-03-31 05:57:33,1770.603328159317,0.0,0.0,0.0415218013286976,1770.603328159317,0.0,0.0,0.0415218013286976,364,0.0,100,Motors_Started,
0.30753462988762,36.8793869933338,1300,2018-03-31 05:57:34,1770.603328159317,0.0,0.0,0.0443968014206976,1770.603328159317,0.0,0.0,0.0443968014206976,364,0.0,100,Motors_Started,
0.307534629672869,36.8793870258755,1400,2018-03-31 05:57:34,1770.603328159317,0.0,0.0,0.0475834015226688,1770.603328159317,0.0,0.0,0.0475834015226688,364,0.0,100,Motors_Started,
0.30753462658025,36.8793870301932,1500,2018-03-31 05:57:34,1770.603328159317,0.0,0.0,0.0478593015314976,1770.603328159317,0.0,0.0,0.0478593015314976,364,0.0,100,Motors_Started,
0.307534624899289,36.8793870432437,1600,2018-03-31 05:57:34,1770.603328159317,0.0,0.0,0.049085101570723204,1770.603328159317,0.0,0.0,0.049085101570723204,588,0.0,100,Assisted_Takeoff,
0.307534621499709,36.8793870723917,1700,2018-03-31 05:57:34,1770.603328159317,0.0,0.0,0.051883001660256,1770.603328159317,0.0,0.0,0.051883001660256,950,0.0,100,Assisted_Takeoff,
0.307534619505882,36.8793871031829,1800,2018-03-31 05:57:34,1770.603328159317,0.0,0.0,0.0549602017587264,1770.603328159317,0.0,0.0,0.0549602017587264,950,0.0,100,Assisted_Takeoff,
0.307534657016683,36.8793871495631,1900,2018-03-31 05:57:34,1770.603328159317,0.0,0.0,0.061328001962496,1770.603328159317,0.0,0.0,0.061328001962496,1024,0.0,100,Assisted_Takeoff,
0.307534685448908,36.8793871925709,2000,2018-03-31 05:57:34,1770.603328159317,0.0,0.0,0.066983502143472,1770.603328159317,0.0,0.0,0.066983502143472,1024,0.0,100,Assisted_Takeoff,
0.307534707607756,36.8793872085216,2100,2018-03-31 05:57:34,1770.603328159317,0.0,0.0,0.069634002228288,1770.603328159317,0.0,0.0,0.069634002228288,1024,0.0,100,Assisted_Takeoff,
0.30753472458632,36.8793872298896,2200,2018-03-31 05:57:34,1770.603328159317,0.0,0.0,0.07259670232309441,1770.603328159317,0.0,0.0,0.07259670232309441,1024,0.0,100,Assisted_Takeoff,
0.307534733223994,36.879387266309,2300,2018-03-31 05:57:35,1770.603328159317,0.0,0.0,0.07666020245312641,1770.603328159317,0.0,0.0,0.07666020245312641,1024,0.0,100,Assisted_Takeoff,
0.307534740893355,36.8793873026705,2400,2018-03-31 05:57:35,1770.603328159317,0.0,0.0,0.0806828025818496,1770.603328159317,0.0,0.0,0.0806828025818496,1024,0.0,100,Assisted_Takeoff,
0.307534740966635,36.8793873131184,2500,2018-03-31 05:57:35,1770.603328159317,0.0,0.0,0.0817421026157472,1770.603328159317,0.0,0.0,0.0817421026157472,1024,0.0,100,Assisted_Takeoff,
0.307534742578591,36.8793873298507,2600,2018-03-31 05:57:35,1770.603328159317,0.0,0.0,0.083512002672384,1770.603328159317,0.0,0.0,0.083512002672384,1024,0.0,100,Assisted_Takeoff,
0.307534738750526,36.8793873634277,2700,2018-03-31 05:57:35,1770.603328159317,0.0,0.0,0.08676880277660161,1770.603328159317,0.0,0.0,0.08676880277660161,1024,0.0,100,Assisted_Takeoff,
0.307534737115568,36.8793873969928,2800,2018-03-31 05:57:35,1770.603328159317,0.0,0.0,0.09015370288491839,1770.603328159317,0.0,0.0,0.09015370288491839,1024,0.0,100,Assisted_Takeoff,
0.307534731604914,36.8793874061485,2900,2018-03-31 05:57:35,1770.603328159317,0.0,0.0,0.0908767029080544,1770.603328159317,0.0,0.0,0.0908767029080544,1024,0.0,100,Assisted_Takeoff,
0.307534725710964,36.8793874230971,3000,2018-03-31 05:57:35,1770.603328159317,0.0,0.0,0.09240640295700481,1770.603328159317,0.0,0.0,0.09240640295700481,1024,0.0,100,Assisted_Takeoff,
0.307534721917911,36.8793874567907,3100,2018-03-31 05:57:35,1770.603328159317,0.0,0.0,0.0957869030651808,1770.603328159317,0.0,0.0,0.0957869030651808,1024,0.0,100,Assisted_Takeoff,
0.307534717747263,36.8793874909533,3200,2018-03-31 05:57:35,1770.603328159317,0.0,0.0,0.0992318031754176,1770.603328159317,0.0,0.0,0.0992318031754176,1024,0.0,100,Assisted_Takeoff,
0.307534712987728,36.8793875412069,3300,2018-03-31 05:57:36,1770.603328159317,0.0,0.0,0.104393003340576,1770.603328159317,0.0,0.0,0.104393003340576,1034,0.0,100,Assisted_Takeoff,
0.30753470866543,36.8793875868783,3400,2018-03-31 05:57:36,1770.603328159317,0.0,0.0,0.10912200349190401,1770.603328159317,0.0,0.0,0.10912200349190401,1036,0.0,100,Assisted_Takeoff,
0.307534705372106,36.8793876048407,3500,2018-03-31 05:57:36,1770.603328159317,0.0,0.0,0.110943003550176,1770.603328159317,0.0,0.0,0.110943003550176,1030,0.0,100,Assisted_Takeoff,
0.307534701736808,36.8793876259666,3600,2018-03-31 05:57:36,1770.603328159317,0.0,0.0,0.113101003619232,1770.603328159317,0.0,0.0,0.113101003619232,1034,0.0,100,Assisted_Takeoff,
0.307534699405487,36.8793876632778,3700,2018-03-31 05:57:36,1770.603328159317,0.0,0.0,0.117046003745472,1770.603328159317,0.0,0.0,0.117046003745472,1054,0.0,100,Assisted_Takeoff,
0.307534696312461,36.8793877005719,3800,2018-03-31 05:57:36,1770.603328159317,0.0,0.0,0.12098400387148801,1770.603328159317,0.0,0.0,0.12098400387148801,1080,0.0,100,Assisted_Takeoff,
0.307534695174586,36.8793877110348,3900,2018-03-31 05:57:36,1770.603328159317,0.0,0.0,0.12208400390668801,1770.603328159317,0.0,0.0,0.12208400390668801,1089,0.0,100,Assisted_Takeoff,
0.307534693200505,36.8793877282092,4000,2018-03-31 05:57:36,1770.603328159317,0.0,0.0,0.12389000396448001,1770.603328159317,0.0,0.0,0.12389000396448001,1131,0.0,100,Assisted_Takeoff,
0.307534693723032,36.8793877225458,4100,2018-03-31 05:57:36,1770.603328159317,0.0,0.0,0.123291003945312,1770.603328159317,0.0,0.0,0.12389000396448001,1200,0.0,99,Assisted_Takeoff,
0.307534692719503,36.8793877261012,4200,2018-03-31 05:57:37,1770.603328159317,0.0,0.0,0.123649003956768,1770.603328159317,0.0,0.0,0.12389000396448001,1252,0.0,99,Assisted_Takeoff,
0.307534734214292,36.879387750091,4300,2018-03-31 05:57:37,1770.603328159317,0.0,0.0,0.127368004075776,1770.603328159317,0.0,0.0,0.127368004075776,1289,0.0,99,Assisted_Takeoff,
0.307534763908357,36.8793877765014,4400,2018-03-31 05:57:37,1770.603328159317,0.0,0.0,0.13108500419472,1770.603328159317,0.0,0.0,0.13108500419472,1362,0.0,99,Assisted_Takeoff,
0.307534799068906,36.8793877830021,4500,2018-03-31 05:57:37,1770.603328159317,0.0,0.0,0.132914004253248,1770.603328159317,0.0,0.0,0.132914004253248,1417,0.0,99,Assisted_Takeoff,
0.307534865067299,36.8793878039193,4600,2018-03-31 05:57:37,1770.603328159317,0.0,0.0,0.13750200440006402,1770.603328159317,0.0,0.0,0.13750200440006402,1461,0.0,99,Assisted_Takeoff,
0.307534944120316,36.8793878441757,4700,2018-03-31 05:57:37,1770.603328159317,0.0,0.0,0.144903004636896,1770.603328159317,0.0,0.0,0.144903004636896,1526,0.0,99,P-GPS,
0.30753499793408,36.8793878622933,4800,2018-03-31 05:57:37,1770.603328159317,0.0,0.0,0.14916600477331202,1770.603328159317,0.0,0.0,0.14916600477331202,1601,0.0,99,P-GPS,Obstacle Avoided. Revise Flight Route
0.307535048306534,36.879387820492,4900,2018-03-31 05:57:37,1770.603328159317,0.0,0.0,0.147458004718656,1770.603328159317,0.0,0.0,0.14916600477331202,1684,0.0,99,P-GPS,
0.307535098757765,36.8793877196241,5000,2018-03-31 05:57:37,1770.703328162517,0.1000000032,0.35999970196000003,0.140464004494848,1770.703328162517,0.1000000032,0.35999970196000003,0.14916600477331202,1684,0.0,99,P-GPS,
0.307535207549834,36.8793875715431,5100,2018-03-31 05:57:37,1770.903328168917,0.3000000096,0.35999970196000003,0.13413100429219202,1770.903328168917,0.3000000096,0.35999970196000003,0.14916600477331202,1684,0.0,99,P-GPS,
0.307535351927068,36.8793873981341,5200,2018-03-31 05:57:37,1771.103328175317,0.500000016,0.503999582744,0.131899004220768,1771.103328175317,0.500000016,0.503999582744,0.14916600477331202,1684,0.0,99,P-GPS,Home Point Recorded. RTH Altitude:  30m.
0.307535615603702,36.8793872699168,5300,2018-03-31 05:57:38,1771.3033281817168,0.7000000224,0.503999582744,0.14846000475072002,1771.3033281817168,0.7000000224,0.503999582744,0.14916600477331202,1684,0.0,99,P-GPS,
0.307535853375456,36.8793871330685,5400,2018-03-31 05:57:38,1771.503328188117,0.9000000288000001,0.503999582744,0.16669900533436802,1771.503328188117,0.9000000288000001,0.503999582744,0.16669900533436802,1684,0.0,99,P-GPS,
0.307536098523655,36.8793870896239,5500,2018-03-31 05:57:38,1771.803328197717,1.2000000384,0.35999970196000003,0.19136800612377602,1771.803328197717,1.2000000384,0.503999582744,0.19136800612377602,1684,0.0,99,P-GPS,
0.307536265163041,36.8793870390096,5600,2018-03-31 05:57:38,1772.2033282105172,1.6000000512,0.35999970196000003,0.20806200665798402,1772.2033282105172,1.6000000512,0.503999582744,0.20806200665798402,1684,0.0,99,P-GPS,
0.307536361518174,36.879386933218,5700,2018-03-31 05:57:38,1772.603328223317,2.000000064,0.0,0.216491006927712,1772.603328223317,2.000000064,0.503999582744,0.216491006927712,1684,0.0,99,P-GPS,
0.307536422730366,36.879386851488,5800,2018-03-31 05:57:38,1773.1033282393169,2.50000008,0.0,0.222099007107168,1773.1033282393169,2.50000008,0.503999582744,0.222099007107168,1684,0.0,99,P-GPS,
0.307536454684203,36.8793868296918,5900,2018-03-31 05:57:38,1773.603328255317,3.0000000960000004,0.0,0.225398007212736,1773.603328255317,3.0000000960000004,0.503999582744,0.225398007212736,1684,0.0,99,P-GPS,
0.307536508588346,36.87938678729,6000,2018-03-31 05:57:38,1774.103328271317,3.500000112,0.0,0.230996007391872,1774.103328271317,3.500000112,0.503999582744,0.230996007391872,1684,0.0,99,P-GPS,
0.307536604134448,36.8793867300133,6100,2018-03-31 05:57:38,1774.603328287317,4.000000128,0.35999970196000003,0.241261007720352,1774.603328287317,4.000000128,0.503999582744,0.241261007720352,1684,0.0,99,P-GPS,
0.307536734250787,36.8793866917632,6200,2018-03-31 05:57:39,1775.203328306517,4.6000001472,0.35999970196000003,0.255596008179072,1775.203328306517,4.6000001472,0.503999582744,0.255596008179072,1684,0.0,99,P-GPS,
0.307536869894065,36.8793865962986,6300,2018-03-31 05:57:39,1775.703328322517,5.1000001632,0.0,0.27067800866169606,1775.703328322517,5.1000001632,0.503999582744,0.27067800866169606,1684,0.0,99,P-GPS,
0.307537018390754,36.8793865149358,6400,2018-03-31 05:57:39,1776.203328338517,5.6000001792,0.0,0.287499009199968,1776.203328338517,5.6000001792,0.503999582744,0.287499009199968,1684,0.0,99,P-GPS,
0.307537161200407,36.8793863545098,6500,2018-03-31 05:57:39,1776.7033283545168,6.100000195200001,0.0,0.30472800975129605,1776.7033283545168,6.100000195200001,0.503999582744,0.30472800975129605,1684,0.0,99,P-GPS,
0.307537309265405,36.8793862247552,6600,2018-03-31 05:57:39,1777.203328370517,6.6000002112,0.35999970196000003,0.32287301033193605,1777.203328370517,6.6000002112,0.503999582744,0.32287301033193605,1684,0.0,99,P-GPS,
0.307537411850863,36.8793860235568,6700,2018-03-31 05:57:39,1777.703328386517,7.1000002272,0.0,0.33801501081648005,1777.703328386517,7.1000002272,0.503999582744,0.33801501081648005,1684,0.0,99,P-GPS,
0.307537522807389,36.8793858575027,6800,2018-03-31 05:57:39,1778.203328402517,7.600000243200001,0.0,0.354206011334592,1778.203328402517,7.600000243200001,0.503999582744,0.354206011334592,1684,0.0,99,P-GPS,
0.307537627526999,36.8793857216639,6900,2018-03-31 05:57:39,1778.703328418517,8.1000002592,0.0,0.36940901182108804,1778.703328418517,8.1000002592,0.503999582744,0.36940901182108804,1684,0.0,99,P-GPS,
0.307537739364105,36.8793856058142,7000,2018-03-31 05:57:39,1779.203328434517,8.6000002752,0.0,0.38503801232121604,1779.203328434517,8.6000002752,0.503999582744,0.38503801232121604,1684,0.0,99,P-GPS,
0.307537860517492,36.8793854424526,7100,2018-03-31 05:57:39,1779.703328450517,9.1000002912,0.0,0.403557012913824,1779.703328450517,9.1000002912,0.503999582744,0.403557012913824,1684,0.0,99,P-GPS,
0.307537978209977,36.8793852903955,7200,2018-03-31 05:57:39,1780.2033284665172,9.6000003072,0.0,0.421667013493344,1780.2033284665172,9.6000003072,0.503999582744,0.421667013493344,1684,0.0,99,P-GPS,
0.307538065938078,36.879385095201,7300,2018-03-31 05:57:40,1780.703328482517,10.100000323200002,0.0,0.438851014043232,1780.703328482517,10.100000323200002,0.503999582744,0.438851014043232,1684,0.0,99,P-GPS,
0.307538151089479,36.8793849187996,7400,2018-03-31 05:57:40,1781.2033284985168,10.600000339200001,0.0,0.45548501457552,1781.2033284985168,10.600000339200001,0.503999582744,0.45548501457552,1684,0.0,99,P-GPS,
0.307538176850826,36.8793847234895,7500,2018-03-31 05:57:40,1781.7033285145171,11.1000003552,0.0,0.467598014963136,1781.7033285145171,11.1000003552,0.503999582744,0.467598014963136,1684,0.0,99,P-GPS,
0.307538206613897,36.8793845413155,7600,2018-03-31 05:57:40,1782.203328530517,11.6000003712,0.0,0.48008001536256006,1782.203328530517,11.6000003712,0.503999582744,0.48008001536256006,1684,0.0,99,P-GPS,
0.307538241978943,36.8793843630492,7700,2018-03-31 05:57:40,1782.703328546517,12.1000003872,0.0,0.493411015789152,1782.703328546517,12.1000003872,0.503999582744,0.493411015789152,1684,0.0,99,P-GPS,
0.307538286358673,36.8793842087534,7800,2018-03-31 05:57:40,1783.2033285625168,12.6000004032,0.0,0.506612016211584,1783.2033285625168,12.6000004032,0.503999582744,0.506612016211584,1684,0.0,99,P-GPS,
0.307538300292785,36.8793840177899,7900,2018-03-31 05:57:40,1783.7033285785171,13.100000419200002,0.0,0.519556016625792,1783.7033285785171,13.100000419200002,0.503999582744,0.519556016625792,1684,0.0,99,P-GPS,
0.307538304716275,36.8793838254474,8000,2018-03-31 05:57:40,1784.203328594517,13.600000435200002,0.0,0.532272017032704,1784.203328594517,13.600000435200002,0.503999582744,0.532272017032704,1684,0.0,99,P-GPS,
0.307538259713232,36.8793836247758,8100,2018-03-31 05:57:40,1784.7033286105168,14.100000451200001,0.0,0.5417750173368,1784.7033286105168,14.100000451200001,0.503999582744,0.5417750173368,1684,0.0,99,P-GPS,
0.307538225067832,36.8793834378462,8200,2018-03-31 05:57:41,1785.203328626517,14.600000467200001,0.0,0.551951017662432,1785.203328626517,14.600000467200001,0.503999582744,0.551951017662432,1684,0.0,99,P-GPS,
0.307538219838084,36.8793832840194,8300,2018-03-31 05:57:41,1785.703328642517,15.1000004832,0.0,0.562718018006976,1785.703328642517,15.1000004832,0.503999582744,0.562718018006976,1684,0.0,99,P-GPS,
0.307538210304995,36.8793831546395,8400,2018-03-31 05:57:41,1786.203328658517,15.6000004992,0.0,0.571594018291008,1786.203328658517,15.6000004992,0.503999582744,0.571594018291008,1684,0.0,99,P-GPS,
0.307538156174626,36.879383058996,8500,2018-03-31 05:57:41,1786.703328674517,16.1000005152,0.0,0.5745180183845761,1786.703328674517,16.1000005152,0.503999582744,0.5745180183845761,1684,0.0,99,P-GPS,
0.307538112162492,36.8793829789008,8600,2018-03-31 05:57:41,1787.203328690517,16.600000531200003,0.0,0.5772590184722881,1787.203328690517,16.600000531200003,0.503999582744,0.5772590184722881,1684,0.0,99,P-GPS,
0.307538037673736,36.8793828828623,8700,2018-03-31 05:57:41,1787.703328706517,17.1000005472,0.0,0.579089018530848,1787.703328706517,17.1000005472,0.503999582744,0.579089018530848,1684,0.0,99,P-GPS,
0.307537969384377,36.8793827936435,8800,2018-03-31 05:57:41,1788.2033287225167,17.600000563200002,0.0,0.5811340185962881,1788.2033287225167,17.600000563200002,0.503999582744,0.5811340185962881,1684,0.0,99,P-GPS,
0.307537915517619,36.8793827447614,8900,2018-03-31 05:57:41,1788.703328738517,18.1000005792,0.0,0.581146018596672,1788.703328738517,18.1000005792,0.503999582744,0.581146018596672,1684,0.0,99,P-GPS,
0.307537861600493,36.8793826891003,9000,2018-03-31 05:57:41,1789.2033287545169,18.6000005952,0.0,0.581836018618752,1789.2033287545169,18.6000005952,0.503999582744,0.581836018618752,1684,0.0,99,P-GPS,
0.307537832980787,36.8793826115552,9100,2018-03-31 05:57:41,1789.703328770517,19.1000006112,0.0,0.586326018762432,1789.703328770517,19.1000006112,0.503999582744,0.586326018762432,1684,0.0,99,P-GPS,
0.307537794722849,36.8793825486869,9200,2018-03-31 05:57:41,1790.203328786517,19.6000006272,0.0,0.5889840188474881,1790.203328786517,19.6000006272,0.503999582744,0.5889840188474881,1684,0.0,99,P-GPS,
0.307537713570672,36.8793824754766,9300,2018-03-31 05:57:42,1790.803328805717,20.200000646400003,0.0,0.5896820188698241,1790.803328805717,20.200000646400003,0.503999582744,0.5896820188698241,1684,0.0,99,P-GPS,
0.307537638484544,36.8793824159828,9400,2018-03-31 05:57:42,1791.303328821717,20.7000006624,0.0,0.5898180188741761,1791.303328821717,20.7000006624,0.503999582744,0.5898180188741761,1684,0.0,99,P-GPS,
0.307537531570758,36.8793823780849,9500,2018-03-31 05:57:42,1791.803328837717,21.200000678400002,0.0,0.5861230187559361,1791.803328837717,21.200000678400002,0.503999582744,0.5898180188741761,1684,0.0,99,P-GPS,
0.307537438292723,36.8793823575226,9600,2018-03-31 05:57:42,1792.303328853717,21.7000006944,0.0,0.581964018622848,1792.303328853717,21.7000006944,0.503999582744,0.5898180188741761,1684,0.0,99,P-GPS,
0.3075373689205,36.8793823441375,9700,2018-03-31 05:57:42,1792.8033288697168,22.2000007104,0.0,0.578802018521664,1792.8033288697168,22.2000007104,0.503999582744,0.5898180188741761,1684,0.0,99,P-GPS,
0.30753731403695,36.8793823409777,9800,2018-03-31 05:57:42,1793.403328888917,22.8000007296,0.0,0.575677018421664,1793.403328888917,22.8000007296,0.503999582744,0.5898180188741761,1684,0.0,99,P-GPS,
0.307537235959472,36.8793824090561,9900,2018-03-31 05:57:42,1793.9033289049169,23.300000745600002,0.0,0.5645650180660801,1793.9033289049169,23.300000745600002,0.503999582744,0.5898180188741761,1684,0.0,99,P-GPS,
0.307537171047608,36.8793824734382,10000,2018-03-31 05:57:42,1794.4033289209171,23.8000007616,0.0,0.5546160177477121,1794.4033289209171,23.8000007616,0.503999582744,0.5898180188741761,1684,0.0,99,P-GPS,
0.307537086094789,36.8793825658699,10100,2018-03-31 05:57:42,1795.003328940117,24.400000780800003,0.0,0.54084501730704,1795.003328940117,24.400000780800003,0.503999582744,0.5898180188741761,1684,0.0,99,P-GPS,
0.307537010340643,36.8793826504584,10200,2018-03-31 05:57:43,1795.503328956117,24.9000007968,0.0,0.528371016907872,1795.503328956117,24.9000007968,0.503999582744,0.5898180188741761,1684,0.0,99,P-GPS,
0.307536898630199,36.879382748804,10300,2018-03-31 05:57:43,1796.003328972117,25.400000812800002,0.0,0.512468016398976,1796.003328972117,25.400000812800002,0.503999582744,0.5898180188741761,1684,0.0,99,P-GPS,
0.307536817542848,36.8793828320232,10400,2018-03-31 05:57:43,1796.503328988117,25.9000008288,0.0,0.499834015994688,1796.503328988117,25.9000008288,0.503999582744,0.5898180188741761,1684,0.0,99,P-GPS,
0.307536714170546,36.8793829162669,10500,2018-03-31 05:57:43,1797.1033290073171,26.500000848000003,0.0,0.48582201554630405,1797.1033290073171,26.500000848000003,0.503999582744,0.5898180188741761,1684,0.0,99,P-GPS,
0.307536637899114,36.8793829983941,10600,2018-03-31 05:57:43,1797.603329023317,27.000000864,0.0,0.473613015155616,1797.603329023317,27.000000864,0.503999582744,0.5898180188741761,1684,0.0,99,P-GPS,
0.307536529750179,36.8793831115878,10700,2018-03-31 05:57:43,1798.1033290393168,27.50000088,0.0,0.456636014612352,1798.1033290393168,27.50000088,0.503999582744,0.5898180188741761,1684,0.0,99,P-GPS,
0.307536429057278,36.8793832204669,10800,2018-03-31 05:57:43,1798.703329058517,28.1000008992,0.0,0.44052501409680006,1798.703329058517,28.1000008992,0.503999582744,0.5898180188741761,1684,0.0,99,P-GPS,
0.307536344649632,36.879383316545,10900,2018-03-31 05:57:43,1799.203329074517,28.600000915200003,0.0,0.426578013650496,1799.203329074517,28.600000915200003,0.503999582744,0.5898180188741761,1684,0.0,99,P-GPS,
0.307536270413043,36.8793834027469,11000,2018-03-31 05:57:43,1799.7033290905172,29.1000009312,0.0,0.414162013253184,1799.7033290905172,29.1000009312,0.503999582744,0.5898180188741761,1684,0.0,99,P-GPS,
0.307536165079586,36.8793834960993,11100,2018-03-31 05:57:43,1800.303329109717,29.700000950400003,0.0,0.39939101278051203,1800.303329109717,29.700000950400003,0.503999582744,0.5898180188741761,1684,0.0,99,P-GPS,
0.307536084662136,36.8793835665078,11200,2018-03-31 05:57:43,1800.8033291257168,30.2000009664,0.0,0.388244012423808,1800.8033291257168,30.2000009664,0.503999582744,0.5898180188741761,1684,0.0,99,P-GPS,
0.307536008831809,36.8793836497313,11300,2018-03-31 05:57:44,1801.303329141717,30.700000982400002,0.0,0.376117012035744,1801.303329141717,30.700000982400002,0.503999582744,0.5898180188741761,1684,0.0,99,P-GPS,
0.307535954122197,36.8793837232466,11400,2018-03-31 05:57:44,1801.803329157717,31.2000009984,0.0,0.36605401171372803,1801.803329157717,31.2000009984,0.503999582744,0.5898180188741761,1684,0.0,99,P-GPS,
0.307535901379136,36.8793838267193,11500,2018-03-31 05:57:44,1802.4033291769172,31.800001017600003,0.0,0.353139011300448,1802.4033291769172,31.800001017600003,0.503999582744,0.5898180188741761,1684,0.0,99,P-GPS,
0.307535864720622,36.8793839053863,11600,2018-03-31 05:57:44,1802.903329192917,32.3000010336,0.0,0.34349701099190405,1802.903329192917,32.3000010336,0.503999582744,0.5898180188741761,1684,0.0,99,P-GPS,
0.30753578393433,36.8793840095217,11700,2018-03-31 05:57:44,1803.4033292089168,32.800001049600006,0.0,0.32908501053072003,1803.4033292089168,32.800001049600006,0.503999582744,0.5898180188741761,1684,0.0,99,P-GPS,
0.307535726408935,36.8793840850626,11800,2018-03-31 05:57:44,1803.903329224917,33.3000010656,0.0,0.318699010198368,1803.903329224917,33.3000010656,0.503999582744,0.5898180188741761,1684,0.0,99,P-GPS,
0.30753566118161,36.8793841860986,11900,2018-03-31 05:57:44,1804.503329244117,33.9000010848,0.0,0.305404009772928,1804.503329244117,33.9000010848,0.503999582744,0.5898180188741761,1684,0.0,99,P-GPS,
0.307535618223665,36.8793842587779,12000,2018-03-31 05:57:44,1805.003329260117,34.4000011008,0.0,0.29604000947328,1805.003329260117,34.4000011008,0.503999582744,0.5898180188741761,1684,0.0,99,P-GPS,
0.307535564193522,36.8793843625888,12100,2018-03-31 05:57:44,1805.503329276117,34.900001116800006,0.0,0.283028009056896,1805.503329276117,34.900001116800006,0.503999582744,0.5898180188741761,1684,0.0,99,P-GPS,
0.307535528106795,36.8793844370378,12200,2018-03-31 05:57:45,1806.003329292117,35.4000011328,0.0,0.273828008762496,1806.003329292117,35.4000011328,0.503999582744,0.5898180188741761,1684,0.0,99,P-GPS,
0.307535477270845,36.8793845809702,12300,2018-03-31 05:57:45,1806.503329308117,35.9000011488,0.0,0.256983008223456,1806.503329308117,35.9000011488,0.503999582744,0.5898180188741761,1684,0.0,99,P-GPS,
0.307535448505603,36.8793846779958,12400,2018-03-31 05:57:45,1807.003329324117,36.4000011648,0.0,0.24591700786934403,1807.003329324117,36.4000011648,0.503999582744,0.5898180188741761,1684,0.0,99,P-GPS,
0.307535400265189,36.8793847604677,12500,2018-03-31 05:57:45,1807.503329340117,36.900001180800004,0.0,0.235308007529856,1807.503329340117,36.900001180800004,0.503999582744,0.5898180188741761,1684,0.0,99,P-GPS,
0.307535372143182,36.8793848096143,12600,2018-03-31 05:57:45,1808.0033293561169,37.400001196800005,0.0,0.229019007328608,1808.0033293561169,37.400001196800005,0.503999582744,0.5898180188741761,1684,0.0,99,P-GPS,
0.307535361309144,36.879384894965,12700,2018-03-31 05:57:45,1808.6033293753171,38.000001216,0.0,0.22004000704128002,1808.6033293753171,38.000001216,0.503999582744,0.5898180188741761,1684,0.0,99,P-GPS,
0.307535361451023,36.8793849483715,12800,2018-03-31 05:57:45,1809.103329391317,38.500001232,0.0,0.21481500687408,1809.103329391317,38.500001232,0.503999582744,0.5898180188741761,1684,0.0,99,P-GPS,
0.307535367783227,36.8793850925181,12900,2018-03-31 05:57:45,1809.6033294073168,39.000001248000004,0.0,0.20125200644006402,1809.6033294073168,39.000001248000004,0.503999582744,0.5898180188741761,1684,0.0,99,P-GPS,
0.307535377766199,36.8793851920638,13000,2018-03-31 05:57:45,1810.103329423317,39.500001264,0.0,0.192447006158304,1810.103329423317,39.500001264,0.503999582744,0.5898180188741761,1684,0.0,99,P-GPS,
0.307535381728407,36.8793852964989,13100,2018-03-31 05:57:45,1810.603329439317,40.00000128,0.0,0.18306400585804802,1810.603329439317,40.00000128,0.503999582744,0.5898180188741761,1684,0.0,99,P-GPS,
0.307535387586734,36.8793853620084,13200,2018-03-31 05:57:45,1811.2033294585171,40.6000012992,0.0,0.17753700568118402,1811.2033294585171,40.6000012992,0.503999582744,0.5898180188741761,1684,0.0,99,P-GPS,
0.307535380405704,36.8793854688823,13300,2018-03-31 05:57:46,1811.703329474517,41.100001315200004,0.0,0.16764000536447998,1811.703329474517,41.100001315200004,0.503999582744,0.5898180188741761,1684,0.0,99,P-GPS,
0.307535377427076,36.8793855390639,13400,2018-03-31 05:57:46,1812.203329490517,41.600001331200005,0.0,0.16141500516528,1812.203329490517,41.600001331200005,0.503999582744,0.5898180188741761,1684,0.0,99,P-GPS,
0.307535368396133,36.8793856550079,13500,2018-03-31 05:57:46,1812.7033295065169,42.100001347200006,0.0,0.151138004836416,1812.7033295065169,42.100001347200006,0.503999582744,0.5898180188741761,1684,0.0,99,P-GPS,
0.307535361515957,36.8793857273499,13600,2018-03-31 05:57:46,1813.203329522517,42.6000013632,0.0,0.14484400463500802,1813.203329522517,42.6000013632,0.503999582744,0.5898180188741761,1684,0.0,99,P-GPS,
0.307535355807853,36.8793858056733,13700,2018-03-31 05:57:46,1813.703329538517,43.1000013792,0.0,0.138381004428192,1813.703329538517,43.1000013792,0.503999582744,0.5898180188741761,1684,0.0,99,P-GPS,
0.307535355250111,36.8793858505407,13800,2018-03-31 05:57:46,1814.2033295545168,43.6000013952,0.0,0.135022004320704,1814.2033295545168,43.6000013952,0.503999582744,0.5898180188741761,1684,0.0,99,P-GPS,
0.307535314785924,36.8793858718508,13900,2018-03-31 05:57:46,1814.703329570517,44.100001411200004,0.0,0.130073004162336,1814.703329570517,44.100001411200004,0.503999582744,0.5898180188741761,1684,0.0,99,P-GPS,
0.307535289975969,36.8793858892779,14000,2018-03-31 05:57:46,1815.303329589717,44.7000014304,0.0,0.126722004055104,1815.303329589717,44.7000014304,0.503999582744,0.5898180188741761,1684,0.0,99,P-GPS,
0.307535271537709,36.879385939221,14100,2018-03-31 05:57:46,1815.8033296057172,45.2000014464,0.0,0.121539003889248,1815.8033296057172,45.2000014464,0.503999582744,0.5898180188741761,1684,0.0,99,P-GPS,
0.307535265544628,36.8793859737957,14200,2018-03-31 05:57:46,1816.303329621717,45.7000014624,0.0,0.118576003794432,1816.303329621717,45.7000014624,0.503999582744,0.5898180188741761,1684,0.0,99,P-GPS,
0.307535263267249,36.8793859937355,14300,2018-03-31 05:57:47,1816.8033296377168,46.2000014784,0.0,0.116996003743872,1816.8033296377168,46.2000014784,0.503999582744,0.5898180188741761,1684,0.0,99,P-GPS,
0.307535265996724,36.8793860072838,14400,2018-03-31 05:57:47,1817.303329653717,46.7000014944,0.0,0.11631100372195201,1817.303329653717,46.7000014944,0.503999582744,0.5898180188741761,1684,0.0,99,P-GPS,
0.307535232327627,36.879386050934,14500,2018-03-31 05:57:47,1817.803329669717,47.2000015104,0.0,0.11039600353267201,1817.803329669717,47.2000015104,0.503999582744,0.5898180188741761,1684,0.0,99,P-GPS,
0.307535216732833,36.8793860778765,14600,2018-03-31 05:57:47,1818.303329685717,47.70000152640001,0.0,0.107224003431168,1818.303329685717,47.70000152640001,0.503999582744,0.5898180188741761,1684,0.0,99,P-GPS,
0.307535199255965,36.8793860882623,14700,2018-03-31 05:57:47,1818.8033297017168,48.20000154240001,0.0,0.10497300335913601,1818.8033297017168,48.20000154240001,0.503999582744,0.5898180188741761,1684,0.0,99,P-GPS,
0.307535183237368,36.8793860949556,14800,2018-03-31 05:57:47,1819.3033297177171,48.7000015584,0.0,0.103096003299072,1819.3033297177171,48.7000015584,0.503999582744,0.5898180188741761,1684,0.0,99,P-GPS,
0.307535160019828,36.8793861336061,14900,2018-03-31 05:57:47,1819.803329733717,49.200001574400005,0.0,0.09848870315163841,1819.803329733717,49.200001574400005,0.503999582744,0.5898180188741761,1684,0.0,99,P-GPS,
0.307535148816133,36.8793861571366,15000,2018-03-31 05:57:47,1820.403329752917,49.8000015936,0.0,0.0959727030711264,1820.403329752917,49.8000015936,0.503999582744,0.5898180188741761,1684,0.0,99,P-GPS,
0.307535148340628,36.8793861687504,15100,2018-03-31 05:57:47,1820.903329768917,50.3000016096,0.0,0.09520580304658562,1820.903329768917,50.3000016096,0.503999582744,0.5898180188741761,1684,0.0,99,P-GPS,
0.307535154066848,36.8793861691861,15200,2018-03-31 05:57:47,1821.4033297849169,50.800001625600004,0.0,0.09570930306269759,1821.4033297849169,50.800001625600004,0.503999582744,0.5898180188741761,1684,0.0,99,P-GPS,
0.307535121702337,36.8793861577394,15300,2018-03-31 05:57:48,1821.903329800917,51.300001641600005,0.0,0.0934601029907232,1821.903329800917,51.300001641600005,0.503999582744,0.5898180188741761,1684,0.0,99,P-GPS,
0.307535105026664,36.8793861365952,15400,2018-03-31 05:57:48,1822.403329816917,51.8000016576,0.0,0.0933566029874112,1822.403329816917,51.8000016576,0.503999582744,0.5898180188741761,1684,0.0,99,P-GPS,
0.307535090431734,36.8793861602456,15500,2018-03-31 05:57:48,1822.903329832917,52.3000016736,0.0,0.090480502895376,1822.903329832917,52.3000016736,0.503999582744,0.5898180188741761,1684,0.0,99,P-GPS,
0.307535085837283,36.8793861612456,15600,2018-03-31 05:57:48,1823.503329852117,52.9000016928,0.0,0.0900039028801248,1823.503329852117,52.9000016928,0.503999582744,0.5898180188741761,1684,0.0,99,P-GPS,
0.307535041131814,36.8793861241806,15700,2018-03-31 05:57:48,1824.003329868117,53.400001708800005,0.0,0.0886957028382624,1824.003329868117,53.400001708800005,0.503999582744,0.5898180188741761,1684,0.0,99,P-GPS,
0.307535016138048,36.8793860855301,15800,2018-03-31 05:57:48,1824.503329884117,53.900001724800006,0.0,0.0895339028650848,1824.503329884117,53.900001724800006,0.503999582744,0.5898180188741761,1684,0.0,99,P-GPS,
0.307534992784126,36.8793860708223,15900,2018-03-31 05:57:48,1825.003329900117,54.40000174080001,0.0,0.08884840284314881,1825.003329900117,54.40000174080001,0.503999582744,0.5898180188741761,1684,0.0,99,P-GPS,
0.307534972227666,36.879386055059,16000,2018-03-31 05:57:48,1825.503329916117,54.9000017568,0.0,0.0885604028339328,1825.503329916117,54.9000017568,0.503999582744,0.5898180188741761,1684,0.0,99,P-GPS,
0.307534950355832,36.8793860184801,16100,2018-03-31 05:57:48,1826.003329932117,55.4000017728,0.0,0.090047002881504,1826.003329932117,55.4000017728,0.503999582744,0.5898180188741761,1684,0.0,99,P-GPS,
0.307534935835811,36.8793859742625,16200,2018-03-31 05:57:48,1826.5033299481172,55.900001788800004,0.0,0.09292420297357441,1826.5033299481172,55.900001788800004,0.503999582744,0.5898180188741761,1684,0.0,99,P-GPS,
0.307534933118752,36.8793859536515,16300,2018-03-31 05:57:49,1827.003329964117,56.400001804800006,0.0,0.0945948030270336,1827.003329964117,56.400001804800006,0.503999582744,0.5898180188741761,1684,0.0,99,P-GPS,
0.307534946502322,36.8793859425173,16400,2018-03-31 05:57:49,1827.5033299801169,56.90000182080001,0.0,0.0964703030870496,1827.5033299801169,56.90000182080001,0.503999582744,0.5898180188741761,1684,0.0,99,P-GPS,
0.307534976398722,36.8793859355906,16500,2018-03-31 05:57:49,1828.103329999317,57.50000184,0.0,0.0990737031703584,1828.103329999317,57.50000184,0.503999582744,0.5898180188741761,1684,0.0,99,P-GPS,
0.30753500323609,36.8793859281532,16600,2018-03-31 05:57:49,1828.503330012117,57.9000018528,0.0,0.101558003249856,1828.503330012117,57.9000018528,0.503999582744,0.5898180188741761,1684,0.0,99,P-GPS,
0.307535005324773,36.8793859291874,16700,2018-03-31 05:57:49,1829.003330028117,58.400001868800004,0.0,0.10161200325158401,1829.003330028117,58.400001868800004,0.503999582744,0.5898180188741761,1684,0.0,99,P-GPS,
0.307535003210849,36.8793859179665,16800,2018-03-31 05:57:49,1829.5033300441169,58.900001884800005,0.0,0.102447003278304,1829.5033300441169,58.900001884800005,0.503999582744,0.5898180188741761,1684,0.0,99,P-GPS,
0.30753499039703,36.8793859089907,16900,2018-03-31 05:57:49,1830.103330063317,59.500001904,0.0,0.10237100327587201,1830.103330063317,59.500001904,0.503999582744,0.5898180188741761,1684,0.0,99,P-GPS,
0.30753499342614,36.8793858945452,17000,2018-03-31 05:57:49,1830.603330079317,60.00000192,0.0,0.103859003323488,1830.603330079317,60.00000192,0.503999582744,0.5898180188741761,1684,0.0,99,P-GPS,
0.307535003349063,36.8793859066129,17100,2018-03-31 05:57:49,1831.0033300921168,60.4000019328,0.0,0.103454003310528,1831.0033300921168,60.4000019328,0.503999582744,0.5898180188741761,1684,0.0,99,P-GPS,
0.307535018685545,36.8793859223527,17200,2018-03-31 05:57:50,1831.503330108117,60.9000019488,0.0,0.10313400330028802,1831.503330108117,60.9000019488,0.503999582744,0.5898180188741761,1684,0.0,99,P-GPS,
0.307534979131251,36.8793859519396,17300,2018-03-31 05:57:50,1832.003330124117,61.400001964800005,0.0,0.09782120313027841,1832.003330124117,61.400001964800005,0.503999582744,0.5898180188741761,1684,0.0,99,P-GPS,
0.307534951168629,36.8793859681355,17400,2018-03-31 05:57:50,1832.503330140117,61.900001980800006,0.0,0.0944946030238272,1832.503330140117,61.900001980800006,0.503999582744,0.5898180188741761,1684,0.0,99,P-GPS,
0.307534907402975,36.8793859746704,17500,2018-03-31 05:57:50,1833.0033301561168,62.4000019968,0.0,0.0910323029130336,1833.0033301561168,62.4000019968,0.503999582744,0.5898180188741761,1684,0.0,99,P-GPS,
0.307534871852007,36.8793859740484,17600,2018-03-31 05:57:50,1833.503330172117,62.9000020128,0.0,0.0888741028439712,1833.503330172117,62.9000020128,0.503999582744,0.5898180188741761,1684,0.0,99,P-GPS,
0.307534839748455,36.8793859684406,17700,2018-03-31 05:57:50,1834.003330188117,63.4000020288,0.0,0.08751500280048001,1834.003330188117,63.4000020288,0.503999582744,0.5898180188741761,1684,0.0,99,P-GPS,
0.307534818752926,36.8793859631358,17800,2018-03-31 05:57:50,1834.5033302041168,63.900002044800004,0.0,0.0868553027793696,1834.5033302041168,63.900002044800004,0.503999582744,0.5898180188741761,1684,0.0,99,P-GPS,
0.307534781535857,36.8793860066961,17900,2018-03-31 05:57:50,1835.003330220117,64.4000020608,0.0,0.08061460257966721,1835.003330220117,64.4000020608,0.503999582744,0.5898180188741761,1684,0.0,99,P-GPS,
0.307534758905574,36.8793860375548,18000,2018-03-31 05:57:50,1835.5033302361169,64.9000020768,0.0,0.0764009024448288,1835.5033302361169,64.9000020768,0.503999582744,0.5898180188741761,1684,0.0,99,P-GPS,
0.307534750423416,36.8793860623668,18100,2018-03-31 05:57:50,1836.003330252117,65.40000209280001,0.0,0.07352330235274561,1836.003330252117,65.40000209280001,0.503999582744,0.5898180188741761,1684,0.0,99,P-GPS,
0.307534747435425,36.8793860762684,18200,2018-03-31 05:57:50,1836.503330268117,65.90000210880001,0.0,0.0720064023042048,1836.503330268117,65.90000210880001,0.503999582744,0.5898180188741761,1684,0.0,99,P-GPS,
0.307534750405096,36.8793861261569,18300,2018-03-31 05:57:51,1837.003330284117,66.40000212480001,0.0,0.06736440215566081,1837.003330284117,66.40000212480001,0.503999582744,0.5898180188741761,1684,0.0,99,P-GPS,
0.307534752857736,36.8793861667259,18400,2018-03-31 05:57:51,1837.5033303001169,66.9000021408,0.0,0.0637000020384,1837.5033303001169,66.9000021408,0.503999582744,0.5898180188741761,1684,0.0,99,P-GPS,
0.307534751151941,36.8793861931899,18500,2018-03-31 05:57:51,1838.0033303161172,67.4000021568,0.0,0.06116000195712,1838.0033303161172,67.4000021568,0.503999582744,0.5898180188741761,1684,0.0,99,P-GPS,
0.307534741110345,36.8793861990278,18600,2018-03-31 05:57:51,1838.503330332117,67.9000021728,0.0,0.0599909019197088,1838.503330332117,67.9000021728,0.503999582744,0.5898180188741761,1684,0.0,99,P-GPS,
0.307534673410432,36.8793862289669,18700,2018-03-31 05:57:51,1839.0033303481168,68.4000021888,0.0,0.053167101701347204,1839.0033303481168,68.4000021888,0.503999582744,0.5898180188741761,1684,0.0,99,P-GPS,
0.307534613831976,36.8793862472269,18800,2018-03-31 05:57:51,1839.503330364117,68.9000022048,0.0,0.048352001547264,1839.503330364117,68.9000022048,0.503999582744,0.5898180188741761,1684,0.0,99,P-GPS,
0.307534530687697,36.8793862607035,18900,2018-03-31 05:57:51,1840.003330380117,69.4000022208,0.0,0.043913001405216,1840.003330380117,69.4000022208,0.503999582744,0.5898180188741761,1684,0.0,99,P-GPS,
0.30753447142231,36.8793862701183,19000,2018-03-31 05:57:51,1840.503330396117,69.9000022368,0.0,0.0417768013368576,1840.503330396117,69.9000022368,0.503999582744,0.5898180188741761,1684,0.0,99,P-GPS,
0.307534416674837,36.8793862832801,19100,2018-03-31 05:57:51,1841.0033304121168,70.40000225280001,0.0,0.040190101286083205,1841.0033304121168,70.40000225280001,0.503999582744,0.5898180188741761,1684,0.0,99,P-GPS,
0.307534384493119,36.8793863080922,19200,2018-03-31 05:57:52,1841.5033304281171,70.90000226880001,0.0,0.037813501210032,1841.5033304281171,70.90000226880001,0.503999582744,0.5898180188741761,1684,0.0,99,P-GPS,
0.307534361014214,36.8793863364425,19300,2018-03-31 05:57:52,1842.003330444117,71.40000228480001,0.0,0.0352291011273312,1842.003330444117,71.40000228480001,0.503999582744,0.5898180188741761,1684,0.0,99,P-GPS,
0.307534340754335,36.8793863500037,19400,2018-03-31 05:57:52,1842.5033304601168,71.9000023008,0.0,0.0343944011006208,1842.5033304601168,71.9000023008,0.503999582744,0.5898180188741761,1684,0.0,99,P-GPS,
0.307534283974971,36.8793863687851,19500,2018-03-31 05:57:52,1843.003330476117,72.4000023168,0.0,0.0349973011199136,1843.003330476117,72.4000023168,0.503999582744,0.5898180188741761,1684,0.0,99,P-GPS,
0.307534231313535,36.8793863760533,19600,2018-03-31 05:57:52,1843.503330492117,72.9000023328,0.0,0.03753290120105281,1843.503330492117,72.9000023328,0.503999582744,0.5898180188741761,1684,0.0,99,P-GPS,
0.30753414413275,36.8793864153033,19700,2018-03-31 05:57:52,1844.003330508117,73.4000023488,0.0,0.041274701320790405,1844.003330508117,73.4000023488,0.503999582744,0.5898180188741761,1684,0.0,99,P-GPS,
0.307534079345106,36.879386445281,19800,2018-03-31 05:57:52,1844.503330524117,73.9000023648,0.0,0.0454444014542208,1844.503330524117,73.9000023648,0.503999582744,0.5898180188741761,1373,0.0,99,P-GPS,
0.307534017644991,36.879386517063,19900,2018-03-31 05:57:52,1845.003330540117,74.4000023808,0.0,0.048659201557094404,1845.003330540117,74.4000023808,0.503999582744,0.5898180188741761,1015,0.0,99,P-GPS,
0.307533977608881,36.8793865624358,20000,2018-03-31 05:57:52,1845.503330556117,74.9000023968,0.0,0.051816901658140804,1845.503330556117,74.9000023968,0.503999582744,0.5898180188741761,1024,0.0,99,P-GPS,
0.307533946841874,36.8793866128799,20100,2018-03-31 05:57:52,1845.903330568917,75.3000024096,0.0,0.054546301745481605,1845.903330568917,75.3000024096,0.503999582744,0.5898180188741761,1024,0.0,99,P-GPS,
0.307533931197006,36.8793866305093,20200,2018-03-31 05:57:52,1846.3033305817169,75.7000024224,0.0,0.05619560179825921,1846.3033305817169,75.7000024224,0.503999582744,0.5898180188741761,1024,0.0,99,P-GPS,
0.307533896892205,36.879386618007,20300,2018-03-31 05:57:53,1846.703330594517,76.1000024352,0.0,0.060060501921936,1846.703330594517,76.1000024352,0.503999582744,0.5898180188741761,1024,0.0,99,P-GPS,
0.307533880381818,36.8793865929166,20400,2018-03-31 05:57:53,1847.0033306041169,76.4000024448,0.0,0.0620881019868192,1847.0033306041169,76.4000024448,0.503999582744,0.5898180188741761,1024,0.0,99,P-GPS,
0.307533888289949,36.8793865643575,20500,2018-03-31 05:57:53,1847.203330610517,76.6000024512,0.0,0.0615893019708576,1847.203330610517,76.6000024512,0.503999582744,0.5898180188741761,1024,0.0,99,P-GPS,
0.30753390960506,36.8793865208551,20600,2018-03-31 05:57:53,1847.303330613717,76.7000024544,0.0,0.060159601925107206,1847.303330613717,76.7000024544,0.503999582744,0.5898180188741761,1024,0.0,99,P-GPS,
0.307533928826399,36.8793864980483,20700,2018-03-31 05:57:53,1847.403330616917,76.8000024576,0.0,0.0587309018793888,1847.403330616917,76.8000024576,0.503999582744,0.5898180188741761,1024,0.0,99,P-GPS,
0.307533955512932,36.8793864626524,20800,2018-03-31 05:57:53,1847.503330620117,76.9000024608,0.0,0.0571536018289152,1847.503330620117,76.9000024608,0.503999582744,0.5898180188741761,1024,0.0,99,P-GPS,
0.307533966265954,36.8793864219913,20900,2018-03-31 05:57:53,1847.503330620117,76.9000024608,0.0,0.057819101850211205,1847.503330620117,76.9000024608,0.503999582744,0.5898180188741761,1024,0.0,99,P-GPS,
0.30753398764661,36.8793863647789,21000,2018-03-31 05:57:53,1847.503330620117,76.9000024608,0.0,0.05877890188092481,1847.503330620117,76.9000024608,0.503999582744,0.5898180188741761,1024,0.0,99,P-GPS,
0.307533997586225,36.8793863345154,21100,2018-03-31 05:57:53,1847.503330620117,76.9000024608,0.503999582744,0.059718601910995206,1847.503330620117,76.9000024608,0.503999582744,0.5898180188741761,1024,0.0,99,P-GPS,
0.307534034788028,36.8793862894821,21200,2018-03-31 05:57:53,1847.603330623317,77.000002464,0.503999582744,0.0595791019065312,1847.603330623317,77.000002464,0.503999582744,0.5898180188741761,1024,0.0,99,P-GPS,
0.30753407634429,36.8793862521677,21300,2018-03-31 05:57:54,1847.603330623317,77.000002464,0.35999970196000003,0.059184801893913605,1847.603330623317,77.000002464,0.503999582744,0.5898180188741761,1024,0.0,99,P-GPS,
0.307534166799876,36.8793862099757,21400,2018-03-31 05:57:54,1847.603330623317,77.000002464,0.35999970196000003,0.0568302018185664,1847.603330623317,77.000002464,0.503999582744,0.5898180188741761,1024,0.0,99,P-GPS,
0.307534247749827,36.8793862292089,21500,2018-03-31 05:57:54,1847.703330626517,77.1000024672,0.0,0.050686001621952005,1847.703330626517,77.1000024672,0.503999582744,0.5898180188741761,1024,0.0,99,P-GPS,
0.307534385715674,36.8793862463694,21600,2018-03-31 05:57:54,1847.703330626517,77.1000024672,0.0,0.04459200142694401,1847.703330626517,77.1000024672,0.503999582744,0.5898180188741761,1024,0.0,99,P-GPS,
0.30753460814545,36.8793863538996,21700,2018-03-31 05:57:54,1847.703330626517,77.1000024672,0.0,0.037508001200256,1847.703330626517,77.1000024672,0.503999582744,0.5898180188741761,1024,0.0,99,P-GPS,
0.307534875042129,36.8793864437008,21800,2018-03-31 05:57:54,1847.603330623317,77.000002464,0.0,0.053637501716400006,1847.703330626517,77.1000024672,0.503999582744,0.5898180188741761,1024,0.0,99,P-GPS,
0.307535165837241,36.8793865865434,21900,2018-03-31 05:57:54,1847.603330623317,77.000002464,0.0,0.0813769026040608,1847.703330626517,77.1000024672,0.503999582744,0.5898180188741761,1024,0.0,99,P-GPS,
0.307535821126769,36.8793868354302,22100,2018-03-31 05:57:54,1847.603330623317,77.000002464,0.35999970196000003,0.155459004974688,1847.703330626517,77.1000024672,0.503999582744,0.5898180188741761,1024,0.0,99,P-GPS,
0.30753616577656,36.8793869478326,22200,2018-03-31 05:57:54,1847.603330623317,77.000002464,0.35999970196000003,0.195266006248512,1847.703330626517,77.1000024672,0.503999582744,0.5898180188741761,1024,0.0,99,P-GPS,
0.307536543550224,36.8793870898252,22300,2018-03-31 05:57:55,1847.603330623317,77.000002464,0.35999970196000003,0.239518007664576,1847.703330626517,77.1000024672,0.503999582744,0.5898180188741761,1024,0.0,99,P-GPS,
0.307536924264961,36.8793871988863,22400,2018-03-31 05:57:55,1847.503330620117,76.9000024608,0.35999970196000003,0.283466009070912,1847.703330626517,77.1000024672,0.503999582744,0.5898180188741761,1024,0.0,99,P-GPS,
0.307537289626167,36.8793873284322,22500,2018-03-31 05:57:55,1847.503330620117,76.9000024608,0.35999970196000003,0.3263000104416,1847.703330626517,77.1000024672,0.503999582744,0.5898180188741761,1024,0.0,99,P-GPS,
0.307537646462266,36.8793874331328,22600,2018-03-31 05:57:55,1847.503330620117,76.9000024608,0.35999970196000003,0.36760901176348804,1847.703330626517,77.1000024672,0.503999582744,0.5898180188741761,1024,0.0,99,P-GPS,
0.307537980190712,36.8793875568075,22700,2018-03-31 05:57:55,1847.503330620117,76.9000024608,0.35999970196000003,0.406956013022592,1847.703330626517,77.1000024672,0.503999582744,0.5898180188741761,989,0.0,99,P-GPS,
0.307538306542015,36.8793876585212,22800,2018-03-31 05:57:55,1847.503330620117,76.9000024608,0.35999970196000003,0.444927014237664,1847.703330626517,77.1000024672,0.503999582744,0.5898180188741761,952,0.0,99,P-GPS,
0.307538648515152,36.8793877695565,22900,2018-03-31 05:57:55,1847.403330616917,76.8000024576,0.35999970196000003,0.4848500155152,1847.703330626517,77.1000024672,0.503999582744,0.5898180188741761,925,0.0,99,P-GPS,
0.307538968499461,36.8793878479677,23000,2018-03-31 05:57:55,1847.403330616917,76.8000024576,0.35999970196000003,0.521479016687328,1847.703330626517,77.1000024672,0.503999582744,0.5898180188741761,921,0.0,99,P-GPS,
0.307539276820193,36.8793879359799,23100,2018-03-31 05:57:55,1847.403330616917,76.8000024576,0.35999970196000003,0.5571300178281601,1847.703330626517,77.1000024672,0.503999582744,0.5898180188741761,894,0.0,98,P-GPS,
0.307539559468505,36.8793880088936,23200,2018-03-31 05:57:56,1847.403330616917,76.8000024576,0.35999970196000003,0.589591018866912,1847.703330626517,77.1000024672,0.503999582744,0.5898180188741761,901,0.0,98,P-GPS,
0.30753981519874,36.879388107266,23300,2018-03-31 05:57:56,1847.303330613717,76.7000024544,0.35999970196000003,0.6198950198366401,1847.703330626517,77.1000024672,0.503999582744,0.6198950198366401,903,0.0,98,P-GPS,
0.307540053590321,36.8793881767784,23400,2018-03-31 05:57:56,1847.303330613717,76.7000024544,0.35999970196000003,0.6475060207201919,1847.703330626517,77.1000024672,0.503999582744,0.6475060207201919,902,0.0,98,P-GPS,
0.307540331805499,36.8793882760619,23500,2018-03-31 05:57:56,1847.303330613717,76.7000024544,0.35999970196000003,0.68026502176848,1847.703330626517,77.1000024672,0.503999582744,0.68026502176848,901,0.0,98,P-GPS,
0.30754057883394,36.8793883546015,23600,2018-03-31 05:57:56,1847.203330610517,76.6000024512,0.35999970196000003,0.709071022690272,1847.703330626517,77.1000024672,0.503999582744,0.709071022690272,900,0.0,98,P-GPS,
0.307540793303068,36.8793884591587,23700,2018-03-31 05:57:56,1847.203330610517,76.6000024512,0.35999970196000003,0.735182023525824,1847.703330626517,77.1000024672,0.503999582744,0.735182023525824,901,0.0,98,P-GPS,
0.307540973185266,36.879388539118,23800,2018-03-31 05:57:56,1847.1033306073168,76.500002448,0.35999970196000003,0.756864024219648,1847.703330626517,77.1000024672,0.503999582744,0.756864024219648,901,0.0,98,P-GPS,
0.307541162728616,36.8793886131879,23900,2018-03-31 05:57:56,1847.1033306073168,76.500002448,0.0,0.77940502494096,1847.703330626517,77.1000024672,0.503999582744,0.77940502494096,906,0.0,98,P-GPS,
0.307541306094993,36.8793886510108,24000,2018-03-31 05:57:56,1847.1033306073168,76.500002448,0.0,0.7958880254684161,1847.703330626517,77.1000024672,0.503999582744,0.7958880254684161,904,0.0,98,P-GPS,
0.307541437152573,36.8793887119264,24100,2018-03-31 05:57:56,1847.0033306041169,76.4000024448,0.0,0.811781025976992,1847.703330626517,77.1000024672,0.503999582744,0.811781025976992,906,0.0,98,P-GPS,
0.307541530405012,36.8793887453267,24200,2018-03-31 05:57:56,1847.0033306041169,76.4000024448,0.0,0.822779026328928,1847.703330626517,77.1000024672,0.503999582744,0.822779026328928,910,0.0,98,P-GPS,
0.307541616380341,36.879388760512,24300,2018-03-31 05:57:57,1847.0033306041169,76.4000024448,0.0,0.8324270266376641,1847.703330626517,77.1000024672,0.503999582744,0.8324270266376641,908,0.0,98,P-GPS,
0.307541667737393,36.8793887693058,24400,2018-03-31 05:57:57,1846.9033306009171,76.3000024416,0.0,0.8381810268217921,1847.703330626517,77.1000024672,0.503999582744,0.8381810268217921,910,0.0,98,P-GPS,
0.307541666263245,36.8793887660608,24500,2018-03-31 05:57:57,1846.9033306009171,76.3000024416,0.0,0.837923026813536,1847.703330626517,77.1000024672,0.503999582744,0.8381810268217921,910,0.0,98,P-GPS,
0.30754163846652,36.8793887512085,24600,2018-03-31 05:57:57,1846.9033306009171,76.3000024416,0.0,0.8344920267037441,1847.703330626517,77.1000024672,0.503999582744,0.8381810268217921,908,0.0,98,P-GPS,
0.30754161083956,36.8793887662075,24700,2018-03-31 05:57:57,1846.9033306009171,76.3000024416,0.0,0.8320150266244801,1847.703330626517,77.1000024672,0.503999582744,0.8381810268217921,908,0.0,98,P-GPS,
0.307541566899663,36.8793887577252,24800,2018-03-31 05:57:57,1846.9033306009171,76.3000024416,0.35999970196000003,0.8270620264659841,1847.703330626517,77.1000024672,0.503999582744,0.8381810268217921,905,0.0,98,P-GPS,
0.307541481224782,36.8793887395348,24900,2018-03-31 05:57:57,1846.8033305977171,76.2000024384,0.35999970196000003,0.817353026155296,1847.703330626517,77.1000024672,0.503999582744,0.8381810268217921,903,0.0,98,P-GPS,
0.307541392954568,36.8793887091878,25000,2018-03-31 05:57:57,1846.8033305977171,76.2000024384,0.35999970196000003,0.806982025823424,1847.703330626517,77.1000024672,0.503999582744,0.8381810268217921,907,0.0,98,P-GPS,
0.307541265857567,36.8793887045939,25100,2018-03-31 05:57:57,1846.8033305977171,76.2000024384,0.35999970196000003,0.7932950253854401,1847.703330626517,77.1000024672,0.503999582744,0.8381810268217921,906,0.0,98,P-GPS,
0.307541143067801,36.8793886862911,25200,2018-03-31 05:57:58,1846.703330594517,76.1000024352,0.35999970196000003,0.779636024948352,1847.703330626517,77.1000024672,0.503999582744,0.8381810268217921,891,0.0,98,P-GPS,
0.30754104388518,36.8793886979755,25300,2018-03-31 05:57:58,1846.703330594517,76.1000024352,0.35999970196000003,0.7694760246232321,1847.703330626517,77.1000024672,0.503999582744,0.8381810268217921,891,0.0,98,P-GPS,
0.30754094711571,36.8793886938077,25400,2018-03-31 05:57:58,1846.703330594517,76.1000024352,0.35999970196000003,0.759067024290144,1847.703330626517,77.1000024672,0.503999582744,0.8381810268217921,850,0.0,98,P-GPS,
0.307540851783341,36.8793887168083,25500,2018-03-31 05:57:58,1846.603330591317,76.000002432,0.35999970196000003,0.7497440239918081,1847.703330626517,77.1000024672,0.503999582744,0.8381810268217921,850,0.0,98,P-GPS,
0.307540768406194,36.8793887393282,25600,2018-03-31 05:57:58,1846.603330591317,76.000002432,0.0,0.741709023734688,1847.703330626517,77.1000024672,0.503999582744,0.8381810268217921,838,0.0,98,P-GPS,
0.307540657493281,36.8793887883077,25700,2018-03-31 05:57:58,1846.603330591317,76.000002432,0.0,0.731767023416544,1847.703330626517,77.1000024672,0.503999582744,0.8381810268217921,848,0.0,98,P-GPS,
0.307540562760587,36.8793888196868,25800,2018-03-31 05:57:58,1846.603330591317,76.000002432,0.0,0.7229750231352001,1847.703330626517,77.1000024672,0.503999582744,0.8381810268217921,849,0.0,98,P-GPS,
0.307540422119818,36.8793888374661,25900,2018-03-31 05:57:58,1846.503330588117,75.90000242880001,0.0,0.708934022685888,1847.703330626517,77.1000024672,0.503999582744,0.8381810268217921,849,0.0,98,P-GPS,
0.307540104690079,36.8793888705056,26100,2018-03-31 05:57:58,1846.4033305849168,75.8000024256,0.0,0.6772320216714239,1847.703330626517,77.1000024672,0.503999582744,0.8381810268217921,866,0.0,98,P-GPS,
0.307539950367327,36.8793888774024,26200,2018-03-31 05:57:58,1846.4033305849168,75.8000024256,0.0,0.661576021170432,1847.703330626517,77.1000024672,0.503999582744,0.8381810268217921,1024,0.0,98,P-GPS,
0.30753977029745,36.8793888746563,26300,2018-03-31 05:57:59,1846.4033305849168,75.8000024256,0.0,0.6429410205741121,1847.703330626517,77.1000024672,0.503999582744,0.8381810268217921,1024,0.0,98,P-GPS,
0.307539640180907,36.8793888550848,26400,2018-03-31 05:57:59,1846.3033305817169,75.7000024224,0.0,0.6287620201203841,1847.703330626517,77.1000024672,0.503999582744,0.8381810268217921,1024,0.0,98,P-GPS,
0.307539484250881,36.8793888373986,26500,2018-03-31 05:57:59,1846.3033305817169,75.7000024224,0.0,0.612054019585728,1847.703330626517,77.1000024672,0.503999582744,0.8381810268217921,1024,0.0,98,P-GPS,
0.307539368266178,36.8793887970448,26600,2018-03-31 05:57:59,1846.3033305817169,75.7000024224,0.0,0.598437019149984,1847.703330626517,77.1000024672,0.503999582744,0.8381810268217921,1024,0.0,98,P-GPS,
0.307539167447584,36.879388745392,26700,2018-03-31 05:57:59,1846.3033305817169,75.7000024224,0.0,0.575683018421856,1847.703330626517,77.1000024672,0.503999582744,0.8381810268217921,1024,0.0,98,P-GPS,
0.307539010972334,36.8793887037043,26800,2018-03-31 05:57:59,1846.3033305817169,75.7000024224,0.0,0.5579050178529601,1847.703330626517,77.1000024672,0.503999582744,0.8381810268217921,1024,0.0,98,P-GPS,
0.307538814956021,36.8793887012162,26900,2018-03-31 05:57:59,1846.3033305817169,75.7000024224,0.0,0.53798501721552,1847.703330626517,77.1000024672,0.503999582744,0.8381810268217921,1024,0.0,98,P-GPS,
0.307538670575022,36.8793886748925,27000,2018-03-31 05:57:59,1846.3033305817169,75.7000024224,0.0,0.5222250167112,1847.703330626517,77.1000024672,0.503999582744,0.8381810268217921,1024,0.0,98,P-GPS,
0.307538495368442,36.8793886351939,27100,2018-03-31 05:57:59,1846.3033305817169,75.7000024224,0.0,0.502768016088576,1847.703330626517,77.1000024672,0.503999582744,0.8381810268217921,1024,0.0,98,P-GPS,
0.30753836978279,36.8793885882956,27200,2018-03-31 05:58:00,1846.203330578517,75.60000241920001,0.0,0.48793401561388805,1847.703330626517,77.1000024672,0.503999582744,0.8381810268217921,1024,0.0,98,P-GPS,
0.307538217011105,36.8793885757097,27300,2018-03-31 05:58:00,1846.203330578517,75.60000241920001,0.0,0.47212501510800003,1847.703330626517,77.1000024672,0.503999582744,0.8381810268217921,1024,0.0,98,P-GPS,
0.307538108537143,36.8793885497939,27400,2018-03-31 05:58:00,1846.203330578517,75.60000241920001,0.0,0.46008101472259205,1847.703330626517,77.1000024672,0.503999582744,0.8381810268217921,1024,0.0,98,P-GPS,
0.307537955983415,36.8793885625125,27500,2018-03-31 05:58:00,1846.203330578517,75.60000241920001,0.0,0.44576701426454407,1847.703330626517,77.1000024672,0.503999582744,0.8381810268217921,1024,0.0,98,P-GPS,
0.307537846170678,36.8793885611068,27600,2018-03-31 05:58:00,1846.203330578517,75.60000241920001,0.0,0.435007013920224,1847.703330626517,77.1000024672,0.503999582744,0.8381810268217921,1024,0.0,98,P-GPS,
0.307537684607956,36.8793885924559,27700,2018-03-31 05:58:00,1846.203330578517,75.60000241920001,0.0,0.42122001347904003,1847.703330626517,77.1000024672,0.503999582744,0.8381810268217921,1024,0.0,98,P-GPS,
0.307537568902557,36.8793886068939,27800,2018-03-31 05:58:00,1846.203330578517,75.60000241920001,0.0,0.411089013154848,1847.703330626517,77.1000024672,0.503999582744,0.8381810268217921,1024,0.0,98,P-GPS,
0.307537440650862,36.8793886370685,27900,2018-03-31 05:58:00,1846.203330578517,75.60000241920001,0.0,0.40092001282944,1847.703330626517,77.1000024672,0.503999582744,0.8381810268217921,1024,0.0,98,P-GPS,
0.307537347713375,36.87938865256,28000,2018-03-31 05:58:00,1846.203330578517,75.60000241920001,0.0,0.3933250125864,1847.703330626517,77.1000024672,0.503999582744,0.8381810268217921,1024,0.0,98,P-GPS,
0.307537207147311,36.8793886816758,28100,2018-03-31 05:58:00,1846.203330578517,75.60000241920001,0.0,0.38247101223907204,1847.703330626517,77.1000024672,0.503999582744,0.8381810268217921,1024,-0.2,98,P-GPS,
0.307537092009959,36.8793887013725,28200,2018-03-31 05:58:00,1846.203330578517,75.60000241920001,0.0,0.37357001195424006,1847.703330626517,77.1000024672,0.503999582744,0.8381810268217921,1024,-0.8,98,P-GPS,
0.307536952667568,36.879388756417,28300,2018-03-31 05:58:01,1846.203330578517,75.60000241920001,0.0,0.365349011691168,1847.703330626517,77.1000024672,0.503999582744,0.8381810268217921,1024,-1.5,98,P-GPS,
0.307536856428055,36.8793887850392,28400,2018-03-31 05:58:01,1846.203330578517,75.60000241920001,0.0,0.35931901149820805,1847.703330626517,77.1000024672,0.503999582744,0.8381810268217921,1024,-2.2,98,P-GPS,
0.307536705384175,36.8793888016334,28500,2018-03-31 05:58:01,1846.203330578517,75.60000241920001,0.0,0.348186011141952,1847.703330626517,77.1000024672,0.503999582744,0.8381810268217921,1024,-3.0,98,P-GPS,
0.307536604441715,36.8793887984666,28600,2018-03-31 05:58:01,1846.203330578517,75.60000241920001,0.0,0.339891010876512,1847.703330626517,77.1000024672,0.503999582744,0.8381810268217921,1024,-3.8,98,P-GPS,
0.307536487214611,36.8793888336933,28700,2018-03-31 05:58:01,1846.203330578517,75.60000241920001,0.0,0.333619010675808,1847.703330626517,77.1000024672,0.503999582744,0.8381810268217921,1024,-4.6,98,P-GPS,
0.307536414557002,36.8793888478208,28800,2018-03-31 05:58:01,1846.203330578517,75.60000241920001,0.0,0.32931601053811205,1847.703330626517,77.1000024672,0.503999582744,0.8381810268217921,1024,-5.4,98,P-GPS,
0.307536326293506,36.8793888681749,28900,2018-03-31 05:58:01,1846.203330578517,75.60000241920001,0.0,0.32456301038601604,1847.703330626517,77.1000024672,0.503999582744,0.8381810268217921,1024,-6.2,98,P-GPS,
0.307536273070765,36.8793888797095,29000,2018-03-31 05:58:01,1846.203330578517,75.60000241920001,0.0,0.32175201029606404,1847.703330626517,77.1000024672,0.503999582744,0.8381810268217921,1024,-6.9,98,P-GPS,
0.307536174596823,36.8793889404816,29100,2018-03-31 05:58:01,1846.203330578517,75.60000241920001,0.0,0.320276010248832,1847.703330626517,77.1000024672,0.503999582744,0.8381810268217921,1024,-7.7,98,P-GPS,
0.307536119877848,36.8793889789801,29200,2018-03-31 05:58:01,1846.203330578517,75.60000241920001,0.0,0.320103010243296,1847.703330626517,77.1000024672,0.503999582744,0.8381810268217921,1024,-8.5,98,P-GPS,
0.307536023095146,36.8793890158759,29300,2018-03-31 05:58:02,1846.203330578517,75.60000241920001,0.0,0.31733101015459203,1847.703330626517,77.1000024672,0.503999582744,0.8381810268217921,1024,-9.3,98,P-GPS,
0.307535962402021,36.8793890346829,29400,2018-03-31 05:58:02,1846.203330578517,75.60000241920001,0.0,0.3153890100924481,1847.703330626517,77.1000024672,0.503999582744,0.8381810268217921,1024,-9.3,98,P-GPS,
0.307535888552289,36.8793890811723,29500,2018-03-31 05:58:02,1846.203330578517,75.60000241920001,0.0,0.315477010095264,1847.703330626517,77.1000024672,0.503999582744,0.8381810268217921,1024,-10.1,98,P-GPS,
0.307535856007429,36.879389111212,29600,2018-03-31 05:58:02,1846.3033305817169,75.7000024224,0.0,0.316531010128992,1847.703330626517,77.1000024672,0.503999582744,0.8381810268217921,1024,-10.9,98,P-GPS,
0.307535783606402,36.87938911972,29800,2018-03-31 05:58:02,1846.203330578517,75.60000241920001,0.0,0.31342301002953604,1847.703330626517,77.1000024672,0.503999582744,0.8381810268217921,1024,-12.5,98,P-GPS,
