latitude,longitude,time_millisecond,datetime_utc,altitude_m,ascent_m,speed_kph,distance_m,max_altitude_m,max_ascent_m,max_speed_kph,max_distance_m,rc_throttle,gimbal_pitch_degrees,battery_percent,flycState,message
0.0065432115203173,36.9003265759097,0,2018-04-12 09:04:51,1803.9415860261377,0.0,0.0,0.0,1803.9415860261377,0.0,0.0,0.0,364,0.0,99,Motors_Started,
0.00654324448450202,36.900326580161796,100,2018-04-12 09:04:51,1803.9415860261377,0.0,0.0,0.00369619011827808,1803.9415860261377,0.0,0.0,0.00369619011827808,364,0.0,99,Motors_Started,
0.00654327033482914,36.900326585118705,200,2018-04-12 09:04:52,1803.9415860261377,0.0,0.0,0.00662022021184704,1803.9415860261377,0.0,0.0,0.00662022021184704,364,0.0,99,Motors_Started,
0.00654328823875667,36.9003265885979,300,2018-04-12 09:04:52,1803.9415860261377,0.0,0.0,0.008647450276718401,1803.9415860261377,0.0,0.0,0.008647450276718401,364,0.0,99,Motors_Started,
0.0065433236956820295,36.900326592082294,400,2018-04-12 09:04:52,1803.9415860261377,0.0,0.0,0.012603600403315202,1803.9415860261377,0.0,0.0,0.012603600403315202,364,0.0,99,Motors_Started,
0.00654336085392426,36.9003265947646,500,2018-04-12 09:04:52,1803.9415860261377,0.0,0.0,0.0167387005356384,1803.9415860261377,0.0,0.0,0.0167387005356384,364,0.0,99,Motors_Started,
0.00654338867833262,36.9003265973485,600,2018-04-12 09:04:52,1803.9415860261377,0.0,0.0,0.019844800635033598,1803.9415860261377,0.0,0.0,0.019844800635033598,364,0.0,99,Motors_Started,
0.006543409117340329,36.900326599583,700,2018-04-12 09:04:52,1803.9415860261377,0.0,0.0,0.0221311007081952,1803.9415860261377,0.0,0.0,0.0221311007081952,364,0.0,99,Motors_Started,
0.00654341826105338,36.900326600824,800,2018-04-12 09:04:52,1803.9415860261377,0.0,0.0,0.0231572007410304,1803.9415860261377,0.0,0.0,0.0231572007410304,364,0.0,99,Motors_Started,Setting new Return-To-Home altitude to 45m (148 ft). Setting new Maximum Flight Altitude to 150m (492 ft)
0.00654342635116315,36.9003266015766,900,2018-04-12 09:04:52,1803.9415860261377,0.0,0.0,0.0240604007699328,1803.9415860261377,0.0,0.0,0.0240604007699328,364,0.0,99,Motors_Started,
0.0065433972276636,36.900326627900206,1000,2018-04-12 09:04:52,1803.9415860261377,0.0,0.0,0.0214458006862656,1803.9415860261377,0.0,0.0,0.0240604007699328,364,0.0,99,Motors_Started,
0.00654336810945649,36.9003266572704,1100,2018-04-12 09:04:52,1803.9415860261377,0.0,0.0,0.0196239006279648,1803.9415860261377,0.0,0.0,0.0240604007699328,377,0.0,99,Motors_Started,
0.0065433571874826,36.9003266851568,1200,2018-04-12 09:04:53,1803.9415860261377,0.0,0.0,0.020248600647955202,1803.9415860261377,0.0,0.0,0.0240604007699328,549,0.0,99,Motors_Started,
0.0065433652857346,36.9003267034686,1300,2018-04-12 09:04:53,1803.9415860261377,0.0,0.0,0.022217600710963202,1803.9415860261377,0.0,0.0,0.0240604007699328,836,0.0,99,Motors_Started,
0.00654334201689833,36.9003267175553,1400,2018-04-12 09:04:53,1803.9415860261377,0.0,0.0,0.021417700685366404,1803.9415860261377,0.0,0.0,0.0240604007699328,1024,0.0,99,Motors_Started,
0.00654331583274019,36.9003267274284,1500,2018-04-12 09:04:53,1803.9415860261377,0.0,0.0,0.0204568006546176,1803.9415860261377,0.0,0.0,0.0240604007699328,1024,0.0,99,Assisted_Takeoff,
0.00654332333661013,36.9003267931939,1700,2018-04-12 09:04:53,1803.9415860261377,0.0,0.0,0.027175100869603203,1803.9415860261377,0.0,0.0,0.027175100869603203,1024,0.0,99,Assisted_Takeoff,
0.00654330710468748,36.900326820521,1800,2018-04-12 09:04:53,1803.9415860261377,0.0,0.0,0.0292053009345696,1803.9415860261377,0.0,0.0,0.0292053009345696,1024,0.0,99,Assisted_Takeoff,
0.006543284343518621,36.900326839224704,1900,2018-04-12 09:04:53,1803.9415860261377,0.0,0.0,0.030381500972208,1803.9415860261377,0.0,0.0,0.030381500972208,1024,0.0,99,Assisted_Takeoff,
0.00654328601715194,36.9003268496789,2000,2018-04-12 09:04:53,1803.9415860261377,0.0,0.0,0.031551801009657605,1803.9415860261377,0.0,0.0,0.031551801009657605,1024,0.0,99,Assisted_Takeoff,
0.00654330003805476,36.9003268577191,2100,2018-04-12 09:04:53,1803.9415860261377,0.0,0.0,0.032848501051152,1803.9415860261377,0.0,0.0,0.032848501051152,1060,0.0,99,Assisted_Takeoff,
0.00654331545209141,36.90032685699121,2200,2018-04-12 09:04:54,1803.9415860261377,0.0,0.0,0.0333263010664416,1803.9415860261377,0.0,0.0,0.0333263010664416,1224,0.0,99,Assisted_Takeoff,
0.00654332418787923,36.9003268583854,2300,2018-04-12 09:04:54,1803.9415860261377,0.0,0.0,0.033819501082224,1803.9415860261377,0.0,0.0,0.033819501082224,1424,0.0,99,Assisted_Takeoff,
0.00654330515462579,36.9003268517797,2400,2018-04-12 09:04:54,1803.9415860261377,0.0,0.0,0.032397401036716796,1803.9415860261377,0.0,0.0,0.033819501082224,1606,0.0,99,Assisted_Takeoff,
0.00654327974235011,36.9003268487318,2500,2018-04-12 09:04:54,1803.9415860261377,0.0,0.0,0.0312737010007584,1803.9415860261377,0.0,0.0,0.033819501082224,1684,0.0,99,Assisted_Takeoff,
0.00654325294141881,36.9003268431623,2600,2018-04-12 09:04:54,1803.9415860261377,0.0,0.0,0.030075000962400004,1803.9415860261377,0.0,0.0,0.033819501082224,1684,0.0,99,Assisted_Takeoff,
0.00654323513356948,36.90032684204029,2700,2018-04-12 09:04:54,1803.9415860261377,0.0,0.0,0.029711600950771203,1803.9415860261377,0.0,0.0,0.033819501082224,1684,0.0,99,Assisted_Takeoff,
0.00654322428446846,36.900326838719,2800,2018-04-12 09:04:54,1803.9415860261377,0.0,0.0,0.029260500936336007,1803.9415860261377,0.0,0.0,0.033819501082224,1684,0.0,99,P-GPS,
0.00654321436480186,36.90032683497979,2900,2018-04-12 09:04:54,1803.9415860261377,0.0,0.0,0.0288119009219808,1803.9415860261377,0.0,0.0,0.033819501082224,1684,0.0,99,P-GPS,Home Point Recorded. RTH Altitude:  45m.
0.0065432009272891,36.900326806762294,3000,2018-04-12 09:04:54,1803.9415860261377,0.0,0.0,0.025699200822374403,1803.9415860261377,0.0,0.0,0.033819501082224,1684,0.0,99,P-GPS,Obstacle Avoided. Revise Flight Route
0.00654319241378389,36.9003267601377,3100,2018-04-12 09:04:54,1804.0415860293376,0.10000000320000002,0.0,0.0205972006591104,1804.0415860293376,0.10000000320000002,0.0,0.033819501082224,1684,0.0,99,P-GPS,
0.00654316096975164,36.9003267337917,3200,2018-04-12 09:04:55,1804.2415860357378,0.3000000096,0.0,0.0184354005899328,1804.2415860357378,0.3000000096,0.0,0.033819501082224,1684,0.0,99,P-GPS,
0.00654311101438226,36.9003266988656,3300,2018-04-12 09:04:55,1804.3415860389377,0.4000000128000001,0.0,0.017660300565129603,1804.3415860389377,0.4000000128000001,0.0,0.033819501082224,1684,0.0,99,P-GPS,
0.00654305576168455,36.9003266389709,3400,2018-04-12 09:04:55,1804.5415860453375,0.6000000192,0.0,0.018687100597987203,1804.5415860453375,0.6000000192,0.0,0.033819501082224,1684,0.0,99,P-GPS,
0.00654301263641641,36.9003265397425,3500,2018-04-12 09:04:55,1804.8415860549376,0.9000000288000001,0.35999970196000003,0.022479800719353602,1804.8415860549376,0.9000000288000001,0.35999970196000003,0.033819501082224,1684,0.0,99,P-GPS,
0.006542969234312779,36.900326379542896,3600,2018-04-12 09:04:55,1805.1415860645377,1.2000000384,0.35999970196000003,0.034681801109817605,1805.1415860645377,1.2000000384,0.35999970196000003,0.034681801109817605,1684,0.0,99,P-GPS,
0.0065428999102305,36.900326173314,3700,2018-04-12 09:04:55,1805.5415860773376,1.6000000512000003,0.35999970196000003,0.0566152018116864,1805.5415860773376,1.6000000512000003,0.35999970196000003,0.0566152018116864,1684,0.0,99,P-GPS,
0.006542809372815379,36.9003259389402,3800,2018-04-12 09:04:55,1805.9415860901377,2.000000064,0.35999970196000003,0.083771002680672,1805.9415860901377,2.000000064,0.35999970196000003,0.083771002680672,1684,0.0,99,P-GPS,
0.00654271971231735,36.9003257157312,3900,2018-04-12 09:04:55,1806.4415861061375,2.50000008,0.35999970196000003,0.110188003526016,1806.4415861061375,2.50000008,0.35999970196000003,0.110188003526016,1684,0.0,99,P-GPS,
0.006542603632351029,36.900325484140396,4000,2018-04-12 09:04:55,1806.9415861221378,3.0000000960000004,0.35999970196000003,0.138963004446816,1806.9415861221378,3.0000000960000004,0.35999970196000003,0.138963004446816,1684,0.0,99,P-GPS,
0.00654248829291962,36.9003252867655,4100,2018-04-12 09:04:55,1807.4415861381376,3.500000112,0.35999970196000003,0.16438000526016003,1807.4415861381376,3.500000112,0.35999970196000003,0.16438000526016003,1684,0.0,99,P-GPS,
0.00654232360878532,36.9003251124065,4200,2018-04-12 09:04:56,1807.9415861541377,4.000000128,0.0,0.19036200609158402,1807.9415861541377,4.000000128,0.35999970196000003,0.19036200609158402,1684,0.0,99,P-GPS,
0.00654216414096426,36.900324981389495,4300,2018-04-12 09:04:56,1808.4415861701377,4.5000001439999995,0.0,0.212153006788896,1808.4415861701377,4.5000001439999995,0.35999970196000003,0.212153006788896,1684,0.0,99,P-GPS,
0.00654200938341746,36.9003249094419,4400,2018-04-12 09:04:56,1808.9415861861378,5.00000016,0.0,0.22850800731225598,1808.9415861861378,5.00000016,0.35999970196000003,0.22850800731225598,1684,0.0,99,P-GPS,
0.00654190556848421,36.9003248641377,4500,2018-04-12 09:04:56,1809.4415862021376,5.500000176000001,0.0,0.239434007661888,1809.4415862021376,5.500000176000001,0.35999970196000003,0.239434007661888,1684,0.0,99,P-GPS,
0.00654185745488499,36.900324832018796,4600,2018-04-12 09:04:56,1809.8415862149375,5.9000001888,0.0,0.24552800785689602,1809.8415862149375,5.9000001888,0.35999970196000003,0.24552800785689602,1684,0.0,99,P-GPS,
0.00654183184963869,36.9003247629279,4700,2018-04-12 09:04:56,1810.3415862309375,6.400000204800001,0.35999970196000003,0.25335500810736,1810.3415862309375,6.400000204800001,0.35999970196000003,0.25335500810736,1684,0.0,99,P-GPS,
0.00654183991002937,36.9003247407352,4800,2018-04-12 09:04:56,1810.8415862469376,6.9000002208,0.0,0.25478500815312,1810.8415862469376,6.9000002208,0.35999970196000003,0.25478500815312,1684,0.0,99,P-GPS,
0.00654184573497354,36.9003247237228,4900,2018-04-12 09:04:56,1811.3415862629377,7.4000002368,0.0,0.25591800818937605,1811.3415862629377,7.4000002368,0.35999970196000003,0.25591800818937605,1684,0.0,99,P-GPS,
0.00654185834523674,36.9003247309323,5000,2018-04-12 09:04:56,1811.7415862757375,7.8000002496,0.0,0.254441008142112,1811.7415862757375,7.8000002496,0.35999970196000003,0.25591800818937605,1684,0.0,99,P-GPS,
0.00654185876700374,36.9003247233352,5100,2018-04-12 09:04:56,1812.2415862917376,8.3000002656,0.0,0.25509600816307204,1812.2415862917376,8.3000002656,0.35999970196000003,0.25591800818937605,1684,0.0,99,P-GPS,
0.00654190897478194,36.9003247535671,5200,2018-04-12 09:04:57,1812.7415863077376,8.8000002816,0.0,0.24910100797123202,1812.7415863077376,8.8000002816,0.35999970196000003,0.25591800818937605,1684,0.0,99,P-GPS,
0.0065419590669406205,36.9003247881746,5300,2018-04-12 09:04:57,1813.1415863205377,9.2000002944,0.0,0.242741007767712,1813.1415863205377,9.2000002944,0.35999970196000003,0.25591800818937605,1684,0.0,99,P-GPS,
0.006542018738014,36.90032482268229,5400,2018-04-12 09:04:57,1813.6415863365376,9.7000003104,0.0,0.235813007546016,1813.6415863365376,9.7000003104,0.35999970196000003,0.25591800818937605,1684,0.0,99,P-GPS,
0.00654204397441773,36.90032484489829,5500,2018-04-12 09:04:57,1814.1415863525376,10.2000003264,0.0,0.23219400743020802,1814.1415863525376,10.2000003264,0.35999970196000003,0.25591800818937605,1684,0.0,99,P-GPS,
0.00654207093900765,36.9003248917507,5600,2018-04-12 09:04:57,1814.5415863653375,10.6000003392,0.0,0.22619800723833602,1814.5415863653375,10.6000003392,0.35999970196000003,0.25591800818937605,1684,0.0,99,P-GPS,
0.00654209575079461,36.900324948050105,5700,2018-04-12 09:04:57,1815.0415863813378,11.1000003552,0.0,0.21947000702304,1815.0415863813378,11.1000003552,0.35999970196000003,0.25591800818937605,1684,0.0,99,P-GPS,
0.00654211533201945,36.9003249798878,5800,2018-04-12 09:04:57,1815.5415863973376,11.6000003712,0.0,0.21531900689020803,1815.5415863973376,11.6000003712,0.35999970196000003,0.25591800818937605,1684,0.0,99,P-GPS,
0.00654213306211058,36.9003249956611,5900,2018-04-12 09:04:57,1815.9415864101377,12.000000384000002,0.0,0.21275700680822401,1815.9415864101377,12.000000384000002,0.35999970196000003,0.25591800818937605,1684,0.0,99,P-GPS,
0.0065421527609905,36.9003249808082,6000,2018-04-12 09:04:57,1816.4415864261375,12.500000400000001,0.0,0.21290400681292804,1816.4415864261375,12.500000400000001,0.35999970196000003,0.25591800818937605,1684,0.0,99,P-GPS,
0.00654218655527454,36.9003249690619,6100,2018-04-12 09:04:57,1816.9415864421378,13.000000416,0.0,0.21194900678236803,1816.9415864421378,13.000000416,0.35999970196000003,0.25591800818937605,1684,0.0,99,P-GPS,
0.00654225263468216,36.9003249376554,6200,2018-04-12 09:04:58,1817.4415864581376,13.500000432000002,0.0,0.211097006755104,1817.4415864581376,13.500000432000002,0.35999970196000003,0.25591800818937605,1684,0.0,99,P-GPS,
0.0065423442798463105,36.9003249121997,6300,2018-04-12 09:04:58,1817.8415864709375,13.9000004448,0.0,0.208642006676544,1817.8415864709375,13.9000004448,0.35999970196000003,0.25591800818937605,1684,0.0,99,P-GPS,
0.0065424157123564605,36.9003248564671,6400,2018-04-12 09:04:58,1818.3415864869376,14.400000460800001,0.0,0.21069900674236802,1818.3415864869376,14.400000460800001,0.35999970196000003,0.25591800818937605,1684,0.0,99,P-GPS,
0.006542461746025579,36.9003248092504,6500,2018-04-12 09:04:58,1818.8415865029376,14.9000004768,0.0,0.21342400682956802,1818.8415865029376,14.9000004768,0.35999970196000003,0.25591800818937605,1684,0.0,99,P-GPS,
0.0065424854940315,36.9003247649593,6600,2018-04-12 09:04:58,1819.3415865189377,15.4000004928,0.0,0.21697000694304,1819.3415865189377,15.4000004928,0.35999970196000003,0.25591800818937605,1684,0.0,99,P-GPS,
0.0065425008026264,36.900324745172206,6700,2018-04-12 09:04:58,1819.8415865349375,15.900000508800002,0.0,0.21839200698854402,1819.8415865349375,15.900000508800002,0.35999970196000003,0.25591800818937605,1684,0.0,99,P-GPS,
0.00654250556012554,36.900324700362894,6800,2018-04-12 09:04:58,1820.3415865509378,16.400000524800003,0.0,0.222858007131456,1820.3415865509378,16.400000524800003,0.35999970196000003,0.25591800818937605,1684,0.0,99,P-GPS,
0.00654251360911711,36.90032466437761,6900,2018-04-12 09:04:58,1820.8415865669376,16.900000540799997,0.0,0.226299007241568,1820.8415865669376,16.900000540799997,0.35999970196000003,0.25591800818937605,1684,0.0,99,P-GPS,
0.0065425175344813605,36.900324629583004,7000,2018-04-12 09:04:58,1821.3415865829377,17.400000556800002,0.0,0.22979100735331198,1821.3415865829377,17.400000556800002,0.35999970196000003,0.25591800818937605,1684,0.0,99,P-GPS,
0.00654252475866604,36.9003246081788,7100,2018-04-12 09:04:58,1821.9415866021377,18.000000575999998,0.0,0.231768007416576,1821.9415866021377,18.000000575999998,0.35999970196000003,0.25591800818937605,1684,0.0,99,P-GPS,
0.006542542059255071,36.9003245793045,7200,2018-04-12 09:04:59,1822.4415866181375,18.500000592000003,0.0,0.234184007493888,1822.4415866181375,18.500000592000003,0.35999970196000003,0.25591800818937605,1684,0.0,99,P-GPS,
0.006542561362015979,36.9003245469012,7300,2018-04-12 09:04:59,1822.9415866341376,19.000000608,0.0,0.236939007582048,1822.9415866341376,19.000000608,0.35999970196000003,0.25591800818937605,1684,0.0,99,P-GPS,
0.0065425515217360205,36.900324496513,7400,2018-04-12 09:04:59,1823.5415866533376,19.6000006272,0.0,0.24261000776351999,1823.5415866533376,19.6000006272,0.35999970196000003,0.25591800818937605,1684,0.0,99,P-GPS,
0.00654252708937651,36.900324445301706,7500,2018-04-12 09:04:59,1824.0415866693374,20.1000006432,0.0,0.24886200796358404,1824.0415866693374,20.1000006432,0.35999970196000003,0.25591800818937605,1684,0.0,99,P-GPS,
0.00654249477534806,36.900324384174,7600,2018-04-12 09:04:59,1824.6415866885377,20.7000006624,0.0,0.256436008205952,1824.6415866885377,20.7000006624,0.35999970196000003,0.256436008205952,1684,0.0,99,P-GPS,
0.006542459498772871,36.9003243241934,7700,2018-04-12 09:04:59,1825.1415867045375,21.2000006784,0.0,0.264001008448032,1825.1415867045375,21.2000006784,0.35999970196000003,0.264001008448032,1684,0.0,99,P-GPS,
0.0065424313674028204,36.9003242523793,7800,2018-04-12 09:04:59,1825.7415867237378,21.8000006976,0.0,0.272567008722144,1825.7415867237378,21.8000006976,0.35999970196000003,0.272567008722144,1684,0.0,99,P-GPS,
0.00654240787058439,36.9003241902169,7900,2018-04-12 09:04:59,1826.2415867397376,22.3000007136,0.0,0.279952008958464,1826.2415867397376,22.3000007136,0.35999970196000003,0.279952008958464,1684,-0.3,99,P-GPS,
0.00654237440361759,36.9003241045474,8000,2018-04-12 09:04:59,1826.8415867589376,22.900000732800002,0.0,0.29016900928540806,1826.8415867589376,22.900000732800002,0.35999970196000003,0.29016900928540806,1684,-2.5,99,P-GPS,
0.00654233438623481,36.900324020042795,8100,2018-04-12 09:04:59,1827.4415867781377,23.500000752000002,0.0,0.300500009616,1827.4415867781377,23.500000752000002,0.35999970196000003,0.300500009616,1684,-2.5,99,P-GPS,
0.00654228658366839,36.900323935736395,8200,2018-04-12 09:05:00,1827.9415867941375,24.000000768000003,0.0,0.31109900995516804,1827.9415867941375,24.000000768000003,0.35999970196000003,0.31109900995516804,1684,-12.9,99,P-GPS,
0.006542234713248871,36.900323878485295,8300,2018-04-12 09:05:00,1828.5415868133375,24.600000787200003,0.0,0.319033010209056,1828.5415868133375,24.600000787200003,0.35999970196000003,0.319033010209056,1684,-18.5,99,P-GPS,
0.00654216753749133,36.900323814936705,8400,2018-04-12 09:05:00,1829.1415868325378,25.200000806400006,0.0,0.32825301050409605,1829.1415868325378,25.200000806400006,0.35999970196000003,0.32825301050409605,1684,-22.5,99,P-GPS,
0.0065420906895906706,36.900323758465206,8500,2018-04-12 09:05:00,1829.7415868517376,25.800000825599998,0.0,0.33719901079036807,1829.7415868517376,25.800000825599998,0.35999970196000003,0.33719901079036807,1684,-22.5,99,P-GPS,
0.00654198640525844,36.900323692513,8600,2018-04-12 09:05:00,1830.3415868709378,26.4000008448,0.0,0.348394011148608,1830.3415868709378,26.4000008448,0.35999970196000003,0.348394011148608,1684,-22.5,99,P-GPS,
0.00654188603407714,36.90032364557629,8700,2018-04-12 09:05:00,1830.8415868869376,26.9000008608,0.0,0.3576580114450561,1830.8415868869376,26.9000008608,0.35999970196000003,0.3576580114450561,1684,-22.5,99,P-GPS,
0.0065418224376395,36.900323619824206,8800,2018-04-12 09:05:00,1831.4415869061377,27.50000088,0.0,0.36322001162304,1831.4415869061377,27.50000088,0.35999970196000003,0.36322001162304,1684,-22.5,99,P-GPS,
0.00654178710732566,36.9003236227846,8900,2018-04-12 09:05:00,1832.0415869253375,28.1000008992,0.0,0.364612011667584,1832.0415869253375,28.1000008992,0.35999970196000003,0.364612011667584,1684,-22.5,99,P-GPS,
0.0065417495558142,36.900323605282395,9000,2018-04-12 09:05:00,1832.6415869445377,28.7000009184,0.0,0.36819101178211205,1832.6415869445377,28.7000009184,0.35999970196000003,0.36819101178211205,1684,-22.5,99,P-GPS,
0.00654171112738565,36.900323577314296,9100,2018-04-12 09:05:00,1833.2415869637375,29.300000937600004,0.0,0.372876011932032,1833.2415869637375,29.300000937600004,0.35999970196000003,0.372876011932032,1684,-22.5,99,P-GPS,
0.0065416580185344705,36.9003235245354,9200,2018-04-12 09:05:01,1833.8415869829378,29.900000956800003,0.0,0.38077701218486404,1833.8415869829378,29.900000956800003,0.35999970196000003,0.38077701218486404,1684,-22.5,99,P-GPS,
0.00654159841992685,36.900323486229894,9300,2018-04-12 09:05:01,1834.4415870021376,30.500000976,0.0,0.387601012403232,1834.4415870021376,30.500000976,0.35999970196000003,0.387601012403232,1684,-22.5,99,P-GPS,
0.00654151015011999,36.9003234303127,9400,2018-04-12 09:05:01,1835.0415870213376,31.100000995200002,0.0,0.39769901272636804,1835.0415870213376,31.100000995200002,0.35999970196000003,0.39769901272636804,1684,-22.5,99,P-GPS,
0.0065414252202517795,36.9003233968247,9500,2018-04-12 09:05:01,1835.6415870405378,31.7000010144,0.0,0.40552001297664003,1835.6415870405378,31.7000010144,0.35999970196000003,0.40552001297664003,1684,-22.5,99,P-GPS,
0.00654134451945262,36.900323371251204,9600,2018-04-12 09:05:01,1836.1415870565377,32.2000010304,0.0,0.41244601319827195,1836.1415870565377,32.2000010304,0.35999970196000003,0.41244601319827195,1684,-22.5,99,P-GPS,
0.00654129572557092,36.90032337721,9700,2018-04-12 09:05:01,1836.7415870757375,32.800001049600006,0.0,0.41463501326832003,1836.7415870757375,32.800001049600006,0.35999970196000003,0.41463501326832003,1684,-22.5,99,P-GPS,
0.00654124226782561,36.9003233866401,9800,2018-04-12 09:05:01,1837.3415870949377,33.4000010688,0.0,0.416829013338528,1837.3415870949377,33.4000010688,0.35999970196000003,0.416829013338528,1684,-22.5,99,P-GPS,
0.00654120263027739,36.9003234109894,9900,2018-04-12 09:05:01,1837.9415871141377,34.000001088000005,0.0,0.41687201333990404,1837.9415871141377,34.000001088000005,0.35999970196000003,0.41687201333990404,1684,-22.5,99,P-GPS,
0.00654115542982814,36.900323427992504,10000,2018-04-12 09:05:01,1838.4415871301376,34.500001104,0.0,0.4181240133799681,1838.4415871301376,34.500001104,0.35999970196000003,0.4181240133799681,1684,-22.5,99,P-GPS,
0.006541116829191639,36.9003234517024,10100,2018-04-12 09:05:01,1839.0415871493376,35.1000011232,0.0,0.41829501338544006,1839.0415871493376,35.1000011232,0.35999970196000003,0.41829501338544006,1684,-22.5,99,P-GPS,
0.00654104826030026,36.9003234437424,10200,2018-04-12 09:05:02,1839.6415871685376,35.7000011424,0.0,0.423317013546144,1839.6415871685376,35.7000011424,0.35999970196000003,0.423317013546144,1684,-22.5,99,P-GPS,
0.00654097415225663,36.900323444361796,10300,2018-04-12 09:05:02,1840.1415871845375,36.200001158400006,0.0,0.42799801369593604,1840.1415871845375,36.200001158400006,0.35999970196000003,0.42799801369593604,1684,-22.5,99,P-GPS,
0.00654090616309132,36.9003234290885,10400,2018-04-12 09:05:02,1840.7415872037377,36.8000011776,0.0,0.433806013881792,1840.7415872037377,36.8000011776,0.35999970196000003,0.433806013881792,1684,-22.5,99,P-GPS,
0.0065408703755918205,36.900323433029,10500,2018-04-12 09:05:02,1841.2415872197375,37.3000011936,0.0,0.4358180139461761,1841.2415872197375,37.3000011936,0.35999970196000003,0.4358180139461761,1684,-22.5,99,P-GPS,
0.00654083163898024,36.900323416719104,10600,2018-04-12 09:05:02,1841.8415872389378,37.90000121280001,0.0,0.439852014075264,1841.8415872389378,37.90000121280001,0.35999970196000003,0.439852014075264,1684,-22.5,99,P-GPS,
0.0065408070641318795,36.900323428305896,10700,2018-04-12 09:05:02,1842.4415872581376,38.500001232,0.0,0.440477014095264,1842.4415872581376,38.500001232,0.35999970196000003,0.440477014095264,1684,-22.5,99,P-GPS,
0.00654080502450578,36.9003234322707,10800,2018-04-12 09:05:02,1842.9415872741376,39.000001248000004,0.0,0.44026501408848,1842.9415872741376,39.000001248000004,0.35999970196000003,0.440477014095264,1684,-22.5,99,P-GPS,
0.006540821093176921,36.9003234622475,10900,2018-04-12 09:05:02,1843.5415872933377,39.60000126719999,0.0,0.436532013969024,1843.5415872933377,39.60000126719999,0.35999970196000003,0.440477014095264,1684,-22.5,99,P-GPS,
0.0065408427303123,36.9003234650034,11000,2018-04-12 09:05:02,1844.1415873125377,40.2000012864,0.0,0.43482701391446404,1844.1415873125377,40.2000012864,0.35999970196000003,0.440477014095264,1684,-22.6,99,P-GPS,
0.00654090479845525,36.900323476302496,11200,2018-04-12 09:05:03,1845.2415873477378,41.30000132160001,0.0,0.4296720137495039,1845.2415873477378,41.30000132160001,0.35999970196000003,0.440477014095264,1684,-22.6,99,P-GPS,
0.00654095356302496,36.9003235087394,11300,2018-04-12 09:05:03,1845.7415873637376,41.80000133760001,0.0,0.423546013553472,1845.7415873637376,41.80000133760001,0.35999970196000003,0.440477014095264,1684,-22.6,99,P-GPS,
0.00654102942978811,36.900323550597705,11400,2018-04-12 09:05:03,1846.3415873829374,42.4000013568,0.0,0.414816013274112,1846.3415873829374,42.4000013568,0.35999970196000003,0.440477014095264,1684,-22.7,99,P-GPS,
0.00654110442533372,36.900323613475706,11500,2018-04-12 09:05:03,1846.8415873989377,42.900001372800006,0.0,0.4042750129368,1846.8415873989377,42.900001372800006,0.35999970196000003,0.440477014095264,1684,-22.6,99,P-GPS,
0.00654118323388095,36.900323672292295,11600,2018-04-12 09:05:03,1847.3415874149375,43.40000138880001,0.0,0.393879012604128,1847.3415874149375,43.40000138880001,0.35999970196000003,0.440477014095264,1684,-22.5,99,P-GPS,
0.00654125500103634,36.90032372324129,11700,2018-04-12 09:05:03,1847.9415874341378,44.00000140800001,0.0,0.384678012309696,1847.9415874341378,44.00000140800001,0.35999970196000003,0.440477014095264,1684,-22.5,99,P-GPS,
0.0065413609125912296,36.9003237512788,11800,2018-04-12 09:05:03,1848.4415874501376,44.500001424,0.0,0.375529012016928,1848.4415874501376,44.500001424,0.35999970196000003,0.440477014095264,1684,-22.4,99,P-GPS,
0.00654147133493599,36.900323791494706,11900,2018-04-12 09:05:03,1848.9415874661374,45.00000144,0.0,0.365142011684544,1848.9415874661374,45.00000144,0.35999970196000003,0.440477014095264,1684,-22.5,99,P-GPS,
0.0065415723660442295,36.9003238293311,12000,2018-04-12 09:05:03,1849.5415874853377,45.6000014592,0.0,0.35569501138223997,1849.5415874853377,45.6000014592,0.35999970196000003,0.440477014095264,1684,-22.7,99,P-GPS,
0.00654163960531108,36.9003238921998,12100,2018-04-12 09:05:03,1850.0415875013375,46.1000014752,0.35999970196000003,0.34587101106787194,1850.0415875013375,46.1000014752,0.35999970196000003,0.440477014095264,1684,-22.7,99,P-GPS,
0.00654170538101389,36.9003239751318,12200,2018-04-12 09:05:04,1850.6415875205378,46.7000014944,0.0,0.33422001069504004,1850.6415875205378,46.7000014944,0.35999970196000003,0.440477014095264,1684,-22.7,99,P-GPS,
0.00654176782247762,36.90032407975121,12300,2018-04-12 09:05:04,1851.1415875365376,47.2000015104,0.35999970196000003,0.320672010261504,1851.1415875365376,47.2000015104,0.35999970196000003,0.440477014095264,1684,-22.7,99,P-GPS,
0.006541850701320621,36.9003241887002,12400,2018-04-12 09:05:04,1851.6415875525374,47.700001526399994,0.35999970196000003,0.305576009778432,1851.6415875525374,47.700001526399994,0.35999970196000003,0.440477014095264,1684,-22.6,99,P-GPS,
0.0065419320876947,36.9003243003756,12500,2018-04-12 09:05:04,1852.2415875717377,48.300001545600004,0.35999970196000003,0.29031000928992007,1852.2415875717377,48.300001545600004,0.35999970196000003,0.440477014095264,1684,-22.5,99,P-GPS,
0.0065419976085460295,36.9003243836759,12600,2018-04-12 09:05:04,1852.7415875877375,48.8000015616,0.0,0.27867000891744004,1852.7415875877375,48.8000015616,0.35999970196000003,0.440477014095264,1684,-22.5,99,P-GPS,
0.00654205561819942,36.9003244431758,12700,2018-04-12 09:05:04,1853.2415876037378,49.30000157760001,0.0,0.269767008632544,1853.2415876037378,49.30000157760001,0.35999970196000003,0.440477014095264,1684,-22.5,99,P-GPS,
0.00654211762649704,36.9003244680377,12800,2018-04-12 09:05:04,1853.8415876229376,49.900001596799996,0.0,0.26409300845097605,1853.8415876229376,49.900001596799996,0.35999970196000003,0.440477014095264,1684,-22.5,99,P-GPS,
0.00654218431127872,36.9003244846481,12900,2018-04-12 09:05:04,1854.3415876389374,50.40000161280001,0.0,0.259101008291232,1854.3415876389374,50.40000161280001,0.35999970196000003,0.440477014095264,1684,-22.5,99,P-GPS,
0.0065422349106977,36.9003244810593,13000,2018-04-12 09:05:04,1854.8415876549377,50.9000016288,0.0,0.25703200822502403,1854.8415876549377,50.9000016288,0.35999970196000003,0.440477014095264,1684,-22.5,99,P-GPS,
0.006542287949118679,36.9003244986702,13100,2018-04-12 09:05:04,1855.3415876709375,51.4000016448,0.0,0.25280500808976003,1855.3415876709375,51.4000016448,0.35999970196000003,0.440477014095264,1684,-22.5,99,P-GPS,
0.0065423315507067,36.9003244977262,13200,2018-04-12 09:05:04,1855.8415876869376,51.90000166080001,0.0,0.250971008031072,1855.8415876869376,51.90000166080001,0.35999970196000003,0.440477014095264,1684,-22.5,99,P-GPS,
0.00654237262087852,36.9003245056562,13300,2018-04-12 09:05:05,1856.4415877061376,52.500001680000004,0.0,0.24840800794905601,1856.4415877061376,52.500001680000004,0.35999970196000003,0.440477014095264,1684,-22.5,99,P-GPS,
0.00654238145274454,36.9003244976159,13400,2018-04-12 09:05:05,1856.9415877221377,53.000001696000005,0.0,0.24887100796387196,1856.9415877221377,53.000001696000005,0.35999970196000003,0.440477014095264,1684,-22.5,99,P-GPS,
0.00654239406341485,36.9003245057689,13500,2018-04-12 09:05:05,1857.4415877381375,53.500001712,0.0,0.24751100792035202,1857.4415877381375,53.500001712,0.35999970196000003,0.440477014095264,1684,-22.5,99,P-GPS,
0.006542410723618271,36.9003245511372,13700,2018-04-12 09:05:05,1858.4415877701376,54.500001744,0.0,0.24213800774841598,1858.4415877701376,54.500001744,0.35999970196000003,0.440477014095264,1684,-22.5,99,P-GPS,
0.00654241220672364,36.900324599030796,13800,2018-04-12 09:05:05,1858.9415877861375,55.00000176,0.0,0.237131007588192,1858.9415877861375,55.00000176,0.35999970196000003,0.440477014095264,1684,-22.5,98,P-GPS,
0.00654241739901733,36.9003246699274,13900,2018-04-12 09:05:05,1859.4415878021377,55.500001776,0.0,0.22961800734777602,1859.4415878021377,55.500001776,0.35999970196000003,0.440477014095264,1684,-22.5,98,P-GPS,
0.00654240995906381,36.9003247296535,14000,2018-04-12 09:05:05,1859.9415878181376,56.000001792,0.0,0.22383000716256,1859.9415878181376,56.000001792,0.35999970196000003,0.440477014095264,1684,-22.5,98,P-GPS,
0.00654241067110095,36.90032477149621,14100,2018-04-12 09:05:05,1860.4415878341376,56.50000180800001,0.0,0.219537007025184,1860.4415878341376,56.50000180800001,0.35999970196000003,0.440477014095264,1684,-22.5,98,P-GPS,
0.00654243957353923,36.9003247627274,14200,2018-04-12 09:05:06,1860.9415878501377,57.000001824,0.0,0.2191500070128,1860.9415878501377,57.000001824,0.35999970196000003,0.440477014095264,1684,-22.5,98,P-GPS,
0.00654249568605537,36.9003247482075,14300,2018-04-12 09:05:06,1861.5415878693375,57.600001843200005,0.0,0.21828500698512,1861.5415878693375,57.600001843200005,0.35999970196000003,0.440477014095264,1684,-22.5,98,P-GPS,
0.00654253209358492,36.9003247146441,14400,2018-04-12 09:05:06,1862.0415878853375,58.100001859200006,0.0,0.22034300705097598,1862.0415878853375,58.100001859200006,0.35999970196000003,0.440477014095264,1684,-22.5,98,P-GPS,
0.00654255649500399,36.9003247070345,14500,2018-04-12 09:05:06,1862.5415879013376,58.60000187520001,0.0,0.22022600704723203,1862.5415879013376,58.60000187520001,0.35999970196000003,0.440477014095264,1684,-22.5,98,P-GPS,
0.00654256079409614,36.9003246729237,14600,2018-04-12 09:05:06,1863.0415879173377,59.1000018912,0.0,0.22365400715692801,1863.0415879173377,59.1000018912,0.35999970196000003,0.440477014095264,1684,-22.5,98,P-GPS,
0.0065425717482318,36.9003246311345,14800,2018-04-12 09:05:06,1864.0415879493378,60.100001923200004,0.0,0.22767300728553605,1864.0415879493378,60.100001923200004,0.35999970196000003,0.440477014095264,1684,-22.5,98,P-GPS,
0.00654259019728095,36.9003246277681,14900,2018-04-12 09:05:06,1864.5415879653376,60.600001939200006,0.0,0.227397007276704,1864.5415879653376,60.600001939200006,0.35999970196000003,0.440477014095264,1684,-22.5,98,P-GPS,
0.00654259265175316,36.900324604260504,15000,2018-04-12 09:05:06,1865.0415879813374,61.10000195520001,0.0,0.229807007353824,1865.0415879813374,61.10000195520001,0.35999970196000003,0.440477014095264,1684,-22.5,98,P-GPS,
0.00654255663423595,36.90032455028,15200,2018-04-12 09:05:07,1866.0415880133376,62.1000019872,0.0,0.23674200757574404,1866.0415880133376,62.1000019872,0.35999970196000003,0.440477014095264,1684,-22.5,98,P-GPS,
0.00654252980684243,36.900324532359704,15300,2018-04-12 09:05:07,1866.5415880293376,62.600002003200004,0.0,0.23956700766614403,1866.5415880293376,62.600002003200004,0.35999970196000003,0.440477014095264,1684,-22.5,98,P-GPS,
0.00654245590316852,36.900324465371106,15400,2018-04-12 09:05:07,1867.0415880453377,63.100002019200005,0.0,0.24929300797737602,1867.0415880453377,63.100002019200005,0.35999970196000003,0.440477014095264,1684,-22.5,98,P-GPS,
0.0065423363884067,36.9003243617544,15600,2018-04-12 09:05:07,1868.0415880773376,64.1000020512,0.0,0.264763008472416,1868.0415880773376,64.1000020512,0.35999970196000003,0.440477014095264,1684,-22.5,98,P-GPS,
0.00654233918607349,36.9003243742268,15700,2018-04-12 09:05:07,1868.5415880933374,64.60000206720001,0.0,0.26335800842745605,1868.5415880933374,64.60000206720001,0.35999970196000003,0.440477014095264,1684,-22.5,98,P-GPS,
0.00654231653360327,36.9003243669525,15800,2018-04-12 09:05:07,1869.0415881093377,65.1000020832,0.0,0.265046008481472,1869.0415881093377,65.1000020832,0.35999970196000003,0.440477014095264,1684,-22.5,98,P-GPS,
0.00654230365953214,36.90032437317421,15900,2018-04-12 09:05:07,1869.5415881253375,65.60000209920001,0.0,0.264947008478304,1869.5415881253375,65.60000209920001,0.35999970196000003,0.440477014095264,1684,-22.5,98,P-GPS,
0.0065422660864438,36.900324380711005,16000,2018-04-12 09:05:07,1870.0415881413376,66.10000211520001,0.0,0.26579800850553603,1870.0415881413376,66.10000211520001,0.35999970196000003,0.440477014095264,1684,-22.5,98,P-GPS,
0.00654220461064736,36.9003244238571,16200,2018-04-12 09:05:08,1871.0415881733377,67.10000214720002,0.0,0.26422200845510396,1871.0415881733377,67.10000214720002,0.35999970196000003,0.440477014095264,1684,-22.5,98,P-GPS,
0.006542187922353279,36.90032444707239,16300,2018-04-12 09:05:08,1871.5415881893375,67.60000216319999,0.0,0.262684008405888,1871.5415881893375,67.60000216319999,0.35999970196000003,0.440477014095264,1684,-22.5,98,P-GPS,
0.0065421372634960895,36.900324447794,16400,2018-04-12 09:05:08,1872.0415882053378,68.1000021792,0.0,0.265102008483264,1872.0415882053378,68.1000021792,0.35999970196000003,0.440477014095264,1684,-22.5,98,P-GPS,
0.0065420403503156106,36.9003244447268,16600,2018-04-12 09:05:08,1873.0415882373375,69.1000022112,0.0,0.270429008653728,1873.0415882373375,69.1000022112,0.35999970196000003,0.440477014095264,1684,-22.5,98,P-GPS,
0.0065419668329900395,36.9003244415515,16700,2018-04-12 09:05:08,1873.6415882565377,69.7000022304,0.0,0.27476500879248,1873.6415882565377,69.7000022304,0.35999970196000003,0.440477014095264,1684,-22.5,98,P-GPS,
0.00654185692930469,36.9003244160773,16800,2018-04-12 09:05:08,1874.1415882725375,70.2000022464,0.0,0.28351700907254396,1874.1415882725375,70.2000022464,0.35999970196000003,0.440477014095264,1684,-22.5,98,P-GPS,
0.006541725630715,36.900324396258895,17000,2018-04-12 09:05:08,1875.1415883045377,71.2000022784,0.0,0.29335500938736,1875.1415883045377,71.2000022784,0.35999970196000003,0.440477014095264,1684,-22.5,98,P-GPS,
0.0065417120214014,36.900324408211006,17100,2018-04-12 09:05:08,1875.5415883173378,71.6000022912,0.0,0.293116009379712,1875.5415883173378,71.6000022912,0.35999970196000003,0.440477014095264,1684,-22.5,98,P-GPS,
0.00654167964060675,36.900324403636205,17200,2018-04-12 09:05:09,1876.0415883333376,72.1000023072,0.0,0.29559500945904005,1876.0415883333376,72.1000023072,0.35999970196000003,0.440477014095264,1684,-22.5,98,P-GPS,
0.006541629578167171,36.9003243840661,17300,2018-04-12 09:05:09,1876.5415883493374,72.6000023232,0.0,0.300601009619232,1876.5415883493374,72.6000023232,0.35999970196000003,0.440477014095264,1684,-22.5,98,P-GPS,
0.00654151196502083,36.9003243343451,17400,2018-04-12 09:05:09,1877.0415883653377,73.1000023392,0.0,0.3128250100104,1877.0415883653377,73.1000023392,0.35999970196000003,0.440477014095264,1684,-22.5,98,P-GPS,
0.0065414348260358,36.9003243335617,17500,2018-04-12 09:05:09,1877.5415883813375,73.6000023552,0.0,0.31815001018079997,1877.5415883813375,73.6000023552,0.35999970196000003,0.440477014095264,1684,-22.5,98,P-GPS,
0.00654131173439674,36.900324302619296,17600,2018-04-12 09:05:09,1878.0415883973376,74.1000023712,0.0,0.32946001054272,1878.0415883973376,74.1000023712,0.35999970196000003,0.440477014095264,1684,-22.5,98,P-GPS,
0.00654121988974821,36.9003242870864,17700,2018-04-12 09:05:09,1878.5415884133376,74.6000023872,0.0,0.337402010796864,1878.5415884133376,74.6000023872,0.35999970196000003,0.440477014095264,1684,-22.5,98,P-GPS,
0.0065411067303962,36.9003243017398,17800,2018-04-12 09:05:09,1879.0415884293377,75.1000024032,0.0,0.34459501102704,1879.0415884293377,75.1000024032,0.35999970196000003,0.440477014095264,1684,-22.5,98,P-GPS,
0.00654105241527512,36.9003243778547,17900,2018-04-12 09:05:09,1879.5415884453375,75.60000241920001,0.35999970196000003,0.3426370109643839,1879.5415884453375,75.60000241920001,0.35999970196000003,0.440477014095264,1684,-22.5,98,P-GPS,
0.00654096461201747,36.900324419911996,18000,2018-04-12 09:05:09,1880.0415884613378,76.10000243520001,0.35999970196000003,0.34629401108140806,1880.0415884613378,76.10000243520001,0.35999970196000003,0.440477014095264,1684,-22.5,98,P-GPS,
0.00654089549108358,36.900324445867795,18100,2018-04-12 09:05:09,1880.5415884773377,76.6000024512,0.35999970196000003,0.349921011197472,1880.5415884773377,76.6000024512,0.35999970196000003,0.440477014095264,1684,-22.5,98,P-GPS,
0.00654078123293898,36.900324441338704,18200,2018-04-12 09:05:10,1881.0415884933375,77.1000024672,0.0,0.35970801151065607,1881.0415884933375,77.1000024672,0.35999970196000003,0.440477014095264,1684,-22.5,98,P-GPS,
0.00654069960392675,36.9003244525141,18300,2018-04-12 09:05:10,1881.5415885093375,77.6000024832,0.0,0.365774011704768,1881.5415885093375,77.6000024832,0.35999970196000003,0.440477014095264,1684,-22.5,98,P-GPS,
0.00654057882386394,36.900324433357895,18400,2018-04-12 09:05:10,1882.0415885253376,78.1000024992,0.0,0.377473012079136,1882.0415885253376,78.1000024992,0.35999970196000003,0.440477014095264,1684,-22.5,98,P-GPS,
0.00654049371405267,36.90032443567429,18500,2018-04-12 09:05:10,1882.5415885413377,78.6000025152,0.0,0.3847000123104,1882.5415885413377,78.6000025152,0.35999970196000003,0.440477014095264,1684,-22.5,98,P-GPS,
0.00654037066475315,36.9003244090755,18600,2018-04-12 09:05:10,1883.0415885573375,79.10000253119999,0.0,0.39732901271452803,1883.0415885573375,79.10000253119999,0.35999970196000003,0.440477014095264,1684,-22.5,98,P-GPS,
0.0065402821628930295,36.900324398650795,18700,2018-04-12 09:05:10,1883.5415885733378,79.60000254720002,0.0,0.40588801298841604,1883.5415885733378,79.60000254720002,0.35999970196000003,0.440477014095264,1684,-22.5,98,P-GPS,
0.00654016607030627,36.9003243577368,18800,2018-04-12 09:05:10,1884.0415885893376,80.1000025632,0.0,0.4189840134074881,1884.0415885893376,80.1000025632,0.35999970196000003,0.440477014095264,1684,-22.5,98,P-GPS,
0.00654010438403344,36.9003243454301,18900,2018-04-12 09:05:10,1884.5415886053377,80.6000025792,0.0,0.42534501361104,1884.5415886053377,80.6000025792,0.35999970196000003,0.440477014095264,1684,-22.5,98,P-GPS,
0.00654000896535744,36.9003243190823,19000,2018-04-12 09:05:10,1885.0415886213377,81.10000259520002,0.0,0.43569001394208,1885.0415886213377,81.10000259520002,0.35999970196000003,0.440477014095264,1684,-22.5,98,P-GPS,
0.0065399421779838,36.9003243220469,19100,2018-04-12 09:05:10,1885.5415886373376,81.6000026112,0.0,0.44159501413104,1885.5415886373376,81.6000026112,0.35999970196000003,0.44159501413104,1684,-22.5,98,P-GPS,
0.0065398594155745395,36.9003243095884,19200,2018-04-12 09:05:11,1886.1415886565376,82.20000263040001,0.0,0.44997701439926396,1886.1415886565376,82.20000263040001,0.35999970196000003,0.44997701439926396,1684,-22.5,98,P-GPS,
0.00653980501333172,36.90032431085329,19300,2018-04-12 09:05:11,1886.6415886725376,82.70000264640001,0.0,0.45492401455756803,1886.6415886725376,82.70000264640001,0.35999970196000003,0.45492401455756803,1684,-22.5,98,P-GPS,
0.006539711721403579,36.90032429746479,19400,2018-04-12 09:05:11,1887.1415886885377,83.20000266240001,0.0,0.4644090148610881,1887.1415886885377,83.20000266240001,0.35999970196000003,0.4644090148610881,1649,-22.5,98,P-GPS,
0.0065396458581719,36.9003243033149,19500,2018-04-12 09:05:11,1887.6415887045375,83.70000267840001,0.0,0.47021401504684807,1887.6415887045375,83.70000267840001,0.35999970196000003,0.47021401504684807,1414,-22.5,98,P-GPS,
0.00653956836540742,36.900324276338104,19600,2018-04-12 09:05:11,1888.1415887205378,84.2000026944,0.0,0.479098015331136,1888.1415887205378,84.2000026944,0.35999970196000003,0.479098015331136,1024,-22.5,98,P-GPS,
0.00653952490386559,36.900324247441,19700,2018-04-12 09:05:11,1888.6415887365376,84.70000271040001,0.0,0.48490101551683196,1888.6415887365376,84.70000271040001,0.35999970196000003,0.48490101551683196,1024,-22.5,98,P-GPS,
0.00653945915706765,36.9003241750675,19800,2018-04-12 09:05:11,1889.0415887493377,85.1000027232,0.0,0.49538901585244804,1889.0415887493377,85.1000027232,0.35999970196000003,0.49538901585244804,1024,-22.5,98,P-GPS,
0.0065394237384107205,36.9003241214258,19900,2018-04-12 09:05:11,1889.3415887589376,85.4000027328,0.0,0.50193001606176,1889.3415887589376,85.4000027328,0.35999970196000003,0.50193001606176,1024,-22.5,98,P-GPS,
0.006539361478925611,36.900324030564605,20000,2018-04-12 09:05:11,1889.6415887685378,85.7000027424,0.0,0.513257016424224,1889.6415887685378,85.7000027424,0.35999970196000003,0.513257016424224,1024,-22.5,98,P-GPS,
0.00653931036369699,36.9003239546205,20100,2018-04-12 09:05:11,1889.7415887717377,85.80000274560001,0.0,0.522671016725472,1889.7415887717377,85.80000274560001,0.35999970196000003,0.522671016725472,1024,-22.5,98,P-GPS,
0.0065392314566289,36.9003238501111,20200,2018-04-12 09:05:12,1889.8415887749377,85.9000027488,0.0,0.536457017166624,1889.8415887749377,85.9000027488,0.35999970196000003,0.536457017166624,1024,-22.5,98,P-GPS,
0.006539179624884921,36.9003237815759,20300,2018-04-12 09:05:12,1889.9415887781374,86.000002752,0.0,0.545528017456896,1889.9415887781374,86.000002752,0.35999970196000003,0.545528017456896,1024,-22.5,98,P-GPS,
0.0065391104209003795,36.9003237051179,20400,2018-04-12 09:05:12,1889.9415887781374,86.000002752,0.0,0.556702017814464,1889.9415887781374,86.000002752,0.35999970196000003,0.556702017814464,1024,-22.5,98,P-GPS,
0.00653906480085603,36.900323674617894,20500,2018-04-12 09:05:12,1889.9415887781374,86.000002752,0.0,0.5628040180097279,1889.9415887781374,86.000002752,0.35999970196000003,0.5628040180097279,1024,-22.5,98,P-GPS,
0.00653900281250685,36.9003236709209,20600,2018-04-12 09:05:12,1889.9415887781374,86.000002752,0.0,0.568699018198368,1889.9415887781374,86.000002752,0.35999970196000003,0.568699018198368,1024,-22.5,98,P-GPS,
0.00653890376972873,36.9003237368079,20800,2018-04-12 09:05:12,1889.9415887781374,86.000002752,0.0,0.573733018359456,1889.9415887781374,86.000002752,0.35999970196000003,0.573733018359456,1024,-22.5,98,P-GPS,
0.00653886679916467,36.9003237730038,20900,2018-04-12 09:05:12,1889.9415887781374,86.000002752,0.0,0.5749780183992961,1889.9415887781374,86.000002752,0.35999970196000003,0.5749780183992961,962,-22.5,98,P-GPS,
0.00653881775531682,36.900323789759604,21000,2018-04-12 09:05:12,1889.9415887781374,86.000002752,0.0,0.5785690185142079,1889.9415887781374,86.000002752,0.35999970196000003,0.5785690185142079,796,-22.5,98,P-GPS,
0.00653879787934361,36.900323829528396,21100,2018-04-12 09:05:12,1889.9415887781374,86.000002752,0.0,0.5780880184988161,1889.9415887781374,86.000002752,0.35999970196000003,0.5785690185142079,633,-22.5,98,P-GPS,
0.0065387508173121,36.900323853852,21200,2018-04-12 09:05:13,1889.9415887781374,86.000002752,0.0,0.581125018596,1889.9415887781374,86.000002752,0.35999970196000003,0.581125018596,571,-22.5,98,P-GPS,
0.00653871971321754,36.9003238988994,21300,2018-04-12 09:05:13,1889.9415887781374,86.000002752,0.0,0.581500018608,1889.9415887781374,86.000002752,0.35999970196000003,0.581500018608,1062,-22.5,98,P-GPS,
0.0065386394236004895,36.900323988530296,21500,2018-04-12 09:05:13,1889.7415887717377,85.80000274560001,0.0,0.5842140186948479,1889.9415887781374,86.000002752,0.35999970196000003,0.5842140186948479,1046,-22.5,98,P-GPS,
0.00653856981250496,36.900323991189794,21600,2018-04-12 09:05:13,1889.6415887685378,85.7000027424,0.0,0.59082001890624,1889.9415887781374,86.000002752,0.35999970196000003,0.59082001890624,1024,-22.5,98,P-GPS,
0.006538503077241521,36.9003239927802,21700,2018-04-12 09:05:13,1889.5415887653376,85.60000273920001,0.0,0.597229019111328,1889.9415887781374,86.000002752,0.35999970196000003,0.597229019111328,1024,-22.5,98,P-GPS,
0.00653832360072906,36.9003239871637,21900,2018-04-12 09:05:13,1889.4415887621376,85.500002736,0.0,0.6150950196830399,1889.9415887781374,86.000002752,0.35999970196000003,0.6150950196830399,1024,-22.5,98,P-GPS,
0.00653822713089247,36.9003240427592,22000,2018-04-12 09:05:13,1889.4415887621376,85.500002736,0.35999970196000003,0.62177001989664,1889.9415887781374,86.000002752,0.35999970196000003,0.62177001989664,1024,-22.5,98,P-GPS,
0.00653816955074118,36.900324159800704,22100,2018-04-12 09:05:13,1889.4415887621376,85.500002736,0.35999970196000003,0.6217510198960321,1889.9415887781374,86.000002752,0.35999970196000003,0.62177001989664,1024,-22.5,98,P-GPS,
0.00653807542504971,36.900324253304504,22200,2018-04-12 09:05:14,1889.4415887621376,85.500002736,0.35999970196000003,0.6268510200592321,1889.9415887781374,86.000002752,0.35999970196000003,0.6268510200592321,1024,-22.5,98,P-GPS,
0.00653801383566931,36.9003243679112,22300,2018-04-12 09:05:14,1889.4415887621376,85.500002736,0.35999970196000003,0.628006020096192,1889.9415887781374,86.000002752,0.35999970196000003,0.628006020096192,1024,-22.5,98,P-GPS,
0.00653783306291543,36.9003245636385,22500,2018-04-12 09:05:14,1889.3415887589376,85.4000027328,0.35999970196000003,0.6386080204354561,1889.9415887781374,86.000002752,0.35999970196000003,0.6386080204354561,1024,-22.5,98,P-GPS,
0.0065377206986512,36.9003246357655,22600,2018-04-12 09:05:14,1889.3415887589376,85.4000027328,0.35999970196000003,0.6476100207235201,1889.9415887781374,86.000002752,0.35999970196000003,0.6476100207235201,1024,-22.5,98,P-GPS,
0.00653765569523795,36.900324723091394,22700,2018-04-12 09:05:14,1889.3415887589376,85.4000027328,0.35999970196000003,0.6512930208413762,1889.9415887781374,86.000002752,0.35999970196000003,0.6512930208413762,1024,-22.5,98,P-GPS,
0.00653753948703167,36.9003247524631,22800,2018-04-12 09:05:14,1889.3415887589376,85.4000027328,0.35999970196000003,0.662558021201856,1889.9415887781374,86.000002752,0.35999970196000003,0.662558021201856,1024,-22.5,98,P-GPS,
0.006537427559190429,36.9003247988851,23000,2018-04-12 09:05:14,1889.3415887589376,85.4000027328,0.7919993443119999,0.672884021532288,1889.9415887781374,86.000002752,0.7919993443119999,0.672884021532288,1024,-22.5,98,P-GPS,
0.00653751970876511,36.900324851676004,23100,2018-04-12 09:05:14,1889.3415887589376,85.4000027328,1.151999046272,0.6613700211638401,1889.9415887781374,86.000002752,1.151999046272,0.672884021532288,1024,-22.5,98,P-GPS,
0.00653774955467883,36.9003249054347,23200,2018-04-12 09:05:15,1889.3415887589376,85.4000027328,1.8359984799959999,0.635176020325632,1889.9415887781374,86.000002752,1.8359984799959999,0.672884021532288,1024,-22.5,98,P-GPS,
0.00653822301744293,36.9003250286183,23300,2018-04-12 09:05:15,1889.3415887589376,85.4000027328,2.627997824308,0.5808250185864,1889.9415887781374,86.000002752,2.627997824308,0.672884021532288,1024,-22.5,98,P-GPS,
0.00653891309664172,36.9003251890621,23400,2018-04-12 09:05:15,1889.3415887589376,85.4000027328,3.743996900384,0.5022750160728,1889.9415887781374,86.000002752,3.743996900384,0.672884021532288,1024,-22.5,98,P-GPS,
0.0065399198805143706,36.9003254593225,23500,2018-04-12 09:05:15,1889.3415887589376,85.4000027328,5.255995648616,0.38653801236921603,1889.9415887781374,86.000002752,5.255995648616,0.672884021532288,1024,-22.5,98,P-GPS,
0.00654124242089935,36.90032579295389,23600,2018-04-12 09:05:15,1889.3415887589376,85.4000027328,6.2999947843,0.235651007540832,1889.9415887781374,86.000002752,6.2999947843,0.672884021532288,1024,-22.5,98,P-GPS,
0.00654296578486128,36.9003262285243,23700,2018-04-12 09:05:15,1889.3415887589376,85.4000027328,8.135993264296,0.0473198015142336,1889.9415887781374,86.000002752,8.135993264296,0.672884021532288,1024,-22.5,98,P-GPS,
0.00654507447103821,36.9003267519695,23800,2018-04-12 09:05:15,1889.3415887589376,85.4000027328,9.611992042331998,0.20809500665904002,1889.9415887781374,86.000002752,9.611992042331998,0.672884021532288,1024,-22.5,98,P-GPS,
0.00654753912000975,36.9003273617747,23900,2018-04-12 09:05:15,1889.3415887589376,85.4000027328,10.727991118408001,0.489126015652032,1889.9415887781374,86.000002752,10.727991118408001,0.672884021532288,1024,-22.5,98,P-GPS,
0.00655030461953151,36.9003280670656,24000,2018-04-12 09:05:15,1889.3415887589376,85.4000027328,12.131989956052,0.806038025793216,1889.9415887781374,86.000002752,12.131989956052,0.806038025793216,1024,-22.5,98,P-GPS,
0.00655335631686438,36.9003288368423,24100,2018-04-12 09:05:15,1889.4415887621376,85.500002736,13.283989002324,1.15584003698688,1889.9415887781374,86.000002752,13.283989002324,1.15584003698688,1024,-22.5,98,P-GPS,
0.00655668995830911,36.90032969889079,24200,2018-04-12 09:05:16,1889.4415887621376,85.500002736,14.399988078400002,1.5385900492348803,1889.9415887781374,86.000002752,14.399988078400002,1.5385900492348803,1024,-22.5,98,P-GPS,
0.0065603167750403705,36.900330597461,24300,2018-04-12 09:05:16,1889.4415887621376,85.500002736,15.479987184279999,1.95407006253024,1889.9415887781374,86.000002752,15.479987184279999,1.95407006253024,1024,-22.5,98,P-GPS,
0.0065641524315720205,36.9003315801249,24400,2018-04-12 09:05:16,1889.5415887653376,85.60000273920001,16.595986260356003,2.39433007661856,1889.9415887781374,86.000002752,16.595986260356003,2.39433007661856,1024,-22.5,98,P-GPS,
0.00656823784093103,36.900332594430104,24500,2018-04-12 09:05:16,1889.5415887653376,85.60000273920001,16.595986260356003,2.8624300915977603,1889.9415887781374,86.000002752,16.595986260356003,2.8624300915977603,1024,-22.5,98,P-GPS,
0.0065725283202425705,36.9003337170008,24600,2018-04-12 09:05:16,1889.5415887653376,85.60000273920001,18.431984740352,3.3555301073769597,1889.9415887781374,86.000002752,18.431984740352,3.3555301073769597,1024,-22.5,98,P-GPS,
0.0065771016798177,36.9003348793458,24700,2018-04-12 09:05:16,1889.6415887685378,85.7000027424,19.547983816427998,3.88026012416832,1889.9415887781374,86.000002752,19.547983816427998,3.88026012416832,1024,-22.5,98,P-GPS,
0.0065819002483122795,36.90033615147521,24800,2018-04-12 09:05:16,1889.6415887685378,85.7000027424,20.627982922308,4.432240141831681,1889.9415887781374,86.000002752,20.627982922308,4.432240141831681,1024,-22.5,98,P-GPS,
0.0065869961934789,36.9003374531886,24900,2018-04-12 09:05:16,1889.6415887685378,85.7000027424,21.743981998384,5.01712016054784,1889.9415887781374,86.000002752,21.743981998384,5.01712016054784,1024,-22.5,98,P-GPS,
0.006592305829580579,36.9003388754895,25000,2018-04-12 09:05:16,1889.6415887685378,85.7000027424,22.535981342696,5.628310180105919,1889.9415887781374,86.000002752,22.535981342696,5.628310180105919,1024,-22.5,98,P-GPS,
0.0065978918679956205,36.9003403242239,25100,2018-04-12 09:05:16,1889.6415887685378,85.7000027424,23.57998047838,6.2700502006416,1889.9415887781374,86.000002752,23.57998047838,6.2700502006416,1024,-22.5,98,P-GPS,
0.0066035962682341395,36.900341816569,25200,2018-04-12 09:05:17,1889.6415887685378,85.7000027424,24.731979524652004,6.92573022162336,1889.9415887781374,86.000002752,24.731979524652004,6.92573022162336,1024,-22.5,98,P-GPS,
0.00660949388660978,36.900343300913796,25300,2018-04-12 09:05:17,1889.6415887685378,85.7000027424,25.415978958376,7.6020402432652805,1889.9415887781374,86.000002752,25.415978958376,7.6020402432652805,1024,-22.5,98,P-GPS,
0.00661569002482515,36.9003449167738,25400,2018-04-12 09:05:17,1889.6415887685378,85.7000027424,26.567978004648,8.31411026605152,1889.9415887781374,86.000002752,26.567978004648,8.31411026605152,1024,-22.5,98,P-GPS,
0.006622285496591229,36.900346582396104,25500,2018-04-12 09:05:17,1889.6415887685378,85.7000027424,27.323977378764003,9.0706002902592,1889.9415887781374,86.000002752,27.323977378764003,9.0706002902592,1024,-22.5,98,P-GPS,
0.0066291106831812795,36.900348315084294,25600,2018-04-12 09:05:17,1889.6415887685378,85.7000027424,28.403976484644,9.853670315317443,1889.9415887781374,86.000002752,28.403976484644,9.853670315317443,1024,-22.5,98,P-GPS,
0.00663615228346475,36.9003500375892,25700,2018-04-12 09:05:17,1889.6415887685378,85.7000027424,29.159975858760006,10.6598003411136,1889.9415887781374,86.000002752,29.159975858760006,10.6598003411136,1024,-22.5,98,P-GPS,
0.00664342049150105,36.9003518350491,25800,2018-04-12 09:05:17,1889.6415887685378,85.7000027424,30.23997496464,11.4924003677568,1889.9415887781374,86.000002752,30.23997496464,11.4924003677568,1024,-22.5,98,P-GPS,
0.00665090983571836,36.900353649623,25900,2018-04-12 09:05:17,1889.6415887685378,85.7000027424,30.995974338755996,12.3493003951776,1889.9415887781374,86.000002752,30.995974338755996,12.3493003951776,1024,-22.5,98,P-GPS,
0.006658503830260679,36.9003555111736,26000,2018-04-12 09:05:17,1889.6415887685378,85.7000027424,31.715973742676,13.2188004230016,1889.9415887781374,86.000002752,31.715973742676,13.2188004230016,1024,-22.5,98,P-GPS,
0.0066662380924551205,36.9003573804709,26100,2018-04-12 09:05:17,1889.6415887685378,85.7000027424,32.47197311679201,14.103700451318401,1889.9415887781374,86.000002752,32.47197311679201,14.103700451318401,1024,-22.5,98,P-GPS,
0.00667420165259188,36.9003593143149,26200,2018-04-12 09:05:18,1889.6415887685378,85.7000027424,33.551972222672,15.015000480480001,1889.9415887781374,86.000002752,33.551972222672,15.015000480480001,1024,-22.5,98,P-GPS,
0.00668245828053787,36.900361270028604,26300,2018-04-12 09:05:18,1889.6415887685378,85.7000027424,34.30797159678799,15.958500510672001,1889.9415887781374,86.000002752,34.30797159678799,15.958500510672001,1024,-22.5,98,P-GPS,
0.00669090221862617,36.900363279193705,26400,2018-04-12 09:05:18,1889.7415887717377,85.80000274560001,35.027971000708,16.9237005415584,1889.9415887781374,86.000002752,35.027971000708,16.9237005415584,1024,-22.5,98,P-GPS,
0.00669953835218875,36.9003652961098,26500,2018-04-12 09:05:18,1889.7415887717377,85.80000274560001,35.711970434432004,17.9098005731136,1889.9415887781374,86.000002752,35.711970434432004,17.9098005731136,1024,-22.5,98,P-GPS,
0.00670833325252726,36.900367353000895,26600,2018-04-12 09:05:18,1889.7415887717377,85.80000274560001,36.50396977874401,18.9142006052544,1889.9415887781374,86.000002752,36.50396977874401,18.9142006052544,1024,-22.5,98,P-GPS,
0.006717307920055479,36.900369430811,26700,2018-04-12 09:05:18,1889.7415887717377,85.80000274560001,36.50396977874401,19.938500638032004,1889.9415887781374,86.000002752,36.50396977874401,19.938500638032004,1024,-22.5,98,P-GPS,
0.00672651501213848,36.900371571330794,26800,2018-04-12 09:05:18,1889.7415887717377,85.80000274560001,37.907968616388004,20.989600671667198,1889.9415887781374,86.000002752,37.907968616388004,20.989600671667198,1024,-22.5,98,P-GPS,
0.00673593183478074,36.9003737369191,26900,2018-04-12 09:05:18,1889.7415887717377,85.80000274560001,38.6999679607,22.0641007060512,1889.9415887781374,86.000002752,38.6999679607,22.0641007060512,1024,-22.5,98,P-GPS,
0.00674538255511323,36.9003759078389,27000,2018-04-12 09:05:18,1889.7415887717377,85.80000274560001,39.05996766266,23.1423007405536,1889.9415887781374,86.000002752,39.05996766266,23.1423007405536,1024,-22.5,98,P-GPS,
0.00675491989563881,36.9003780731145,27100,2018-04-12 09:05:19,1889.7415887717377,85.80000274560001,39.815967036776,24.229800775353603,1889.9415887781374,86.000002752,39.815967036776,24.229800775353603,1024,-22.5,98,P-GPS,
0.00677421816856452,36.9003824410674,27300,2018-04-12 09:05:19,1889.7415887717377,85.80000274560001,40.89596614265599,26.4299008457568,1889.9415887781374,86.000002752,40.89596614265599,26.4299008457568,1024,-22.5,98,P-GPS,
0.00678400120872035,36.9003846515682,27400,2018-04-12 09:05:19,1889.7415887717377,85.80000274560001,41.651965516772,27.545100881443197,1889.9415887781374,86.000002752,41.651965516772,27.545100881443197,1024,-22.5,98,P-GPS,
0.0067939848731766,36.90038690087079,27500,2018-04-12 09:05:19,1889.7415887717377,85.80000274560001,42.011965218732,28.683100917859203,1889.9415887781374,86.000002752,42.011965218732,28.683100917859203,1024,-22.5,98,P-GPS,
0.00680413518607772,36.900389193189,27600,2018-04-12 09:05:19,1889.7415887717377,85.80000274560001,42.371964920692,29.8402009548864,1889.9415887781374,86.000002752,42.371964920692,29.8402009548864,1024,-22.5,98,P-GPS,
0.00681451296003633,36.9003915451165,27700,2018-04-12 09:05:19,1889.7415887717377,85.80000274560001,42.803964563044005,31.023400992748805,1889.9415887781374,86.000002752,42.803964563044005,31.023400992748805,1024,-22.5,98,P-GPS,
0.00682495295358317,36.9003939108672,27800,2018-04-12 09:05:19,1889.8415887749377,85.9000027488,43.163964265004005,32.2137010308384,1889.9415887781374,86.000002752,43.163964265004005,32.2137010308384,1024,-22.5,98,P-GPS,
0.0068354450052277105,36.9003963028511,27900,2018-04-12 09:05:19,1889.8415887749377,85.9000027488,43.163964265004005,33.4104010691328,1889.9415887781374,86.000002752,43.163964265004005,33.4104010691328,1024,-22.5,98,P-GPS,
0.0068459506055263,36.9003987112619,28000,2018-04-12 09:05:19,1889.8415887749377,85.9000027488,43.55996393716,34.608901107484805,1889.9415887781374,86.000002752,43.55996393716,34.608901107484805,1024,-22.5,98,P-GPS,
0.00685650860263893,36.90040115109179,28100,2018-04-12 09:05:19,1889.8415887749377,85.9000027488,43.55996393716,35.814001146048,1889.9415887781374,86.000002752,43.55996393716,35.814001146048,1024,-22.5,98,P-GPS,
0.006867085515757029,36.9004035571259,28200,2018-04-12 09:05:20,1889.7415887717377,85.80000274560001,43.91996363912,37.0202011846464,1889.9415887781374,86.000002752,43.91996363912,37.0202011846464,1024,-22.5,98,P-GPS,
0.00687773845766846,36.900405974910605,28300,2018-04-12 09:05:20,1889.7415887717377,85.80000274560001,44.27996334108,38.23490122351681,1889.9415887781374,86.000002752,44.27996334108,38.23490122351681,1024,-22.5,98,P-GPS,
0.00688839241572894,36.90040839839929,28400,2018-04-12 09:05:20,1889.7415887717377,85.80000274560001,44.27996334108,39.44990126239681,1889.9415887781374,86.000002752,44.27996334108,39.44990126239681,1024,-22.5,98,P-GPS,
0.00689912670167491,36.900410853020205,28500,2018-04-12 09:05:20,1889.7415887717377,85.80000274560001,44.27996334108,40.6744013015808,1889.9415887781374,86.000002752,44.27996334108,40.6744013015808,1024,-22.5,98,P-GPS,
0.0069098802423426895,36.9004132245391,28600,2018-04-12 09:05:20,1889.7415887717377,85.80000274560001,44.63996304304,41.89890134076481,1889.9415887781374,86.000002752,44.63996304304,41.89890134076481,1024,-22.5,98,P-GPS,
0.0069207328966259,36.9004156030296,28700,2018-04-12 09:05:20,1889.7415887717377,85.80000274560001,44.999962745,43.1342013802944,1889.9415887781374,86.000002752,44.999962745,43.1342013802944,1024,-22.5,98,P-GPS,
0.00693157908924333,36.9004179615904,28800,2018-04-12 09:05:20,1889.7415887717377,85.80000274560001,44.999962745,44.3684014197888,1889.9415887781374,86.000002752,44.999962745,44.3684014197888,1024,-22.5,98,P-GPS,
0.00694248896053482,36.9004203839571,28900,2018-04-12 09:05:20,1889.7415887717377,85.80000274560001,45.32396247676401,45.61110145955521,1889.9415887781374,86.000002752,45.32396247676401,45.61110145955521,1024,-22.5,98,P-GPS,
0.006953416471131679,36.9004227751488,29000,2018-04-12 09:05:20,1889.6415887685378,85.7000027424,45.32396247676401,46.85490149935681,1889.9415887781374,86.000002752,45.32396247676401,46.85490149935681,1024,-22.5,98,P-GPS,
0.00697537972522721,36.900427552976,29200,2018-04-12 09:05:21,1889.6415887685378,85.7000027424,45.755962119116,49.3542015793344,1889.9415887781374,86.000002752,45.755962119116,49.3542015793344,1024,-22.5,98,P-GPS,
0.0069863411074592,36.9004299054816,29300,2018-04-12 09:05:21,1889.6415887685378,85.7000027424,46.043961880683995,50.600701619222406,1889.9415887781374,86.000002752,46.043961880683995,50.600701619222406,1024,-22.5,98,P-GPS,
0.00699753667296551,36.900432232430504,29400,2018-04-12 09:05:21,1889.5415887653376,85.60000273920001,46.043961880683995,51.872001659904,1889.9415887781374,86.000002752,46.043961880683995,51.872001659904,1024,-22.5,98,P-GPS,
