latitude,longitude,time_millisecond,datetime_utc,altitude_m,ascent_m,speed_kph,distance_m,max_altitude_m,max_ascent_m,max_speed_kph,max_distance_m,rc_throttle,gimbal_pitch_degrees,battery_percent,flycState,message
0.357672391222395,36.8938414477832,100,2017-11-07 07:05:07,1771.1018632752446,0.0,0.0,0.0,1771.1018632752446,0.0,0.0,0.0,1024,0.0,100,Motors_Started,
0.357672430795988,36.893841368313296,200,2017-11-07 07:05:07,1771.1018632752446,0.0,0.0,0.009872500315920001,1771.1018632752446,0.0,0.0,0.009872500315920001,1024,0.0,100,Motors_Started,
0.357672469361206,36.893841297269894,300,2017-11-07 07:05:07,1771.1018632752446,0.0,0.0,0.0188589006034848,1771.1018632752446,0.0,0.0,0.0188589006034848,1024,0.0,100,Motors_Started,
0.357672489208605,36.893841217537606,400,2017-11-07 07:05:08,1771.1018632752446,0.0,0.0,0.027826500890448004,1771.1018632752446,0.0,0.0,0.027826500890448004,1024,0.0,100,Motors_Started,
0.357672508379309,36.8938411492554,500,2017-11-07 07:05:08,1771.1018632752446,0.0,0.0,0.0356625011412,1771.1018632752446,0.0,0.0,0.0356625011412,1024,0.0,100,Motors_Started,
0.35767254219774003,36.893841072093295,600,2017-11-07 07:05:08,1771.1018632752446,0.0,0.0,0.045025501440816004,1771.1018632752446,0.0,0.0,0.045025501440816004,1024,0.0,100,Motors_Started,
0.357672579161485,36.8938410072091,700,2017-11-07 07:05:08,1771.1018632752446,0.0,0.0,0.053265201704486405,1771.1018632752446,0.0,0.0,0.053265201704486405,1024,0.0,100,Motors_Started,
0.35767259798914797,36.8938409716471,800,2017-11-07 07:05:08,1771.1018632752446,0.0,0.0,0.0577254018472128,1771.1018632752446,0.0,0.0,0.0577254018472128,1024,0.0,100,Motors_Started,
0.357672616555826,36.8938409398723,900,2017-11-07 07:05:08,1771.1018632752446,0.0,0.0,0.061790801977305604,1771.1018632752446,0.0,0.0,0.061790801977305604,364,0.0,100,Motors_Started,Setting new Return-To-Home altitude to 30m (98 ft). Setting new Maximum Flight Altitude to 100m (328 ft)
0.357672648567269,36.893840904178,1000,2017-11-07 07:05:08,1771.1018632752446,0.0,0.0,0.066883002140256,1771.1018632752446,0.0,0.0,0.066883002140256,604,0.0,100,Motors_Started,
0.35767267791640994,36.8938408640878,1100,2017-11-07 07:05:08,1771.1018632752446,0.0,0.0,0.072316502314128,1771.1018632752446,0.0,0.0,0.072316502314128,971,0.0,100,Motors_Started,
0.35767268870129,36.893840851943395,1200,2017-11-07 07:05:08,1771.1018632752446,0.0,0.0,0.07405900236988801,1771.1018632752446,0.0,0.0,0.07405900236988801,1024,0.0,100,Motors_Started,
0.3576727175673421,36.8938408430381,1300,2017-11-07 07:05:08,1771.1018632752446,0.0,0.0,0.0764176024453632,1771.1018632752446,0.0,0.0,0.0764176024453632,1024,0.0,100,Motors_Started,
0.35767272991944604,36.893840823017,1400,2017-11-07 07:05:09,1771.1018632752446,0.0,0.0,0.0790294025289408,1771.1018632752446,0.0,0.0,0.0790294025289408,1024,0.0,100,Motors_Started,
0.357672725155688,36.8938408013414,1500,2017-11-07 07:05:09,1771.1018632752446,0.0,0.0,0.08091210258918721,1771.1018632752446,0.0,0.0,0.08091210258918721,1024,0.0,100,Motors_Started,
0.35767272316954607,36.893840793581205,1600,2017-11-07 07:05:09,1771.1018632752446,0.0,0.0,0.08157950261054402,1771.1018632752446,0.0,0.0,0.08157950261054402,1024,0.0,100,Assisted_Takeoff,
0.35767277154975197,36.893840787057,1700,2017-11-07 07:05:09,1771.1018632752446,0.0,0.0,0.0847789027129248,1771.1018632752446,0.0,0.0,0.0847789027129248,1024,0.0,100,Assisted_Takeoff,
0.3576727986767279,36.8938408009921,1800,2017-11-07 07:05:09,1771.1018632752446,0.0,0.0,0.0850084027202688,1771.1018632752446,0.0,0.0,0.0850084027202688,1024,0.0,100,Assisted_Takeoff,
0.35767280795168394,36.893840797364795,1900,2017-11-07 07:05:09,1771.1018632752446,0.0,0.0,0.085902002748864,1771.1018632752446,0.0,0.0,0.085902002748864,1024,0.0,100,Assisted_Takeoff,
0.35767280627362297,36.8938408110705,2000,2017-11-07 07:05:09,1771.1018632752446,0.0,0.0,0.0845206027046592,1771.1018632752446,0.0,0.0,0.085902002748864,1024,0.0,100,Assisted_Takeoff,
0.357672817190406,36.893840819720296,2100,2017-11-07 07:05:09,1771.1018632752446,0.0,0.0,0.08439190270054081,1771.1018632752446,0.0,0.0,0.085902002748864,1024,0.0,100,Assisted_Takeoff,
0.357672838306999,36.893840835997,2200,2017-11-07 07:05:09,1771.1018632752446,0.0,0.0,0.084264002696448,1771.1018632752446,0.0,0.0,0.085902002748864,1024,0.0,100,Assisted_Takeoff,
0.357672864457774,36.8938408458886,2300,2017-11-07 07:05:09,1771.1018632752446,0.0,0.0,0.0851446027246272,1771.1018632752446,0.0,0.0,0.085902002748864,1024,0.0,100,Assisted_Takeoff,
0.35767287781768203,36.893840861787794,2400,2017-11-07 07:05:10,1771.1018632752446,0.0,0.0,0.08470310271049919,1771.1018632752446,0.0,0.0,0.085902002748864,1024,0.0,100,Assisted_Takeoff,
0.357672895091452,36.8938408736165,2500,2017-11-07 07:05:10,1771.1018632752446,0.0,0.0,0.0849500027184,1771.1018632752446,0.0,0.0,0.085902002748864,1024,0.0,100,Assisted_Takeoff,
0.357672900021719,36.893840921479104,2600,2017-11-07 07:05:10,1771.1018632752446,0.0,0.0,0.08140570260498241,1771.1018632752446,0.0,0.0,0.085902002748864,1024,0.0,100,Assisted_Takeoff,
0.357672903599563,36.893840958575396,2700,2017-11-07 07:05:10,1771.1018632752446,0.0,0.0,0.0787796025209472,1771.1018632752446,0.0,0.0,0.085902002748864,1024,0.0,100,Assisted_Takeoff,
0.357672894055711,36.8938409953397,2800,2017-11-07 07:05:10,1771.1018632752446,0.0,0.0,0.0752216024070912,1771.1018632752446,0.0,0.0,0.085902002748864,1024,0.0,100,Assisted_Takeoff,
0.35767289494336607,36.8938410220562,2900,2017-11-07 07:05:10,1771.1018632752446,0.0,0.0,0.073343002346976,1771.1018632752446,0.0,0.0,0.085902002748864,1024,0.0,100,Assisted_Takeoff,
0.357672915430921,36.893841042598204,3000,2017-11-07 07:05:10,1771.1018632752446,0.0,0.0,0.0736788023577216,1771.1018632752446,0.0,0.0,0.085902002748864,1024,0.0,100,Assisted_Takeoff,
0.357672939970097,36.893841058444295,3100,2017-11-07 07:05:10,1771.1018632752446,0.0,0.0,0.074823002394336,1771.1018632752446,0.0,0.0,0.085902002748864,1024,0.0,100,Assisted_Takeoff,
0.357672955906966,36.893841067227,3200,2017-11-07 07:05:10,1771.1018632752446,0.0,0.0,0.0757252024232064,1771.1018632752446,0.0,0.0,0.085902002748864,1024,0.0,100,Assisted_Takeoff,
0.35767297015783506,36.8938410766254,3300,2017-11-07 07:05:10,1771.1018632752446,0.0,0.0,0.0764754024472128,1771.1018632752446,0.0,0.0,0.085902002748864,1024,0.0,100,Assisted_Takeoff,
0.35767297306628704,36.893841078773,3400,2017-11-07 07:05:11,1771.1018632752446,0.0,0.0,0.0766198024518336,1771.1018632752446,0.0,0.0,0.085902002748864,1024,0.0,100,Assisted_Takeoff,
0.35767297741794707,36.893841081621105,3500,2017-11-07 07:05:11,1771.1018632752446,0.0,0.0,0.07686060245953921,1771.1018632752446,0.0,0.0,0.085902002748864,1024,0.0,100,Assisted_Takeoff,
0.35767297024729794,36.8938410445336,3600,2017-11-07 07:05:11,1771.1018632752446,0.0,0.0,0.07846720251095039,1771.1018632752446,0.0,0.0,0.085902002748864,1024,0.0,100,Assisted_Takeoff,
0.35767297054611696,36.893841017776204,3700,2017-11-07 07:05:11,1771.1018632752446,0.0,0.0,0.080231502567408,1771.1018632752446,0.0,0.0,0.085902002748864,1024,0.0,100,Assisted_Takeoff,
0.35767293146671797,36.8938409545905,3800,2017-11-07 07:05:11,1771.1018632752446,0.0,0.0,0.0813474026031168,1771.1018632752446,0.0,0.0,0.085902002748864,1024,0.0,100,Assisted_Takeoff,
0.35767289983628003,36.8938409064977,3900,2017-11-07 07:05:11,1771.1018632752446,0.0,0.0,0.08259750264312,1771.1018632752446,0.0,0.0,0.085902002748864,1024,0.0,100,Assisted_Takeoff,
0.35767286405503995,36.893840827529296,4000,2017-11-07 07:05:11,1771.1018632752446,0.0,0.0,0.08673150277540799,1771.1018632752446,0.0,0.0,0.08673150277540799,1024,0.0,100,Assisted_Takeoff,
0.35767284208112204,36.893840767551104,4100,2017-11-07 07:05:11,1771.1018632752446,0.0,0.0,0.090752002904064,1771.1018632752446,0.0,0.0,0.090752002904064,1024,0.0,100,Assisted_Takeoff,
0.357672789381723,36.8938406864604,4200,2017-11-07 07:05:11,1771.1018632752446,0.0,0.0,0.0955416030573312,1771.1018632752446,0.0,0.0,0.0955416030573312,1024,0.0,100,Assisted_Takeoff,
0.357672746025521,36.8938406213928,4300,2017-11-07 07:05:11,1771.1018632752446,0.0,0.0,0.10001000320032001,1771.1018632752446,0.0,0.0,0.10001000320032001,1024,0.0,100,Assisted_Takeoff,
0.35767267602039293,36.8938405404058,4400,2017-11-07 07:05:12,1771.1018632752446,0.0,0.0,0.105758003384256,1771.1018632752446,0.0,0.0,0.105758003384256,1024,0.0,100,Assisted_Takeoff,
0.35767262004558203,36.8938404755299,4500,2017-11-07 07:05:12,1771.1018632752446,0.0,0.0,0.11107300355433601,1771.1018632752446,0.0,0.0,0.11107300355433601,1024,0.0,100,Assisted_Takeoff,
0.357672575623385,36.8938403693914,4600,2017-11-07 07:05:12,1771.1018632752446,0.0,0.0,0.12166200389318402,1771.1018632752446,0.0,0.0,0.12166200389318402,1024,0.0,100,Assisted_Takeoff,
0.35767254428380196,36.893840276413606,4700,2017-11-07 07:05:12,1771.1018632752446,0.0,0.0,0.131368004203776,1771.1018632752446,0.0,0.0,0.131368004203776,1024,0.0,100,Assisted_Takeoff,
0.357672494870349,36.8938402101131,4800,2017-11-07 07:05:12,1771.1018632752446,0.0,0.0,0.138116004419712,1771.1018632752446,0.0,0.0,0.138116004419712,1024,0.0,100,Assisted_Takeoff,
0.35767245194769504,36.893840161192706,4900,2017-11-07 07:05:12,1771.1018632752446,0.0,0.0,0.143233004583456,1771.1018632752446,0.0,0.0,0.143233004583456,1024,0.0,100,Assisted_Takeoff,
0.35767239330693,36.8938401110633,5000,2017-11-07 07:05:12,1771.1018632752446,0.0,0.0,0.148649004756768,1771.1018632752446,0.0,0.0,0.148649004756768,1024,0.0,100,Assisted_Takeoff,
0.35767234406741405,36.8938400629354,5100,2017-11-07 07:05:12,1771.1018632752446,0.0,0.0,0.15409000493088004,1771.1018632752446,0.0,0.0,0.15409000493088004,1024,0.0,100,Assisted_Takeoff,
0.35767231461107596,36.8938399801276,5200,2017-11-07 07:05:12,1771.1018632752446,0.0,0.0,0.16343100522979198,1771.1018632752446,0.0,0.0,0.16343100522979198,1024,0.0,100,Assisted_Takeoff,
0.357672290948233,36.893839901755904,5300,2017-11-07 07:05:12,1771.1018632752446,0.0,0.0,0.17228600551315199,1771.1018632752446,0.0,0.0,0.17228600551315199,1024,0.0,100,Assisted_Takeoff,
0.35767225924746,36.8938398331979,5400,2017-11-07 07:05:13,1771.1018632752446,0.0,0.0,0.18014700576470402,1771.1018632752446,0.0,0.0,0.18014700576470402,1024,0.0,100,Assisted_Takeoff,
0.357672224181894,36.8938397699358,5500,2017-11-07 07:05:13,1771.1018632752446,0.0,0.0,0.187506006000192,1771.1018632752446,0.0,0.0,0.187506006000192,1024,0.0,100,Assisted_Takeoff,
0.35767220461220006,36.8938397351644,5600,2017-11-07 07:05:13,1771.1018632752446,0.0,0.0,0.19157700613046402,1771.1018632752446,0.0,0.0,0.19157700613046402,1024,0.0,100,Assisted_Takeoff,
0.357672186840552,36.8938397035192,5700,2017-11-07 07:05:13,1771.1018632752446,0.0,0.0,0.195296006249472,1771.1018632752446,0.0,0.0,0.195296006249472,1024,0.0,100,Assisted_Takeoff,
0.35767215600864,36.893839673637096,5800,2017-11-07 07:05:13,1771.1018632752446,0.0,0.0,0.199018006368576,1771.1018632752446,0.0,0.0,0.199018006368576,1024,0.0,100,Assisted_Takeoff,
0.357672123602089,36.893839638892395,5900,2017-11-07 07:05:13,1771.1018632752446,0.0,0.0,0.20334500650704,1771.1018632752446,0.0,0.0,0.20334500650704,1024,0.0,100,Assisted_Takeoff,
0.357672107373099,36.893839602434504,6000,2017-11-07 07:05:13,1771.1018632752446,0.0,0.0,0.20762400664396805,1771.1018632752446,0.0,0.0,0.20762400664396805,1024,0.0,100,Assisted_Takeoff,
0.3576720932442729,36.893839562915204,6100,2017-11-07 07:05:13,1771.1018632752446,0.0,0.0,0.21220800679065602,1771.1018632752446,0.0,0.0,0.21220800679065602,1024,0.0,100,Assisted_Takeoff,
0.35767206311777294,36.893839518650104,6200,2017-11-07 07:05:13,1771.1018632752446,0.0,0.0,0.21760800696345597,1771.1018632752446,0.0,0.0,0.21760800696345597,1024,0.0,100,Assisted_Takeoff,
0.357672030303481,36.893839473621,6300,2017-11-07 07:05:13,1771.1018632752446,0.0,0.0,0.22317300714153604,1771.1018632752446,0.0,0.0,0.22317300714153604,1024,0.0,100,Assisted_Takeoff,
0.357672014421293,36.893839457557796,6400,2017-11-07 07:05:14,1771.1018632752446,0.0,0.0,0.22525300720809602,1771.1018632752446,0.0,0.0,0.22525300720809602,1024,0.0,100,Assisted_Takeoff,
0.35767199967265295,36.893839439998104,6500,2017-11-07 07:05:14,1771.1018632752446,0.0,0.0,0.22748000727936,1771.1018632752446,0.0,0.0,0.22748000727936,1024,0.0,100,Assisted_Takeoff,
0.35767196902993004,36.8938394162627,6600,2017-11-07 07:05:14,1771.1018632752446,0.0,0.0,0.23074000738368,1771.1018632752446,0.0,0.0,0.23074000738368,1024,0.0,100,Assisted_Takeoff,
0.3576719358022679,36.8938393870271,6700,2017-11-07 07:05:14,1771.1018632752446,0.0,0.0,0.23469400751020802,1771.1018632752446,0.0,0.0,0.23469400751020802,1024,0.0,100,Assisted_Takeoff,
0.35767191721019603,36.8938393477881,6800,2017-11-07 07:05:14,1771.1018632752446,0.0,0.0,0.239403007660896,1771.1018632752446,0.0,0.0,0.239403007660896,1024,0.0,100,Assisted_Takeoff,
0.357671900488315,36.8938393076809,6900,2017-11-07 07:05:14,1771.1018632752446,0.0,0.0,0.24416500781328002,1771.1018632752446,0.0,0.0,0.24416500781328002,1024,0.0,100,Assisted_Takeoff,
0.357671899593383,36.8938392903503,7000,2017-11-07 07:05:14,1771.1018632752446,0.0,0.0,0.246066007874112,1771.1018632752446,0.0,0.0,0.246066007874112,1024,0.0,100,Assisted_Takeoff,
0.35767189470545596,36.8938392737451,7100,2017-11-07 07:05:14,1771.1018632752446,0.0,0.0,0.24798700793558404,1771.1018632752446,0.0,0.0,0.24798700793558404,1024,0.0,100,Assisted_Takeoff,
0.35767190386413106,36.893839246575,7200,2017-11-07 07:05:14,1771.1018632752446,0.0,0.0,0.250711008022752,1771.1018632752446,0.0,0.0,0.250711008022752,1024,0.0,100,Assisted_Takeoff,
0.35767190466807297,36.8938392145604,7300,2017-11-07 07:05:14,1771.1018632752446,0.0,0.0,0.25416900813340804,1771.1018632752446,0.0,0.0,0.25416900813340804,1024,0.0,100,Assisted_Takeoff,
0.357671884923495,36.8938392034794,7400,2017-11-07 07:05:15,1771.1018632752446,0.0,0.0,0.255848008187136,1771.1018632752446,0.0,0.0,0.255848008187136,1024,0.0,100,Assisted_Takeoff,
0.357671859474223,36.89383919185379,7500,2017-11-07 07:05:15,1771.1018632752446,0.0,0.0,0.257743008247776,1771.1018632752446,0.0,0.0,0.257743008247776,1024,0.0,100,Assisted_Takeoff,
0.35767184390164203,36.893839165837,7600,2017-11-07 07:05:15,1771.1018632752446,0.0,0.0,0.260959008350688,1771.1018632752446,0.0,0.0,0.260959008350688,1024,0.0,100,Assisted_Takeoff,
0.357671829626346,36.8938391359786,7700,2017-11-07 07:05:15,1771.1018632752446,0.0,0.0,0.26455900846588803,1771.1018632752446,0.0,0.0,0.26455900846588803,1024,0.0,100,Assisted_Takeoff,
0.3576718269861551,36.8938390909458,7800,2017-11-07 07:05:15,1771.1018632752446,0.0,0.0,0.26949600862387196,1771.1018632752446,0.0,0.0,0.26949600862387196,1024,0.0,100,Assisted_Takeoff,
0.35767182096394,36.8938390488416,7900,2017-11-07 07:05:15,1771.1018632752446,0.0,0.0,0.274206008774592,1771.1018632752446,0.0,0.0,0.274206008774592,1024,0.0,100,Assisted_Takeoff,
0.35767182506726203,36.893839026074296,8000,2017-11-07 07:05:15,1771.1018632752446,0.0,0.0,0.27656500885008,1771.1018632752446,0.0,0.0,0.27656500885008,1024,0.0,100,Assisted_Takeoff,
0.357671824846455,36.8938390074371,8100,2017-11-07 07:05:15,1771.1018632752446,0.0,0.0,0.27858900891484806,1771.1018632752446,0.0,0.0,0.27858900891484806,1024,0.0,100,Assisted_Takeoff,
0.357671832706471,36.8938389753708,8200,2017-11-07 07:05:15,1771.1018632752446,0.0,0.0,0.28187000901984,1771.1018632752446,0.0,0.0,0.28187000901984,1024,0.0,100,Assisted_Takeoff,
0.357671834298301,36.8938389419457,8300,2017-11-07 07:05:15,1771.1018632752446,0.0,0.0,0.285459009134688,1771.1018632752446,0.0,0.0,0.285459009134688,1024,0.0,100,Assisted_Takeoff,
0.35767181095481,36.893838926232796,8400,2017-11-07 07:05:16,1771.1018632752446,0.0,0.0,0.28773600920755205,1771.1018632752446,0.0,0.0,0.28773600920755205,1024,0.0,100,Assisted_Takeoff,
0.3576717816363811,36.893838913296,8500,2017-11-07 07:05:16,1771.1018632752446,0.0,0.0,0.28988300927625604,1771.1018632752446,0.0,0.0,0.28988300927625604,1024,0.0,100,Assisted_Takeoff,
0.357671758866892,36.893838885684204,8600,2017-11-07 07:05:16,1771.1018632752446,0.0,0.0,0.29346500939088005,1771.1018632752446,0.0,0.0,0.29346500939088005,1024,0.0,100,Assisted_Takeoff,
0.357671739145163,36.8938388553571,8700,2017-11-07 07:05:16,1771.1018632752446,0.0,0.0,0.29726800951257604,1771.1018632752446,0.0,0.0,0.29726800951257604,1024,0.0,100,Assisted_Takeoff,
0.35767169850937797,36.8938388085589,8800,2017-11-07 07:05:16,1771.1018632752446,0.0,0.0,0.30343300970985604,1771.1018632752446,0.0,0.0,0.30343300970985604,1024,0.0,100,Assisted_Takeoff,
0.35767165691510205,36.8938387657573,8900,2017-11-07 07:05:16,1771.1018632752446,0.0,0.0,0.309229009895328,1771.1018632752446,0.0,0.0,0.309229009895328,1024,0.0,99,Assisted_Takeoff,
0.357671628952174,36.893838740513395,9000,2017-11-07 07:05:16,1771.1018632752446,0.0,0.0,0.312766010008512,1771.1018632752446,0.0,0.0,0.312766010008512,1024,0.0,99,Assisted_Takeoff,
0.3576716035595421,36.893838721314104,9100,2017-11-07 07:05:16,1771.1018632752446,0.0,0.0,0.31559301009897606,1771.1018632752446,0.0,0.0,0.31559301009897606,1024,0.0,99,Assisted_Takeoff,
0.357671592193461,36.8938387184353,9200,2017-11-07 07:05:16,1771.1018632752446,0.0,0.0,0.31625401012012805,1771.1018632752446,0.0,0.0,0.31625401012012805,1024,0.0,99,Assisted_Takeoff,
0.357671548367961,36.8938386929494,9400,2017-11-07 07:05:17,1771.1018632752446,0.0,0.0,0.32036701025174397,1771.1018632752446,0.0,0.0,0.32036701025174397,1112,0.0,99,Assisted_Takeoff,
0.357671511557036,36.8938386679277,9500,2017-11-07 07:05:17,1771.1018632752446,0.0,0.0,0.32424001037567995,1771.1018632752446,0.0,0.0,0.32424001037567995,1120,0.0,99,Assisted_Takeoff,
0.357671492937611,36.8938386567105,9600,2017-11-07 07:05:17,1771.1018632752446,0.0,0.0,0.326058010433856,1771.1018632752446,0.0,0.0,0.326058010433856,1246,0.0,99,Assisted_Takeoff,
0.357671475299628,36.893838649356105,9700,2017-11-07 07:05:17,1771.1018632752446,0.0,0.0,0.327441010478112,1771.1018632752446,0.0,0.0,0.327441010478112,1246,0.0,99,Assisted_Takeoff,
0.35767144570153897,36.893838622661,9800,2017-11-07 07:05:17,1771.1018632752446,0.0,0.0,0.33129401060140806,1771.1018632752446,0.0,0.0,0.33129401060140806,1307,0.0,99,Assisted_Takeoff,
0.35767141141129205,36.8938385936551,9900,2017-11-07 07:05:17,1771.1018632752446,0.0,0.0,0.33557301073833606,1771.1018632752446,0.0,0.0,0.33557301073833606,1379,0.0,99,Assisted_Takeoff,
0.35767139282723504,36.8938385385985,10000,2017-11-07 07:05:17,1771.1018632752446,0.0,0.0,0.34203501094512,1771.1018632752446,0.0,0.0,0.34203501094512,1447,0.0,99,Assisted_Takeoff,
0.35767137563799106,36.8938384492816,10100,2017-11-07 07:05:17,1771.1018632752446,0.0,0.0,0.352052011265664,1771.1018632752446,0.0,0.0,0.352052011265664,1530,0.0,99,Assisted_Takeoff,
0.3576713152963039,36.8938380942092,10300,2017-11-07 07:05:17,1771.1018632752446,0.0,0.7199994039200001,0.39165401253292803,1771.1018632752446,0.0,0.7199994039200001,0.39165401253292803,1552,0.0,99,GPS_Atti,Obstacle Avoided. Revise Flight Route
0.35767124953881896,36.8938378334281,10400,2017-11-07 07:05:18,1771.1018632752446,0.0,0.7199994039200001,0.42150601348819206,1771.1018632752446,0.0,0.7199994039200001,0.42150601348819206,1594,0.0,99,GPS_Atti,
0.35767115257627596,36.8938375851545,10500,2017-11-07 07:05:18,1771.2018632784448,0.10000000320000002,0.5075995797636,0.45108501443472,1771.2018632784448,0.10000000320000002,0.7199994039200001,0.45108501443472,1616,0.0,99,GPS_Atti,
0.357671002576636,36.8938373734916,10600,2017-11-07 07:05:18,1771.4018632848447,0.3000000096,0.8063993323904,0.47867101531747197,1771.4018632848447,0.3000000096,0.8063993323904,0.47867101531747197,1617,0.0,99,GPS_Atti,
0.35767085299285906,36.8938372005886,10700,2017-11-07 07:05:18,1771.5018632880444,0.4000000128000001,0.8063993323904,0.5023280160744961,1771.5018632880444,0.4000000128000001,0.8063993323904,0.5023280160744961,1632,0.0,99,GPS_Atti,
0.35767065359966205,36.8938370127754,10800,2017-11-07 07:05:18,1771.8018632976446,0.7000000224000001,1.1375990581936,0.5296940169502079,1771.8018632976446,0.7000000224000001,1.1375990581936,0.5296940169502079,1641,0.0,99,GPS_Atti,
0.357670420448516,36.8938368293393,10900,2017-11-07 07:05:18,1772.1018633072447,1.000000032,1.1375990581936,0.5583960178686721,1772.1018633072447,1.000000032,1.1375990581936,0.5583960178686721,1642,0.0,99,GPS_Atti,
0.357670134219765,36.8938366323896,11000,2017-11-07 07:05:18,1772.4018633168448,1.3000000416000002,0.8063993323904,0.5913950189246401,1772.4018633168448,1.3000000416000002,1.1375990581936,0.5913950189246401,1635,0.0,99,GPS_Atti,Home Point Recorded. RTH Altitude:  30m.
0.3576699075776111,36.8938364546046,11100,2017-11-07 07:05:18,1772.8018633296447,1.7000000544000002,0.5075995797636,0.6201610198451522,1772.8018633296447,1.7000000544000002,1.1375990581936,0.6201610198451522,1627,0.0,99,GPS_Atti,
0.35766971638892203,36.8938362678475,11200,2017-11-07 07:05:18,1773.2018633424448,2.1000000672,0.5075995797636,0.6482980207455361,1773.2018633424448,2.1000000672,1.1375990581936,0.6482980207455361,1616,0.0,99,GPS_Atti,
0.35766959057940995,36.8938360946426,11300,2017-11-07 07:05:18,1773.6018633552446,2.50000008,0.35999970196000003,0.6718410214989121,1773.6018633552446,2.50000008,1.1375990581936,0.6718410214989121,1618,0.0,99,GPS_Atti,
0.357669635631331,36.8938357706425,11400,2017-11-07 07:05:19,1774.1018633712447,3.0000000960000004,0.35999970196000003,0.701762022456384,1774.1018633712447,3.0000000960000004,1.1375990581936,0.701762022456384,1635,0.0,99,GPS_Atti,
0.35766970301044104,36.893835485649,11500,2017-11-07 07:05:19,1774.5018633840446,3.4000001088000005,0.35999970196000003,0.7272920232733441,1774.5018633840446,3.4000001088000005,1.1375990581936,0.7272920232733441,1629,0.0,99,GPS_Atti,
0.35766984015127706,36.8938351193972,11600,2017-11-07 07:05:19,1774.9018633968446,3.8000001215999997,0.35999970196000003,0.758772024280704,1774.9018633968446,3.8000001215999997,1.1375990581936,0.758772024280704,1640,0.0,99,GPS_Atti,
0.357669940786877,36.8938348492915,11700,2017-11-07 07:05:19,1775.3018634096445,4.2000001344,0.0,0.782744025047808,1775.3018634096445,4.2000001344,1.1375990581936,0.782744025047808,1639,0.0,99,GPS_Atti,
0.357670067688464,36.8938345511265,11800,2017-11-07 07:05:19,1775.8018634256448,4.700000150400001,0.35999970196000003,0.8092930258973762,1775.8018634256448,4.700000150400001,1.1375990581936,0.8092930258973762,1637,0.0,99,GPS_Atti,
0.357670157681979,36.8938343107683,11900,2017-11-07 07:05:19,1776.2018634384447,5.1000001632,0.0,0.831623026611936,1776.2018634384447,5.1000001632,1.1375990581936,0.831623026611936,1640,0.0,99,GPS_Atti,
0.357670216618217,36.893834077833205,12000,2017-11-07 07:05:19,1776.7018634544447,5.600000179200001,0.35999970196000003,0.854501027344032,1776.7018634544447,5.600000179200001,1.1375990581936,0.854501027344032,1642,0.0,99,GPS_Atti,
0.35767021184138,36.893833872616895,12100,2017-11-07 07:05:19,1777.2018634704446,6.1000001952,0.35999970196000003,0.8765590280498881,1777.2018634704446,6.1000001952,1.1375990581936,0.8765590280498881,1649,0.0,99,GPS_Atti,
0.357670200146709,36.8938337083472,12200,2017-11-07 07:05:19,1777.6018634832446,6.500000208,0.35999970196000003,0.894482028623424,1777.6018634832446,6.500000208,1.1375990581936,0.894482028623424,1645,0.0,99,GPS_Atti,
0.357670177508692,36.893833569620796,12300,2017-11-07 07:05:19,1778.1018634992447,7.000000224,0.35999970196000003,0.910013029120416,1778.1018634992447,7.000000224,1.1375990581936,0.910013029120416,1649,0.0,99,GPS_Atti,
0.357670177087128,36.893833473621996,12400,2017-11-07 07:05:20,1778.6018635152448,7.50000024,0.35999970196000003,0.920308029449856,1778.6018635152448,7.50000024,1.1375990581936,0.920308029449856,1649,0.0,99,GPS_Atti,
0.357670176776095,36.8938334192164,12500,2017-11-07 07:05:20,1779.0018635280446,7.9000002528,0.0,0.926148029636736,1779.0018635280446,7.9000002528,1.1375990581936,0.926148029636736,1650,0.0,99,GPS_Atti,
0.35767015790812895,36.893833506818,12600,2017-11-07 07:05:20,1779.5018635440445,8.4000002688,0.0,0.9173270293544641,1779.5018635440445,8.4000002688,1.1375990581936,0.926148029636736,1661,0.0,99,GPS_Atti,
0.357670083852806,36.893833625136104,12700,2017-11-07 07:05:20,1780.0018635600447,8.9000002848,0.35999970196000003,0.9069630290228161,1780.0018635600447,8.9000002848,1.1375990581936,0.926148029636736,1665,0.0,99,GPS_Atti,
0.357670004274819,36.8938338252569,12800,2017-11-07 07:05:20,1780.5018635760446,9.400000300800002,0.0,0.88824502842384,1780.5018635760446,9.400000300800002,1.1375990581936,0.926148029636736,1650,0.0,99,GPS_Atti,
0.357669935376371,36.8938339679386,12900,2017-11-07 07:05:20,1780.9018635888447,9.8000003136,0.0,0.8754760280152322,1780.9018635888447,9.8000003136,1.1375990581936,0.926148029636736,1650,0.0,99,GPS_Atti,
0.35766995061372203,36.8938341604116,13000,2017-11-07 07:05:20,1781.4018636048445,10.300000329600001,0.0,0.854627027348064,1781.4018636048445,10.300000329600001,1.1375990581936,0.926148029636736,1662,0.0,99,GPS_Atti,
0.35766994667573704,36.8938342953951,13100,2017-11-07 07:05:20,1781.9018636208448,10.800000345599999,0.0,0.840548026897536,1781.9018636208448,10.800000345599999,1.1375990581936,0.926148029636736,1661,0.0,99,GPS_Atti,
0.357669974297811,36.893834443293294,13200,2017-11-07 07:05:20,1782.3018636336446,11.200000358400002,0.0,0.82399502636784,1782.3018636336446,11.200000358400002,1.1375990581936,0.926148029636736,1656,0.0,99,GPS_Atti,
0.3576699691961,36.8938345667069,13300,2017-11-07 07:05:20,1782.8018636496447,11.700000374400002,0.0,0.8112220259591041,1782.8018636496447,11.700000374400002,1.1375990581936,0.926148029636736,1664,0.0,99,GPS_Atti,
0.35766999028465296,36.8938347136913,13400,2017-11-07 07:05:21,1783.3018636656445,12.2000003904,0.0,0.795032025441024,1783.3018636656445,12.2000003904,1.1375990581936,0.926148029636736,1665,0.0,99,GPS_Atti,
0.35766998172249803,36.8938348436564,13500,2017-11-07 07:05:21,1783.8018636816448,12.700000406400001,0.0,0.78176002501632,1783.8018636816448,12.700000406400001,1.1375990581936,0.926148029636736,1666,0.0,99,GPS_Atti,
0.3576700021303621,36.893835002176,13600,2017-11-07 07:05:21,1784.2018636944447,13.100000419199999,0.0,0.764432024461824,1784.2018636944447,13.100000419199999,1.1375990581936,0.926148029636736,1667,0.0,99,GPS_Atti,
0.35766998749594303,36.8938351555347,13700,2017-11-07 07:05:21,1784.7018637104447,13.600000435200002,0.0,0.7490430239693762,1784.7018637104447,13.600000435200002,1.1375990581936,0.926148029636736,1669,0.0,99,GPS_Atti,
0.35767002356536703,36.893835318304504,13800,2017-11-07 07:05:21,1785.2018637264446,14.100000451200001,0.0,0.7307080233826561,1785.2018637264446,14.100000451200001,1.1375990581936,0.926148029636736,1678,0.0,99,GPS_Atti,
0.357670032320899,36.893835478937994,13900,2017-11-07 07:05:21,1785.7018637424449,14.600000467200001,0.0,0.7137160228389121,1785.7018637424449,14.600000467200001,1.1375990581936,0.926148029636736,1684,0.0,99,GPS_Atti,
0.35767006880863006,36.89383566359879,14000,2017-11-07 07:05:21,1786.1018637552447,15.00000048,0.0,0.693137022180384,1786.1018637552447,15.00000048,1.1375990581936,0.926148029636736,1684,0.0,99,GPS_Atti,
0.3576700735966621,36.8938358452984,14100,2017-11-07 07:05:21,1786.6018637712448,15.500000496,0.0,0.674224021575168,1786.6018637712448,15.500000496,1.1375990581936,0.926148029636736,1684,0.0,99,GPS_Atti,
0.357670108140438,36.8938360277281,14200,2017-11-07 07:05:21,1787.1018637872446,16.000000512,0.0,0.654023020928736,1787.1018637872446,16.000000512,1.1375990581936,0.926148029636736,1684,0.0,99,GPS_Atti,
0.3576701089829539,36.8938361977042,14300,2017-11-07 07:05:21,1787.6018638032444,16.500000528,0.0,0.6366090203714879,1787.6018638032444,16.500000528,1.1375990581936,0.926148029636736,1684,0.0,99,GPS_Atti,
0.357670111752937,36.8938365682935,14500,2017-11-07 07:05:22,1788.7018638384445,17.6000005632,0.0,0.598909019165088,1788.7018638384445,17.6000005632,1.1375990581936,0.926148029636736,1684,0.0,99,GPS_Atti,
0.357670145795762,36.893836733476896,14600,2017-11-07 07:05:22,1789.2018638544448,18.100000579200003,0.0,0.5806810185817921,1789.2018638544448,18.100000579200003,1.1375990581936,0.926148029636736,1684,0.0,99,GPS_Atti,
0.357670155958271,36.893836878765,14700,2017-11-07 07:05:22,1789.7018638704446,18.6000005952,0.0,0.565639018100448,1789.7018638704446,18.6000005952,1.1375990581936,0.926148029636736,1684,0.0,99,GPS_Atti,
0.35767019569719,36.8938370082441,14800,2017-11-07 07:05:22,1790.2018638864445,19.1000006112,0.0,0.550769017624608,1790.2018638864445,19.1000006112,1.1375990581936,0.926148029636736,1684,0.0,99,GPS_Atti,
0.3576702019903111,36.893837115071996,14900,2017-11-07 07:05:22,1790.7018639024448,19.6000006272,0.0,0.53983001727456,1790.7018639024448,19.6000006272,1.1375990581936,0.926148029636736,1684,0.0,99,GPS_Atti,
0.35767022818546207,36.8938371804822,15000,2017-11-07 07:05:22,1791.3018639216446,20.200000646400003,0.0,0.532024017024768,1791.3018639216446,20.200000646400003,1.1375990581936,0.926148029636736,1684,0.0,99,GPS_Atti,
0.35767022476247207,36.8938372353878,15100,2017-11-07 07:05:22,1791.8018639376446,20.7000006624,0.0,0.526759016856288,1791.8018639376446,20.7000006624,1.1375990581936,0.926148029636736,1684,0.0,99,GPS_Atti,
0.35767020550612205,36.8938372834737,15200,2017-11-07 07:05:22,1792.4018639568446,21.300000681600004,0.0,0.523002016736064,1792.4018639568446,21.300000681600004,1.1375990581936,0.926148029636736,1684,0.0,99,GPS_Atti,
0.35767015774019606,36.89383734084671,15300,2017-11-07 07:05:22,1792.9018639728445,21.8000006976,0.0,0.519878016636096,1792.9018639728445,21.8000006976,1.1375990581936,0.926148029636736,1684,0.0,99,GPS_Atti,
0.35767013660401004,36.8938374142166,15400,2017-11-07 07:05:23,1793.4018639888448,22.3000007136,0.0,0.513868016443776,1793.4018639888448,22.3000007136,1.1375990581936,0.926148029636736,1684,0.0,99,GPS_Atti,
0.357670106226812,36.8938374780729,15500,2017-11-07 07:05:23,1794.0018640080445,22.900000732800002,0.0,0.509358016299456,1794.0018640080445,22.900000732800002,1.1375990581936,0.926148029636736,1684,0.0,99,GPS_Atti,
0.35767011587045794,36.8938375520519,15600,2017-11-07 07:05:23,1794.5018640240446,23.400000748800004,0.0,0.5017030160544961,1794.5018640240446,23.400000748800004,1.1375990581936,0.926148029636736,1684,0.0,99,GPS_Atti,
0.357670109873306,36.893837611021,15700,2017-11-07 07:05:23,1795.1018640432446,24.000000768000003,0.0,0.49639201588454407,1795.1018640432446,24.000000768000003,1.1375990581936,0.926148029636736,1684,0.0,99,GPS_Atti,
0.35767014278721204,36.8938376519855,15800,2017-11-07 07:05:23,1795.6018640592445,24.500000784000004,0.0,0.49060601569939194,1795.6018640592445,24.500000784000004,1.1375990581936,0.926148029636736,1684,0.0,99,GPS_Atti,
0.357670157151106,36.893837676705296,15900,2017-11-07 07:05:23,1796.1018640752447,25.000000800000002,0.0,0.48742701559766405,1796.1018640752447,25.000000800000002,1.1375990581936,0.926148029636736,1684,0.0,99,GPS_Atti,
0.35767018718653404,36.8938377079418,16000,2017-11-07 07:05:23,1796.7018640944445,25.600000819200005,0.0,0.48273701544758396,1796.7018640944445,25.600000819200005,1.1375990581936,0.926148029636736,1684,0.0,99,GPS_Atti,
0.35767018257376293,36.8938377379373,16100,2017-11-07 07:05:23,1797.2018641104448,26.100000835200003,0.0,0.480129015364128,1797.2018641104448,26.100000835200003,1.1375990581936,0.926148029636736,1684,0.0,99,GPS_Atti,
0.35767017895271397,36.8938377508669,16200,2017-11-07 07:05:23,1797.8018641296446,26.700000854400002,0.0,0.479101015331232,1797.8018641296446,26.700000854400002,1.1375990581936,0.926148029636736,1684,0.0,99,GPS_Atti,
0.35767015553670706,36.8938377533836,16300,2017-11-07 07:05:23,1798.3018641456445,27.200000870400004,0.0,0.480204015366528,1798.3018641456445,27.200000870400004,1.1375990581936,0.926148029636736,1684,0.0,99,GPS_Atti,
0.3576701582161079,36.8938377328129,16400,2017-11-07 07:05:24,1798.9018641648447,27.8000008896,0.0,0.4820090154242881,1798.9018641648447,27.8000008896,1.1375990581936,0.926148029636736,1684,0.0,99,GPS_Atti,
0.357670149314016,36.893837700712105,16500,2017-11-07 07:05:24,1799.4018641808445,28.300000905599997,0.0,0.48557901553852806,1799.4018641808445,28.300000905599997,1.1375990581936,0.926148029636736,1684,0.0,99,GPS_Atti,
0.357670170894359,36.8938376279155,16600,2017-11-07 07:05:24,1800.0018642000448,28.9000009248,0.0,0.49133301572265603,1800.0018642000448,28.9000009248,1.1375990581936,0.926148029636736,1684,0.0,99,GPS_Atti,
0.35767016575336097,36.893837571500896,16700,2017-11-07 07:05:24,1800.5018642160446,29.4000009408,0.0,0.49705101590563205,1800.5018642160446,29.4000009408,1.1375990581936,0.926148029636736,1684,0.0,99,GPS_Atti,
0.357670169368914,36.893837510387,16800,2017-11-07 07:05:24,1801.0018642320445,29.900000956800003,0.0,0.5027590160882881,1801.0018642320445,29.900000956800003,1.1375990581936,0.926148029636736,1684,0.0,99,GPS_Atti,
0.35767014294863203,36.893837471607,16900,2017-11-07 07:05:24,1801.6018642512447,30.500000976,0.0,0.5079590162546881,1801.6018642512447,30.500000976,1.1375990581936,0.926148029636736,1684,0.0,99,GPS_Atti,
0.35767010113975706,36.8938374569144,17000,2017-11-07 07:05:24,1802.1018642672445,31.000000992,0.0,0.51168001637376,1802.1018642672445,31.000000992,1.1375990581936,0.926148029636736,1684,0.0,99,GPS_Atti,
0.3576700389055129,36.8938374484966,17100,2017-11-07 07:05:24,1802.7018642864446,31.6000010112,0.0,0.515966016510912,1802.7018642864446,31.6000010112,1.1375990581936,0.926148029636736,1684,0.0,99,GPS_Atti,
0.35766995224786496,36.8938373763763,17200,2017-11-07 07:05:24,1803.3018643056446,32.2000010304,0.0,0.527782016889024,1803.3018643056446,32.2000010304,1.1375990581936,0.926148029636736,1684,0.0,99,GPS_Atti,
0.357669859371598,36.893837294772794,17300,2017-11-07 07:05:24,1803.8018643216446,32.700001046400004,0.0,0.54089001730848,1803.8018643216446,32.700001046400004,1.1375990581936,0.926148029636736,1684,0.0,99,GPS_Atti,
0.35766976726273403,36.8938371960391,17400,2017-11-07 07:05:25,1804.4018643408444,33.3000010656,0.0,0.55560501777936,1804.4018643408444,33.3000010656,1.1375990581936,0.926148029636736,1684,0.0,99,GPS_Atti,
0.357669672715683,36.8938371259353,17500,2017-11-07 07:05:25,1804.9018643568447,33.800001081599994,0.0,0.5677820181690241,1804.9018643568447,33.800001081599994,1.1375990581936,0.926148029636736,1684,0.0,99,GPS_Atti,
0.357669606019705,36.893837033538,17600,2017-11-07 07:05:25,1805.5018643760445,34.4000011008,0.0,0.580429018573728,1805.5018643760445,34.4000011008,1.1375990581936,0.926148029636736,1684,0.0,99,GPS_Atti,
0.35766954885826796,36.893836965743496,17700,2017-11-07 07:05:25,1806.0018643920448,34.9000011168,0.0,0.5901990188863679,1806.0018643920448,34.9000011168,1.1375990581936,0.926148029636736,1684,0.0,99,GPS_Atti,
0.357669494330024,36.893836895475395,17800,2017-11-07 07:05:25,1806.5018644080446,35.40000113280001,0.0,0.600046019201472,1806.5018644080446,35.40000113280001,1.1375990581936,0.926148029636736,1684,0.0,99,GPS_Atti,
0.357669426573116,36.8938368381658,17900,2017-11-07 07:05:25,1807.1018644272444,36.000001151999996,0.0,0.6094750195032,1807.1018644272444,36.000001151999996,1.1375990581936,0.926148029636736,1684,0.0,99,GPS_Atti,
0.357669379900893,36.8938367279484,18000,2017-11-07 07:05:25,1807.6018644432447,36.500001168000004,0.0,0.6225960199230721,1807.6018644432447,36.500001168000004,1.1375990581936,0.926148029636736,1684,0.0,99,GPS_Atti,
0.357669351653089,36.8938366113523,18100,2017-11-07 07:05:25,1808.1018644592446,37.000001184000006,0.0,0.635231020327392,1808.1018644592446,37.000001184000006,1.1375990581936,0.926148029636736,1684,0.0,99,GPS_Atti,
0.35766935497654,36.8938364612134,18200,2017-11-07 07:05:25,1808.7018644784448,37.60000120320001,0.35999970196000003,0.6492350207755201,1808.7018644784448,37.60000120320001,1.1375990581936,0.926148029636736,1684,0.0,99,GPS_Atti,
0.357669341567932,36.893836313845206,18300,2017-11-07 07:05:25,1809.3018644976446,38.2000012224,0.35999970196000003,0.6640470212495039,1809.3018644976446,38.2000012224,1.1375990581936,0.926148029636736,1684,0.0,99,GPS_Atti,
0.357669325451425,36.8938361310097,18400,2017-11-07 07:05:26,1809.8018645136444,38.700001238400006,0.35999970196000003,0.6825000218399999,1809.8018645136444,38.700001238400006,1.1375990581936,0.926148029636736,1684,0.0,99,GPS_Atti,
0.35766927802217996,36.8938359780605,18500,2017-11-07 07:05:26,1810.4018645328447,39.3000012576,0.0,0.6998810223961921,1810.4018645328447,39.3000012576,1.1375990581936,0.926148029636736,1684,0.0,99,GPS_Atti,
0.35766921425333,36.8938358370008,18600,2017-11-07 07:05:26,1810.9018645488445,39.80000127360001,0.0,0.7170230229447361,1810.9018645488445,39.80000127360001,1.1375990581936,0.926148029636736,1684,0.0,99,GPS_Atti,
0.35766915871077,36.893835725265205,18700,2017-11-07 07:05:26,1811.4018645648448,40.3000012896,0.0,0.730879023388128,1811.4018645648448,40.3000012896,1.1375990581936,0.926148029636736,1684,0.0,99,GPS_Atti,
0.357669138733629,36.8938355932242,18800,2017-11-07 07:05:26,1812.0018645840446,40.90000130880001,0.0,0.7447750238328,1812.0018645840446,40.90000130880001,1.1375990581936,0.926148029636736,1684,0.0,99,GPS_Atti,
0.35766911999512396,36.8938354924478,18900,2017-11-07 07:05:26,1812.5018646000444,41.4000013248,0.0,0.755593024178976,1812.5018646000444,41.4000013248,1.1375990581936,0.926148029636736,1684,0.0,99,GPS_Atti,
0.357669093985617,36.8938354092603,19000,2017-11-07 07:05:26,1813.0018646160447,41.9000013408,0.0,0.7650960244830721,1813.0018646160447,41.9000013408,1.1375990581936,0.926148029636736,1684,0.0,99,GPS_Atti,
0.35766905222071,36.893835360303996,19100,2017-11-07 07:05:26,1813.5018646320445,42.4000013568,0.0,0.7721010247072322,1813.5018646320445,42.4000013568,1.1375990581936,0.926148029636736,1684,0.0,99,GPS_Atti,
0.357669032671647,36.8938352728673,19200,2017-11-07 07:05:26,1814.0018646480446,42.900001372800006,0.0,0.781677025013664,1814.0018646480446,42.900001372800006,1.1375990581936,0.926148029636736,1684,0.0,99,GPS_Atti,
0.35766901816058294,36.89383520802979,19300,2017-11-07 07:05:26,1814.6018646672446,43.500001391999994,0.0,0.788784025241088,1814.6018646672446,43.500001391999994,1.1375990581936,0.926148029636736,1684,0.0,99,GPS_Atti,
0.357669014597954,36.8938351362816,19400,2017-11-07 07:05:27,1815.1018646832445,44.00000140800001,0.0,0.795999025471968,1815.1018646832445,44.00000140800001,1.1375990581936,0.926148029636736,1684,0.0,99,GPS_Atti,
0.357669015695322,36.8938350892888,19500,2017-11-07 07:05:27,1815.6018646992447,44.500001424,0.0,0.8005530256176961,1815.6018646992447,44.500001424,1.1375990581936,0.926148029636736,1684,0.0,99,GPS_Atti,
0.357669037479424,36.8938350032685,19600,2017-11-07 07:05:27,1816.1018647152446,45.00000144,0.0,0.807893025852576,1816.1018647152446,45.00000144,1.1375990581936,0.926148029636736,1684,0.0,99,GPS_Atti,
0.35766905154755196,36.8938349352792,19700,2017-11-07 07:05:27,1816.6018647312446,45.50000145600001,0.0,0.8138930260445759,1816.6018647312446,45.50000145600001,1.1375990581936,0.926148029636736,1684,0.0,99,GPS_Atti,
0.35766908814805204,36.893834822270705,19800,2017-11-07 07:05:27,1817.1018647472447,46.000001471999994,0.0,0.8232710263446721,1817.1018647472447,46.000001471999994,1.1375990581936,0.926148029636736,1684,0.0,99,GPS_Atti,
0.357669120447628,36.8938347361299,19900,2017-11-07 07:05:27,1817.6018647632447,46.50000148800001,0.0,0.8302750265688001,1817.6018647632447,46.50000148800001,1.1375990581936,0.926148029636736,1684,0.0,99,GPS_Atti,
0.35766916302655294,36.8938346598858,20000,2017-11-07 07:05:27,1818.1018647792446,47.000001504000004,0.0,0.83586002674752,1818.1018647792446,47.000001504000004,1.1375990581936,0.926148029636736,1684,0.0,99,GPS_Atti,
0.35766920465121,36.893834625961205,20100,2017-11-07 07:05:27,1818.7018647984448,47.60000152320001,0.0,0.837299026793568,1818.7018647984448,47.60000152320001,1.1375990581936,0.926148029636736,1684,0.0,99,GPS_Atti,
0.357669243824245,36.8938345791627,20200,2017-11-07 07:05:27,1819.2018648144447,48.1000015392,0.0,0.840193026886176,1819.2018648144447,48.1000015392,1.1375990581936,0.926148029636736,1684,0.0,99,GPS_Atti,
0.357669267090435,36.8938345444336,20300,2017-11-07 07:05:27,1819.7018648304445,48.6000015552,0.0,0.8426350269643199,1819.7018648304445,48.6000015552,1.1375990581936,0.926148029636736,1684,0.0,99,GPS_Atti,
0.35766929114682794,36.89383449214571,20400,2017-11-07 07:05:28,1820.2018648464448,49.1000015712,0.0,0.846844027099008,1820.2018648464448,49.1000015712,1.1375990581936,0.926148029636736,1684,0.0,99,GPS_Atti,
0.35766929717186696,36.8938344760535,20500,2017-11-07 07:05:28,1820.7018648624446,49.6000015872,0.0,0.8482060271425922,1820.7018648624446,49.6000015872,1.1375990581936,0.926148029636736,1684,0.0,99,GPS_Atti,
0.357669304547497,36.89383444806221,20600,2017-11-07 07:05:28,1821.3018648816444,50.200001606399994,0.0,0.8507210272230721,1821.3018648816444,50.200001606399994,1.1375990581936,0.926148029636736,1684,0.0,99,GPS_Atti,
0.357669305896663,36.8938344376255,20700,2017-11-07 07:05:28,1821.7018648944447,50.6000016192,0.0,0.851723027255136,1821.7018648944447,50.6000016192,1.1375990581936,0.926148029636736,1684,0.0,99,GPS_Atti,
0.35766931929896006,36.893834419019605,20800,2017-11-07 07:05:28,1822.3018649136445,51.20000163840001,0.0,0.853019027296608,1822.3018649136445,51.20000163840001,1.1375990581936,0.926148029636736,1684,0.0,99,GPS_Atti,
0.35766933178200105,36.8938344319995,20900,2017-11-07 07:05:28,1822.8018649296446,51.700001654400005,0.0,0.8511410272365122,1822.8018649296446,51.700001654400005,1.1375990581936,0.926148029636736,1684,0.0,99,GPS_Atti,
0.35766935914698494,36.893834424755894,21000,2017-11-07 07:05:28,1823.3018649456446,52.200001670400006,0.0,0.850668027221376,1823.3018649456446,52.200001670400006,1.1375990581936,0.926148029636736,1684,0.0,99,GPS_Atti,
0.35766937920880393,36.8938344487051,21100,2017-11-07 07:05:28,1823.7018649584447,52.600001683200006,0.0,0.847339027114848,1823.7018649584447,52.600001683200006,1.1375990581936,0.926148029636736,1684,0.0,99,GPS_Atti,
0.35766943330245704,36.8938344610299,21200,2017-11-07 07:05:28,1824.2018649744446,53.1000016992,0.0,0.843717026998944,1824.2018649744446,53.1000016992,1.1375990581936,0.926148029636736,1684,0.0,99,GPS_Atti,
0.35766949439618,36.8938344952515,21300,2017-11-07 07:05:28,1824.7018649904446,53.6000017152,0.0,0.837578026802496,1824.7018649904446,53.6000017152,1.1375990581936,0.926148029636736,1588,0.0,99,GPS_Atti,
0.357669568372116,36.8938344856921,21400,2017-11-07 07:05:29,1825.3018650096446,54.200001734400004,0.0,0.835433026733856,1825.3018650096446,54.200001734400004,1.1375990581936,0.926148029636736,1475,0.0,99,GPS_Atti,
0.35766960106516493,36.893834480625,21500,2017-11-07 07:05:29,1825.8018650256445,54.700001750400006,0.0,0.834597026707104,1825.8018650256445,54.700001750400006,1.1375990581936,0.926148029636736,1419,0.0,99,GPS_Atti,
0.35766961099012395,36.8938344478214,21600,2017-11-07 07:05:29,1826.2018650384446,55.1000017632,0.0,0.837576026802432,1826.2018650384446,55.1000017632,1.1375990581936,0.926148029636736,1391,0.0,99,GPS_Atti,
0.35766959502852297,36.8938344322527,21700,2017-11-07 07:05:29,1826.6018650512447,55.500001776,0.0,0.839841026874912,1826.6018650512447,55.500001776,1.1375990581936,0.926148029636736,1345,0.0,99,GPS_Atti,
0.357669575974914,36.893834390097396,21800,2017-11-07 07:05:29,1826.9018650608446,55.8000017856,0.0,0.8449810270393922,1826.9018650608446,55.8000017856,1.1375990581936,0.926148029636736,1277,0.0,99,GPS_Atti,
0.357669540409086,36.8938343480182,21900,2017-11-07 07:05:29,1827.2018650704447,56.10000179520001,0.0,0.850794027225408,1827.2018650704447,56.10000179520001,1.1375990581936,0.926148029636736,1252,0.0,99,GPS_Atti,
0.3576695100255779,36.893834234142,22000,2017-11-07 07:05:29,1827.4018650768446,56.3000018016,0.0,0.863806027641792,1827.4018650768446,56.3000018016,1.1375990581936,0.926148029636736,1198,0.0,99,GPS_Atti,
0.357669461896509,36.8938341331113,22100,2017-11-07 07:05:29,1827.6018650832445,56.50000180800001,0.0,0.8762260280392321,1827.6018650832445,56.50000180800001,1.1375990581936,0.926148029636736,1155,0.0,99,GPS_Atti,
0.3576694369544461,36.893834023730605,22200,2017-11-07 07:05:29,1827.7018650864445,56.600001811199995,0.0,0.8885510284336322,1827.7018650864445,56.600001811199995,1.1375990581936,0.926148029636736,1114,0.0,99,GPS_Atti,
0.357669393642314,36.8938338963301,22300,2017-11-07 07:05:29,1827.8018650896445,56.700001814400004,0.0,0.90349502891184,1827.8018650896445,56.700001814400004,1.1375990581936,0.926148029636736,1032,0.0,99,GPS_Atti,
0.3576693596399961,36.8938337141396,22400,2017-11-07 07:05:30,1827.9018650928447,56.80000181760001,0.0,0.92373002955936,1827.9018650928447,56.80000181760001,1.1375990581936,0.926148029636736,1024,0.0,99,GPS_Atti,
0.35766931701527094,36.89383353253589,22500,2017-11-07 07:05:30,1828.0018650960446,56.90000182080001,0.0,0.9442660302165121,1828.0018650960446,56.90000182080001,1.1375990581936,0.9442660302165121,1024,0.0,99,GPS_Atti,
0.357669300465598,36.893833309554,22600,2017-11-07 07:05:30,1828.1018650992446,57.000001824,0.0,0.968074030978368,1828.1018650992446,57.000001824,1.1375990581936,0.968074030978368,1024,0.0,99,GPS_Atti,
0.357669288074361,36.8938330979725,22700,2017-11-07 07:05:30,1828.1018650992446,57.000001824,0.0,0.990584031698688,1828.1018650992446,57.000001824,1.1375990581936,0.990584031698688,1024,0.0,99,GPS_Atti,
0.35766929503901207,36.893832916714004,22800,2017-11-07 07:05:30,1828.2018651024448,57.100001827199996,0.0,1.00924003229568,1828.2018651024448,57.100001827199996,1.1375990581936,1.00924003229568,1024,-1.3,99,GPS_Atti,
0.357669274118596,36.8938327254122,22900,2017-11-07 07:05:30,1828.2018651024448,57.100001827199996,0.0,1.0300400329612802,1828.2018651024448,57.100001827199996,1.1375990581936,1.0300400329612802,1024,-6.8,99,GPS_Atti,
0.357669246126865,36.8938324916067,23000,2017-11-07 07:05:30,1828.3018651056448,57.200001830400005,0.0,1.05559003377888,1828.3018651056448,57.200001830400005,1.1375990581936,1.05559003377888,1024,-12.4,99,GPS_Atti,
0.35766920712970207,36.893832232367004,23100,2017-11-07 07:05:30,1828.3018651056448,57.200001830400005,0.0,1.0842400346956802,1828.3018651056448,57.200001830400005,1.1375990581936,1.0842400346956802,1024,-18.0,99,GPS_Atti,
0.357669173874026,36.8938319350504,23200,2017-11-07 07:05:30,1828.3018651056448,57.200001830400005,0.0,1.1167200357350402,1828.3018651056448,57.200001830400005,1.1375990581936,1.1167200357350402,1024,-23.7,99,GPS_Atti,
0.357669104123699,36.8938316302354,23300,2017-11-07 07:05:30,1828.4018651088447,57.3000018336,0.0,1.15132003684224,1828.4018651088447,57.3000018336,1.1375990581936,1.15132003684224,1024,-29.3,99,GPS_Atti,
0.35766901412041296,36.893831270724604,23400,2017-11-07 07:05:31,1828.4018651088447,57.3000018336,0.0,1.19241003815712,1828.4018651088447,57.3000018336,1.1375990581936,1.19241003815712,1024,-35.0,99,GPS_Atti,
0.357668903960858,36.89383091538279,23500,2017-11-07 07:05:31,1828.4018651088447,57.3000018336,0.0,1.2337800394809602,1828.4018651088447,57.3000018336,1.1375990581936,1.2337800394809602,1024,-40.7,99,GPS_Atti,
0.357668814222806,36.8938304537991,23600,2017-11-07 07:05:31,1828.4018651088447,57.3000018336,0.0,1.28566004114112,1828.4018651088447,57.3000018336,1.1375990581936,1.28566004114112,1024,-46.3,99,GPS_Atti,
0.35766871260077604,36.8938300064855,23700,2017-11-07 07:05:31,1828.3018651056448,57.200001830400005,0.0,1.3364700427670402,1828.4018651088447,57.3000018336,1.1375990581936,1.3364700427670402,1024,-51.9,99,GPS_Atti,
0.35766864816324706,36.8938295704056,23800,2017-11-07 07:05:31,1828.3018651056448,57.200001830400005,0.0,1.3848500443152,1828.4018651088447,57.3000018336,1.1375990581936,1.3848500443152,1024,-57.6,99,GPS_Atti,
0.35766856208166203,36.8938291908126,23900,2017-11-07 07:05:31,1828.2018651024448,57.100001827199996,0.0,1.4279900456956802,1828.4018651088447,57.3000018336,1.1375990581936,1.4279900456956802,1024,-63.2,99,GPS_Atti,
0.35766848525574496,36.8938288034021,24000,2017-11-07 07:05:31,1828.2018651024448,57.100001827199996,0.0,1.4716700470934398,1828.4018651088447,57.3000018336,1.1375990581936,1.4716700470934398,1024,-68.8,99,GPS_Atti,
0.35766837470190294,36.893828444174,24100,2017-11-07 07:05:31,1828.1018650992446,57.000001824,0.0,1.5134600484307201,1828.4018651088447,57.3000018336,1.1375990581936,1.5134600484307201,1024,-68.8,99,GPS_Atti,
0.35766826663062495,36.8938281197649,24200,2017-11-07 07:05:31,1828.1018650992446,57.000001824,0.0,1.55148004964736,1828.4018651088447,57.3000018336,1.1375990581936,1.55148004964736,1024,-74.5,99,GPS_Atti,
0.35766814539296904,36.893827853823204,24300,2017-11-07 07:05:31,1828.1018650992446,57.000001824,0.0,1.58372005067904,1828.4018651088447,57.3000018336,1.1375990581936,1.58372005067904,1024,-80.2,99,GPS_Atti,
0.357668056951769,36.8938275919295,24400,2017-11-07 07:05:32,1828.1018650992446,57.000001824,0.0,1.6144500516624003,1828.4018651088447,57.3000018336,1.1375990581936,1.6144500516624003,1024,-85.8,99,GPS_Atti,
0.35766797574493,36.8938273562536,24500,2017-11-07 07:05:32,1828.1018650992446,57.000001824,0.0,1.6421600525491205,1828.4018651088447,57.3000018336,1.1375990581936,1.6421600525491205,1024,-89.9,99,GPS_Atti,
0.35766794195553203,36.8938271125718,24600,2017-11-07 07:05:32,1828.1018650992446,57.000001824,0.0,1.6691500534128003,1828.4018651088447,57.3000018336,1.1375990581936,1.6691500534128003,1024,-89.9,99,GPS_Atti,
0.35766789819354206,36.893826907848,24700,2017-11-07 07:05:32,1828.1018650992446,57.000001824,0.0,1.6923400541548799,1828.4018651088447,57.3000018336,1.1375990581936,1.6923400541548799,1024,-89.9,99,GPS_Atti,
0.357667885402521,36.893826743982395,24800,2017-11-07 07:05:32,1828.1018650992446,57.000001824,0.0,1.71017005472544,1828.4018651088447,57.3000018336,1.1375990581936,1.71017005472544,1024,-89.9,99,GPS_Atti,
0.35766786025771796,36.8938266305965,24900,2017-11-07 07:05:32,1828.1018650992446,57.000001824,0.0,1.7230500551376002,1828.4018651088447,57.3000018336,1.1375990581936,1.7230500551376002,1024,-89.9,99,GPS_Atti,
0.357667817998782,36.8938264935762,25000,2017-11-07 07:05:32,1828.2018651024448,57.100001827199996,0.0,1.7389900556476798,1828.4018651088447,57.3000018336,1.1375990581936,1.7389900556476798,1024,-89.9,99,GPS_Atti,
0.35766775610325396,36.893826386640704,25100,2017-11-07 07:05:32,1828.2018651024448,57.100001827199996,0.0,1.75238005607616,1828.4018651088447,57.3000018336,1.1375990581936,1.75238005607616,1024,-89.9,99,GPS_Atti,
0.35766770876438697,36.8938262851973,25200,2017-11-07 07:05:32,1828.2018651024448,57.100001827199996,0.0,1.76471005647072,1828.4018651088447,57.3000018336,1.1375990581936,1.76471005647072,1056,-89.9,99,GPS_Atti,
0.35766765957031504,36.8938262273444,25300,2017-11-07 07:05:32,1828.2018651024448,57.100001827199996,0.0,1.7724800567193604,1828.4018651088447,57.3000018336,1.1375990581936,1.7724800567193604,1104,-89.9,99,GPS_Atti,
0.357667620532034,36.8938261380716,25400,2017-11-07 07:05:33,1828.2018651024448,57.100001827199996,0.0,1.783250057064,1828.4018651088447,57.3000018336,1.1375990581936,1.783250057064,1170,-89.9,99,GPS_Atti,
0.357667580695002,36.8938260885554,25500,2017-11-07 07:05:33,1828.2018651024448,57.100001827199996,0.35999970196000003,1.7898200572742402,1828.4018651088447,57.3000018336,1.1375990581936,1.7898200572742402,1249,-89.9,99,GPS_Atti,
0.357667553197096,36.8938261031551,25600,2017-11-07 07:05:33,1828.1018650992446,57.000001824,0.35999970196000003,1.7891900572540802,1828.4018651088447,57.3000018336,1.1375990581936,1.7898200572742402,1307,-89.9,99,GPS_Atti,
0.357667534150001,36.8938261633291,25700,2017-11-07 07:05:33,1828.1018650992446,57.000001824,0.35999970196000003,1.7834500570704,1828.4018651088447,57.3000018336,1.1375990581936,1.7898200572742402,1382,-89.9,99,GPS_Atti,
0.357667525235899,36.8938261940884,25800,2017-11-07 07:05:33,1828.2018651024448,57.100001827199996,0.35999970196000003,1.78049005697568,1828.4018651088447,57.3000018336,1.1375990581936,1.7898200572742402,1445,-90.0,99,GPS_Atti,
0.357667512106976,36.8938262331449,25900,2017-11-07 07:05:33,1828.3018651056448,57.200001830400005,0.35999970196000003,1.7768000568576003,1828.4018651088447,57.3000018336,1.1375990581936,1.7898200572742402,1497,-90.0,98,GPS_Atti,
0.35766751336657704,36.893826293686104,26000,2017-11-07 07:05:33,1828.5018651120445,57.4000018368,0.35999970196000003,1.7703500566512,1828.5018651120445,57.4000018368,1.1375990581936,1.7898200572742402,1497,-90.0,98,GPS_Atti,
0.357667513187856,36.893826394361795,26100,2017-11-07 07:05:33,1828.7018651184446,57.600001843200005,0.35999970196000003,1.7597000563104,1828.7018651184446,57.600001843200005,1.1375990581936,1.7898200572742402,1540,-89.9,98,GPS_Atti,
0.357667524075225,36.8938265301381,26200,2017-11-07 07:05:33,1828.9018651248446,57.8000018496,0.35999970196000003,1.7449700558390402,1828.9018651248446,57.8000018496,1.1375990581936,1.7898200572742402,1584,-89.9,98,GPS_Atti,
0.357667542698111,36.893826691126996,26300,2017-11-07 07:05:33,1829.2018651344447,58.100001859200006,0.35999970196000003,1.72731005527392,1829.2018651344447,58.100001859200006,1.1375990581936,1.7898200572742402,1596,-89.9,98,GPS_Atti,
0.357667636051106,36.8938268692915,26400,2017-11-07 07:05:34,1829.4018651408448,58.30000186560001,0.35999970196000003,1.705250054568,1829.4018651408448,58.30000186560001,1.1375990581936,1.7898200572742402,1684,-90.0,98,GPS_Atti,
0.357667774560852,36.8938270722414,26500,2017-11-07 07:05:34,1829.8018651536447,58.7000018784,0.5075995797636,1.67903005372896,1829.8018651536447,58.7000018784,1.1375990581936,1.7898200572742402,1684,-90.0,98,GPS_Atti,
0.357667980021224,36.893827307468705,26600,2017-11-07 07:05:34,1830.1018651632446,59.000001888,0.8063993323904,1.6472000527104,1830.1018651632446,59.000001888,1.1375990581936,1.7898200572742402,1684,-90.0,98,GPS_Atti,
0.3576681680324121,36.893827605167395,26700,2017-11-07 07:05:34,1830.5018651760447,59.4000019008,0.7199994039200001,1.6094000515008002,1830.5018651760447,59.4000019008,1.1375990581936,1.7898200572742402,1684,-90.0,98,GPS_Atti,
0.35766834526655705,36.893827966094605,26800,2017-11-07 07:05:34,1830.9018651888448,59.800001913600006,0.7199994039200001,1.56528005008896,1830.9018651888448,59.800001913600006,1.1375990581936,1.7898200572742402,1684,-90.0,98,GPS_Atti,
0.35766847850462297,36.89382834941971,26900,2017-11-07 07:05:34,1831.3018652016447,60.2000019264,0.7199994039200001,1.52019004864608,1831.3018652016447,60.2000019264,1.1375990581936,1.7898200572742402,1684,-89.9,98,GPS_Atti,
0.35766865415429205,36.8938287665639,27000,2017-11-07 07:05:34,1831.8018652176447,60.7000019424,0.7199994039200001,1.4701600470451202,1831.8018652176447,60.7000019424,1.1375990581936,1.7898200572742402,1684,-90.0,98,GPS_Atti,
0.35766881053275196,36.893829212317705,27100,2017-11-07 07:05:34,1832.2018652304446,61.10000195520001,0.7199994039200001,1.4177000453664002,1832.2018652304446,61.10000195520001,1.1375990581936,1.7898200572742402,1684,-89.9,98,GPS_Atti,
0.357668975572701,36.8938296890845,27200,2017-11-07 07:05:34,1832.7018652464446,61.6000019712,0.7199994039200001,1.36167004357344,1832.7018652464446,61.6000019712,1.1375990581936,1.7898200572742402,1684,-89.9,98,GPS_Atti,
0.357669121265514,36.8938301558755,27300,2017-11-07 07:05:34,1833.2018652624447,62.1000019872,0.7199994039200001,1.3073000418336,1833.2018652624447,62.1000019872,1.1375990581936,1.7898200572742402,1684,-89.9,98,GPS_Atti,
0.35766930945379494,36.8938306249448,27400,2017-11-07 07:05:35,1833.7018652784448,62.600002003200004,0.7199994039200001,1.25139004004448,1833.7018652784448,62.600002003200004,1.1375990581936,1.7898200572742402,1684,-90.0,98,GPS_Atti,
0.35766949029881107,36.8938310860445,27500,2017-11-07 07:05:35,1834.2018652944446,63.100002019200005,0.35999970196000003,1.19657003829024,1834.2018652944446,63.100002019200005,1.1375990581936,1.7898200572742402,1684,-90.0,98,GPS_Atti,
0.357669722435742,36.8938315498935,27600,2017-11-07 07:05:35,1834.7018653104444,63.600002035200006,0.35999970196000003,1.1399900364796802,1834.7018653104444,63.600002035200006,1.1375990581936,1.7898200572742402,1684,-90.0,98,GPS_Atti,
0.35766993182188506,36.89383200500961,27700,2017-11-07 07:05:35,1835.2018653264447,64.1000020512,0.35999970196000003,1.08511003472352,1835.2018653264447,64.1000020512,1.1375990581936,1.7898200572742402,1684,-90.0,98,GPS_Atti,
0.357670164868302,36.893832453739705,27800,2017-11-07 07:05:35,1835.7018653424445,64.60000206720001,0.35999970196000003,1.0303600329715201,1835.7018653424445,64.60000206720001,1.1375990581936,1.7898200572742402,1684,-89.9,98,GPS_Atti,
0.357670363336746,36.8938328888624,27900,2017-11-07 07:05:35,1836.2018653584446,65.1000020832,0.35999970196000003,0.9781370313003841,1836.2018653584446,65.1000020832,1.1375990581936,1.7898200572742402,1684,-89.9,98,GPS_Atti,
0.357670562645671,36.893833338734204,28000,2017-11-07 07:05:35,1836.7018653744447,65.60000209920001,0.35999970196000003,0.924402029580864,1836.7018653744447,65.60000209920001,1.1375990581936,1.7898200572742402,1684,-90.0,98,GPS_Atti,
0.35767074874425103,36.8938337671829,28100,2017-11-07 07:05:35,1837.2018653904447,66.10000211520001,0.35999970196000003,0.8734250279496001,1837.2018653904447,66.10000211520001,1.1375990581936,1.7898200572742402,1684,-90.0,98,GPS_Atti,
0.357670959045275,36.8938341692124,28200,2017-11-07 07:05:35,1837.7018654064445,66.6000021312,0.35999970196000003,0.8249260263976322,1837.7018654064445,66.6000021312,1.1375990581936,1.7898200572742402,1684,-90.0,98,GPS_Atti,
0.357671134693315,36.8938345593016,28300,2017-11-07 07:05:35,1838.2018654224448,67.10000214720002,0.35999970196000003,0.778667024917344,1838.2018654224448,67.10000214720002,1.1375990581936,1.7898200572742402,1684,-90.0,98,GPS_Atti,
0.35767132701937,36.89383494024511,28400,2017-11-07 07:05:36,1838.7018654384447,67.60000216319999,0.35999970196000003,0.7332770234648641,1838.7018654384447,67.60000216319999,1.1375990581936,1.7898200572742402,1684,-90.0,98,GPS_Atti,
0.357671495798481,36.893835303837,28500,2017-11-07 07:05:36,1839.2018654544445,68.1000021792,0.35999970196000003,0.690449022094368,1839.2018654544445,68.1000021792,1.1375990581936,1.7898200572742402,1684,-90.0,98,GPS_Atti,
0.35767166232382597,36.893835657013604,28600,2017-11-07 07:05:36,1839.7018654704448,68.6000021952,0.35999970196000003,0.6490380207692161,1839.7018654704448,68.6000021952,1.1375990581936,1.7898200572742402,1684,-89.9,98,GPS_Atti,
0.357671789014123,36.893835989183394,28700,2017-11-07 07:05:36,1840.2018654864446,69.1000022112,0.35999970196000003,0.610701019542432,1840.2018654864446,69.1000022112,1.1375990581936,1.7898200572742402,1684,-89.9,98,GPS_Atti,
0.35767191850175606,36.8938363078129,28800,2017-11-07 07:05:36,1840.7018655024447,69.60000222720001,0.35999970196000003,0.5739970183679041,1840.7018655024447,69.60000222720001,1.1375990581936,1.7898200572742402,1684,-90.0,98,GPS_Atti,
0.35767202686895294,36.8938365962516,28900,2017-11-07 07:05:36,1841.2018655184445,70.1000022432,0.35999970196000003,0.541029017312928,1841.2018655184445,70.1000022432,1.1375990581936,1.7898200572742402,1684,-90.0,98,GPS_Atti,
0.35767214149810905,36.893836859502294,29000,2017-11-07 07:05:36,1841.8018655376447,70.7000022624,0.35999970196000003,0.5109900163516801,1841.8018655376447,70.7000022624,1.1375990581936,1.7898200572742402,1684,-89.9,98,GPS_Atti,
0.35767221899003604,36.893837106641605,29100,2017-11-07 07:05:36,1842.3018655536446,71.2000022784,0.35999970196000003,0.483132015460224,1842.3018655536446,71.2000022784,1.1375990581936,1.7898200572742402,1684,-90.0,98,GPS_Atti,
0.35767229388698296,36.893837369268105,29200,2017-11-07 07:05:36,1842.8018655696446,71.7000022944,0.35999970196000003,0.45367601451763206,1842.8018655696446,71.7000022944,1.1375990581936,1.7898200572742402,1684,-90.0,98,GPS_Atti,
0.357672343516224,36.8938376258032,29300,2017-11-07 07:05:36,1843.3018655856447,72.2000023104,0.35999970196000003,0.42505201360166406,1843.3018655856447,72.2000023104,1.1375990581936,1.7898200572742402,1684,-90.0,98,GPS_Atti,
