latitude,longitude,time_millisecond,datetime_utc,altitude_m,ascent_m,speed_kph,distance_m,max_altitude_m,max_ascent_m,max_speed_kph,max_distance_m,rc_throttle,gimbal_pitch_degrees,battery_percent,flycState,message
0.356690786535264,36.8968518663759,100,2017-11-14 07:44:55,1770.531428757015,0.0,0.0,0.0,1770.531428757015,0.0,0.0,0.0,1024,0.0,99,Motors_Started,
0.356690842897746,36.8968519076313,200,2017-11-14 07:44:55,1770.531428757015,0.0,0.0,0.00776747024855904,1770.531428757015,0.0,0.0,0.00776747024855904,1024,0.0,99,Motors_Started,
0.356690907454152,36.8968519649077,300,2017-11-14 07:44:55,1770.531428757015,0.0,0.0,0.017345800555065603,1770.531428757015,0.0,0.0,0.017345800555065603,1024,0.0,99,Motors_Started,
0.35669094615738,36.8968519972114,400,2017-11-14 07:44:55,1770.531428757015,0.0,0.0,0.0229517007344544,1770.531428757015,0.0,0.0,0.0229517007344544,1024,0.0,99,Motors_Started,
0.356690996509683,36.8968520433445,500,2017-11-14 07:44:55,1770.531428757015,0.0,0.0,0.0305373009771936,1770.531428757015,0.0,0.0,0.0305373009771936,1024,0.0,99,Motors_Started,Setting new Return-To-Home altitude to 30m (98 ft). Setting new Maximum Flight Altitude to 150m (492 ft)
0.356691027971221,36.8968521121335,600,2017-11-14 07:44:55,1770.531428757015,0.0,0.0,0.038311401225964804,1770.531428757015,0.0,0.0,0.038311401225964804,1024,0.0,99,Motors_Started,Home Point Recorded. RTH Altitude:  30m.
0.356691071573216,36.8968521841006,700,2017-11-14 07:44:55,1770.531428757015,0.0,0.0,0.0474671015189472,1770.531428757015,0.0,0.0,0.0474671015189472,1007,0.0,99,Motors_Started,
0.356691142758202,36.8968521972524,800,2017-11-14 07:44:55,1770.531428757015,0.0,0.0,0.054066001730112,1770.531428757015,0.0,0.0,0.054066001730112,1024,0.0,99,Motors_Started,
0.356691213163164,36.8968522285893,900,2017-11-14 07:44:55,1770.531428757015,0.0,0.0,0.0622362019915584,1770.531428757015,0.0,0.0,0.0622362019915584,1024,0.0,99,Motors_Started,
0.356691267742093,36.8968522490082,1000,2017-11-14 07:44:56,1770.531428757015,0.0,0.0,0.068368002187776,1770.531428757015,0.0,0.0,0.068368002187776,1024,0.0,99,Motors_Started,
0.35669132566951,36.8968522832095,1100,2017-11-14 07:44:56,1770.531428757015,0.0,0.0,0.0757843024250976,1770.531428757015,0.0,0.0,0.0757843024250976,1024,0.0,99,Motors_Started,
0.356691371165793,36.8968523113876,1200,2017-11-14 07:44:56,1770.531428757015,0.0,0.0,0.0817059026145888,1770.531428757015,0.0,0.0,0.0817059026145888,1024,0.0,99,Motors_Started,
0.356691421404919,36.8968523501732,1300,2017-11-14 07:44:56,1770.531428757015,0.0,0.0,0.08876380284044161,1770.531428757015,0.0,0.0,0.08876380284044161,1024,0.0,99,Motors_Started,
0.356691419623401,36.8968523440451,1400,2017-11-14 07:44:56,1770.531428757015,0.0,0.0,0.08819420282221441,1770.531428757015,0.0,0.0,0.08876380284044161,1024,0.0,99,Motors_Started,
0.356691452528555,36.8968523734282,1600,2017-11-14 07:44:56,1770.531428757015,0.0,0.0,0.09308420297869441,1770.531428757015,0.0,0.0,0.09308420297869441,1024,0.0,99,Assisted_Takeoff,
0.356691478491652,36.8968523996647,1700,2017-11-14 07:44:56,1770.531428757015,0.0,0.0,0.09715050310881601,1770.531428757015,0.0,0.0,0.09715050310881601,1024,0.0,99,Assisted_Takeoff,
0.356691507832141,36.8968523930661,1800,2017-11-14 07:44:56,1770.531428757015,0.0,0.0,0.0993202031782464,1770.531428757015,0.0,0.0,0.0993202031782464,1024,0.0,99,Assisted_Takeoff,
0.356691541281195,36.8968523991824,1900,2017-11-14 07:44:57,1770.531428757015,0.0,0.0,0.102739003287648,1770.531428757015,0.0,0.0,0.102739003287648,1024,0.0,99,Assisted_Takeoff,
0.356691580726994,36.8968523389287,2000,2017-11-14 07:44:57,1770.531428757015,0.0,0.0,0.10277000328864001,1770.531428757015,0.0,0.0,0.10277000328864001,1024,0.0,99,Assisted_Takeoff,
0.356691621597682,36.8968523041557,2100,2017-11-14 07:44:57,1770.531428757015,0.0,0.0,0.10485100335523201,1770.531428757015,0.0,0.0,0.10485100335523201,1024,0.0,99,Assisted_Takeoff,
0.356691669075781,36.8968522551893,2200,2017-11-14 07:44:57,1770.531428757015,0.0,0.0,0.107246003431872,1770.531428757015,0.0,0.0,0.107246003431872,1024,0.0,99,Assisted_Takeoff,
0.356691714857855,36.8968522262265,2300,2017-11-14 07:44:57,1770.531428757015,0.0,0.0,0.11072000354304,1770.531428757015,0.0,0.0,0.11072000354304,1024,0.0,99,Assisted_Takeoff,
0.356691765616454,36.896852231891,2400,2017-11-14 07:44:57,1770.531428757015,0.0,0.0,0.11621900371900801,1770.531428757015,0.0,0.0,0.11621900371900801,1034,0.0,99,Assisted_Takeoff,
0.356691814391609,36.8968522398332,2500,2017-11-14 07:44:57,1770.531428757015,0.0,0.0,0.12161500389168,1770.531428757015,0.0,0.0,0.12161500389168,1034,0.0,99,Assisted_Takeoff,
0.356691864809049,36.8968522417764,2600,2017-11-14 07:44:57,1770.531428757015,0.0,0.0,0.12697000406304,1770.531428757015,0.0,0.0,0.12697000406304,1075,0.0,99,Assisted_Takeoff,
0.356691913593975,36.8968522452665,2700,2017-11-14 07:44:57,1770.531428757015,0.0,0.0,0.13222800423129602,1770.531428757015,0.0,0.0,0.13222800423129602,1075,0.0,99,Assisted_Takeoff,
0.356691968962699,36.8968522835617,2800,2017-11-14 07:44:57,1770.531428757015,0.0,0.0,0.139437004461984,1770.531428757015,0.0,0.0,0.139437004461984,1105,0.0,99,Assisted_Takeoff,
0.356692020768388,36.8968523136717,2900,2017-11-14 07:44:58,1770.531428757015,0.0,0.0,0.14598900467164802,1770.531428757015,0.0,0.0,0.14598900467164802,1105,0.0,99,Assisted_Takeoff,
0.356692116156123,36.8968523332278,3000,2017-11-14 07:44:58,1770.531428757015,0.0,0.0,0.156711005014752,1770.531428757015,0.0,0.0,0.156711005014752,1243,0.0,99,Assisted_Takeoff,
0.356692197678473,36.8968523513364,3100,2017-11-14 07:44:58,1770.531428757015,0.0,0.0,0.165936005309952,1770.531428757015,0.0,0.0,0.165936005309952,1347,0.0,99,Assisted_Takeoff,
0.35669227390675,36.8968523572161,3200,2017-11-14 07:44:58,1770.531428757015,0.0,0.0,0.174178005573696,1770.531428757015,0.0,0.0,0.174178005573696,1425,0.0,99,Assisted_Takeoff,
0.356692343561814,36.8968523633442,3300,2017-11-14 07:44:58,1770.531428757015,0.0,0.0,0.18175600581619203,1770.531428757015,0.0,0.0,0.18175600581619203,1445,0.0,99,Assisted_Takeoff,
0.356692437908159,36.8968523572916,3400,2017-11-14 07:44:58,1770.531428757015,0.0,0.0,0.19158500613072,1770.531428757015,0.0,0.0,0.19158500613072,1457,0.0,99,Assisted_Takeoff,
0.356692486767993,36.896852345257,3500,2017-11-14 07:44:58,1770.531428757015,0.0,0.0,0.19643300628585603,1770.531428757015,0.0,0.0,0.19643300628585603,1487,0.0,99,Assisted_Takeoff,Obstacle Avoided. Revise Flight Route
0.356692560538135,36.8968523535707,3600,2017-11-14 07:44:58,1770.531428757015,0.0,0.0,0.204584006546688,1770.531428757015,0.0,0.0,0.204584006546688,1525,0.0,99,GPS_Atti,Home Point Recorded. RTH Altitude:  30m.
0.356692650798714,36.896852347531,3700,2017-11-14 07:44:58,1770.531428757015,0.0,0.0,0.21411100685155202,1770.531428757015,0.0,0.0,0.21411100685155202,1540,0.0,99,GPS_Atti,
0.356692699353215,36.8968522802868,3800,2017-11-14 07:44:58,1770.531428757015,0.0,0.0,0.21764000696448,1770.531428757015,0.0,0.0,0.21764000696448,1546,0.0,99,GPS_Atti,
0.35669271275368,36.8968522077726,3900,2017-11-14 07:44:58,1770.631428760215,0.1000000032,0.35999970196000003,0.217546006961472,1770.631428760215,0.1000000032,0.35999970196000003,0.21764000696448,1555,0.0,99,GPS_Atti,
0.356692722858175,36.8968520974417,4000,2017-11-14 07:44:59,1770.8314287666149,0.3000000096,0.35999970196000003,0.216859006939488,1770.8314287666149,0.3000000096,0.35999970196000003,0.21764000696448,1560,0.0,99,GPS_Atti,Obstacle Avoided. Revise Flight Route
0.35669268500418,36.8968519748996,4100,2017-11-14 07:44:59,1770.9314287698148,0.4000000128,0.35999970196000003,0.21146600676691202,1770.9314287698148,0.4000000128,0.35999970196000003,0.21764000696448,1570,0.0,99,GPS_Atti,
0.356692598579401,36.8968518074251,4200,2017-11-14 07:44:59,1771.231428779415,0.7000000224,0.35999970196000003,0.20161700645174402,1771.231428779415,0.7000000224,0.35999970196000003,0.21764000696448,1571,0.0,99,GPS_Atti,
0.356692531137392,36.8968516653628,4300,2017-11-14 07:44:59,1771.4314287858151,0.9000000288000001,0.35999970196000003,0.19529400624940801,1771.4314287858151,0.9000000288000001,0.35999970196000003,0.21764000696448,1574,0.0,99,GPS_Atti,
0.356692501563221,36.8968515441386,4400,2017-11-14 07:44:59,1771.831428798615,1.3000000416000002,0.0,0.194059006209888,1771.831428798615,1.3000000416000002,0.35999970196000003,0.21764000696448,1575,0.0,99,GPS_Atti,
0.356692495515994,36.896851455672,4500,2017-11-14 07:44:59,1772.1314288082149,1.6000000512,0.0,0.19546000625472,1772.1314288082149,1.6000000512,0.35999970196000003,0.21764000696448,1576,0.0,99,GPS_Atti,
0.356692467040208,36.8968513650706,4600,2017-11-14 07:44:59,1772.5314288210147,2.000000064,0.35999970196000003,0.19502000624064003,1772.5314288210147,2.000000064,0.35999970196000003,0.21764000696448,1577,0.0,99,GPS_Atti,
0.356692399059185,36.8968513022437,4700,2017-11-14 07:44:59,1772.9314288338148,2.4000000768,0.35999970196000003,0.189979006079328,1772.9314288338148,2.4000000768,0.35999970196000003,0.21764000696448,1590,0.0,99,GPS_Atti,
0.356692261192674,36.8968512933513,4800,2017-11-14 07:44:59,1773.3314288466152,2.8000000896,0.35999970196000003,0.175936005629952,1773.3314288466152,2.8000000896,0.35999970196000003,0.21764000696448,1594,0.0,99,GPS_Atti,
0.356692148579258,36.8968512815051,4900,2017-11-14 07:45:00,1773.731428859415,3.2000001024,0.7199994039200001,0.16484100527491202,1773.731428859415,3.2000001024,0.7199994039200001,0.21764000696448,1597,0.0,99,GPS_Atti,
0.356691918225269,36.8968511643107,5100,2017-11-14 07:45:00,1774.631428888215,4.100000131200001,0.7199994039200001,0.14810000473920001,1774.631428888215,4.100000131200001,0.7199994039200001,0.21764000696448,1586,0.0,99,GPS_Atti,
0.356691778289006,36.8968510319474,5200,2017-11-14 07:45:00,1775.031428901015,4.500000144,0.8063993323904,0.144132004612224,1775.031428901015,4.500000144,0.8063993323904,0.21764000696448,1587,0.0,99,GPS_Atti,
0.356691628662686,36.8968508453387,5300,2017-11-14 07:45:00,1775.431428913815,4.9000001568,1.0187991565468,0.147181004709792,1775.431428913815,4.9000001568,1.0187991565468,0.21764000696448,1598,0.0,99,GPS_Atti,
0.35669142595642,36.8968505893719,5400,2017-11-14 07:45:00,1775.831428926615,5.3000001696000005,1.0187991565468,0.158816005082112,1775.831428926615,5.3000001696000005,1.0187991565468,0.21764000696448,1601,0.0,99,GPS_Atti,
0.356691243919179,36.8968503568372,5500,2017-11-14 07:45:00,1776.2314289394149,5.7000001824,1.0187991565468,0.175403005612896,1776.2314289394149,5.7000001824,1.0187991565468,0.21764000696448,1598,-0.1,99,GPS_Atti,
0.356691115174804,36.8968501362241,5600,2017-11-14 07:45:00,1776.631428952215,6.100000195200001,0.8063993323904,0.19584000626688003,1776.631428952215,6.100000195200001,1.0187991565468,0.21764000696448,1599,-0.1,99,GPS_Atti,
0.356691019423111,36.8968499461327,5700,2017-11-14 07:45:00,1777.0314289650148,6.500000208,0.8063993323904,0.215103006883296,1777.0314289650148,6.500000208,1.0187991565468,0.21764000696448,1604,-1.6,99,GPS_Atti,
0.356690911138913,36.8968496472055,5900,2017-11-14 07:45:01,1777.831428990615,7.3000002336000005,0.5075995797636,0.24716900790940802,1777.831428990615,7.3000002336000005,1.0187991565468,0.24716900790940802,1595,-2.3,99,GPS_Atti,
0.356690897733969,36.8968495467118,6000,2017-11-14 07:45:01,1778.2314290034149,7.7000002464,0.5075995797636,0.25825200826406397,1778.2314290034149,7.7000002464,1.0187991565468,0.25825200826406397,1590,-2.9,99,GPS_Atti,
0.356690900278413,36.8968494764539,6100,2017-11-14 07:45:01,1778.631429016215,8.1000002592,0.5075995797636,0.26607000851424,1778.631429016215,8.1000002592,1.0187991565468,0.26607000851424,1586,-3.5,99,GPS_Atti,
0.356690866074983,36.8968494623466,6200,2017-11-14 07:45:01,1779.0314290290148,8.500000272,0.35999970196000003,0.267484008559488,1779.0314290290148,8.500000272,1.0187991565468,0.267484008559488,1592,-3.6,99,GPS_Atti,
0.356690779393723,36.8968496490116,6400,2017-11-14 07:45:01,1779.8314290546148,9.3000002976,0.35999970196000003,0.246581007890592,1779.8314290546148,9.3000002976,1.0187991565468,0.267484008559488,1596,-3.6,99,GPS_Atti,
0.356690765225853,36.8968497665,6500,2017-11-14 07:45:01,1780.331429070615,9.8000003136,0.0,0.233526007472832,1780.331429070615,9.8000003136,1.0187991565468,0.267484008559488,1589,-3.6,99,GPS_Atti,
0.356690804291003,36.8968500107914,6700,2017-11-14 07:45:01,1781.131429096215,10.600000339200001,0.35999970196000003,0.20635800660345602,1781.131429096215,10.600000339200001,1.0187991565468,0.267484008559488,1591,-3.6,99,GPS_Atti,
0.35669085405788,36.8968501340802,6800,2017-11-14 07:45:01,1781.5314291090149,11.000000351999999,0.0,0.19278400616908803,1781.5314291090149,11.000000351999999,1.0187991565468,0.267484008559488,1595,-3.6,99,GPS_Atti,
0.356690933556073,36.8968502716519,6900,2017-11-14 07:45:01,1781.931429121815,11.4000003648,0.35999970196000003,0.178092005698944,1781.931429121815,11.4000003648,1.0187991565468,0.267484008559488,1592,-3.6,99,GPS_Atti,
0.356691050464103,36.8968504650012,7000,2017-11-14 07:45:02,1782.4314291378148,11.9000003808,0.35999970196000003,0.158578005074496,1782.4314291378148,11.9000003808,1.0187991565468,0.267484008559488,1590,-3.6,99,GPS_Atti,
0.356691248644924,36.8968507699767,7200,2017-11-14 07:45:02,1783.2314291634148,12.700000406400001,0.0,0.132311004233952,1783.2314291634148,12.700000406400001,1.0187991565468,0.267484008559488,1602,-3.6,99,GPS_Atti,
0.356691501648125,36.896851051245,7400,2017-11-14 07:45:02,1784.1314291922151,13.600000435200002,0.0,0.120586003858752,1784.1314291922151,13.600000435200002,1.0187991565468,0.267484008559488,1604,-3.6,99,GPS_Atti,
0.35669164603167,36.8968511963483,7500,2017-11-14 07:45:02,1784.531429205015,14.000000448,0.0,0.12119200387814401,1784.531429205015,14.000000448,1.0187991565468,0.267484008559488,1604,-3.6,99,GPS_Atti,
0.356691960071395,36.8968514627781,7700,2017-11-14 07:45:02,1785.431429233815,14.9000004768,0.0,0.13800600441619199,1785.431429233815,14.9000004768,1.0187991565468,0.267484008559488,1607,-3.6,99,GPS_Atti,
0.356692123519947,36.896851596805,7800,2017-11-14 07:45:02,1785.9314292498148,15.4000004928,0.0,0.15167300485353602,1785.9314292498148,15.4000004928,1.0187991565468,0.267484008559488,1608,-3.6,99,GPS_Atti,
0.35669227257224,36.8968517485995,7900,2017-11-14 07:45:03,1786.3314292626148,15.8000005056,0.35999970196000003,0.1657750053048,1786.3314292626148,15.8000005056,1.0187991565468,0.267484008559488,1608,-3.6,99,GPS_Atti,
0.356692419356111,36.8968519028774,8000,2017-11-14 07:45:03,1786.8314292786151,16.3000005216,0.35999970196000003,0.18162500581200003,1786.8314292786151,16.3000005216,1.0187991565468,0.267484008559488,1609,-3.6,99,GPS_Atti,
0.356692680595983,36.8968521591124,8200,2017-11-14 07:45:03,1787.7314293074148,17.2000005504,0.0,0.213132006820224,1787.7314293074148,17.2000005504,1.0187991565468,0.267484008559488,1613,-3.6,99,GPS_Atti,
0.356692810036111,36.896852294902,8300,2017-11-14 07:45:03,1788.2314293234149,17.7000005664,0.35999970196000003,0.230016007360512,1788.2314293234149,17.7000005664,1.0187991565468,0.267484008559488,1614,-3.6,99,GPS_Atti,
0.356692970502168,36.8968524890328,8400,2017-11-14 07:45:03,1788.6314293362148,18.1000005792,0.35999970196000003,0.25254800808153605,1788.6314293362148,18.1000005792,1.0187991565468,0.267484008559488,1614,-3.6,99,GPS_Atti,
0.356693137883412,36.8968526949535,8500,2017-11-14 07:45:03,1789.131429352215,18.6000005952,0.35999970196000003,0.277244008871808,1789.131429352215,18.6000005952,1.0187991565468,0.277244008871808,1614,-3.6,99,GPS_Atti,
0.356693325126788,36.8968529331709,8600,2017-11-14 07:45:03,1789.6314293682149,19.1000006112,0.35999970196000003,0.30622000979903996,1789.6314293682149,19.1000006112,1.0187991565468,0.30622000979903996,1609,-3.6,99,GPS_Atti,
0.356693534078952,36.8968531056077,8700,2017-11-14 07:45:03,1790.031429381015,19.500000624000002,0.35999970196000003,0.33518301072585605,1790.031429381015,19.500000624000002,1.0187991565468,0.33518301072585605,1609,-3.6,99,GPS_Atti,
0.356693768021216,36.8968532172356,8800,2017-11-14 07:45:03,1790.5314293970148,20.00000064,0.35999970196000003,0.364003011648096,1790.5314293970148,20.00000064,1.0187991565468,0.364003011648096,1610,-3.6,99,GPS_Atti,
0.356693976497873,36.8968532857795,8900,2017-11-14 07:45:04,1791.031429413015,20.500000656,0.0,0.38827501242480006,1791.031429413015,20.500000656,1.0187991565468,0.38827501242480006,1610,-3.6,99,GPS_Atti,
0.356694209320583,36.8968533053864,9000,2017-11-14 07:45:04,1791.431429425815,20.900000668800004,0.35999970196000003,0.41290501321296,1791.431429425815,20.900000668800004,1.0187991565468,0.41290501321296,1611,-3.6,99,GPS_Atti,
0.356694421497879,36.8968533445616,9100,2017-11-14 07:45:04,1791.931429441815,21.400000684800002,0.35999970196000003,0.43637501396399997,1791.931429441815,21.400000684800002,1.0187991565468,0.43637501396399997,1612,-3.6,99,GPS_Atti,
0.356694668846309,36.896853366374,9200,2017-11-14 07:45:04,1792.4314294578148,21.900000700800003,0.35999970196000003,0.46284001481088,1792.4314294578148,21.900000700800003,1.0187991565468,0.46284001481088,1609,-3.6,99,GPS_Atti,
0.356694902683539,36.8968533841213,9300,2017-11-14 07:45:04,1792.831429470615,22.300000713600003,0.35999970196000003,0.487866015611712,1792.831429470615,22.300000713600003,1.0187991565468,0.487866015611712,1606,-3.6,99,GPS_Atti,
0.356695141706549,36.8968534096389,9400,2017-11-14 07:45:04,1793.331429486615,22.8000007296,0.35999970196000003,0.513829016442528,1793.331429486615,22.8000007296,1.0187991565468,0.513829016442528,1615,-3.6,99,GPS_Atti,
0.356695353264222,36.8968534517412,9500,2017-11-14 07:45:04,1793.831429502615,23.300000745600002,0.35999970196000003,0.5375790172025281,1793.831429502615,23.300000745600002,1.0187991565468,0.5375790172025281,1635,-3.6,99,GPS_Atti,
0.356695582071189,36.896853472529,9600,2017-11-14 07:45:04,1794.231429515415,23.7000007584,0.0,0.562408017997056,1794.231429515415,23.7000007584,1.0187991565468,0.562408017997056,1636,-3.6,99,GPS_Atti,
0.356695777018733,36.8968535047422,9700,2017-11-14 07:45:04,1794.731429531415,24.2000007744,0.0,0.584113018691616,1794.731429531415,24.2000007744,1.0187991565468,0.584113018691616,1637,-3.6,99,GPS_Atti,
0.356695998305545,36.8968534999481,9800,2017-11-14 07:45:04,1795.231429547415,24.7000007904,0.0,0.607383019436256,1795.231429547415,24.7000007904,1.0187991565468,0.607383019436256,1640,-3.6,99,GPS_Atti,
0.356696181154565,36.8968535077484,9900,2017-11-14 07:45:05,1795.7314295634148,25.2000008064,0.0,0.627067020066144,1795.7314295634148,25.2000008064,1.0187991565468,0.627067020066144,1646,-3.6,99,GPS_Atti,
0.356696359208632,36.8968535114495,10000,2017-11-14 07:45:05,1796.231429579415,25.7000008224,0.0,0.646153020676896,1796.231429579415,25.7000008224,1.0187991565468,0.646153020676896,1649,-3.6,99,GPS_Atti,
0.35669650155825,36.8968535121079,10100,2017-11-14 07:45:05,1796.731429595415,26.200000838400005,0.0,0.661371021163872,1796.731429595415,26.200000838400005,1.0187991565468,0.661371021163872,1650,-3.6,99,GPS_Atti,
0.356696740532406,36.8968534737912,10300,2017-11-14 07:45:05,1797.7314296274149,27.200000870400004,0.0,0.6858250219464,1797.7314296274149,27.200000870400004,1.0187991565468,0.6858250219464,1654,-3.6,99,GPS_Atti,
0.356696872356576,36.8968534667499,10400,2017-11-14 07:45:05,1798.131429640215,27.600000883200003,0.0,0.699789022393248,1798.131429640215,27.600000883200003,1.0187991565468,0.699789022393248,1660,-3.6,99,GPS_Atti,
0.356696980284959,36.8968534655476,10500,2017-11-14 07:45:05,1798.631429656215,28.1000008992,0.0,0.71137002276384,1798.631429656215,28.1000008992,1.0187991565468,0.71137002276384,1665,-3.6,99,GPS_Atti,
0.356697093572551,36.8968533822691,10600,2017-11-14 07:45:05,1799.131429672215,28.600000915200003,0.0,0.721354023083328,1799.131429672215,28.600000915200003,1.0187991565468,0.721354023083328,1668,-3.6,99,GPS_Atti,
0.356697178042384,36.8968533080853,10700,2017-11-14 07:45:05,1799.631429688215,29.1000009312,0.0,0.728632023316224,1799.631429688215,29.1000009312,1.0187991565468,0.728632023316224,1684,-3.6,99,GPS_Atti,
0.356697298820818,36.896853219395,10800,2017-11-14 07:45:05,1800.231429707415,29.700000950400003,0.0,0.739671023669472,1800.231429707415,29.700000950400003,1.0187991565468,0.739671023669472,1684,-3.6,99,GPS_Atti,
0.356697384975276,36.8968531657913,10900,2017-11-14 07:45:06,1800.731429723415,30.2000009664,0.0,0.747879023932128,1800.731429723415,30.2000009664,1.0187991565468,0.747879023932128,1684,-3.6,99,GPS_Atti,
0.356697496136935,36.896853114909,11000,2017-11-14 07:45:06,1801.2314297394148,30.700000982400002,0.0,0.7589560242865921,1801.2314297394148,30.700000982400002,1.0187991565468,0.7589560242865921,1684,-3.6,99,GPS_Atti,
0.356697595247293,36.8968530892639,11100,2017-11-14 07:45:06,1801.731429755415,31.2000009984,0.0,0.76928502461712,1801.731429755415,31.2000009984,1.0187991565468,0.76928502461712,1684,-3.6,99,GPS_Atti,
0.356697730305553,36.8968530352042,11200,2017-11-14 07:45:06,1802.231429771415,31.7000010144,0.0,0.783052025057664,1802.231429771415,31.7000010144,1.0187991565468,0.783052025057664,1684,-3.6,99,GPS_Atti,
0.356697831335033,36.8968530201259,11300,2017-11-14 07:45:06,1802.8314297906152,32.3000010336,0.0,0.7938610254035521,1802.8314297906152,32.3000010336,1.0187991565468,0.7938610254035521,1684,-3.6,99,GPS_Atti,
0.356697944842465,36.8968529757871,11400,2017-11-14 07:45:06,1803.331429806615,32.800001049600006,0.0,0.805551025777632,1803.331429806615,32.800001049600006,1.0187991565468,0.805551025777632,1684,-3.6,99,GPS_Atti,
0.356698034629981,36.8968529431532,11500,2017-11-14 07:45:06,1803.8314298226148,33.3000010656,0.0,0.814878026076096,1803.8314298226148,33.3000010656,1.0187991565468,0.814878026076096,1684,-3.6,99,GPS_Atti,
0.35669813869081,36.8968528493421,11600,2017-11-14 07:45:06,1804.331429838615,33.8000010816,0.0,0.8248790263961281,1804.331429838615,33.8000010816,1.0187991565468,0.8248790263961281,1684,-3.6,99,GPS_Atti,
0.356698235503434,36.8968527697904,11700,2017-11-14 07:45:06,1804.831429854615,34.3000010976,0.0,0.8344400267020801,1804.831429854615,34.3000010976,1.0187991565468,0.8344400267020801,1684,-3.6,99,GPS_Atti,
0.356698315178313,36.8968526613721,11800,2017-11-14 07:45:06,1805.431429873815,34.900001116800006,0.0,0.841886026940352,1805.431429873815,34.900001116800006,1.0187991565468,0.841886026940352,1684,-3.6,99,GPS_Atti,
0.356698375946958,36.8968525752972,11900,2017-11-14 07:45:07,1805.931429889815,35.4000011328,0.0,0.847663027125216,1805.931429889815,35.4000011328,1.0187991565468,0.847663027125216,1684,-3.6,99,GPS_Atti,
0.356698444051743,36.8968524475723,12000,2017-11-14 07:45:07,1806.4314299058149,35.9000011488,0.0,0.8540120273283841,1806.4314299058149,35.9000011488,1.0187991565468,0.8540120273283841,1684,-3.6,99,GPS_Atti,
0.356698498959617,36.8968523652756,12100,2017-11-14 07:45:07,1807.0314299250151,36.500001168000004,0.0,0.8594610275027521,1807.0314299250151,36.500001168000004,1.0187991565468,0.8594610275027521,1684,-3.6,99,GPS_Atti,
0.356698550467301,36.8968522997352,12200,2017-11-14 07:45:07,1807.531429941015,37.000001184000006,0.0,0.86474002767168,1807.531429941015,37.000001184000006,1.0187991565468,0.86474002767168,1684,-3.6,99,GPS_Atti,
0.356698599486722,36.8968522618725,12300,2017-11-14 07:45:07,1808.031429957015,37.5000012,0.0,0.8699600278387201,1808.031429957015,37.5000012,1.0187991565468,0.8699600278387201,1684,-3.6,99,GPS_Atti,
0.356698656876345,36.8968521911612,12400,2017-11-14 07:45:07,1808.5314299730148,38.000001216,0.0,0.8759750280312,1808.5314299730148,38.000001216,1.0187991565468,0.8759750280312,1684,-3.6,99,GPS_Atti,
0.356698708414969,36.8968521477528,12500,2017-11-14 07:45:07,1809.0314299890151,38.500001232,0.0,0.881517028208544,1809.0314299890151,38.500001232,1.0187991565468,0.881517028208544,1684,-3.6,99,GPS_Atti,
0.356698756952371,36.896852096491,12600,2017-11-14 07:45:07,1809.631430008215,39.100001251200005,0.0,0.8867280283752961,1809.631430008215,39.100001251200005,1.0187991565468,0.8867280283752961,1684,-3.6,99,GPS_Atti,
0.356698799052534,36.8968520706559,12700,2017-11-14 07:45:07,1810.131430024215,39.60000126720001,0.0,0.8913300285225599,1810.131430024215,39.60000126720001,1.0187991565468,0.8913300285225599,1684,-3.6,99,GPS_Atti,
0.356698854277955,36.8968519979865,12800,2017-11-14 07:45:07,1810.631430040215,40.10000128320001,0.0,0.897302028713664,1810.631430040215,40.10000128320001,1.0187991565468,0.897302028713664,1684,-3.6,99,GPS_Atti,
0.35669891693071,36.8968519480876,12900,2017-11-14 07:45:08,1811.1314300562149,40.6000012992,0.0,0.90419502893424,1811.1314300562149,40.6000012992,1.0187991565468,0.90419502893424,1684,-3.6,99,GPS_Atti,
0.356698960662573,36.8968518850685,13000,2017-11-14 07:45:08,1811.7314300754151,41.2000013184,0.0,0.9090150290884801,1811.7314300754151,41.2000013184,1.0187991565468,0.9090150290884801,1684,-3.6,99,GPS_Atti,
0.356698968477476,36.896851845927,13100,2017-11-14 07:45:08,1812.231430091415,41.7000013344,0.0,0.9098850291163201,1812.231430091415,41.7000013344,1.0187991565468,0.9098850291163201,1684,-3.6,99,GPS_Atti,
0.356698938587386,36.8968517345731,13200,2017-11-14 07:45:08,1812.7314301074148,42.2000013504,0.0,0.9066760290136321,1812.7314301074148,42.2000013504,1.0187991565468,0.9098850291163201,1684,-3.6,99,GPS_Atti,
0.356698926926099,36.8968516671234,13300,2017-11-14 07:45:08,1813.231430123415,42.7000013664,0.0,0.9055320289770241,1813.231430123415,42.7000013664,1.0187991565468,0.9098850291163201,1684,-3.6,99,GPS_Atti,
0.356698917402958,36.8968516078471,13400,2017-11-14 07:45:08,1813.8314301426149,43.300001385600005,0.0,0.904659028949088,1813.8314301426149,43.300001385600005,1.0187991565468,0.9098850291163201,1684,-3.6,99,GPS_Atti,
0.356698929005622,36.8968515721432,13500,2017-11-14 07:45:08,1814.3314301586151,43.80000140160001,0.0,0.906083028994656,1814.3314301586151,43.80000140160001,1.0187991565468,0.9098850291163201,1684,-3.6,99,GPS_Atti,
0.356698993141889,36.8968514928677,13600,2017-11-14 07:45:08,1814.831430174615,44.30000141760001,0.0,0.9135690292342081,1814.831430174615,44.30000141760001,1.0187991565468,0.9135690292342081,1684,-3.6,99,GPS_Atti,
0.356699062793695,36.8968514369799,13700,2017-11-14 07:45:08,1815.3314301906148,44.8000014336,0.0,0.921608029491456,1815.3314301906148,44.8000014336,1.0187991565468,0.921608029491456,1684,-3.6,99,GPS_Atti,
0.356699098073934,36.8968513288453,13800,2017-11-14 07:45:08,1815.831430206615,45.3000014496,0.0,0.9262250296392,1815.831430206615,45.3000014496,1.0187991565468,0.9262250296392,1684,-3.6,99,GPS_Atti,
0.356699114456081,36.8968512751726,13900,2017-11-14 07:45:09,1816.331430222615,45.800001465600005,0.0,0.928446029710272,1816.331430222615,45.800001465600005,1.0187991565468,0.928446029710272,1684,-3.6,99,GPS_Atti,
0.356699115464088,36.8968512423839,14000,2017-11-14 07:45:09,1816.831430238615,46.300001481600006,0.0,0.9288230297223361,1816.831430238615,46.300001481600006,1.0187991565468,0.9288230297223361,1684,-5.8,99,GPS_Atti,
0.356699105776475,36.8968512479045,14100,2017-11-14 07:45:09,1817.431430257815,46.9000015008,0.0,0.927703029686496,1817.431430257815,46.9000015008,1.0187991565468,0.9288230297223361,1684,-9.1,99,GPS_Atti,
0.356699093900232,36.8968512281011,14300,2017-11-14 07:45:09,1818.431430289815,47.9000015328,0.0,0.9265520296496641,1818.431430289815,47.9000015328,1.0187991565468,0.9288230297223361,1684,-9.1,99,GPS_Atti,
0.356699091677406,36.896851231003,14400,2017-11-14 07:45:09,1818.9314303058152,48.4000015488,0.0,0.926281029640992,1818.9314303058152,48.4000015488,1.0187991565468,0.9288230297223361,1684,-9.1,99,GPS_Atti,
0.356699080408574,36.8968512605552,14500,2017-11-14 07:45:09,1819.431430321815,48.9000015648,0.0,0.924786029593152,1819.431430321815,48.9000015648,1.0187991565468,0.9288230297223361,1684,-9.1,99,GPS_Atti,
0.356699080336922,36.8968512624598,14600,2017-11-14 07:45:09,1819.9314303378148,49.4000015808,0.0,0.9247630295924161,1819.9314303378148,49.4000015808,1.0187991565468,0.9288230297223361,1684,-9.1,99,GPS_Atti,
0.356699083230667,36.8968512962692,14700,2017-11-14 07:45:09,1820.4314303538151,49.9000015968,0.0,0.9248190295942081,1820.4314303538151,49.9000015968,1.0187991565468,0.9288230297223361,1684,-9.8,99,GPS_Atti,
0.356699105747163,36.8968512928904,14800,2017-11-14 07:45:09,1821.031430373015,50.500001616000006,0.0,0.9273430296749761,1821.031430373015,50.500001616000006,1.0187991565468,0.9288230297223361,1684,-14.6,99,GPS_Atti,
0.356699126330695,36.8968513133597,14900,2017-11-14 07:45:09,1821.5314303890148,51.00000163200001,0.0,0.9294730297431361,1821.5314303890148,51.00000163200001,1.0187991565468,0.9294730297431361,1684,-19.7,99,GPS_Atti,
0.356699154820322,36.8968513279781,15000,2017-11-14 07:45:10,1822.031430405015,51.500001648,0.0,0.9325280298408961,1822.031430405015,51.500001648,1.0187991565468,0.9325280298408961,1684,-19.7,99,GPS_Atti,
0.356699177151175,36.8968513557799,15100,2017-11-14 07:45:10,1822.5314304210149,52.000001664,0.0,0.934814029914048,1822.5314304210149,52.000001664,1.0187991565468,0.934814029914048,1684,-19.7,99,GPS_Atti,
0.356699228507413,36.8968513507551,15200,2017-11-14 07:45:10,1823.031430437015,52.500001680000004,0.0,0.9405480300975361,1823.031430437015,52.500001680000004,1.0187991565468,0.9405480300975361,1684,-19.7,99,GPS_Atti,
0.356699263709487,36.8968513733811,15300,2017-11-14 07:45:10,1823.531430453015,53.000001696000005,0.0,0.9443060302177921,1823.531430453015,53.000001696000005,1.0187991565468,0.9443060302177921,1684,-19.7,99,GPS_Atti,
0.356699273341733,36.896851357487,15400,2017-11-14 07:45:10,1824.031430469015,53.500001712,0.0,0.9454800302553601,1824.031430469015,53.500001712,1.0187991565468,0.9454800302553601,1684,-19.7,99,GPS_Atti,
0.356699256462911,36.8968513971826,15600,2017-11-14 07:45:10,1825.0314305010152,54.500001744,0.0,0.943352030187264,1825.0314305010152,54.500001744,1.0187991565468,0.9454800302553601,1684,-19.7,99,GPS_Atti,
0.356699229888334,36.8968514478261,15700,2017-11-14 07:45:10,1825.531430517015,55.00000176,0.0,0.94010503008336,1825.531430517015,55.00000176,1.0187991565468,0.9454800302553601,1684,-19.7,99,GPS_Atti,
0.356699162397472,36.8968515041277,15800,2017-11-14 07:45:10,1826.0314305330148,55.500001776000005,0.0,0.932318029834176,1826.0314305330148,55.500001776000005,1.0187991565468,0.9454800302553601,1684,-19.7,99,GPS_Atti,
0.356699111931993,36.8968515645051,15900,2017-11-14 07:45:11,1826.5314305490149,56.000001792,0.0,0.9264430296461761,1826.5314305490149,56.000001792,1.0187991565468,0.9454800302553601,1684,-19.7,99,GPS_Atti,
0.35669910554035,36.8968516122301,16100,2017-11-14 07:45:11,1827.531430581015,57.000001824,0.0,0.925556029617792,1827.531430581015,57.000001824,1.0187991565468,0.9454800302553601,1684,-19.7,99,GPS_Atti,
0.356699137368288,36.8968516385813,16200,2017-11-14 07:45:11,1828.0314305970148,57.50000184,0.0,0.929009029728288,1828.0314305970148,57.50000184,1.0187991565468,0.9454800302553601,1684,-19.7,99,GPS_Atti,
0.356699153079516,36.8968516790113,16300,2017-11-14 07:45:11,1828.5314306130151,58.000001856000004,0.0,0.930644029780608,1828.5314306130151,58.000001856000004,1.0187991565468,0.9454800302553601,1684,-19.7,99,GPS_Atti,
0.356699154834978,36.8968516976766,16400,2017-11-14 07:45:11,1829.031430629015,58.500001872,0.0,0.93079502978544,1829.031430629015,58.500001872,1.0187991565468,0.9454800302553601,1684,-19.7,99,GPS_Atti,
0.356699151262172,36.8968517220921,16500,2017-11-14 07:45:11,1829.6314306482152,59.10000189120001,0.0,0.9303470297711041,1829.6314306482152,59.10000189120001,1.0187991565468,0.9454800302553601,1684,-19.7,99,GPS_Atti,
0.356699182025108,36.8968517386831,16600,2017-11-14 07:45:11,1830.131430664215,59.6000019072,0.0,0.933738029879616,1830.131430664215,59.6000019072,1.0187991565468,0.9454800302553601,1684,-19.7,99,GPS_Atti,
0.356699199355009,36.8968517717651,16700,2017-11-14 07:45:11,1830.6314306802149,60.100001923200004,0.0,0.935616029939712,1830.6314306802149,60.100001923200004,1.0187991565468,0.9454800302553601,1684,-19.7,99,GPS_Atti,
0.356699196835806,36.8968517864617,16800,2017-11-14 07:45:11,1831.131430696215,60.600001939200006,0.0,0.935319029930208,1831.131430696215,60.600001939200006,1.0187991565468,0.9454800302553601,1684,-19.7,99,GPS_Atti,
0.356699180419462,36.8968518167013,16900,2017-11-14 07:45:12,1831.631430712215,61.10000195520001,0.0,0.933467029870944,1831.631430712215,61.10000195520001,1.0187991565468,0.9454800302553601,1684,-19.7,99,GPS_Atti,
0.356699180341297,36.8968518504775,17000,2017-11-14 07:45:12,1832.131430728215,61.6000019712,0.0,0.933444029870208,1832.131430728215,61.6000019712,1.0187991565468,0.9454800302553601,1684,-19.7,99,GPS_Atti,
0.356699183135707,36.8968518950047,17100,2017-11-14 07:45:12,1832.6314307442149,62.1000019872,0.0,0.9337590298802881,1832.6314307442149,62.1000019872,1.0187991565468,0.9454800302553601,1684,-19.7,99,GPS_Atti,
0.356699205059448,36.8968519055239,17200,2017-11-14 07:45:12,1833.1314307602152,62.600002003200004,0.0,0.936201029958432,1833.1314307602152,62.600002003200004,1.0187991565468,0.9454800302553601,1684,-19.7,99,GPS_Atti,
0.356699226709611,36.8968519309629,17300,2017-11-14 07:45:12,1833.631430776215,63.100002019200005,0.0,0.9386260300360321,1833.631430776215,63.100002019200005,1.0187991565468,0.9454800302553601,1684,-19.7,99,GPS_Atti,
0.356699262706366,36.8968519300416,17400,2017-11-14 07:45:12,1834.1314307922148,63.600002035200006,0.0,0.9426290301641281,1834.1314307922148,63.600002035200006,1.0187991565468,0.9454800302553601,1684,-19.7,99,GPS_Atti,
0.356699302249871,36.8968519599262,17500,2017-11-14 07:45:12,1834.631430808215,64.1000020512,0.0,0.9470570303058241,1834.631430808215,64.1000020512,1.0187991565468,0.9470570303058241,1684,-19.7,99,GPS_Atti,
0.356699326873573,36.8968519556251,17600,2017-11-14 07:45:12,1835.131430824215,64.6000020672,0.0,0.94979003039328,1835.131430824215,64.6000020672,1.0187991565468,0.94979003039328,1684,-19.7,99,GPS_Atti,
0.356699358100615,36.8968519685183,17700,2017-11-14 07:45:12,1835.631430840215,65.10000208320001,0.0,0.953278030504896,1835.631430840215,65.10000208320001,1.0187991565468,0.953278030504896,1684,-19.7,99,GPS_Atti,
0.356699417379233,36.8968519822947,17800,2017-11-14 07:45:12,1836.131430856215,65.60000209920001,0.0,0.9598890307164482,1836.131430856215,65.60000209920001,1.0187991565468,0.9598890307164482,1684,-19.7,99,GPS_Atti,
0.35669947726689,36.8968520003584,17900,2017-11-14 07:45:12,1836.631430872215,66.10000211520001,0.0,0.966577030930464,1836.631430872215,66.10000211520001,1.0187991565468,0.966577030930464,1684,-19.7,99,GPS_Atti,
0.356699543814882,36.8968519788078,18000,2017-11-14 07:45:13,1837.231430891415,66.70000213440001,0.0,0.9739430311661761,1837.231430891415,66.70000213440001,1.0187991565468,0.9739430311661761,1684,-19.7,99,GPS_Atti,
0.356699589090511,36.8968519725427,18100,2017-11-14 07:45:13,1837.731430907415,67.20000215040001,0.0,0.9789690313270081,1837.731430907415,67.20000215040001,1.0187991565468,0.9789690313270081,1684,-19.7,99,GPS_Atti,
0.356699663065836,36.8968519039099,18200,2017-11-14 07:45:13,1838.231430923415,67.7000021664,0.0,0.987133031588256,1838.231430923415,67.7000021664,1.0187991565468,0.987133031588256,1684,-19.7,99,GPS_Atti,
0.356699724412578,36.8968518702675,18300,2017-11-14 07:45:13,1838.7314309394148,68.2000021824,0.0,0.9939470318063041,1838.7314309394148,68.2000021824,1.0187991565468,0.9939470318063041,1684,-19.7,99,GPS_Atti,
0.356699931340585,36.8968517789172,18600,2017-11-14 07:45:13,1840.2314309874148,69.7000022304,0.0,1.017000032544,1840.2314309874148,69.7000022304,1.0187991565468,1.017000032544,1684,-19.7,99,GPS_Atti,
0.35669997170157,36.896851759434,18700,2017-11-14 07:45:13,1840.731431003415,70.2000022464,0.0,1.0215200326886402,1840.731431003415,70.2000022464,1.0187991565468,1.0215200326886402,1684,-19.7,99,GPS_Atti,
0.356700032802417,36.8968517497312,18900,2017-11-14 07:45:14,1841.731431035415,71.2000022784,0.0,1.02832003290624,1841.731431035415,71.2000022784,1.0187991565468,1.02832003290624,1684,-19.7,99,GPS_Atti,
0.35670008769075,36.8968517151985,19000,2017-11-14 07:45:14,1842.2314310514148,71.70000229440001,0.0,1.0344800331033601,1842.2314310514148,71.70000229440001,1.0187991565468,1.0344800331033601,1684,-19.7,99,GPS_Atti,
0.356700139231003,36.8968517071107,19100,2017-11-14 07:45:14,1842.731431067415,72.2000023104,0.0,1.0402300332873602,1842.731431067415,72.2000023104,1.0187991565468,1.0402300332873602,1684,-19.7,99,GPS_Atti,
0.356700171119193,36.8968516850596,19200,2017-11-14 07:45:14,1843.231431083415,72.7000023264,0.0,1.04382003340224,1843.231431083415,72.7000023264,1.0187991565468,1.04382003340224,1684,-19.7,99,GPS_Atti,
0.356700202023803,36.8968516866602,19300,2017-11-14 07:45:14,1843.731431099415,73.2000023424,0.0,1.047250033512,1843.731431099415,73.2000023424,1.0187991565468,1.047250033512,1684,-19.7,99,GPS_Atti,
0.35670034898436,36.8968516733891,19500,2017-11-14 07:45:14,1844.7314311314149,74.20000237440001,0.0,1.06362003403584,1844.7314311314149,74.20000237440001,1.0187991565468,1.06362003403584,1684,-19.7,98,GPS_Atti,
0.356700446459761,36.8968516274374,19700,2017-11-14 07:45:14,1845.731431163415,75.2000024064,0.0,1.07457003438624,1845.731431163415,75.2000024064,1.0187991565468,1.07457003438624,1684,-19.7,98,GPS_Atti,
0.356700484663057,36.8968515598812,19800,2017-11-14 07:45:14,1846.131431176215,75.60000241920001,0.0,1.07903003452896,1846.131431176215,75.60000241920001,1.0187991565468,1.07903003452896,1684,-19.7,98,GPS_Atti,
0.35670051960458,36.8968515451888,19900,2017-11-14 07:45:14,1846.631431192215,76.1000024352,0.0,1.08297003465504,1846.631431192215,76.1000024352,1.0187991565468,1.08297003465504,1684,-19.7,98,GPS_Atti,
0.356700681644529,36.8968515091601,20100,2017-11-14 07:45:15,1847.731431227415,77.20000247040001,0.0,1.10111003523552,1847.731431227415,77.20000247040001,1.0187991565468,1.10111003523552,1684,-19.7,98,GPS_Atti,
0.356700892777178,36.8968514743137,20300,2017-11-14 07:45:15,1848.7314312594149,78.20000250240001,0.0,1.12472003599104,1848.7314312594149,78.20000250240001,1.0187991565468,1.12472003599104,1684,-19.7,98,GPS_Atti,
0.356700975516789,36.8968514534965,20400,2017-11-14 07:45:15,1849.231431275415,78.70000251840001,0.0,1.13401003628832,1849.231431275415,78.70000251840001,1.0187991565468,1.13401003628832,1684,-19.7,98,GPS_Atti,
0.356701048086767,36.8968514579186,20500,2017-11-14 07:45:15,1849.731431291415,79.20000253440001,0.0,1.1420500365456001,1849.731431291415,79.20000253440001,1.0187991565468,1.1420500365456001,1684,-19.7,98,GPS_Atti,
0.356701115266596,36.8968514175148,20600,2017-11-14 07:45:15,1850.2314313074148,79.70000255040001,0.0,1.1497000367904,1850.2314313074148,79.70000255040001,1.0187991565468,1.1497000367904,1684,-19.7,98,GPS_Atti,
0.356701289039483,36.8968514135429,20900,2017-11-14 07:45:16,1851.8314313586152,81.3000026016,0.0,1.16903003740896,1851.8314313586152,81.3000026016,1.0187991565468,1.16903003740896,1684,-19.7,98,GPS_Atti,
0.356701332898366,36.8968514160181,21000,2017-11-14 07:45:16,1852.331431374615,81.8000026176,0.0,1.17389003756448,1852.331431374615,81.8000026176,1.0187991565468,1.17389003756448,1684,-19.7,98,GPS_Atti,
0.356701370839482,36.8968514474985,21100,2017-11-14 07:45:16,1852.8314313906149,82.3000026336,0.0,1.1779600376947201,1852.8314313906149,82.3000026336,1.0187991565468,1.1779600376947201,1684,-19.7,98,GPS_Atti,
0.356701427382315,36.8968514055911,21200,2017-11-14 07:45:16,1853.331431406615,82.8000026496,0.0,1.18444003790208,1853.331431406615,82.8000026496,1.0187991565468,1.18444003790208,1684,-19.7,98,GPS_Atti,
0.356701461058537,36.8968513795338,21300,2017-11-14 07:45:16,1853.831431422615,83.3000026656,0.0,1.18831003802592,1853.831431422615,83.3000026656,1.0187991565468,1.18831003802592,1684,-19.7,98,GPS_Atti,
0.356701506552376,36.8968513196553,21400,2017-11-14 07:45:16,1854.231431435415,83.70000267840001,0.0,1.19368003819776,1854.231431435415,83.70000267840001,1.0187991565468,1.19368003819776,1684,-19.7,98,GPS_Atti,
0.356701536546686,36.8968512817241,21500,2017-11-14 07:45:16,1854.731431451415,84.20000269440001,0.0,1.19723003831136,1854.731431451415,84.20000269440001,1.0187991565468,1.19723003831136,1684,-19.7,98,GPS_Atti,
0.356701588410999,36.8968512184647,21600,2017-11-14 07:45:16,1855.231431467415,84.70000271040001,0.0,1.20339003850848,1855.231431467415,84.70000271040001,1.0187991565468,1.20339003850848,1684,-19.7,98,GPS_Atti,
0.356701620523915,36.8968511803354,21700,2017-11-14 07:45:16,1855.731431483415,85.2000027264,0.0,1.20722003863104,1855.731431483415,85.2000027264,1.0187991565468,1.20722003863104,1684,-19.7,98,GPS_Atti,
0.356701640381161,36.8968511191834,21800,2017-11-14 07:45:16,1856.231431499415,85.7000027424,0.0,1.20987003871584,1856.231431499415,85.7000027424,1.0187991565468,1.20987003871584,1684,-19.7,98,GPS_Atti,
0.356701654125228,36.8968510972929,21900,2017-11-14 07:45:17,1856.731431515415,86.2000027584,0.0,1.21156003876992,1856.731431515415,86.2000027584,1.0187991565468,1.21156003876992,1684,-19.7,98,GPS_Atti,
0.356701685728441,36.8968510538572,22000,2017-11-14 07:45:17,1857.231431531415,86.7000027744,0.0,1.2154200388934402,1857.231431531415,86.7000027744,1.0187991565468,1.2154200388934402,1684,-19.7,98,GPS_Atti,
0.356701689763725,36.8968510345538,22100,2017-11-14 07:45:17,1857.731431547415,87.2000027904,0.0,1.2160300389129601,1857.731431547415,87.2000027904,1.0187991565468,1.2160300389129601,1684,-19.7,98,GPS_Atti,
0.356701718924272,36.896850985908,22200,2017-11-14 07:45:17,1858.2314315634148,87.70000280640001,0.0,1.2196800390297602,1858.2314315634148,87.70000280640001,1.0187991565468,1.2196800390297602,1684,-19.7,98,GPS_Atti,
0.35670173331646,36.896850976157,22300,2017-11-14 07:45:17,1858.7314315794151,88.20000282240001,0.0,1.22137003908384,1858.7314315794151,88.20000282240001,1.0187991565468,1.22137003908384,1684,-19.7,98,GPS_Atti,
0.35670175183024,36.8968509596913,22400,2017-11-14 07:45:17,1859.231431595415,88.70000283840001,0.0,1.2235700391542401,1859.231431595415,88.70000283840001,1.0187991565468,1.2235700391542401,1684,-19.7,98,GPS_Atti,
0.356701744235177,36.8968509714721,22500,2017-11-14 07:45:17,1859.731431611415,89.20000285440001,0.0,1.22262003912384,1859.731431611415,89.20000285440001,1.0187991565468,1.2235700391542401,1684,-19.7,98,GPS_Atti,
0.356701663773759,36.8968509811444,22700,2017-11-14 07:45:17,1860.7314316434151,90.2000028864,0.35999970196000003,1.21361003883552,1860.7314316434151,90.2000028864,1.0187991565468,1.2235700391542401,1684,-19.7,98,GPS_Atti,
0.35670161978623,36.8968509884652,22800,2017-11-14 07:45:17,1861.231431659415,90.7000029024,0.35999970196000003,1.20867003867744,1861.231431659415,90.7000029024,1.0187991565468,1.2235700391542401,1684,-19.7,98,GPS_Atti,
0.356701562399863,36.8968510249211,22900,2017-11-14 07:45:18,1861.7314316754148,91.2000029184,0.35999970196000003,1.2019900384636801,1861.7314316754148,91.2000029184,1.0187991565468,1.2235700391542401,1684,-19.7,98,GPS_Atti,
0.356701519799768,36.8968510508162,23000,2017-11-14 07:45:18,1862.231431691415,91.7000029344,0.0,1.1970500383056,1862.231431691415,91.7000029344,1.0187991565468,1.2235700391542401,1684,-19.7,98,GPS_Atti,
0.356701489264815,36.8968510945051,23100,2017-11-14 07:45:18,1862.731431707415,92.2000029504,0.0,1.1933000381856,1862.731431707415,92.2000029504,1.0187991565468,1.2235700391542401,1684,-19.7,98,GPS_Atti,
0.356701514896524,36.8968510923559,23200,2017-11-14 07:45:18,1863.231431723415,92.7000029664,0.0,1.19616003827712,1863.231431723415,92.7000029664,1.0187991565468,1.2235700391542401,1684,-19.7,98,GPS_Atti,
0.356701531503395,36.8968511170101,23300,2017-11-14 07:45:18,1863.6314317362148,93.10000297920001,0.0,1.1978100383299202,1863.6314317362148,93.10000297920001,1.0187991565468,1.2235700391542401,1684,-19.7,98,GPS_Atti,
0.356701549377197,36.8968511045098,23400,2017-11-14 07:45:18,1864.231431755415,93.70000299840001,0.0,1.19989003839648,1864.231431755415,93.70000299840001,1.0187991565468,1.2235700391542401,1684,-19.7,98,GPS_Atti,
0.35670155717093,36.8968511173254,23500,2017-11-14 07:45:18,1864.731431771415,94.20000301440001,0.0,1.2006500384208,1864.731431771415,94.20000301440001,1.0187991565468,1.2235700391542401,1684,-19.7,98,GPS_Atti,
0.356701622351029,36.8968510900444,23600,2017-11-14 07:45:18,1865.2314317874152,94.7000030304,0.0,1.2081000386592,1865.2314317874152,94.7000030304,1.0187991565468,1.2235700391542401,1684,-19.7,98,GPS_Atti,
0.356701672223755,36.896851092001,23700,2017-11-14 07:45:18,1865.731431803415,95.2000030464,0.0,1.21361003883552,1865.731431803415,95.2000030464,1.0187991565468,1.2235700391542401,1684,-19.7,98,GPS_Atti,
0.356701704295959,36.8968510505726,23800,2017-11-14 07:45:18,1866.2314318194149,95.7000030624,0.0,1.2175100389603202,1866.2314318194149,95.7000030624,1.0187991565468,1.2235700391542401,1684,-19.7,98,GPS_Atti,
0.356701723296644,36.8968509592957,24000,2017-11-14 07:45:19,1867.231431851415,96.7000030944,0.0,1.2204100390531198,1867.231431851415,96.7000030944,1.0187991565468,1.2235700391542401,1684,-19.7,98,GPS_Atti,
0.356701729527071,36.8968509412069,24100,2017-11-14 07:45:19,1867.731431867415,97.2000031104,0.0,1.2212700390806401,1867.731431867415,97.2000031104,1.0187991565468,1.2235700391542401,1684,-19.7,98,GPS_Atti,
0.356701775035567,36.8968508755402,24200,2017-11-14 07:45:19,1868.2314318834149,97.7000031264,0.0,1.2269500392624,1868.2314318834149,97.7000031264,1.0187991565468,1.2269500392624,1684,-19.7,98,GPS_Atti,
0.356701806094879,36.8968508374944,24300,2017-11-14 07:45:19,1868.7314318994152,98.2000031424,0.0,1.2307700393846401,1868.7314318994152,98.2000031424,1.0187991565468,1.2307700393846401,1684,-19.7,98,GPS_Atti,
0.356701834470516,36.8968507723904,24500,2017-11-14 07:45:19,1869.7314319314148,99.20000317440001,0.0,1.23461003950752,1869.7314319314148,99.20000317440001,1.0187991565468,1.23461003950752,1684,-19.7,98,GPS_Atti,
0.356701865205768,36.8968507176957,24600,2017-11-14 07:45:19,1870.231431947415,99.7000031904,0.0,1.23862003963584,1870.231431947415,99.7000031904,1.0187991565468,1.23862003963584,1684,-19.7,98,GPS_Atti,
0.356701869477176,36.8968506898404,24700,2017-11-14 07:45:19,1870.731431963415,100.2000032064,0.0,1.23942003966144,1870.731431963415,100.2000032064,1.0187991565468,1.23942003966144,1625,-19.7,98,GPS_Atti,
0.35670184969321,36.8968506319934,24800,2017-11-14 07:45:19,1871.3314319826147,100.8000032256,0.0,1.23792003961344,1871.3314319826147,100.8000032256,1.0187991565468,1.23942003966144,1611,-19.7,98,GPS_Atti,
0.35670181690449,36.8968505998252,24900,2017-11-14 07:45:20,1871.831431998615,101.3000032416,0.0,1.2347000395104,1871.831431998615,101.3000032416,1.0187991565468,1.23942003966144,1639,-19.7,98,GPS_Atti,
0.356701766290822,36.8968505774914,25000,2017-11-14 07:45:20,1872.231432011415,101.7000032544,0.35999970196000003,1.2294000393408002,1872.231432011415,101.7000032544,1.0187991565468,1.23942003966144,1651,-19.7,98,GPS_Atti,
0.356701704331785,36.8968506036268,25100,2017-11-14 07:45:20,1872.731432027415,102.2000032704,0.0,1.22222003911104,1872.731432027415,102.2000032704,1.0187991565468,1.23942003966144,1652,-19.7,98,GPS_Atti,
0.356701664433279,36.896850619863,25200,2017-11-14 07:45:20,1873.131432040215,102.60000328320001,0.0,1.2176000389632,1873.131432040215,102.60000328320001,1.0187991565468,1.23942003966144,1655,-19.7,98,GPS_Atti,
0.356701633650802,36.8968506388227,25300,2017-11-14 07:45:20,1873.531432053015,103.000003296,0.0,1.21396003884672,1873.531432053015,103.000003296,1.0187991565468,1.23942003966144,1665,-19.7,98,GPS_Atti,
0.35670161746244,36.8968506059174,25400,2017-11-14 07:45:20,1874.0314320690152,103.500003312,0.0,1.21259003880288,1874.0314320690152,103.500003312,1.0187991565468,1.23942003966144,1665,-19.7,98,GPS_Atti,
0.356701600191163,36.8968505779507,25500,2017-11-14 07:45:20,1874.431432081815,103.90000332480001,0.0,1.2110500387536,1874.431432081815,103.90000332480001,1.0187991565468,1.23942003966144,1665,-19.7,98,GPS_Atti,
0.356701649951526,36.8968504890998,25600,2017-11-14 07:45:20,1874.931432097815,104.40000334080001,0.0,1.217750038968,1874.931432097815,104.40000334080001,1.0187991565468,1.23942003966144,1669,-19.7,98,GPS_Atti,
0.356701750864572,36.896850415978,25800,2017-11-14 07:45:20,1875.9314321298148,105.40000337280001,0.0,1.22992003935744,1875.9314321298148,105.40000337280001,1.0187991565468,1.23942003966144,1671,-19.7,98,GPS_Atti,
0.356701783418796,36.8968504168859,25900,2017-11-14 07:45:21,1876.431432145815,105.90000338880002,0.0,1.2335000394720002,1876.431432145815,105.90000338880002,1.0187991565468,1.23942003966144,1671,-19.7,98,GPS_Atti,
0.356701835698363,36.8968504168843,26000,2017-11-14 07:45:21,1876.831432158615,106.30000340160001,0.0,1.23926003965632,1876.831432158615,106.30000340160001,1.0187991565468,1.23942003966144,1673,-19.7,98,GPS_Atti,
0.356701862165463,36.8968504431128,26100,2017-11-14 07:45:21,1877.331432174615,106.80000341760001,0.0,1.24181003973792,1877.331432174615,106.80000341760001,1.0187991565468,1.24181003973792,1673,-19.7,98,GPS_Atti,
0.356701912639084,36.8968504490996,26200,2017-11-14 07:45:21,1877.8314321906148,107.30000343360001,0.0,1.2472900399132802,1877.8314321906148,107.30000343360001,1.0187991565468,1.2472900399132802,1669,-19.7,98,GPS_Atti,
0.356701945250304,36.89685047434,26300,2017-11-14 07:45:21,1878.331432206615,107.80000344960001,0.0,1.2505400400172801,1878.331432206615,107.80000344960001,1.0187991565468,1.2505400400172801,1642,-19.7,98,GPS_Atti,
0.356701968449117,36.8968504615929,26400,2017-11-14 07:45:21,1878.831432222615,108.30000346560001,0.0,1.2532700401046402,1878.831432222615,108.30000346560001,1.0187991565468,1.2532700401046402,1642,-19.7,98,GPS_Atti,
0.356701967545331,36.8968504761959,26500,2017-11-14 07:45:21,1879.331432238615,108.80000348160002,0.0,1.25297004009504,1879.331432238615,108.80000348160002,1.0187991565468,1.2532700401046402,1620,-19.7,98,GPS_Atti,
0.356701991239191,36.8968504595085,26600,2017-11-14 07:45:21,1879.7314322514148,109.2000034944,0.0,1.25581004018592,1879.7314322514148,109.2000034944,1.0187991565468,1.25581004018592,1588,-19.7,98,GPS_Atti,
0.356701993758394,36.8968504705731,26700,2017-11-14 07:45:21,1880.2314322674151,109.7000035104,0.0,1.2559400401900802,1880.2314322674151,109.7000035104,1.0187991565468,1.2559400401900802,1529,-19.7,98,GPS_Atti,
0.356702027646313,36.8968504101909,26800,2017-11-14 07:45:21,1880.731432283415,110.2000035264,0.0,1.2605200403366401,1880.731432283415,110.2000035264,1.0187991565468,1.2605200403366401,1443,-19.7,98,GPS_Atti,
0.356702012975661,36.8968503725434,26900,2017-11-14 07:45:22,1881.131432296215,110.6000035392,0.35999970196000003,1.2594500403024003,1881.131432296215,110.6000035392,1.0187991565468,1.2605200403366401,1348,-19.7,98,GPS_Atti,
0.356701984521859,36.8968503012052,27000,2017-11-14 07:45:22,1881.531432309015,111.00000355200001,0.35999970196000003,1.2573900402364802,1881.531432309015,111.00000355200001,1.0187991565468,1.2605200403366401,1287,-19.7,98,GPS_Atti,
0.356701922559565,36.896850257436,27100,2017-11-14 07:45:22,1881.831432318615,111.30000356160001,0.35999970196000003,1.25125004004,1881.831432318615,111.30000356160001,1.0187991565468,1.2605200403366401,1235,-19.7,98,GPS_Atti,
0.356701880506627,36.8968501602649,27200,2017-11-14 07:45:22,1882.0314323250147,111.50000356800001,0.35999970196000003,1.2482200399430399,1882.0314323250147,111.50000356800001,1.0187991565468,1.2605200403366401,1195,-19.7,98,GPS_Atti,
0.356701801807186,36.8968500884134,27300,2017-11-14 07:45:22,1882.231432331415,111.70000357440001,0.35999970196000003,1.2408200397062399,1882.231432331415,111.70000357440001,1.0187991565468,1.2605200403366401,1180,-19.7,98,GPS_Atti,
0.356701692714466,36.8968499841919,27400,2017-11-14 07:45:22,1882.4314323378148,111.9000035808,0.35999970196000003,1.23076003938432,1882.4314323378148,111.9000035808,1.0187991565468,1.2605200403366401,1171,-19.7,98,GPS_Atti,
0.356701567099553,36.8968499104267,27500,2017-11-14 07:45:22,1882.531432341015,112.000003584,0.35999970196000003,1.21844003899008,1882.531432341015,112.000003584,1.0187991565468,1.2605200403366401,1144,-19.7,98,GPS_Atti,
0.356701451988103,36.8968498622258,27600,2017-11-14 07:45:22,1882.631432344215,112.1000035872,0.35999970196000003,1.2068200386182402,1882.631432344215,112.1000035872,1.0187991565468,1.2605200403366401,1117,-19.7,98,GPS_Atti,
0.356701342372653,36.8968498337607,27700,2017-11-14 07:45:22,1882.631432344215,112.1000035872,0.35999970196000003,1.19544003825408,1882.631432344215,112.1000035872,1.0187991565468,1.2605200403366401,1107,-19.7,98,GPS_Atti,
0.356701266449708,36.896849793691,27800,2017-11-14 07:45:22,1882.731432347415,112.20000359040002,0.35999970196000003,1.188000038016,1882.731432347415,112.20000359040002,1.0187991565468,1.2605200403366401,1094,-19.7,98,GPS_Atti,
0.35670119792967,36.8968497782348,27900,2017-11-14 07:45:23,1882.731432347415,112.20000359040002,0.35999970196000003,1.18087003778784,1882.731432347415,112.20000359040002,1.0187991565468,1.2605200403366401,1094,-19.7,98,GPS_Atti,
0.356701237940539,36.8968496946212,28000,2017-11-14 07:45:23,1882.8314323506152,112.30000359360001,0.0,1.18709003798688,1882.8314323506152,112.30000359360001,1.0187991565468,1.2605200403366401,1024,-19.7,98,GPS_Atti,
0.356701272059698,36.8968496470728,28100,2017-11-14 07:45:23,1882.8314323506152,112.30000359360001,0.0,1.1918900381404802,1882.8314323506152,112.30000359360001,1.0187991565468,1.2605200403366401,1024,-19.7,98,GPS_Atti,
0.356701332851141,36.8968496143312,28200,2017-11-14 07:45:23,1882.8314323506152,112.30000359360001,0.0,1.199250038376,1882.8314323506152,112.30000359360001,1.0187991565468,1.2605200403366401,1024,-19.7,98,GPS_Atti,
0.356701377828764,36.8968496143617,28300,2017-11-14 07:45:23,1882.8314323506152,112.30000359360001,0.0,1.2041500385328001,1882.8314323506152,112.30000359360001,1.0187991565468,1.2605200403366401,1024,-19.7,98,GPS_Atti,
0.356701495293315,36.8968494994653,28500,2017-11-14 07:45:23,1882.9314323538151,112.4000035968,0.0,1.2196200390278402,1882.9314323538151,112.4000035968,1.0187991565468,1.2605200403366401,1024,-19.7,98,GPS_Atti,
0.356701574987735,36.8968494236879,28600,2017-11-14 07:45:23,1882.9314323538151,112.4000035968,0.0,1.23011003936352,1882.9314323538151,112.4000035968,1.0187991565468,1.2605200403366401,978,-19.7,98,GPS_Atti,
0.356701638549162,36.896849390098,28700,2017-11-14 07:45:23,1882.9314323538151,112.4000035968,0.0,1.23783003961056,1882.9314323538151,112.4000035968,1.0187991565468,1.2605200403366401,799,-19.7,98,GPS_Atti,
0.356701842195854,36.8968493045321,28900,2017-11-14 07:45:24,1882.9314323538151,112.4000035968,0.0,1.26203004038496,1882.9314323538151,112.4000035968,1.0187991565468,1.26203004038496,739,-19.7,98,GPS_Atti,
0.356701961342588,36.8968492385164,29000,2017-11-14 07:45:24,1882.9314323538151,112.4000035968,0.0,1.2766000408512002,1882.9314323538151,112.4000035968,1.0187991565468,1.2766000408512002,734,-19.7,98,GPS_Atti,
0.35670204499087,36.8968492185364,29100,2017-11-14 07:45:24,1882.9314323538151,112.4000035968,0.35999970196000003,1.28617004115744,1882.9314323538151,112.4000035968,1.0187991565468,1.28617004115744,728,-19.7,98,GPS_Atti,
0.356702181333972,36.8968492202205,29200,2017-11-14 07:45:24,1882.8314323506152,112.30000359360001,0.35999970196000003,1.30089004162848,1882.9314323538151,112.4000035968,1.0187991565468,1.30089004162848,719,-19.7,98,GPS_Atti,
0.35670227970176,36.8968492474249,29300,2017-11-14 07:45:24,1882.731432347415,112.20000359040002,0.0,1.3108700419478398,1882.9314323538151,112.4000035968,1.0187991565468,1.3108700419478398,716,-19.7,98,GPS_Atti,
0.356702393328069,36.8968492065019,29400,2017-11-14 07:45:24,1882.631432344215,112.1000035872,0.0,1.3242000423744,1882.9314323538151,112.4000035968,1.0187991565468,1.3242000423744,714,-19.7,98,GPS_Atti,
0.356702465609813,36.8968491998203,29500,2017-11-14 07:45:24,1882.531432341015,112.000003584,0.0,1.33221004263072,1882.9314323538151,112.4000035968,1.0187991565468,1.33221004263072,712,-19.7,98,GPS_Atti,
0.356702590949518,36.8968491279479,29600,2017-11-14 07:45:24,1882.3314323346149,111.80000357760001,0.0,1.34758004312256,1882.9314323538151,112.4000035968,1.0187991565468,1.34758004312256,711,-19.7,98,GPS_Atti,
0.356702678134782,36.89684908322,29700,2017-11-14 07:45:24,1882.231432331415,111.70000357440001,0.0,1.3581500434608,1882.9314323538151,112.4000035968,1.0187991565468,1.3581500434608,713,-19.7,98,GPS_Atti,
0.35670282317866,36.8968490266148,29800,2017-11-14 07:45:24,1882.1314323282152,111.6000035712,0.0,1.37529004400928,1882.9314323538151,112.4000035968,1.0187991565468,1.37529004400928,713,-19.7,98,GPS_Atti,
0.356702933399892,36.8968489983639,29900,2017-11-14 07:45:25,1882.0314323250147,111.50000356800001,0.0,1.3879500444144,1882.9314323538151,112.4000035968,1.0187991565468,1.3879500444144,732,-19.7,98,GPS_Atti,
0.356703086828628,36.8968488865513,30000,2017-11-14 07:45:25,1881.931432321815,111.4000035648,0.0,1.40743004503776,1882.9314323538151,112.4000035968,1.0187991565468,1.40743004503776,861,-19.7,98,GPS_Atti,
0.356703179680877,36.8968488328604,30100,2017-11-14 07:45:25,1881.831432318615,111.30000356160001,0.0,1.4188800454041601,1882.9314323538151,112.4000035968,1.0187991565468,1.4188800454041601,1024,-19.7,98,GPS_Atti,
0.356703376092392,36.8968487152548,30300,2017-11-14 07:45:25,1881.731432315415,111.2000035584,0.0,1.4432200461830402,1882.9314323538151,112.4000035968,1.0187991565468,1.4432200461830402,1024,-19.7,98,GPS_Atti,
0.356703460812191,36.8968486314003,30400,2017-11-14 07:45:25,1881.6314323122149,111.1000035552,0.0,1.4546400465484801,1882.9314323538151,112.4000035968,1.0187991565468,1.4546400465484801,1024,-19.7,98,GPS_Atti,
0.35670348868301,36.8968485735281,30500,2017-11-14 07:45:25,1881.731432315415,111.2000035584,0.0,1.459250046696,1882.9314323538151,112.4000035968,1.0187991565468,1.459250046696,1024,-19.7,98,GPS_Atti,
0.356703565631875,36.8968484470371,30600,2017-11-14 07:45:25,1881.731432315415,111.2000035584,0.0,1.4711000470752,1882.9314323538151,112.4000035968,1.0187991565468,1.4711000470752,943,-19.7,98,GPS_Atti,
0.356703665287762,36.8968482582866,30800,2017-11-14 07:45:25,1881.731432315415,111.2000035584,0.0,1.4873400475948801,1882.9314323538151,112.4000035968,1.0187991565468,1.4873400475948801,781,-19.7,98,GPS_Atti,
0.356703687618614,36.8968481945374,30900,2017-11-14 07:45:26,1881.731432315415,111.2000035584,0.0,1.4916500477327999,1882.9314323538151,112.4000035968,1.0187991565468,1.4916500477327999,723,-19.7,98,GPS_Atti,
0.35670377066763,36.8968481068555,31000,2017-11-14 07:45:26,1881.6314323122149,111.1000035552,0.0,1.5032200481030402,1882.9314323538151,112.4000035968,1.0187991565468,1.5032200481030402,700,-19.7,98,GPS_Atti,
0.356703800580518,36.896848076911,31100,2017-11-14 07:45:26,1881.6314323122149,111.1000035552,0.0,1.50734004823488,1882.9314323538151,112.4000035968,1.0187991565468,1.50734004823488,675,-19.7,98,GPS_Atti,
0.356703884955086,36.8968480167156,31200,2017-11-14 07:45:26,1881.531432309015,111.00000355200001,0.35999970196000003,1.5182300485833602,1882.9314323538151,112.4000035968,1.0187991565468,1.5182300485833602,681,-19.7,98,GPS_Atti,
0.356703912860103,36.8968480155262,31300,2017-11-14 07:45:26,1881.431432305815,110.9000035488,0.0,1.52124004867968,1882.9314323538151,112.4000035968,1.0187991565468,1.52124004867968,690,-19.7,98,GPS_Atti,
0.356703978445685,36.8968479795279,31400,2017-11-14 07:45:26,1881.2314322994148,110.7000035424,0.35999970196000003,1.52937004893984,1882.9314323538151,112.4000035968,1.0187991565468,1.52937004893984,699,-19.7,98,GPS_Atti,
0.356703995357076,36.8968479917908,31500,2017-11-14 07:45:26,1881.131432296215,110.6000035392,0.0,1.53079004898528,1882.9314323538151,112.4000035968,1.0187991565468,1.53079004898528,711,-19.7,97,GPS_Atti,
0.356704016562673,36.8968479603008,31600,2017-11-14 07:45:26,1880.9314322898151,110.40000353280001,0.35999970196000003,1.53404004908928,1882.9314323538151,112.4000035968,1.0187991565468,1.53404004908928,704,-19.7,97,GPS_Atti,
