latitude,longitude,altitude(feet),ascent(feet),speed(mph),distance(feet),time(millisecond),datetime(utc),satellites,gpslevel,voltage(v),max_altitude(feet),max_ascent(feet),max_speed(mph),max_distance(feet), xSpeed(mph), ySpeed(mph), zSpeed(mph), compass_heading(degrees), pitch(degrees), roll(degrees),isPhoto,isVideo,rc_elevator,rc_aileron,rc_throttle,rc_rudder,gimbal_heading(degrees),gimbal_pitch(degrees),battery_percent,voltageCell1,voltageCell2,voltageCell3,voltageCell4,voltageCell5,voltageCell6,current(A),battery_temperature(f),flycStateRaw,flycState,message
0.364632014434235,36.8985506661415,5631.0772631997,0,0,0,0,2018-04-03 06:18:59,15,0,0,5631.0772631997,0,0,0,0,0,0,85.8, -2.1, 3.1,0,0,364,364,364,1684,90.4,0,100,4.315,4.318,4.277,4.302,0,0,0,75.11,41,Motors_Started,
0.364632020151702,36.8985506966849,5631.0772631997,0,0,0.0113370738536,100,2018-04-03 06:18:59,15,0,0,5631.0772631997,0,0,0.0113370738536,0,0,0,85.8, -2.1, 3.1,0,0,364,364,364,1684,90.4,0,100,4.315,4.318,4.277,4.302,0,0,0,75.11,41,Motors_Started,
0.364632023554336,36.8985507228656,5631.0772631997,0,0,0.020961122718,200,2018-04-03 06:18:59,15,0,0,5631.0772631997,0,0,0.020961122718,0,0,0,85.7, -2, 3.1,0,0,364,364,364,1684,90.4,0,100,4.315,4.318,4.277,4.302,0,0,0,75.11,41,Motors_Started,
0.36463202464122,36.8985507348403,5631.0772631997,0,0,0.0253393380812,300,2018-04-03 06:19:00,15,0,0,5631.0772631997,0,0,0.0253393380812,0,0,0,85.7, -2.1, 3.1,0,0,364,364,364,1684,90.4,0,100,4.315,4.318,4.277,4.302,0,0,0,75.11,41,Motors_Started,
0.364632023213075,36.8985507398026,5631.0772631997,0,0,0.0270648630708,400,2018-04-03 06:19:00,15,0,0,5631.0772631997,0,0,0.0270648630708,0,0,0,85.8, -2.1, 3.1,0,0,364,364,364,1684,90.4,0,100,4.315,4.318,4.277,4.302,0,0,0,75.11,41,Motors_Started,
0.364632021797652,36.8985507405617,5631.0772631997,0,0,0.0272841872248,500,2018-04-03 06:19:00,15,0,17.158,5631.0772631997,0,0,0.0272841872248,0,0,0,85.7, -2.1, 3.1,0,0,364,364,364,1684,90.4,0,100,4.315,4.318,4.277,4.302,0,0,1.482,75.11,41,Motors_Started,Setting new Return-To-Home altitude to 45m (148 ft). Setting new Maximum Flight Altitude to 150m (492 ft)
0.364632017971216,36.8985507512356,5631.0772631997,0,0,0.0310727044064,600,2018-04-03 06:19:00,15,0,17.158,5631.0772631997,0,0,0.0310727044064,0,0,0,85.7, -2.1, 3.1,0,0,364,364,364,1684,90.4,0,100,4.315,4.318,4.277,4.302,0,0,1.482,75.11,41,Motors_Started,
0.364632014377138,36.8985507747719,5631.0772631997,0,0,0.039632875284,700,2018-04-03 06:19:00,15,0,17.158,5631.0772631997,0,0,0.039632875284,0,0,0,85.7, -2.1, 3.1,0,0,364,364,364,1684,90.4,0,100,4.315,4.318,4.277,4.302,0,0,1.482,75.11,41,Motors_Started,
0.364632009592769,36.8985507966385,5631.0772631997,0,0,0.047643702312,800,2018-04-03 06:19:00,15,0,17.158,5631.0772631997,0,0,0.047643702312,0,0,0,85.7, -2.1, 3.1,0,0,364,364,364,1684,90.4,0,100,4.315,4.318,4.277,4.302,0,0,1.482,75.11,41,Motors_Started,
0.364632005537639,36.8985508061814,5631.0772631997,0,0,0.051195539696,900,2018-04-03 06:19:00,15,0,17.158,5631.0772631997,0,0,0.051195539696,0,0,0,85.7, -2.1, 3.1,0,0,364,364,364,1684,90.3,0,100,4.315,4.318,4.277,4.302,0,0,1.482,75.11,41,Motors_Started,
0.36463200154276,36.8985508118637,5631.0772631997,0,0,0.053373361288,1000,2018-04-03 06:19:00,15,0,17.158,5631.0772631997,0,0,0.053373361288,0,0,0,85.7, -2.1, 3.1,0,0,364,364,364,1684,90.3,0,100,4.315,4.318,4.277,4.302,0,0,1.482,75.11,41,Motors_Started,
0.364631998379202,36.8985508123101,5631.0772631997,0,0,0.053649279932,1100,2018-04-03 06:19:00,15,0,17.158,5631.0772631997,0,0,0.053649279932,0,0,0,85.7, -2.1, 3.1,0,0,364,364,364,1684,90.3,0,100,4.315,4.318,4.277,4.302,0,0,1.482,75.11,41,Motors_Started,
0.364632012348198,36.8985508263212,5631.0772631997,0,0,0.058445211844,1200,2018-04-03 06:19:00,15,0,17.158,5631.0772631997,0,0,0.058445211844,0,0,0,85.7, -2.1, 3.1,0,0,364,364,364,1684,90.3,0,100,4.315,4.318,4.277,4.302,0,0,1.482,75.11,41,Motors_Started,
0.364632040096375,36.8985508532197,5631.0772631997,0,0,0.068893046824,1300,2018-04-03 06:19:01,15,0,17.158,5631.0772631997,0,0,0.068893046824,0,0,0,85.7, -2.1, 3.1,0,0,364,364,364,1684,90.3,0,100,4.315,4.318,4.277,4.302,0,0,1.482,75.11,41,Motors_Started,
0.364632071869557,36.8985508798912,5631.0772631997,0,0,0.08075131492,1400,2018-04-03 06:19:01,15,0,17.158,5631.0772631997,0,0,0.08075131492,0,0,0,85.6, -2.1, 3.1,0,0,364,364,364,1684,90.3,0,100,4.315,4.318,4.277,4.302,0,0,1.482,75.11,41,Motors_Started,
0.364632089959941,36.8985508933493,5631.0772631997,0,0,0.087354989672,1500,2018-04-03 06:19:01,15,0,17.104,5631.0772631997,0,0,0.087354989672,0,0,0,85.7, -2.1, 3.1,0,0,548,512,802,1303,90.3,0,100,4.31,4.315,4.275,4.3,0,0,1.818,75.11,10,Assisted_Takeoff,
0.364632107792421,36.8985509050334,5631.0772631997,0,0,0.093577102732,1600,2018-04-03 06:19:01,15,0,17.104,5631.0772631997,0,0,0.093577102732,0,0,0,85.6, -2.1, 3.1,0,0,917,915,1024,1024,88.9,0,100,4.31,4.315,4.275,4.3,0,0,1.818,75.11,10,Assisted_Takeoff,
0.364632117037911,36.8985509093608,5631.0772631997,0,0,0.096309714368,1700,2018-04-03 06:19:01,15,0,17.104,5631.0772631997,0,0,0.096309714368,0,0,0,85.7, -2.1, 3,0,0,1024,1024,1024,1024,87.7,0,100,4.31,4.315,4.275,4.3,0,0,1.818,75.11,10,Assisted_Takeoff,
0.364632124448044,36.8985509271757,5631.0772631997,0,0,0.103349084672,1800,2018-04-03 06:19:01,15,0,17.104,5631.0772631997,0,0,0.103349084672,0,0,0,85.7, -2.1, 3.1,0,0,1024,1024,1024,1024,87.1,0,100,4.31,4.315,4.275,4.3,0,0,1.818,75.11,10,Assisted_Takeoff,
0.3646321281325,36.8985509564429,5631.0772631997,0,0,0.113748035136,1900,2018-04-03 06:19:01,15,0,17.104,5631.0772631997,0,0,0.113748035136,0,0,0,85.6, -2.1, 3.1,0,0,1024,1024,1024,1024,86.8,0,100,4.31,4.315,4.275,4.3,0,0,1.818,75.11,10,Assisted_Takeoff,
0.364632128806982,36.8985509852755,5631.0772631997,0,0,0.123685371412,2000,2018-04-03 06:19:01,15,0,17.104,5631.0772631997,0,0,0.123685371412,0,0,0,85.6, -2.1, 3.1,0,0,1024,1024,1024,1024,86.7,0,100,4.31,4.315,4.275,4.3,0,0,1.818,75.11,10,Assisted_Takeoff,
0.364632127841721,36.8985509999417,5631.0772631997,0,0,0.128621395192,2100,2018-04-03 06:19:01,15,0,17.104,5631.0772631997,0,0,0.128621395192,0,0,0,85.6, -2.1, 3.1,0,0,1024,1024,1024,1024,86.5,0,100,4.31,4.315,4.275,4.3,0,0,1.818,75.11,10,Assisted_Takeoff,
0.364632123369505,36.8985510274189,5631.0772631997,0,0,0.137670936164,2200,2018-04-03 06:19:01,15,0,17.104,5631.0772631997,0,0,0.137670936164,0,0,0,85.6, -2.1, 3.1,0,0,1024,1024,1024,1024,86.4,0,100,4.31,4.315,4.275,4.3,0,0,1.818,75.11,10,Assisted_Takeoff,
0.364632119101455,36.8985510616768,5631.0772631997,0,0,0.149275267244,2300,2018-04-03 06:19:02,15,0,17.104,5631.0772631997,0,0,0.149275267244,0,0,0,85.6, -2.1, 3.1,0,0,1024,1024,1024,1024,86.4,0,100,4.31,4.315,4.275,4.3,0,0,1.818,75.11,10,Assisted_Takeoff,
0.364632113111224,36.8985510950776,5631.0772631997,0,0,0.160581698052,2400,2018-04-03 06:19:02,15,0,17.104,5631.0772631997,0,0,0.160581698052,0,0,0,85.6, -2.1, 3.1,0,0,1024,1024,1024,1024,86.4,0,100,4.31,4.315,4.275,4.3,0,0,1.818,75.11,10,Assisted_Takeoff,
0.364632108068137,36.8985511124991,5631.0772631997,0,0,0.166394690364,2500,2018-04-03 06:19:02,15,0,16.917,5631.0772631997,0,0,0.166394690364,0,0,0,85.6, -2.1, 3.1,0,0,1024,1024,1024,1024,86.3,0,100,4.309,4.309,4.271,4.293,0,0,4.008,75.11,10,Assisted_Takeoff,
0.364632102156885,36.8985511419943,5631.0772631997,0,0,0.176536751056,2600,2018-04-03 06:19:02,15,0,16.917,5631.0772631997,0,0,0.176536751056,0,0,0,85.6, -2.1, 3.1,0,0,1024,1024,1026,1024,86.3,0,100,4.309,4.309,4.271,4.293,0,0,4.008,75.11,10,Assisted_Takeoff,
0.364632096815589,36.8985511778544,5631.0772631997,0,0,0.189098431248,2700,2018-04-03 06:19:02,15,0,16.917,5631.0772631997,0,0,0.189098431248,0,0,0,85.6, -2.1, 3.1,0,0,1024,1024,1084,1024,86.2,0,100,4.309,4.309,4.271,4.293,0,0,4.008,75.11,10,Assisted_Takeoff,
0.364632091330378,36.8985512118596,5631.0772631997,0,0,0.20106791982,2800,2018-04-03 06:19:02,15,0,16.917,5631.0772631997,0,0,0.20106791982,0,0,0,85.6, -2.1, 3.1,0,0,1024,1024,1124,1024,86.2,0,100,4.309,4.309,4.271,4.293,0,0,4.008,75.11,10,Assisted_Takeoff,
0.364632086736843,36.8985512305663,5631.0772631997,0,0,0.207608602444,2900,2018-04-03 06:19:02,15,0,16.917,5631.0772631997,0,0,0.207608602444,0,0,0,85.6, -2.1, 3.1,0,0,1024,1024,1151,1024,86.2,0,100,4.309,4.309,4.271,4.293,0,0,4.008,75.11,10,Assisted_Takeoff,
0.364632101175849,36.8985512430421,5631.0772631997,0,0,0.212843510748,3000,2018-04-03 06:19:02,15,0,16.917,5631.0772631997,0,0,0.212843510748,0,0,0,85.6, -2.1, 3.1,0,0,1024,1024,1188,1024,86.2,0,100,4.309,4.309,4.271,4.293,0,0,4.008,75.11,10,Assisted_Takeoff,
0.364632127502598,36.8985512491044,5631.0772631997,0,0,0.216653222156,3100,2018-04-03 06:19:02,15,0,16.917,5631.0772631997,0,0,0.216653222156,0,0,0,85.6, -2.1, 3,0,0,1024,1024,1222,1024,86.1,0,100,4.309,4.309,4.271,4.293,0,0,4.008,75.11,10,Assisted_Takeoff,
0.364632157695985,36.8985512650281,5631.0772631997,0,0,0.2246637211,3200,2018-04-03 06:19:03,15,0,16.917,5631.0772631997,0,0,0.2246637211,0,0,0,85.6, -2, 3.1,0,0,1024,1024,1232,1024,86.1,0,100,4.309,4.309,4.271,4.293,0,0,4.008,75.11,10,Assisted_Takeoff,
0.364632173440494,36.8985512936717,5631.0772631997,0,0,0.236185046928,3300,2018-04-03 06:19:03,15,0,16.917,5631.0772631997,0,0,0.236185046928,0,0,0,85.6, -2, 3.1,0,0,1024,1024,1260,1024,86.1,0,100,4.309,4.309,4.271,4.293,0,0,4.008,75.11,10,Assisted_Takeoff,
0.364632189433341,36.8985513195499,5631.0772631997,0,0,0.2467929869,3400,2018-04-03 06:19:03,15,0,16.917,5631.0772631997,0,0,0.2467929869,0,0,0,85.6, -1.9, 3.1,0,0,1024,1024,1303,1024,86.1,0,100,4.309,4.309,4.271,4.293,0,0,4.008,75.11,10,Assisted_Takeoff,
0.364632181132856,36.8985513449785,5631.0772631997,0,0,0.255026582964,3500,2018-04-03 06:19:03,15,0,17.131,5631.0772631997,0,0,0.255026582964,0,0,0,85.7, -0.6, 2.6,0,0,1024,1024,1370,1024,86.1,0,100,4.309,4.309,4.271,4.293,0,0,4.008,75.11,10,Assisted_Takeoff,
0.36463210991754,36.8985514060197,5631.0772631997,0,0,0.272177174064,3600,2018-04-03 06:19:03,15,0,17.131,5631.0772631997,0,0,0.272177174064,0,0,-0.223694,85.9, 0.9, 1.8,0,0,1024,1024,1417,1024,86.1,0,100,4.309,4.309,4.271,4.293,0,0,4.008,75.11,10,Assisted_Takeoff,Home Point Recorded. RTH Altitude:  45m.
0.364631983508252,36.8985514646527,5631.0772631997,0,0.223694,0.291548893844,3700,2018-04-03 06:19:03,15,0,17.131,5631.0772631997,0,0.223694,0.291548893844,-0.223694,0,-0.671082,85.8, 0.9, 0.8,0,0,1024,1024,1486,1024,86.1,0,100,4.309,4.309,4.271,4.293,0,0,4.008,75.11,6,P-GPS,Obstacle Avoided. Revise Flight Route
0.364631819252398,36.8985515082179,5631.0772631997,0,0.223694,0.315370088832,3800,2018-04-03 06:19:03,15,0,17.131,5631.0772631997,0,0.223694,0.315370088832,-0.223694,0,-1.342164,85.8, 0.6, -0.1,0,0,1024,1024,1636,1024,86.1,0,100,4.309,4.309,4.271,4.293,0,0,4.008,75.11,6,P-GPS,
0.364631658348086,36.8985515284315,5631.4053471997,0.328084,0.223694,0.3403707458,3900,2018-04-03 06:19:03,15,0,17.131,5631.4053471997,0.328084,0.223694,0.3403707458,-0.223694,0,-2.23694,85.9, 0.3, -0.7,0,0,1024,1024,1684,1024,86.1,0,100,4.309,4.309,4.271,4.293,0,0,4.008,75.11,6,P-GPS,
0.364631509764276,36.8985515211053,5631.7334311997,0.656168,0.223694,0.36221785936,4000,2018-04-03 06:19:03,15,0,17.131,5631.7334311997,0.656168,0.223694,0.36221785936,-0.223694,0,-2.908022,85.9, 0.6, -1.1,0,0,1024,1024,1684,1024,86.1,0,100,4.309,4.309,4.271,4.293,0,0,4.008,75.11,6,P-GPS,
0.364631390028605,36.8985514558914,5632.3895991997,1.312336,0.3131716,0.36731628472,4100,2018-04-03 06:19:03,15,0,17.131,5632.3895991997,1.312336,0.3131716,0.36731628472,-0.223694,-0.223694,-3.802798,85.8, 0.2, -0.9,0,0,1024,1024,1684,1024,86.1,0,100,4.309,4.309,4.271,4.293,0,0,4.008,75.11,6,P-GPS,
0.364631275627081,36.8985513081024,5632.7176831997,1.64042,0.3131716,0.35709318728,4200,2018-04-03 06:19:03,15,0,17.131,5632.7176831997,1.64042,0.3131716,0.36731628472,-0.223694,-0.223694,-4.697574,85.8, -1.1, -1.2,0,0,1024,1024,1684,1024,86.1,0,100,4.309,4.309,4.271,4.293,0,0,4.008,75.11,6,P-GPS,
0.364631171239088,36.8985511344728,5633.7019351997,2.624672,0.223694,0.35190617924,4300,2018-04-03 06:19:04,15,0,17.131,5633.7019351997,2.624672,0.3131716,0.36731628472,0,-0.223694,-5.59235,85.8, -2.4, -1.7,0,0,1024,1024,1684,1024,86.1,0,100,4.309,4.309,4.271,4.293,0,0,4.008,75.11,6,P-GPS,
0.364631109127092,36.8985509693496,5634.6861871997,3.608924,0,0.34833334448,4400,2018-04-03 06:19:04,15,0,17.131,5634.6861871997,3.608924,0.3131716,0.36731628472,0,0,-6.71082,85.9, -2.2, -1.1,0,0,1024,1024,1684,1024,86.1,0,100,4.309,4.309,4.271,4.293,0,0,4.008,75.11,6,P-GPS,
0.364631076657369,36.8985508601818,5635.6704391997,4.593176,0,0.3493930558,4500,2018-04-03 06:19:04,15,0,16.676,5635.6704391997,4.593176,0.3131716,0.36731628472,0,0,-8.052984,85.9, -1.3, -0.6,0,0,1024,1024,1684,1024,86.1,0,100,4.3,4.301,4.259,4.275,0,0,3.448,75.11,6,P-GPS,
0.364631057324953,36.8985507821693,5636.9827751997,5.905512,0,0.35175854144,4600,2018-04-03 06:19:04,15,0,16.676,5636.9827751997,5.905512,0.3131716,0.36731628472,0,0,-9.171454,86, -0.8, -0.9,0,0,1024,1024,1684,1024,86.1,0,100,4.3,4.301,4.259,4.275,0,0,3.448,75.11,6,P-GPS,
0.364631046057062,36.8985507438222,5638.2951111997,7.217848,0,0.3544455494,4700,2018-04-03 06:19:04,15,0,16.676,5638.2951111997,7.217848,0.3131716,0.36731628472,0,0,-10.06623,86, -1.2, -1.4,0,0,1024,1024,1684,1024,86.1,0,100,4.3,4.301,4.259,4.275,0,0,3.448,75.11,6,P-GPS,
0.364631087290421,36.8985507803011,5639.9355311997,8.858268,0,0.34082350172,4800,2018-04-03 06:19:04,15,0,16.676,5639.9355311997,8.858268,0.3131716,0.36731628472,0,0,-10.737312,85.9, -1.4, -1.5,0,0,1024,1024,1684,1024,86,0,100,4.3,4.301,4.259,4.275,0,0,3.448,75.11,6,P-GPS,
0.364631166440649,36.8985508714243,5641.5759511997,10.498688,0,0.318326125672,4900,2018-04-03 06:19:04,15,0,16.676,5641.5759511997,10.498688,0.3131716,0.36731628472,0,0,-11.1847,85.9, -1.4, -1.1,0,0,1024,1024,1684,1024,86,0,100,4.3,4.301,4.259,4.275,0,0,3.448,75.11,6,P-GPS,
0.364631287390477,36.8985510426537,5643.2163711997,12.139108,0,0.298719825832,5000,2018-04-03 06:19:04,15,0,16.676,5643.2163711997,12.139108,0.3131716,0.36731628472,0,0,-11.408394,85.9, -1.9, -1.1,0,0,1024,1024,1684,1024,86.1,0,100,4.3,4.301,4.259,4.275,0,0,3.448,75.11,6,P-GPS,
0.364631412553751,36.8985512198088,5644.8567911997,13.779528,0,0.298373369128,5100,2018-04-03 06:19:04,15,0,16.676,5644.8567911997,13.779528,0.3131716,0.36731628472,0,0,-11.408394,85.9, -1.7, -0.7,0,0,1024,1024,1684,1024,86.1,0,100,4.3,4.301,4.259,4.275,0,0,3.448,75.11,6,P-GPS,
0.364631554233468,36.8985514276096,5646.8252951997,15.748032,0,0.324612543196,5200,2018-04-03 06:19:04,15,0,16.676,5646.8252951997,15.748032,0.3131716,0.36731628472,0,0,-11.408394,85.8, -1.1, -0.5,0,0,1024,1024,1684,1024,86.1,0,100,4.3,4.301,4.259,4.275,0,0,3.448,75.11,6,P-GPS,
0.364631672223548,36.8985515659676,5648.4657151997,17.388452,0,0.35123360704,5300,2018-04-03 06:19:05,15,0,16.676,5648.4657151997,17.388452,0.3131716,0.36731628472,0,0,-11.408394,85.8, -0.6, -0.2,0,0,1024,1024,1684,1024,86.1,0,100,4.3,4.301,4.259,4.275,0,0,3.448,75.11,6,P-GPS,
0.364631807012199,36.8985517439637,5650.1061351997,19.028872,0,0.40044948788,5400,2018-04-03 06:19:05,15,0,16.676,5650.1061351997,19.028872,0.3131716,0.40044948788,0,0,-11.1847,85.8, -0.8, 0.1,0,0,1024,1024,1684,1024,86.1,0,100,4.3,4.301,4.259,4.275,0,0,3.448,75.11,6,P-GPS,
0.364631925705309,36.8985519105964,5651.7465551997,20.669292,0,0.45518046076,5500,2018-04-03 06:19:05,15,0,16.676,5651.7465551997,20.669292,0.3131716,0.45518046076,0,0,-10.961006,85.8, -1.4, 0,0,0,1024,1024,1684,1024,86.1,0,100,4.3,4.301,4.259,4.275,0,0,3.448,75.11,6,P-GPS,
0.364632029297858,36.8985520774871,5653.3869751997,22.309712,0,0.51494752304,5600,2018-04-03 06:19:05,15,0,16.676,5653.3869751997,22.309712,0.3131716,0.51494752304,0,0,-10.961006,85.8, -1.6, -0.1,0,0,1024,1024,1684,1024,86.1,0,100,4.3,4.301,4.259,4.275,0,0,3.448,75.11,6,P-GPS,
0.364632165227131,36.8985522739995,5656.3397311997,25.262468,0,0.5891896514,5800,2018-04-03 06:19:05,14,0,16.676,5656.3397311997,25.262468,0.3131716,0.5891896514,0,0,-10.737312,85.8, -1.9, -0.6,0,0,1024,1024,1684,1024,86.1,0,100,4.3,4.301,4.259,4.275,0,0,3.448,75.11,6,P-GPS,
0.364632219580826,36.8985523240258,5657.9801511997,26.902888,0,0.60947836596,5900,2018-04-03 06:19:05,14,0,16.676,5657.9801511997,26.902888,0.3131716,0.60947836596,0,0,-10.513618,85.8, -1.5, 0.2,0,0,1024,1024,1684,1024,86,0,100,4.3,4.301,4.259,4.275,0,0,3.448,75.11,6,P-GPS,
0.364632265612256,36.8985523775444,5659.6205711997,28.543308,0,0.63107941652,6000,2018-04-03 06:19:05,15,0,16.676,5659.6205711997,28.543308,0.3131716,0.63107941652,0,0,-10.513618,85.7, -1.1, 0.6,0,0,1024,1024,1684,1024,86,0,100,4.3,4.301,4.259,4.275,0,0,3.448,75.11,6,P-GPS,
0.364632325289742,36.8985524637862,5660.9329071997,29.855644,0,0.66559057248,6100,2018-04-03 06:19:05,15,0,16.676,5660.9329071997,29.855644,0.3131716,0.66559057248,0,0,-10.513618,85.8, -0.8, 0.3,0,0,1024,1024,1684,1024,86,0,100,4.3,4.301,4.259,4.275,0,0,3.448,75.11,6,P-GPS,
0.364632349345422,36.8985525176539,5662.5733271997,31.496064,0,0.68647311908,6200,2018-04-03 06:19:05,15,0,16.676,5662.5733271997,31.496064,0.3131716,0.68647311908,0,0,-10.513618,85.8, -0.7, 0.2,0,0,1024,1024,1684,1024,86,0,100,4.3,4.301,4.259,4.275,0,0,3.448,75.11,6,P-GPS,
0.36463235684288,36.8985525599247,5664.2137471997,33.136484,0,0.70213584924,6300,2018-04-03 06:19:06,15,0,16.676,5664.2137471997,33.136484,0.3131716,0.70213584924,0,0,-10.513618,85.8, -0.9, -0.2,0,0,1024,1024,1684,1024,86,0,100,4.3,4.301,4.259,4.275,0,0,3.448,75.11,6,P-GPS,
0.364632343366997,36.898552592302,5665.5260831997,34.44882,0,0.71291668948,6400,2018-04-03 06:19:06,15,0,16.676,5665.5260831997,34.44882,0.3131716,0.71291668948,0,0,-10.513618,85.8, -1.1, -0.6,0,0,1024,1024,1684,1024,86,0,100,4.3,4.301,4.259,4.275,0,0,3.448,75.11,6,P-GPS,
0.364632343112451,36.898552644734,5667.1665031997,36.08924,0,0.73176511528,6500,2018-04-03 06:19:06,15,0,16.569,5667.1665031997,36.08924,0.3131716,0.73176511528,0,0,-10.513618,85.8, -1.1, -0.9,0,0,1024,1024,1684,1024,86,0,100,4.168,4.171,4.136,4.155,0,0,16.824,75.11,6,P-GPS,
0.364632350862623,36.8985526845682,5668.8069231997,37.72966,0,0.74656498452,6600,2018-04-03 06:19:06,15,0,16.569,5668.8069231997,37.72966,0.3131716,0.74656498452,0,0,-10.513618,85.8, -1.2, -0.8,0,0,1024,1024,1684,1024,86,0,100,4.168,4.171,4.136,4.155,0,0,16.824,75.11,6,P-GPS,
0.364632378787893,36.8985527291301,5670.1192591997,39.041996,0,0.76431432892,6700,2018-04-03 06:19:06,15,0,16.569,5670.1192591997,39.041996,0.3131716,0.76431432892,0,0,-10.513618,85.8, -0.9, -0.8,0,0,1024,1024,1684,1024,86,0,100,4.168,4.171,4.136,4.155,0,0,16.824,75.11,6,P-GPS,
0.364632401090655,36.8985527636904,5671.7596791997,40.682416,0,0.77816931624,6800,2018-04-03 06:19:06,15,0,16.569,5671.7596791997,40.682416,0.3131716,0.77816931624,0,0,-10.513618,85.8, -0.7, -0.5,0,0,1024,1024,1684,1024,86,0,100,4.168,4.171,4.136,4.155,0,0,16.824,75.11,6,P-GPS,
0.364632416430902,36.8985527940839,5673.4000991997,42.322836,0,0.79009516964,6900,2018-04-03 06:19:06,15,0,16.569,5673.4000991997,42.322836,0.3131716,0.79009516964,0,0,-10.513618,85.8, -0.8, -0.5,0,0,1024,1024,1684,1024,86,0,100,4.168,4.171,4.136,4.155,0,0,16.824,75.11,6,P-GPS,
0.364632431846059,36.8985528286624,5674.7124351997,43.635172,0,0.8035433328,7000,2018-04-03 06:19:06,15,0,16.569,5674.7124351997,43.635172,0.3131716,0.8035433328,0,0,-10.513618,85.8, -1.1, -0.5,0,0,1024,1024,1684,1024,86,0,100,4.168,4.171,4.136,4.155,0,0,16.824,75.11,6,P-GPS,
0.364632455542769,36.8985528820975,5676.3528551997,45.275592,0,0.82433729672,7100,2018-04-03 06:19:06,15,0,16.569,5676.3528551997,45.275592,0.3131716,0.82433729672,0,0,-10.737312,85.8, -1, -0.7,0,0,1024,1024,1684,1024,86,0,100,4.168,4.171,4.136,4.155,0,0,16.824,75.11,6,P-GPS,
0.36463248313034,36.8985529375336,5677.9932751997,46.916012,0,0.84615816356,7200,2018-04-03 06:19:06,15,0,16.569,5677.9932751997,46.916012,0.3131716,0.84615816356,0,0,-10.737312,85.8, -0.8, -1,0,0,1024,1024,1684,1024,86,0,100,4.168,4.171,4.136,4.155,0,0,16.824,75.11,6,P-GPS,
0.364632520960214,36.8985529783484,5679.6336951997,48.556432,0,0.86359582816,7300,2018-04-03 06:19:07,15,0,16.569,5679.6336951997,48.556432,0.3131716,0.86359582816,0,0,-10.961006,85.8, -0.8, -0.8,0,0,1024,1024,1684,1024,86,0,100,4.168,4.171,4.136,4.155,0,0,16.824,75.11,6,P-GPS,
0.364632578500773,36.8985530056168,5681.2741151997,50.196852,0,0.87799871576,7400,2018-04-03 06:19:07,15,0,16.569,5681.2741151997,50.196852,0.3131716,0.87799871576,0,0,-10.961006,85.8, -1.2, -0.3,0,0,1024,1024,1684,1024,86,0,100,4.168,4.171,4.136,4.155,0,0,16.824,75.11,6,P-GPS,
0.364632630869497,36.8985530205786,5682.9145351997,51.837272,0,0.88795278432,7500,2018-04-03 06:19:07,15,0,16.515,5682.9145351997,51.837272,0.3131716,0.88795278432,0,0,-11.1847,85.8, -1.2, 0,0,0,1024,1024,1684,1024,86,0,100,4.168,4.171,4.136,4.155,0,0,16.824,75.11,6,P-GPS,
0.364632676028081,36.8985530157566,5684.5549551997,53.477692,0,0.89057417548,7600,2018-04-03 06:19:07,15,0,16.515,5684.5549551997,53.477692,0.3131716,0.89057417548,0,0,-11.1847,85.8, -1.7, -0.1,0,0,1024,1024,1684,1024,86,0,100,4.168,4.171,4.136,4.155,0,0,16.824,75.11,6,P-GPS,
0.364632702896593,36.898552998872,5686.1953751997,55.118112,0,0.88737207564,7700,2018-04-03 06:19:07,15,0,16.515,5686.1953751997,55.118112,0.3131716,0.89057417548,0,0,-11.1847,85.8, -2.1, -0.5,0,0,1024,1024,1684,1024,86,0,100,4.168,4.171,4.136,4.155,0,0,16.824,75.11,6,P-GPS,
0.364632719281385,36.8985529906026,5687.8357951997,56.758532,0,0.88619425408,7800,2018-04-03 06:19:07,15,0,16.515,5687.8357951997,56.758532,0.3131716,0.89057417548,0,0,-11.408394,85.8, -2.1, -0.5,0,0,1024,1024,1684,1024,86,0,100,4.168,4.171,4.136,4.155,0,0,16.824,75.11,6,P-GPS,
0.364632716676486,36.8985529971151,5689.8042991997,58.727036,0,0.88819228564,7900,2018-04-03 06:19:07,15,0,16.515,5689.8042991997,58.727036,0.3131716,0.89057417548,0,0,-11.408394,85.8, -1.9, -0.4,0,0,1024,1024,1684,1024,86,0,100,4.168,4.171,4.136,4.155,0,0,16.824,75.11,6,P-GPS,
0.3646326839527,36.8985530439468,5693.0851391997,62.007876,0,0.90125659052,8100,2018-04-03 06:19:07,15,0,16.515,5693.0851391997,62.007876,0.3131716,0.90125659052,0,0,-11.408394,85.8, -1.4, -0.6,0,0,1024,1024,1684,1024,86,0,100,4.168,4.171,4.136,4.155,0,0,16.824,75.11,6,P-GPS,
0.364632658490146,36.8985530801087,5695.0536431997,63.97638,0,0.91152561972,8200,2018-04-03 06:19:07,15,0,16.515,5695.0536431997,63.97638,0.3131716,0.91152561972,0,0,-11.632088,85.8, -1.8, -0.6,0,0,1024,1024,1684,1024,86,0,100,4.168,4.171,4.136,4.155,0,0,16.824,75.11,6,P-GPS,
0.364632635712489,36.8985531317559,5696.6940631997,65.6168,0,0.92768047588,8300,2018-04-03 06:19:08,15,0,16.515,5696.6940631997,65.6168,0.3131716,0.92768047588,0,0,-11.632088,85.8, -1.7, -0.6,0,0,1024,1024,1684,1024,86,0,100,4.168,4.171,4.136,4.155,0,0,16.824,75.11,6,P-GPS,
0.364632631472021,36.8985532022362,5698.6625671997,67.585304,0,0.95226709084,8400,2018-04-03 06:19:08,15,0,16.515,5698.6625671997,67.585304,0.3131716,0.95226709084,0,0,-11.632088,85.8, -1.2, -0.3,0,0,1024,1024,1684,1024,86,0,100,4.168,4.171,4.136,4.155,0,0,16.824,75.11,6,P-GPS,
0.364632637954653,36.8985532684095,5700.3029871997,69.225724,0,0.97629268216,8500,2018-04-03 06:19:08,15,0,16.435,5700.3029871997,69.225724,0.3131716,0.97629268216,0,0,-11.632088,85.8, -1.1, -0.3,0,0,1024,1024,1684,1024,86,0,100,4.154,4.158,4.123,4.141,0,0,18.382,75.11,6,P-GPS,
0.364632642713374,36.8985533394529,5702.2714911997,71.194228,0,1.00191276172,8600,2018-04-03 06:19:08,15,0,16.435,5702.2714911997,71.194228,0.3131716,1.00191276172,0,0,-11.632088,85.7, -0.9, -0.5,0,0,1024,1024,1684,1024,86,0,100,4.154,4.158,4.123,4.141,0,0,18.382,75.11,6,P-GPS,
0.364632625981112,36.8985533962904,5704.2399951997,73.162732,0,1.02075790668,8700,2018-04-03 06:19:08,15,0,16.435,5704.2399951997,73.162732,0.3131716,1.02075790668,0,0,-11.632088,85.7, -1, -0.6,0,0,1024,1024,1684,1024,86,0,100,4.154,4.158,4.123,4.141,0,0,18.382,75.11,6,P-GPS,
0.364632598842583,36.8985534457065,5705.8804151997,74.803152,0,1.03627627988,8800,2018-04-03 06:19:08,15,0,16.435,5705.8804151997,74.803152,0.3131716,1.03627627988,0,0,-11.408394,85.7, -1.1, -0.6,0,0,1024,1024,1684,1024,86,0,100,4.154,4.158,4.123,4.141,0,0,18.382,75.11,6,P-GPS,
0.364632543767284,36.8985534824144,5707.8489191997,76.771656,0,1.04548559776,8900,2018-04-03 06:19:08,15,0,16.435,5707.8489191997,76.771656,0.3131716,1.04548559776,0,0,-11.632088,85.7, -1.3, -0.7,0,0,1024,1024,1684,1024,86,0,100,4.154,4.158,4.123,4.141,0,0,18.382,75.11,6,P-GPS,
0.364632491204369,36.8985534998718,5709.8174231997,78.74016,0,1.04839570284,9000,2018-04-03 06:19:08,15,0,16.435,5709.8174231997,78.74016,0.3131716,1.04839570284,0,0,-11.632088,85.7, -1.5, -1,0,0,1024,1024,1684,1024,86,0,100,4.154,4.158,4.123,4.141,0,0,18.382,75.11,6,P-GPS,
0.364632441972334,36.8985534978398,5711.4578431997,80.38058,0,1.0448327106,9100,2018-04-03 06:19:08,15,0,16.435,5711.4578431997,80.38058,0.3131716,1.04839570284,0,0,-11.855782,85.8, -1.8, -1.4,0,0,1024,1024,1684,1024,86,0,100,4.154,4.158,4.123,4.141,0,0,18.382,75.11,6,P-GPS,
0.364632399405113,36.8985534847505,5713.4263471997,82.349084,0,1.037893734,9200,2018-04-03 06:19:08,15,0,16.435,5713.4263471997,82.349084,0.3131716,1.04839570284,0,0,-11.632088,85.8, -1.9, -1.7,0,0,1024,1024,1684,1024,86,0,100,4.154,4.158,4.123,4.141,0,0,18.382,75.11,6,P-GPS,
0.364632358193165,36.8985534750326,5715.3948511997,84.317588,0,1.0324475396,9300,2018-04-03 06:19:09,15,0,16.435,5715.3948511997,84.317588,0.3131716,1.04839570284,0,0,-11.632088,85.8, -1.9, -1.6,0,0,1024,1024,1684,1024,86,0,100,4.154,4.158,4.123,4.141,0,0,18.382,75.11,6,P-GPS,
0.364632318212117,36.8985534740219,5717.3633551997,86.286092,0,1.03041013796,9400,2018-04-03 06:19:09,15,0,16.435,5717.3633551997,86.286092,0.3131716,1.04839570284,0,0,-11.408394,85.8, -2, -1.5,0,0,1024,1024,1684,1024,86,0,100,4.154,4.158,4.123,4.141,0,0,18.382,75.11,6,P-GPS,
0.364632261584504,36.8985534942307,5719.3318591997,88.254596,0,1.03573822212,9500,2018-04-03 06:19:09,15,0,16.515,5719.3318591997,88.254596,0.3131716,1.04839570284,0,0,-11.1847,85.8, -2.5, -1.5,0,0,1024,1024,1684,1024,86,0,100,4.158,4.161,4.127,4.145,0,0,17.134,75.11,6,P-GPS,
0.364632223935286,36.8985535308177,5720.9722791997,89.895016,0,1.04794622776,9600,2018-04-03 06:19:09,15,0,16.515,5720.9722791997,89.895016,0.3131716,1.04839570284,0,0,-11.408394,85.8, -2.4, -1.3,0,0,1024,1024,1684,1024,86,0,100,4.158,4.161,4.127,4.145,0,0,17.134,75.11,6,P-GPS,
0.3646321803911,36.8985536582672,5724.9092871997,93.832024,0,1.09333008748,9800,2018-04-03 06:19:09,15,0,16.515,5724.9092871997,93.832024,0.3131716,1.09333008748,0,0,-11.1847,85.8, -1.5, -1.5,0,0,1024,1024,1684,1024,86,0,100,4.158,4.161,4.127,4.145,0,0,17.134,75.11,6,P-GPS,
0.364632140068384,36.8985537491426,5726.8777911997,95.800528,0,1.12574150584,9900,2018-04-03 06:19:09,15,0,16.515,5726.8777911997,95.800528,0.3131716,1.12574150584,0,0,-11.408394,85.8, -1.4, -1.8,0,0,1024,1024,1684,1024,86,0,100,4.158,4.161,4.127,4.145,0,0,17.134,75.11,6,P-GPS,
0.364632090013069,36.8985538665295,5728.5182111997,97.440948,0,1.1679626358,10000,2018-04-03 06:19:09,15,0,16.515,5728.5182111997,97.440948,0.3131716,1.1679626358,0,0,-11.1847,85.8, -1.2, -1.8,0,0,1024,1024,1684,1024,86,0,100,4.158,4.161,4.127,4.145,0,0,17.134,75.11,6,P-GPS,
0.364631945093258,36.8985541444819,5732.4552191997,101.377956,0,1.26929794088,10200,2018-04-03 06:19:10,15,0,16.515,5732.4552191997,101.377956,0.3131716,1.26929794088,0,0,-11.1847,85.8, -0.2, -2,0,0,1024,1024,1684,1024,86,0,100,4.158,4.161,4.127,4.145,0,0,17.134,75.11,6,P-GPS,
0.364631885199596,36.8985542703897,5734.4237231997,103.34646,0,1.31582681376,10300,2018-04-03 06:19:10,15,0,16.515,5734.4237231997,103.34646,0.3131716,1.31582681376,0,0,-11.408394,85.8, -0.2, -2.2,0,0,1024,1024,1684,1024,86,0,100,4.158,4.161,4.127,4.145,0,0,17.134,75.11,6,P-GPS,
0.36463182796264,36.8985543921511,5736.3922271997,105.314964,0,1.3611056866,10400,2018-04-03 06:19:10,15,0,16.515,5736.3922271997,105.314964,0.3131716,1.3611056866,0,0,-11.408394,85.8, -0.1, -2.4,0,0,1024,1024,1684,1024,86,0,100,4.158,4.161,4.127,4.145,0,0,17.134,75.11,6,P-GPS,
0.364631793422935,36.8985544973384,5738.0326471997,106.955384,0,1.40010503168,10500,2018-04-03 06:19:10,15,0,16.462,5738.0326471997,106.955384,0.3131716,1.40010503168,0,0,-11.408394,85.8, 0, -2.3,0,0,1024,1024,1684,1024,86,0,100,4.155,4.158,4.123,4.142,0,0,16.696,75.11,6,P-GPS,
0.364631772571524,36.8985545898261,5740.0011511997,108.923888,0,1.43424217188,10600,2018-04-03 06:19:10,15,0,16.462,5740.0011511997,108.923888,0.3131716,1.43424217188,0,0,-11.1847,85.8, 0.3, -1.9,0,0,1024,1024,1684,1024,86,0,100,4.155,4.158,4.123,4.142,0,0,16.696,75.11,6,P-GPS,
0.36463176059666,36.8985546623973,5741.9696551997,110.892392,0,1.4609416478,10700,2018-04-03 06:19:10,15,0,16.462,5741.9696551997,110.892392,0.3131716,1.4609416478,0,0,-11.1847,85.8, -0.1, -1.7,0,0,1024,1024,1684,1024,86,0,100,4.155,4.158,4.123,4.142,0,0,16.696,75.11,6,P-GPS,
0.364631762173451,36.8985547158313,5743.6100751997,112.532812,0,1.48036093976,10800,2018-04-03 06:19:10,15,0,16.462,5743.6100751997,112.532812,0.3131716,1.48036093976,0,0,-10.961006,85.8, -0.4, -1.8,0,0,1024,1024,1684,1024,86,0,100,4.155,4.158,4.123,4.142,0,0,16.696,75.11,6,P-GPS,
0.364631782672864,36.8985547678222,5745.5785791997,114.501316,0,1.498851754,10900,2018-04-03 06:19:10,15,0,16.462,5745.5785791997,114.501316,0.3131716,1.498851754,0,0,-10.961006,85.8, -0.1, -1.8,0,0,1024,1024,1684,1024,86,0,100,4.155,4.158,4.123,4.142,0,0,16.696,75.11,6,P-GPS,
0.36463182025552,36.8985548308779,5747.2189991997,116.141736,0,1.52112209592,11000,2018-04-03 06:19:10,15,0,16.462,5747.2189991997,116.141736,0.3131716,1.52112209592,0,0,-10.961006,85.8, 0, -1.4,0,0,1024,1024,1684,1024,86,0,100,4.155,4.158,4.123,4.142,0,0,16.696,75.11,6,P-GPS,
0.364631864257603,36.8985549174569,5748.8594191997,117.782156,0,1.55202760872,11100,2018-04-03 06:19:10,15,0,16.462,5748.8594191997,117.782156,0.3131716,1.55202760872,0,0,-10.737312,85.8, 0.5, -1.1,0,0,1024,1024,1684,1024,86,0,100,4.155,4.158,4.123,4.142,0,0,16.696,75.11,6,P-GPS,
0.364631904354067,36.8985549905559,5750.8279231997,119.75066,0,1.57823823948,11200,2018-04-03 06:19:10,15,0,16.462,5750.8279231997,119.75066,0.3131716,1.57823823948,0,0,-10.961006,85.7, 0.8, -0.8,0,0,1024,1024,1684,1024,86,0,100,4.155,4.158,4.123,4.142,0,0,16.696,75.11,6,P-GPS,
0.364631929350072,36.8985550405651,5752.4683431997,121.39108,0,1.5962762978,11300,2018-04-03 06:19:11,15,0,16.462,5752.4683431997,121.39108,0.3131716,1.5962762978,0,0,-11.1847,85.7, 1, -0.8,0,0,1024,1024,1684,1024,86,0,100,4.155,4.158,4.123,4.142,0,0,16.696,75.11,6,P-GPS,
0.364631934083551,36.8985550711042,5754.4368471997,123.359584,0,1.6073819412,11400,2018-04-03 06:19:11,15,0,16.462,5754.4368471997,123.359584,0.3131716,1.6073819412,0,0,-10.961006,85.7, 0.7, -0.7,0,0,1024,1024,1684,1024,86,0,100,4.155,4.158,4.123,4.142,0,0,16.696,75.11,6,P-GPS,
0.364631924024856,36.8985550925099,5756.0772671997,125.000004,0,1.61526251888,11500,2018-04-03 06:19:11,15,0,16.435,5756.0772671997,125.000004,0.3131716,1.61526251888,0,0,-11.1847,85.8, 0, -0.9,0,0,1024,1024,1684,1024,86,0,100,4.155,4.158,4.123,4.142,0,0,16.696,75.11,6,P-GPS,
0.364631892837304,36.8985550944541,5758.0457711997,126.968508,0,1.61624349004,11600,2018-04-03 06:19:11,15,0,16.435,5758.0457711997,126.968508,0.3131716,1.61624349004,0,0,-10.961006,85.8, -0.2, -0.9,0,0,1024,1024,1684,1024,86,0,100,4.155,4.158,4.123,4.142,0,0,16.696,75.11,6,P-GPS,
0.364631858381872,36.8985550850435,5759.6861911997,128.608928,0,1.6132054322,11700,2018-04-03 06:19:11,15,0,16.435,5759.6861911997,128.608928,0.3131716,1.61624349004,0,0,-11.1847,85.8, -0.1, -1,0,0,1024,1024,1684,1024,86,0,100,4.155,4.158,4.123,4.142,0,0,16.696,75.11,6,P-GPS,
0.364631807659607,36.898555087765,5761.6546951997,130.577432,0,1.61495740076,11800,2018-04-03 06:19:11,15,0,16.435,5761.6546951997,130.577432,0.3131716,1.61624349004,0,0,-11.1847,85.8, 0, -1.5,0,0,1024,1024,1684,1024,86,0,100,4.155,4.158,4.123,4.142,0,0,16.696,75.11,6,P-GPS,
0.364631768074373,36.8985551073721,5763.2951151997,132.217852,0,1.62283797844,11900,2018-04-03 06:19:11,15,0,16.435,5763.2951151997,132.217852,0.3131716,1.62283797844,0,0,-11.1847,85.8, 0.3, -1.9,0,0,1024,1024,1684,1036,86,0,100,4.155,4.158,4.123,4.142,0,0,16.696,75.11,6,P-GPS,
0.364631741152428,36.8985551255221,5765.2636191997,134.186356,0,1.63002301804,12000,2018-04-03 06:19:11,15,0,16.435,5765.2636191997,134.186356,0.3131716,1.63002301804,0,0,-11.1847,85.8, -0.1, -1.8,0,0,1024,1024,1684,1024,86,0,100,4.155,4.158,4.123,4.142,0,0,16.696,75.11,6,P-GPS,
0.36463173486587,36.8985551410813,5766.9040391997,135.826776,0,1.63583010484,12100,2018-04-03 06:19:11,15,0,16.435,5766.9040391997,135.826776,0.3131716,1.63583010484,0,0,-10.961006,85.8, -0.5, -2.1,0,0,1024,1024,1684,1024,86,0,100,4.155,4.158,4.123,4.142,0,0,16.696,75.11,6,P-GPS,
0.364631770563755,36.8985551629592,5768.5444591997,137.467196,0,1.64303811032,12200,2018-04-03 06:19:11,15,0,16.435,5768.5444591997,137.467196,0.3131716,1.64303811032,0,0,-10.961006,85.8, -0.8, -1.6,0,0,1024,1024,1684,1024,86,0,100,4.155,4.158,4.123,4.142,0,0,16.696,75.11,6,P-GPS,
0.364631839837559,36.8985551875692,5770.5129631997,139.4357,0,1.650836667,12300,2018-04-03 06:19:12,15,0,16.435,5770.5129631997,139.4357,0.3131716,1.650836667,0,0,-10.961006,85.8, -0.5, -0.9,0,0,1024,1024,1684,1024,86,0,100,4.155,4.158,4.123,4.142,0,0,16.696,75.11,6,P-GPS,
0.36463190405881,36.8985552466615,5772.1533831997,141.07612,0,1.67165031596,12400,2018-04-03 06:19:12,15,0,16.435,5772.1533831997,141.07612,0.3131716,1.67165031596,0,0,-11.1847,85.8, 0, -0.7,0,0,1024,1024,1684,1024,86,0,100,4.155,4.158,4.123,4.142,0,0,16.696,75.11,6,P-GPS,
0.364631932134813,36.8985553209799,5774.1218871997,143.044624,0,1.69854664228,12500,2018-04-03 06:19:12,15,0,16.515,5774.1218871997,143.044624,0.3131716,1.69854664228,0,0,-11.1847,85.8, 0.3, -0.9,0,0,1024,1024,1684,1024,86,0,100,4.146,4.149,4.114,4.135,0,0,17.508,75.11,6,P-GPS,
0.364631954276868,36.89855540383,5775.7623071997,144.685044,0,1.72864834928,12600,2018-04-03 06:19:12,15,0,16.515,5775.7623071997,144.685044,0.3131716,1.72864834928,0,0,-11.1847,85.8, 0.5, -1.2,0,0,1024,1024,1684,1024,86,0,100,4.146,4.149,4.114,4.135,0,0,17.508,75.11,6,P-GPS,
0.364631968117217,36.8985554687752,5777.4027271997,146.325464,0,1.75228352064,12700,2018-04-03 06:19:12,15,0,16.515,5777.4027271997,146.325464,0.3131716,1.75228352064,0,0,-10.961006,85.8, 0.5, -1.4,0,0,1024,1024,1684,1025,86,0,100,4.146,4.149,4.114,4.135,0,0,17.508,75.11,6,P-GPS,
0.364631981927033,36.8985555168691,5779.3712311997,148.293968,0,1.76979008288,12800,2018-04-03 06:19:12,15,0,16.515,5779.3712311997,148.293968,0.3131716,1.76979008288,0,0,-11.1847,85.8, 0.5, -1.2,0,0,1024,1024,1684,1025,86,0,100,4.146,4.149,4.114,4.135,0,0,17.508,75.11,6,P-GPS,
0.364631981546689,36.8985555363585,5781.0116511997,149.934388,0,1.77689966316,12900,2018-04-03 06:19:12,15,0,16.515,5781.0116511997,149.934388,0.3131716,1.77689966316,0,0,-10.961006,85.8, 0.5, -1.2,0,0,1024,1024,1684,1038,86,0,100,4.146,4.149,4.114,4.135,0,0,17.508,75.11,6,P-GPS,
0.364631973430321,36.898555551771,5782.6520711997,151.574808,0,1.7825459888,13000,2018-04-03 06:19:12,15,0,16.515,5782.6520711997,151.574808,0.3131716,1.7825459888,0,0,-11.1847,85.8, 0.4, -1.3,0,0,1024,1024,1684,1026,86,0,100,4.146,4.149,4.114,4.135,0,0,17.508,75.11,6,P-GPS,
0.36463196043717,36.8985555743458,5784.6205751997,153.543312,0,1.79082682896,13100,2018-04-03 06:19:12,15,0,16.515,5784.6205751997,153.543312,0.3131716,1.79082682896,0,0,-10.961006,85.8, 0.3, -1.6,0,0,1024,1024,1684,1038,86,0,100,4.146,4.149,4.114,4.135,0,0,17.508,75.11,6,P-GPS,
0.364631954409179,36.8985555872102,5786.2609951997,155.183732,0,1.79554467688,13200,2018-04-03 06:19:12,15,0,16.515,5786.2609951997,155.183732,0.3131716,1.79554467688,0,0,-11.1847,85.8, 0.4, -1.4,0,0,1024,1024,1684,1042,86,0,100,4.146,4.149,4.114,4.135,0,0,17.508,75.11,6,P-GPS,
0.364631953993722,36.8985555867852,5787.9014151997,156.824152,0,1.79539375824,13300,2018-04-03 06:19:13,15,0,16.515,5787.9014151997,156.824152,0.3131716,1.79554467688,0,0,-11.1847,85.8, 0.3, -1.2,0,0,1024,1024,1684,1056,86,0,100,4.146,4.149,4.114,4.135,0,0,17.508,75.11,6,P-GPS,
0.364631970900635,36.8985555908439,5789.5418351997,158.464572,0,1.79680780028,13400,2018-04-03 06:19:13,15,0,16.515,5789.5418351997,158.464572,0.3131716,1.79680780028,0,0,-10.961006,85.8, 0.4, -1.1,0,0,1024,1024,1684,1076,86,0,100,4.146,4.149,4.114,4.135,0,0,17.508,75.11,6,P-GPS,
0.364631999674426,36.898555610042,5791.1822551997,160.104992,0,1.80375005772,13500,2018-04-03 06:19:13,15,0,16.382,5791.1822551997,160.104992,0.3131716,1.80375005772,0,0,-10.961006,85.9, 0.4, -1.1,0,0,1024,1024,1684,1089,86,0,100,4.142,4.144,4.109,4.129,0,0,17.412,75.11,6,P-GPS,
0.364632032677184,36.8985556264448,5793.1507591997,162.073496,0,1.80974087156,13600,2018-04-03 06:19:13,15,0,16.382,5793.1507591997,162.073496,0.3131716,1.80974087156,0,0,-10.961006,86.3, 0.3, -1,0,0,1024,1024,1684,1071,86.4,0,100,4.142,4.144,4.109,4.129,0,0,17.412,75.11,6,P-GPS,
0.364632062339495,36.8985556346489,5796.4315991997,165.354336,0,1.81280517612,13800,2018-04-03 06:19:13,15,0,16.382,5796.4315991997,165.354336,0.3131716,1.81280517612,0,0,-10.961006,87.2, 0.3, -1.1,0,0,1024,1024,1684,1068,86.5,0,100,4.142,4.144,4.109,4.129,0,0,17.412,75.11,6,P-GPS,
0.364632070384823,36.8985556376113,5798.0720191997,166.994756,0,1.81391738088,13900,2018-04-03 06:19:13,15,0,16.382,5798.0720191997,166.994756,0.3131716,1.81391738088,0,0,-10.961006,87.6, 0.4, -1.1,0,0,1024,1024,1684,1065,86.6,0,100,4.142,4.144,4.109,4.129,0,0,17.412,75.11,6,P-GPS,
0.36463208069613,36.8985556344701,5799.7124391997,168.635176,0,1.81281501864,14000,2018-04-03 06:19:13,15,0,16.382,5799.7124391997,168.635176,0.3131716,1.81391738088,0,0,-10.961006,87.9, 0.7, -0.8,0,0,1024,1024,1684,1058,86.7,0,100,4.142,4.144,4.109,4.129,0,0,17.412,75.11,6,P-GPS,
0.364632083457462,36.8985556160803,5801.3528591997,170.275596,0,1.80612210504,14100,2018-04-03 06:19:13,15,0,16.382,5801.3528591997,170.275596,0.3131716,1.81391738088,0,0,-10.737312,88.2, 0.5, -0.7,0,0,1024,1024,1684,1024,86.8,0,100,4.142,4.144,4.109,4.129,0,0,17.412,75.11,6,P-GPS,
0.364632091388595,36.898555581657,5802.9932791997,171.916016,0,1.79360570044,14200,2018-04-03 06:19:13,15,0,16.382,5802.9932791997,171.916016,0.3131716,1.81391738088,0,0,-10.961006,88.5, 0.2, -0.5,0,0,1024,1024,1684,1024,86.8,0,100,4.142,4.144,4.109,4.129,0,0,17.412,75.11,6,P-GPS,
0.364632098894908,36.8985555457252,5804.6336991997,173.556436,0,1.7805446764,14300,2018-04-03 06:19:14,15,0,16.382,5804.6336991997,173.556436,0.3131716,1.81391738088,0,0,-10.961006,88.6, 0, -0.8,0,0,1024,1024,1684,1023,86.9,0,100,4.142,4.144,4.109,4.129,0,0,17.412,75.11,6,P-GPS,
0.364632098929004,36.8985554984108,5806.2741191997,175.196856,0,1.76328417716,14400,2018-04-03 06:19:14,15,0,16.382,5806.2741191997,175.196856,0.3131716,1.81391738088,0,0,-11.1847,88.5, -0.2, -0.8,0,0,1024,1024,1684,995,87,0,100,4.142,4.144,4.109,4.129,0,0,17.412,75.11,6,P-GPS,
0.364632074269374,36.8985554399159,5808.2426231997,177.16536,0,1.74181107936,14500,2018-04-03 06:19:14,15,0,16.408,5808.2426231997,177.16536,0.3131716,1.81391738088,0,0,-11.408394,88.5, -0.6, -1.1,0,0,1024,1024,1684,982,87,0,99,4.142,4.144,4.109,4.129,0,0,17.366,75.11,6,P-GPS,
0.364632047667215,36.8985553823557,5809.8830431997,178.80578,0,1.72071527816,14600,2018-04-03 06:19:14,15,0,16.408,5809.8830431997,178.80578,0.3131716,1.81391738088,0,0,-10.961006,88.5, -0.4, -1.5,0,0,1024,1024,1684,964,87,0,99,4.142,4.144,4.109,4.129,0,0,17.366,75.11,6,P-GPS,
0.364632023327371,36.8985553327791,5811.5234631997,180.4462,0,1.70258863716,14700,2018-04-03 06:19:14,15,0,16.408,5811.5234631997,180.4462,0.3131716,1.81391738088,0,0,-10.961006,88.3, -0.2, -1.8,0,0,1024,1024,1684,1015,86.9,0,99,4.142,4.144,4.109,4.129,0,0,17.366,75.11,6,P-GPS,
0.364632020589957,36.8985552706731,5813.1638831997,182.08662,0,1.67992787528,14800,2018-04-03 06:19:14,15,0,16.408,5813.1638831997,182.08662,0.3131716,1.81391738088,0,0,-11.1847,87.8, -0.4, -1.7,0,0,1024,1024,1684,1002,86.9,0,99,4.142,4.144,4.109,4.129,0,0,17.366,75.11,6,P-GPS,
0.364632026229462,36.8985552075639,5814.8043031997,183.72704,0,1.656906221,14900,2018-04-03 06:19:14,15,0,16.408,5814.8043031997,183.72704,0.3131716,1.81391738088,0,0,-11.1847,87.6, -0.5, -1.3,0,0,1024,1024,1684,1005,86.9,0,99,4.142,4.144,4.109,4.129,0,0,17.366,75.11,6,P-GPS,
0.364632039690893,36.8985551346533,5816.7728071997,185.695544,0,1.63032813616,15000,2018-04-03 06:19:14,15,0,16.408,5816.7728071997,185.695544,0.3131716,1.81391738088,0,0,-11.1847,87.6, -0.7, -1.2,0,0,1024,1024,1684,989,86.9,0,99,4.142,4.144,4.109,4.129,0,0,17.366,75.11,6,P-GPS,
0.364632036579038,36.898555062656,5818.4132271997,187.335964,0,1.60405516944,15100,2018-04-03 06:19:14,15,0,16.408,5818.4132271997,187.335964,0.3131716,1.81391738088,0,0,-11.1847,87.6, -1, -1.4,0,0,1024,1024,1684,986,86.9,0,99,4.142,4.144,4.109,4.129,0,0,17.366,75.11,6,P-GPS,
0.364632040715591,36.8985549782086,5820.0536471997,188.976384,0,1.57325136268,15200,2018-04-03 06:19:15,15,0,16.408,5820.0536471997,188.976384,0.3131716,1.81391738088,0,0,-11.1847,87.4, -1.3, -1.5,0,0,1024,1024,1684,985,86.9,0,99,4.142,4.144,4.109,4.129,0,0,17.366,75.11,6,P-GPS,
0.364632036521432,36.8985548927612,5821.6940671997,190.616804,0,1.54207025932,15300,2018-04-03 06:19:15,15,0,16.408,5821.6940671997,190.616804,0.3131716,1.81391738088,0,0,-10.961006,87.2, -1.4, -1.7,0,0,1024,1024,1684,990,86.9,0,99,4.142,4.144,4.109,4.129,0,0,17.366,75.11,6,P-GPS,
0.364632034868154,36.8985548166377,5823.3344871997,192.257224,0,1.51429466788,15400,2018-04-03 06:19:15,15,0,16.408,5823.3344871997,192.257224,0.3131716,1.81391738088,0,0,-10.961006,86.9, -1.4, -1.5,0,0,1024,1024,1684,1001,86.8,0,99,4.142,4.144,4.109,4.129,0,0,17.366,75.11,6,P-GPS,
0.364632011436575,36.8985547745585,5824.9749071997,193.897644,0,1.49892393248,15500,2018-04-03 06:19:15,15,0,16.408,5824.9749071997,193.897644,0.3131716,1.81391738088,0,0,-10.961006,86.6, -1.1, -1.4,0,0,1024,1024,1684,996,86.8,0,99,4.142,4.144,4.109,4.129,0,0,17.366,75.11,6,P-GPS,
0.364631991250282,36.89855473713,5826.6153271997,195.538064,0,1.48529204228,15600,2018-04-03 06:19:15,15,0,16.408,5826.6153271997,195.538064,0.3131716,1.81391738088,0,0,-11.1847,86.5, -1, -1.3,0,0,1024,1024,1684,1009,86.8,0,99,4.142,4.144,4.109,4.129,0,0,17.366,75.11,6,P-GPS,
0.364631969898226,36.8985547025408,5828.2557471997,197.178484,0,1.4727362676,15700,2018-04-03 06:19:15,15,0,16.408,5828.2557471997,197.178484,0.3131716,1.81391738088,0,0,-10.961006,86.3, -0.9, -1.4,0,0,1024,1024,1684,1009,86.8,0,99,4.142,4.144,4.109,4.129,0,0,17.366,75.11,6,P-GPS,
0.364631951452128,36.8985546425493,5829.8961671997,198.818904,0,1.45094164748,15800,2018-04-03 06:19:15,15,0,16.408,5829.8961671997,198.818904,0.3131716,1.81391738088,0,0,-10.961006,86.2, -1.1, -1.6,0,0,1024,1024,1684,1004,86.8,0,99,4.142,4.144,4.109,4.129,0,0,17.366,75.11,6,P-GPS,
0.364631931205887,36.8985545591146,5831.5365871997,200.459324,0,1.42064637092,15900,2018-04-03 06:19:15,15,0,16.408,5831.5365871997,200.459324,0.3131716,1.81391738088,0,0,-10.961006,86.2, -1.4, -1.8,0,0,1024,1024,1684,999,86.8,0,99,4.142,4.144,4.109,4.129,0,0,17.366,75.11,6,P-GPS,
0.364631910020951,36.8985544691942,5833.1770071997,202.099744,0,1.38803482132,16000,2018-04-03 06:19:15,15,0,16.408,5833.1770071997,202.099744,0.3131716,1.81391738088,0,0,-10.961006,86.3, -1.7, -1.8,0,0,1024,1024,1684,1002,86.8,0,99,4.142,4.144,4.109,4.129,0,0,17.366,75.11,6,P-GPS,
0.364631871914547,36.8985544084243,5834.8174271997,203.740164,0,1.36633206472,16100,2018-04-03 06:19:15,15,0,16.408,5834.8174271997,203.740164,0.3131716,1.81391738088,0,0,-11.1847,86.2, -1.7, -1.9,0,0,1024,1024,1684,1002,86.8,0,99,4.142,4.144,4.109,4.129,0,0,17.366,75.11,6,P-GPS,
0.364631836780257,36.8985543456246,5836.7859311997,205.708668,0,1.34399282516,16200,2018-04-03 06:19:15,15,0,16.408,5836.7859311997,205.708668,0.3131716,1.81391738088,0,0,-11.1847,86.1, -1.3, -1.7,0,0,1024,1024,1684,993,86.8,0,99,4.142,4.144,4.109,4.129,0,0,17.366,75.11,6,P-GPS,
0.364631796933759,36.8985542816118,5838.4263511997,207.349088,0,1.32146001604,16300,2018-04-03 06:19:16,15,0,16.408,5838.4263511997,207.349088,0.3131716,1.81391738088,0,0,-10.961006,86.1, -1.3, -1.7,0,0,1024,1024,1684,999,86.8,0,99,4.142,4.144,4.109,4.129,0,0,17.366,75.11,6,P-GPS,
0.364631763139373,36.8985542046469,5840.0667711997,208.989508,0,1.29424544824,16400,2018-04-03 06:19:16,15,0,16.408,5840.0667711997,208.989508,0.3131716,1.81391738088,0,0,-10.961006,86.1, -1.4, -2.1,0,0,1024,1024,1684,988,86.8,0,99,4.142,4.144,4.109,4.129,0,0,17.366,75.11,6,P-GPS,
0.364631753269985,36.8985541444616,5841.7071911997,210.629928,0,1.27260830844,16500,2018-04-03 06:19:16,15,0,16.355,5841.7071911997,210.629928,0.3131716,1.81391738088,0,0,-10.961006,86, -1.6, -2,0,0,1024,1024,1684,976,86.8,0,99,4.139,4.141,4.105,4.125,0,0,17.366,75.11,6,P-GPS,
0.364631773241934,36.8985540820065,5843.0195271997,211.942264,0,1.24935371452,16600,2018-04-03 06:19:16,15,0,16.355,5843.0195271997,211.942264,0.3131716,1.81391738088,0,0,-10.737312,85.8, -2, -1.6,0,0,1024,1024,1684,966,86.7,0,99,4.139,4.141,4.105,4.125,0,0,17.366,75.11,6,P-GPS,
0.364631801491875,36.8985540479955,5844.6599471997,213.582684,0,1.2362861288,16700,2018-04-03 06:19:16,15,0,16.355,5844.6599471997,213.582684,0.3131716,1.81391738088,0,0,-10.961006,85.6, -1.9, -1.2,0,0,1024,1024,1684,966,86.6,0,99,4.139,4.141,4.105,4.125,0,0,17.366,75.11,6,P-GPS,
0.364631835282292,36.8985540301152,5846.3003671997,215.223104,0,1.22905843828,16800,2018-04-03 06:19:16,15,0,16.355,5846.3003671997,215.223104,0.3131716,1.81391738088,0,0,-10.961006,85.1, -1.6, -1.1,0,0,1024,1024,1684,972,86.4,0,99,4.139,4.141,4.105,4.125,0,0,17.366,75.11,6,P-GPS,
0.364631852684862,36.8985540337713,5848.2688711997,217.191608,0,1.230068937,16900,2018-04-03 06:19:16,15,0,16.355,5848.2688711997,217.191608,0.3131716,1.81391738088,0,0,-11.1847,84.6, -1.2, -1.1,0,0,1024,1024,1684,982,86.4,0,99,4.139,4.141,4.105,4.125,0,0,17.366,75.11,6,P-GPS,
0.364631862123222,36.8985540474377,5849.9092911997,218.832028,0,1.23488849096,17000,2018-04-03 06:19:16,15,0,16.355,5849.9092911997,218.832028,0.3131716,1.81391738088,0,0,-10.961006,84.3, -1.3, -1.5,0,0,1024,1024,1684,980,86.1,0,99,4.139,4.141,4.105,4.125,0,0,17.366,75.11,6,P-GPS,
0.36463186053956,36.8985540816714,5851.5497111997,220.472448,0,1.2473917722,17100,2018-04-03 06:19:16,15,0,16.355,5851.5497111997,220.472448,0.3131716,1.81391738088,0,0,-10.961006,84, -0.8, -1.4,0,0,1024,1024,1684,983,86,0,99,4.139,4.141,4.105,4.125,0,0,17.366,75.11,6,P-GPS,
0.364631864358974,36.8985540983911,5853.1901311997,222.112868,0,1.25342523696,17200,2018-04-03 06:19:17,15,0,16.355,5853.1901311997,222.112868,0.3131716,1.81391738088,0,0,-10.961006,83.6, -0.3, -1,0,0,1024,1024,1684,1013,85.9,0,99,4.139,4.141,4.105,4.125,0,0,17.366,75.11,6,P-GPS,
0.364631855492503,36.8985540868682,5854.8305511997,223.753288,0,1.24937011872,17300,2018-04-03 06:19:17,15,0,16.355,5854.8305511997,223.753288,0.3131716,1.81391738088,0,0,-10.961006,83.5, -0.5, -1.1,0,0,1024,1024,1615,1024,85.8,0,99,4.139,4.141,4.105,4.125,0,0,17.366,75.11,6,P-GPS,
0.364631820674437,36.8985540513197,5856.4709711997,225.393708,0,1.23707681124,17400,2018-04-03 06:19:17,15,0,16.355,5856.4709711997,225.393708,0.3131716,1.81391738088,0,0,-10.961006,83.5, -0.6, -1.5,0,0,1024,1024,1024,1024,85.7,0,99,4.139,4.141,4.105,4.125,0,0,17.366,75.11,6,P-GPS,
0.364631760009097,36.8985540200601,5858.1113911997,227.034128,0,1.2271653936,17500,2018-04-03 06:19:17,15,0,16.489,5858.1113911997,227.034128,0.3131716,1.81391738088,0,0,-10.289924,83.5, -1.1, -2.4,0,0,1024,1024,1024,1024,85.6,0,99,4.135,4.138,4.103,4.123,0,0,17.24,76.91,6,P-GPS,
0.364631701760215,36.8985539757872,5859.4237271997,228.346464,0,1.21287405456,17600,2018-04-03 06:19:17,15,0,16.489,5859.4237271997,228.346464,0.3131716,1.81391738088,0,0,-8.94776,83.5, -1.6, -2.9,0,0,1024,1024,1024,1024,85.5,0,99,4.135,4.138,4.103,4.123,0,0,17.24,76.91,6,P-GPS,
0.364631670965881,36.8985539466356,5860.7360631997,229.6588,0,1.20340555032,17700,2018-04-03 06:19:17,15,0,16.489,5860.7360631997,229.6588,0.3131716,1.81391738088,0,0,-7.605596,83.5, -1.7, -2.3,0,0,1024,1024,1024,1024,85.5,0,99,4.135,4.138,4.103,4.123,0,0,17.24,76.91,6,P-GPS,
0.364631638461172,36.898553916134,5861.7203151997,230.643052,0,1.19364177048,17800,2018-04-03 06:19:17,15,0,16.489,5861.7203151997,230.643052,0.3131716,1.81391738088,0,0,-6.039738,83.5, -1.6, -2,0,0,1024,1024,1024,1024,85.4,0,99,4.135,4.138,4.103,4.123,0,0,17.24,76.91,6,P-GPS,
0.364631590858039,36.8985538998811,5862.3764831997,231.29922,0,1.18988192784,17900,2018-04-03 06:19:17,15,0,16.489,5862.3764831997,231.29922,0.3131716,1.81391738088,0,0,-4.47388,83.5, -1.7, -2.3,0,0,1024,1024,1024,1024,85.4,0,99,4.135,4.138,4.103,4.123,0,0,17.24,76.91,6,P-GPS,
0.364631545760623,36.8985538818798,5862.7045671997,231.627304,0,1.18563324004,18000,2018-04-03 06:19:17,15,0,16.489,5862.7045671997,231.627304,0.3131716,1.81391738088,0,0,-2.684328,83.5, -1.6, -2.4,0,0,1024,1024,1024,1024,85.3,0,99,4.135,4.138,4.103,4.123,0,0,17.24,76.91,6,P-GPS,
0.364631516368328,36.8985538750504,5863.0326511997,231.955388,0,1.18476381744,18100,2018-04-03 06:19:17,15,0,16.489,5863.0326511997,231.955388,0.3131716,1.81391738088,0,0,-1.789552,83.5, -1.2, -1.9,0,0,1024,1024,1024,1024,85.3,0,99,4.135,4.138,4.103,4.123,0,0,17.24,76.91,6,P-GPS,
0.364631485022766,36.8985538746586,5863.0326511997,231.955388,0,1.18643048416,18200,2018-04-03 06:19:17,15,0,16.489,5863.0326511997,231.955388,0.3131716,1.81391738088,0,0,-1.11847,83.5, -1, -2.3,0,0,1024,1024,1024,1024,85.2,0,99,4.135,4.138,4.103,4.123,0,0,17.24,76.91,6,P-GPS,
0.364631442833446,36.8985538760954,5863.0326511997,231.955388,0.223694,1.189550563,18300,2018-04-03 06:19:18,15,0,16.489,5863.0326511997,231.955388,0.3131716,1.81391738088,-0.223694,0,-0.447388,83.5, -1, -2.8,0,0,1024,1024,1024,1024,85.2,0,99,4.135,4.138,4.103,4.123,0,0,17.24,76.91,6,P-GPS,
0.364631410385275,36.898553880548,5863.0326511997,231.955388,0.223694,1.19327759724,18400,2018-04-03 06:19:18,15,0,16.489,5863.0326511997,231.955388,0.3131716,1.81391738088,-0.223694,0,-0.447388,83.5, -0.8, -3.2,0,0,1024,1024,1024,1024,85.1,0,99,4.135,4.138,4.103,4.123,0,0,17.24,76.91,6,P-GPS,
0.364631388622698,36.8985538833948,5863.3607351997,232.283472,0.223694,1.19579072068,18500,2018-04-03 06:19:18,15,0,16.489,5863.3607351997,232.283472,0.3131716,1.81391738088,-0.223694,0,-0.223694,83.5, -0.7, -3.6,0,0,1024,1024,1024,1024,85.1,0,99,4.135,4.138,4.103,4.123,0,0,17.24,76.91,6,P-GPS,
0.364631399991731,36.8985538842812,5863.3607351997,232.283472,0.223694,1.19532156056,18600,2018-04-03 06:19:18,15,0,16.489,5863.3607351997,232.283472,0.3131716,1.81391738088,-0.223694,0,-0.223694,83.5, -0.3, -3.8,0,0,1024,1024,1024,1024,85,0,99,4.135,4.138,4.103,4.123,0,0,17.24,76.91,6,P-GPS,
0.364631448087366,36.8985538726416,5863.3607351997,232.283472,0,1.1879757598,18700,2018-04-03 06:19:18,15,0,16.489,5863.3607351997,232.283472,0.3131716,1.81391738088,0,0,-0.223694,83.4, -0.2, -3.9,0,0,1024,1024,1024,1024,85,0,99,4.135,4.138,4.103,4.123,0,0,17.24,76.91,6,P-GPS,
0.364631540877276,36.8985538482285,5863.3607351997,232.283472,0,1.17374675672,18800,2018-04-03 06:19:18,15,0,16.489,5863.3607351997,232.283472,0.3131716,1.81391738088,0,0,0,83.4, -0.1, -3.7,0,0,1024,1024,1024,1024,85,0,99,4.135,4.138,4.103,4.123,0,0,17.24,76.91,6,P-GPS,
0.364631666587962,36.8985538086203,5863.3607351997,232.283472,0,1.1535105356,18900,2018-04-03 06:19:18,15,0,16.489,5863.3607351997,232.283472,0.3131716,1.81391738088,0,0,0,83.4, 0, -3.6,0,0,1024,1024,1024,1024,84.9,0,99,4.135,4.138,4.103,4.123,0,0,17.24,76.91,6,P-GPS,
0.364631820442282,36.8985537418892,5863.3607351997,232.283472,0,1.1243930806,19000,2018-04-03 06:19:18,15,0,16.489,5863.3607351997,232.283472,0.3131716,1.81391738088,0,0,0,83.3, -0.1, -3.7,0,0,1024,1024,1022,1024,84.9,0,99,4.135,4.138,4.103,4.123,0,0,17.24,76.91,6,P-GPS,
0.364631980975105,36.8985536400005,5863.3607351997,232.283472,0,1.085055809,19100,2018-04-03 06:19:18,15,0,16.489,5863.3607351997,232.283472,0.3131716,1.81391738088,0,0,-0.223694,83.3, -0.4, -3.4,0,0,1024,1024,968,1024,84.8,0,99,4.135,4.138,4.103,4.123,0,0,17.24,76.91,6,P-GPS,
0.364632192295535,36.8985535191267,5863.3607351997,232.283472,0,1.04291013836,19200,2018-04-03 06:19:19,15,0,16.489,5863.3607351997,232.283472,0.3131716,1.81391738088,0,0,0,83.3, -0.7, -3.1,0,0,1024,1024,914,1024,84.8,0,99,4.135,4.138,4.103,4.123,0,0,17.24,76.91,6,P-GPS,
0.364632445013759,36.8985533923923,5863.3607351997,232.283472,0,1.00698165952,19300,2018-04-03 06:19:19,15,0,16.489,5863.3607351997,232.283472,0.3131716,1.81391738088,0,0,0,83.4, -0.9, -2.7,0,0,1024,1024,894,1024,84.8,0,99,4.135,4.138,4.103,4.123,0,0,17.24,76.91,6,P-GPS,
0.364632716795159,36.8985532408734,5863.3607351997,232.283472,0,0.97369753772,19400,2018-04-03 06:19:19,15,0,16.489,5863.3607351997,232.283472,0.3131716,1.81391738088,0.223694,0,0,83.4, -1.1, -2.3,0,0,1024,1024,949,1024,84.7,0,99,4.135,4.138,4.103,4.123,0,0,17.24,76.91,6,P-GPS,
0.364632963867771,36.8985530664606,5863.3607351997,232.283472,0.223694,0.94175856032,19500,2018-04-03 06:19:19,15,0,16.489,5863.3607351997,232.283472,0.3131716,1.81391738088,0.223694,0,0.223694,83.4, -1.2, -1.6,0,0,1024,1024,1024,1024,84.7,0,99,4.135,4.138,4.103,4.123,0,0,17.24,76.91,6,P-GPS,
0.364633218571271,36.8985528760315,5863.3607351997,232.283472,0.223694,0.91818572492,19600,2018-04-03 06:19:19,15,0,16.489,5863.3607351997,232.283472,0.3131716,1.81391738088,0.223694,0,0.223694,83.4, -1.3, -1.2,0,0,1024,1024,1024,1024,84.7,0,99,4.135,4.138,4.103,4.123,0,0,17.24,76.91,6,P-GPS,
0.364633468916445,36.898552689266,5863.3607351997,232.283472,0.223694,0.90908139392,19700,2018-04-03 06:19:19,15,0,16.489,5863.3607351997,232.283472,0.3131716,1.81391738088,0.223694,0,0,83.4, -1.5, -0.8,0,0,1024,1024,1024,1024,84.7,0,99,4.135,4.138,4.103,4.123,0,0,17.24,76.91,6,P-GPS,
0.364633726433694,36.89855249758,5863.0326511997,231.955388,0.3131716,0.91467194528,19800,2018-04-03 06:19:19,15,0,16.489,5863.3607351997,232.283472,0.3131716,1.81391738088,0.223694,-0.223694,0,83.4, -2.1, -0.7,0,0,1024,1024,1024,1024,84.6,0,99,4.135,4.138,4.103,4.123,0,0,17.24,76.91,6,P-GPS,
0.364633973605844,36.8985523299934,5863.0326511997,231.955388,0.223694,0.93778546308,19900,2018-04-03 06:19:19,15,0,16.489,5863.3607351997,232.283472,0.3131716,1.81391738088,0.223694,0,0,83.5, -2.3, -1,0,0,1024,1024,1024,1024,84.6,0,99,4.135,4.138,4.103,4.123,0,0,17.24,76.91,6,P-GPS,
0.364634236074784,36.89855217119,5863.0326511997,231.955388,0.223694,0.97904530692,20000,2018-04-03 06:19:19,15,0,16.489,5863.3607351997,232.283472,0.3131716,1.81391738088,0.223694,0,0.223694,83.5, -2.2, -1,0,0,1024,1024,1024,1024,84.6,0,99,4.135,4.138,4.103,4.123,0,0,17.24,76.91,6,P-GPS,
0.364634489807528,36.8985520202315,5863.0326511997,231.955388,0.223694,1.0294291668,20100,2018-04-03 06:19:19,15,0,16.489,5863.3607351997,232.283472,0.3131716,1.81391738088,0.223694,0,0,83.5, -2.1, -0.8,0,0,1024,1024,1024,1024,84.5,0,99,4.135,4.138,4.103,4.123,0,0,17.24,76.91,6,P-GPS,
0.364634975061855,36.8985517298204,5863.0326511997,231.955388,0,1.14777890812,20300,2018-04-03 06:19:20,15,0,16.489,5863.3607351997,232.283472,0.3131716,1.81391738088,0,0,0,83.5, -2.1, -0.6,0,0,1024,1024,1024,1024,84.5,0,99,4.135,4.138,4.103,4.123,0,0,17.24,76.91,6,P-GPS,
0.364635201730675,36.8985515835721,5862.7045671997,231.627304,0,1.21009518308,20400,2018-04-03 06:19:20,15,0,16.489,5863.3607351997,232.283472,0.3131716,1.81391738088,0,0,0,83.4, -1.9, -0.5,0,0,1024,1024,1024,1024,84.5,0,99,4.135,4.138,4.103,4.123,0,0,17.24,76.91,6,P-GPS,
0.364635397877568,36.8985514487301,5862.7045671997,231.627304,0,1.26703744212,20500,2018-04-03 06:19:20,15,0,16.622,5863.3607351997,232.283472,0.3131716,1.81391738088,0,0,0,83.4, -1.8, -0.5,0,0,1024,1024,1024,1024,84.5,0,99,4.198,4.194,4.155,4.177,0,0,6.866,76.91,6,P-GPS,
0.364635602500106,36.8985513055769,5862.7045671997,231.627304,0,1.32972773284,20600,2018-04-03 06:19:20,15,0,16.622,5863.3607351997,232.283472,0.3131716,1.81391738088,0,0,0,83.5, -1.8, -0.4,0,0,1024,1024,1024,1024,84.5,0,99,4.198,4.194,4.155,4.177,0,0,6.866,76.91,6,P-GPS,
0.364635778606146,36.8985511919313,5862.7045671997,231.627304,0,1.38668967692,20700,2018-04-03 06:19:20,15,0,16.622,5863.3607351997,232.283472,0.3131716,1.81391738088,0,0,0,83.5, -1.7, -0.2,0,0,1024,1024,1024,1024,84.5,0,99,4.198,4.194,4.155,4.177,0,0,6.866,76.91,6,P-GPS,
0.364635962040999,36.8985510721805,5862.7045671997,231.627304,0,1.44788062376,20800,2018-04-03 06:19:20,15,0,16.622,5863.3607351997,232.283472,0.3131716,1.81391738088,0,0,0,83.5, -1.7, -0.3,0,0,1024,1024,1024,1024,84.4,0,99,4.198,4.194,4.155,4.177,0,0,6.866,76.91,6,P-GPS,
0.364636108021233,36.8985509768632,5862.7045671997,231.627304,0,1.49783797444,20900,2018-04-03 06:19:20,15,0,16.622,5863.3607351997,232.283472,0.3131716,1.81391738088,0,0,0,83.5, -1.6, -0.8,0,0,1024,1024,1024,1024,84.4,0,99,4.198,4.194,4.155,4.177,0,0,6.866,76.91,6,P-GPS,
0.364636220146523,36.898550902412,5862.7045671997,231.627304,0,1.53687012792,21000,2018-04-03 06:19:20,15,0,16.622,5863.3607351997,232.283472,0.3131716,1.81391738088,0,0,0,83.5, -1.5, -1.2,0,0,1024,1024,1024,1024,84.4,0,99,4.198,4.194,4.155,4.177,0,0,6.866,76.91,6,P-GPS,
0.364636336683675,36.8985507753275,5862.7045671997,231.627304,0,1.57747380376,21100,2018-04-03 06:19:20,15,0,16.622,5863.3607351997,232.283472,0.3131716,1.81391738088,0,0,0,83.4, -1.4, -1.5,0,0,1024,1024,1024,1024,84.4,0,99,4.198,4.194,4.155,4.177,0,0,6.866,76.91,6,P-GPS,
0.364636438417457,36.8985506414544,5862.7045671997,231.627304,0,1.61411422488,21200,2018-04-03 06:19:20,15,0,16.622,5863.3607351997,232.283472,0.3131716,1.81391738088,0,0,0,83.4, -1.3, -1.7,0,0,1024,1024,1024,1024,84.4,0,99,4.198,4.194,4.155,4.177,0,0,6.866,76.91,6,P-GPS,
0.364636505969385,36.8985505250225,5862.7045671997,231.627304,0,1.63954401572,21300,2018-04-03 06:19:21,15,0,16.622,5863.3607351997,232.283472,0.3131716,1.81391738088,0,0,0,83.5, -1.3, -1.6,0,0,1024,1024,1024,1024,84.4,0,99,4.198,4.194,4.155,4.177,0,0,6.866,76.91,6,P-GPS,
0.364636595712933,36.8985503817018,5862.7045671997,231.627304,0,1.67469493548,21400,2018-04-03 06:19:21,15,0,16.622,5863.3607351997,232.283472,0.3131716,1.81391738088,0,0,0,83.5, -1.5, -1.3,0,0,1024,1024,1024,1024,84.4,0,99,4.198,4.194,4.155,4.177,0,0,6.866,76.91,6,P-GPS,
0.364636667820434,36.8985502760022,5862.7045671997,231.627304,0,1.703740212,21500,2018-04-03 06:19:21,15,0,16.515,5863.3607351997,232.283472,0.3131716,1.81391738088,0,0,0,83.5, -1.8, -0.9,0,0,1024,1024,1024,1024,84.4,-0.3,99,4.178,4.176,4.139,4.158,0,0,12.236,76.91,6,P-GPS,
0.364636754149949,36.8985501551252,5862.3764831997,231.29922,0,1.7393045176,21600,2018-04-03 06:19:21,15,0,16.515,5863.3607351997,232.283472,0.3131716,1.81391738088,0,0,0,83.4, -1.9, -0.7,0,0,1024,1024,1024,1024,84.3,-0.1,99,4.178,4.176,4.139,4.158,0,0,12.236,76.91,6,P-GPS,
0.364636811416218,36.8985500758787,5862.3764831997,231.29922,0,1.76337604068,21700,2018-04-03 06:19:21,15,0,16.515,5863.3607351997,232.283472,0.3131716,1.81391738088,0,0,0,83.4, -1.8, -0.6,0,0,1024,1024,1024,1024,84.3,-0.1,99,4.178,4.176,4.139,4.158,0,0,12.236,76.91,6,P-GPS,
0.364636868312016,36.8985499847234,5862.7045671997,231.627304,0,1.78830058216,21800,2018-04-03 06:19:21,15,0,16.515,5863.3607351997,232.283472,0.3131716,1.81391738088,0,0,-0.223694,83.4, -1.7, -0.9,0,0,1024,1024,1024,1024,84.3,-0.1,99,4.178,4.176,4.139,4.158,0,0,12.236,76.91,6,P-GPS,
0.364636899975481,36.8985498569698,5862.7045671997,231.627304,0,1.80676843052,22000,2018-04-03 06:19:21,15,0,16.515,5863.3607351997,232.283472,0.3131716,1.81391738088,0,0,0,83.4, -1.4, -1.1,0,0,1024,1024,1024,1024,84.3,-0.1,99,4.178,4.176,4.139,4.158,0,0,12.236,76.91,6,P-GPS,
0.364636883331155,36.8985498231327,5862.7045671997,231.627304,0,1.80284454588,22100,2018-04-03 06:19:21,15,0,16.515,5863.3607351997,232.283472,0.3131716,1.81391738088,0,0,0,83.4, -1.3, -1.1,0,0,1024,1024,1024,1024,84.3,-0.1,99,4.178,4.176,4.139,4.158,0,0,12.236,76.91,6,P-GPS,
