latitude,longitude,altitude(feet),ascent(feet),speed(mph),distance(feet),time(millisecond),datetime(utc),satellites,gpslevel,voltage(v),max_altitude(feet),max_ascent(feet),max_speed(mph),max_distance(feet), xSpeed(mph), ySpeed(mph), zSpeed(mph), compass_heading(degrees), pitch(degrees), roll(degrees),isPhoto,isVideo,rc_elevator,rc_aileron,rc_throttle,rc_rudder,gimbal_heading(degrees),gimbal_pitch(degrees),battery_percent,voltageCell1,voltageCell2,voltageCell3,voltageCell4,voltageCell5,voltageCell6,current(A),battery_temperature(f),flycStateRaw,flycState,message
0.289292858972746,36.8890121155482,5623.7101914417,0,0,0,0,2018-04-14 13:18:14,15,0,0,5623.7101914417,0,0,0,0,0,0,286.8, -2.7, 2.5,0,0,364,364,364,1684,291.4,0,99,4.292,4.294,4.289,4.289,0,0,0,80.51,41,Motors_Started,
0.289292868674201,36.8890121421553,5623.7101914417,0,0,0.0103326118792,100,2018-04-14 13:18:14,15,0,0,5623.7101914417,0,0,0.0103326118792,0,0,0,286.8, -2.7, 2.5,0,0,364,364,364,1684,291.4,0,99,4.292,4.294,4.289,4.289,0,0,0,80.51,41,Motors_Started,
0.289292892311879,36.8890121574985,5623.7101914417,0,0,0.019550197476,200,2018-04-14 13:18:14,15,0,0,5623.7101914417,0,0,0.019550197476,0,0,0,286.7, -2.7, 2.5,0,0,364,364,364,1684,291.4,0,99,4.292,4.294,4.289,4.289,0,0,0,80.51,41,Motors_Started,
0.289292921758218,36.8890121690187,5623.7101914417,0,0,0.0300885508316,300,2018-04-14 13:18:14,15,0,0,5623.7101914417,0,0,0.0300885508316,0,0,0,286.8, -2.7, 2.5,0,0,419,388,364,1684,291.4,0,99,4.292,4.294,4.289,4.289,0,0,0,80.51,41,Motors_Started,
0.289292935983491,36.8890121701948,5623.7101914417,0,0,0.034452428924,400,2018-04-14 13:18:15,15,0,17.142,5623.7101914417,0,0,0.034452428924,0,0,0,286.7, -2.7, 2.5,0,0,703,635,498,1595,291.4,0,99,4.292,4.294,4.289,4.289,0,0,1.564,80.51,41,Motors_Started,Setting new Return-To-Home altitude to 45m (148 ft). Setting new Maximum Flight Altitude to 150m (492 ft)
0.289292948561592,36.8890121717295,5623.7101914417,0,0,0.038581694148,500,2018-04-14 13:18:15,15,0,17.142,5623.7101914417,0,0,0.038581694148,0,0,0,286.7, -2.7, 2.5,0,0,1022,1024,1024,1111,291.3,0,99,4.292,4.294,4.289,4.289,0,0,1.564,80.51,41,Motors_Started,
0.289292975401606,36.8890121647288,5623.7101914417,0,0,0.046113190452,600,2018-04-14 13:18:15,15,0,17.142,5623.7101914417,0,0,0.046113190452,0,0,0,286.8, -2.7, 2.5,0,0,1024,1024,1024,1024,290.4,0,99,4.292,4.294,4.289,4.289,0,0,1.564,80.51,41,Motors_Started,
0.289293008392253,36.8890121603399,5623.7101914417,0,0,0.056912403396,700,2018-04-14 13:18:15,15,0,17.142,5623.7101914417,0,0,0.056912403396,0,0,0,286.7, -2.7, 2.5,0,0,1024,1024,1024,1024,289,0,99,4.292,4.294,4.289,4.289,0,0,1.564,80.51,41,Motors_Started,
0.289293028260084,36.8890121786701,5623.7101914417,0,0,0.065918309196,800,2018-04-14 13:18:15,15,0,17.142,5623.7101914417,0,0,0.065918309196,0,0,0,286.7, -2.7, 2.5,0,0,1024,1024,1024,1024,288.3,0,99,4.292,4.294,4.289,4.289,0,0,1.564,80.51,41,Motors_Started,
0.289293045828552,36.8890122015097,5623.7101914417,0,0,0.075042325236,900,2018-04-14 13:18:15,15,0,17.142,5623.7101914417,0,0,0.075042325236,0,0,0,286.7, -2.7, 2.5,0,0,1024,1024,1024,1024,288,0,99,4.292,4.294,4.289,4.289,0,0,1.564,80.51,41,Motors_Started,
0.289293077285205,36.8890122188823,5623.7101914417,0,0,0.088123034316,1000,2018-04-14 13:18:15,15,0,17.142,5623.7101914417,0,0,0.088123034316,0,0,0,286.7, -2.7, 2.5,0,0,1024,1024,1024,1024,287.8,0,99,4.292,4.294,4.289,4.289,0,0,1.564,80.51,41,Motors_Started,
0.289293114544817,36.8890122289015,5623.7101914417,0,0,0.102004924524,1100,2018-04-14 13:18:15,15,0,17.142,5623.7101914417,0,0,0.102004924524,0,0,0,286.7, -2.7, 2.5,0,0,1024,1024,1024,1024,287.7,0,99,4.292,4.294,4.289,4.289,0,0,1.564,80.51,41,Motors_Started,
0.289293136716897,36.8890122061294,5623.7101914417,0,0,0.106587601836,1200,2018-04-14 13:18:15,15,0,17.142,5623.7101914417,0,0,0.106587601836,0,0,0,286.7, -2.7, 2.5,0,0,1024,1024,1024,1024,287.6,0,99,4.292,4.294,4.289,4.289,0,0,1.564,80.51,41,Motors_Started,
0.289293155437489,36.8890121779994,5623.7101914417,0,0,0.110538717448,1300,2018-04-14 13:18:15,15,0,17.142,5623.7101914417,0,0,0.110538717448,0,0,0,286.7, -2.8, 2.5,0,0,1024,1024,1024,1024,287.6,0,99,4.292,4.294,4.289,4.289,0,0,1.564,80.51,41,Motors_Started,
0.289293186395024,36.8890121730217,5623.7101914417,0,0,0.12128609312,1400,2018-04-14 13:18:16,15,0,17.142,5623.7101914417,0,0,0.12128609312,0,0,0,286.7, -2.8, 2.5,0,0,1024,1024,1024,1024,287.5,0,99,4.285,4.289,4.284,4.286,0,0,1.852,80.51,41,Motors_Started,
0.289293223916002,36.889012180609,5623.7101914417,0,0,0.135248691992,1500,2018-04-14 13:18:16,15,0,17.142,5623.7101914417,0,0,0.135248691992,0,0,0,286.7, -2.8, 2.5,0,0,1024,1024,1024,1024,287.4,0,99,4.285,4.289,4.284,4.286,0,0,1.852,80.51,41,Motors_Started,
0.289293245719238,36.889012189313,5623.7101914417,0,0,0.143647970476,1600,2018-04-14 13:18:16,15,0,17.142,5623.7101914417,0,0,0.143647970476,0,0,0,286.7, -2.7, 2.5,0,0,1024,1024,1024,1024,287.4,0,99,4.285,4.289,4.284,4.286,0,0,1.852,80.51,10,Assisted_Takeoff,
0.289293265644879,36.8890121930675,5623.7101914417,0,0,0.151045608508,1700,2018-04-14 13:18:16,15,0,17.142,5623.7101914417,0,0,0.151045608508,0,0,0,286.7, -2.7, 2.5,0,0,1024,1024,1024,1024,287.3,0,99,4.285,4.289,4.284,4.286,0,0,1.852,80.51,10,Assisted_Takeoff,
0.289293267854678,36.889012196472,5623.7101914417,0,0,0.152073823764,1800,2018-04-14 13:18:16,15,0,17.142,5623.7101914417,0,0,0.152073823764,0,0,0,286.7, -2.7, 2.5,0,0,1024,1024,1024,1024,287.3,0,99,4.285,4.289,4.284,4.286,0,0,1.852,80.51,10,Assisted_Takeoff,
0.289293275067056,36.8890121966792,5623.7101914417,0,0,0.154670608624,1900,2018-04-14 13:18:16,15,0,17.142,5623.7101914417,0,0,0.154670608624,0,0,0,286.7, -2.7, 2.5,0,0,1024,1024,1024,1024,287.3,0,99,4.285,4.289,4.284,4.286,0,0,1.852,80.51,10,Assisted_Takeoff,
0.289293294697134,36.8890121967017,5623.7101914417,0,0,0.16170768234,2000,2018-04-14 13:18:16,15,0,17.142,5623.7101914417,0,0,0.16170768234,0,0,0,286.7, -2.7, 2.5,0,0,1024,1024,1024,1024,287.3,0,99,4.285,4.289,4.284,4.286,0,0,1.852,80.51,10,Assisted_Takeoff,
0.289293324101133,36.8890121943512,5623.7101914417,0,0,0.172120084248,2100,2018-04-14 13:18:16,15,0,17.142,5623.7101914417,0,0,0.172120084248,0,0,0,286.7, -2.7, 2.5,0,0,1024,1024,1024,1024,287.2,0,99,4.285,4.289,4.284,4.286,0,0,1.852,80.51,10,Assisted_Takeoff,
0.289293339296144,36.8890121923454,5623.7101914417,0,0,0.177471462372,2200,2018-04-14 13:18:16,15,0,17.142,5623.7101914417,0,0,0.177471462372,0,0,0,286.7, -2.8, 2.5,0,0,1024,1024,1024,1024,287.2,0,99,4.285,4.289,4.284,4.286,0,0,1.852,80.51,10,Assisted_Takeoff,
0.289293354626316,36.8890121887777,5623.7101914417,0,0,0.18280184312,2300,2018-04-14 13:18:16,15,0,17.142,5623.7101914417,0,0,0.18280184312,0,0,0,286.7, -2.7, 2.5,0,0,1024,1024,1024,1024,287.2,0,99,4.285,4.289,4.284,4.286,0,0,1.852,80.51,10,Assisted_Takeoff,
0.289293355341203,36.8890122151326,5623.7101914417,0,0,0.184708339244,2400,2018-04-14 13:18:17,15,0,17.168,5623.7101914417,0,0,0.184708339244,0,0,0,286.7, -2.7, 2.5,0,0,1024,1024,1024,1024,287.2,0,99,4.267,4.276,4.282,4.283,0,0,3.31,80.51,10,Assisted_Takeoff,
0.28929336186475,36.8890122412862,5623.7101914417,0,0,0.189127958808,2500,2018-04-14 13:18:17,15,0,17.168,5623.7101914417,0,0,0.189127958808,0,0,0,286.7, -2.7, 2.5,0,0,1024,1024,1024,1024,287.2,0,99,4.267,4.276,4.282,4.283,0,0,3.31,80.51,10,Assisted_Takeoff,
0.289293383940751,36.8890122691811,5623.7101914417,0,0,0.199567591688,2600,2018-04-14 13:18:17,15,0,17.168,5623.7101914417,0,0,0.199567591688,0,0,0,286.7, -2.7, 2.5,0,0,1024,1024,1024,1024,287.2,0,99,4.267,4.276,4.282,4.283,0,0,3.31,80.51,10,Assisted_Takeoff,
0.289293415604216,36.8890122845399,5623.7101914417,0,0,0.212239508104,2700,2018-04-14 13:18:17,15,0,17.168,5623.7101914417,0,0,0.212239508104,0,0,0,286.6, -2.8, 2.5,0,0,1024,1024,1024,1024,287.2,0,99,4.267,4.276,4.282,4.283,0,0,3.31,80.51,10,Assisted_Takeoff,
0.28929343389897,36.8890122971703,5623.7101914417,0,0,0.219979009664,2800,2018-04-14 13:18:17,15,0,17.168,5623.7101914417,0,0,0.219979009664,0,0,0,286.7, -2.8, 2.5,0,0,1024,1024,1024,1024,287.1,0,99,4.267,4.276,4.282,4.283,0,0,3.31,80.51,10,Assisted_Takeoff,
0.289293451590385,36.8890123037138,5623.7101914417,0,0,0.226853353716,2900,2018-04-14 13:18:17,15,0,17.168,5623.7101914417,0,0,0.226853353716,0,0,0,286.6, -2.7, 2.5,0,0,1024,1024,1024,1024,287.1,0,99,4.267,4.276,4.282,4.283,0,0,3.31,80.51,10,Assisted_Takeoff,
0.289293482458356,36.8890123078394,5623.7101914417,0,0,0.23805118872,3000,2018-04-14 13:18:17,15,0,17.168,5623.7101914417,0,0,0.23805118872,0,0,0,286.6, -2.8, 2.5,0,1,1024,1024,1024,1024,287.1,0,99,4.267,4.276,4.282,4.283,0,0,3.31,80.51,10,Assisted_Takeoff,
0.289293544022495,36.8890123352167,5623.7101914417,0,0,0.262475074016,3200,2018-04-14 13:18:17,15,0,17.168,5623.7101914417,0,0,0.262475074016,0,0,0,286.6, -2.7, 2.5,0,1,1024,1024,1024,1024,287.1,0,99,4.267,4.276,4.282,4.283,0,0,3.31,80.51,10,Assisted_Takeoff,
0.289293565461774,36.8890123621818,5623.7101914417,0,0,0.273017069104,3300,2018-04-14 13:18:17,15,0,17.168,5623.7101914417,0,0,0.273017069104,0,0,0,286.6, -2.7, 2.5,0,1,1024,1024,1024,1024,287.1,0,99,4.267,4.276,4.282,4.283,0,0,3.31,80.51,10,Assisted_Takeoff,
0.289293569823562,36.889012387017,5623.7101914417,0,0,0.277622056128,3400,2018-04-14 13:18:18,15,0,17.142,5623.7101914417,0,0,0.277622056128,0,0,0,286.6, -2.7, 2.5,0,1,1024,1024,1024,1024,287.1,0,99,4.267,4.276,4.282,4.283,0,0,3.31,80.51,10,Assisted_Takeoff,
0.289293579336932,36.889012400787,5623.7101914417,0,0,0.282677830568,3500,2018-04-14 13:18:18,15,0,17.142,5623.7101914417,0,0,0.282677830568,0,0,0,286.6, -2.8, 2.5,0,1,1024,1024,1024,1024,287.1,0,99,4.267,4.276,4.282,4.283,0,0,3.31,80.51,10,Assisted_Takeoff,
0.289293601048161,36.8890124109604,5623.7101914417,0,0,0.291409786228,3600,2018-04-14 13:18:18,15,0,17.142,5623.7101914417,0,0,0.291409786228,0,0,0,286.6, -2.8, 2.5,0,1,1024,1024,1024,1024,287.1,0,99,4.267,4.276,4.282,4.283,0,0,3.31,80.51,10,Assisted_Takeoff,
0.289293633322293,36.8890124159221,5623.7101914417,0,0,0.30303150576,3700,2018-04-14 13:18:18,15,0,17.142,5623.7101914417,0,0,0.30303150576,0,0,0,286.6, -2.8, 2.5,0,1,1024,1024,1024,1024,287.1,0,99,4.267,4.276,4.282,4.283,0,0,3.31,80.51,10,Assisted_Takeoff,
0.289293650503191,36.8890124173262,5623.7101914417,0,0,0.309065954772,3800,2018-04-14 13:18:18,15,0,17.142,5623.7101914417,0,0,0.309065954772,0,0,0,286.6, -2.8, 2.5,0,1,1024,1024,1024,1024,287.1,0,99,4.267,4.276,4.282,4.283,0,0,3.31,80.51,10,Assisted_Takeoff,
0.289293668267072,36.8890124163637,5623.7101914417,0,0,0.315007884096,3900,2018-04-14 13:18:18,15,0,17.142,5623.7101914417,0,0,0.315007884096,0,0,0,286.6, -2.8, 2.5,0,1,1024,1024,1024,1024,287.1,0,99,4.267,4.276,4.282,4.283,0,0,3.31,80.51,10,Assisted_Takeoff,
0.28929367054608,36.889012439479,5623.7101914417,0,0,0.318816611252,4000,2018-04-14 13:18:18,15,0,17.142,5623.7101914417,0,0,0.318816611252,0,0,0,286.6, -2.8, 2.5,0,1,1024,1024,1024,1024,287.1,0,99,4.267,4.276,4.282,4.283,0,0,3.31,80.51,10,Assisted_Takeoff,
0.289293677771486,36.889012464646,5623.7101914417,0,0,0.324756572072,4100,2018-04-14 13:18:18,15,0,17.142,5623.7101914417,0,0,0.324756572072,0,0,0,286.6, -2.8, 2.5,0,1,1024,1024,1024,1024,287.1,0,99,4.267,4.276,4.282,4.283,0,0,3.31,80.51,10,Assisted_Takeoff,
0.289293697662929,36.8890124886124,5623.7101914417,0,0,0.33490158552,4200,2018-04-14 13:18:18,15,0,17.142,5623.7101914417,0,0,0.33490158552,0,0,0,286.6, -2.8, 2.5,0,1,1024,1024,1024,1024,287.1,0,99,4.267,4.276,4.282,4.283,0,0,3.31,80.51,10,Assisted_Takeoff,
0.289293730121889,36.8890125009687,5623.7101914417,0,0,0.3475557854,4300,2018-04-14 13:18:18,15,0,17.142,5623.7101914417,0,0,0.3475557854,0,0,0,286.6, -2.8, 2.5,0,1,1024,1024,1024,1024,287.1,0,99,4.267,4.276,4.282,4.283,0,0,3.31,80.51,10,Assisted_Takeoff,
0.289293747490059,36.8890125101015,5623.7101914417,0,0,0.35469817408,4400,2018-04-14 13:18:19,15,0,17.115,5623.7101914417,0,0,0.35469817408,0,0,0,286.6, -2.8, 2.5,0,1,1024,1024,1026,1024,287.1,0,99,4.284,4.287,4.283,4.283,0,0,2.024,80.51,10,Assisted_Takeoff,
0.289293765564159,36.889012514249,5623.7101914417,0,0,0.36134187508,4500,2018-04-14 13:18:19,15,0,17.115,5623.7101914417,0,0,0.36134187508,0,0,0,286.6, -2.8, 2.5,0,1,1024,1024,1078,1024,287.1,0,99,4.284,4.287,4.283,4.283,0,0,2.024,80.51,10,Assisted_Takeoff,
0.289293767525619,36.8890125427349,5623.7101914417,0,0,0.36629594348,4600,2018-04-14 13:18:19,15,0,17.115,5623.7101914417,0,0,0.36629594348,0,0,0,286.6, -2.8, 2.5,0,1,1024,1024,1025,1024,287.1,0,99,4.284,4.287,4.283,4.283,0,0,2.024,80.51,10,Assisted_Takeoff,
0.289293775571761,36.8890125703328,5623.7101914417,0,0,0.37332022192,4700,2018-04-14 13:18:19,15,0,17.115,5623.7101914417,0,0,0.37332022192,0,0,0,286.6, -2.8, 2.5,0,1,1024,1024,1025,1024,287.1,0,99,4.284,4.287,4.283,4.283,0,0,2.024,80.51,10,Assisted_Takeoff,
0.289293796847382,36.8890125942092,5623.7101914417,0,0,0.3841699598,4800,2018-04-14 13:18:19,15,0,17.115,5623.7101914417,0,0,0.3841699598,0,0,0,286.6, -2.8, 2.5,0,1,1024,1024,1051,1024,287.1,0,99,4.284,4.287,4.283,4.283,0,0,2.024,80.51,10,Assisted_Takeoff,
0.289293829068589,36.8890126073385,5623.7101914417,0,0,0.39682087884,4900,2018-04-14 13:18:19,15,0,17.115,5623.7101914417,0,0,0.39682087884,0,0,0,286.6, -2.8, 2.5,0,1,1024,1024,1075,1024,287.1,0,99,4.284,4.287,4.283,4.283,0,0,2.024,80.51,10,Assisted_Takeoff,
0.289293846531208,36.8890126161875,5623.7101914417,0,0,0.40396326752,5000,2018-04-14 13:18:19,15,0,17.115,5623.7101914417,0,0,0.40396326752,0,0,0,286.6, -2.8, 2.5,0,1,1024,1024,1079,1024,287.1,0,99,4.284,4.287,4.283,4.283,0,0,2.024,80.51,10,Assisted_Takeoff,
0.289293865573418,36.8890126199967,5623.7101914417,0,0,0.4107939764,5100,2018-04-14 13:18:19,15,0,17.115,5623.7101914417,0,0,0.4107939764,0,0,0,286.6, -2.8, 2.5,0,1,1024,1024,1085,1024,287.1,0,99,4.284,4.287,4.283,4.283,0,0,2.024,80.51,10,Assisted_Takeoff,
0.289293868085293,36.8890126492412,5623.7101914417,0,0,0.41649279548,5200,2018-04-14 13:18:19,15,0,17.115,5623.7101914417,0,0,0.41649279548,0,0,0,286.6, -2.8, 2.5,0,1,1024,1024,1086,1024,287.1,0,99,4.284,4.287,4.283,4.283,0,0,2.024,80.51,10,Assisted_Takeoff,
0.289293877006724,36.8890126768808,5623.7101914417,0,0,0.42415027604,5300,2018-04-14 13:18:19,15,0,17.115,5623.7101914417,0,0,0.42415027604,0,0,0,286.6, -2.8, 2.5,0,1,1024,1024,1097,1024,287.1,0,99,4.284,4.287,4.283,4.283,0,0,2.024,80.51,10,Assisted_Takeoff,
0.289293869603003,36.889012700116,5623.7101914417,0,0,0.42596458056,5400,2018-04-14 13:18:20,15,0,17.115,5623.7101914417,0,0,0.42596458056,0,0,0,286.6, -2.8, 2.5,0,1,1024,1024,1108,1024,287.1,0,99,4.284,4.287,4.282,4.28,0,0,2.2,80.51,10,Assisted_Takeoff,
0.28929387196099,36.8890127124958,5623.7101914417,0,0,0.4289862342,5500,2018-04-14 13:18:20,15,0,17.115,5623.7101914417,0,0,0.4289862342,0,0,0,286.6, -2.8, 2.5,0,1,1024,1024,1109,1024,287.1,0,99,4.284,4.287,4.282,4.28,0,0,2.2,80.51,10,Assisted_Takeoff,
0.289293890449529,36.8890127492976,5623.7101914417,0,0,0.44168964668,5600,2018-04-14 13:18:20,15,0,17.115,5623.7101914417,0,0,0.44168964668,0,0,0,286.6, -2.8, 2.5,0,1,1024,1024,1107,1024,287.1,0,99,4.284,4.287,4.282,4.28,0,0,2.2,80.51,10,Assisted_Takeoff,
0.289293920429997,36.8890127812929,5623.7101914417,0,0,0.45713912224,5700,2018-04-14 13:18:20,15,0,17.115,5623.7101914417,0,0,0.45713912224,0,0,0,286.6, -2.8, 2.5,0,1,1024,1024,1106,1024,287.1,0,99,4.284,4.287,4.282,4.28,0,0,2.2,80.51,10,Assisted_Takeoff,
0.289293937743614,36.8890128061142,5623.7101914417,0,0,0.4673228496,5800,2018-04-14 13:18:20,15,0,17.115,5623.7101914417,0,0,0.4673228496,0,0,0,286.5, -2.8, 2.5,0,1,1024,1024,1108,1024,287.1,0,99,4.284,4.287,4.282,4.28,0,0,2.2,80.51,10,Assisted_Takeoff,
0.289293958507089,36.8890128192553,5623.7101914417,0,0,0.47628938532,5900,2018-04-14 13:18:20,15,0,17.115,5623.7101914417,0,0,0.47628938532,0,0,0,286.5, -2.8, 2.5,0,1,1024,1024,1116,1024,287.1,0,99,4.284,4.287,4.282,4.28,0,0,2.2,80.51,10,Assisted_Takeoff,
0.289293964228627,36.8890128538677,5623.7101914417,0,0,0.48494752208,6000,2018-04-14 13:18:20,15,0,17.115,5623.7101914417,0,0,0.48494752208,0,0,0,286.4, -2.9, 2.5,0,1,1024,1024,1143,1024,287.1,0,99,4.284,4.287,4.282,4.28,0,0,2.2,80.51,10,Assisted_Takeoff,
0.289293978098898,36.8890128831212,5623.7101914417,0,0,0.49512140692,6100,2018-04-14 13:18:20,15,0,17.115,5623.7101914417,0,0,0.49512140692,0,0,0,286.4, -2.9, 2.4,0,1,1024,1024,1198,1024,287,0,99,4.284,4.287,4.282,4.28,0,0,2.2,80.51,10,Assisted_Takeoff,
0.289294077995795,36.8890128836935,5623.7101914417,0,0,0.52569227404,6300,2018-04-14 13:18:20,15,0,17.115,5623.7101914417,0,0,0.52569227404,0,0,0,286.3, -1, 0.6,0,1,1024,1024,1222,1024,287,0,99,4.284,4.287,4.282,4.28,0,0,2.2,80.51,10,Assisted_Takeoff,
0.289294140006943,36.8890128654591,5623.7101914417,0,0,0.54157810132,6400,2018-04-14 13:18:21,15,0,17.009,5623.7101914417,0,0,0.54157810132,0,0,-0.447388,286.3, -0.3, -0.4,0,1,1024,1024,1250,1024,287,0,99,4.234,4.239,4.227,4.222,0,0,7.286,80.51,6,P-GPS,Obstacle Avoided. Revise Flight Route
0.289294180990807,36.8890128408294,5623.7101914417,0,0,0.55015421708,6500,2018-04-14 13:18:21,15,0,17.009,5623.7101914417,0,0,0.55015421708,0,0,-0.671082,286.4, 0.5, -0.6,0,1,1024,1024,1307,1024,287,0,99,4.234,4.239,4.227,4.222,0,0,7.286,80.51,6,P-GPS,Home Point Recorded. RTH Altitude:  45m.
0.289294212149455,36.8890127992554,5623.7101914417,0,0,0.55314634316,6600,2018-04-14 13:18:21,15,0,17.009,5623.7101914417,0,0,0.55314634316,0,0,-0.894776,286.4, 1.3, -0.4,0,1,1024,1024,1378,1024,287,0,99,4.234,4.239,4.227,4.222,0,0,7.286,80.51,6,P-GPS,
0.289294171378102,36.8890127752264,5624.0382754417,0.328084,0,0.53591537148,6800,2018-04-14 13:18:21,15,0,17.009,5624.0382754417,0.328084,0,0.55314634316,0,0,-1.789552,286.5, 0.7, 0.2,0,1,1024,1024,1377,1024,287,0,99,4.234,4.239,4.227,4.222,0,0,7.286,80.51,6,P-GPS,
0.289294090706615,36.8890128027461,5624.3663594417,0.656168,0.223694,0.51460631568,6900,2018-04-14 13:18:21,15,0,17.009,5624.3663594417,0.656168,0.223694,0.55314634316,-0.223694,0,-2.23694,286.5, 0.4, 0.8,0,1,1024,1024,1407,1023,287,0,99,4.234,4.239,4.227,4.222,0,0,7.286,80.51,6,P-GPS,
0.289293970963057,36.8890128342431,5625.0225274417,1.312336,0.223694,0.48306760076,7000,2018-04-14 13:18:21,15,0,17.009,5625.0225274417,1.312336,0.223694,0.55314634316,-0.223694,0,-2.908022,286.4, -0.2, 1.4,0,1,1024,1024,1453,1024,287,0,99,4.234,4.239,4.227,4.222,0,0,7.286,80.51,6,P-GPS,
0.289293855738431,36.8890128716423,5625.3506114417,1.64042,0,0.45645670752,7100,2018-04-14 13:18:21,15,0,17.009,5625.3506114417,1.64042,0.223694,0.55314634316,0,0,-3.35541,286.4, -0.3, 1.8,0,1,1024,1024,1470,1024,287,0,99,4.234,4.239,4.227,4.222,0,0,7.286,80.51,6,P-GPS,
0.289293706654383,36.8890129175302,5626.0067794417,2.296588,0,0.4257546068,7200,2018-04-14 13:18:21,15,0,17.009,5626.0067794417,2.296588,0.223694,0.55314634316,0,0,-4.026492,286.5, -0.2, 1.7,0,1,1024,1024,1487,1024,287,0,99,4.234,4.239,4.227,4.222,0,0,7.286,80.51,6,P-GPS,
0.289293577085608,36.8890129867321,5626.3348634417,2.624672,0,0.41191274284,7300,2018-04-14 13:18:21,15,0,17.009,5626.3348634417,2.624672,0.223694,0.55314634316,0,0,-4.697574,286.4, -0.6, 1.1,0,1,1024,1024,1508,1024,287,0,99,4.234,4.239,4.227,4.222,0,0,7.286,80.51,6,P-GPS,
0.289293436147037,36.8890131344349,5627.3191154417,3.608924,0.223694,0.42723754648,7400,2018-04-14 13:18:22,15,0,16.531,5627.3191154417,3.608924,0.223694,0.55314634316,-0.223694,0,-5.368656,286.4, -1.1, 1.4,0,1,1024,1024,1513,1024,287,0,99,4.234,4.239,4.227,4.222,0,0,7.286,80.51,6,P-GPS,
0.289293308525066,36.8890133067728,5627.9752834417,4.265092,0.3131716,0.46453085476,7500,2018-04-14 13:18:22,15,0,16.531,5627.9752834417,4.265092,0.3131716,0.55314634316,-0.223694,0.223694,-6.039738,286.2, -2.4, 1.8,0,1,1024,1024,1513,1024,287,0,99,4.234,4.239,4.227,4.222,0,0,7.286,80.51,6,P-GPS,
0.289293181782456,36.8890134819761,5628.9595354417,5.249344,0,0.51225723424,7600,2018-04-14 13:18:22,15,0,16.531,5628.9595354417,5.249344,0.3131716,0.55314634316,0,0,-6.487126,286.1, -3.9, 2.1,0,1,1024,1024,1513,1024,287,0,99,4.234,4.239,4.227,4.222,0,0,7.286,80.51,6,P-GPS,
0.289293103669254,36.8890135833113,5629.9437874417,6.233596,0,0.542896999,7700,2018-04-14 13:18:22,15,0,16.531,5629.9437874417,6.233596,0.3131716,0.55314634316,0,0,-6.934514,286.1, -3.3, 2,0,1,1024,1024,1532,1024,287,0,99,4.234,4.239,4.227,4.222,0,0,7.286,80.51,6,P-GPS,
0.289293032519279,36.8890136442824,5631.2561234417,7.545932,0,0.56133203896,7800,2018-04-14 13:18:22,15,0,16.531,5631.2561234417,7.545932,0.3131716,0.56133203896,0,0,-7.158208,286.2, -1.9, 1.6,0,1,1024,1024,1534,1024,287,0,99,4.234,4.239,4.227,4.222,0,0,7.286,80.51,6,P-GPS,
0.289292994211763,36.889013666424,5632.2403754417,8.530184,0,0.56797573996,7900,2018-04-14 13:18:22,15,0,16.531,5632.2403754417,8.530184,0.3131716,0.56797573996,0,0,-7.381902,286.2, -1.1, 1.1,0,1,1024,1024,1540,1024,286.9,0,99,4.234,4.239,4.227,4.222,0,0,7.286,80.51,6,P-GPS,
0.289292995556857,36.8890136372786,5633.2246274417,9.514436,0,0.55742783936,8000,2018-04-14 13:18:22,15,0,16.531,5633.2246274417,9.514436,0.3131716,0.56797573996,0,0,-7.605596,286.2, -0.3, 1.1,0,1,1024,1024,1554,1024,286.9,0,99,4.234,4.239,4.227,4.222,0,0,7.286,80.51,6,P-GPS,
0.289293011456984,36.8890135919987,5634.5369634417,10.826772,0,0.54154201208,8100,2018-04-14 13:18:22,15,0,16.531,5634.5369634417,10.826772,0.3131716,0.56797573996,0,0,-7.605596,286.2, -0.1, 1.3,0,1,1024,1024,1620,1024,286.9,0,99,4.234,4.239,4.227,4.222,0,0,7.286,80.51,6,P-GPS,
0.28929300364371,36.8890135525996,5635.5212154417,11.811024,0,0.5269521166,8200,2018-04-14 13:18:22,15,0,16.531,5635.5212154417,11.811024,0.3131716,0.56797573996,0,0,-7.605596,286.1, -0.8, 1.4,0,1,1024,1024,1620,1024,286.9,0,99,4.234,4.239,4.227,4.222,0,0,7.286,80.51,6,P-GPS,
0.289292998900053,36.889013510652,5636.8335514417,13.12336,0,0.5115485728,8300,2018-04-14 13:18:22,15,0,16.531,5636.8335514417,13.12336,0.3131716,0.56797573996,0,0,-7.82929,286.1, -0.7, 0.1,0,1,1024,1024,1613,1024,286.9,0,99,4.234,4.239,4.227,4.222,0,0,7.286,80.51,6,P-GPS,
0.289292948252188,36.8890134605036,5637.8178034417,14.107612,0,0.4917815118,8400,2018-04-14 13:18:23,15,0,16.399,5637.8178034417,14.107612,0.3131716,0.56797573996,0,0,-8.276678,286, 0, 0,0,1,1024,1024,1573,1024,286.9,0,99,4.116,4.135,4.125,4.119,0,0,18.31,80.51,6,P-GPS,
0.289292839621131,36.8890133956896,5639.1301394417,15.419948,0.223694,0.46710631416,8500,2018-04-14 13:18:23,15,0,16.399,5639.1301394417,15.419948,0.3131716,0.56797573996,-0.223694,0,-8.500372,286.1, 0, 1.4,0,1,1024,1024,1573,1024,286.9,0,99,4.116,4.135,4.125,4.119,0,0,18.31,80.51,6,P-GPS,
0.289292672332301,36.8890133495442,5640.4424754417,16.732284,0,0.45533794108,8600,2018-04-14 13:18:23,15,0,16.399,5640.4424754417,16.732284,0.3131716,0.56797573996,0,0,-8.724066,286.1, -0.5, 2.6,0,1,1024,1024,1563,1024,286.9,0,99,4.116,4.135,4.125,4.119,0,0,18.31,80.51,6,P-GPS,
0.289292517228303,36.8890132914193,5641.7548114417,18.04462,0,0.44676182532,8700,2018-04-14 13:18:23,15,0,16.399,5641.7548114417,18.04462,0.3131716,0.56797573996,0,0,-8.500372,286.2, -0.4, 3.4,0,1,1024,1024,1574,1024,286.9,0,99,4.116,4.135,4.125,4.119,0,0,18.31,80.51,6,P-GPS,
0.289292344126741,36.8890132382074,5643.0671474417,19.356956,0,0.45061353148,8800,2018-04-14 13:18:23,15,0,16.399,5643.0671474417,19.356956,0.3131716,0.56797573996,0,0,-8.500372,286.2, 0.2, 3.3,0,1,1024,1024,1593,1024,286.9,0,99,4.116,4.135,4.125,4.119,0,0,18.31,80.51,6,P-GPS,
0.289292206733293,36.8890131836107,5644.3794834417,20.669292,0,0.4565945028,8900,2018-04-14 13:18:23,15,0,16.399,5644.3794834417,20.669292,0.3131716,0.56797573996,0,0,-8.500372,286.3, 0, 3.2,0,1,1024,1024,1607,1024,286.9,0,99,4.116,4.135,4.125,4.119,0,0,18.31,80.51,6,P-GPS,
0.289292070200477,36.8890131542961,5645.3637354417,21.653544,0,0.47586287612,9000,2018-04-14 13:18:23,15,0,16.399,5645.3637354417,21.653544,0.3131716,0.56797573996,0,0,-8.500372,286.3, 0, 2.8,0,1,1024,1024,1619,1024,286.8,0,99,4.116,4.135,4.125,4.119,0,0,18.31,80.51,6,P-GPS,
0.28929197539491,36.8890131153344,5646.6760714417,22.96588,0,0.48680447752,9100,2018-04-14 13:18:23,15,0,16.399,5646.6760714417,22.96588,0.3131716,0.56797573996,0,0,-8.724066,286.3, 0.1, 2.8,0,1,1024,1024,1644,1024,286.8,0,99,4.116,4.135,4.125,4.119,0,0,18.31,80.51,6,P-GPS,
0.289291896818009,36.8890131184959,5647.9884074417,24.278216,0,0.50707678788,9200,2018-04-14 13:18:23,15,0,16.399,5647.9884074417,24.278216,0.3131716,0.56797573996,0,0,-8.724066,286.2, 0.4, 2.3,0,1,1024,1024,1656,1024,286.8,0,99,4.116,4.135,4.125,4.119,0,0,18.31,80.51,6,P-GPS,
0.289291848941756,36.8890131261132,5649.3007434417,25.590552,0,0.52128610592,9300,2018-04-14 13:18:23,15,0,16.399,5649.3007434417,25.590552,0.3131716,0.56797573996,0,0,-9.171454,286.3, 0.5, 2.1,0,1,1024,1024,1663,1024,286.8,0,99,4.116,4.135,4.125,4.119,0,0,18.31,80.51,6,P-GPS,
0.289291783974168,36.889013178354,5650.6130794417,26.902888,0,0.55153216988,9400,2018-04-14 13:18:24,15,0,16.399,5650.6130794417,26.902888,0.3131716,0.56797573996,0,0,-9.395148,286.3, 0, 2,0,1,1024,1024,1666,1024,286.8,0,99,4.116,4.135,4.125,4.119,0,0,18.31,80.51,6,P-GPS,
0.289291736155317,36.8890132162136,5652.2534994417,28.543308,0,0.573654874,9500,2018-04-14 13:18:24,15,0,16.399,5652.2534994417,28.543308,0.3131716,0.573654874,0,0,-9.842536,286.2, -0.4, 2.1,0,1,1024,1024,1680,1024,286.8,0,99,4.116,4.135,4.125,4.119,0,0,18.31,80.51,6,P-GPS,
0.289291696384644,36.8890132742694,5653.5658354417,29.855644,0,0.59886484856,9600,2018-04-14 13:18:24,15,0,16.399,5653.5658354417,29.855644,0.3131716,0.59886484856,0,0,-10.06623,286.3, 0.3, 2.3,0,1,1024,1024,1683,1024,286.8,0,99,4.116,4.135,4.125,4.119,0,0,18.31,80.51,6,P-GPS,
0.289291701508136,36.8890132961364,5655.2062554417,31.496064,0,0.6032152424,9700,2018-04-14 13:18:24,15,0,16.399,5655.2062554417,31.496064,0.3131716,0.6032152424,0,0,-10.289924,286.3, 1.1, 1.4,0,1,1024,1024,1665,1024,286.8,0,99,4.116,4.135,4.125,4.119,0,0,18.31,80.51,6,P-GPS,
0.289291697999653,36.8890133310721,5656.8466754417,33.136484,0,0.61326445532,9800,2018-04-14 13:18:24,15,0,16.399,5656.8466754417,33.136484,0.3131716,0.61326445532,0,0,-10.513618,286.3, 0.8, 1.2,0,1,1024,1024,1657,1024,286.8,0,99,4.116,4.135,4.125,4.119,0,0,18.31,80.51,6,P-GPS,
0.289291693774655,36.8890133402825,5658.1590114417,34.44882,0,0.61675854992,9900,2018-04-14 13:18:24,15,0,16.399,5658.1590114417,34.44882,0.3131716,0.61675854992,0,0,-10.513618,286.3, 0.8, 1.4,0,1,1024,1024,1684,1024,286.8,0,99,4.116,4.135,4.125,4.119,0,0,18.31,80.51,6,P-GPS,
0.289291612550718,36.8890133718394,5661.4398514417,37.72966,0.223694,0.645669312,10100,2018-04-14 13:18:24,15,0,16.399,5661.4398514417,37.72966,0.3131716,0.645669312,0.223694,0,-10.513618,286.2, 0.9, 2,0,1,1024,1024,1684,1024,286.8,0,99,4.116,4.135,4.125,4.119,0,0,18.31,80.51,6,P-GPS,
0.289291587198695,36.8890134257044,5662.7521874417,39.041996,0.223694,0.666174562,10200,2018-04-14 13:18:24,15,0,16.399,5662.7521874417,39.041996,0.3131716,0.666174562,0.223694,0,-10.513618,286.2, 0.8, 1.2,0,1,1024,1024,1684,1024,286.8,0,99,4.116,4.135,4.125,4.119,0,0,18.31,80.51,6,P-GPS,
0.28929157993095,36.8890134771932,5664.3926074417,40.682416,0.223694,0.68159122916,10300,2018-04-14 13:18:24,15,0,16.399,5664.3926074417,40.682416,0.3131716,0.68159122916,0.223694,0,-10.513618,286.2, 1.2, 0.7,0,1,1024,1024,1684,1024,286.8,0,99,4.116,4.135,4.125,4.119,0,0,18.31,80.51,6,P-GPS,
0.289291522427335,36.889013566033,5666.0330274417,42.322836,0,0.71961616476,10400,2018-04-14 13:18:25,15,0,16.399,5666.0330274417,42.322836,0.3131716,0.71961616476,0,0,-10.513618,286.2, 1.4, 0.9,0,1,1024,1024,1684,1024,286.8,0,99,4.105,4.124,4.125,4.127,0,0,16.962,80.51,6,P-GPS,
0.289291466466264,36.8890136536946,5667.3453634417,43.635172,0,0.75699805572,10500,2018-04-14 13:18:25,15,0,16.399,5667.3453634417,43.635172,0.3131716,0.75699805572,0,0,-10.737312,286.4, 0.6, 1.2,0,1,1024,1024,1684,1023,286.8,0,99,4.105,4.124,4.125,4.127,0,0,16.962,80.51,6,P-GPS,
0.289291380052476,36.8890137597704,5668.9857834417,45.275592,0,0.80685370036,10600,2018-04-14 13:18:25,15,0,16.399,5668.9857834417,45.275592,0.3131716,0.80685370036,0,0,-10.737312,286.4, 0.1, 0.2,0,1,1024,1024,1684,1022,286.8,0,99,4.105,4.124,4.125,4.127,0,0,16.962,80.51,6,P-GPS,
0.289291286583455,36.8890138195291,5670.6262034417,46.916012,0,0.84593834728,10700,2018-04-14 13:18:25,15,0,16.399,5670.6262034417,46.916012,0.3131716,0.84593834728,0,0,-10.961006,286.3, 0.3, 0.1,0,1,1024,1024,1684,1018,286.8,-0.2,99,4.105,4.124,4.125,4.127,0,0,16.962,80.51,6,P-GPS,
0.289291111890904,36.8890138371912,5672.2666234417,48.556432,0,0.89490488428,10800,2018-04-14 13:18:25,15,0,16.399,5672.2666234417,48.556432,0.3131716,0.89490488428,0,0,-10.961006,286.3, 0.4, 1.5,0,1,1024,1024,1684,1023,286.8,-0.2,99,4.105,4.124,4.125,4.127,0,0,16.962,80.51,6,P-GPS,
0.289290946546843,36.8890138000346,5673.9070434417,50.196852,0.223694,0.92981302188,10900,2018-04-14 13:18:25,15,0,16.399,5673.9070434417,50.196852,0.3131716,0.92981302188,0,-0.223694,-10.961006,286.3, 1, 2.4,0,1,1024,1024,1684,1022,286.8,-0.8,99,4.105,4.124,4.125,4.127,0,0,16.962,80.51,6,P-GPS,
0.289290751315135,36.889013755472,5675.5474634417,51.837272,0.223694,0.97432417816,11000,2018-04-14 13:18:25,15,0,16.399,5675.5474634417,51.837272,0.3131716,0.97432417816,0,-0.223694,-10.961006,286.4, 2.3, 2.6,0,1,1024,1024,1684,1024,286.8,-2,99,4.105,4.124,4.125,4.127,0,0,16.962,80.51,6,P-GPS,
0.289290603432471,36.8890137014004,5677.1878834417,53.477692,0.223694,1.00597444164,11100,2018-04-14 13:18:25,15,0,16.399,5677.1878834417,53.477692,0.3131716,1.00597444164,0,-0.223694,-11.1847,286.4, 3.2, 2,0,1,1024,1024,1684,1024,286.8,-3.8,99,4.105,4.124,4.125,4.127,0,0,16.962,80.51,6,P-GPS,
0.289290435860699,36.889013672748,5679.1563874417,55.446196,0.223694,1.0508858604,11200,2018-04-14 13:18:25,15,0,16.399,5679.1563874417,55.446196,0.3131716,1.0508858604,0,-0.223694,-11.408394,286.4, 3.2, 1.7,0,1,1024,1024,1684,1024,286.8,-5.6,99,4.105,4.124,4.125,4.127,0,0,16.962,80.51,6,P-GPS,
0.289290290190276,36.8890136463155,5680.7968074417,57.086616,0,1.09100397192,11300,2018-04-14 13:18:25,15,0,16.399,5680.7968074417,57.086616,0.3131716,1.09100397192,0,0,-11.1847,286.4, 3.2, 1.6,0,1,1024,1024,1684,1024,286.7,-7.4,99,4.105,4.124,4.125,4.127,0,0,16.962,80.51,6,P-GPS,
0.289290102040264,36.8890136674662,5682.4372274417,58.727036,0,1.15427825216,11400,2018-04-14 13:18:26,15,0,16.293,5682.4372274417,58.727036,0.3131716,1.15427825216,0,0,-11.408394,286.3, 3.2, 1.9,0,1,1024,1024,1684,1024,286.7,-9.2,99,4.105,4.124,4.125,4.127,0,0,18.822,82.31,6,P-GPS,
0.289289918257331,36.8890136988229,5684.4057314417,60.69554,0,1.2185367844,11500,2018-04-14 13:18:26,15,0,16.293,5684.4057314417,60.69554,0.3131716,1.2185367844,0,0,-11.408394,286.3, 2.7, 2.4,0,1,1024,1024,1684,1024,286.7,-11,99,4.105,4.124,4.125,4.127,0,0,18.822,82.31,6,P-GPS,
0.289289680873758,36.8890137979597,5686.0461514417,62.33596,0,1.3119751076,11600,2018-04-14 13:18:26,15,0,16.293,5686.0461514417,62.33596,0.3131716,1.3119751076,0,0,-11.408394,286.2, 1.7, 2.5,0,1,1024,1024,1684,1024,286.7,-12.5,99,4.105,4.124,4.125,4.127,0,0,18.822,82.31,6,P-GPS,
0.289289469190694,36.8890138802571,5687.6865714417,63.97638,0,1.39431434908,11700,2018-04-14 13:18:26,15,0,16.293,5687.6865714417,63.97638,0.3131716,1.39431434908,0,0,-11.408394,286.3, 1.4, 3.2,0,1,1024,1024,1684,1024,286.7,-12.5,99,4.105,4.124,4.125,4.127,0,0,18.822,82.31,6,P-GPS,
0.289289223388879,36.8890140025145,5689.6550754417,65.944884,0,1.49445870924,11800,2018-04-14 13:18:26,15,0,16.293,5689.6550754417,65.944884,0.3131716,1.49445870924,0,0,-11.408394,286.3, 2.2, 3,0,1,1024,1024,1684,1024,286.7,-12.6,99,4.105,4.124,4.125,4.127,0,0,18.822,82.31,6,P-GPS,
0.289289023175761,36.8890141126041,5691.2954954417,67.585304,0,1.57779860692,11900,2018-04-14 13:18:26,15,0,16.293,5691.2954954417,67.585304,0.3131716,1.57779860692,0,0,-11.408394,286.3, 2.1, 2.6,0,1,1024,1024,1684,1024,286.7,-12.6,99,4.105,4.124,4.125,4.127,0,0,18.822,82.31,6,P-GPS,
0.289288788726846,36.8890142481353,5693.2639994417,69.553808,0,1.67650924,12000,2018-04-14 13:18:26,15,0,16.293,5693.2639994417,69.553808,0.3131716,1.67650924,0,0,-11.632088,286.3, 1.5, 2.9,0,1,1024,1024,1684,1024,286.7,-12.6,99,4.105,4.124,4.125,4.127,0,0,18.822,82.31,6,P-GPS,
0.289288587465214,36.8890143517419,5694.9044194417,71.194228,0,1.75909782532,12100,2018-04-14 13:18:26,15,0,16.293,5694.9044194417,71.194228,0.3131716,1.75909782532,0,0,-11.632088,286.3, 1.1, 2.8,0,1,1024,1024,1684,1024,286.7,-12.6,99,4.105,4.124,4.125,4.127,0,0,18.822,82.31,6,P-GPS,
0.289288350824617,36.8890144738537,5696.8729234417,73.162732,0.223694,1.8562500594,12200,2018-04-14 13:18:26,15,0,16.293,5696.8729234417,73.162732,0.3131716,1.8562500594,-0.223694,0,-11.632088,286.2, 0.7, 3.1,0,1,1024,1024,1684,1024,286.7,-12.6,99,4.105,4.124,4.125,4.127,0,0,18.822,82.31,6,P-GPS,
0.289288134207776,36.8890145552202,5698.5133434417,74.803152,0.223694,1.94006895972,12300,2018-04-14 13:18:26,15,0,16.293,5698.5133434417,74.803152,0.3131716,1.94006895972,-0.223694,0,-11.632088,286.2, 0.7, 3.9,0,1,1024,1024,1684,1024,286.7,-12.6,99,4.105,4.124,4.125,4.127,0,0,18.822,82.31,6,P-GPS,
0.289287868305262,36.8890146377997,5700.4818474417,76.771656,0.223694,2.04017066896,12400,2018-04-14 13:18:27,15,0,16.266,5700.4818474417,76.771656,0.3131716,2.04017066896,-0.223694,0,-11.632088,286.2, 1, 4.6,0,1,1024,1024,1684,1024,286.7,-12.6,99,4.079,4.109,4.105,4.099,0,0,18.822,82.31,6,P-GPS,
0.289287646708028,36.8890146885358,5702.1222674417,78.412076,0.223694,2.12077106524,12500,2018-04-14 13:18:27,15,0,16.266,5702.1222674417,78.412076,0.3131716,2.12077106524,-0.223694,0,-11.632088,286.2, 1.1, 4.9,0,1,1024,1024,1684,1024,286.7,-12.6,99,4.079,4.109,4.105,4.099,0,0,18.822,82.31,6,P-GPS,
0.289287401672599,36.8890147376768,5704.0907714417,80.38058,0,2.20899613368,12600,2018-04-14 13:18:27,15,0,16.266,5704.0907714417,80.38058,0.3131716,2.20899613368,0,0,-11.632088,286.2, 0.9, 4.9,0,1,1024,1024,1684,1024,286.7,-12.6,99,4.079,4.109,4.105,4.099,0,0,18.822,82.31,6,P-GPS,
0.289287209838639,36.8890147576563,5705.7311914417,82.021,0,2.27536424604,12700,2018-04-14 13:18:27,15,0,16.266,5705.7311914417,82.021,0.3131716,2.27536424604,0,0,-11.408394,286.2, 1.2, 5,0,1,1024,1024,1684,1024,286.7,-12.6,99,4.079,4.109,4.105,4.099,0,0,18.822,82.31,6,P-GPS,
0.289286981763048,36.8890147882159,5707.6996954417,83.989504,0,2.35559718824,12800,2018-04-14 13:18:27,15,0,16.266,5707.6996954417,83.989504,0.3131716,2.35559718824,0,0,-11.408394,286.2, 1.2, 4.9,0,1,1024,1024,1684,1024,286.7,-12.6,99,4.079,4.109,4.105,4.099,0,0,18.822,82.31,6,P-GPS,
0.289286795727367,36.8890148018998,5709.3401154417,85.629924,0,2.41956700656,12900,2018-04-14 13:18:27,15,0,16.266,5709.3401154417,85.629924,0.3131716,2.41956700656,0,0,-11.632088,286.2, 1.4, 5.1,0,1,1024,1024,1684,1024,286.7,-12.6,99,4.079,4.109,4.105,4.099,0,0,18.822,82.31,6,P-GPS,
0.289286567305883,36.8890148419053,5711.3086194417,87.598428,0,2.50175861024,13000,2018-04-14 13:18:27,15,0,16.266,5711.3086194417,87.598428,0.3131716,2.50175861024,0,0,-11.408394,286.2, 1.1, 5.5,0,1,1024,1024,1684,1024,286.7,-12.6,99,4.079,4.109,4.105,4.099,0,0,18.822,82.31,6,P-GPS,
0.289286386926908,36.8890148556331,5712.9490394417,89.238848,0,2.56422580384,13100,2018-04-14 13:18:27,15,0,16.266,5712.9490394417,89.238848,0.3131716,2.56422580384,0,0,-11.408394,286.2, 1.1, 5.7,0,1,1024,1024,1684,1024,286.7,-12.6,99,4.079,4.109,4.105,4.099,0,0,18.822,82.31,6,P-GPS,
0.289286166758429,36.8890149090441,5714.9175434417,91.207352,0.223694,2.64583013716,13200,2018-04-14 13:18:27,15,0,16.266,5714.9175434417,91.207352,0.3131716,2.64583013716,-0.223694,0,-11.632088,286.2, 1.2, 6.2,0,1,1024,1024,1684,1024,286.7,-12.6,99,4.079,4.109,4.105,4.099,0,0,18.822,82.31,6,P-GPS,
0.289285975294941,36.8890149335239,5716.8860474417,93.175856,0.223694,2.71379929944,13300,2018-04-14 13:18:28,15,0,16.266,5716.8860474417,93.175856,0.3131716,2.71379929944,-0.223694,0,-11.632088,286.2, 1.2, 6.7,0,1,1024,1024,1684,1024,286.6,-12.6,99,4.079,4.109,4.105,4.099,0,0,18.822,82.31,6,P-GPS,
0.28928571528873,36.8890149502225,5718.5264674417,94.816276,0.223694,2.80406176952,13400,2018-04-14 13:18:28,15,0,16.293,5718.5264674417,94.816276,0.3131716,2.80406176952,-0.223694,0,-11.408394,286.3, 1.4, 7.4,0,1,1024,1024,1684,1024,286.6,-12.6,99,4.092,4.11,4.1,4.098,0,0,17.642,82.31,6,P-GPS,
0.289285500556443,36.8890149254227,5720.4949714417,96.78478,0.223694,2.87378946204,13500,2018-04-14 13:18:28,15,0,16.293,5720.4949714417,96.78478,0.3131716,2.87378946204,-0.223694,0,-11.408394,286.3, 1.5, 7.8,0,1,1024,1024,1684,1024,286.6,-12.6,99,4.092,4.11,4.1,4.098,0,0,17.642,82.31,6,P-GPS,
0.289285238103076,36.8890149449627,5722.4634754417,98.753284,0,2.96591544924,13600,2018-04-14 13:18:28,15,0,16.293,5722.4634754417,98.753284,0.3131716,2.96591544924,0,0,-11.632088,286.3, 1.6, 8.5,0,1,1024,1024,1684,1024,286.6,-12.6,99,4.092,4.11,4.1,4.098,0,0,17.642,82.31,6,P-GPS,
0.289285046200213,36.8890149453813,5724.1038954417,100.393704,0,3.03170285292,13700,2018-04-14 13:18:28,15,0,16.293,5724.1038954417,100.393704,0.3131716,3.03170285292,0,0,-11.1847,286.3, 1.7, 9,0,1,1024,1024,1684,1024,286.6,-12.6,99,4.092,4.11,4.1,4.098,0,0,17.642,82.31,6,P-GPS,
0.289284866627113,36.8890149833431,5726.0723994417,102.362208,0,3.09803487604,13800,2018-04-14 13:18:28,15,0,16.293,5726.0723994417,102.362208,0.3131716,3.09803487604,0,0,-11.1847,286.4, 2, 8.6,0,1,1024,1024,1684,1024,286.6,-12.6,99,4.092,4.11,4.1,4.098,0,0,17.642,82.31,6,P-GPS,
0.289284776601131,36.8890150165102,5727.7128194417,104.002628,0,3.133038158,13900,2018-04-14 13:18:28,15,0,16.293,5727.7128194417,104.002628,0.3131716,3.133038158,0,0,-11.1847,286.4, 1.9, 7.6,0,1,1024,1024,1684,1024,286.6,-12.6,99,4.092,4.11,4.1,4.098,0,0,17.642,82.31,6,P-GPS,
0.289284706262121,36.8890150958457,5729.3532394417,105.643048,0,3.16702437956,14000,2018-04-14 13:18:28,15,0,16.293,5729.3532394417,105.643048,0.3131716,3.16702437956,0,0,-11.1847,286.3, 0.9, 7,0,1,1024,1024,1684,1024,286.6,-12.6,99,4.092,4.11,4.1,4.098,0,0,17.642,82.31,6,P-GPS,
0.289284683313274,36.8890151490577,5731.3217434417,107.611552,0,3.18159130916,14100,2018-04-14 13:18:28,15,0,16.293,5731.3217434417,107.611552,0.3131716,3.18159130916,0,0,-11.408394,286.2, 0.3, 6.8,0,1,1024,1024,1684,1024,286.6,-12.6,99,4.092,4.11,4.1,4.098,0,0,17.642,82.31,6,P-GPS,
0.289284623847894,36.8890152052539,5732.9621634417,109.251972,0,3.20908474836,14200,2018-04-14 13:18:28,15,0,16.293,5732.9621634417,109.251972,0.3131716,3.20908474836,0,0,-11.1847,286.2, 0.7, 7.2,0,1,1024,1024,1684,1024,286.6,-12.6,99,4.092,4.11,4.1,4.098,0,0,17.642,82.31,6,P-GPS,
0.289284602666824,36.8890152113686,5734.9306674417,111.220476,0,3.21710312132,14300,2018-04-14 13:18:28,15,0,16.293,5734.9306674417,111.220476,0.3131716,3.21710312132,0,0,-10.961006,286.3, 1.3, 7.7,0,1,1024,1024,1684,1024,286.6,-12.6,99,4.092,4.11,4.1,4.098,0,0,17.642,82.31,6,P-GPS,
0.289284550987035,36.889015245374,5736.5710874417,112.860896,0,3.23911755772,14400,2018-04-14 13:18:29,15,0,16.372,5736.5710874417,112.860896,0.3131716,3.23911755772,0,0,-11.1847,286.3, 1.9, 6.7,0,1,1024,1024,1684,1024,286.6,-12.6,99,4.099,4.115,4.105,4.103,0,0,16.454,82.31,6,P-GPS,
0.289284538275502,36.8890152687692,5738.2115074417,114.501316,0,3.246473201,14500,2018-04-14 13:18:29,15,0,16.372,5738.2115074417,114.501316,0.3131716,3.246473201,0,0,-11.1847,286.3, 1.4, 6.3,0,1,1024,1024,1684,1024,286.6,-12.6,99,4.099,4.115,4.105,4.103,0,0,16.454,82.31,6,P-GPS,
0.289284458847129,36.8890153018469,5740.1800114417,116.46982,0,3.27785115476,14600,2018-04-14 13:18:29,15,0,16.372,5740.1800114417,116.46982,0.3131716,3.27785115476,0,0,-11.1847,286.3, 1.1, 7.2,0,1,1024,1024,1684,1023,286.6,-12.6,99,4.099,4.115,4.105,4.103,0,0,16.454,82.31,6,P-GPS,
0.289284409042594,36.8890152983707,5741.8204314417,118.11024,0,3.2943898692,14700,2018-04-14 13:18:29,15,0,16.372,5741.8204314417,118.11024,0.3131716,3.2943898692,0,0,-11.1847,286.4, 1.1, 7.7,0,1,1024,1024,1684,1023,286.6,-12.6,99,4.099,4.115,4.105,4.103,0,0,16.454,82.31,6,P-GPS,
0.289284319260675,36.8890153352737,5745.4293554417,121.719164,0,3.3297901328,14900,2018-04-14 13:18:29,15,0,16.372,5745.4293554417,121.719164,0.3131716,3.3297901328,0,0,-10.961006,286.4, 1.5, 8,0,1,1024,1024,1684,1024,286.6,-12.6,99,4.099,4.115,4.105,4.103,0,0,16.454,82.31,6,P-GPS,
0.289284268201526,36.8890153651947,5747.3978594417,123.687668,0,3.3510827844,15000,2018-04-14 13:18:29,15,0,16.372,5747.3978594417,123.687668,0.3131716,3.3510827844,0,0,-11.1847,286.3, 1, 8,0,1,1024,1024,1684,1024,286.6,-12.6,99,4.099,4.115,4.105,4.103,0,0,16.454,82.31,6,P-GPS,
0.289284252912574,36.8890153675945,5749.0382794417,125.328088,0,3.3565945956,15100,2018-04-14 13:18:29,15,0,16.372,5749.0382794417,125.328088,0.3131716,3.3565945956,0,0,-11.1847,286.3, 0.5, 8.2,0,1,1024,1024,1684,1024,286.6,-12.6,99,4.099,4.115,4.105,4.103,0,0,16.454,82.31,6,P-GPS,
0.289284218063873,36.8890153911642,5751.0067834417,127.296592,0,3.371555226,15200,2018-04-14 13:18:29,15,0,16.372,5751.0067834417,127.296592,0.3131716,3.371555226,0,0,-10.961006,286.3, 1.1, 8.1,0,1,1024,1024,1684,1024,286.6,-12.6,99,4.099,4.115,4.105,4.103,0,0,16.454,82.31,6,P-GPS,
0.289284232374842,36.8890153834281,5752.6472034417,128.937012,0.223694,3.365649714,15300,2018-04-14 13:18:30,15,0,16.372,5752.6472034417,128.937012,0.3131716,3.371555226,0.223694,0,-10.961006,286.4, 1.6, 8.3,0,1,1024,1024,1684,1023,286.6,-12.6,99,4.099,4.115,4.105,4.103,0,0,16.454,82.31,6,P-GPS,
0.28928425126296,36.8890154281437,5754.2876234417,130.577432,0.223694,3.3650591628,15400,2018-04-14 13:18:30,15,0,16.346,5754.2876234417,130.577432,0.3131716,3.371555226,0.223694,0,-10.961006,286.4, 1.8, 8.1,0,1,1024,1024,1684,1024,286.6,-12.6,99,4.099,4.115,4.105,4.103,0,0,16.454,82.31,6,P-GPS,
0.289284330900793,36.8890154546555,5755.9280434417,132.217852,0.223694,3.3414699232,15500,2018-04-14 13:18:30,15,0,16.346,5755.9280434417,132.217852,0.3131716,3.371555226,0.223694,0,-10.737312,286.4, 1.6, 7.4,0,1,1024,1024,1684,1024,286.6,-12.6,99,4.099,4.115,4.105,4.103,0,0,16.454,82.31,6,P-GPS,
0.289284460942529,36.8890155108308,5757.8965474417,134.186356,0.447388,3.304954174,15600,2018-04-14 13:18:30,15,0,16.346,5757.8965474417,134.186356,0.447388,3.371555226,0.447388,0,-10.737312,286.4, 1.8, 6.5,0,1,1024,1024,1684,1024,286.6,-12.6,99,4.099,4.115,4.105,4.103,0,0,16.454,82.31,6,P-GPS,
0.289284639071097,36.8890155293843,5759.5369674417,135.826776,0.447388,3.24738199368,15700,2018-04-14 13:18:30,15,0,16.346,5759.5369674417,135.826776,0.447388,3.371555226,0.447388,0,-10.737312,286.3, 2, 5.7,0,1,1024,1024,1684,1024,286.6,-12.6,99,4.099,4.115,4.105,4.103,0,0,16.454,82.31,6,P-GPS,
0.289284800313108,36.889015591951,5761.1773874417,137.467196,0.447388,3.20210312084,15800,2018-04-14 13:18:30,15,0,16.346,5761.1773874417,137.467196,0.447388,3.371555226,0.447388,0,-10.737312,286.4, 2.2, 5.5,0,1,1024,1024,1684,1024,286.6,-12.6,99,4.099,4.115,4.105,4.103,0,0,16.454,82.31,6,P-GPS,
0.289284960297553,36.8890156406932,5762.8178074417,139.107616,0.447388,3.15579734508,15900,2018-04-14 13:18:30,15,0,16.346,5762.8178074417,139.107616,0.447388,3.371555226,0.447388,0,-10.737312,286.4, 1.9, 5.6,0,1,1024,1024,1684,1024,286.6,-12.6,99,4.099,4.115,4.105,4.103,0,0,16.454,82.31,6,P-GPS,
0.289285099856883,36.8890157389537,5764.4582274417,140.748036,0.447388,3.12436689788,16000,2018-04-14 13:18:30,15,0,16.346,5764.4582274417,140.748036,0.447388,3.371555226,0.447388,0,-10.737312,286.3, 1.8, 5.3,0,1,1024,1024,1684,1024,286.6,-12.6,99,4.099,4.115,4.105,4.103,0,0,16.454,82.31,6,P-GPS,
0.289285251629034,36.8890158086807,5766.0986474417,142.388456,0.447388,3.08530849768,16100,2018-04-14 13:18:30,15,0,16.346,5766.0986474417,142.388456,0.447388,3.371555226,0.447388,0,-10.737312,286.3, 1.6, 5.2,0,1,1024,1024,1684,1024,286.6,-12.6,99,4.099,4.115,4.105,4.103,0,0,16.454,82.31,6,P-GPS,
0.289285378989944,36.8890159335263,5767.7390674417,144.028876,0.223694,3.06401256524,16200,2018-04-14 13:18:30,15,0,16.346,5767.7390674417,144.028876,0.447388,3.371555226,0.223694,0,-10.961006,286.3, 1.4, 5.2,0,1,1024,1024,1684,1024,286.5,-12.6,99,4.099,4.115,4.105,4.103,0,0,16.454,82.31,6,P-GPS,
0.289285511888912,36.8890160239115,5769.7075714417,145.99738,0.223694,3.036253378,16300,2018-04-14 13:18:30,15,0,16.346,5769.7075714417,145.99738,0.447388,3.371555226,0.223694,0,-10.737312,286.3, 1.4, 5.2,0,1,1024,1024,1684,1024,286.5,-12.6,99,4.099,4.115,4.105,4.103,0,0,16.454,82.31,6,P-GPS,
0.289285621212999,36.8890161284018,5771.3479914417,147.6378,0.223694,3.01939642208,16400,2018-04-14 13:18:31,15,0,16.346,5771.3479914417,147.6378,0.447388,3.371555226,0.223694,0,-10.961006,286.3, 1.4, 5.2,0,1,1024,1024,1684,1024,286.5,-12.6,99,4.088,4.103,4.093,4.092,0,0,16.892,82.31,6,P-GPS,
0.289285728935091,36.8890161951846,5772.9884114417,149.27822,0.223694,2.99710967596,16500,2018-04-14 13:18:31,15,0,16.346,5772.9884114417,149.27822,0.447388,3.371555226,0.223694,0,-10.961006,286.3, 1.4, 5.5,0,1,1024,1024,1684,1023,286.5,-12.6,99,4.088,4.103,4.093,4.092,0,0,16.892,82.31,6,P-GPS,
0.28928582529086,36.8890163148175,5774.6288314417,150.91864,0.223694,2.98878618488,16600,2018-04-14 13:18:31,15,0,16.346,5774.6288314417,150.91864,0.447388,3.371555226,0.223694,0,-11.1847,286.3, 1.1, 5.6,0,1,1024,1024,1684,1024,286.5,-12.6,99,4.088,4.103,4.093,4.092,0,0,16.892,82.31,6,P-GPS,
0.289285921960483,36.8890164130598,5776.5973354417,152.887144,0.223694,2.97727699816,16700,2018-04-14 13:18:31,15,0,16.346,5776.5973354417,152.887144,0.447388,3.371555226,0.223694,0,-10.961006,286.2, 0.5, 5.8,0,1,1024,1024,1684,1024,286.5,-12.6,99,4.088,4.103,4.093,4.092,0,0,16.892,82.31,6,P-GPS,
0.289286001450423,36.8890165430817,5778.2377554417,154.527564,0.223694,2.97812345488,16800,2018-04-14 13:18:31,15,0,16.346,5778.2377554417,154.527564,0.447388,3.371555226,0.223694,0,-11.1847,286.2, -0.1, 5.6,0,1,1024,1024,1684,1024,286.5,-12.6,99,4.088,4.103,4.093,4.092,0,0,16.892,82.31,6,P-GPS,
0.289286085371496,36.8890166132573,5779.8781754417,156.167984,0.223694,2.96653224716,16900,2018-04-14 13:18:31,15,0,16.346,5779.8781754417,156.167984,0.447388,3.371555226,0.223694,0,-11.1847,286.1, 0, 5.6,0,1,1024,1024,1684,1024,286.5,-12.6,99,4.088,4.103,4.093,4.092,0,0,16.892,82.31,6,P-GPS,
0.289286160440601,36.8890166800818,5781.8466794417,158.136488,0.223694,2.9574147928,17000,2018-04-14 13:18:31,15,0,16.346,5781.8466794417,158.136488,0.447388,3.371555226,0.223694,0,-11.1847,286.2, 0.6, 6.3,0,1,1024,1024,1684,1023,286.5,-12.6,99,4.088,4.103,4.093,4.092,0,0,16.892,82.31,6,P-GPS,
0.289286248426295,36.8890166926207,5783.4870994417,159.776908,0.223694,2.93354340096,17100,2018-04-14 13:18:31,15,0,16.346,5783.4870994417,159.776908,0.447388,3.371555226,0.223694,0,-11.1847,286.3, 1.3, 6.6,0,1,1024,1024,1684,1023,286.5,-12.6,99,4.088,4.103,4.093,4.092,0,0,16.892,82.31,6,P-GPS,
0.289286350330936,36.8890167547785,5785.1275194417,161.417328,0.223694,2.91615494896,17200,2018-04-14 13:18:31,15,0,16.346,5785.1275194417,161.417328,0.447388,3.371555226,0.223694,0,-10.961006,286.3, 1.9, 5.3,0,1,1023,1024,1684,1024,286.5,-12.6,99,4.088,4.103,4.093,4.092,0,0,16.892,82.31,6,P-GPS,
0.289286445187596,36.8890167938928,5786.7679394417,163.057748,0,2.89643053888,17300,2018-04-14 13:18:32,15,0,16.346,5786.7679394417,163.057748,0.447388,3.371555226,0,0,-11.1847,286.3, 1.4, 5.4,0,1,1023,1024,1684,1024,286.5,-12.6,99,4.088,4.103,4.093,4.092,0,0,16.892,82.31,6,P-GPS,
0.289286508935937,36.8890168727969,5788.7364434417,165.026252,0,2.89483933148,17400,2018-04-14 13:18:32,15,0,16.266,5788.7364434417,165.026252,0.447388,3.371555226,0,0,-10.961006,286.3, 1.1, 6,0,1,1023,1024,1684,1024,286.5,-12.6,99,4.078,4.097,4.086,4.081,0,0,17.238,82.31,6,P-GPS,
0.289286566302049,36.8890169067477,5790.3768634417,166.666672,0,2.88560376688,17500,2018-04-14 13:18:32,15,0,16.266,5790.3768634417,166.666672,0.447388,3.371555226,0,0,-10.961006,286.3, 0.8, 6.4,0,1,1024,1024,1684,1024,286.5,-12.6,99,4.078,4.097,4.086,4.081,0,0,17.238,82.31,6,P-GPS,
0.289286600691733,36.8890169646531,5792.0172834417,168.307092,0,2.88852371448,17600,2018-04-14 13:18:32,15,0,16.266,5792.0172834417,168.307092,0.447388,3.371555226,0,0,-11.1847,286.2, 0.8, 6.2,0,1,1023,1024,1684,1023,286.5,-12.6,99,4.078,4.097,4.086,4.081,0,0,17.238,82.31,6,P-GPS,
0.289286642232016,36.889016963575,5793.6577034417,169.947512,0.223694,2.87631570884,17700,2018-04-14 13:18:32,15,0,16.266,5793.6577034417,169.947512,0.447388,3.371555226,0,-0.223694,-11.1847,286.3, 1.2, 6.6,0,1,1022,1024,1684,1022,286.5,-12.6,99,4.078,4.097,4.086,4.081,0,0,17.238,82.31,6,P-GPS,
0.289286674445489,36.8890169869965,5795.6262074417,171.916016,0.223694,2.87233604992,17800,2018-04-14 13:18:32,15,0,16.266,5795.6262074417,171.916016,0.447388,3.371555226,0,-0.223694,-11.1847,286.4, 1.8, 7.2,0,1,1023,1024,1684,1023,286.5,-12.6,99,4.078,4.097,4.086,4.081,0,0,17.238,82.31,6,P-GPS,
0.289286731345459,36.889016977026,5797.2666274417,173.556436,0.223694,2.85379274224,17900,2018-04-14 13:18:32,15,0,16.266,5797.2666274417,173.556436,0.447388,3.371555226,0,-0.223694,-10.961006,286.4, 2.2, 7,0,1,1023,1024,1684,1024,286.5,-12.6,99,4.078,4.097,4.086,4.081,0,0,17.238,82.31,6,P-GPS,
0.289286795031919,36.8890170105261,5798.9070474417,175.196856,0,2.84328749256,18000,2018-04-14 13:18:32,15,0,16.266,5798.9070474417,175.196856,0.447388,3.371555226,0,0,-10.961006,286.4, 2.3, 6.5,0,1,1023,1024,1684,1023,286.5,-12.6,99,4.078,4.097,4.086,4.081,0,0,17.238,82.31,6,P-GPS,
0.289286870026447,36.8890170250102,5800.5474674417,176.837276,0,2.82539707204,18100,2018-04-14 13:18:32,15,0,16.266,5800.5474674417,176.837276,0.447388,3.371555226,0,0,-10.961006,286.4, 1.9, 6.2,0,1,1023,1024,1684,1024,286.5,-12.6,99,4.078,4.097,4.086,4.081,0,0,17.238,82.31,6,P-GPS,
0.289286927928318,36.8890171154146,5802.1878874417,178.477696,0,2.83023631104,18200,2018-04-14 13:18:32,15,0,16.266,5802.1878874417,178.477696,0.447388,3.371555226,0,0,-10.961006,286.3, 1.2, 6.1,0,1,1023,1024,1684,1024,286.5,-12.6,99,4.078,4.097,4.086,4.081,0,0,17.238,82.31,6,P-GPS,
0.289286990645192,36.8890171623133,5803.8283074417,180.118116,0,2.82390757068,18300,2018-04-14 13:18:32,15,0,16.266,5803.8283074417,180.118116,0.447388,3.371555226,0,0,-10.961006,286.4, 1.1, 6.4,0,1,1024,1024,1684,1024,286.5,-12.6,99,4.078,4.097,4.086,4.081,0,0,17.238,82.31,6,P-GPS,
0.289287011396149,36.8890172423319,5805.7968114417,182.08662,0,2.83733276796,18400,2018-04-14 13:18:33,15,0,16.293,5805.7968114417,182.08662,0.447388,3.371555226,0,0,-10.961006,286.4, 1.3, 6.4,0,1,1024,1024,1684,1024,286.5,-12.6,99,4.077,4.093,4.081,4.076,0,0,17.448,82.31,6,P-GPS,
0.289287052992817,36.8890172832148,5807.4372314417,183.72704,0.223694,2.83583342408,18500,2018-04-14 13:18:33,15,0,16.293,5807.4372314417,183.72704,0.447388,3.371555226,0.223694,0,-10.961006,286.4, 1.6, 6.1,0,1,1023,1024,1684,1022,286.5,-12.6,99,4.077,4.093,4.081,4.076,0,0,17.448,82.31,6,P-GPS,
0.289287087142102,36.8890173617056,5809.0776514417,185.36746,0,2.845718595,18600,2018-04-14 13:18:33,15,0,16.293,5809.0776514417,185.36746,0.447388,3.371555226,0,0,-10.961006,286.4, 1.7, 5.6,0,1,1024,1024,1684,1022,286.5,-12.6,99,4.077,4.093,4.081,4.076,0,0,17.448,82.31,6,P-GPS,
0.289287137639539,36.8890174012567,5810.7180714417,187.00788,0,2.84188657388,18700,2018-04-14 13:18:33,15,0,16.293,5810.7180714417,187.00788,0.447388,3.371555226,0,0,-10.961006,286.4, 1.4, 5.4,0,1,1023,1024,1684,1022,286.5,-12.6,99,4.077,4.093,4.081,4.076,0,0,17.448,82.31,6,P-GPS,
0.289287152242204,36.8890174731602,5812.3584914417,188.6483,0,2.85586623312,18800,2018-04-14 13:18:33,15,0,16.293,5812.3584914417,188.6483,0.447388,3.371555226,0,0,-10.961006,286.4, 1, 5.8,0,1,1023,1024,1684,1022,286.5,-12.6,99,4.077,4.093,4.081,4.076,0,0,17.448,82.31,6,P-GPS,
0.289287179628459,36.8890174941803,5813.9989114417,190.28872,0,2.85385835904,18900,2018-04-14 13:18:33,15,0,16.293,5813.9989114417,190.28872,0.447388,3.371555226,0,0,-11.1847,286.4, 1.5, 6.3,0,1,1023,1024,1684,1021,286.5,-12.6,99,4.077,4.093,4.081,4.076,0,0,17.448,82.31,6,P-GPS,
0.28928717385878,36.8890175465604,5815.9674154417,192.257224,0,2.8685532414,19000,2018-04-14 13:18:33,15,0,16.293,5815.9674154417,192.257224,0.447388,3.371555226,0,0,-11.1847,286.4, 2.3, 6.5,0,1,1024,1024,1684,1022,286.5,-12.6,99,4.077,4.093,4.081,4.076,0,0,17.448,82.31,6,P-GPS,
0.289287184676228,36.8890175839863,5817.6078354417,193.897644,0,2.87515757232,19100,2018-04-14 13:18:33,15,0,16.293,5817.6078354417,193.897644,0.447388,3.371555226,0,0,-11.1847,286.4, 1.7, 6.5,0,1,1023,1024,1684,1023,286.5,-12.9,99,4.077,4.093,4.081,4.076,0,0,17.448,82.31,6,P-GPS,
0.289287141445111,36.8890176833474,5819.2482554417,195.538064,0,2.9117126916,19200,2018-04-14 13:18:33,15,0,16.293,5819.2482554417,195.538064,0.447388,3.371555226,0,0,-10.961006,286.3, 0.9, 6.2,0,1,1024,1024,1681,1024,286.5,-13.6,99,4.077,4.093,4.081,4.076,0,0,17.448,82.31,6,P-GPS,
0.289287126933029,36.8890177426831,5820.8886754417,197.178484,0,2.93063001504,19300,2018-04-14 13:18:33,15,0,16.293,5820.8886754417,197.178484,0.447388,3.371555226,0,0,-10.961006,286.3, 0.5, 6.1,0,1,1024,1024,1679,1024,286.5,-14.5,99,4.077,4.093,4.081,4.076,0,0,17.448,82.31,6,P-GPS,
0.289287089190786,36.8890178455922,5822.5290954417,198.818904,0,2.96681111856,19400,2018-04-14 13:18:34,15,0,16.293,5822.5290954417,198.818904,0.447388,3.371555226,0,0,-10.961006,286.3, 0.5, 5.9,0,1,1024,1024,1673,1024,286.5,-15.5,99,4.077,4.093,4.081,4.076,0,0,17.448,82.31,6,P-GPS,
0.2892870872737,36.8890178946298,5824.1695154417,200.459324,0,2.9799377594,19500,2018-04-14 13:18:34,15,0,16.293,5824.1695154417,200.459324,0.447388,3.371555226,0,0,-10.961006,286.3, 0.8, 6.1,0,1,1024,1024,1667,1024,286.5,-16.4,99,4.077,4.093,4.081,4.076,0,0,17.448,82.31,6,P-GPS,
0.289287058076819,36.8890179606515,5825.8099354417,202.099744,0,3.00452437436,19600,2018-04-14 13:18:34,15,0,16.293,5825.8099354417,202.099744,0.447388,3.371555226,0,0,-11.1847,286.3, 1.1, 6.5,0,1,1024,1024,1665,1024,286.5,-17.5,99,4.077,4.093,4.081,4.076,0,0,17.448,82.31,6,P-GPS,
0.289287062265686,36.8890179771183,5827.4503554417,203.740164,0,3.00771663168,19700,2018-04-14 13:18:34,15,0,16.293,5827.4503554417,203.740164,0.447388,3.371555226,0,0,-10.737312,286.3, 0.9, 6.6,0,1,1024,1024,1666,1024,286.5,-18.6,99,4.077,4.093,4.081,4.076,0,0,17.448,82.31,6,P-GPS,
0.289287023048683,36.8890180261731,5829.0907754417,205.380584,0,3.03050534632,19800,2018-04-14 13:18:34,15,0,16.293,5829.0907754417,205.380584,0.447388,3.371555226,0,0,-10.737312,286.3, 1.1, 6.7,0,1,1024,1024,1657,1024,286.5,-19.7,99,4.077,4.093,4.081,4.076,0,0,17.448,82.31,6,P-GPS,
0.289287024583593,36.8890180344724,5830.7311954417,207.021004,0,3.0322671574,19900,2018-04-14 13:18:34,15,0,16.293,5830.7311954417,207.021004,0.447388,3.371555226,0,0,-10.513618,286.3, 1.5, 5.9,0,1,1023,1024,1656,1024,286.5,-20.4,99,4.077,4.093,4.081,4.076,0,0,17.448,82.31,6,P-GPS,
0.289287003456263,36.8890180924174,5832.3716154417,208.661424,0,3.05274944152,20000,2018-04-14 13:18:34,15,0,16.293,5832.3716154417,208.661424,0.447388,3.371555226,0,0,-10.513618,286.3, 1.3, 5.5,0,1,1024,1024,1650,1024,286.5,-20.4,99,4.077,4.093,4.081,4.076,0,0,17.448,82.31,6,P-GPS,
0.289286997234385,36.8890181041672,5834.0120354417,210.301844,0.223694,3.0573983918,20100,2018-04-14 13:18:34,15,0,16.293,5834.0120354417,210.301844,0.447388,3.371555226,0,-0.223694,-10.737312,286.3, 1.3, 5.8,0,1,1024,1024,1650,1024,286.5,-20.4,99,4.077,4.093,4.081,4.076,0,0,17.448,82.31,6,P-GPS,
0.289286939220457,36.8890181545699,5835.6524554417,211.942264,0.223694,3.08534786776,20200,2018-04-14 13:18:34,15,0,16.293,5835.6524554417,211.942264,0.447388,3.371555226,0,-0.223694,-10.513618,286.3, 1.4, 6.6,0,1,1024,1024,1650,1024,286.5,-20.4,99,4.077,4.093,4.081,4.076,0,0,17.448,82.31,6,P-GPS,
0.289286900245177,36.8890181586317,5837.2928754417,213.582684,0.223694,3.096374771,20300,2018-04-14 13:18:34,15,0,16.293,5837.2928754417,213.582684,0.447388,3.371555226,0,-0.223694,-10.513618,286.3, 1.5, 7.1,0,1,1024,1024,1649,1024,286.5,-20.4,99,4.077,4.093,4.081,4.076,0,0,17.448,82.31,6,P-GPS,
0.289286831400671,36.889018176363,5838.9332954417,215.223104,0.223694,3.11864511292,20400,2018-04-14 13:18:35,16,0,16.293,5838.9332954417,215.223104,0.447388,3.371555226,0,-0.223694,-10.513618,286.4, 1.5, 7.1,0,1,1024,1024,1644,1024,286.5,-20.4,98,4.077,4.093,4.081,4.076,0,0,17.448,82.31,6,P-GPS,
0.289286783475666,36.8890181638134,5840.5737154417,216.863524,0.223694,3.12776584812,20500,2018-04-14 13:18:35,16,0,16.293,5840.5737154417,216.863524,0.447388,3.371555226,0,-0.223694,-10.513618,286.4, 1.4, 7.1,0,1,1024,1024,1644,1024,286.5,-20.4,98,4.077,4.093,4.081,4.076,0,0,17.448,82.31,6,P-GPS,
0.28928667668979,36.8890181844513,5841.8860514417,218.17586,0.223694,3.16076781768,20600,2018-04-14 13:18:35,16,0,16.293,5841.8860514417,218.17586,0.447388,3.371555226,0,-0.223694,-10.289924,286.4, 1.5, 7.3,0,1,1024,1024,1643,1024,286.5,-20.4,98,4.077,4.093,4.081,4.076,0,0,17.448,82.31,6,P-GPS,
0.289286616195945,36.8890181515861,5843.5264714417,219.81628,0.223694,3.1682087628,20700,2018-04-14 13:18:35,16,0,16.293,5843.5264714417,219.81628,0.447388,3.371555226,0,-0.223694,-10.289924,286.4, 1.7, 7.4,0,1,1023,1024,1645,1024,286.5,-20.4,98,4.077,4.093,4.081,4.076,0,0,17.448,82.31,6,P-GPS,
0.289286528592935,36.8890181832394,5845.1668914417,221.4567,0.223694,3.1992455092,20800,2018-04-14 13:18:35,16,0,16.293,5845.1668914417,221.4567,0.447388,3.371555226,0,-0.223694,-10.289924,286.4, 1.8, 7.6,0,1,1023,1024,1646,1024,286.5,-20.4,98,4.077,4.093,4.081,4.076,0,0,17.448,82.31,6,P-GPS,
0.28928648545581,36.8890181915901,5846.4792274417,222.769036,0,3.21272648076,20900,2018-04-14 13:18:35,16,0,16.293,5846.4792274417,222.769036,0.447388,3.371555226,0,0,-10.06623,286.4, 1.7, 7.6,0,1,1024,1024,1643,1024,286.5,-20.4,98,4.077,4.093,4.081,4.076,0,0,17.448,82.31,6,P-GPS,
0.289286400138168,36.8890182461402,5848.1196474417,224.409456,0,3.2489994478,21000,2018-04-14 13:18:35,16,0,16.293,5848.1196474417,224.409456,0.447388,3.371555226,0,0,-10.06623,286.4, 1.3, 7.4,0,1,1023,1024,1648,1023,286.5,-20.4,98,4.077,4.093,4.081,4.076,0,0,17.448,82.31,6,P-GPS,
0.289286351051421,36.8890182610665,5849.7600674417,226.049876,0,3.265748136,21100,2018-04-14 13:18:35,16,0,16.293,5849.7600674417,226.049876,0.447388,3.371555226,0,0,-10.06623,286.4, 1, 7.7,0,1,1024,1024,1654,1023,286.5,-20.4,98,4.077,4.093,4.081,4.076,0,0,17.448,82.31,6,P-GPS,
0.28928629016301,36.8890183265421,5851.4004874417,227.690296,0,3.2982940688,21200,2018-04-14 13:18:35,16,0,16.293,5851.4004874417,227.690296,0.447388,3.371555226,0,0,-10.06623,286.4, 1.3, 7.3,0,1,1023,1024,1644,1024,286.5,-20.4,98,4.077,4.093,4.081,4.076,0,0,17.448,82.31,6,P-GPS,
0.289286293092555,36.8890183491735,5852.7128234417,229.002632,0,3.3032153288,21300,2018-04-14 13:18:35,16,0,16.293,5852.7128234417,229.002632,0.447388,3.371555226,0,0,-10.289924,286.4, 1.6, 6.8,0,1,1023,1024,1629,1024,286.5,-20.4,98,4.077,4.093,4.081,4.076,0,0,17.448,82.31,6,P-GPS,
0.289286260555659,36.889018422352,5854.3532434417,230.643052,0,3.330216642,21400,2018-04-14 13:18:36,16,0,16.213,5854.3532434417,230.643052,0.447388,3.371555226,0,0,-10.289924,286.4, 1.7, 6.8,0,1,1023,1024,1631,1024,286.5,-20.4,98,4.082,4.086,4.073,4.072,0,0,17.24,82.31,6,P-GPS,
0.289286259616021,36.8890184517742,5855.9936634417,232.283472,0,3.3378938076,21500,2018-04-14 13:18:36,16,0,16.213,5855.9936634417,232.283472,0.447388,3.371555226,0,0,-10.06623,286.4, 1.5, 6.8,0,1,1024,1024,1636,1024,286.5,-20.4,98,4.082,4.086,4.073,4.072,0,0,17.24,82.31,6,P-GPS,
0.289286199838437,36.8890185066402,5857.3059994417,233.595808,0.223694,3.3674869844,21600,2018-04-14 13:18:36,16,0,16.213,5857.3059994417,233.595808,0.447388,3.371555226,0,-0.223694,-9.842536,286.4, 1.2, 7,0,1,1024,1024,1632,1024,286.5,-20.4,98,4.082,4.086,4.073,4.072,0,0,17.24,82.31,6,P-GPS,
0.289286181070798,36.8890185065438,5858.9464194417,235.236228,0.223694,3.3724082444,21700,2018-04-14 13:18:36,16,0,16.213,5858.9464194417,235.236228,0.447388,3.3724082444,0,-0.223694,-9.842536,286.4, 1.5, 7,0,1,1023,1024,1631,1024,286.5,-20.4,98,4.082,4.086,4.073,4.072,0,0,17.24,82.31,6,P-GPS,
