latitude,longitude,altitude(feet),ascent(feet),speed(mph),distance(feet),time(millisecond),datetime(utc),satellites,voltage(v),max_altitude(feet),max_ascent(feet),max_speed(mph),max_distance(feet),compass_heading(degrees), pitch(degrees), roll(degrees),isPhoto,isVideo,rc_elevator,rc_aileron,rc_throttle,rc_rudder,gimbal_heading(degrees),gimbal_pitch(degrees),battery_percent,voltageCell1,voltageCell2,voltageCell3,voltageCell4,voltageCell5,voltageCell6,battery_temperature(f),flycStateRaw,flycState,message
0.356510615836732,36.919533111814,5502.7672633589,0,0,0,100,2017-11-15 07:33:29,13,0,5502.7672633589,0,0,0,201.8, 2.9, -1.7,0,0,1024,1024,1024,1024,206.4,0,99,4.279,4.283,4.28,4.28,0,0,84.11,41,Motors_Started,
0.356510602124012,36.9195330722762,5502.7672633589,0,0,0.015268045108,200,2017-11-15 07:33:29,13,0,5502.7672633589,0,0,0.015268045108,201.8, 2.9, -1.7,0,0,1024,1024,1024,1024,206.4,0,99,4.279,4.283,4.28,4.28,0,0,84.11,41,Motors_Started,
0.35651059517992,36.9195330550779,5502.7672633589,0,0,0.0220290689464,300,2017-11-15 07:33:29,13,0,5502.7672633589,0,0,0.0220290689464,201.8, 2.9, -1.7,0,0,1024,1024,1024,1024,206.4,0,99,4.279,4.283,4.28,4.28,0,0,84.11,41,Motors_Started,
0.35651059364959,36.9195330291637,5502.7672633589,0,0,0.0312219826264,400,2017-11-15 07:33:29,13,0,5502.7672633589,0,0,0.0312219826264,201.8, 2.9, -1.7,0,0,1024,1024,1024,1024,206.4,0,99,4.279,4.283,4.28,4.28,0,0,84.11,41,Motors_Started,
0.356510590485116,36.9195329929566,5502.7672633589,0,0,0.044339568348,500,2017-11-15 07:33:29,13,0,5502.7672633589,0,0,0.044339568348,201.8, 2.9, -1.7,0,0,1024,1024,1024,1024,206.4,0,99,4.279,4.283,4.28,4.28,0,0,84.11,41,Motors_Started,
0.356510573691787,36.9195329489694,5502.7672633589,0,0,0.061370080704,600,2017-11-15 07:33:29,13,17.096,5502.7672633589,0,0,0.061370080704,201.8, 2.9, -1.7,0,0,1024,1024,1024,1024,206.4,0,99,4.279,4.283,4.28,4.28,0,0,84.11,41,Motors_Started,Setting new Return-To-Home altitude to 30m (98 ft). Setting new Maximum Flight Altitude to 150m (492 ft)
0.356510544177461,36.9195329028142,5502.7672633589,0,0,0.080609582632,700,2017-11-15 07:33:29,13,17.096,5502.7672633589,0,0,0.080609582632,201.8, 2.9, -1.7,0,0,1024,1024,1024,1024,206.4,0,99,4.279,4.283,4.28,4.28,0,0,84.11,41,Motors_Started,
0.356510500817697,36.9195328691413,5502.7672633589,0,0,0.09797900576,800,2017-11-15 07:33:30,13,17.096,5502.7672633589,0,0,0.09797900576,201.8, 2.9, -1.7,0,0,1024,1024,1024,1024,206.4,0,99,4.279,4.283,4.28,4.28,0,0,84.11,41,Motors_Started,
0.356510453961257,36.9195328475395,5502.7672633589,0,0,0.11306922934,900,2017-11-15 07:33:30,13,17.096,5502.7672633589,0,0,0.11306922934,201.8, 2.9, -1.7,0,0,1004,879,669,1388,206.4,0,99,4.279,4.283,4.28,4.28,0,0,84.11,41,Motors_Started,
0.356510432491444,36.9195328216232,5502.7672633589,0,0,0.125235896396,1000,2017-11-15 07:33:30,13,17.096,5502.7672633589,0,0,0.125235896396,201.8, 3, -1.6,0,0,1024,1024,1024,1024,205.8,0,99,4.279,4.283,4.28,4.28,0,0,84.11,41,Motors_Started,
0.35651043653202,36.9195327859482,5502.7672633589,0,0,0.135699807492,1100,2017-11-15 07:33:30,13,17.096,5502.7672633589,0,0,0.135699807492,201.8, 2.9, -1.6,0,0,1024,1024,1024,1024,204.1,0,99,4.279,4.283,4.28,4.28,0,0,84.11,41,Motors_Started,
0.356510448807638,36.9195327646076,5502.7672633589,0,0,0.140571854892,1200,2017-11-15 07:33:30,13,17.096,5502.7672633589,0,0,0.140571854892,201.8, 2.9, -1.7,0,0,1024,1024,1024,1024,203.4,0,99,4.279,4.283,4.28,4.28,0,0,84.11,41,Motors_Started,
0.356510455677229,36.9195327491233,5502.7672633589,0,0,0.144652891768,1300,2017-11-15 07:33:30,13,17.096,5502.7672633589,0,0,0.144652891768,201.8, 3, -1.7,0,0,1024,1024,1024,1024,203.1,0,99,4.279,4.283,4.28,4.28,0,0,84.11,41,Motors_Started,
0.356510453335934,36.9195327296596,5502.7672633589,0,0,0.151508206948,1400,2017-11-15 07:33:30,13,17.096,5502.7672633589,0,0,0.151508206948,201.8, 3, -1.7,0,0,1024,1024,1024,1024,202.9,0,99,4.279,4.283,4.28,4.28,0,0,84.11,41,Motors_Started,
0.356510432387223,36.9195326975594,5502.7672633589,0,0,0.165294952796,1500,2017-11-15 07:33:30,13,17.096,5502.7672633589,0,0,0.165294952796,201.8, 3, -1.6,0,0,1024,1024,1024,1024,202.9,0,99,4.279,4.283,4.28,4.28,0,0,84.11,10,Assisted_Takeoff,
0.356510413303895,36.9195326952908,5502.7672633589,0,0,0.168978679948,1600,2017-11-15 07:33:30,13,17.096,5502.7672633589,0,0,0.168978679948,201.8, 2.9, -1.8,0,0,1024,1024,1024,1024,202.7,0,99,4.279,4.282,4.279,4.28,0,0,84.11,10,Assisted_Takeoff,
0.35651039805026,36.9195327130994,5502.7672633589,0,0,0.165754926564,1700,2017-11-15 07:33:30,13,17.096,5502.7672633589,0,0,0.168978679948,201.8, 2.9, -1.7,0,0,1024,1024,1024,1024,202.6,0,99,4.279,4.282,4.279,4.28,0,0,84.11,10,Assisted_Takeoff,
0.356510393668118,36.9195327237091,5502.7672633589,0,0,0.163156829368,1800,2017-11-15 07:33:31,14,17.096,5502.7672633589,0,0,0.168978679948,201.8, 2.9, -1.7,0,0,1024,1024,1024,1024,202.5,0,99,4.279,4.282,4.279,4.28,0,0,84.11,10,Assisted_Takeoff,
0.356510387999097,36.9195327119388,5502.7672633589,0,0,0.16791175078,1900,2017-11-15 07:33:31,14,17.096,5502.7672633589,0,0,0.168978679948,201.8, 2.8, -1.7,0,0,1024,1024,1024,1024,202.5,0,99,4.279,4.282,4.279,4.28,0,0,84.11,10,Assisted_Takeoff,
0.35651039182594,36.919532689033,5502.7672633589,0,0,0.174563325796,2000,2017-11-15 07:33:31,14,17.096,5502.7672633589,0,0,0.174563325796,201.8, 2.9, -1.7,0,0,1024,1024,1024,1024,202.4,0,99,4.279,4.282,4.279,4.28,0,0,84.11,10,Assisted_Takeoff,
0.356510392438642,36.9195326549479,5502.7672633589,0,0,0.185544953444,2100,2017-11-15 07:33:31,14,17.096,5502.7672633589,0,0,0.185544953444,201.8, 2.9, -1.7,0,0,1024,1024,1024,1024,202.4,0,99,4.279,4.282,4.279,4.28,0,0,84.11,10,Assisted_Takeoff,
0.356510382190844,36.9195326263668,5502.7672633589,0,0,0.196558733324,2200,2017-11-15 07:33:31,14,17.096,5502.7672633589,0,0,0.196558733324,201.8, 2.9, -1.7,0,0,1024,1024,1024,1024,202.3,0,99,4.279,4.282,4.279,4.28,0,0,84.11,10,Assisted_Takeoff,
0.356510331177801,36.9195326192033,5502.7672633589,0,0,0.20757546596,2400,2017-11-15 07:33:31,14,17.096,5502.7672633589,0,0,0.20757546596,201.8, 2.8, -1.8,0,0,1024,1024,1024,1024,202.3,0,99,4.279,4.282,4.279,4.28,0,0,84.11,10,Assisted_Takeoff,
0.356510315286223,36.9195326420438,5502.7672633589,0,0,0.203468838532,2500,2017-11-15 07:33:31,14,17.096,5502.7672633589,0,0,0.20757546596,201.8, 2.9, -1.8,0,0,1024,1024,1024,1024,202.3,0,99,4.279,4.282,4.279,4.28,0,0,84.11,10,Assisted_Takeoff,
0.356510303613943,36.9195326589402,5502.7672633589,0,0,0.200690295136,2600,2017-11-15 07:33:31,14,16.855,5502.7672633589,0,0,0.20757546596,201.8, 2.9, -1.8,0,0,1024,1024,1024,1024,202.3,0,99,4.263,4.263,4.25,4.248,0,0,84.11,10,Assisted_Takeoff,
0.356510296080761,36.9195326507297,5502.7672633589,0,0,0.204717526236,2700,2017-11-15 07:33:31,14,16.855,5502.7672633589,0,0,0.20757546596,201.8, 2.9, -1.8,0,0,1024,1024,1024,1024,202.3,0,99,4.263,4.263,4.25,4.248,0,0,84.11,10,Assisted_Takeoff,
0.356510276627776,36.9195326476442,5502.7672633589,0,0,0.209751319048,2800,2017-11-15 07:33:32,14,16.855,5502.7672633589,0,0,0.209751319048,201.8, 2.9, -1.8,0,0,1024,1024,1024,1024,202.3,0,99,4.263,4.263,4.25,4.248,0,0,84.11,10,Assisted_Takeoff,
0.356510244486363,36.9195326460747,5502.7672633589,0,0,0.217324810104,2900,2017-11-15 07:33:32,14,16.855,5502.7672633589,0,0,0.217324810104,201.8, 2.9, -1.7,0,0,1024,1024,1024,1024,202.3,0,99,4.263,4.263,4.25,4.248,0,0,84.11,10,Assisted_Takeoff,
0.356510217002707,36.9195326482084,5502.7672633589,0,0,0.223122710552,3000,2017-11-15 07:33:32,14,16.855,5502.7672633589,0,0,0.223122710552,201.8, 2.9, -1.7,0,0,1024,1024,1024,1024,202.2,0,99,4.263,4.263,4.25,4.248,0,0,84.11,10,Assisted_Takeoff,
0.35651019905074,36.9195326491355,5502.7672633589,0,0,0.227197185748,3100,2017-11-15 07:33:32,14,16.855,5502.7672633589,0,0,0.227197185748,201.8, 2.8, -1.7,0,0,1024,1024,1024,1024,202.2,0,99,4.263,4.263,4.25,4.248,0,0,84.11,10,Assisted_Takeoff,
0.356510170012734,36.9195326523185,5502.7672633589,0,0,0.233585309312,3200,2017-11-15 07:33:32,14,16.855,5502.7672633589,0,0,0.233585309312,201.8, 2.8, -1.6,0,0,1024,1024,1024,1024,202.2,0,99,4.263,4.263,4.25,4.248,0,0,84.11,10,Assisted_Takeoff,
0.356510132010957,36.9195326515669,5502.7672633589,0,0,0.243632553728,3300,2017-11-15 07:33:32,14,16.855,5502.7672633589,0,0,0.243632553728,201.8, 2.8, -1.7,0,0,1024,1024,1043,1024,202.2,0,99,4.263,4.263,4.25,4.248,0,0,84.11,10,Assisted_Takeoff,
0.356510101167821,36.919532652599,5502.7672633589,0,0,0.251654535612,3400,2017-11-15 07:33:32,14,16.855,5502.7672633589,0,0,0.251654535612,201.8, 2.8, -1.7,0,0,1024,1024,1043,1024,202.2,0,99,4.263,4.263,4.25,4.248,0,0,84.11,10,Assisted_Takeoff,
0.356510081267014,36.9195326504503,5502.7672633589,0,0,0.257629273336,3500,2017-11-15 07:33:32,14,17.069,5502.7672633589,0,0,0.257629273336,201.8, 2.8, -1.7,0,0,1024,1024,1135,1024,202.2,0,99,4.271,4.275,4.272,4.273,0,0,84.11,10,Assisted_Takeoff,
0.35651006432224,36.9195326477363,5502.7672633589,0,0,0.26297737062,3700,2017-11-15 07:33:32,14,17.069,5502.7672633589,0,0,0.26297737062,201.8, 2.8, -1.7,0,0,1024,1024,1244,1024,202.2,0,99,4.271,4.275,4.272,4.273,0,0,84.11,10,Assisted_Takeoff,
0.356510017979167,36.9195326944899,5502.7672633589,0,0,0.266011491452,3900,2017-11-15 07:33:33,14,17.069,5502.7672633589,0,0,0.266011491452,201.8, 2.8, -1.7,0,0,1024,1024,1253,1024,202.2,0,99,4.271,4.275,4.272,4.273,0,0,84.11,10,Assisted_Takeoff,
0.356509974448009,36.9195327295665,5502.7672633589,0,0,0.272415034964,4000,2017-11-15 07:33:33,14,17.069,5502.7672633589,0,0,0.272415034964,201.8, 2.8, -1.8,0,0,1024,1024,1253,1024,202.2,0,99,4.271,4.275,4.272,4.273,0,0,84.11,10,Assisted_Takeoff,
0.356509929222048,36.9195327475945,5502.7672633589,0,0,0.28357284372,4100,2017-11-15 07:33:33,14,17.069,5502.7672633589,0,0,0.28357284372,201.7, 2.8, -1.8,0,0,1024,1024,1275,1024,202.2,0,99,4.271,4.275,4.272,4.273,0,0,84.11,10,Assisted_Takeoff,
0.356509895187161,36.9195327709735,5502.7672633589,0,0,0.290852371512,4200,2017-11-15 07:33:33,14,17.069,5502.7672633589,0,0,0.290852371512,201.8, 2.4, -1.7,0,0,1024,1024,1300,1024,202.2,0,99,4.271,4.275,4.272,4.273,0,0,84.11,10,Assisted_Takeoff,
0.356509885063939,36.9195328187721,5502.7672633589,0,0,0.287259195544,4300,2017-11-15 07:33:33,14,17.069,5502.7672633589,0,0,0.290852371512,201.9, 2.5, -1.6,0,0,1024,1024,1317,1024,202.2,0,99,4.271,4.275,4.272,4.273,0,0,84.11,10,Assisted_Takeoff,
0.356509898033478,36.919532911742,5502.7672633589,0,0.223694,0.271872384028,4400,2017-11-15 07:33:33,14,17.069,5502.7672633589,0,0.223694,0.290852371512,202, 2.2, -1.2,0,0,1024,1024,1330,1024,202.2,0,99,4.271,4.275,4.272,4.273,0,0,84.11,6,GPS_Atti,Obstacle Avoided. Revise Flight Route
0.356509931641916,36.919533046195,5502.7672633589,0,0.223694,0.250773301988,4500,2017-11-15 07:33:33,14,17.069,5502.7672633589,0,0.223694,0.290852371512,202.1, 0.7, -0.1,0,0,1024,1024,1350,1024,202.2,0,99,4.271,4.275,4.272,4.273,0,0,84.11,6,GPS_Atti,
0.356509969620894,36.9195332122654,5502.7672633589,0,0.223694,0.238603026008,4600,2017-11-15 07:33:33,14,17.069,5502.7672633589,0,0.223694,0.290852371512,202.1, -0.5, 0.5,0,0,1024,1024,1351,1024,202.2,0,99,4.271,4.275,4.272,4.273,0,0,84.11,6,GPS_Atti,
0.356509966783737,36.919533378143,5503.0953473589,0.328084,0.223694,0.255966871708,4700,2017-11-15 07:33:33,14,17.069,5503.0953473589,0.328084,0.223694,0.290852371512,202, -0.8, 1.2,0,0,1024,1024,1359,1024,202.2,0,99,4.271,4.275,4.272,4.273,0,0,84.11,6,GPS_Atti,Home Point Recorded. RTH Altitude:  30m.
0.356509919328436,36.9195335496745,5503.4234313589,0.656168,0.223694,0.30016241118,4800,2017-11-15 07:33:34,14,17.069,5503.4234313589,0.656168,0.223694,0.30016241118,202, -0.8, 1.8,0,0,1024,1024,1375,1024,202.2,0,99,4.271,4.275,4.272,4.273,0,0,84.11,6,GPS_Atti,
0.356509826023277,36.9195336938701,5503.7515153589,0.984252,0,0.35795932904,4900,2017-11-15 07:33:34,14,17.069,5503.7515153589,0.984252,0.223694,0.35795932904,201.9, 0, 1.8,0,0,1024,1024,1406,1024,202.2,0,99,4.271,4.275,4.272,4.273,0,0,84.11,6,GPS_Atti,
0.356509718844793,36.9195337728021,5504.4076833589,1.64042,0.223694,0.40652232272,5000,2017-11-15 07:33:34,14,17.069,5504.4076833589,1.64042,0.223694,0.40652232272,202, 1.4, 1.6,0,0,1024,1024,1420,1024,202.2,0,99,4.271,4.275,4.272,4.273,0,0,84.11,6,GPS_Atti,
0.356509554282385,36.919533770768,5505.3919353589,2.624672,0,0.4558563138,5200,2017-11-15 07:33:34,14,17.069,5505.3919353589,2.624672,0.223694,0.4558563138,201.9, 1.4, 2,0,0,1024,1024,1420,1024,202.2,0,99,4.271,4.275,4.272,4.273,0,0,84.11,6,GPS_Atti,
0.356509487141232,36.9195335589107,5507.0323553589,4.265092,0,0.44293308504,5400,2017-11-15 07:33:34,14,17.069,5507.0323553589,4.265092,0.223694,0.4558563138,201.9, 1.6, 1.2,0,0,1024,1024,1421,1024,202.2,0,99,4.271,4.275,4.272,4.273,0,0,84.11,6,GPS_Atti,
0.356509470877147,36.9195334132966,5507.6885233589,4.92126,0,0.43197507944,5500,2017-11-15 07:33:34,14,17.069,5507.6885233589,4.92126,0.223694,0.4558563138,201.9, 1.6, 0.7,0,0,1024,1024,1422,1024,202.2,0,99,4.271,4.275,4.272,4.273,0,0,84.11,6,GPS_Atti,
0.356509436673717,36.9195332392834,5508.6727753589,5.905512,0,0.43272311096,5600,2017-11-15 07:33:34,14,16.588,5508.6727753589,5.905512,0.223694,0.4558563138,202.1, 1.4, 0.1,0,0,1024,1024,1424,1024,202.2,0,99,4.245,4.248,4.234,4.235,0,0,84.11,6,GPS_Atti,
0.356509363032222,36.9195330944936,5509.3289433589,6.56168,0,0.45712927972,5700,2017-11-15 07:33:34,14,16.588,5509.3289433589,6.56168,0.223694,0.45712927972,202.3, 1.3, 0.3,0,0,1024,1024,1424,1024,202.2,0,99,4.245,4.248,4.234,4.235,0,0,84.11,6,GPS_Atti,
0.35650929013798,36.9195329045347,5510.3131953589,7.545932,0,0.48955710228,5800,2017-11-15 07:33:35,14,16.588,5510.3131953589,7.545932,0.223694,0.48955710228,202.5, 1.7, -0.1,0,0,1024,1024,1424,1024,202.2,0,99,4.245,4.248,4.234,4.235,0,0,84.11,6,GPS_Atti,
0.356509222792457,36.9195327083009,5510.9693633589,8.2021,0,0.52914371772,5900,2017-11-15 07:33:35,14,16.588,5510.9693633589,8.2021,0.223694,0.52914371772,202.5, 2.1, -2.3,0,0,1024,1024,1424,1024,202.2,0,99,4.245,4.248,4.234,4.235,0,0,84.11,6,GPS_Atti,
0.356509120488109,36.9195325431063,5511.9536153589,9.186352,0.223694,0.58370080608,6000,2017-11-15 07:33:35,14,16.588,5511.9536153589,9.186352,0.223694,0.58370080608,202.4, 2.2, -1.8,0,0,1024,1024,1422,1024,202.2,0,99,4.245,4.248,4.234,4.235,0,0,84.11,6,GPS_Atti,
0.356508974639372,36.9195324504179,5512.6097833589,9.84252,0.223694,0.64558401016,6100,2017-11-15 07:33:35,14,16.588,5512.6097833589,9.84252,0.223694,0.64558401016,202.2, 2.9, 0.8,0,0,1024,1024,1421,1022,202.2,0,99,4.245,4.248,4.234,4.235,0,0,84.11,6,GPS_Atti,
0.356508824421724,36.9195323692804,5513.5940353589,10.826772,0.223694,0.70751642684,6200,2017-11-15 07:33:35,14,16.588,5513.5940353589,10.826772,0.223694,0.70751642684,202.2, 3.7, 2,0,0,1024,1024,1436,933,202.2,0,99,4.245,4.248,4.234,4.235,0,0,84.11,6,GPS_Atti,
0.356508697336326,36.9195322785909,5514.2502033589,11.48294,0.223694,0.76312666484,6300,2017-11-15 07:33:35,14,16.588,5514.2502033589,11.48294,0.223694,0.76312666484,202.1, 3.6, 1.1,0,0,1024,1024,1452,891,202.1,0,99,4.245,4.248,4.234,4.235,0,0,84.11,6,GPS_Atti,
0.35650855813103,36.9195321672599,5515.2344553589,12.467192,0,0.8260662994,6400,2017-11-15 07:33:35,14,16.588,5515.2344553589,12.467192,0.223694,0.8260662994,201.7, 3.1, 0,0,0,1024,1024,1455,868,201.6,0,99,4.245,4.248,4.234,4.235,0,0,84.11,6,GPS_Atti,
0.356508395768446,36.9195320681543,5515.8906233589,13.12336,0.223694,0.89502627536,6500,2017-11-15 07:33:35,14,16.588,5515.8906233589,13.12336,0.223694,0.89502627536,200.4, 3.1, 0.8,0,0,1024,1024,1455,868,201.6,0,99,4.245,4.248,4.234,4.235,0,0,84.11,6,GPS_Atti,
0.356508205852793,36.9195319763728,5516.8748753589,14.107612,0.223694,0.97197837756,6600,2017-11-15 07:33:35,14,16.507,5516.8748753589,14.107612,0.223694,0.97197837756,198.7, 3.3, 1.3,0,0,1024,1024,1427,795,199.5,0,99,4.156,4.166,4.138,4.152,0,0,84.11,6,GPS_Atti,
0.356508017944402,36.9195318635098,5517.5310433589,14.76378,0.31540854,1.05158139848,6700,2017-11-15 07:33:35,14,16.507,5517.5310433589,14.76378,0.31540854,1.05158139848,196.1, 4.1, 1,0,0,1024,1024,1425,818,197.9,0,99,4.156,4.166,4.138,4.152,0,0,84.11,6,GPS_Atti,
0.356507802667566,36.9195317272143,5518.5152953589,15.748032,0.31540854,1.1439632912,6800,2017-11-15 07:33:36,14,16.507,5518.5152953589,15.748032,0.31540854,1.1439632912,192.9, 5.3, 0.6,0,0,1024,1024,1419,917,195.9,0,99,4.156,4.166,4.138,4.152,0,0,84.11,6,GPS_Atti,
0.356507614412315,36.9195315419971,5519.4995473589,16.732284,0.31540854,1.23580056448,6900,2017-11-15 07:33:36,14,16.507,5519.4995473589,16.732284,0.31540854,1.23580056448,189.6, 4.8, -1.1,0,0,1024,1024,1419,917,195.9,0,99,4.156,4.166,4.138,4.152,0,0,84.11,6,GPS_Atti,
0.356507420550536,36.9195313397625,5520.1557153589,17.388452,0.31540854,1.33306762796,7000,2017-11-15 07:33:36,14,16.507,5520.1557153589,17.388452,0.31540854,1.33306762796,187.8, 5, -1.9,0,0,1024,1024,1430,948,192.4,-0.4,99,4.156,4.166,4.138,4.152,0,0,84.11,6,GPS_Atti,
0.356507238630797,36.9195311269824,5520.8118833589,18.04462,0.31540854,1.42920936332,7100,2017-11-15 07:33:36,14,16.507,5520.8118833589,18.04462,0.31540854,1.42920936332,186.6, 5.3, -2,0,0,1024,1024,1425,1021,191,-1.8,99,4.156,4.166,4.138,4.152,0,0,84.11,6,GPS_Atti,
0.356507079734357,36.9195309335836,5521.7961353589,19.028872,0.31540854,1.51526907736,7200,2017-11-15 07:33:36,14,16.507,5521.7961353589,19.028872,0.31540854,1.51526907736,185.7, 5.7, -2.9,0,0,1024,1024,1447,1024,191,-1.8,99,4.156,4.166,4.138,4.152,0,0,84.11,6,GPS_Atti,
0.35650695884015,36.9195307561112,5522.4523033589,19.68504,0.223694,1.58710635,7300,2017-11-15 07:33:36,14,16.507,5522.4523033589,19.68504,0.31540854,1.58710635,185.4, 5.3, -3.4,0,0,1024,1024,1445,1024,190.2,-2.5,99,4.156,4.166,4.138,4.152,0,0,84.11,6,GPS_Atti,
0.356506850543917,36.9195305820348,5523.4365553589,20.669292,0.223694,1.65502301884,7400,2017-11-15 07:33:36,14,16.507,5523.4365553589,20.669292,0.31540854,1.65502301884,185.5, 5.1, -4,0,0,1024,1024,1447,1024,189.6,-2.6,99,4.156,4.166,4.138,4.152,0,0,84.11,6,GPS_Atti,
0.356506743319429,36.9195304125631,5524.0927233589,21.32546,0.223694,1.72223102624,7500,2017-11-15 07:33:36,14,16.507,5524.0927233589,21.32546,0.31540854,1.72223102624,185.5, 4.5, -4,0,0,1024,1024,1454,1024,189.2,-2.6,99,4.156,4.166,4.138,4.152,0,0,84.11,6,GPS_Atti,
0.356506608684501,36.9195302835606,5525.0769753589,22.309712,0.223694,1.78947184204,7600,2017-11-15 07:33:36,14,16.507,5525.0769753589,22.309712,0.31540854,1.78947184204,185.6, 4.6, -3.2,0,0,1024,1024,1470,1024,189.2,-2.6,99,4.156,4.166,4.138,4.152,0,0,84.11,6,GPS_Atti,
0.35650643398744,36.9195301757702,5525.7331433589,22.96588,0.31540854,1.86422906228,7700,2017-11-15 07:33:36,14,16.507,5525.7331433589,22.96588,0.31540854,1.86422906228,185.6, 5.6, -4.3,0,0,1024,1024,1476,1024,188.8,-3,99,4.156,4.166,4.138,4.152,0,0,84.11,6,GPS_Atti,
0.356506226969557,36.9195301316352,5526.7173953589,23.950132,0.223694,1.93553483884,7800,2017-11-15 07:33:37,14,16.507,5526.7173953589,23.950132,0.31540854,1.93553483884,185.5, 5.8, -4.2,0,0,1024,1024,1478,1024,188.6,-5.3,99,4.156,4.166,4.138,4.152,0,0,84.11,6,GPS_Atti,
0.356506000658003,36.9195301662728,5527.7016473589,24.934384,0.223694,1.9975558382,7900,2017-11-15 07:33:37,14,16.507,5527.7016473589,24.934384,0.31540854,1.9975558382,185.5, 6.5, -2.1,0,0,1024,1024,1482,1024,188.5,-7.7,99,4.156,4.166,4.138,4.152,0,0,84.11,6,GPS_Atti,
0.35650577333007,36.9195302320844,5528.6858993589,25.918636,0.223694,2.05557421276,8000,2017-11-15 07:33:37,14,16.507,5528.6858993589,25.918636,0.31540854,2.05557421276,185.5, 7.3, -1.9,0,0,1024,1024,1481,1024,188.4,-10.1,99,4.156,4.166,4.138,4.152,0,0,84.11,6,GPS_Atti,
0.356505581835234,36.9195302957795,5529.3420673589,26.574804,0,2.10448497548,8100,2017-11-15 07:33:37,14,16.507,5529.3420673589,26.574804,0.31540854,2.10448497548,185.5, 6.7, -2.5,0,0,1024,1024,1477,1024,188.2,-13.8,99,4.156,4.166,4.138,4.152,0,0,84.11,6,GPS_Atti,
0.356505162199465,36.9195304774487,5531.3105713589,28.543308,0.31540854,2.209727761,8300,2017-11-15 07:33:37,14,16.507,5531.3105713589,28.543308,0.31540854,2.209727761,185.5, 7.3, -1.4,0,0,1024,1024,1481,1024,188,-13.7,99,4.156,4.166,4.138,4.152,0,0,84.11,6,GPS_Atti,
0.356504755703305,36.9195306110366,5533.2790753589,30.511812,0,2.32460309276,8500,2017-11-15 07:33:37,14,16.507,5533.2790753589,30.511812,0.31540854,2.32460309276,185.6, 7.6, -0.6,0,0,1024,1024,1483,1024,188,-13.7,99,4.156,4.166,4.138,4.152,0,0,84.11,6,GPS_Atti,
0.356504582360124,36.9195306337765,5534.2633273589,31.496064,0,2.37973760896,8600,2017-11-15 07:33:37,14,16.427,5534.2633273589,31.496064,0.31540854,2.37973760896,185.5, 7.5, -1.2,0,0,1024,1024,1483,1024,187.9,-13.8,99,4.166,4.179,4.153,4.161,0,0,84.11,6,GPS_Atti,
0.356504430576115,36.9195306556619,5535.2475793589,32.480316,0,2.42809719056,8700,2017-11-15 07:33:37,14,16.427,5535.2475793589,32.480316,0.31540854,2.42809719056,185.6, 7.2, -1.4,0,0,1024,1024,1484,1024,187.8,-13.9,99,4.166,4.179,4.153,4.161,0,0,84.11,6,GPS_Atti,
0.356504293974091,36.9195306702127,5536.2318313589,33.464568,0,2.47256897676,8800,2017-11-15 07:33:38,14,16.427,5536.2318313589,33.464568,0.31540854,2.47256897676,185.5, 7, -1.4,0,0,1024,1024,1485,1024,187.7,-14.6,99,4.166,4.179,4.153,4.161,0,0,84.11,6,GPS_Atti,
0.356504167505466,36.919530698495,5537.2160833589,34.44882,0,2.51203092028,8900,2017-11-15 07:33:38,14,16.427,5537.2160833589,34.44882,0.31540854,2.51203092028,185.5, 7, -1.3,0,0,1024,1024,1484,1024,187.7,-16.2,99,4.166,4.179,4.153,4.161,0,0,84.11,6,GPS_Atti,
0.356504040206742,36.9195307202296,5538.2003353589,35.433072,0,2.55286097408,9000,2017-11-15 07:33:38,14,16.427,5538.2003353589,35.433072,0.31540854,2.55286097408,185.5, 7.3, -1.4,0,0,1024,1024,1470,1032,187.7,-16.2,99,4.166,4.179,4.153,4.161,0,0,84.11,6,GPS_Atti,
0.356503912874228,36.9195307528779,5539.1845873589,36.417324,0,2.59258866564,9100,2017-11-15 07:33:38,14,16.427,5539.1845873589,36.417324,0.31540854,2.59258866564,185.5, 7.6, -0.9,0,0,1024,1024,1475,1059,187.5,-17.2,99,4.166,4.179,4.153,4.161,0,0,84.11,6,GPS_Atti,
0.356503768379338,36.9195307768543,5540.1688393589,37.401576,0,2.63954076688,9200,2017-11-15 07:33:38,14,16.427,5540.1688393589,37.401576,0.31540854,2.63954076688,185.5, 7.2, -1.3,0,0,1024,1024,1475,1059,187.5,-17.2,99,4.166,4.179,4.153,4.161,0,0,84.11,6,GPS_Atti,
0.356503618470687,36.91953080267,5541.1530913589,38.385828,0,2.68839903616,9300,2017-11-15 07:33:38,14,16.427,5541.1530913589,38.385828,0.31540854,2.68839903616,185.5, 6.7, -1.6,0,0,1024,1024,1489,1055,187.4,-17.2,99,4.166,4.179,4.153,4.161,0,0,84.11,6,GPS_Atti,
0.356503469584699,36.9195308412196,5542.1373433589,39.37008,0,2.7357448382,9400,2017-11-15 07:33:38,14,16.427,5542.1373433589,39.37008,0.31540854,2.7357448382,185.7, 7, -1.3,0,0,1024,1024,1501,1050,187.4,-17.2,99,4.166,4.179,4.153,4.161,0,0,84.11,6,GPS_Atti,
0.356503337561655,36.919530891487,5543.1215953589,40.354332,0.223694,2.77628617808,9500,2017-11-15 07:33:38,14,16.427,5543.1215953589,40.354332,0.31540854,2.77628617808,185.9, 7.8, -1,0,0,1024,1024,1537,1024,187.4,-17.2,99,4.166,4.179,4.153,4.161,0,0,84.11,6,GPS_Atti,
0.356503209274058,36.9195309499671,5544.1058473589,41.338584,0,2.81503289848,9600,2017-11-15 07:33:38,14,16.561,5544.1058473589,41.338584,0.31540854,2.81503289848,186, 7.9, -0.5,0,0,1024,1024,1542,1024,187.3,-17.2,99,4.151,4.162,4.136,4.148,0,0,84.11,6,GPS_Atti,
0.356503100038238,36.9195309995922,5545.4181833589,42.65092,0,2.84836295204,9700,2017-11-15 07:33:38,14,16.561,5545.4181833589,42.65092,0.31540854,2.84836295204,186.1, 7.6, -0.6,0,0,1024,1024,1542,1024,187.3,-17.2,99,4.151,4.162,4.136,4.148,0,0,84.11,6,GPS_Atti,
0.356503006964725,36.9195310332598,5546.4024353589,43.635172,0,2.87780849104,9800,2017-11-15 07:33:39,14,16.561,5546.4024353589,43.635172,0.31540854,2.87780849104,186.1, 7.5, -0.7,0,0,1024,1024,1531,1038,187.3,-17.2,99,4.151,4.162,4.136,4.148,0,0,84.11,6,GPS_Atti,
0.356502879871592,36.9195310820808,5548.6990233589,45.93176,0,2.91799221936,10000,2017-11-15 07:33:39,16,16.561,5548.6990233589,45.93176,0.31540854,2.91799221936,186, 7.3, 0,0,0,1024,1024,1514,1075,187.3,-17.2,99,4.151,4.162,4.136,4.148,0,0,84.11,6,GPS_Atti,
0.356502807808467,36.9195310735962,5550.0113593589,47.244096,0,2.94421269264,10100,2017-11-15 07:33:39,16,16.561,5550.0113593589,47.244096,0.31540854,2.94421269264,185.9, 7.3, -0.9,0,0,1024,1024,1501,1100,187.3,-17.2,99,4.151,4.162,4.136,4.148,0,0,84.11,6,GPS_Atti,
0.356502721382873,36.9195310670708,5550.9956113589,48.228348,0,2.9753281792,10200,2017-11-15 07:33:39,16,16.561,5550.9956113589,48.228348,0.31540854,2.9753281792,186.3, 8.2, -1.3,0,0,1024,1024,1504,1099,187.5,-17.2,99,4.151,4.162,4.136,4.148,0,0,84.11,6,GPS_Atti,
0.356502637094612,36.9195310702484,5552.3079473589,49.540684,0,3.00481964996,10300,2017-11-15 07:33:39,16,16.561,5552.3079473589,49.540684,0.31540854,3.00481964996,186.9, 8.6, -1.2,0,0,1024,1024,1503,1100,187.8,-17.2,99,4.151,4.162,4.136,4.148,0,0,84.11,6,GPS_Atti,
0.356502562550552,36.9195310778755,5553.2921993589,50.524936,0,3.0304955038,10400,2017-11-15 07:33:39,16,16.561,5553.2921993589,50.524936,0.31540854,3.0304955038,187.7, 7.8, -0.8,0,0,1024,1024,1503,1094,188.1,-17.2,99,4.151,4.162,4.136,4.148,0,0,84.11,6,GPS_Atti,
0.356502502029431,36.9195310706927,5554.2764513589,51.509188,0,3.05254602944,10500,2017-11-15 07:33:39,16,16.561,5554.2764513589,51.509188,0.31540854,3.05254602944,188.4, 7.4, -0.5,0,0,1024,1024,1512,1073,188.4,-17.2,99,4.151,4.162,4.136,4.148,0,0,84.11,6,GPS_Atti,
0.356502442175565,36.9195310855229,5555.2607033589,52.49344,0,3.07242135816,10600,2017-11-15 07:33:39,16,16.481,5555.2607033589,52.49344,0.31540854,3.07242135816,189, 7.5, -0.1,0,0,1024,1024,1561,1017,188.6,-17.2,99,4.143,4.153,4.117,4.132,0,0,84.11,6,GPS_Atti,
0.356502404968877,36.9195311106384,5556.2449553589,53.477692,0,3.08341873384,10700,2017-11-15 07:33:39,16,16.481,5556.2449553589,53.477692,0.31540854,3.08341873384,189.5, 7.6, 0.1,0,0,1024,1024,1571,1009,188.6,-17.2,99,4.143,4.153,4.117,4.132,0,0,84.11,6,GPS_Atti,
0.356502386621198,36.9195311243422,5557.5572913589,54.790028,0,3.08874353716,10800,2017-11-15 07:33:40,16,16.481,5557.5572913589,54.790028,0.31540854,3.08874353716,189.6, 6.9, -0.2,0,0,1024,1024,1565,1023,188.6,-17.2,99,4.143,4.153,4.117,4.132,0,0,84.11,6,GPS_Atti,
0.356502387193189,36.9195311144155,5558.5415433589,55.77428,0,3.08939314348,10900,2017-11-15 07:33:40,16,16.481,5558.5415433589,55.77428,0.31540854,3.08939314348,189.6, 6.8, -0.3,0,0,1024,1024,1569,1023,188.7,-17.2,99,4.143,4.153,4.117,4.132,0,0,84.11,6,GPS_Atti,
0.356502392036181,36.9195311218777,5559.8538793589,57.086616,0,3.08703421952,11000,2017-11-15 07:33:40,16,16.481,5559.8538793589,57.086616,0.31540854,3.08939314348,189.5, 7.1, -0.3,0,0,1024,1024,1571,1024,188.7,-17.2,99,4.143,4.153,4.117,4.132,0,0,84.11,6,GPS_Atti,
0.356502409055457,36.9195311268389,5561.1662153589,58.398952,0,3.08057424556,11100,2017-11-15 07:33:40,16,16.481,5561.1662153589,58.398952,0.31540854,3.08939314348,189.5, 7.4, -0.3,0,0,1024,1024,1574,1023,188.7,-17.2,99,4.143,4.153,4.117,4.132,0,0,84.11,6,GPS_Atti,
0.356502452843909,36.9195311209495,5562.4785513589,59.711288,0,3.06555784088,11200,2017-11-15 07:33:40,16,16.481,5562.4785513589,59.711288,0.31540854,3.08939314348,189.5, 7.3, -0.8,0,0,1024,1024,1574,1024,188.7,-17.2,99,4.143,4.153,4.117,4.132,0,0,84.11,6,GPS_Atti,
0.356502510526245,36.9195310997524,5563.4628033589,60.69554,0,3.04696860144,11300,2017-11-15 07:33:40,16,16.481,5563.4628033589,60.69554,0.31540854,3.08939314348,189.5, 6.6, -0.7,0,0,1024,1024,1573,1024,188.7,-17.2,99,4.143,4.153,4.117,4.132,0,0,84.11,6,GPS_Atti,
0.356502549490432,36.9195311034888,5564.7751393589,62.007876,0,3.03284458524,11400,2017-11-15 07:33:40,16,16.481,5564.7751393589,62.007876,0.31540854,3.08939314348,189.4, 6.9, 0,0,0,1024,1024,1573,1024,188.7,-17.2,99,4.143,4.153,4.117,4.132,0,0,84.11,6,GPS_Atti,
0.356502559095808,36.919531105917,5566.0874753589,63.320212,0,3.02922909956,11500,2017-11-15 07:33:40,16,16.481,5566.0874753589,63.320212,0.31540854,3.08939314348,189.4, 7.3, 0.8,0,0,1024,1024,1576,1024,188.8,-17.2,99,4.143,4.153,4.117,4.132,0,0,84.11,6,GPS_Atti,
0.35650257667649,36.9195310212668,5568.7121473589,65.944884,0,3.03063001824,11700,2017-11-15 07:33:40,16,16.481,5568.7121473589,65.944884,0.31540854,3.08939314348,189.5, 7, -0.4,0,0,1024,1024,1579,1024,188.8,-17.2,99,4.143,4.153,4.117,4.132,0,0,84.11,6,GPS_Atti,
0.356502583873805,36.9195309232018,5570.0244833589,67.25722,0,3.03729668512,11800,2017-11-15 07:33:41,16,16.481,5570.0244833589,67.25722,0.31540854,3.08939314348,189.6, 7.2, -1.7,0,0,1024,1024,1579,1024,188.8,-17.2,99,4.143,4.153,4.117,4.132,0,0,84.11,6,GPS_Atti,
0.356502593824819,36.9195308044901,5571.3368193589,68.569556,0,3.04548238092,11900,2017-11-15 07:33:41,16,16.481,5571.3368193589,68.569556,0.31540854,3.08939314348,189.5, 7.5, -2.6,0,0,1024,1024,1581,1024,188.8,-17.2,99,4.143,4.153,4.117,4.132,0,0,84.11,6,GPS_Atti,
0.356502576387034,36.9195307171473,5572.6491553589,69.881892,0,3.06054143652,12000,2017-11-15 07:33:41,16,16.481,5572.6491553589,69.881892,0.31540854,3.08939314348,189.5, 8.1, -1.5,0,0,1024,1024,1585,1024,188.8,-17.2,99,4.143,4.153,4.117,4.132,0,0,84.11,6,GPS_Atti,
0.356502543200159,36.9195306388715,5573.9614913589,71.194228,0,3.08039051852,12100,2017-11-15 07:33:41,16,16.481,5573.9614913589,71.194228,0.31540854,3.08939314348,189.5, 8.6, -0.8,0,0,1024,1024,1589,1024,188.9,-17.2,99,4.143,4.153,4.117,4.132,0,0,84.11,6,GPS_Atti,
0.356502526682445,36.9195305425184,5575.2738273589,72.506564,0,3.09661099148,12200,2017-11-15 07:33:41,16,16.481,5575.2738273589,72.506564,0.31540854,3.09661099148,189.5, 8.3, -1,0,0,1024,1024,1585,1024,188.9,-17.2,99,4.143,4.153,4.117,4.132,0,0,84.11,6,GPS_Atti,
0.35650252293336,36.9195304370009,5576.5861633589,73.8189,0,3.10978028324,12300,2017-11-15 07:33:41,16,16.481,5576.5861633589,73.8189,0.31540854,3.10978028324,189.4, 8.3, -1.3,0,0,1024,1024,1579,1024,188.9,-17.2,99,4.143,4.153,4.117,4.132,0,0,84.11,6,GPS_Atti,
0.35650255255842,36.9195303434197,5577.8984993589,75.131236,0,3.11043973208,12400,2017-11-15 07:33:41,16,16.481,5577.8984993589,75.131236,0.31540854,3.11043973208,189.4, 8.2, -1.5,0,0,1024,1024,1585,1024,188.9,-17.2,99,4.143,4.153,4.117,4.132,0,0,84.11,6,GPS_Atti,
0.356502604386093,36.9195302648613,5579.2108353589,76.443572,0,3.10203750084,12500,2017-11-15 07:33:41,16,16.481,5579.2108353589,76.443572,0.31540854,3.11043973208,189.4, 8, -1.7,0,0,1024,1024,1594,1024,188.9,-17.2,99,4.143,4.153,4.117,4.132,0,0,84.11,6,GPS_Atti,
0.356502663856461,36.9195301936419,5580.5231713589,77.755908,0,3.09045613564,12600,2017-11-15 07:33:41,16,16.481,5580.5231713589,77.755908,0.31540854,3.11043973208,189.4, 8, -1.9,0,0,1024,1024,1592,1024,188.9,-17.2,99,4.143,4.153,4.117,4.132,0,0,84.11,6,GPS_Atti,
0.356502704114853,36.9195301230575,5581.8355073589,79.068244,0,3.0856792326,12700,2017-11-15 07:33:41,16,16.481,5581.8355073589,79.068244,0.31540854,3.11043973208,189.5, 8, -1.6,0,0,1024,1024,1589,1024,188.9,-17.2,99,4.143,4.153,4.117,4.132,0,0,84.11,6,GPS_Atti,
0.356502765442868,36.9195300490181,5583.1478433589,80.38058,0,3.07447188316,12800,2017-11-15 07:33:42,16,16.481,5583.1478433589,80.38058,0.31540854,3.11043973208,189.4, 7.8, -1.6,0,0,1024,1024,1586,1024,188.9,-17.2,99,4.143,4.153,4.117,4.132,0,0,84.11,6,GPS_Atti,
0.356502829524582,36.9195299682907,5584.4601793589,81.692916,0,3.06360574108,12900,2017-11-15 07:33:42,16,16.481,5584.4601793589,81.692916,0.31540854,3.11043973208,189.4, 7.5, -2,0,0,1024,1024,1586,1024,188.9,-17.2,99,4.143,4.153,4.117,4.132,0,0,84.11,6,GPS_Atti,
0.356502902072984,36.9195298874197,5585.7725153589,83.005252,0,3.05033474328,13000,2017-11-15 07:33:42,16,16.481,5585.7725153589,83.005252,0.31540854,3.11043973208,189.4, 7.3, -2.1,0,0,1024,1024,1589,1024,189,-17.2,99,4.143,4.153,4.117,4.132,0,0,84.11,6,GPS_Atti,
0.356502958815707,36.9195298162978,5587.0848513589,84.317588,0,3.04140757764,13100,2017-11-15 07:33:42,16,16.481,5587.0848513589,84.317588,0.31540854,3.11043973208,189.4, 7.4, -1.9,0,0,1024,1024,1596,1024,189,-17.2,99,4.143,4.153,4.117,4.132,0,0,84.11,6,GPS_Atti,
0.356502997031624,36.9195297601431,5588.3971873589,85.629924,0,3.03679799744,13200,2017-11-15 07:33:42,16,16.481,5588.3971873589,85.629924,0.31540854,3.11043973208,189.4, 7.5, -1.6,0,0,1024,1024,1602,1024,189,-17.2,99,4.143,4.153,4.117,4.132,0,0,84.11,6,GPS_Atti,
0.356503010121057,36.9195297189063,5589.7095233589,86.94226,0,3.03852371928,13300,2017-11-15 07:33:42,16,16.481,5589.7095233589,86.94226,0.31540854,3.11043973208,189.4, 7.7, -1.5,0,0,1024,1024,1596,1024,189,-17.2,99,4.143,4.153,4.117,4.132,0,0,84.11,6,GPS_Atti,
0.356503029867162,36.9195296630363,5591.0218593589,88.254596,0,3.04032490044,13400,2017-11-15 07:33:42,16,16.481,5591.0218593589,88.254596,0.31540854,3.11043973208,189.4, 7.7, -1.8,0,0,1024,1024,1597,1024,189,-17.2,99,4.143,4.153,4.117,4.132,0,0,84.11,6,GPS_Atti,
0.356503062993784,36.9195295983552,5592.3341953589,89.566932,0,3.039206134,13500,2017-11-15 07:33:42,16,16.481,5592.3341953589,89.566932,0.31540854,3.11043973208,189.4, 7.4, -1.8,0,0,1024,1024,1599,1024,189,-17.2,99,4.143,4.153,4.117,4.132,0,0,84.11,6,GPS_Atti,
0.356503096471335,36.9195295386374,5593.9746153589,91.207352,0,3.03742135704,13600,2017-11-15 07:33:42,16,16.347,5593.9746153589,91.207352,0.31540854,3.11043973208,189.4, 7.4, -1.7,0,0,1024,1024,1602,1024,189,-17.2,99,4.131,4.141,4.107,4.124,0,0,84.11,6,GPS_Atti,
0.356503124783463,36.919529493161,5595.2869513589,92.519688,0,3.03527568768,13700,2017-11-15 07:33:42,16,16.347,5595.2869513589,92.519688,0.31540854,3.11043973208,189.4, 7.4, -1.8,0,0,1024,1024,1606,1024,189,-17.2,99,4.131,4.141,4.107,4.124,0,0,84.11,6,GPS_Atti,
0.356503152641051,36.9195294314819,5596.5992873589,93.832024,0,3.03601059584,13800,2017-11-15 07:33:43,16,16.347,5596.5992873589,93.832024,0.31540854,3.11043973208,189.4, 7.7, -1.7,0,0,1024,1024,1609,1024,189.1,-17.2,99,4.131,4.141,4.107,4.124,0,0,84.11,6,GPS_Atti,
0.356503175832943,36.9195293629819,5597.9116233589,95.14436,0,3.03958999228,13900,2017-11-15 07:33:43,16,16.347,5597.9116233589,95.14436,0.31540854,3.11043973208,189.4, 8.1, -1.7,0,0,1024,1024,1614,1024,189.1,-17.2,99,4.131,4.141,4.107,4.124,0,0,84.11,6,GPS_Atti,
0.356503217633879,36.9195292833454,5599.2239593589,96.456696,0,3.03921925736,14000,2017-11-15 07:33:43,16,16.347,5599.2239593589,96.456696,0.31540854,3.11043973208,189.4, 7.8, -1.7,0,0,1024,1024,1616,1024,189.1,-17.2,99,4.131,4.141,4.107,4.124,0,0,84.11,6,GPS_Atti,
0.356503256713074,36.9195292154974,5600.8643793589,98.097116,0,3.03806768252,14100,2017-11-15 07:33:43,16,16.347,5600.8643793589,98.097116,0.31540854,3.11043973208,189.4, 7.8, -1.7,0,0,1024,1024,1617,1024,189.1,-17.2,99,4.131,4.141,4.107,4.124,0,0,84.11,6,GPS_Atti,
0.356503291171764,36.9195291381028,5602.1767153589,99.409452,0,3.04032490044,14200,2017-11-15 07:33:43,16,16.347,5602.1767153589,99.409452,0.31540854,3.11043973208,189.4, 7.8, -1.7,0,0,1024,1024,1618,1024,189.1,-17.2,99,4.131,4.141,4.107,4.124,0,0,84.11,6,GPS_Atti,
0.356503305619115,36.9195290655548,5603.4890513589,100.721788,0,3.04842201356,14300,2017-11-15 07:33:43,16,16.347,5603.4890513589,100.721788,0.31540854,3.11043973208,189.4, 7.9, -2.1,0,0,1024,1024,1619,1024,189.1,-17.2,99,4.131,4.141,4.107,4.124,0,0,84.11,6,GPS_Atti,
0.356503327895211,36.9195289931203,5605.1294713589,102.362208,0,3.05422910036,14400,2017-11-15 07:33:43,16,16.347,5605.1294713589,102.362208,0.31540854,3.11043973208,189.4, 8, -2.3,0,0,1024,1024,1625,1024,189.1,-17.2,99,4.131,4.141,4.107,4.124,0,0,84.11,6,GPS_Atti,
0.356503353110038,36.9195289356519,5606.4418073589,103.674544,0,3.05662083272,14500,2017-11-15 07:33:43,16,16.347,5606.4418073589,103.674544,0.31540854,3.11043973208,189.4, 8, -2.5,0,0,1024,1024,1632,1024,189.1,-17.2,99,4.131,4.141,4.107,4.124,0,0,84.11,6,GPS_Atti,
0.356503374271872,36.9195288897354,5607.7541433589,104.98688,0,3.0583334312,14600,2017-11-15 07:33:43,16,16.374,5607.7541433589,104.98688,0.31540854,3.11043973208,189.4, 8.1, -2.4,0,0,1024,1024,1641,1024,189.1,-17.2,98,4.128,4.137,4.104,4.122,0,0,84.11,6,GPS_Atti,
0.356503404652937,36.9195288183951,5610.7068993589,107.939636,0,3.06199484864,14800,2017-11-15 07:33:44,16,16.374,5610.7068993589,107.939636,0.31540854,3.11043973208,189.4, 7.9, -2.1,0,0,1024,1024,1654,1024,189.1,-17.2,98,4.128,4.137,4.104,4.122,0,0,84.11,6,GPS_Atti,
0.356503443266194,36.9195287711168,5612.3473193589,109.580056,0,3.0587927488,14900,2017-11-15 07:33:44,16,16.374,5612.3473193589,109.580056,0.31540854,3.11043973208,189.5, 7.7, -2,0,0,1024,1024,1654,1024,189.1,-17.2,98,4.128,4.137,4.104,4.122,0,0,84.11,6,GPS_Atti,
0.35650347881533,36.9195287332653,5613.6596553589,110.892392,0,3.0549049534,15000,2017-11-15 07:33:44,16,16.374,5613.6596553589,110.892392,0.31540854,3.11043973208,189.4, 7.9, -2.2,0,0,1024,1024,1684,1024,189.1,-17.2,98,4.128,4.137,4.104,4.122,0,0,84.11,6,GPS_Atti,
0.356503524451455,36.9195287057537,5616.9404953589,114.173232,0,3.04600731532,15200,2017-11-15 07:33:44,16,16.374,5616.9404953589,114.173232,0.31540854,3.11043973208,189.4, 8, -1.8,0,0,1024,1024,1684,1024,189.2,-17.2,98,4.128,4.137,4.104,4.122,0,0,84.11,6,GPS_Atti,
0.356503560400985,36.9195286779981,5618.5809153589,115.813652,0,3.04025272196,15300,2017-11-15 07:33:44,16,16.374,5618.5809153589,115.813652,0.31540854,3.11043973208,189.5, 7.7, -1.9,0,0,1024,1024,1684,1024,189.2,-17.2,98,4.128,4.137,4.104,4.122,0,0,84.11,6,GPS_Atti,
0.356503588360554,36.9195286464632,5620.2213353589,117.454072,0,3.03777568776,15400,2017-11-15 07:33:44,16,16.374,5620.2213353589,117.454072,0.31540854,3.11043973208,189.4, 7.9, -2.1,0,0,1024,1024,1684,1024,189.2,-17.2,98,4.128,4.137,4.104,4.122,0,0,84.11,6,GPS_Atti,
0.356503595422098,36.9195286246976,5621.8617553589,119.094492,0,3.03986886368,15500,2017-11-15 07:33:44,16,16.374,5621.8617553589,119.094492,0.31540854,3.11043973208,189.4, 8.3, -2.2,0,0,1024,1024,1684,1024,189.2,-17.2,98,4.128,4.137,4.104,4.122,0,0,84.11,6,GPS_Atti,
0.356503603288297,36.9195285958349,5623.5021753589,120.734912,0,3.04313986116,15600,2017-11-15 07:33:44,16,16.347,5623.5021753589,120.734912,0.31540854,3.11043973208,189.4, 8.4, -2.1,0,0,1024,1024,1684,1024,189.2,-17.2,98,4.128,4.137,4.104,4.122,0,0,84.11,6,GPS_Atti,
0.356503611771879,36.9195285589812,5625.1425953589,122.375332,0,3.04784458572,15700,2017-11-15 07:33:44,16,16.347,5625.1425953589,122.375332,0.31540854,3.11043973208,189.3, 8.3, -1.8,0,0,1024,1024,1684,1024,189.2,-17.2,98,4.128,4.137,4.104,4.122,0,0,84.11,6,GPS_Atti,
0.356503645285257,36.9195284327152,5628.4234353589,125.656172,0,3.06303487492,15900,2017-11-15 07:33:45,16,16.347,5628.4234353589,125.656172,0.31540854,3.11043973208,189.2, 8, -2.5,0,0,1024,1024,1684,1024,189.2,-17.2,98,4.128,4.137,4.104,4.122,0,0,84.11,6,GPS_Atti,
0.356503684233769,36.9195283771418,5630.0638553589,127.296592,0,3.06263461244,16000,2017-11-15 07:33:45,16,16.347,5630.0638553589,127.296592,0.31540854,3.11043973208,189.3, 7.7, -2.3,0,0,1024,1024,1684,1024,189.2,-17.2,98,4.128,4.137,4.104,4.122,0,0,84.11,6,GPS_Atti,
0.356503735454643,36.9195283348858,5631.7042753589,128.937012,0,3.0559876306,16100,2017-11-15 07:33:45,16,16.347,5631.7042753589,128.937012,0.31540854,3.11043973208,189.3, 7.5, -2.2,0,0,1024,1024,1684,1024,189.2,-17.2,98,4.128,4.137,4.104,4.122,0,0,84.11,6,GPS_Atti,
0.356503773496724,36.9195282781486,5633.3446953589,130.577432,0,3.05649287996,16200,2017-11-15 07:33:45,16,16.347,5633.3446953589,130.577432,0.31540854,3.11043973208,189.3, 7.6, -2.5,0,0,1024,1024,1684,1024,189.2,-17.2,98,4.128,4.137,4.104,4.122,0,0,84.11,6,GPS_Atti,
0.356503794242082,36.9195282098253,5634.9851153589,132.217852,0,3.06479340516,16300,2017-11-15 07:33:45,16,16.347,5634.9851153589,132.217852,0.31540854,3.11043973208,189.2, 7.6, -2.9,0,0,1024,1024,1684,1024,189.2,-17.2,98,4.128,4.137,4.104,4.122,0,0,84.11,6,GPS_Atti,
0.356503819287347,36.9195281255948,5636.6255353589,133.858272,0,3.07545613516,16400,2017-11-15 07:33:45,16,16.347,5636.6255353589,133.858272,0.31540854,3.11043973208,189.2, 7.3, -3.5,0,0,1024,1024,1684,1024,189.2,-17.2,98,4.128,4.137,4.104,4.122,0,0,84.11,6,GPS_Atti,
0.356503845464992,36.9195280400731,5638.2659553589,135.498692,0,3.08636492816,16500,2017-11-15 07:33:45,16,16.347,5638.2659553589,135.498692,0.31540854,3.11043973208,189.2, 7.7, -3.4,0,0,1024,1024,1684,1024,189.2,-17.2,98,4.128,4.137,4.104,4.122,0,0,84.11,6,GPS_Atti,
0.356503882423953,36.9195279746843,5639.9063753589,137.139112,0,3.0899935372,16600,2017-11-15 07:33:45,16,16.24,5639.9063753589,137.139112,0.31540854,3.11043973208,189.2, 7.8, -3.2,0,0,1024,1024,1684,1024,189.2,-17.2,98,4.116,4.126,4.091,4.11,0,0,84.11,6,GPS_Atti,
0.356503933031311,36.9195279340106,5641.5467953589,138.779532,0,3.08440298584,16700,2017-11-15 07:33:45,16,16.24,5641.5467953589,138.779532,0.31540854,3.11043973208,189.3, 7.2, -3.2,0,0,1024,1024,1684,1024,189.2,-17.2,98,4.116,4.126,4.091,4.11,0,0,84.11,6,GPS_Atti,
0.356503973711063,36.9195278955756,5643.1872153589,140.419952,0,3.08132227708,16800,2017-11-15 07:33:46,16,16.24,5643.1872153589,140.419952,0.31540854,3.11043973208,189.3, 7.2, -3.4,0,0,1024,1024,1684,1024,189.2,-17.2,98,4.116,4.126,4.091,4.11,0,0,84.11,6,GPS_Atti,
0.356503992763451,36.9195278695062,5644.8276353589,142.060372,0,3.08175534796,16900,2017-11-15 07:33:46,16,16.24,5644.8276353589,142.060372,0.31540854,3.11043973208,189.3, 7, -2.9,0,0,1024,1024,1684,1024,189.2,-17.2,98,4.116,4.126,4.091,4.11,0,0,84.11,6,GPS_Atti,
0.356504002386334,36.91952784059,5646.7961393589,144.028876,0,3.08556768404,17000,2017-11-15 07:33:46,16,16.24,5646.7961393589,144.028876,0.31540854,3.11043973208,189.3, 7.2, -2.9,0,0,1024,1024,1684,1024,189.2,-17.2,98,4.116,4.126,4.091,4.11,0,0,84.11,6,GPS_Atti,
0.356504006169209,36.9195277984956,5648.4365593589,145.669296,0,3.09408474468,17100,2017-11-15 07:33:46,16,16.24,5648.4365593589,145.669296,0.31540854,3.11043973208,189.3, 7.5, -2.8,0,0,1024,1024,1684,1024,189.2,-17.2,98,4.116,4.126,4.091,4.11,0,0,84.11,6,GPS_Atti,
0.356503998646612,36.9195277403581,5650.0769793589,147.309716,0,3.10955062444,17200,2017-11-15 07:33:46,16,16.24,5650.0769793589,147.309716,0.31540854,3.11043973208,189.3, 7.9, -2.9,0,0,1024,1024,1684,1024,189.2,-17.2,98,4.116,4.126,4.091,4.11,0,0,84.11,6,GPS_Atti,
0.356503983944002,36.9195276731963,5651.7173993589,148.950136,0,3.12919629436,17300,2017-11-15 07:33:46,16,16.24,5651.7173993589,148.950136,0.31540854,3.12919629436,189.3, 7.8, -3.4,0,0,1024,1024,1684,1024,189.2,-17.2,98,4.116,4.126,4.091,4.11,0,0,84.11,6,GPS_Atti,
0.356503967803883,36.9195276039469,5653.3578193589,150.590556,0,3.14980981208,17400,2017-11-15 07:33:46,16,16.24,5653.3578193589,150.590556,0.31540854,3.14980981208,189.3, 7.8, -3.6,0,0,1024,1024,1684,1024,189.2,-17.2,98,4.116,4.126,4.091,4.11,0,0,84.11,6,GPS_Atti,
0.356503952467401,36.9195275469346,5654.9982393589,152.230976,0,3.16741479952,17500,2017-11-15 07:33:46,16,16.24,5654.9982393589,152.230976,0.31540854,3.16741479952,189.2, 7.9, -3.7,0,0,1024,1024,1684,1024,189.3,-17.2,98,4.116,4.126,4.091,4.11,0,0,84.11,6,GPS_Atti,
0.356503940832779,36.9195275009036,5656.6386593589,153.871396,0,3.18145351388,17600,2017-11-15 07:33:46,16,16.267,5656.6386593589,153.871396,0.31540854,3.18145351388,189.2, 7.8, -3.6,0,0,1024,1024,1684,1024,189.3,-17.2,98,4.112,4.121,4.082,4.103,0,0,84.11,6,GPS_Atti,
0.356503921458774,36.9195274215936,5661.8880033589,159.12074,0,3.20553159864,17900,2017-11-15 07:33:47,16,16.267,5661.8880033589,159.12074,0.31540854,3.20553159864,189.3, 8.1, -3,0,0,1024,1024,1684,1024,189.3,-17.2,98,4.112,4.121,4.082,4.103,0,0,84.11,6,GPS_Atti,
0.356503915614492,36.919527393929,5663.5284233589,160.76116,0,3.2136976094,18000,2017-11-15 07:33:47,16,16.267,5663.5284233589,160.76116,0.31540854,3.2136976094,189.3, 8.2, -3.6,0,0,1024,1024,1684,1024,189.3,-17.2,98,4.112,4.121,4.082,4.103,0,0,84.11,6,GPS_Atti,
0.356503905005383,36.9195273884228,5666.4811793589,163.713916,0,3.2179462972,18200,2017-11-15 07:33:47,16,16.267,5666.4811793589,163.713916,0.31540854,3.2179462972,189.3, 7.9, -3.5,0,0,1024,1024,1684,1024,189.3,-17.2,98,4.112,4.121,4.082,4.103,0,0,84.11,6,GPS_Atti,
0.356503891946279,36.9195273980401,5668.4496833589,165.68242,0,3.21930128412,18300,2017-11-15 07:33:47,16,16.267,5668.4496833589,165.68242,0.31540854,3.21930128412,189.3, 8.1, -2.8,0,0,1024,1024,1684,1022,189.3,-17.2,98,4.112,4.121,4.082,4.103,0,0,84.11,6,GPS_Atti,
0.356503867992072,36.9195274113661,5670.0901033589,167.32284,0,3.22282490628,18400,2017-11-15 07:33:47,16,16.267,5670.0901033589,167.32284,0.31540854,3.22282490628,189.3, 8.2, -2.7,0,0,1024,1024,1684,1012,189.3,-17.2,98,4.112,4.121,4.082,4.103,0,0,84.11,6,GPS_Atti,
0.356503830740805,36.9195274278963,5671.7305233589,168.96326,0,3.22934393536,18500,2017-11-15 07:33:47,16,16.267,5671.7305233589,168.96326,0.31540854,3.22934393536,189.3, 8.3, -2.8,0,0,1024,1024,1684,1021,189.3,-17.2,98,4.112,4.121,4.082,4.103,0,0,84.11,6,GPS_Atti,
0.356503802802405,36.9195274604708,5673.3709433589,170.60368,0,3.22956375164,18600,2017-11-15 07:33:47,16,16.427,5673.3709433589,170.60368,0.31540854,3.22956375164,189.3, 8.1, -2.9,0,0,1024,1024,1684,1022,189.3,-17.2,98,4.114,4.123,4.086,4.107,0,0,85.91,6,GPS_Atti,
0.356503786362653,36.9195275097522,5675.0113633589,172.2441,0,3.22274944696,18700,2017-11-15 07:33:47,16,16.427,5675.0113633589,172.2441,0.31540854,3.22956375164,189.3, 8.3, -2.6,0,0,1024,1024,1684,1022,189.3,-17.2,98,4.114,4.123,4.086,4.107,0,0,85.91,6,GPS_Atti,
0.356503764910956,36.9195275586932,5676.6517833589,173.88452,0,3.21753291136,18800,2017-11-15 07:33:48,16,16.427,5676.6517833589,173.88452,0.31540854,3.22956375164,189.3, 8.6, -2.4,0,0,1024,1024,1684,1023,189.3,-17.2,98,4.114,4.123,4.086,4.107,0,0,85.91,6,GPS_Atti,
0.356503746472085,36.9195275937461,5678.2922033589,175.52494,0,3.21473763568,18900,2017-11-15 07:33:48,16,16.427,5678.2922033589,175.52494,0.31540854,3.22956375164,189.3, 8.5, -2.5,0,0,1024,1024,1684,1023,189.3,-17.2,98,4.114,4.123,4.086,4.107,0,0,85.91,6,GPS_Atti,
0.356503724066934,36.9195276344712,5679.9326233589,177.16536,0,3.21184721564,19000,2017-11-15 07:33:48,16,16.427,5679.9326233589,177.16536,0.31540854,3.22956375164,189.4, 7.9, -2.8,0,0,1024,1024,1684,1023,189.3,-17.2,98,4.114,4.123,4.086,4.107,0,0,85.91,6,GPS_Atti,
0.356503690596507,36.9195276901645,5681.5730433589,178.80578,0,3.20885180872,19100,2017-11-15 07:33:48,16,16.427,5681.5730433589,178.80578,0.31540854,3.22956375164,189.4, 7.8, -2.4,0,0,1024,1024,1684,1024,189.3,-17.2,98,4.114,4.123,4.086,4.107,0,0,85.91,6,GPS_Atti,
0.356503639083124,36.9195277519892,5683.2134633589,180.4462,0,3.20988199248,19200,2017-11-15 07:33:48,16,16.427,5683.2134633589,180.4462,0.31540854,3.22956375164,189.4, 8.5, -2.3,0,0,1024,1024,1684,1024,189.3,-17.4,98,4.114,4.123,4.086,4.107,0,0,85.91,6,GPS_Atti,
0.356503531750752,36.9195278811619,5686.4943033589,183.72704,0,3.21280850176,19400,2017-11-15 07:33:48,16,16.427,5686.4943033589,183.72704,0.31540854,3.22956375164,189.3, 8.4, -1.8,0,0,1024,1024,1684,1024,189.3,-17.6,98,4.114,4.123,4.086,4.107,0,0,85.91,6,GPS_Atti,
0.356503456398781,36.9195279417993,5688.1347233589,185.36746,0,3.2219653262,19500,2017-11-15 07:33:48,16,16.427,5688.1347233589,185.36746,0.31540854,3.22956375164,189.4, 8.8, -1.1,0,0,1024,1024,1684,1024,189.3,-17.8,98,4.114,4.123,4.086,4.107,0,0,85.91,6,GPS_Atti,
0.356503376627619,36.9195280003961,5689.7751433589,187.00788,0,3.23322844992,19600,2017-11-15 07:33:48,16,16.347,5689.7751433589,187.00788,0.31540854,3.23322844992,189.3, 9.5, -1.4,0,0,1024,1024,1684,1024,189.3,-18,98,4.114,4.123,4.086,4.107,0,0,85.91,6,GPS_Atti,
0.356503317421874,36.9195280550713,5691.4155633589,188.6483,0,3.23949485432,19700,2017-11-15 07:33:48,16,16.347,5691.4155633589,188.6483,0.31540854,3.23949485432,189.3, 9.9, -2.1,0,0,1024,1024,1684,1024,189.3,-18.1,98,4.114,4.123,4.086,4.107,0,0,85.91,6,GPS_Atti,
0.356503283683975,36.9195281146638,5693.3840673589,190.616804,0,3.23732621908,19800,2017-11-15 07:33:49,16,16.347,5693.3840673589,190.616804,0.31540854,3.23949485432,189.3, 9.4, -2.2,0,0,1024,1024,1684,1024,189.3,-18.3,98,4.114,4.123,4.086,4.107,0,0,85.91,6,GPS_Atti,
0.356503273712605,36.9195281693989,5695.0244873589,192.257224,0,3.22914052328,19900,2017-11-15 07:33:49,16,16.347,5695.0244873589,192.257224,0.31540854,3.23949485432,189.4, 8.4, -2,0,0,1024,1024,1684,1024,189.3,-18.3,98,4.114,4.123,4.086,4.107,0,0,85.91,6,GPS_Atti,
0.356503257405774,36.9195282268887,5696.6649073589,193.897644,0,3.22243120548,20000,2017-11-15 07:33:49,16,16.347,5696.6649073589,193.897644,0.31540854,3.23949485432,189.5, 8.2, -2.1,0,0,1024,1024,1684,1024,189.3,-18.5,98,4.114,4.123,4.086,4.107,0,0,85.91,6,GPS_Atti,
0.356503217558767,36.919528274304,5698.3053273589,195.538064,0,3.22505259664,20100,2017-11-15 07:33:49,16,16.347,5698.3053273589,195.538064,0.31540854,3.23949485432,189.4, 8.8, -2.3,0,0,1024,1024,1684,1024,189.4,-18.6,98,4.114,4.123,4.086,4.107,0,0,85.91,6,GPS_Atti,
0.356503155554133,36.9195283328334,5699.9457473589,197.178484,0,3.23244104832,20200,2017-11-15 07:33:49,16,16.347,5699.9457473589,197.178484,0.31540854,3.23949485432,189.4, 9.6, -1.7,0,0,1024,1024,1684,1024,189.4,-18.8,98,4.114,4.123,4.086,4.107,0,0,85.91,6,GPS_Atti,
0.356503099861552,36.9195283902954,5701.5861673589,198.818904,0,3.2383695262,20300,2017-11-15 07:33:49,16,16.347,5701.5861673589,198.818904,0.31540854,3.23949485432,189.3, 10.1, -1.1,0,0,1024,1024,1684,1024,189.4,-18.8,98,4.114,4.123,4.086,4.107,0,0,85.91,6,GPS_Atti,
0.35650307747635,36.9195284381197,5703.2265873589,200.459324,0,3.23605981484,20400,2017-11-15 07:33:49,16,16.347,5703.2265873589,200.459324,0.31540854,3.23949485432,189.3, 9.6, -0.5,0,0,1024,1024,1684,1024,189.4,-19.2,98,4.114,4.123,4.086,4.107,0,0,85.91,6,GPS_Atti,
0.356503097719741,36.9195284539123,5704.8670073589,202.099744,0,3.22674879092,20500,2017-11-15 07:33:49,16,16.347,5704.8670073589,202.099744,0.31540854,3.23949485432,189.3, 8.6, -0.6,0,0,1024,1024,1684,1024,189.4,-19.4,98,4.114,4.123,4.086,4.107,0,0,85.91,6,GPS_Atti,
0.356503134938847,36.9195284222992,5706.5074273589,203.740164,0,3.22132228156,20600,2017-11-15 07:33:49,16,16.267,5706.5074273589,203.740164,0.31540854,3.23949485432,189.2, 8.3, -1.6,0,0,1024,1024,1684,1024,189.4,-19.4,98,4.109,4.115,4.079,4.101,0,0,85.91,6,GPS_Atti,
0.35650318971095,36.9195283460608,5708.1478473589,205.380584,0,3.21934721588,20700,2017-11-15 07:33:49,16,16.267,5708.1478473589,205.380584,0.31540854,3.23949485432,189.2, 8.5, -2.8,0,0,1024,1024,1684,1024,189.4,-19.9,98,4.109,4.115,4.079,4.101,0,0,85.91,6,GPS_Atti,
0.356503340584658,36.9195281546276,5711.4286873589,208.661424,0.31540854,3.21196204504,20900,2017-11-15 07:33:50,16,16.267,5711.4286873589,208.661424,0.31540854,3.23949485432,189.2, 8.3, -4.5,0,0,1024,1024,1684,1024,189.4,-20.1,98,4.109,4.115,4.079,4.101,0,0,85.91,6,GPS_Atti,
0.356503426370273,36.9195280683715,5713.0691073589,210.301844,0.223694,3.20411099492,21000,2017-11-15 07:33:50,16,16.267,5713.0691073589,210.301844,0.31540854,3.23949485432,189.1, 8.4, -5.5,0,0,1024,1024,1684,1024,189.4,-20.3,98,4.109,4.115,4.079,4.101,0,0,85.91,6,GPS_Atti,
0.356503514660028,36.9195280203267,5714.7095273589,211.942264,0.223694,3.1879758238,21100,2017-11-15 07:33:50,16,16.267,5714.7095273589,211.942264,0.31540854,3.23949485432,189.1, 8.1, -5,0,0,1024,1024,1684,1024,189.4,-20.5,98,4.109,4.115,4.079,4.101,0,0,85.91,6,GPS_Atti,
0.356503623388384,36.9195280123528,5716.3499473589,213.582684,0.223694,3.15753619028,21200,2017-11-15 07:33:50,16,16.267,5716.3499473589,213.582684,0.31540854,3.23949485432,189.2, 7.3, -4,0,0,1024,1024,1684,1024,189.4,-20.6,98,4.109,4.115,4.079,4.101,0,0,85.91,6,GPS_Atti,
0.356503743548621,36.9195279896397,5717.9903673589,215.223104,0.223694,3.1271654544,21300,2017-11-15 07:33:50,16,16.267,5717.9903673589,215.223104,0.31540854,3.23949485432,189.3, 6.3, -4.6,0,0,1024,1024,1684,1024,189.4,-20.6,98,4.109,4.115,4.079,4.101,0,0,85.91,6,GPS_Atti,
0.3565038395686,36.9195279769668,5719.6307873589,216.863524,0,3.10193907564,21400,2017-11-15 07:33:50,16,16.267,5719.6307873589,216.863524,0.31540854,3.23949485432,189.5, 4.9, -5.6,0,0,1024,1024,1684,1024,189.4,-20.8,98,4.109,4.115,4.079,4.101,0,0,85.91,6,GPS_Atti,
0.356503858261305,36.9195280058884,5721.5992913589,218.832028,0,3.09013133248,21500,2017-11-15 07:33:50,16,16.267,5721.5992913589,218.832028,0.31540854,3.23949485432,189.5, 6.1, -4.4,0,0,1024,1024,1684,1024,189.4,-21,98,4.109,4.115,4.079,4.101,0,0,85.91,6,GPS_Atti,
0.356503804081548,36.9195280871951,5723.2397113589,220.472448,0,3.08822516444,21600,2017-11-15 07:33:50,16,16.374,5723.2397113589,220.472448,0.31540854,3.23949485432,189.4, 8.1, -2.2,0,0,1024,1024,1684,1024,189.4,-21,98,4.109,4.12,4.086,4.102,0,0,85.91,6,GPS_Atti,
0.356503719370298,36.9195281603147,5724.8801313589,222.112868,0,3.09751978416,21700,2017-11-15 07:33:50,16,16.374,5724.8801313589,222.112868,0.31540854,3.23949485432,189.4, 9.1, -0.8,0,0,1024,1024,1684,1024,189.4,-21.4,98,4.109,4.12,4.086,4.102,0,0,85.91,6,GPS_Atti,
0.356503646544451,36.9195281749457,5726.5205513589,223.753288,0,3.11605324932,21800,2017-11-15 07:33:51,16,16.374,5726.5205513589,223.753288,0.31540854,3.23949485432,189.3, 9.7, -1.1,0,0,1024,1024,1684,1024,189.4,-21.4,98,4.109,4.12,4.086,4.102,0,0,85.91,6,GPS_Atti,
0.35650360691362,36.9195281133534,5728.1609713589,225.393708,0,3.14085639972,21900,2017-11-15 07:33:51,16,16.374,5728.1609713589,225.393708,0.31540854,3.23949485432,189.3, 10.1, -2.2,0,0,1024,1024,1684,1024,189.4,-21.7,98,4.109,4.12,4.086,4.102,0,0,85.91,6,GPS_Atti,
0.3565035911971,36.9195280132703,5729.8013913589,227.034128,0,3.16683737168,22000,2017-11-15 07:33:51,16,16.374,5729.8013913589,227.034128,0.31540854,3.23949485432,189.2, 10, -3.8,0,0,1024,1024,1684,1024,189.4,-22.1,98,4.109,4.12,4.086,4.102,0,0,85.91,6,GPS_Atti,
0.356503616209389,36.9195278726366,5733.0822313589,230.314968,0,3.18993448528,22200,2017-11-15 07:33:51,16,16.374,5733.0822313589,230.314968,0.31540854,3.23949485432,189.2, 8.7, -4.6,0,0,1024,1024,1684,1024,189.4,-22.3,98,4.109,4.12,4.086,4.102,0,0,85.91,6,GPS_Atti,
0.356503625578234,36.9195278621146,5734.7226513589,231.955388,0,3.1895014144,22300,2017-11-15 07:33:51,16,16.374,5734.7226513589,231.955388,0.31540854,3.23949485432,189.3, 8.9, -4,0,0,1024,1024,1684,1024,189.4,-22.4,98,4.109,4.12,4.086,4.102,0,0,85.91,6,GPS_Atti,
0.356503631084614,36.9195278802583,5736.3630713589,233.595808,0,3.1839239864,22400,2017-11-15 07:33:51,16,16.374,5736.3630713589,233.595808,0.31540854,3.23949485432,189.3, 9.1, -3.5,0,0,1024,1024,1684,1024,189.4,-22.4,98,4.109,4.12,4.086,4.102,0,0,85.91,6,GPS_Atti,
0.356503628195755,36.9195279174215,5738.0034913589,235.236228,0,3.17666020664,22500,2017-11-15 07:33:51,16,16.374,5738.0034913589,235.236228,0.31540854,3.23949485432,189.3, 9.1, -3,0,0,1024,1024,1684,1024,189.4,-22.4,98,4.109,4.12,4.086,4.102,0,0,85.91,6,GPS_Atti,
0.356503635174248,36.9195279421087,5739.6439113589,236.876648,0,3.16924878908,22600,2017-11-15 07:33:51,16,16.267,5739.6439113589,236.876648,0.31540854,3.23949485432,189.2, 9.2, -3,0,0,1024,1024,1684,1024,189.4,-22.4,98,4.109,4.12,4.086,4.102,0,0,85.91,6,GPS_Atti,
0.35650364348033,36.9195279374473,5741.2843313589,238.517068,0,3.16782490452,22700,2017-11-15 07:33:51,16,16.267,5741.2843313589,238.517068,0.31540854,3.23949485432,189.2, 9.5, -2.5,0,0,1024,1024,1684,1024,189.4,-22.4,98,4.109,4.12,4.086,4.102,0,0,85.91,6,GPS_Atti,
0.356503672443835,36.9195279229052,5742.9247513589,240.157488,0,3.16251978624,22800,2017-11-15 07:33:52,16,16.267,5742.9247513589,240.157488,0.31540854,3.23949485432,189.2, 9.6, -2.3,0,0,1024,1024,1684,1024,189.4,-22.4,98,4.109,4.12,4.086,4.102,0,0,85.91,6,GPS_Atti,
0.356503738954984,36.9195279000668,5744.5651713589,241.797908,0.223694,3.14813986452,22900,2017-11-15 07:33:52,16,16.267,5744.5651713589,241.797908,0.31540854,3.23949485432,189.2, 9, -2.8,0,0,1024,1024,1684,1024,189.4,-22.4,98,4.109,4.12,4.086,4.102,0,0,85.91,6,GPS_Atti,
0.356503845037729,36.9195278389155,5746.2055913589,243.438328,0.223694,3.13104012644,23000,2017-11-15 07:33:52,16,16.267,5746.2055913589,243.438328,0.31540854,3.23949485432,189.1, 8.2, -3.8,0,0,1024,1024,1684,1024,189.4,-22.4,98,4.109,4.12,4.086,4.102,0,0,85.91,6,GPS_Atti,
0.356503966498074,36.9195277344922,5747.8460113589,245.078748,0.223694,3.12000994236,23100,2017-11-15 07:33:52,16,16.267,5747.8460113589,245.078748,0.31540854,3.23949485432,189.2, 7.5, -4.9,0,0,1024,1024,1684,1024,189.4,-22.4,98,4.109,4.12,4.086,4.102,0,0,85.91,6,GPS_Atti,
0.356504087330858,36.919527626993,5749.8145153589,247.047252,0.223694,3.11093841976,23200,2017-11-15 07:33:52,16,16.267,5749.8145153589,247.047252,0.31540854,3.23949485432,189.1, 7.4, -5.3,0,0,1024,1024,1684,1024,189.4,-22.4,98,4.109,4.12,4.086,4.102,0,0,85.91,6,GPS_Atti,
0.356504189691998,36.9195275256069,5751.4549353589,248.687672,0,3.1065781834,23300,2017-11-15 07:33:52,16,16.267,5751.4549353589,248.687672,0.31540854,3.23949485432,189.1, 7.5, -5.8,0,0,1024,1024,1684,1024,189.4,-22.4,98,4.109,4.12,4.086,4.102,0,0,85.91,6,GPS_Atti,
0.356504279412341,36.9195274350427,5753.0953553589,250.328092,0,3.10389773712,23400,2017-11-15 07:33:52,16,16.267,5753.0953553589,250.328092,0.31540854,3.23949485432,189.2, 7.2, -6.1,0,0,1024,1024,1684,1024,189.4,-22.4,98,4.109,4.12,4.086,4.102,0,0,85.91,6,GPS_Atti,
0.35650432991385,36.9195273740348,5754.7357753589,251.968512,0,3.10515757968,23500,2017-11-15 07:33:52,16,16.267,5754.7357753589,251.968512,0.31540854,3.23949485432,189.2, 7.5, -5.9,0,0,1024,1024,1684,1024,189.5,-22.4,98,4.109,4.12,4.086,4.102,0,0,85.91,6,GPS_Atti,
0.356504330985773,36.9195273261174,5756.3761953589,253.608932,0,3.1166831706,23600,2017-11-15 07:33:52,16,16.267,5756.3761953589,253.608932,0.31540854,3.23949485432,189.1, 8.1, -5.5,0,0,1024,1024,1684,1024,189.5,-22.4,98,4.103,4.114,4.077,4.097,0,0,85.91,6,GPS_Atti,
0.356504291969476,36.9195272675987,5758.0166153589,255.249352,0,3.14162411628,23700,2017-11-15 07:33:52,16,16.267,5758.0166153589,255.249352,0.31540854,3.23949485432,189.1, 8.3, -5.5,0,0,1024,1024,1684,1024,189.5,-22.4,98,4.103,4.114,4.077,4.097,0,0,85.91,6,GPS_Atti,
0.356504248414299,36.9195271975324,5759.6570353589,256.889772,0,3.1706529886,23800,2017-11-15 07:33:53,16,16.267,5759.6570353589,256.889772,0.31540854,3.23949485432,189.1, 9, -5.7,0,0,1024,1024,1684,1024,189.5,-22.4,98,4.103,4.114,4.077,4.097,0,0,85.91,6,GPS_Atti,
0.356504226881995,36.9195271117281,5761.2974553589,258.530192,0,3.19776256952,23900,2017-11-15 07:33:53,16,16.267,5761.2974553589,258.530192,0.31540854,3.23949485432,189.1, 9.6, -6.2,0,0,1024,1024,1684,1024,189.5,-22.4,98,4.103,4.114,4.077,4.097,0,0,85.91,6,GPS_Atti,
0.356504216734956,36.919527046091,5762.9378753589,260.170612,0,3.21688986672,24000,2017-11-15 07:33:53,16,16.267,5762.9378753589,260.170612,0.31540854,3.23949485432,189.1, 9.5, -5.9,0,0,1024,1024,1684,1024,189.5,-22.4,98,4.103,4.114,4.077,4.097,0,0,85.91,6,GPS_Atti,
0.356504211995167,36.919527013252,5764.5782953589,261.811032,0,3.2263944602,24100,2017-11-15 07:33:53,16,16.267,5764.5782953589,261.811032,0.31540854,3.23949485432,189.1, 9.2, -5.5,0,0,1024,1024,1684,1024,189.5,-22.4,98,4.103,4.114,4.077,4.097,0,0,85.91,6,GPS_Atti,
0.356504193999028,36.9195269050933,5769.4995553589,266.732292,0,3.25845154784,24400,2017-11-15 07:33:53,16,16.267,5769.4995553589,266.732292,0.31540854,3.25845154784,188.9, 9.4, -6,0,0,1024,1024,1684,1024,189.5,-22.4,98,4.103,4.114,4.077,4.097,0,0,85.91,6,GPS_Atti,
0.356504240480113,36.9195268446647,5771.1399753589,268.372712,0,3.2616962986,24500,2017-11-15 07:33:53,16,16.267,5771.1399753589,268.372712,0.31540854,3.2616962986,189, 8.8, -7,0,0,1024,1024,1684,1024,189.5,-22.4,98,4.103,4.114,4.077,4.097,0,0,85.91,6,GPS_Atti,
0.356504294240748,36.9195267912475,5772.7803953589,270.013132,0,3.26148960568,24600,2017-11-15 07:33:53,16,16.347,5772.7803953589,270.013132,0.31540854,3.2616962986,189, 8.9, -6.6,0,0,1024,1024,1684,1024,189.5,-22.4,98,4.105,4.117,4.085,4.104,0,0,85.91,6,GPS_Atti,
0.356504369444328,36.9195267448118,5774.4208153589,271.653552,0,3.2542159834,24700,2017-11-15 07:33:53,16,16.347,5774.4208153589,271.653552,0.31540854,3.2616962986,189, 8.6, -5.8,0,0,1024,1024,1684,1024,189.5,-22.4,98,4.105,4.117,4.085,4.104,0,0,85.91,6,GPS_Atti,
