latitude,longitude,altitude(feet),ascent(feet),speed(mph),distance(feet),time(millisecond),datetime(utc),satellites,gpslevel,voltage(v),max_altitude(feet),max_ascent(feet),max_speed(mph),max_distance(feet), xSpeed(mph), ySpeed(mph), zSpeed(mph), compass_heading(degrees), pitch(degrees), roll(degrees),isPhoto,isVideo,rc_elevator,rc_aileron,rc_throttle,rc_rudder,gimbal_heading(degrees),gimbal_pitch(degrees),battery_percent,voltageCell1,voltageCell2,voltageCell3,voltageCell4,voltageCell5,voltageCell6,current(A),battery_temperature(f),flycStateRaw,flycState,message
0.313738985303065,36.8846545645997,5835.8301942925,0,0,0,0,2018-03-31 07:06:46,12,0,0,5835.8301942925,0,0,0,0,0,0,52, 2, 2.7,0,0,364,364,364,1684,56.4,0,99,4.296,4.29,4.297,4.298,0,0,0,85.91,41,Motors_Started,
0.313738983877922,36.8846545373527,5835.8301942925,0,0,0.0099545278776,100,2018-03-31 07:06:46,12,0,0,5835.8301942925,0,0,0.0099545278776,0,0,0,52, 2, 2.7,0,0,364,364,364,1684,56.4,0,99,4.296,4.29,4.297,4.298,0,0,0,85.91,41,Motors_Started,
0.31373900947869,36.8846544880423,5835.8301942925,0,0,0.0292911098612,200,2018-03-31 07:06:46,12,0,0,5835.8301942925,0,0,0.0292911098612,0,0,0,52, 2, 2.7,0,0,364,364,364,1684,56.4,0,99,4.296,4.29,4.297,4.298,0,0,0,85.91,41,Motors_Started,
0.313739033497221,36.8846544447005,5835.8301942925,0,0,0.047146326968,300,2018-03-31 07:06:46,12,0,0,5835.8301942925,0,0,0.047146326968,0,0,0,52, 2, 2.7,0,0,364,364,364,1684,56.4,0,99,4.296,4.29,4.297,4.298,0,0,0,85.91,41,Motors_Started,
0.313739011915554,36.8846544210811,5835.8301942925,0,0,0.05325459488,400,2018-03-31 07:06:46,12,0,0,5835.8301942925,0,0,0.05325459488,0,0,0,52, 2, 2.7,0,0,364,364,364,1684,56.4,0,99,4.296,4.29,4.297,4.298,0,0,0,85.91,41,Motors_Started,
0.313738994392123,36.8846543985794,5835.8301942925,0,0,0.060662075432,500,2018-03-31 07:06:46,12,0,0,5835.8301942925,0,0,0.060662075432,0,0,0,52, 2, 2.7,0,0,364,364,364,1684,56.4,0,99,4.296,4.29,4.297,4.298,0,0,0,85.91,41,Motors_Started,
0.313739008210641,36.8846543204563,5835.8301942925,0,0,0.089465554044,600,2018-03-31 07:06:47,12,0,17.179,5835.8301942925,0,0,0.089465554044,0,0,0,52, 2, 2.7,0,0,364,364,364,1684,56.4,0,99,4.296,4.29,4.297,4.298,0,0,1.494,85.91,41,Motors_Started,Setting new Return-To-Home altitude to 30m (98 ft). Setting new Maximum Flight Altitude to 120m (394 ft)
0.313739023786046,36.8846542516103,5835.8301942925,0,0,0.115052169036,700,2018-03-31 07:06:47,12,0,17.179,5835.8301942925,0,0,0.115052169036,0,0,0,52, 2, 2.7,0,0,364,364,364,1684,56.4,0,99,4.296,4.29,4.297,4.298,0,0,1.494,85.91,41,Motors_Started,
0.313739032698011,36.8846542086373,5835.8301942925,0,0,0.131016736476,800,2018-03-31 07:06:47,12,0,17.179,5835.8301942925,0,0,0.131016736476,0,0,0,52, 2.1, 2.7,0,0,364,364,364,1684,56.4,0,99,4.296,4.29,4.297,4.298,0,0,1.494,85.91,41,Motors_Started,
0.313739040493729,36.8846541700029,5835.8301942925,0,0,0.145367786804,900,2018-03-31 07:06:47,12,0,17.179,5835.8301942925,0,0,0.145367786804,0,0,0,52, 2.1, 2.7,0,0,364,364,364,1684,56.4,0,99,4.296,4.29,4.297,4.298,0,0,1.494,85.91,41,Motors_Started,
0.313739042269852,36.8846541216695,5835.8301942925,0,0,0.16293143566,1000,2018-03-31 07:06:47,12,0,17.179,5835.8301942925,0,0,0.16293143566,0,0,0,52, 2.2, 2.8,0,0,364,364,364,1684,56.4,0,99,4.296,4.29,4.297,4.298,0,0,1.494,85.91,41,Motors_Started,
0.313739044871292,36.8846540747209,5835.8301942925,0,0,0.18004593752,1100,2018-03-31 07:06:47,12,0,17.179,5835.8301942925,0,0,0.18004593752,0,0,0,52, 2, 2.6,0,0,364,364,364,1684,56.4,0,99,4.296,4.29,4.297,4.298,0,0,1.494,85.91,41,Motors_Started,
0.313739047375431,36.8846540561006,5835.8301942925,0,0,0.186899940364,1200,2018-03-31 07:06:47,12,0,17.179,5835.8301942925,0,0,0.186899940364,0,0,0,52, 2, 2.7,0,0,364,364,364,1684,56.4,0,99,4.296,4.29,4.297,4.298,0,0,1.494,85.91,41,Motors_Started,
0.313739043787562,36.8846540320257,5835.8301942925,0,0,0.195474415704,1300,2018-03-31 07:06:47,12,0,17.179,5835.8301942925,0,0,0.195474415704,0,0,0,52, 2.1, 2.7,0,0,364,364,364,1684,56.4,0,99,4.296,4.29,4.297,4.298,0,0,1.494,85.91,41,Motors_Started,
0.313739042924538,36.8846539642626,5835.8301942925,0,0,0.22003609628,1400,2018-03-31 07:06:47,12,0,17.179,5835.8301942925,0,0,0.22003609628,0,0,0,52, 2, 2.7,0,0,364,364,364,1675,56.4,0,99,4.296,4.29,4.297,4.298,0,0,1.494,85.91,41,Motors_Started,
0.313739038105209,36.8846538980937,5835.8301942925,0,0,0.243932750588,1500,2018-03-31 07:06:48,12,0,17.179,5835.8301942925,0,0,0.243932750588,0,0,0,52.1, 2.2, 2.8,0,0,424,385,517,1545,56.4,0,99,4.296,4.29,4.297,4.298,0,0,1.494,85.91,10,Assisted_Takeoff,
0.313739036254635,36.8846538257833,5835.8301942925,0,0,0.270192922032,1600,2018-03-31 07:06:48,12,0,17.152,5835.8301942925,0,0,0.270192922032,0,0,0,51.9, 1.9, 2.5,0,0,658,580,694,1371,55.9,0,99,4.282,4.274,4.28,4.277,0,0,3.158,85.91,10,Assisted_Takeoff,
0.313739037712092,36.8846537628743,5835.8301942925,0,0,0.293128946388,1700,2018-03-31 07:06:48,12,0,17.152,5835.8301942925,0,0,0.293128946388,0,0,0,52, 2.1, 2.7,0,0,1008,803,963,1093,55.3,0,99,4.282,4.274,4.28,4.277,0,0,3.158,85.91,10,Assisted_Takeoff,
0.313738993472307,36.8846536958987,5835.8301942925,0,0,0.316954406468,1800,2018-03-31 07:06:48,12,0,17.152,5835.8301942925,0,0,0.316954406468,0,0,0,51.9, 2.1, 2.6,0,0,1024,1024,1024,1024,54.1,0,99,4.282,4.274,4.28,4.277,0,0,3.158,85.91,10,Assisted_Takeoff,
0.313738968950688,36.8846536358332,5835.8301942925,0,0,0.33890749116,1900,2018-03-31 07:06:48,12,0,17.152,5835.8301942925,0,0,0.33890749116,0,0,0,52, 2, 2.6,0,0,1024,1024,1024,1024,53.4,0,99,4.282,4.274,4.28,4.277,0,0,3.158,85.91,10,Assisted_Takeoff,
0.313738936193468,36.8846535728632,5835.8301942925,0,0,0.36227363364,2000,2018-03-31 07:06:48,12,0,17.152,5835.8301942925,0,0,0.36227363364,0,0,0,51.9, 2.1, 2.7,0,0,1024,1024,1024,1024,53.1,0,99,4.282,4.274,4.28,4.277,0,0,3.158,85.91,10,Assisted_Takeoff,
0.31373891924213,36.8846535131617,5835.8301942925,0,0,0.3843668102,2100,2018-03-31 07:06:48,12,0,17.152,5835.8301942925,0,0,0.3843668102,0,0,0,51.9, 2, 2.6,0,0,1024,1024,1024,1024,53.1,0,99,4.282,4.274,4.28,4.277,0,0,3.158,85.91,10,Assisted_Takeoff,
0.313738901564734,36.8846534532958,5835.8301942925,0,0,0.40660106288,2200,2018-03-31 07:06:48,12,0,17.152,5835.8301942925,0,0,0.40660106288,0,0,0,51.9, 2.1, 2.7,0,0,1024,1024,1024,1024,52.9,0,99,4.282,4.274,4.28,4.277,0,0,3.158,85.91,10,Assisted_Takeoff,
0.3137388926116,36.8846533953597,5835.8301942925,0,0,0.42792980372,2300,2018-03-31 07:06:48,12,0,17.152,5835.8301942925,0,0,0.42792980372,0,0,0,51.9, 2, 2.7,0,0,1024,1024,1024,1024,52.7,0,99,4.282,4.274,4.28,4.277,0,0,3.158,85.91,10,Assisted_Takeoff,
0.313738885921647,36.8846533399625,5835.8301942925,0,0,0.44827101172,2400,2018-03-31 07:06:48,12,0,17.152,5835.8301942925,0,0,0.44827101172,0,0,0,51.9, 2, 2.7,0,0,1024,1024,1024,1024,52.6,0,99,4.282,4.274,4.28,4.277,0,0,3.158,85.91,10,Assisted_Takeoff,
0.313738884069292,36.8846532836152,5835.8301942925,0,0,0.4688156318,2500,2018-03-31 07:06:48,12,0,17.152,5835.8301942925,0,0,0.4688156318,0,0,0,51.9, 2.1, 2.7,0,0,1024,1024,1024,1024,52.5,0,99,4.282,4.274,4.28,4.277,0,0,3.158,85.91,10,Assisted_Takeoff,
0.313738847503498,36.8846531945559,5835.8301942925,0,0,0.50237534416,2600,2018-03-31 07:06:49,12,0,16.988,5835.8301942925,0,0,0.50237534416,0,0,0,51.9, 2, 2.6,0,0,1024,1024,1024,1024,52.5,0,99,4.282,4.274,4.28,4.277,0,0,3.158,85.91,10,Assisted_Takeoff,
0.313738820935892,36.8846531109674,5835.8301942925,0,0,0.53373033204,2700,2018-03-31 07:06:49,12,0,16.988,5835.8301942925,0,0,0.53373033204,0,0,0,51.9, 2.1, 2.7,0,0,1024,1024,1024,1024,52.4,0,99,4.282,4.274,4.28,4.277,0,0,3.158,85.91,10,Assisted_Takeoff,
0.313738800111986,36.8846530339004,5835.8301942925,0,0,0.56253938808,2800,2018-03-31 07:06:49,12,0,16.988,5835.8301942925,0,0,0.56253938808,0,0,0,51.9, 2, 2.6,0,0,1024,1024,1024,1024,52.4,0,99,4.282,4.274,4.28,4.277,0,0,3.158,85.91,10,Assisted_Takeoff,
0.313738786018236,36.8846529605703,5835.8301942925,0,0,0.58972114748,2900,2018-03-31 07:06:49,12,0,16.988,5835.8301942925,0,0,0.58972114748,0,0,0,51.9, 2.1, 2.7,0,0,1024,1024,1024,1024,52.4,0,99,4.282,4.274,4.28,4.277,0,0,3.158,85.91,10,Assisted_Takeoff,
0.313738742621603,36.8846528626594,5835.8301942925,0,0,0.62722442952,3000,2018-03-31 07:06:49,12,0,16.988,5835.8301942925,0,0,0.62722442952,0,0,0,51.9, 2, 2.6,0,0,1024,1024,1024,1024,52.3,0,99,4.282,4.274,4.28,4.277,0,0,3.158,85.91,10,Assisted_Takeoff,
0.313738707415954,36.8846527710757,5835.8301942925,0,0,0.66216537552,3100,2018-03-31 07:06:49,12,0,16.988,5835.8301942925,0,0,0.66216537552,0,0,0,51.9, 2.1, 2.6,0,0,1024,1024,1024,1024,52.3,0,99,4.282,4.274,4.28,4.277,0,0,3.158,85.91,10,Assisted_Takeoff,
0.313738685157109,36.8846526974993,5835.8301942925,0,0,0.68994752864,3200,2018-03-31 07:06:49,12,0,16.988,5835.8301942925,0,0,0.68994752864,0,0,0,51.9, 2.1, 2.6,0,0,1024,1024,1024,1024,52.3,0,99,4.282,4.274,4.28,4.277,0,0,3.158,85.91,10,Assisted_Takeoff,
0.313738665841448,36.8846526237891,5835.8301942925,0,0,0.71762141404,3300,2018-03-31 07:06:49,12,0,16.988,5835.8301942925,0,0,0.71762141404,0,0,0,51.9, 2.1, 2.7,0,0,1024,1024,1024,1024,52.3,0,99,4.282,4.274,4.28,4.277,0,0,3.158,85.91,10,Assisted_Takeoff,
0.313738621746728,36.8846525692296,5835.8301942925,0,0,0.73998361948,3400,2018-03-31 07:06:49,12,0,16.988,5835.8301942925,0,0,0.73998361948,0,0,0,51.9, 2.1, 2.6,0,0,1024,1024,1024,1024,52.2,0,99,4.282,4.274,4.28,4.277,0,0,3.158,85.91,10,Assisted_Takeoff,
0.313738583341256,36.8846525079501,5835.8301942925,0,0,0.76455383024,3500,2018-03-31 07:06:50,12,0,16.988,5835.8301942925,0,0,0.76455383024,0,0,0,51.9, 2.1, 2.6,0,0,1024,1024,1024,1024,52.2,0,99,4.282,4.274,4.28,4.277,0,0,3.158,85.91,10,Assisted_Takeoff,
0.313738562320678,36.8846524634258,5835.8301942925,0,0,0.78197837148,3600,2018-03-31 07:06:50,12,0,17.152,5835.8301942925,0,0,0.78197837148,0,0,0,51.9, 2.1, 2.7,0,0,1024,1024,1024,1024,52.2,0,99,4.288,4.282,4.289,4.29,0,0,2.704,85.91,10,Assisted_Takeoff,
0.31373854117272,36.8846524104594,5835.8301942925,0,0,0.80245737476,3700,2018-03-31 07:06:50,12,0,17.152,5835.8301942925,0,0,0.80245737476,0,0,0,51.9, 2.1, 2.7,0,0,1024,1024,1024,1024,52.2,0,99,4.288,4.282,4.289,4.29,0,0,2.704,85.91,10,Assisted_Takeoff,
0.313738537579593,36.8846523714428,5835.8301942925,0,0,0.81666341196,3800,2018-03-31 07:06:50,12,0,17.152,5835.8301942925,0,0,0.81666341196,0,0,0,51.9, 2.1, 2.7,0,0,1024,1024,1024,1024,52.2,0,99,4.288,4.282,4.289,4.29,0,0,2.704,85.91,10,Assisted_Takeoff,
0.313738529179432,36.8846523225409,5835.8301942925,0,0,0.83475724456,3900,2018-03-31 07:06:50,12,0,17.152,5835.8301942925,0,0,0.83475724456,0,0,0,51.9, 2.1, 2.7,0,0,1024,1024,1024,1024,52.2,0,99,4.288,4.282,4.289,4.29,0,0,2.704,85.91,10,Assisted_Takeoff,
0.313738497017071,36.8846522850948,5835.8301942925,0,0,0.85053152328,4000,2018-03-31 07:06:50,12,0,17.152,5835.8301942925,0,0,0.85053152328,0,0,0,51.9, 2.1, 2.7,0,0,1024,1024,1024,1024,52.2,0,99,4.288,4.282,4.289,4.29,0,0,2.704,85.91,10,Assisted_Takeoff,
0.313738467264938,36.8846522386601,5835.8301942925,0,0,0.86939963412,4100,2018-03-31 07:06:50,12,0,17.152,5835.8301942925,0,0,0.86939963412,0,0,0,51.9, 2.1, 2.7,0,0,1024,1024,1024,1024,52.2,0,99,4.288,4.282,4.289,4.29,0,0,2.704,85.91,10,Assisted_Takeoff,
0.313738453257575,36.8846522004202,5835.8301942925,0,0,0.88413060572,4200,2018-03-31 07:06:50,12,0,17.152,5835.8301942925,0,0,0.88413060572,0,0,0,51.9, 2.1, 2.7,0,0,1024,1024,1024,1024,52.2,0,99,4.288,4.282,4.289,4.29,0,0,2.704,85.91,10,Assisted_Takeoff,
0.313738437554006,36.8846521544511,5835.8301942925,0,0,0.90175199736,4300,2018-03-31 07:06:50,12,0,17.152,5835.8301942925,0,0,0.90175199736,0,0,0,51.9, 2.1, 2.7,0,0,1024,1024,1024,1024,52.2,0,99,4.288,4.282,4.289,4.29,0,0,2.704,85.91,10,Assisted_Takeoff,
0.313738436575934,36.884652153433,5835.8301942925,0,0,0.90219162992,4400,2018-03-31 07:06:50,12,0,17.152,5835.8301942925,0,0,0.90219162992,0,0,0,51.9, 2.1, 2.7,0,0,1024,1024,1024,1024,52.2,0,99,4.288,4.282,4.289,4.29,0,0,2.704,85.91,10,Assisted_Takeoff,
0.313738431082061,36.8846521370476,5835.8301942925,0,0,0.90846787684,4500,2018-03-31 07:06:50,12,0,17.152,5835.8301942925,0,0,0.90846787684,0,0,0,51.9, 2.1, 2.7,0,0,1024,1024,1024,1024,52.2,0,99,4.288,4.282,4.289,4.29,0,0,2.704,85.91,10,Assisted_Takeoff,
0.313738438035523,36.8846521196216,5835.8301942925,0,0,0.9141076408,4600,2018-03-31 07:06:51,12,0,17.125,5835.8301942925,0,0,0.9141076408,0,0,0,51.9, 2.1, 2.7,0,0,1024,1024,1024,1024,52.2,0,99,4.289,4.284,4.292,4.292,0,0,1.966,85.91,10,Assisted_Takeoff,
0.313738439426106,36.8846520909694,5835.8301942925,0,0,0.92420278548,4700,2018-03-31 07:06:51,12,0,17.125,5835.8301942925,0,0,0.92420278548,0,0,0,51.9, 2.1, 2.7,0,0,1024,1024,1024,1024,52.2,0,99,4.289,4.284,4.292,4.292,0,0,1.966,85.91,10,Assisted_Takeoff,
0.313738411705746,36.8846520964374,5835.8301942925,0,0,0.9244914994,4800,2018-03-31 07:06:51,12,0,17.125,5835.8301942925,0,0,0.9244914994,0,0,0,51.9, 2.1, 2.6,0,0,1024,1024,1024,1024,52.2,0,99,4.289,4.284,4.292,4.292,0,0,1.966,85.91,10,Assisted_Takeoff,
0.313738387367576,36.8846520873834,5835.8301942925,0,0,0.92975396676,4900,2018-03-31 07:06:51,12,0,17.125,5835.8301942925,0,0,0.92975396676,0,0,0,51.8, 2.1, 2.7,0,0,1024,1024,1024,1024,52.1,0,99,4.289,4.284,4.292,4.292,0,0,1.966,85.91,10,Assisted_Takeoff,
0.313738374887677,36.8846520307952,5835.8301942925,0,0,0.95089241888,5000,2018-03-31 07:06:51,12,0,17.125,5835.8301942925,0,0,0.95089241888,0,0,0,51.9, 2.1, 2.7,0,0,1024,1024,1024,1024,52.1,0,99,4.289,4.284,4.292,4.292,0,0,1.966,85.91,10,Assisted_Takeoff,
0.313738363202383,36.8846519744971,5835.8301942925,0,0,0.97186026732,5100,2018-03-31 07:06:51,12,0,17.125,5835.8301942925,0,0,0.97186026732,0,0,0,51.9, 2.1, 2.7,0,0,1024,1024,1024,1024,52.1,0,99,4.289,4.284,4.292,4.292,0,0,1.966,85.91,10,Assisted_Takeoff,
0.313738362321534,36.8846519492349,5835.8301942925,0,0,0.98089898152,5200,2018-03-31 07:06:51,12,0,17.125,5835.8301942925,0,0,0.98089898152,0,0,0,51.9, 2.1, 2.6,0,0,1024,1024,1024,1024,52.1,0,99,4.289,4.284,4.292,4.292,0,0,1.966,85.91,10,Assisted_Takeoff,
0.313738359434609,36.884651920375,5835.8301942925,0,0,0.99138454616,5300,2018-03-31 07:06:51,12,0,17.125,5835.8301942925,0,0,0.99138454616,0,0,0,51.9, 2.1, 2.6,0,0,1024,1024,1070,1024,52.1,0,99,4.289,4.284,4.292,4.292,0,0,1.966,85.91,10,Assisted_Takeoff,
0.313738326918182,36.8846518443577,5835.8301942925,0,0,1.02111879908,5400,2018-03-31 07:06:51,12,0,17.125,5835.8301942925,0,0,1.02111879908,0,0,0,51.9, 2.1, 2.7,0,0,1024,1024,1070,1024,52.1,0,99,4.289,4.284,4.292,4.292,0,0,1.966,85.91,10,Assisted_Takeoff,
0.313738299307953,36.8846517738737,5835.8301942925,0,0,1.0484908472,5500,2018-03-31 07:06:52,12,0,17.125,5835.8301942925,0,0,1.0484908472,0,0,0,51.9, 2.1, 2.7,0,0,1024,1024,1387,1024,52.1,0,99,4.289,4.284,4.292,4.292,0,0,1.966,85.91,10,Assisted_Takeoff,
0.313738283413016,36.8846517024862,5835.8301942925,0,0,1.07516735724,5600,2018-03-31 07:06:52,12,0,17.125,5835.8301942925,0,0,1.07516735724,0,0,0,51.9, 2.1, 2.7,0,0,1024,1024,1387,1024,52.1,0,99,4.289,4.284,4.292,4.292,0,0,1.962,85.91,10,Assisted_Takeoff,
0.313738268465071,36.8846516361427,5835.8301942925,0,0,1.09997378848,5700,2018-03-31 07:06:52,12,0,17.125,5835.8301942925,0,0,1.09997378848,0,0,0,51.9, 2.1, 2.7,0,0,1024,1024,1521,1024,52.1,0,99,4.289,4.284,4.292,4.292,0,0,1.962,85.91,10,Assisted_Takeoff,
0.313738227284902,36.88465157066,5835.8301942925,0,0,1.1267880938,5800,2018-03-31 07:06:52,11,0,17.125,5835.8301942925,0,0,1.1267880938,0,0,0,51.9, 2.1, 2.7,0,0,1024,1024,1586,1024,52.1,0,99,4.289,4.284,4.292,4.292,0,0,1.962,85.91,10,Assisted_Takeoff,
0.313738191996114,36.8846515085732,5835.8301942925,0,0,1.15192917072,5900,2018-03-31 07:06:52,11,0,17.125,5835.8301942925,0,0,1.15192917072,0,0,0,52, 2.1, 2.5,0,0,1024,1024,1662,1024,52.1,0,99,4.289,4.284,4.292,4.292,0,0,1.962,85.91,10,Assisted_Takeoff,
0.313738113851107,36.8846514587206,5835.8301942925,0,0,1.17692260984,6000,2018-03-31 07:06:52,11,0,17.125,5835.8301942925,0,0,1.17692260984,0,0,0,52, 2.3, 1.2,0,0,1024,1024,1684,1024,52.1,0,99,4.289,4.284,4.292,4.292,0,0,1.962,85.91,10,Assisted_Takeoff,
0.313738025056865,36.8846514011352,5835.8301942925,0,0,1.20617129844,6100,2018-03-31 07:06:52,11,0,17.125,5835.8301942925,0,0,1.20617129844,0,0,-0.447388,52, 2.8, 0.5,0,0,1024,1024,1684,1024,52.1,0,99,4.289,4.284,4.292,4.292,0,0,1.962,85.91,6,P-GPS,Obstacle Avoided. Revise Flight Route
0.31373793839591,36.8846512799614,5835.8301942925,0,0,1.25777891164,6200,2018-03-31 07:06:52,11,0,17.125,5835.8301942925,0,0,1.25777891164,0,0,-0.894776,52, 1.3, 0.2,0,0,1024,1024,1684,1024,52.1,0,99,4.289,4.284,4.292,4.292,0,0,1.962,85.91,6,P-GPS,
0.313737856633365,36.8846511508663,5835.8301942925,0,0,1.31179138056,6300,2018-03-31 07:06:52,11,0,17.125,5835.8301942925,0,0,1.31179138056,0,0,-1.565858,52, 0, 0,0,0,1024,1024,1684,1024,52.1,0,99,4.289,4.284,4.292,4.292,0,0,1.962,85.91,6,P-GPS,
0.313737780988833,36.884651047898,5836.1582782925,0.328084,0,1.3562008308,6400,2018-03-31 07:06:52,11,0,17.125,5836.1582782925,0.328084,0,1.3562008308,0,0,-2.460634,51.9, -0.2, 0.6,0,0,1024,1024,1684,1024,52.1,0,99,4.289,4.284,4.292,4.292,0,0,1.962,85.91,6,P-GPS,
0.313737751571705,36.8846509737879,5836.8144462925,0.984252,0,1.38525923068,6500,2018-03-31 07:06:52,11,0,17.125,5836.8144462925,0.984252,0,1.38525923068,0,0,-3.35541,52.1, -0.1, 1.3,0,0,1024,1024,1684,1024,52.1,0,99,4.289,4.284,4.292,4.292,0,0,1.962,85.91,6,P-GPS,
0.313737756889847,36.8846508999246,5837.1425302925,1.312336,0,1.4101542446,6600,2018-03-31 07:06:53,12,0,17.125,5837.1425302925,1.312336,0,1.4101542446,0,0,-4.47388,52.5, 0.6, 1.3,0,0,1024,1024,1684,1024,52.1,0,99,4.289,4.284,4.292,4.292,0,0,1.962,85.91,6,P-GPS,
0.313737749177027,36.8846508594574,5838.1267822925,2.296588,0,1.4250492582,6700,2018-03-31 07:06:53,12,0,17.125,5838.1267822925,2.296588,0,1.4250492582,0,0,-5.59235,52.4, 2.2, 0,0,0,1024,1024,1684,1024,52.1,0,99,4.289,4.284,4.292,4.292,0,0,1.962,85.91,6,P-GPS,Home Point Recorded. RTH Altitude:  30m.
0.313737738974877,36.8846508127844,5838.7829502925,2.952756,0,1.44237865508,6800,2018-03-31 07:06:53,12,0,17.125,5838.7829502925,2.952756,0,1.44237865508,0,0,-6.71082,52.2, 2, -1.1,0,0,1024,1024,1684,1024,52.1,0,99,4.289,4.284,4.292,4.292,0,0,1.962,85.91,6,P-GPS,
0.313737736494807,36.8846507047698,5840.0952862925,4.265092,0,1.48010831508,6900,2018-03-31 07:06:53,12,0,17.125,5840.0952862925,4.265092,0,1.48010831508,0,0,-7.82929,52.2, 0.8, -0.1,0,0,1024,1024,1684,1024,52.1,0,99,4.289,4.284,4.292,4.292,0,0,1.962,85.91,6,P-GPS,
0.313737723771774,36.8846505469984,5841.4076222925,5.577428,0,1.53636159772,7000,2018-03-31 07:06:53,12,0,17.125,5841.4076222925,5.577428,0,1.53636159772,0,0,-8.94776,52.1, -0.1, 1.3,0,0,1024,1024,1684,1024,52.1,0,99,4.289,4.284,4.292,4.292,0,0,1.962,85.91,6,P-GPS,
0.313737707891443,36.8846504161374,5842.7199582925,6.889764,0,1.58367459136,7100,2018-03-31 07:06:53,12,0,17.125,5842.7199582925,6.889764,0,1.58367459136,0,0,-10.06623,52, 0, 1.2,0,0,1024,1024,1684,1024,52.1,0,99,4.289,4.284,4.292,4.292,0,0,1.962,85.91,6,P-GPS,
0.31373773032616,36.88465034943,5844.3603782925,8.530184,0,1.6045932272,7200,2018-03-31 07:06:53,12,0,17.125,5844.3603782925,8.530184,0,1.6045932272,0,0,-10.737312,52, 0.1, -0.2,0,0,1024,1024,1684,1024,52.1,0,99,4.289,4.284,4.292,4.292,0,0,1.962,85.91,6,P-GPS,
0.313737763201289,36.884650278551,5846.0007982925,10.170604,0,1.626066325,7300,2018-03-31 07:06:53,12,0,17.125,5846.0007982925,10.170604,0,1.626066325,0,0,-11.408394,52, -0.5, -0.7,0,0,1024,1024,1684,1024,52.1,0,99,4.289,4.284,4.292,4.292,0,0,1.962,85.91,6,P-GPS,
0.313737929592134,36.8846502566113,5847.6412182925,11.811024,0.223694,1.61825136412,7400,2018-03-31 07:06:53,12,0,17.125,5847.6412182925,11.811024,0.223694,1.626066325,0.223694,0,-11.632088,52, -0.1, -0.5,0,0,1024,1024,1684,1024,52.1,0,99,4.289,4.284,4.292,4.292,0,0,1.962,85.91,6,P-GPS,
0.313738126042122,36.8846502218439,5849.2816382925,13.451444,0.223694,1.61514440864,7500,2018-03-31 07:06:53,12,0,17.125,5849.2816382925,13.451444,0.223694,1.626066325,0.223694,0,-11.855782,52.1, 1.2, -0.1,0,0,1024,1024,1684,1024,52.1,0,99,4.289,4.284,4.292,4.292,0,0,1.962,85.91,6,P-GPS,
0.31373838588676,36.8846502146233,5850.9220582925,15.091864,0.223694,1.60206041872,7600,2018-03-31 07:06:54,12,0,16.333,5850.9220582925,15.091864,0.223694,1.626066325,0.223694,0,-11.855782,52.1, 2.3, 0.9,0,0,1024,1024,1684,1024,52.1,0,99,4.144,4.129,4.138,4.127,0,0,15.83,85.91,6,P-GPS,
0.313738641000196,36.8846501453218,5852.8905622925,17.060368,0.223694,1.61723430372,7700,2018-03-31 07:06:54,12,0,16.333,5852.8905622925,17.060368,0.223694,1.626066325,0.223694,0,-11.632088,52.2, 2.6, 2.7,0,0,1024,1024,1684,1074,52.1,0,99,4.144,4.129,4.138,4.127,0,0,15.83,85.91,6,P-GPS,
0.313738839567556,36.8846500856717,5854.5309822925,18.700788,0.223694,1.6349738056,7800,2018-03-31 07:06:54,12,0,16.333,5854.5309822925,18.700788,0.223694,1.6349738056,0,-0.223694,-11.408394,52.1, 1.3, 2.6,0,0,1024,1024,1684,1148,52.4,0,99,4.144,4.129,4.138,4.127,0,0,15.83,85.91,6,P-GPS,
0.313739006148573,36.8846499717458,5856.1714022925,20.341208,0.223694,1.67569231084,7900,2018-03-31 07:06:54,12,0,16.333,5856.1714022925,20.341208,0.223694,1.67569231084,0,-0.223694,-11.1847,52.6, 0.5, 2.5,0,0,1024,1024,1684,1147,53.1,0,99,4.144,4.129,4.138,4.127,0,0,15.83,85.91,6,P-GPS,
0.31373920415632,36.88464983768,5857.8118222925,21.981628,0.223694,1.72643706312,8000,2018-03-31 07:06:54,12,0,16.333,5857.8118222925,21.981628,0.223694,1.72643706312,0,-0.223694,-10.961006,53.7, 0.2, 3.2,0,0,1024,1024,1684,1121,53.1,0,99,4.144,4.129,4.138,4.127,0,0,15.83,85.91,6,P-GPS,
0.313739405277092,36.8846496523393,5859.4522422925,23.622048,0.223694,1.79874677672,8100,2018-03-31 07:06:54,12,0,16.333,5859.4522422925,23.622048,0.223694,1.79874677672,0,-0.223694,-10.961006,55, -0.8, 4,0,0,1024,1024,1684,1097,53.8,0,99,4.144,4.129,4.138,4.127,0,0,15.83,85.91,6,P-GPS,
0.313739671840245,36.8846495518868,5861.0926622925,25.262468,0.223694,1.8459318176,8200,2018-03-31 07:06:54,12,0,16.333,5861.0926622925,25.262468,0.223694,1.8459318176,0,-0.223694,-10.961006,56, -1.6, 4,0,0,1024,1024,1684,1097,54.3,0,99,4.144,4.129,4.138,4.127,0,0,15.83,85.91,6,P-GPS,
0.313739958656865,36.8846494428118,5862.4049982925,26.574804,0.3131716,1.9020997984,8300,2018-03-31 07:06:54,12,0,16.333,5862.4049982925,26.574804,0.3131716,1.9020997984,0.223694,-0.223694,-10.737312,56.8, -1.4, 4.7,0,0,1024,1024,1684,1092,54.7,0,99,4.144,4.129,4.138,4.127,0,0,15.83,85.91,6,P-GPS,
0.313740305750441,36.8846493518833,5864.0454182925,28.215224,0.3131716,1.96189966908,8400,2018-03-31 07:06:54,12,0,16.333,5864.0454182925,28.215224,0.3131716,1.96189966908,0.223694,-0.223694,-10.737312,57.5, -0.7, 5.1,0,0,1024,1024,1684,1095,55.1,0,99,4.144,4.129,4.138,4.127,0,0,15.83,85.91,6,P-GPS,
0.313740645032066,36.8846492486291,5865.6858382925,29.855644,0.3131716,2.03183405452,8500,2018-03-31 07:06:54,12,0,16.333,5865.6858382925,29.855644,0.3131716,2.03183405452,0.223694,-0.223694,-10.961006,58.1, -0.2, 5.8,0,0,1024,1024,1684,1103,55.6,0,99,4.144,4.129,4.138,4.127,0,0,15.83,85.91,6,P-GPS,
0.313740981697596,36.8846491224653,5867.3262582925,31.496064,0.3131716,2.11491476584,8600,2018-03-31 07:06:55,12,0,16.497,5867.3262582925,31.496064,0.3131716,2.11491476584,0.223694,-0.223694,-10.961006,58.7, -0.4, 6.3,0,0,1024,1024,1684,1111,56.1,-0.3,99,4.15,4.138,4.151,4.146,0,0,16.498,85.91,6,P-GPS,
0.313741298787193,36.8846489958754,5868.9666782925,33.136484,0.3131716,2.20007552972,8700,2018-03-31 07:06:55,12,0,16.497,5868.9666782925,33.136484,0.3131716,2.20007552972,0.223694,-0.223694,-10.961006,59.4, -0.7, 6.4,0,0,1024,1024,1684,1106,56.7,-1.4,99,4.15,4.138,4.151,4.146,0,0,16.498,85.91,6,P-GPS,
0.313741650810375,36.884648877695,5870.6070982925,34.776904,0.3131716,2.29144036204,8800,2018-03-31 07:06:55,12,0,16.497,5870.6070982925,34.776904,0.3131716,2.29144036204,0.223694,-0.223694,-10.961006,60.1, -0.8, 6.2,0,0,1024,1024,1684,1114,57.4,-5.4,99,4.15,4.138,4.151,4.146,0,0,16.498,85.91,6,P-GPS,
0.313741983529981,36.8846487715256,5872.2475182925,36.417324,0.3131716,2.3798721234,8900,2018-03-31 07:06:55,12,0,16.497,5872.2475182925,36.417324,0.3131716,2.3798721234,0.223694,-0.223694,-10.961006,61, -0.9, 6.6,0,0,1024,1024,1684,1117,58.1,-11,99,4.15,4.138,4.151,4.146,0,0,16.498,85.91,6,P-GPS,
0.313742305802712,36.8846486554157,5873.8879382925,38.057744,0.3131716,2.4729987668,9000,2018-03-31 07:06:55,12,0,16.497,5873.8879382925,38.057744,0.3131716,2.4729987668,0.223694,-0.223694,-10.961006,61.9, -1.2, 6.8,0,0,1024,1024,1684,1121,59,-16.7,99,4.15,4.138,4.151,4.146,0,0,16.498,85.91,6,P-GPS,
0.313742605994557,36.8846485570894,5875.5283582925,39.698164,0.3131716,2.55911425512,9100,2018-03-31 07:06:55,12,0,16.497,5875.5283582925,39.698164,0.3131716,2.55911425512,0.223694,-0.223694,-10.961006,62.6, -1.4, 7.3,0,0,1024,1024,1684,1120,59.9,-22.3,99,4.15,4.138,4.151,4.146,0,0,16.498,85.91,6,P-GPS,
0.313742849368362,36.8846484561916,5877.1687782925,41.338584,0.223694,2.63709654108,9200,2018-03-31 07:06:55,12,0,16.497,5877.1687782925,41.338584,0.3131716,2.63709654108,0,-0.223694,-10.961006,63.6, -1.7, 7.4,0,0,1024,1024,1684,1117,60.8,-27.9,99,4.15,4.138,4.151,4.146,0,0,16.498,85.91,6,P-GPS,
0.313743069797798,36.8846484039478,5878.8091982925,42.979004,0,2.6968176716,9300,2018-03-31 07:06:55,12,0,16.497,5878.8091982925,42.979004,0.3131716,2.6968176716,0,0,-10.961006,64.6, -1.7, 7.2,0,0,1024,1024,1684,1119,61.7,-33.6,99,4.15,4.138,4.151,4.146,0,0,16.498,85.91,6,P-GPS,
0.313743231571089,36.8846484271143,5880.1215342925,44.29134,0,2.72292003464,9400,2018-03-31 07:06:56,12,0,16.497,5880.1215342925,44.29134,0.3131716,2.72292003464,0,0,-10.737312,65.7, -1, 6.1,0,0,1024,1024,1684,1113,62.7,-39.2,99,4.15,4.138,4.151,4.146,0,0,16.498,85.91,6,P-GPS,
0.313743493145605,36.8846484860364,5883.4023742925,47.57218,0,2.76103355292,9600,2018-03-31 07:06:56,12,0,16.497,5883.4023742925,47.57218,0.3131716,2.76103355292,0,0,-11.1847,67.7, -1, 5.4,0,0,1024,1024,1684,1115,64.6,-50.5,99,4.15,4.138,4.151,4.146,0,0,16.408,85.91,6,P-GPS,
0.313743802308548,36.8846485196241,5886.6832142925,50.85302,0,2.8200788304,9800,2018-03-31 07:06:56,12,0,16.497,5886.6832142925,50.85302,0.3131716,2.8200788304,0,0,-11.1847,69.4, -2.7, 6.3,0,0,1024,1024,1684,1117,65.6,-56.2,99,4.15,4.138,4.151,4.146,0,0,16.408,85.91,6,P-GPS,
0.313743955816671,36.884648605766,5888.6517182925,52.821524,0,2.83111557616,9900,2018-03-31 07:06:56,12,0,16.497,5888.6517182925,52.821524,0.3131716,2.83111557616,0,0,-11.1847,70.3, -2.5, 6.6,0,0,1024,1024,1684,1117,66.6,-61.8,99,4.15,4.138,4.151,4.146,0,0,16.408,85.91,6,P-GPS,
0.313744108772751,36.8846487678288,5890.2921382925,54.461944,0,2.82261163888,10000,2018-03-31 07:06:56,12,0,16.497,5890.2921382925,54.461944,0.3131716,2.83111557616,0,0,-11.1847,71.3, -2.5, 6.4,0,0,1024,1024,1684,1114,67.6,-67.5,99,4.15,4.138,4.151,4.146,0,0,16.408,85.91,6,P-GPS,
0.313744229738457,36.8846489798251,5891.9325582925,56.102364,0.223694,2.79515756976,10100,2018-03-31 07:06:56,12,0,16.497,5891.9325582925,56.102364,0.3131716,2.83111557616,0,0.223694,-11.1847,72.5, -0.2, 5.2,0,0,1024,1024,1684,1115,68.7,-73.1,99,4.15,4.138,4.151,4.146,0,0,16.408,85.91,6,P-GPS,
0.313744349652188,36.884649251236,5893.5729782925,57.742784,0.223694,2.75472777844,10200,2018-03-31 07:06:56,12,0,16.497,5893.5729782925,57.742784,0.3131716,2.83111557616,0,0.223694,-11.1847,73.6, 0.7, 4.1,0,0,1024,1024,1684,1112,68.7,-73.1,99,4.15,4.138,4.151,4.146,0,0,16.408,85.91,6,P-GPS,
0.313744447892957,36.8846494642225,5895.2133982925,59.383204,0,2.72669628148,10300,2018-03-31 07:06:56,12,0,16.497,5895.2133982925,59.383204,0.3131716,2.83111557616,0,0,-11.1847,74.5, 0.2, 4.2,0,0,1024,1024,1684,1108,70.7,-84.3,99,4.15,4.138,4.151,4.146,0,0,16.408,85.91,6,P-GPS,
0.313744530918767,36.8846496562052,5896.8538182925,61.023624,0,2.70199155628,10400,2018-03-31 07:06:56,12,0,16.497,5896.8538182925,61.023624,0.3131716,2.83111557616,0,0,-10.961006,75.3, -0.5, 4.5,0,0,1024,1024,1684,1093,71.6,-89.8,99,4.15,4.138,4.151,4.146,0,0,16.408,85.91,6,P-GPS,
0.313744590703424,36.8846498082559,5898.8223222925,62.992128,0,2.68214247428,10500,2018-03-31 07:06:56,12,0,16.497,5898.8223222925,62.992128,0.3131716,2.83111557616,0,0,-10.961006,76.2, -1.1, 4.8,0,0,1024,1024,1684,1061,72.6,-89.9,99,4.15,4.138,4.151,4.146,0,0,16.408,85.91,6,P-GPS,
0.313744644179897,36.8846499813255,5900.4627422925,64.632548,0,2.65686032124,10600,2018-03-31 07:06:57,12,0,16.469,5900.4627422925,64.632548,0.3131716,2.83111557616,0,0,-11.1847,77.2, -0.5, 4.5,0,0,1024,1024,1684,1057,73.3,-90,99,4.14,4.127,4.138,4.133,0,0,16.408,85.91,6,P-GPS,
0.313744676618501,36.8846501199954,5902.1031622925,66.272968,0,2.63463263024,10700,2018-03-31 07:06:57,12,0,16.469,5902.1031622925,66.272968,0.3131716,2.83111557616,0,0,-11.1847,77.8, -0.6, 3.5,0,0,1024,1024,1684,1057,73.8,-90,99,4.14,4.127,4.138,4.133,0,0,16.408,85.91,6,P-GPS,
0.313744688174754,36.8846502116139,5903.7435822925,67.913388,0,2.61754273468,10800,2018-03-31 07:06:57,12,0,16.469,5903.7435822925,67.913388,0.3131716,2.83111557616,0,0,-11.1847,78, -1.6, 3.3,0,0,1024,1024,1684,1041,74.2,-90,99,4.14,4.127,4.138,4.133,0,0,16.408,85.91,6,P-GPS,
0.313744725386735,36.8846502732349,5905.3840022925,69.553808,0,2.61482291832,10900,2018-03-31 07:06:57,12,0,16.469,5905.3840022925,69.553808,0.3131716,2.83111557616,0,0,-10.961006,78.1, -2.8, 5.2,0,0,1024,1024,1684,1027,74.2,-90,99,4.14,4.127,4.138,4.133,0,0,16.408,85.91,6,P-GPS,
0.313744780976928,36.8846503503271,5907.0244222925,71.194228,0,2.61445546424,11000,2018-03-31 07:06:57,12,0,16.469,5907.0244222925,71.194228,0.3131716,2.83111557616,0,0,-11.1847,78, -3, 5.9,0,0,1024,1024,1684,1024,74.6,-90,99,4.14,4.127,4.138,4.133,0,0,16.408,85.91,6,P-GPS,
0.313744809212518,36.8846504653311,5908.9929262925,73.162732,0,2.59841871832,11100,2018-03-31 07:06:57,12,0,16.469,5908.9929262925,73.162732,0.3131716,2.83111557616,0,0,-10.961006,78.1, -2.4, 5.6,0,0,1024,1024,1684,1024,74.6,-90,99,4.14,4.127,4.138,4.133,0,0,16.408,85.91,6,P-GPS,
0.313744782040302,36.8846506272879,5910.6333462925,74.803152,0.223694,2.55665690596,11200,2018-03-31 07:06:57,12,0,16.469,5910.6333462925,74.803152,0.3131716,2.83111557616,0,0.223694,-10.961006,78.1, -1.5, 5.1,0,0,1024,1024,1684,1024,75.2,-89.9,99,4.14,4.127,4.138,4.133,0,0,16.408,85.91,6,P-GPS,
0.31374473130735,36.8846508024537,5912.2737662925,76.443572,0.223694,2.50579732428,11300,2018-03-31 07:06:57,12,0,16.469,5912.2737662925,76.443572,0.3131716,2.83111557616,0,0.223694,-10.961006,78.2, -0.5, 4.3,0,0,1024,1024,1684,1024,75.4,-89.9,99,4.14,4.127,4.138,4.133,0,0,16.408,85.91,6,P-GPS,
0.313744587490097,36.884650961034,5913.9141862925,78.083992,0.223694,2.43028551084,11400,2018-03-31 07:06:58,12,0,16.469,5913.9141862925,78.083992,0.3131716,2.83111557616,0,0.223694,-11.1847,78.3, 0, 3.6,0,0,1024,1024,1684,1024,75.6,-89.9,99,4.14,4.127,4.138,4.133,0,0,16.408,85.91,6,P-GPS,
0.313744304574822,36.8846512198648,5917.5231102925,81.692916,0,2.29250663504,11600,2018-03-31 07:06:58,12,0,16.469,5917.5231102925,81.692916,0.3131716,2.83111557616,0,0,-10.961006,78.2, -1.1, 3.9,0,0,1024,1024,1684,1024,75.9,-90,99,4.129,4.119,4.132,4.124,0,0,17.266,85.91,6,P-GPS,
0.313744170158576,36.8846513432488,5919.1635302925,83.333336,0.223694,2.22706043872,11700,2018-03-31 07:06:58,12,0,16.469,5919.1635302925,83.333336,0.3131716,2.83111557616,-0.223694,0,-10.961006,78.2, -1.2, 3.5,0,0,1024,1024,1684,1024,76.1,-90,99,4.129,4.119,4.132,4.124,0,0,17.266,85.91,6,P-GPS,
0.313744017156085,36.8846514834952,5920.8039502925,84.973756,0,2.15268707676,11800,2018-03-31 07:06:58,12,0,16.469,5920.8039502925,84.973756,0.3131716,2.83111557616,0,0,-11.1847,78.2, -0.7, 3.4,0,0,1024,1024,1684,1024,76.2,-89.9,99,4.129,4.119,4.132,4.124,0,0,17.266,85.91,6,P-GPS,
0.313743909586367,36.8846516036219,5922.7724542925,86.94226,0,2.09639770488,11900,2018-03-31 07:06:58,12,0,16.469,5922.7724542925,86.94226,0.3131716,2.83111557616,0,0,-11.1847,78.3, -0.8, 3.1,0,0,1024,1024,1684,1024,76.3,-90,99,4.129,4.119,4.132,4.124,0,0,17.266,85.91,6,P-GPS,
0.313743779387384,36.884651697843,5924.4128742925,88.58268,0,2.03797906784,12000,2018-03-31 07:06:58,12,0,16.469,5924.4128742925,88.58268,0.3131716,2.83111557616,0,0,-11.1847,78.3, -0.8, 3.8,0,0,1024,1024,1684,1024,76.4,-90,99,4.129,4.119,4.132,4.124,0,0,17.266,85.91,6,P-GPS,
0.313743679764473,36.8846517707754,5926.0532942925,90.2231,0,1.99313326588,12100,2018-03-31 07:06:58,12,0,16.469,5926.0532942925,90.2231,0.3131716,2.83111557616,0,0,-11.1847,78.2, -1, 4.2,0,0,1024,1024,1684,1007,76.5,-90,99,4.129,4.119,4.132,4.124,0,0,17.266,85.91,6,P-GPS,
0.313743529751805,36.8846518409875,5928.0217982925,92.191604,0,1.93300859204,12200,2018-03-31 07:06:58,12,0,16.469,5928.0217982925,92.191604,0.3131716,2.83111557616,0,0,-11.1847,78.2, -1.5, 4.2,0,0,1024,1024,1684,932,76.4,-90,99,4.129,4.119,4.132,4.124,0,0,17.266,85.91,6,P-GPS,
0.313743398601404,36.884651911867,5929.6622182925,93.832024,0,1.87867131996,12300,2018-03-31 07:06:58,12,0,16.469,5929.6622182925,93.832024,0.3131716,2.83111557616,0,0,-11.1847,78.1, -1.4, 3.7,0,0,1024,1024,1684,944,76.4,-90,99,4.129,4.119,4.132,4.124,0,0,17.266,85.91,6,P-GPS,
0.313743247974405,36.8846520066079,5931.3026382925,95.472444,0,1.8137631814,12400,2018-03-31 07:06:58,12,0,16.469,5931.3026382925,95.472444,0.3131716,2.83111557616,0,0,-10.961006,77.4, -1, 3.4,0,0,1024,1024,1684,938,76.2,-89.9,99,4.129,4.119,4.132,4.124,0,0,17.266,85.91,6,P-GPS,
0.31374313490706,36.8846520863594,5933.2711422925,97.440948,0,1.76342197244,12500,2018-03-31 07:06:58,12,0,16.469,5933.2711422925,97.440948,0.3131716,2.83111557616,0,0,-11.1847,76.6, -0.8, 3.3,0,0,1024,1024,1684,922,75.9,-90,99,4.129,4.119,4.132,4.124,0,0,17.266,85.91,6,P-GPS,
0.313742990646056,36.8846521680321,5934.9115622925,99.081368,0,1.70295609124,12600,2018-03-31 07:06:59,12,0,16.469,5934.9115622925,99.081368,0.3131716,2.83111557616,0,0,-11.1847,75.7, -0.8, 3.1,0,0,1024,1024,1684,890,75.4,-89.9,99,4.129,4.119,4.132,4.124,0,0,17.266,85.91,6,P-GPS,
0.313742887379094,36.8846522147313,5936.5519822925,100.721788,0,1.66188325528,12700,2018-03-31 07:06:59,12,0,16.469,5936.5519822925,100.721788,0.3131716,2.83111557616,0,0,-11.1847,74.6, -1.1, 3.6,0,0,1024,1024,1684,890,74.7,-90,99,4.129,4.119,4.132,4.124,0,0,17.266,85.91,6,P-GPS,
0.313742753436319,36.8846522651208,5938.1924022925,102.362208,0,1.610564356,12800,2018-03-31 07:06:59,12,0,16.469,5938.1924022925,102.362208,0.3131716,2.83111557616,0,0,-11.1847,73.1, -1.3, 3.9,0,0,1024,1024,1684,919,73.9,-90,99,4.129,4.119,4.132,4.124,0,0,17.266,85.91,6,P-GPS,
0.313742650909892,36.8846523041278,5940.1609062925,104.330712,0,1.57123692692,12900,2018-03-31 07:06:59,12,0,16.469,5940.1609062925,104.330712,0.3131716,2.83111557616,0,0,-11.1847,71.5, -1.6, 3.6,0,0,1024,1024,1684,930,73.3,-90,99,4.129,4.119,4.132,4.124,0,0,17.266,85.91,6,P-GPS,
0.313742544983274,36.8846523919516,5941.8013262925,105.971132,0,1.5215387626,13000,2018-03-31 07:06:59,12,0,16.469,5941.8013262925,105.971132,0.3131716,2.83111557616,0,0,-11.1847,70.5, -1.5, 3.7,0,0,1024,1024,1684,961,73.3,-90,99,4.129,4.119,4.132,4.124,0,0,17.266,85.91,6,P-GPS,
0.313742481584285,36.8846524686118,5943.4417462925,107.611552,0,1.4872703888,13100,2018-03-31 07:06:59,12,0,16.469,5943.4417462925,107.611552,0.3131716,2.83111557616,0,0,-11.408394,69.6, -1.2, 4.2,0,0,1024,1024,1684,977,72.3,-89.9,99,4.129,4.119,4.132,4.124,0,0,17.266,85.91,6,P-GPS,
0.313742390401599,36.8846525659081,5945.4102502925,109.580056,0,1.44054794636,13200,2018-03-31 07:06:59,12,0,16.469,5945.4102502925,109.580056,0.3131716,2.83111557616,0,0,-11.1847,68.9, -0.7, 4.5,0,0,1024,1024,1684,1022,72,-89.9,99,4.129,4.119,4.132,4.124,0,0,17.266,85.91,6,P-GPS,
0.313742320627252,36.884652641046,5947.0506702925,111.220476,0,1.4047572628,13300,2018-03-31 07:06:59,12,0,16.469,5947.0506702925,111.220476,0.3131716,2.83111557616,0,0,-11.1847,68.6, -0.7, 4.5,0,0,1024,1024,1684,1022,71.8,-90,99,4.129,4.119,4.132,4.124,0,0,17.266,85.91,6,P-GPS,
0.313742230701317,36.8846527838976,5948.6910902925,112.860896,0,1.35060371776,13400,2018-03-31 07:06:59,12,0,16.469,5948.6910902925,112.860896,0.3131716,2.83111557616,0,0,-10.961006,68.6, -0.9, 3.8,0,0,1024,1024,1684,1024,71.8,-90,99,4.129,4.119,4.132,4.124,0,0,17.266,85.91,6,P-GPS,
0.313742164748521,36.8846529059353,5950.3315102925,114.501316,0,1.30837930696,13500,2018-03-31 07:07:00,12,0,16.469,5950.3315102925,114.501316,0.3131716,2.83111557616,0,0,-10.737312,68.6, -0.9, 3.4,0,0,1024,1024,1684,1024,71.5,-89.9,99,4.129,4.119,4.132,4.124,0,0,17.266,85.91,6,P-GPS,
0.313742070286963,36.8846530582772,5951.9719302925,116.141736,0,1.2525590952,13600,2018-03-31 07:07:00,12,0,16.442,5951.9719302925,116.141736,0.3131716,2.83111557616,0,0,-11.1847,68.7, -1, 3.5,0,0,1024,1024,1684,1024,71.4,-90,99,4.125,4.112,4.124,4.117,0,0,17.22,85.91,6,P-GPS,
0.313742009078232,36.8846531770143,5953.9404342925,118.11024,0,1.21383205984,13700,2018-03-31 07:07:00,12,0,16.442,5953.9404342925,118.11024,0.3131716,2.83111557616,0,0,-11.1847,68.7, -1, 3.6,0,0,1024,1024,1684,1023,71.4,-90,99,4.125,4.112,4.124,4.117,0,0,17.22,85.91,6,P-GPS,
0.313741916998884,36.884653282793,5955.5808542925,119.75066,0,1.16739505048,13800,2018-03-31 07:07:00,12,0,16.442,5955.5808542925,119.75066,0.3131716,2.83111557616,0,0,-10.961006,68.7, -0.8, 3.7,0,0,1024,1024,1684,1024,71.3,-89.9,99,4.125,4.112,4.124,4.117,0,0,17.22,85.91,6,P-GPS,
0.313741858719723,36.8846533645021,5957.2212742925,121.39108,0,1.13612536444,13900,2018-03-31 07:07:00,12,0,16.442,5957.2212742925,121.39108,0.3131716,2.83111557616,0,0,-10.961006,68.7, -0.6, 4,0,0,1024,1024,1684,1024,71.2,-89.9,99,4.125,4.112,4.124,4.117,0,0,17.22,85.91,6,P-GPS,
0.313741756478274,36.8846534276086,5958.8616942925,123.0315,0,1.09285108484,14000,2018-03-31 07:07:00,12,0,16.442,5958.8616942925,123.0315,0.3131716,2.83111557616,0,0,-10.961006,68.6, -0.7, 3.9,0,0,1024,1024,1684,1024,71.1,-90,99,4.125,4.112,4.124,4.117,0,0,17.22,85.91,6,P-GPS,
0.313741686251423,36.8846534776924,5960.5021142925,124.67192,0,1.06223428596,14100,2018-03-31 07:07:00,12,0,16.442,5960.5021142925,124.67192,0.3131716,2.83111557616,0,0,-11.1847,68.5, -1, 3.5,0,0,1024,1024,1684,1024,71,-90,99,4.125,4.112,4.124,4.117,0,0,17.22,85.91,6,P-GPS,
0.31374161570845,36.8846535125102,5962.4706182925,126.640424,0,1.03361879948,14200,2018-03-31 07:07:00,12,0,16.442,5962.4706182925,126.640424,0.3131716,2.83111557616,0,0,-11.1847,68.5, -1.4, 3.5,0,0,1024,1024,1684,1024,70.9,-89.9,99,4.125,4.112,4.124,4.117,0,0,17.22,85.91,6,P-GPS,
0.313741600035491,36.8846535448576,5964.1110382925,128.280844,0,1.02396328736,14300,2018-03-31 07:07:00,12,0,16.442,5964.1110382925,128.280844,0.3131716,2.83111557616,0,0,-11.1847,68.6, -1.1, 4.1,0,0,1024,1024,1684,1024,70.9,-89.9,99,4.125,4.112,4.124,4.117,0,0,17.22,85.91,6,P-GPS,
0.313741584117247,36.884653576781,5965.7514582925,129.921264,0,1.01436026868,14400,2018-03-31 07:07:00,12,0,16.442,5965.7514582925,129.921264,0.3131716,2.83111557616,0,0,-11.408394,68.6, -0.9, 4.3,0,0,1024,1024,1684,1024,70.8,-90,99,4.125,4.112,4.124,4.117,0,0,17.22,85.91,6,P-GPS,
0.313741598213262,36.8846536058946,5967.3918782925,131.561684,0,1.01546263092,14500,2018-03-31 07:07:00,12,0,16.442,5967.3918782925,131.561684,0.3131716,2.83111557616,0,0,-11.1847,68.6, -1.1, 4.6,0,0,1024,1024,1684,1024,70.7,-89.9,99,4.125,4.112,4.124,4.117,0,0,17.22,85.91,6,P-GPS,
0.313741578510922,36.884653675694,5969.0322982925,133.202104,0,1.00017063568,14600,2018-03-31 07:07:01,11,0,16.415,5969.0322982925,133.202104,0.3131716,2.83111557616,0,0,-10.961006,68.6, -0.4, 5,0,0,1024,1024,1684,1024,70.6,-89.9,99,4.124,4.113,4.125,4.118,0,0,16.466,85.91,6,P-GPS,
0.313741572375759,36.8846537343318,5971.0008022925,135.170608,0,0.99130908684,14700,2018-03-31 07:07:01,11,0,16.415,5971.0008022925,135.170608,0.3131716,2.83111557616,0,0,-11.1847,68.6, -0.4, 4.7,0,0,1024,1024,1684,1024,70.6,-90,99,4.124,4.113,4.125,4.118,0,0,16.466,85.91,6,P-GPS,
0.313741557056986,36.8846537491081,5972.6412222925,136.811028,0,0.98434386352,14800,2018-03-31 07:07:01,12,0,16.415,5972.6412222925,136.811028,0.3131716,2.83111557616,0,0,-10.961006,68.5, -1, 4.5,0,0,1024,1024,1684,1024,70.5,-90,99,4.124,4.113,4.125,4.118,0,0,16.466,85.91,6,P-GPS,
0.313741558463555,36.8846537427948,5974.2816422925,138.451448,0,0.9855315276,14900,2018-03-31 07:07:01,12,0,16.415,5974.2816422925,138.451448,0.3131716,2.83111557616,0,0,-10.961006,68.5, -1.6, 4.3,0,0,1024,1024,1684,1024,70.4,-90,99,4.124,4.113,4.125,4.118,0,0,16.466,85.91,6,P-GPS,
0.313741552622937,36.8846537591005,5975.9220622925,140.091868,0,0.98170606816,15000,2018-03-31 07:07:01,12,0,16.415,5975.9220622925,140.091868,0.3131716,2.83111557616,0,0,-10.961006,68.5, -1.9, 4.5,0,0,1024,1024,1684,1024,70.4,-90,99,4.124,4.113,4.125,4.118,0,0,16.466,85.91,6,P-GPS,
0.313741582914031,36.884653826779,5978.8748182925,143.044624,0,0.98522640948,15200,2018-03-31 07:07:01,12,0,16.415,5978.8748182925,143.044624,0.3131716,2.83111557616,0,0,-10.737312,68.5, -1.6, 4.9,0,0,1024,1024,1684,1024,70.3,-90,99,4.124,4.113,4.125,4.118,0,0,16.466,85.91,6,P-GPS,
0.31374159286708,36.8846538813438,5980.5152382925,144.685044,0,0.98348428344,15300,2018-03-31 07:07:01,12,0,16.415,5980.5152382925,144.685044,0.3131716,2.83111557616,0,0,-10.961006,68.5, -0.9, 4.5,0,0,1024,1024,1684,1024,70.3,-89.9,99,4.124,4.113,4.125,4.118,0,0,16.466,85.91,6,P-GPS,
0.313741575827857,36.8846539270302,5982.1556582925,146.325464,0,0.97335633036,15400,2018-03-31 07:07:01,12,0,16.415,5982.1556582925,146.325464,0.3131716,2.83111557616,0,0,-10.961006,68.6, -0.6, 4.4,0,0,1024,1024,1684,1024,70.2,-89.9,99,4.124,4.113,4.125,4.118,0,0,16.466,85.91,6,P-GPS,
0.313741570713728,36.8846539644827,5983.7960782925,147.965884,0,0.96836289188,15500,2018-03-31 07:07:02,12,0,16.415,5983.7960782925,147.965884,0.3131716,2.83111557616,0,0,-10.961006,68.6, -0.8, 4.9,0,0,1024,1024,1684,1024,70.2,-90,99,4.124,4.113,4.125,4.118,0,0,16.466,85.91,6,P-GPS,
0.313741502097001,36.8846539727995,5985.4364982925,149.606304,0,0.94329399344,15600,2018-03-31 07:07:02,12,0,16.305,5985.4364982925,149.606304,0.3131716,2.83111557616,0,0,-10.961006,68.5, -1.1, 4.4,0,0,1024,1024,1684,1024,70.2,-89.9,99,4.111,4.099,4.114,4.107,0,0,17.082,87.71,6,P-GPS,
0.313741437867099,36.8846539917319,5987.4050022925,151.574808,0,0.91890094804,15700,2018-03-31 07:07:02,12,0,16.305,5987.4050022925,151.574808,0.3131716,2.83111557616,0,0,-10.961006,68.6, -0.6, 3.7,0,0,1024,1024,1684,1024,70.1,-90,99,4.111,4.099,4.114,4.107,0,0,17.082,87.71,6,P-GPS,
0.313741400655118,36.8846540058942,5989.0454222925,153.215228,0,0.90450790296,15800,2018-03-31 07:07:02,12,0,16.305,5989.0454222925,153.215228,0.3131716,2.83111557616,0,0,-10.961006,68.5, -0.5, 3.7,0,0,1024,1024,1684,1024,70.1,-89.9,99,4.111,4.099,4.114,4.107,0,0,17.082,87.71,6,P-GPS,
0.313741386779554,36.8846540061035,5990.6858422925,154.855648,0,0.89956039624,15900,2018-03-31 07:07:02,12,0,16.305,5990.6858422925,154.855648,0.3131716,2.83111557616,0,0,-11.1847,68.6, -0.7, 3.4,0,0,1024,1024,1684,1024,70.1,-90,99,4.111,4.099,4.114,4.107,0,0,17.082,87.71,6,P-GPS,
0.313741423776784,36.8846539812064,5992.3262622925,156.496068,0,0.91478349384,16000,2018-03-31 07:07:02,12,0,16.305,5992.3262622925,156.496068,0.3131716,2.83111557616,0,0,-11.1847,68.6, -1.9, 4.1,0,0,1024,1024,1684,1024,70,-90,99,4.111,4.099,4.114,4.107,0,0,17.082,87.71,6,P-GPS,
0.313741470411552,36.8846539472911,5993.9666822925,158.136488,0,0.93424543672,16100,2018-03-31 07:07:02,12,0,16.305,5993.9666822925,158.136488,0.3131716,2.83111557616,0,0,-11.1847,68.5, -2.8, 4.9,0,0,1024,1024,1684,1024,70,-90,99,4.111,4.099,4.114,4.107,0,0,17.082,87.71,6,P-GPS,
0.313741483656501,36.8846538974514,5995.6071022925,159.776908,0,0.94346131628,16200,2018-03-31 07:07:02,12,0,16.305,5995.6071022925,159.776908,0.3131716,2.83111557616,0,0,-11.1847,68.5, -2.7, 5.2,0,0,1024,1024,1684,1024,70,-90,99,4.111,4.099,4.114,4.107,0,0,17.082,87.71,6,P-GPS,
0.313741479577249,36.8846538709815,5997.2475222925,161.417328,0,0.94456367852,16300,2018-03-31 07:07:02,12,0,16.305,5997.2475222925,161.417328,0.3131716,2.83111557616,0,0,-10.961006,68.5, -2.2, 4.9,0,0,1024,1024,1684,1024,70,-90,99,4.111,4.099,4.114,4.107,0,0,17.082,87.71,6,P-GPS,
0.31374142381953,36.8846538200712,6000.5283622925,164.698168,0,0.93023625024,16500,2018-03-31 07:07:02,12,0,16.305,6000.5283622925,164.698168,0.3131716,2.83111557616,0,0,-10.961006,68.6, -1.6, 4.1,0,0,1024,1024,1684,1024,69.9,-90,99,4.111,4.099,4.114,4.107,0,0,17.082,87.71,6,P-GPS,
0.313741386297738,36.8846537491247,6002.1687822925,166.338588,0,0.9251476674,16600,2018-03-31 07:07:03,12,0,16.251,6002.1687822925,166.338588,0.3131716,2.83111557616,0,0,-10.961006,68.5, -2.2, 3.8,0,0,1024,1024,1684,1024,69.9,-90,99,4.103,4.09,4.106,4.1,0,0,17.84,87.71,6,P-GPS,
0.313741366369655,36.8846536800646,6003.8092022925,167.979008,0,0.92673559396,16700,2018-03-31 07:07:03,12,0,16.251,6003.8092022925,167.979008,0.3131716,2.83111557616,0,0,-10.961006,68.4, -2.8, 3.9,0,0,1024,1024,1684,1024,69.9,-90,99,4.103,4.09,4.106,4.1,0,0,17.84,87.71,6,P-GPS,
0.313741305281428,36.8846535905654,6005.4496222925,169.619428,0,0.91801512124,16800,2018-03-31 07:07:03,12,0,16.251,6005.4496222925,169.619428,0.3131716,2.83111557616,0,0,-11.1847,68.5, -3.1, 3.9,0,0,1024,1024,1684,1024,69.9,-90,99,4.103,4.09,4.106,4.1,0,0,17.84,87.71,6,P-GPS,
0.313741283256112,36.8846535152472,6007.0900422925,171.259848,0,0.92168310036,16900,2018-03-31 07:07:03,12,0,16.251,6007.0900422925,171.259848,0.3131716,2.83111557616,0,0,-10.961006,68.5, -3.2, 4.7,0,0,1024,1024,1684,1024,69.8,-90,99,4.103,4.09,4.106,4.1,0,0,17.84,87.71,6,P-GPS,
0.313741258817239,36.8846534085778,6008.7304622925,172.900268,0,0.9305610534,17000,2018-03-31 07:07:03,12,0,16.251,6008.7304622925,172.900268,0.3131716,2.83111557616,0,0,-10.961006,68.5, -2.9, 5.3,0,0,1024,1024,1684,1024,69.8,-90,99,4.103,4.09,4.106,4.1,0,0,17.84,87.71,6,P-GPS,
0.313741246841051,36.8846533281073,6010.3708822925,174.540688,0,0.94039373088,17100,2018-03-31 07:07:03,12,0,16.251,6010.3708822925,174.540688,0.3131716,2.83111557616,0,0,-11.1847,68.6, -2.6, 5.8,0,0,1024,1024,1651,1024,69.8,-90,99,4.103,4.09,4.106,4.1,0,0,17.84,87.71,6,P-GPS,
0.313741204837781,36.884653249974,6012.0113022925,176.181108,0,0.94117785164,17200,2018-03-31 07:07:03,12,0,16.251,6012.0113022925,176.181108,0.3131716,2.83111557616,0,0,-10.961006,68.6, -2.9, 5.4,0,0,1024,1024,1651,1024,69.8,-90,99,4.103,4.09,4.106,4.1,0,0,17.84,87.71,6,P-GPS,
0.313741160575859,36.8846531951448,6013.6517222925,177.821528,0,0.93782483316,17300,2018-03-31 07:07:03,12,0,16.251,6013.6517222925,177.821528,0.3131716,2.83111557616,0,0,-10.961006,68.6, -3.2, 5.1,0,0,1024,1024,1584,1024,69.8,-90,99,4.103,4.09,4.106,4.1,0,0,17.84,87.71,6,P-GPS,
0.313741171275346,36.8846531815343,6015.2921422925,179.461948,0,0.94377627692,17400,2018-03-31 07:07:03,12,0,16.251,6015.2921422925,179.461948,0.3131716,2.83111557616,0,0,-10.513618,68.5, -3.5, 4.8,0,0,1024,1024,1584,1024,69.8,-90,99,4.103,4.09,4.106,4.1,0,0,17.84,87.71,6,P-GPS,
0.313741187444981,36.8846531833945,6016.9325622925,181.102368,0,0.94840554216,17500,2018-03-31 07:07:04,12,0,16.251,6016.9325622925,181.102368,0.3131716,2.83111557616,0,0,-10.06623,68.5, -3.4, 4.8,0,0,1024,1024,1555,1024,69.7,-90,99,4.103,4.09,4.106,4.1,0,0,17.84,87.71,6,P-GPS,
0.313741186393413,36.8846531764474,6018.2448982925,182.414704,0,0.94942916424,17600,2018-03-31 07:07:04,12,0,16.251,6018.2448982925,182.414704,0.3131716,2.83111557616,0,0,-9.618842,68.4, -3.8, 5.1,0,0,1024,1024,1570,1024,69.7,-89.9,99,4.103,4.09,4.106,4.1,0,0,17.84,87.71,6,P-GPS,
0.313741180707905,36.8846531683784,6020.8695702925,185.039376,0,0.94925199888,17800,2018-03-31 07:07:04,12,0,16.251,6020.8695702925,185.039376,0.3131716,2.83111557616,0,0,-8.724066,68.6, -2.3, 4.3,0,0,1024,1024,1600,1024,69.7,-89.9,99,4.103,4.09,4.106,4.1,0,0,17.84,87.71,6,P-GPS,
0.313741173969607,36.8846531617985,6022.1819062925,186.351712,0,0.94847115896,17900,2018-03-31 07:07:04,12,0,16.251,6022.1819062925,186.351712,0.3131716,2.83111557616,0,0,-8.500372,68.7, -2.3, 3.6,0,0,1024,1024,1613,1024,69.7,-90,99,4.103,4.09,4.106,4.1,0,0,17.84,87.71,6,P-GPS,
0.31374113949789,36.8846531420932,6023.4942422925,187.664048,0,0.94185042384,18000,2018-03-31 07:07:04,12,0,16.251,6023.4942422925,187.664048,0.3131716,2.83111557616,0,0,-8.724066,68.6, -2.8, 3.7,0,0,1024,1024,1617,1024,69.7,-90,99,4.103,4.09,4.106,4.1,0,0,17.84,87.71,6,P-GPS,
0.31374111905929,36.8846531292103,6024.8065782925,188.976384,0,0.93825134236,18100,2018-03-31 07:07:04,12,0,16.251,6024.8065782925,188.976384,0.3131716,2.83111557616,0,0,-8.94776,68.6, -3.1, 4,0,0,1024,1024,1619,1024,69.7,-90,99,4.103,4.09,4.106,4.1,0,0,17.84,87.71,6,P-GPS,
0.31374107732858,36.8846531185804,6026.1189142925,190.28872,0,0.92785764124,18200,2018-03-31 07:07:04,12,0,16.251,6026.1189142925,190.28872,0.3131716,2.83111557616,0,0,-8.94776,68.6, -3.3, 4.4,0,0,1024,1024,1620,1024,69.7,-90,99,4.103,4.09,4.106,4.1,0,0,17.84,87.71,6,P-GPS,
0.313741046743349,36.8846531262014,6027.4312502925,191.601056,0,0.91710632856,18300,2018-03-31 07:07:04,12,0,16.251,6027.4312502925,191.601056,0.3131716,2.83111557616,0,0,-9.171454,68.6, -3.6, 4.4,0,0,1024,1024,1620,1024,69.7,-90,99,4.103,4.09,4.106,4.1,0,0,17.84,87.71,6,P-GPS,
0.313741014696385,36.8846531512559,6028.7435862925,192.913392,0,0.90228677428,18400,2018-03-31 07:07:04,12,0,16.251,6028.7435862925,192.913392,0.3131716,2.83111557616,0,0,-9.395148,68.6, -3.3, 4,0,0,1024,1024,1620,1024,69.6,-90,99,4.103,4.09,4.106,4.1,0,0,17.84,87.71,6,P-GPS,
0.313740991036111,36.8846531953712,6030.0559222925,194.225728,0,0.88604333544,18500,2018-03-31 07:07:04,12,0,16.251,6030.0559222925,194.225728,0.3131716,2.83111557616,0,0,-9.395148,68.6, -3.1, 3.4,0,0,1024,1024,1621,1024,69.6,-89.9,99,4.103,4.09,4.106,4.1,0,0,17.84,87.71,6,P-GPS,
0.313740918495649,36.8846531943648,6031.6963422925,195.866148,0,0.86452430588,18600,2018-03-31 07:07:05,12,0,16.305,6031.6963422925,195.866148,0.3131716,2.83111557616,0,0,-9.618842,68.6, -2.7, 3.7,0,0,1024,1024,1621,1024,69.6,-90,99,4.103,4.09,4.106,4.1,0,0,17.84,87.71,6,P-GPS,
0.3137408721082,36.8846531973352,6033.0086782925,197.178484,0,0.85013782248,18700,2018-03-31 07:07:05,12,0,16.305,6033.0086782925,197.178484,0.3131716,2.83111557616,0,0,-9.618842,68.6, -3.1, 4,0,0,1024,1024,1619,1024,69.6,-90,99,4.103,4.09,4.106,4.1,0,0,17.84,87.71,6,P-GPS,
0.313740840848182,36.8846532106266,6034.3210142925,198.49082,0,0.83806105044,18800,2018-03-31 07:07:05,12,0,16.305,6034.3210142925,198.49082,0.3131716,2.83111557616,0,0,-9.842536,68.6, -3.1, 4.1,0,0,1024,1024,1620,1024,69.6,-90,99,4.103,4.09,4.106,4.1,0,0,17.84,87.71,6,P-GPS,
0.313740825623045,36.8846532387842,6035.9614342925,200.13124,0,0.82753283488,18900,2018-03-31 07:07:05,12,0,16.305,6035.9614342925,200.13124,0.3131716,2.83111557616,0,0,-9.618842,68.6, -3.5, 4.2,0,0,1024,1024,1620,1024,69.6,-90,99,4.103,4.09,4.106,4.1,0,0,17.84,87.71,6,P-GPS,
0.313740745471235,36.8846532152237,6037.2737702925,201.443576,0,0.80918965844,19000,2018-03-31 07:07:05,12,0,16.305,6037.2737702925,201.443576,0.3131716,2.83111557616,0,0,-9.395148,68.6, -3.4, 4.2,0,0,1024,1024,1620,1024,69.6,-90,99,4.103,4.09,4.106,4.1,0,0,17.84,87.71,6,P-GPS,
0.31374067886014,36.8846532166583,6038.5861062925,202.755912,0,0.7897145922,19100,2018-03-31 07:07:05,12,0,16.305,6038.5861062925,202.755912,0.3131716,2.83111557616,0,0,-9.395148,68.6, -3.2, 3.7,0,0,1024,1024,1621,1024,69.6,-89.9,99,4.103,4.09,4.106,4.1,0,0,17.84,87.71,6,P-GPS,
0.313740583316278,36.8846532763191,6041.5388622925,205.708668,0,0.74889766176,19300,2018-03-31 07:07:05,12,0,16.305,6041.5388622925,205.708668,0.3131716,2.83111557616,0,0,-9.618842,68.6, -3, 3.5,0,0,1024,1024,1622,1024,69.6,-90,99,4.103,4.09,4.106,4.1,0,0,17.84,87.71,6,P-GPS,
0.313740530877531,36.8846532857093,6042.8511982925,207.021004,0,0.73191275308,19400,2018-03-31 07:07:05,12,0,16.305,6042.8511982925,207.021004,0.3131716,2.83111557616,0,0,-9.395148,68.6, -2.9, 3.5,0,0,1024,1024,1622,1024,69.6,-90,99,4.103,4.09,4.106,4.1,0,0,17.84,87.71,6,P-GPS,
0.313740490624635,36.8846533028714,6044.1635342925,208.33334,0,0.71662075784,19500,2018-03-31 07:07:05,12,0,16.305,6044.1635342925,208.33334,0.3131716,2.83111557616,0,0,-9.395148,68.6, -3.1, 3.4,0,0,1024,1024,1623,1024,69.5,-90,99,4.103,4.09,4.106,4.1,0,0,17.84,87.71,6,P-GPS,
0.313740433065246,36.8846532933661,6045.4758702925,209.645676,0,0.70293965504,19600,2018-03-31 07:07:06,12,0,16.387,6045.4758702925,209.645676,0.3131716,2.83111557616,0,0,-9.395148,68.6, -3.2, 3.5,0,0,1024,1024,1624,1024,69.5,-90,99,4.136,4.118,4.127,4.117,0,0,15.758,87.71,6,P-GPS,
0.313740394157241,36.8846533048027,6047.1162902925,211.286096,0,0.68954726616,19700,2018-03-31 07:07:06,12,0,16.387,6047.1162902925,211.286096,0.3131716,2.83111557616,0,0,-9.618842,68.6, -3.3, 3.4,0,0,1024,1024,1624,1024,69.5,-89.9,99,4.136,4.118,4.127,4.117,0,0,15.758,87.71,6,P-GPS,
0.313740313849304,36.8846532981693,6048.4286262925,212.598432,0,0.66965881408,19800,2018-03-31 07:07:06,12,0,16.387,6048.4286262925,212.598432,0.3131716,2.83111557616,0,0,-9.395148,68.6, -3, 3.6,0,0,1024,1024,1625,1024,69.5,-89.9,99,4.136,4.118,4.127,4.117,0,0,15.758,87.71,6,P-GPS,
0.313740252238143,36.8846533128359,6049.7409622925,213.910768,0,0.64979988956,19900,2018-03-31 07:07:06,12,0,16.387,6049.7409622925,213.910768,0.3131716,2.83111557616,0,0,-9.395148,68.6, -3, 3.4,0,0,1024,1024,1626,1024,69.5,-90,99,4.136,4.118,4.127,4.117,0,0,15.758,87.71,6,P-GPS,
0.313740146950486,36.8846533134959,6051.0532982925,215.223104,0,0.6228838782,20000,2018-03-31 07:07:06,12,0,16.387,6051.0532982925,215.223104,0.3131716,2.83111557616,0,0,-9.618842,68.6, -2.8, 3.4,0,0,1024,1024,1626,1024,69.5,-89.9,99,4.136,4.118,4.127,4.117,0,0,15.758,87.71,6,P-GPS,
0.313740064209653,36.8846533355164,6052.3656342925,216.53544,0,0.5966863708,20100,2018-03-31 07:07:06,12,0,16.387,6052.3656342925,216.53544,0.3131716,2.83111557616,0,0,-9.618842,68.6, -2.9, 3.4,0,0,1024,1024,1629,1024,69.5,-90,99,4.136,4.118,4.127,4.117,0,0,15.758,87.71,6,P-GPS,
0.313739963978416,36.8846533684884,6054.0060542925,218.17586,0,0.5638615666,20200,2018-03-31 07:07:06,12,0,16.387,6054.0060542925,218.17586,0.3131716,2.83111557616,0,0,-9.618842,68.6, -2.9, 3.3,0,0,1024,1024,1629,1024,69.5,-90,99,4.136,4.118,4.127,4.117,0,0,15.758,87.71,6,P-GPS,
0.313739901230602,36.8846534326645,6055.3183902925,219.488196,0,0.531250017,20300,2018-03-31 07:07:06,12,0,16.387,6055.3183902925,219.488196,0.3131716,2.83111557616,0,0,-9.618842,68.6, -2.8, 3.3,0,0,1024,1024,1627,1024,69.5,-90,99,4.136,4.118,4.127,4.117,0,0,15.758,87.71,6,P-GPS,
0.313739787702814,36.8846535889354,6058.2711462925,222.440952,0,0.46088584152,20500,2018-03-31 07:07:06,12,0,16.387,6058.2711462925,222.440952,0.3131716,2.83111557616,0,0,-9.842536,68.5, -2.4, 3,0,0,1024,1024,1629,1024,69.5,-90,99,4.136,4.118,4.127,4.117,0,0,15.758,87.71,6,P-GPS,
0.313739759876777,36.8846536879426,6059.5834822925,223.753288,0,0.42680775644,20600,2018-03-31 07:07:07,12,0,16.333,6059.5834822925,223.753288,0.3131716,2.83111557616,0,0,-9.842536,68.5, -2.3, 2.7,0,0,1024,1024,1627,1024,69.5,-90,98,4.108,4.096,4.109,4.098,0,0,16.926,87.71,6,P-GPS,
0.313739755518451,36.8846537866452,6061.2239022925,225.393708,0,0.3994094616,20700,2018-03-31 07:07:07,12,0,16.333,6061.2239022925,225.393708,0.3131716,2.83111557616,0,0,-10.06623,68.5, -2, 3.1,0,0,1024,1024,1628,1024,69.4,-89.9,98,4.108,4.096,4.109,4.098,0,0,16.926,87.71,6,P-GPS,
0.313739771362295,36.8846539191876,6062.8643222925,227.034128,0,0.37107612736,20800,2018-03-31 07:07:07,12,0,16.333,6062.8643222925,227.034128,0.3131716,2.83111557616,0,0,-9.842536,68.5, -1.8, 3.2,0,0,1024,1024,1628,1024,69.4,-89.9,98,4.108,4.096,4.109,4.098,0,0,16.926,87.71,6,P-GPS,
0.313739783491251,36.8846540378947,6064.1766582925,228.346464,0,0.34890749148,20900,2018-03-31 07:07:07,12,0,16.333,6064.1766582925,228.346464,0.3131716,2.83111557616,0,0,-9.842536,68.6, -1.9, 3.2,0,0,1024,1024,1627,1024,69.4,-90,98,4.108,4.096,4.109,4.098,0,0,16.926,87.71,6,P-GPS,
0.313739757617006,36.8846541219222,6065.4889942925,229.6588,0,0.324782818792,21000,2018-03-31 07:07:07,12,0,16.333,6065.4889942925,229.6588,0.3131716,2.83111557616,0,0,-9.618842,68.6, -1.9, 2.7,0,0,1024,1024,1627,1024,69.4,-90,98,4.108,4.096,4.109,4.098,0,0,16.926,87.71,6,P-GPS,
0.313739738724206,36.8846541991048,6067.1294142925,231.29922,0,0.305521991404,21100,2018-03-31 07:07:07,12,0,16.333,6067.1294142925,231.29922,0.3131716,2.83111557616,0,0,-9.618842,68.6, -1.9, 2.6,0,0,1024,1024,1628,1024,69.4,-89.9,98,4.108,4.096,4.109,4.098,0,0,16.926,87.71,6,P-GPS,
0.313739814899559,36.8846543465455,6070.0821702925,234.251976,0,0.312958343348,21300,2018-03-31 07:07:07,12,0,16.333,6070.0821702925,234.251976,0.3131716,2.83111557616,0,0,-9.842536,68.5, -1.9, 3.5,0,0,1024,1024,1627,1024,69.4,-89.9,98,4.108,4.096,4.109,4.098,0,0,16.926,87.71,6,P-GPS,
0.313739867381968,36.8846544529071,6073.0349262925,237.204732,0,0.324395679672,21500,2018-03-31 07:07:07,12,0,16.333,6073.0349262925,237.204732,0.3131716,2.83111557616,0,0,-9.842536,68.5, -1.8, 3.7,0,0,1024,1024,1628,1024,69.4,-90,98,4.108,4.096,4.109,4.098,0,0,16.926,87.71,6,P-GPS,
0.313739851868902,36.884654505448,6074.3472622925,238.517068,0,0.316901584944,21600,2018-03-31 07:07:08,12,0,16.278,6074.3472622925,238.517068,0.3131716,2.83111557616,0,0,-9.842536,68.4, -2, 3.4,0,0,1024,1024,1628,1024,69.4,-90,98,4.099,4.087,4.101,4.094,0,0,16.996,87.71,6,P-GPS,
0.313739830812714,36.8846545708547,6075.6595982925,239.829404,0,0.308492135856,21700,2018-03-31 07:07:08,12,0,16.278,6075.6595982925,239.829404,0.3131716,2.83111557616,0,0,-9.842536,68.5, -2, 2.5,0,0,1024,1024,1628,1024,69.4,-90,98,4.099,4.087,4.101,4.094,0,0,16.996,87.71,6,P-GPS,
0.313739776066564,36.8846546686408,6077.3000182925,241.469824,0,0.290996072304,21800,2018-03-31 07:07:08,12,0,16.278,6077.3000182925,241.469824,0.3131716,2.83111557616,0,0,-9.842536,68.5, -1.9, 1.9,0,0,1024,1024,1627,1024,69.3,-89.9,98,4.099,4.087,4.101,4.094,0,0,16.996,87.71,6,P-GPS,
0.313739756339797,36.8846547660999,6078.6123542925,242.78216,0,0.290759851824,21900,2018-03-31 07:07:08,12,0,16.278,6078.6123542925,242.78216,0.3131716,2.83111557616,0,0,-9.842536,68.5, -1.7, 2.7,0,0,1024,1024,1627,1024,69.3,-89.9,98,4.099,4.087,4.101,4.094,0,0,16.996,87.71,6,P-GPS,
0.313739754569271,36.8846548365882,6079.9246902925,244.094496,0,0.297692594828,22000,2018-03-31 07:07:08,12,0,16.278,6079.9246902925,244.094496,0.3131716,2.83111557616,0,0,-9.618842,68.5, -2, 3.4,0,0,1024,1024,1627,1024,69.3,-90,98,4.099,4.087,4.101,4.094,0,0,16.996,87.71,6,P-GPS,
0.313739752159072,36.8846549267584,6081.5651102925,245.734916,0.223694,0.309417988904,22100,2018-03-31 07:07:08,12,0,16.278,6081.5651102925,245.734916,0.3131716,2.83111557616,0,0.223694,-9.618842,68.5, -2.5, 2.7,0,0,1024,1024,1627,1024,69.3,-90,98,4.099,4.087,4.101,4.094,0,0,16.996,87.71,6,P-GPS,
0.313739747857436,36.8846550666515,6082.8774462925,247.047252,0.223694,0.33310040436,22200,2018-03-31 07:07:08,12,0,16.278,6082.8774462925,247.047252,0.3131716,2.83111557616,0,0.223694,-9.618842,68.5, -1.2, 1.8,0,0,1024,1024,1627,1024,69.3,-89.9,98,4.099,4.087,4.101,4.094,0,0,16.996,87.71,6,P-GPS,
0.313739785898193,36.8846552169651,6084.1897822925,248.359588,0.223694,0.3767880698,22300,2018-03-31 07:07:08,12,0,16.278,6084.1897822925,248.359588,0.3131716,2.83111557616,0,0.223694,-9.842536,68.6, -0.2, 2.5,0,0,1024,1024,1627,1024,69.3,-89.9,98,4.099,4.087,4.101,4.094,0,0,16.996,87.71,6,P-GPS,
0.313739801432734,36.8846553144018,6085.8302022925,250.000008,0.223694,0.40435040664,22400,2018-03-31 07:07:08,12,0,16.278,6085.8302022925,250.000008,0.3131716,2.83111557616,0,0.223694,-10.06623,68.6, 0, 2.8,0,0,1024,1024,1625,1024,69.3,-90,98,4.099,4.087,4.101,4.094,0,0,16.996,87.71,6,P-GPS,
0.313739850167178,36.8846554425705,6088.7829582925,252.952764,0,0.449639122,22600,2018-03-31 07:07:09,13,0,16.251,6088.7829582925,252.952764,0.3131716,2.83111557616,0,0,-9.842536,68.7, -0.1, 3.3,0,0,1024,1024,1622,1024,69.3,-89.9,98,4.099,4.087,4.101,4.094,0,0,16.996,87.71,6,P-GPS,
