latitude,longitude,altitude(feet),ascent(feet),speed(mph),distance(feet),time(millisecond),datetime(utc),satellites,voltage(v),max_altitude(feet),max_ascent(feet),max_speed(mph),max_distance(feet),compass_heading(degrees), pitch(degrees), roll(degrees),isPhoto,isVideo,rc_elevator,rc_aileron,rc_throttle,rc_rudder,gimbal_heading(degrees),gimbal_pitch(degrees),battery_percent,voltageCell1,voltageCell2,voltageCell3,voltageCell4,voltageCell5,voltageCell6,battery_temperature(f),flycStateRaw,flycState,message
0.318045825061427,36.886931090957,5838.0825680522,0,0,0,100,2017-11-11 05:39:20,15,0,5838.0825680522,0,0,0,14.4, -3, 4.5,0,0,364,364,364,1684,19.2,-12,99,4.301,4.301,4.302,4.301,0,0,75.11,41,Motors_Started,
0.318045824066854,36.8869310965749,5838.0825680522,0,0,0.00208153878052,200,2017-11-11 05:39:20,15,0,5838.0825680522,0,0,0.00208153878052,14.4, -3, 4.5,0,0,364,364,364,1684,19.2,-12,99,4.301,4.301,4.302,4.301,0,0,75.11,41,Motors_Started,
0.318045825180914,36.8869311178133,5838.0825680522,0,0,0.0097984583188,300,2017-11-11 05:39:20,15,0,5838.0825680522,0,0,0.0097984583188,14.4, -3, 4.5,0,0,364,364,364,1684,19.2,-12,99,4.301,4.301,4.302,4.301,0,0,75.11,41,Motors_Started,
0.318045824877616,36.8869311332138,5838.0825680522,0,0,0.0154172577112,400,2017-11-11 05:39:20,15,0,5838.0825680522,0,0,0.0154172577112,14.4, -3, 4.5,0,0,364,364,364,1684,19.2,-12,99,4.301,4.301,4.302,4.301,0,0,75.11,41,Motors_Started,
0.318045826314311,36.8869311479922,5838.0825680522,0,0,0.0208139442356,500,2017-11-11 05:39:20,15,0,5838.0825680522,0,0,0.0208139442356,14.4, -3, 4.5,0,0,364,364,364,1684,19.2,-12,99,4.301,4.301,4.302,4.301,0,0,75.11,41,Motors_Started,
0.318045825775499,36.8869311539918,5838.0825680522,0,0,0.0229993117596,600,2017-11-11 05:39:21,15,0,5838.0825680522,0,0,0.0229993117596,14.4, -3, 4.5,0,0,364,364,364,1684,19.2,-12,99,4.301,4.301,4.302,4.301,0,0,75.11,41,Motors_Started,
0.318045826529265,36.8869311632642,5838.0825680522,0,0,0.0263862541252,700,2017-11-11 05:39:21,15,0,5838.0825680522,0,0,0.0263862541252,14.4, -3, 4.5,0,0,364,364,364,1684,19.2,-12,99,4.301,4.301,4.302,4.301,0,0,75.11,41,Motors_Started,
0.318045825132671,36.8869311364277,5838.0825680522,0,0,0.0165896986936,800,2017-11-11 05:39:21,15,0,5838.0825680522,0,0,0.0263862541252,14.4, -3, 4.6,0,0,364,364,364,1684,19.2,-12,99,4.301,4.301,4.302,4.301,0,0,75.11,41,Motors_Started,
0.318045824833648,36.8869311111157,5838.0825680522,0,0,0.0073552495792,900,2017-11-11 05:39:21,15,0,5838.0825680522,0,0,0.0263862541252,14.4, -3, 4.5,0,0,364,364,364,1684,19.2,-12,99,4.301,4.301,4.302,4.301,0,0,75.11,41,Motors_Started,
0.318045823073911,36.8869310783674,5838.0825680522,0,0,0.0046501313824,1000,2017-11-11 05:39:21,15,17.176,5838.0825680522,0,0,0.0263862541252,14.4, -3, 4.6,0,0,454,378,457,1656,19.2,-12,99,4.301,4.301,4.302,4.301,0,0,75.11,41,Motors_Started,Setting new Return-To-Home altitude to 30m (98 ft). Setting new Maximum Flight Altitude to 150m (492 ft)
0.318045821216467,36.8869310638818,5838.0825680522,0,0,0.009977362524,1100,2017-11-11 05:39:21,15,17.176,5838.0825680522,0,0,0.0263862541252,14.5, -2.9, 4.7,0,0,454,378,457,1656,19.2,-12,99,4.301,4.301,4.302,4.301,0,0,75.11,41,Motors_Started,
0.318045819744964,36.8869310434827,5838.0825680522,0,0,0.017428970374,1200,2017-11-11 05:39:21,15,17.176,5838.0825680522,0,0,0.0263862541252,14.4, -3.1, 4.5,0,0,1024,1003,1024,1106,19.2,-12,99,4.301,4.301,4.302,4.301,0,0,75.11,41,Motors_Started,
0.31804582599025,36.8869310330573,5838.0825680522,0,0,0.0211270676052,1300,2017-11-11 05:39:21,15,17.176,5838.0825680522,0,0,0.0263862541252,14.4, -3, 4.5,0,0,1024,1024,1024,1024,17.5,-12,99,4.301,4.301,4.302,4.301,0,0,75.11,41,Motors_Started,
0.318045820302503,36.8869310512434,5838.0825680522,0,0,0.0145929138528,1400,2017-11-11 05:39:21,15,17.176,5838.0825680522,0,0,0.0263862541252,14.4, -2.8, 4.7,0,0,1024,1024,1024,1024,16.5,-12,99,4.301,4.301,4.302,4.301,0,0,75.11,41,Motors_Started,
0.318045821988349,36.8869310782357,5838.0825680522,0,0,0.0047748033024,1500,2017-11-11 05:39:21,15,17.176,5838.0825680522,0,0,0.0263862541252,14.5, -2.9, 4.6,0,0,1024,1024,1024,1024,16,-12,99,4.301,4.301,4.302,4.301,0,0,75.11,41,Motors_Started,
0.318045824235195,36.8869311021388,5838.0825680522,0,0,0.004090715354,1600,2017-11-11 05:39:22,15,17.176,5838.0825680522,0,0,0.0263862541252,14.4, -3, 4.5,0,0,1024,1024,1024,1024,15.7,-12,99,4.301,4.301,4.302,4.301,0,0,75.11,10,Assisted_Takeoff,
0.318045829590536,36.8869311203817,5838.0825680522,0,0,0.0108618441796,1700,2017-11-11 05:39:22,15,17.176,5838.0825680522,0,0,0.0263862541252,14.4, -3.1, 4.5,0,0,1024,1024,1024,1024,15.6,-12,99,4.301,4.301,4.302,4.301,0,0,75.11,10,Assisted_Takeoff,
0.318045827382774,36.8869311350814,5838.0825680522,0,0,0.0161207682324,1800,2017-11-11 05:39:22,15,17.176,5838.0825680522,0,0,0.0263862541252,14.4, -3, 4.5,0,0,1024,1024,1024,1024,15.4,-12,99,4.301,4.301,4.302,4.301,0,0,75.11,10,Assisted_Takeoff,
0.318045829979124,36.8869311486613,5838.0825680522,0,0,0.0211293641932,1900,2017-11-11 05:39:22,15,17.176,5838.0825680522,0,0,0.0263862541252,14.4, -3.1, 4.5,0,0,1024,1024,1024,1024,15.4,-12,99,4.301,4.301,4.302,4.301,0,0,75.11,10,Assisted_Takeoff,
0.318045829948998,36.886931154844,5838.0825680522,0,0,0.0233768708268,2000,2017-11-11 05:39:22,15,17.204,5838.0825680522,0,0,0.0263862541252,14.4, -3, 4.6,0,0,1024,1024,1024,1024,15.3,-12,99,4.288,4.288,4.285,4.281,0,0,76.91,10,Assisted_Takeoff,
0.318045830964943,36.8869311653765,5838.0825680522,0,0,0.0272367790868,2100,2017-11-11 05:39:22,15,17.204,5838.0825680522,0,0,0.0272367790868,14.4, -3.1, 4.5,0,0,1024,1024,1024,1024,15.2,-12,99,4.288,4.288,4.285,4.281,0,0,76.91,10,Assisted_Takeoff,
0.318045831221627,36.8869311661141,5838.0825680522,0,0,0.0275125336888,2200,2017-11-11 05:39:22,15,17.204,5838.0825680522,0,0,0.0275125336888,14.4, -3, 4.5,0,0,1024,1024,1024,1024,15.2,-12,99,4.288,4.288,4.285,4.281,0,0,76.91,10,Assisted_Takeoff,
0.318045831698964,36.886931172801,5838.0825680522,0,0,0.0299583014836,2300,2017-11-11 05:39:22,15,17.204,5838.0825680522,0,0,0.0299583014836,14.4, -3.1, 4.5,0,0,1024,1024,1024,1024,15.2,-12,99,4.288,4.288,4.285,4.281,0,0,76.91,10,Assisted_Takeoff,
0.318045858881969,36.8869311700298,5838.0825680522,0,0,0.0313773304004,2400,2017-11-11 05:39:22,15,17.204,5838.0825680522,0,0,0.0313773304004,14.4, -3, 4.5,0,0,1024,1024,1024,1024,15.1,-12,99,4.288,4.288,4.285,4.281,0,0,76.91,10,Assisted_Takeoff,
0.318045888983349,36.8869311747157,5838.0825680522,0,0,0.03844160228,2500,2017-11-11 05:39:22,15,17.204,5838.0825680522,0,0,0.03844160228,14.4, -3.1, 4.5,0,0,1024,1024,1024,1024,15.1,-12,99,4.288,4.288,4.285,4.281,0,0,76.91,10,Assisted_Takeoff,
0.318045916037707,36.8869311712941,5838.0825680522,0,0,0.04428149748,2600,2017-11-11 05:39:23,15,17.204,5838.0825680522,0,0,0.04428149748,14.4, -3, 4.5,0,0,1024,1024,1024,1024,15.1,-12,99,4.288,4.288,4.285,4.281,0,0,76.91,10,Assisted_Takeoff,
0.318045949890412,36.886931169336,5838.0825680522,0,0,0.053776904608,2800,2017-11-11 05:39:23,15,17.204,5838.0825680522,0,0,0.053776904608,14.4, -3, 4.5,0,0,1024,1024,1024,1024,15.1,-12,99,4.288,4.288,4.285,4.281,0,0,76.91,10,Assisted_Takeoff,
0.318045962289792,36.8869311729755,5838.0825680522,0,0,0.05832841394,2900,2017-11-11 05:39:23,15,17.204,5838.0825680522,0,0,0.05832841394,14.4, -3.1, 4.5,0,0,1024,1024,1024,1024,15.1,-12,99,4.288,4.288,4.285,4.281,0,0,76.91,10,Assisted_Takeoff,
0.318045967948024,36.88693116797,5838.0825680522,0,0,0.059221786672,3000,2017-11-11 05:39:23,15,17.176,5838.0825680522,0,0,0.059221786672,14.4, -3.1, 4.5,0,0,1024,1024,1024,1024,15,-12,99,4.288,4.288,4.285,4.281,0,0,76.91,10,Assisted_Takeoff,
0.318045975220248,36.8869311711485,5838.0825680522,0,0,0.062108269704,3100,2017-11-11 05:39:23,15,17.176,5838.0825680522,0,0,0.062108269704,14.4, -3.1, 4.5,0,0,1024,1024,1024,1024,15,-12,99,4.288,4.288,4.285,4.281,0,0,76.91,10,Assisted_Takeoff,
0.318045974750238,36.8869311664727,5838.0825680522,0,0,0.061169949464,3200,2017-11-11 05:39:23,15,17.176,5838.0825680522,0,0,0.062108269704,14.4, -3, 4.5,0,0,1024,1024,1024,1024,15,-12,99,4.288,4.288,4.285,4.281,0,0,76.91,10,Assisted_Takeoff,
0.318045977425364,36.8869311694404,5838.0825680522,0,0,0.06253116998,3300,2017-11-11 05:39:23,15,17.176,5838.0825680522,0,0,0.06253116998,14.4, -3.1, 4.5,0,0,1024,1024,1024,1024,15,-12,99,4.288,4.288,4.285,4.281,0,0,76.91,10,Assisted_Takeoff,
0.318045973163116,36.8869311384752,5838.0825680522,0,0,0.056748033312,3400,2017-11-11 05:39:23,15,17.176,5838.0825680522,0,0,0.06253116998,14.4, -3.1, 4.5,0,0,1024,1024,1024,1024,15,-12,99,4.288,4.288,4.285,4.281,0,0,76.91,10,Assisted_Takeoff,
0.318045973401886,36.8869311111548,5838.0825680522,0,0,0.054621392824,3500,2017-11-11 05:39:23,15,17.176,5838.0825680522,0,0,0.06253116998,14.4, -3.1, 4.5,0,0,1024,1024,1024,1024,15,-12,99,4.288,4.288,4.285,4.281,0,0,76.91,10,Assisted_Takeoff,
0.318045967923801,36.8869310771806,5838.0825680522,0,0,0.052365159156,3600,2017-11-11 05:39:24,15,17.176,5838.0825680522,0,0,0.06253116998,14.4, -3.1, 4.5,0,0,1024,1024,1024,1024,15,-12,99,4.288,4.288,4.285,4.281,0,0,76.91,10,Assisted_Takeoff,
0.318045967793729,36.8869310613487,5838.0825680522,0,0,0.053184384904,3700,2017-11-11 05:39:24,15,17.176,5838.0825680522,0,0,0.06253116998,14.4, -3.1, 4.5,0,0,1024,1024,1024,1024,15,-12,99,4.288,4.288,4.285,4.281,0,0,76.91,10,Assisted_Takeoff,
0.318045962677972,36.8869310407399,5838.0825680522,0,0,0.053447508272,3800,2017-11-11 05:39:24,15,17.176,5838.0825680522,0,0,0.06253116998,14.4, -3.1, 4.5,0,0,1024,1024,1024,1024,15,-12,99,4.288,4.288,4.285,4.281,0,0,76.91,10,Assisted_Takeoff,
0.318045962375692,36.886931034106,5838.0825680522,0,0,0.054223098848,3900,2017-11-11 05:39:24,15,17.176,5838.0825680522,0,0,0.06253116998,14.4, -3.1, 4.5,0,0,1024,1024,1024,1024,15,-12,99,4.288,4.288,4.285,4.281,0,0,76.91,10,Assisted_Takeoff,
0.318045983359618,36.886931000142,5838.0825680522,0,0,0.066584319716,4000,2017-11-11 05:39:24,15,17.176,5838.0825680522,0,0,0.066584319716,14.4, -3.1, 4.5,0,0,1024,1024,1024,1024,15,-12,99,4.295,4.294,4.294,4.293,0,0,76.91,10,Assisted_Takeoff,
0.318046012904884,36.8869309692303,5838.0825680522,0,0,0.081666013112,4100,2017-11-11 05:39:24,15,17.176,5838.0825680522,0,0,0.081666013112,14.4, -3.1, 4.5,0,0,1024,1024,1024,1024,15,-12,99,4.295,4.294,4.294,4.293,0,0,76.91,10,Assisted_Takeoff,
0.318046038068822,36.8869309359628,5838.0825680522,0,0,0.096111879716,4200,2017-11-11 05:39:24,15,17.176,5838.0825680522,0,0,0.096111879716,14.4, -3.1, 4.5,0,0,1024,1024,1024,1024,15,-12,99,4.295,4.294,4.294,4.293,0,0,76.91,10,Assisted_Takeoff,
0.318046056999687,36.8869309207325,5838.0825680522,0,0,0.104966866876,4300,2017-11-11 05:39:24,15,17.176,5838.0825680522,0,0,0.104966866876,14.4, -3.1, 4.5,0,1,1024,1024,1024,1024,15,-12,99,4.295,4.294,4.294,4.293,0,0,76.91,10,Assisted_Takeoff,
0.318046068765602,36.8869309074128,5838.0825680522,0,0,0.111311355268,4400,2017-11-11 05:39:24,15,17.176,5838.0825680522,0,0,0.111311355268,14.4, -3.1, 4.5,0,1,1024,1024,1024,1024,15,-12,99,4.295,4.294,4.294,4.293,0,0,76.91,10,Assisted_Takeoff,
0.318046079085459,36.8869309027439,5838.0825680522,0,0,0.115347444636,4500,2017-11-11 05:39:24,15,17.176,5838.0825680522,0,0,0.115347444636,14.4, -3.1, 4.5,0,1,1024,1024,1024,1024,15,-12,99,4.295,4.294,4.294,4.293,0,0,76.91,10,Assisted_Takeoff,
0.318046080973233,36.8869308984701,5838.0825680522,0,0,0.116832024736,4600,2017-11-11 05:39:25,15,17.176,5838.0825680522,0,0,0.116832024736,14.4, -3.1, 4.5,0,1,1024,1024,1024,1024,15,-12,99,4.295,4.294,4.294,4.293,0,0,76.91,10,Assisted_Takeoff,
0.318046087999765,36.8869309008752,5838.0825680522,0,0,0.118374675704,4700,2017-11-11 05:39:25,15,17.176,5838.0825680522,0,0,0.118374675704,14.4, -3.1, 4.5,0,1,1024,1024,1024,1024,15,-12,99,4.295,4.294,4.294,4.293,0,0,76.91,10,Assisted_Takeoff,
0.318046086571213,36.8869309028505,5838.0825680522,0,0,0.117530515572,4800,2017-11-11 05:39:25,15,17.176,5838.0825680522,0,0,0.118374675704,14.4, -3.1, 4.5,0,1,1024,1024,1024,1024,15,-12,99,4.295,4.294,4.294,4.293,0,0,76.91,10,Assisted_Takeoff,
0.318046090322944,36.8869309084807,5838.0825680522,0,0,0.117468179612,4900,2017-11-11 05:39:25,15,17.176,5838.0825680522,0,0,0.118374675704,14.4, -3.1, 4.5,0,1,1024,1024,1024,1024,15,-12,99,4.295,4.294,4.294,4.293,0,0,76.91,10,Assisted_Takeoff,
0.318046115415841,36.8869309119237,5838.0825680522,0,0,0.124454728392,5000,2017-11-11 05:39:25,15,17.176,5838.0825680522,0,0,0.124454728392,14.4, -3.1, 4.5,0,1,1024,1024,1024,1024,15,-12,99,4.294,4.295,4.296,4.295,0,0,76.91,10,Assisted_Takeoff,
0.318046148113165,36.8869309187455,5838.0825680522,0,0,0.133565949156,5100,2017-11-11 05:39:25,15,17.176,5838.0825680522,0,0,0.133565949156,14.4, -3.1, 4.5,0,1,1024,1024,1034,1024,15,-12,99,4.294,4.295,4.296,4.295,0,0,76.91,10,Assisted_Takeoff,
0.318046172897268,36.8869309218973,5838.0825680522,0,0,0.141103022888,5200,2017-11-11 05:39:25,15,17.176,5838.0825680522,0,0,0.141103022888,14.4, -3.1, 4.5,0,1,1024,1024,1024,1024,15,-12,99,4.294,4.295,4.296,4.295,0,0,76.91,10,Assisted_Takeoff,
0.318046194098591,36.8869309292175,5838.0825680522,0,0,0.1470062383,5300,2017-11-11 05:39:25,15,17.176,5838.0825680522,0,0,0.1470062383,14.4, -3.1, 4.5,0,1,1024,1024,1024,1024,15,-12,99,4.294,4.295,4.296,4.295,0,0,76.91,10,Assisted_Takeoff,
0.318046204277587,36.8869309320658,5838.0825680522,0,0,0.150010503488,5400,2017-11-11 05:39:25,15,17.176,5838.0825680522,0,0,0.150010503488,14.4, -3.1, 4.5,0,1,1024,1024,1024,1024,15,-12,99,4.294,4.295,4.296,4.295,0,0,76.91,10,Assisted_Takeoff,
0.318046216613254,36.8869309396252,5838.0825680522,0,0,0.153155844796,5500,2017-11-11 05:39:25,15,17.176,5838.0825680522,0,0,0.153155844796,14.4, -3.1, 4.5,0,1,1024,1024,1024,1024,15,-12,99,4.294,4.295,4.296,4.295,0,0,76.91,10,Assisted_Takeoff,
0.318046218061348,36.8869309701885,5838.0825680522,0,0,0.150002957556,5600,2017-11-11 05:39:26,15,17.176,5838.0825680522,0,0,0.153155844796,14.4, -3.1, 4.5,0,1,1024,1024,1024,1024,15,-12,99,4.294,4.295,4.296,4.295,0,0,76.91,10,Assisted_Takeoff,
0.31804622486458,36.8869310078187,5838.0825680522,0,0,0.148988193744,5700,2017-11-11 05:39:26,15,17.176,5838.0825680522,0,0,0.153155844796,14.4, -3.1, 4.5,0,1,1024,1024,1024,1024,15,-12,99,4.294,4.295,4.296,4.295,0,0,76.91,10,Assisted_Takeoff,
0.318046220592968,36.8869310375393,5838.0825680522,0,0,0.145619427232,5800,2017-11-11 05:39:26,15,17.176,5838.0825680522,0,0,0.153155844796,14.4, -3.2, 4.5,0,1,1024,1024,1024,1024,15,-12,99,4.294,4.295,4.296,4.295,0,0,76.91,10,Assisted_Takeoff,
0.318046224508358,36.8869310636221,5838.0825680522,0,0,0.146078744832,5900,2017-11-11 05:39:26,15,17.176,5838.0825680522,0,0,0.153155844796,14.4, -3.1, 4.5,0,1,1024,1024,1024,1024,15,-12,99,4.294,4.295,4.296,4.295,0,0,76.91,10,Assisted_Takeoff,
0.318046219197188,36.8869310485311,5838.0825680522,0,0,0.14463091014,6000,2017-11-11 05:39:26,15,17.176,5838.0825680522,0,0,0.153155844796,14.4, -3.1, 4.5,0,1,1024,1024,1024,1024,15,-12,99,4.294,4.295,4.295,4.294,0,0,76.91,10,Assisted_Takeoff,
0.318046220754184,36.886931034767,5838.0825680522,0,0,0.145816605716,6100,2017-11-11 05:39:26,15,17.176,5838.0825680522,0,0,0.153155844796,14.4, -3.1, 4.5,0,1,1024,1024,1035,1024,15,-12,99,4.294,4.295,4.295,4.294,0,0,76.91,10,Assisted_Takeoff,
0.318046214072271,36.8869310105433,5838.0825680522,0,0,0.144930778916,6200,2017-11-11 05:39:26,15,17.176,5838.0825680522,0,0,0.153155844796,14.4, -3.2, 4.5,0,1,1024,1024,1035,1024,15,-12,99,4.294,4.295,4.295,4.294,0,0,76.91,10,Assisted_Takeoff,
0.318046214783494,36.8869310006297,5838.0825680522,0,0,0.145958994172,6300,2017-11-11 05:39:26,15,17.176,5838.0825680522,0,0,0.153155844796,14.4, -3.1, 4.5,0,1,1024,1024,1041,1024,15,-12,99,4.294,4.295,4.295,4.294,0,0,76.91,10,Assisted_Takeoff,
0.318046211536173,36.8869309757695,5838.0825680522,0,0,0.147134519144,6500,2017-11-11 05:39:26,15,17.176,5838.0825680522,0,0,0.153155844796,14.4, -3.1, 4.5,0,1,1024,1024,1063,1024,15,-12,99,4.294,4.295,4.295,4.294,0,0,76.91,10,Assisted_Takeoff,
0.318046232598264,36.8869309641568,5838.0825680522,0,0,0.15572014934,6600,2017-11-11 05:39:27,15,17.176,5838.0825680522,0,0,0.15572014934,14.4, -3.2, 4.5,0,1,1024,1024,1112,1024,15,-12,99,4.294,4.295,4.295,4.294,0,0,76.91,10,Assisted_Takeoff,
0.318046265464335,36.8869309622131,5838.0825680522,0,0,0.167405517168,6700,2017-11-11 05:39:27,15,17.176,5838.0825680522,0,0,0.167405517168,14.4, -3.1, 4.5,0,1,1024,1024,1160,1024,15,-12,99,4.294,4.295,4.295,4.294,0,0,76.91,10,Assisted_Takeoff,
0.318046288960339,36.8869309552404,5838.0825680522,0,0,0.176347446588,6800,2017-11-11 05:39:27,15,17.176,5838.0825680522,0,0,0.176347446588,14.5, -3.1, 4.5,0,1,1024,1024,1220,1024,14.9,-12,99,4.294,4.295,4.295,4.294,0,0,76.91,10,Assisted_Takeoff,
0.318046309705698,36.8869309570293,5838.0825680522,0,0,0.183449152852,6900,2017-11-11 05:39:27,15,17.176,5838.0825680522,0,0,0.183449152852,14.5, -3.1, 4.6,0,1,1024,1024,1220,1024,15,-12,99,4.294,4.295,4.295,4.294,0,0,76.91,10,Assisted_Takeoff,
0.318046318309378,36.8869309280821,5838.0825680522,0,0,0.189518378768,7000,2017-11-11 05:39:27,15,17.176,5838.0825680522,0,0,0.189518378768,14.5, -3.1, 4.6,0,1,1024,1024,1275,1024,15,-12,99,4.294,4.295,4.295,4.294,0,0,76.91,10,Assisted_Takeoff,
0.318046329275931,36.8869309046003,5838.0825680522,0,0,0.196124678192,7100,2017-11-11 05:39:27,15,17.176,5838.0825680522,0,0,0.196124678192,14.4, -2.8, 4.8,0,1,1024,1024,1343,1024,15,-12,99,4.294,4.295,4.295,4.294,0,0,76.91,10,Assisted_Takeoff,
0.318046329367938,36.8869308875276,5838.0825680522,0,0,0.198401253068,7200,2017-11-11 05:39:27,15,17.176,5838.0825680522,0,0,0.198401253068,14.5, -1.8, 4.6,0,1,1024,1024,1411,1024,15,-12,99,4.294,4.295,4.295,4.294,0,0,76.91,10,Assisted_Takeoff,
0.318046341644777,36.8869309180148,5838.0825680522,0,0,0.198756239956,7300,2017-11-11 05:39:27,15,17.176,5838.0825680522,0,0,0.198756239956,14.7, 1.8, 2.1,0,1,1024,1024,1457,1024,15,-12,99,4.294,4.295,4.295,4.294,0,0,76.91,10,Assisted_Takeoff,
0.318046317993664,36.8869309681725,5838.0825680522,0,0,0.18534121328,7400,2017-11-11 05:39:27,15,17.176,5838.0825680522,0,0,0.198756239956,14.9, 4.1, -0.4,0,1,1024,1024,1491,1024,14.9,-12,99,4.294,4.295,4.295,4.294,0,0,76.91,6,GPS_Atti,
0.318046221112441,36.8869309823097,5838.0825680522,0,0.223694,0.149837275136,7500,2017-11-11 05:39:27,15,17.176,5838.0825680522,0,0.223694,0.198756239956,15, 2.1, -0.5,0,1,1024,1024,1509,1024,14.9,-12,99,4.294,4.295,4.295,4.294,0,0,76.91,6,GPS_Atti,
0.318046040680236,36.8869309459449,5838.0825680522,0,0.223694,0.094804136892,7600,2017-11-11 05:39:28,15,17.176,5838.0825680522,0,0.223694,0.198756239956,15, 0.3, -0.2,0,1,1024,1024,1537,1024,15,-12,99,4.294,4.295,4.295,4.294,0,0,76.91,6,GPS_Atti,
0.318045860686896,36.8869308818936,5838.4106520522,0.328084,0.223694,0.077375002476,7700,2017-11-11 05:39:28,15,17.176,5838.4106520522,0.328084,0.223694,0.198756239956,14.9, -0.4, 0.4,0,1,1024,1024,1545,1024,14.9,-12,99,4.294,4.295,4.295,4.294,0,0,76.91,6,GPS_Atti,
0.318045685527388,36.8869307646623,5839.0668200522,0.984252,0.223694,0.12947506976,7800,2017-11-11 05:39:28,15,17.176,5839.0668200522,0.984252,0.223694,0.198756239956,14.9, -0.3, 0.9,0,1,1024,1024,1545,1024,14.9,-12,99,4.294,4.295,4.295,4.294,0,0,76.91,6,GPS_Atti,
0.318045516097358,36.8869306407216,5839.3949040522,1.312336,0.447388,0.19922408774,7900,2017-11-11 05:39:28,15,17.176,5839.3949040522,1.312336,0.447388,0.19922408774,14.9, -0.4, 0.8,0,1,1024,1024,1540,1024,14.9,-12,99,4.294,4.295,4.295,4.294,0,0,76.91,6,GPS_Atti,
0.318045322113852,36.8869305156927,5840.3791560522,2.296588,0.50107456,0.27878773858,8000,2017-11-11 05:39:28,15,17.067,5840.3791560522,2.296588,0.50107456,0.27878773858,14.7, -1.9, 0.1,0,1,1024,1024,1539,1024,14.9,-12,99,4.294,4.279,4.289,4.288,0,0,76.91,6,GPS_Atti,Home Point Recorded. RTH Altitude:  30m.
0.31804515217534,36.8869303872753,5841.0353240522,2.952756,0.31540854,0.35522310848,8100,2017-11-11 05:39:28,15,17.067,5841.0353240522,2.952756,0.50107456,0.35522310848,14.6, -3.3, 0,0,1,1024,1024,1538,1024,14.9,-12,99,4.294,4.279,4.289,4.288,0,0,76.91,6,GPS_Atti,
0.318045044795946,36.886930204116,5842.0195760522,3.937008,0.223694,0.43096786156,8200,2017-11-11 05:39:28,15,17.067,5842.0195760522,3.937008,0.50107456,0.43096786156,14.7, -3.6, 1.1,0,1,1024,1024,1537,1024,14.9,-12,99,4.294,4.279,4.289,4.288,0,0,76.91,6,GPS_Atti,
0.318045001679024,36.8869300152456,5843.3319120522,5.249344,0.223694,0.4942421418,8300,2017-11-11 05:39:28,15,17.067,5843.3319120522,5.249344,0.50107456,0.4942421418,14.7, -3.1, 2,0,1,1024,1024,1533,1024,14.9,-12,99,4.294,4.279,4.289,4.288,0,0,76.91,6,GPS_Atti,
0.318045014960002,36.8869298198215,5844.3161640522,6.233596,0.223694,0.54994424332,8400,2017-11-11 05:39:28,15,17.067,5844.3161640522,6.233596,0.50107456,0.54994424332,14.8, -1.9, 2.6,0,1,1024,1024,1534,1024,14.9,-12,99,4.294,4.279,4.289,4.288,0,0,76.91,6,GPS_Atti,
0.318045037091981,36.8869296404847,5845.6285000522,7.545932,0.223694,0.60224411376,8500,2017-11-11 05:39:28,15,17.067,5845.6285000522,7.545932,0.50107456,0.60224411376,14.9, -1, 3.3,0,1,1024,1024,1534,1024,15,-12,99,4.294,4.279,4.289,4.288,0,0,76.91,6,GPS_Atti,
0.318045016463463,36.8869294787784,5846.6127520522,8.530184,0.223694,0.65803151712,8600,2017-11-11 05:39:29,15,17.067,5846.6127520522,8.530184,0.50107456,0.65803151712,14.8, -1.2, 3.3,0,1,1024,1024,1531,1024,15,-12,99,4.294,4.279,4.289,4.288,0,0,76.91,6,GPS_Atti,
0.318044934838318,36.8869293468966,5847.9250880522,9.84252,0.31540854,0.71441275252,8700,2017-11-11 05:39:29,15,17.067,5847.9250880522,9.84252,0.50107456,0.71441275252,14.8, -2.5, 2.6,0,1,1024,1024,1532,1024,15,-12,99,4.294,4.279,4.289,4.288,0,0,76.91,6,GPS_Atti,
0.318044810093402,36.8869292096966,5849.2374240522,11.154856,0.31540854,0.7798884764,8800,2017-11-11 05:39:29,15,17.067,5849.2374240522,11.154856,0.50107456,0.7798884764,14.8, -3.2, 3.4,0,1,1024,1024,1534,1024,14.9,-12,99,4.294,4.279,4.289,4.288,0,0,76.91,6,GPS_Atti,
0.318044682771879,36.8869290819661,5850.2216760522,12.139108,0.31540854,0.84316931832,8900,2017-11-11 05:39:29,15,17.067,5850.2216760522,12.139108,0.50107456,0.84316931832,14.8, -3.4, 3.9,0,1,1024,1024,1537,1024,14.9,-12,99,4.294,4.279,4.289,4.288,0,0,76.91,6,GPS_Atti,
0.318044509288041,36.8869289511243,5851.5340120522,13.451444,0.223694,0.91649281148,9000,2017-11-11 05:39:29,15,16.71,5851.5340120522,13.451444,0.50107456,0.91649281148,14.9, -3.6, 3.9,0,1,1024,1024,1538,1024,14.9,-12,99,4.152,4.159,4.142,4.154,0,0,76.91,6,GPS_Atti,
0.31804432310926,36.8869288629441,5852.5182640522,14.435696,0.447388,0.98033467704,9100,2017-11-11 05:39:29,15,16.71,5852.5182640522,14.435696,0.50107456,0.98033467704,14.8, -4.3, 3,0,1,1024,1024,1539,1024,14.9,-12,99,4.152,4.159,4.142,4.154,0,0,76.91,6,GPS_Atti,
0.318044104407195,36.8869288098754,5853.8306000522,15.748032,0.447388,1.04246394412,9200,2017-11-11 05:39:29,15,16.71,5853.8306000522,15.748032,0.50107456,1.04246394412,14.7, -4.9, 1.5,0,1,1024,1024,1523,1024,14.9,-12,99,4.152,4.159,4.142,4.154,0,0,76.91,6,GPS_Atti,
0.318043904699302,36.8869288008359,5855.1429360522,17.060368,0.447388,1.09042326324,9300,2017-11-11 05:39:29,15,16.71,5855.1429360522,17.060368,0.50107456,1.09042326324,14.7, -5.4, 0.9,0,1,1024,1024,1516,1024,14.9,-12,99,4.152,4.159,4.142,4.154,0,0,76.91,6,GPS_Atti,
0.318043682782282,36.8869288421189,5856.1271880522,18.04462,0.447388,1.13317917012,9400,2017-11-11 05:39:29,15,16.71,5856.1271880522,18.04462,0.50107456,1.13317917012,14.7, -5.5, 0.1,0,1,1024,1024,1529,1024,14.9,-12,99,4.152,4.159,4.142,4.154,0,0,76.91,6,GPS_Atti,
0.318043485817502,36.8869289232815,5857.1114400522,19.028872,0.447388,1.16356302936,9500,2017-11-11 05:39:29,15,16.71,5857.1114400522,19.028872,0.50107456,1.16356302936,14.8, -6, -0.6,0,1,1024,1024,1530,1024,14.9,-12,99,4.152,4.159,4.142,4.154,0,0,76.91,6,GPS_Atti,
0.318043289065235,36.8869289981634,5858.4237760522,20.341208,0.223694,1.1996227418,9600,2017-11-11 05:39:30,15,16.71,5858.4237760522,20.341208,0.50107456,1.1996227418,14.7, -6.3, -1.1,0,1,1024,1024,1540,1024,14.9,-12,99,4.152,4.159,4.142,4.154,0,0,76.91,6,GPS_Atti,
0.318043153643832,36.8869290697479,5859.4080280522,21.32546,0.223694,1.22219820184,9700,2017-11-11 05:39:30,15,16.71,5859.4080280522,21.32546,0.50107456,1.22219820184,14.7, -5.8, -1.4,0,1,1024,1024,1565,1024,14.9,-12,99,4.152,4.159,4.142,4.154,0,0,76.91,6,GPS_Atti,
0.318043033776105,36.8869291175402,5860.7203640522,22.637796,0.223694,1.24720476432,9800,2017-11-11 05:39:30,15,16.71,5860.7203640522,22.637796,0.50107456,1.24720476432,14.7, -5.5, -1.2,0,1,1024,1024,1559,1024,14.9,-12,99,4.152,4.159,4.142,4.154,0,0,76.91,6,GPS_Atti,
0.318042957893871,36.8869291521872,5861.7046160522,23.622048,0,1.26278875432,9900,2017-11-11 05:39:30,15,16.71,5861.7046160522,23.622048,0.50107456,1.26278875432,14.8, -5.3, -1.5,0,1,1024,1024,1568,1024,14.9,-12,99,4.152,4.159,4.142,4.154,0,0,76.91,6,GPS_Atti,
0.318042887778772,36.8869291530891,5862.6888680522,24.6063,0,1.28387799384,10000,2017-11-11 05:39:30,15,16.656,5862.6888680522,24.6063,0.50107456,1.28387799384,14.7, -5, -1.4,0,1,1024,1024,1565,1024,14.9,-12,99,4.152,4.159,4.142,4.154,0,0,76.91,6,GPS_Atti,
0.318042857179903,36.8869291281578,5864.0012040522,25.918636,0,1.29820542212,10100,2017-11-11 05:39:30,15,16.656,5864.0012040522,25.918636,0.50107456,1.29820542212,14.7, -4.8, -0.6,0,1,1024,1024,1578,1024,14.9,-12,99,4.152,4.159,4.142,4.154,0,0,76.91,6,GPS_Atti,
0.318042817393352,36.8869290581508,5865.3135400522,27.230972,0,1.32447182716,10200,2017-11-11 05:39:30,15,16.656,5865.3135400522,27.230972,0.50107456,1.32447182716,14.7, -4.3, 0.4,0,1,1024,1024,1578,1024,14.9,-12,99,4.152,4.159,4.142,4.154,0,0,76.91,6,GPS_Atti,
0.31804279756094,36.8869289887358,5866.2977920522,28.215224,0,1.34475398004,10300,2017-11-11 05:39:30,15,16.656,5866.2977920522,28.215224,0.50107456,1.34475398004,14.7, -4.3, 1.3,0,1,1024,1024,1580,1024,14.9,-12.2,99,4.152,4.159,4.142,4.154,0,0,76.91,6,GPS_Atti,
0.318042772643304,36.8869289460711,5867.6101280522,29.52756,0,1.3611220908,10400,2017-11-11 05:39:30,15,16.656,5867.6101280522,29.52756,0.50107456,1.3611220908,14.8, -4.7, 1.2,0,1,1024,1024,1579,1024,14.9,-13.2,99,4.152,4.159,4.142,4.154,0,0,76.91,6,GPS_Atti,
0.318042768304315,36.8869289414457,5868.9224640522,30.839896,0,1.3633858704,10500,2017-11-11 05:39:30,15,16.656,5868.9224640522,30.839896,0.50107456,1.3633858704,14.8, -4.9, 0.4,0,1,1024,1024,1580,1024,14.9,-15.9,99,4.152,4.159,4.142,4.154,0,0,76.91,6,GPS_Atti,
0.318042765730966,36.8869289292425,5870.2348000522,32.152232,0,1.36671920384,10600,2017-11-11 05:39:31,15,16.656,5870.2348000522,32.152232,0.50107456,1.36671920384,14.8, -4.5, 0.5,0,1,1024,1024,1580,1024,14.9,-19.5,99,4.152,4.159,4.142,4.154,0,0,76.91,6,GPS_Atti,
0.318042781630686,36.8869289062768,5871.5471360522,33.464568,0,1.36685371828,10700,2017-11-11 05:39:31,15,16.656,5871.5471360522,33.464568,0.50107456,1.36685371828,14.7, -4.7, 0.9,0,1,1024,1024,1582,1024,14.9,-23.6,99,4.152,4.159,4.142,4.154,0,0,76.91,6,GPS_Atti,
0.318042761888652,36.8869288770544,5872.8594720522,34.776904,0,1.37893049032,10800,2017-11-11 05:39:31,15,16.656,5872.8594720522,34.776904,0.50107456,1.37893049032,14.8, -4.4, 1.2,0,1,1024,1024,1586,1024,14.9,-28.2,99,4.152,4.159,4.142,4.154,0,0,76.91,6,GPS_Atti,
0.318042754460505,36.8869288513228,5873.8437240522,35.761156,0,1.38664046432,10900,2017-11-11 05:39:31,15,16.656,5873.8437240522,35.761156,0.50107456,1.38664046432,14.8, -4, 1.1,0,1,1024,1024,1585,1024,14.9,-33.2,99,4.152,4.159,4.142,4.154,0,0,76.91,6,GPS_Atti,
0.318042717412183,36.8869287997487,5875.1560600522,37.073492,0,1.40866474324,11000,2017-11-11 05:39:31,15,16.464,5875.1560600522,37.073492,0.50107456,1.40866474324,14.7, -4.4, 0.7,0,1,1024,1024,1584,1024,14.9,-38.2,99,4.173,4.184,4.172,4.178,0,0,76.91,6,GPS_Atti,
0.318042709017961,36.8869287389011,5876.4683960522,38.385828,0,1.42439637104,11100,2017-11-11 05:39:31,15,16.464,5876.4683960522,38.385828,0.50107456,1.42439637104,14.7, -4.8, 0.6,0,1,1024,1024,1584,1024,14.9,-43.2,99,4.173,4.184,4.172,4.178,0,0,76.91,6,GPS_Atti,
0.318042707111053,36.8869286653895,5877.7807320522,39.698164,0,1.44126316948,11200,2017-11-11 05:39:31,15,16.464,5877.7807320522,39.698164,0.50107456,1.44126316948,14.6, -5.2, 1.6,0,1,1024,1024,1583,1024,14.9,-48.2,99,4.173,4.184,4.172,4.178,0,0,76.91,6,GPS_Atti,
0.318042742800032,36.8869285949522,5879.0930680522,41.0105,0,1.44704072872,11300,2017-11-11 05:39:31,15,16.464,5879.0930680522,41.0105,0.50107456,1.44704072872,14.6, -5.2, 1.9,0,1,1024,1024,1582,1024,14.9,-53.2,99,4.173,4.184,4.172,4.178,0,0,76.91,6,GPS_Atti,
0.31804278800523,36.8869284967801,5880.4054040522,42.322836,0,1.45726382616,11400,2017-11-11 05:39:31,15,16.464,5880.4054040522,42.322836,0.50107456,1.45726382616,14.7, -5, 1.9,0,1,1024,1024,1581,1024,14.9,-58.2,99,4.173,4.184,4.172,4.178,0,0,76.91,6,GPS_Atti,
0.318042868637228,36.8869283876066,5881.7177400522,43.635172,0,1.46160109664,11500,2017-11-11 05:39:31,15,16.464,5881.7177400522,43.635172,0.50107456,1.46160109664,14.7, -4.7, 1.9,0,1,1024,1024,1581,1024,14.9,-63.3,99,4.173,4.184,4.172,4.178,0,0,76.91,6,GPS_Atti,
0.318042957323102,36.8869282542409,5883.0300760522,44.947508,0,1.47168967964,11600,2017-11-11 05:39:32,15,16.464,5883.0300760522,44.947508,0.50107456,1.47168967964,14.6, -4.5, 2,0,1,1024,1024,1576,1024,14.9,-69,99,4.173,4.184,4.172,4.178,0,0,76.91,6,GPS_Atti,
0.318043072257458,36.8869281212222,5884.3424120522,46.259844,0,1.47739177956,11700,2017-11-11 05:39:32,15,16.464,5884.3424120522,46.259844,0.50107456,1.47739177956,14.6, -4.4, 2.4,0,1,1024,1024,1576,1024,14.9,-69,99,4.173,4.184,4.172,4.178,0,0,76.91,6,GPS_Atti,
0.318043191621181,36.8869279819426,5885.6547480522,47.57218,0.223694,1.48653876148,11800,2017-11-11 05:39:32,15,16.464,5885.6547480522,47.57218,0.50107456,1.48653876148,14.6, -4.2, 3.3,0,1,1024,1024,1576,1024,14.9,-74.6,99,4.173,4.184,4.172,4.178,0,0,76.91,6,GPS_Atti,
0.318043327771313,36.8869278688711,5886.9670840522,48.884516,0.223694,1.48731303972,11900,2017-11-11 05:39:32,15,16.464,5886.9670840522,48.884516,0.50107456,1.48731303972,14.6, -3.6, 3.8,0,1,1024,1024,1576,1024,14.9,-80.2,99,4.173,4.184,4.172,4.178,0,0,76.91,6,GPS_Atti,
0.318043429651248,36.8869277975954,5888.2794200522,50.196852,0,1.48578744912,12000,2017-11-11 05:39:32,15,16.519,5888.2794200522,50.196852,0.50107456,1.48731303972,14.7, -3.3, 3.6,0,1,1024,1024,1578,1024,14.9,-85.9,99,4.154,4.162,4.152,4.163,0,0,76.91,6,GPS_Atti,
0.318043510674072,36.8869277719087,5889.5917560522,51.509188,0,1.47627301312,12100,2017-11-11 05:39:32,15,16.519,5889.5917560522,51.509188,0.50107456,1.48731303972,14.7, -3.1, 2.4,0,1,1024,1024,1579,1024,14.9,-89.9,99,4.154,4.162,4.152,4.163,0,0,76.91,6,GPS_Atti,
0.318043538479753,36.8869277576335,5890.9040920522,52.821524,0,1.47478351176,12200,2017-11-11 05:39:32,15,16.519,5890.9040920522,52.821524,0.50107456,1.48731303972,14.7, -3.9, 1.9,0,1,1024,1024,1578,1024,14.9,-90,99,4.154,4.162,4.152,4.163,0,0,76.91,6,GPS_Atti,
0.31804355776338,36.8869277428614,5892.2164280522,54.13386,0,1.47527563776,12300,2017-11-11 05:39:32,15,16.519,5892.2164280522,54.13386,0.50107456,1.48731303972,14.8, -4.8, 2.4,0,1,1024,1024,1578,1024,14.9,-90,99,4.154,4.162,4.152,4.163,0,0,76.91,6,GPS_Atti,
0.318043543252315,36.8869277319832,5893.5287640522,55.446196,0,1.48153219964,12400,2017-11-11 05:39:32,15,16.519,5893.5287640522,55.446196,0.50107456,1.48731303972,14.8, -4.8, 2.1,0,1,1024,1024,1576,1024,14.9,-90,99,4.154,4.162,4.152,4.163,0,0,76.91,6,GPS_Atti,
0.318043532391408,36.8869277431344,5894.8411000522,56.758532,0,1.48040359068,12500,2017-11-11 05:39:32,15,16.519,5894.8411000522,56.758532,0.50107456,1.48731303972,14.8, -4.8, 1.4,0,1,1024,1024,1575,1024,14.9,-90,99,4.154,4.162,4.152,4.163,0,0,76.91,6,GPS_Atti,
0.318043488922131,36.886927733937,5896.4815200522,58.398952,0,1.4921752446,12600,2017-11-11 05:39:33,15,16.519,5896.4815200522,58.398952,0.50107456,1.4921752446,14.7, -4.9, 1.2,0,1,1024,1024,1576,1024,14.9,-90,99,4.154,4.162,4.152,4.163,0,0,76.91,6,GPS_Atti,
0.318043456468056,36.8869277242257,5897.7938560522,59.711288,0,1.50186684596,12700,2017-11-11 05:39:33,15,16.519,5897.7938560522,59.711288,0.50107456,1.50186684596,14.7, -5.2, 1.1,0,1,1024,1024,1580,1024,14.9,-90,99,4.154,4.162,4.152,4.163,0,0,76.91,6,GPS_Atti,
0.318043414708238,36.8869276938562,5899.1061920522,61.023624,0,1.51970805388,12800,2017-11-11 05:39:33,15,16.519,5899.1061920522,61.023624,0.50107456,1.51970805388,14.8, -5.6, 1.3,0,1,1024,1024,1585,1024,14.9,-90,99,4.154,4.162,4.152,4.163,0,0,76.91,6,GPS_Atti,
0.318043396677292,36.8869276702529,5900.4185280522,62.33596,0,1.53053810672,12900,2017-11-11 05:39:33,15,16.519,5900.4185280522,62.33596,0.50107456,1.53053810672,14.7, -5.5, 1.8,0,1,1024,1024,1600,1024,14.9,-90,99,4.154,4.162,4.152,4.163,0,0,76.91,6,GPS_Atti,
0.318043385802136,36.8869276482897,5901.7308640522,63.648296,0,1.539370128,13000,2017-11-11 05:39:33,15,16.519,5901.7308640522,63.648296,0.50107456,1.539370128,14.7, -5.2, 1.9,0,1,1024,1024,1612,1024,14.9,-90,99,4.158,4.162,4.148,4.157,0,0,76.91,6,GPS_Atti,
0.31804339210625,36.8869276474086,5903.0432000522,64.960632,0,1.538303855,13100,2017-11-11 05:39:33,15,16.519,5903.0432000522,64.960632,0.50107456,1.539370128,14.7, -5, 1.9,0,1,1024,1024,1637,1024,14.9,-90,99,4.158,4.162,4.148,4.157,0,0,76.91,6,GPS_Atti,
0.318043394907174,36.8869276306517,5904.6836200522,66.601052,0,1.54271330396,13200,2017-11-11 05:39:33,15,16.519,5904.6836200522,66.601052,0.50107456,1.54271330396,14.7, -4.8, 2,0,1,1024,1024,1661,1024,14.9,-90,99,4.158,4.162,4.148,4.157,0,0,76.91,6,GPS_Atti,
0.318043403214273,36.8869276287557,5905.9959560522,67.913388,0,1.54153876324,13300,2017-11-11 05:39:33,15,16.519,5905.9959560522,67.913388,0.50107456,1.54271330396,14.8, -4.4, 2,0,1,1024,1024,1684,1024,14.9,-89.9,99,4.158,4.162,4.148,4.157,0,0,76.91,6,GPS_Atti,
0.318043399217665,36.886927609301,5907.6363760522,69.553808,0,1.5481955876,13400,2017-11-11 05:39:33,15,16.519,5907.6363760522,69.553808,0.50107456,1.5481955876,14.8, -4, 1.8,0,1,1024,1024,1684,1024,14.9,-90,99,4.158,4.162,4.148,4.157,0,0,76.91,6,GPS_Atti,
0.318043388451614,36.8869276106917,5909.2767960522,71.194228,0,1.55002629632,13500,2017-11-11 05:39:33,15,16.519,5909.2767960522,71.194228,0.50107456,1.55002629632,14.9, -4, 1.4,0,1,1024,1024,1684,1024,14.9,-90,99,4.158,4.162,4.148,4.157,0,0,76.91,6,GPS_Atti,
0.318043351558401,36.8869276170424,5910.9172160522,72.834648,0,1.55589899992,13600,2017-11-11 05:39:34,15,16.519,5910.9172160522,72.834648,0.50107456,1.55589899992,14.8, -5.4, 1.3,0,1,1024,1024,1684,1024,14.9,-90,99,4.158,4.162,4.148,4.157,0,0,76.91,6,GPS_Atti,
0.318043327718796,36.8869276488143,5912.5576360522,74.475068,0,1.55156172944,13700,2017-11-11 05:39:34,15,16.519,5912.5576360522,74.475068,0.50107456,1.55589899992,14.7, -6, 1.3,0,1,1024,1024,1684,1024,14.9,-90,99,4.158,4.162,4.148,4.157,0,0,76.91,6,GPS_Atti,
0.318043307057098,36.886927656438,5914.1980560522,76.115488,0,1.5537566114,13800,2017-11-11 05:39:34,15,16.519,5914.1980560522,76.115488,0.50107456,1.55589899992,14.7, -5.8, 1.6,0,1,1024,1024,1684,1024,14.9,-89.9,99,4.158,4.162,4.148,4.157,0,0,76.91,6,GPS_Atti,
0.318043309861686,36.8869276667681,5915.8384760522,77.755908,0,1.550114879,13900,2017-11-11 05:39:34,15,16.519,5915.8384760522,77.755908,0.50107456,1.55589899992,14.7, -5.3, 1.8,0,1,1024,1024,1684,1024,14.9,-90,99,4.158,4.162,4.148,4.157,0,0,76.91,6,GPS_Atti,
0.318043300722858,36.886927663111,5917.8069800522,79.724412,0,1.55316277936,14000,2017-11-11 05:39:34,15,16.573,5917.8069800522,79.724412,0.50107456,1.55589899992,14.7, -5.1, 2.2,0,1,1024,1024,1684,1024,14.9,-90,99,4.158,4.162,4.148,4.157,0,0,76.91,6,GPS_Atti,
0.31804330217828,36.8869276741841,5919.4474000522,81.364832,0,1.54959650628,14100,2017-11-11 05:39:34,15,16.573,5919.4474000522,81.364832,0.50107456,1.55589899992,14.7, -4.8, 2.6,0,1,1024,1024,1684,1024,14.9,-89.9,99,4.158,4.162,4.148,4.157,0,0,76.91,6,GPS_Atti,
0.318043267148821,36.886927705728,5921.0878200522,83.005252,0,1.54802498392,14200,2017-11-11 05:39:34,15,16.573,5921.0878200522,83.005252,0.50107456,1.55589899992,14.6, -4.2, 2.5,0,1,1024,1024,1684,1024,14.9,-90,99,4.158,4.162,4.148,4.157,0,0,76.91,6,GPS_Atti,
0.31804322537394,36.8869277667891,5923.0563240522,84.973756,0,1.53965228024,14300,2017-11-11 05:39:34,15,16.573,5923.0563240522,84.973756,0.50107456,1.55589899992,14.7, -4.2, 2.3,0,1,1024,1024,1684,1024,14.9,-90,99,4.158,4.162,4.148,4.157,0,0,76.91,6,GPS_Atti,
0.318043153304708,36.8869278141499,5924.6967440522,86.614176,0,1.54255910448,14400,2017-11-11 05:39:34,15,16.573,5924.6967440522,86.614176,0.50107456,1.55589899992,14.7, -4.6, 2.4,0,1,1024,1024,1684,1024,14.9,-90,99,4.158,4.162,4.148,4.157,0,0,76.91,6,GPS_Atti,
0.318043096152024,36.886927864335,5926.3371640522,88.254596,0,1.54179466876,14500,2017-11-11 05:39:34,15,16.573,5926.3371640522,88.254596,0.50107456,1.55589899992,14.7, -4.8, 2.3,0,1,1024,1024,1684,1024,14.9,-90,99,4.158,4.162,4.148,4.157,0,0,76.91,6,GPS_Atti,
0.318043015361253,36.8869279340443,5927.9775840522,89.895016,0,1.54190293648,14600,2017-11-11 05:39:35,15,16.573,5927.9775840522,89.895016,0.50107456,1.55589899992,14.7, -5, 2.6,0,1,1024,1024,1684,1024,14.9,-90,99,4.158,4.162,4.148,4.157,0,0,76.91,6,GPS_Atti,
0.318042955995513,36.8869280395468,5929.9460880522,91.86352,0,1.52812012764,14700,2017-11-11 05:39:35,15,16.573,5929.9460880522,91.86352,0.50107456,1.55589899992,14.7, -5.1, 2.5,0,1,1024,1024,1684,1024,14.9,-89.9,99,4.158,4.162,4.148,4.157,0,0,76.91,6,GPS_Atti,
0.318042874695853,36.8869281552669,5931.5865080522,93.50394,0,1.5185203898,14800,2017-11-11 05:39:35,15,16.573,5931.5865080522,93.50394,0.50107456,1.55589899992,14.7, -5, 2.6,0,1,1024,1024,1684,1024,14.9,-89.9,99,4.158,4.162,4.148,4.157,0,0,76.91,6,GPS_Atti,
0.318042829084358,36.8869282973247,5933.2269280522,95.14436,0.223694,1.49454729192,14900,2017-11-11 05:39:35,15,16.573,5933.2269280522,95.14436,0.50107456,1.55589899992,14.6, -4.6, 2,0,1,1024,1024,1684,1024,14.9,-89.9,99,4.158,4.162,4.148,4.157,0,0,76.91,6,GPS_Atti,
0.318042784113249,36.8869284840721,5934.8673480522,96.78478,0.31540854,1.46135831448,15000,2017-11-11 05:39:35,15,16.437,5934.8673480522,96.78478,0.50107456,1.55589899992,14.6, -3.9, 1.2,0,1,1024,1024,1684,1024,14.9,-89.9,99,4.123,4.135,4.114,4.131,0,0,76.91,6,GPS_Atti,
0.31804277367248,36.8869286729774,5936.5077680522,98.4252,0.31540854,1.42044952052,15100,2017-11-11 05:39:35,15,16.437,5936.5077680522,98.4252,0.50107456,1.55589899992,14.6, -3.3, 1.5,0,1,1024,1024,1684,1024,14.9,-89.9,99,4.123,4.135,4.114,4.131,0,0,76.91,6,GPS_Atti,
0.318042737028826,36.8869288294271,5938.1481880522,100.06562,0.223694,1.39648626516,15200,2017-11-11 05:39:35,15,16.437,5938.1481880522,100.06562,0.50107456,1.55589899992,14.6, -2.7, 1.5,0,1,1024,1024,1684,1024,14.9,-90,99,4.123,4.135,4.114,4.131,0,0,76.91,6,GPS_Atti,
0.318042701836523,36.8869289633275,5939.7886080522,101.70604,0,1.37878285252,15300,2017-11-11 05:39:35,15,16.437,5939.7886080522,101.70604,0.50107456,1.55589899992,14.7, -2.8, 1.3,0,1,1024,1024,1684,1024,14.9,-90,99,4.123,4.135,4.114,4.131,0,0,76.91,6,GPS_Atti,
0.318042640197068,36.8869290918583,5941.4290280522,103.34646,0,1.3719324586,15400,2017-11-11 05:39:35,15,16.437,5941.4290280522,103.34646,0.50107456,1.55589899992,14.7, -3.4, 1.6,0,1,1024,1024,1684,1024,14.9,-89.9,99,4.123,4.135,4.114,4.131,0,0,76.91,6,GPS_Atti,
0.318042600021726,36.8869292197966,5943.3975320522,105.314964,0,1.36035437424,15500,2017-11-11 05:39:35,15,16.437,5943.3975320522,105.314964,0.50107456,1.55589899992,14.7, -3.6, 1.8,0,1,1024,1024,1684,1024,14.9,-90,99,4.123,4.135,4.114,4.131,0,0,76.91,6,GPS_Atti,
0.318042532953039,36.8869293375627,5945.0379520522,106.955384,0,1.36085634276,15600,2017-11-11 05:39:36,15,16.437,5945.0379520522,106.955384,0.50107456,1.55589899992,14.7, -3.8, 1.6,0,1,1024,1024,1684,1024,14.9,-90,99,4.123,4.135,4.114,4.131,0,0,76.91,6,GPS_Atti,
0.31804247389996,36.8869294367582,5946.6783720522,108.595804,0,1.36351054232,15700,2017-11-11 05:39:36,15,16.437,5946.6783720522,108.595804,0.50107456,1.55589899992,14.6, -4.1, 1.7,0,1,1024,1024,1684,1024,14.9,-90,99,4.123,4.135,4.114,4.131,0,0,76.91,6,GPS_Atti,
0.318042382608982,36.8869295096719,5948.6468760522,110.564308,0,1.38214243268,15800,2017-11-11 05:39:36,15,16.437,5948.6468760522,110.564308,0.50107456,1.55589899992,14.6, -4, 2.3,0,1,1024,1024,1684,1024,14.9,-89.9,99,4.123,4.135,4.114,4.131,0,0,76.91,6,GPS_Atti,
0.318042301964772,36.8869295778412,5950.2872960522,112.204728,0,1.3989337718,15900,2017-11-11 05:39:36,15,16.437,5950.2872960522,112.204728,0.50107456,1.55589899992,14.6, -4.1, 2.7,0,1,1024,1024,1684,1024,14.9,-90,99,4.123,4.135,4.114,4.131,0,0,76.91,6,GPS_Atti,
0.318042200833514,36.886929659082,5951.9277160522,113.845148,0,1.42175529484,16000,2017-11-11 05:39:36,15,16.437,5951.9277160522,113.845148,0.50107456,1.55589899992,14.7, -4.1, 2.3,0,1,1024,1024,1684,1024,14.9,-90,99,4.131,4.138,4.126,4.138,0,0,76.91,6,GPS_Atti,
0.318042123683944,36.8869297500211,5953.5681360522,115.485568,0,1.43633206696,16100,2017-11-11 05:39:36,15,16.437,5953.5681360522,115.485568,0.50107456,1.55589899992,14.6, -4.6, 1.9,0,1,1024,1024,1684,1024,14.9,-90,99,4.131,4.138,4.126,4.138,0,0,76.91,6,GPS_Atti,
0.318042017149102,36.8869298197466,5955.5366400522,117.454072,0,1.46468508624,16200,2017-11-11 05:39:36,15,16.437,5955.5366400522,117.454072,0.50107456,1.55589899992,14.6, -4.8, 2,0,1,1024,1024,1684,1024,14.9,-90,99,4.131,4.138,4.126,4.138,0,0,76.91,6,GPS_Atti,
0.318041941964657,36.8869298867153,5957.1770600522,119.094492,0,1.48331041492,16300,2017-11-11 05:39:36,15,16.437,5957.1770600522,119.094492,0.50107456,1.55589899992,14.6, -4.5, 2.3,0,1,1024,1024,1684,1024,14.9,-89.9,99,4.131,4.138,4.126,4.138,0,0,76.91,6,GPS_Atti,
0.318041877785644,36.8869299498796,5958.8174800522,120.734912,0,1.49912734456,16400,2017-11-11 05:39:36,15,16.437,5958.8174800522,120.734912,0.50107456,1.55589899992,14.6, -4.2, 1.7,0,1,1024,1024,1684,1024,14.9,-90,99,4.131,4.138,4.126,4.138,0,0,76.91,6,GPS_Atti,
0.318041837101006,36.8869300139491,5960.4579000522,122.375332,0,1.50712931332,16500,2017-11-11 05:39:36,15,16.437,5960.4579000522,122.375332,0.50107456,1.55589899992,14.7, -4.6, 0.7,0,1,1024,1024,1684,1024,14.9,-90,99,4.131,4.138,4.126,4.138,0,0,76.91,6,GPS_Atti,
0.318041772606482,36.8869300672238,5962.0983200522,124.015752,0,1.5249836446,16600,2017-11-11 05:39:37,15,16.437,5962.0983200522,124.015752,0.50107456,1.55589899992,14.7, -4.6, 1.4,0,1,1024,1024,1684,1024,14.9,-90,99,4.131,4.138,4.126,4.138,0,0,76.91,6,GPS_Atti,
0.318041738795506,36.8869301300579,5963.7387400522,125.656172,0,1.53153548208,16700,2017-11-11 05:39:37,15,16.437,5963.7387400522,125.656172,0.50107456,1.55589899992,14.7, -4.3, 2.2,0,1,1024,1024,1684,1024,14.9,-89.9,99,4.131,4.138,4.126,4.138,0,0,76.91,6,GPS_Atti,
0.318041671652317,36.886930221307,5965.3791600522,127.296592,0,1.548228396,16800,2017-11-11 05:39:37,15,16.437,5965.3791600522,127.296592,0.50107456,1.55589899992,14.7, -4.1, 1.8,0,1,1024,1024,1684,1024,14.9,-89.9,99,4.131,4.138,4.126,4.138,0,0,76.91,6,GPS_Atti,
0.318041627465304,36.8869303325821,5967.0195800522,128.937012,0,1.5562828582,16900,2017-11-11 05:39:37,15,16.437,5967.0195800522,128.937012,0.50107456,1.5562828582,14.7, -3.3, 1,0,1,1024,1024,1684,1024,14.9,-89.9,99,4.131,4.138,4.126,4.138,0,0,76.91,6,GPS_Atti,
0.318041547237975,36.8869304463259,5968.9880840522,130.905516,0,1.57838259644,17000,2017-11-11 05:39:37,15,16.519,5968.9880840522,130.905516,0.50107456,1.57838259644,14.7, -3.3, 1,0,1,1024,1024,1684,1024,14.9,-89.9,99,4.124,4.131,4.12,4.132,0,0,76.91,6,GPS_Atti,
0.318041477956639,36.8869305482483,5970.6285040522,132.545936,0,1.59834978868,17100,2017-11-11 05:39:37,15,16.519,5970.6285040522,132.545936,0.50107456,1.59834978868,14.7, -3.8, 0.6,0,1,1024,1024,1684,1024,14.9,-90,99,4.124,4.131,4.12,4.132,0,0,76.91,6,GPS_Atti,
0.318041379788335,36.8869306370345,5972.2689240522,134.186356,0,1.63028876608,17200,2017-11-11 05:39:37,15,16.519,5972.2689240522,134.186356,0.50107456,1.63028876608,14.7, -4.5, 0.7,0,1,1024,1024,1684,1024,14.9,-90,99,4.124,4.131,4.12,4.132,0,0,76.91,6,GPS_Atti,
0.318041313896606,36.8869307050154,5973.9093440522,135.826776,0,1.65190950168,17300,2017-11-11 05:39:37,15,16.519,5973.9093440522,135.826776,0.50107456,1.65190950168,14.6, -4.7, 0.7,0,1,1024,1024,1684,1024,14.9,-90,99,4.124,4.131,4.12,4.132,0,0,76.91,6,GPS_Atti,
0.318041250912463,36.8869307469141,5975.8778480522,137.79528,0,1.6735892924,17400,2017-11-11 05:39:37,15,16.519,5975.8778480522,137.79528,0.50107456,1.6735892924,14.6, -4.7, 0.8,0,1,1024,1024,1684,1024,14.9,-90,99,4.124,4.131,4.12,4.132,0,0,76.91,6,GPS_Atti,
0.318041219108138,36.8869307678447,5977.5182680522,139.4357,0,1.68460963396,17500,2017-11-11 05:39:37,15,16.519,5977.5182680522,139.4357,0.50107456,1.68460963396,14.6, -4.8, 1,0,1,1024,1024,1684,1024,14.9,-90,99,4.124,4.131,4.12,4.132,0,0,76.91,6,GPS_Atti,
0.318041160432044,36.8869307779312,5979.1586880522,141.07612,0,1.70571527768,17600,2017-11-11 05:39:38,15,16.519,5979.1586880522,141.07612,0.50107456,1.70571527768,14.6, -4.7, 1.3,0,1,1024,1024,1684,1024,14.9,-90,99,4.124,4.131,4.12,4.132,0,0,76.91,6,GPS_Atti,
0.318041124169039,36.88693079019,5981.1271920522,143.044624,0,1.71862538308,17700,2017-11-11 05:39:38,15,16.519,5981.1271920522,143.044624,0.50107456,1.71862538308,14.6, -4.5, 1.4,0,1,1024,1024,1684,1024,14.9,-90,99,4.124,4.131,4.12,4.132,0,0,76.91,6,GPS_Atti,
0.318041062120437,36.8869307837296,5982.7676120522,144.685044,0,1.74136816596,17800,2017-11-11 05:39:38,15,16.519,5982.7676120522,144.685044,0.50107456,1.74136816596,14.7, -4.4, 1.3,0,1,1024,1024,1684,1024,14.9,-90,99,4.124,4.131,4.12,4.132,0,0,76.91,6,GPS_Atti,
0.318041033244868,36.8869307693944,5984.4080320522,146.325464,0,1.75222446552,17900,2017-11-11 05:39:38,15,16.519,5984.4080320522,146.325464,0.50107456,1.75222446552,14.7, -4.4, 1.5,0,1,1024,1024,1684,1024,14.9,-90,99,4.124,4.131,4.12,4.132,0,0,76.91,6,GPS_Atti,
0.318040975969236,36.8869307357815,5986.0484520522,147.965884,0,1.77392722212,18000,2017-11-11 05:39:38,15,16.464,5986.0484520522,147.965884,0.50107456,1.77392722212,14.7, -4.4, 1.9,0,1,1024,1024,1684,1024,14.9,-90,99,4.124,4.131,4.12,4.132,0,0,76.91,6,GPS_Atti,
0.318040937386512,36.8869307058253,5988.0169560522,149.934388,0,1.78879270816,18100,2017-11-11 05:39:38,15,16.464,5988.0169560522,149.934388,0.50107456,1.78879270816,14.6, -4.6, 1.9,0,1,1024,1024,1684,1024,14.9,-90,99,4.124,4.131,4.12,4.132,0,0,76.91,6,GPS_Atti,
0.318040866330987,36.8869306521989,5989.6573760522,151.574808,0,1.8162566198,18200,2017-11-11 05:39:38,15,16.464,5989.6573760522,151.574808,0.50107456,1.8162566198,14.6, -4.9, 1.9,0,1,1024,1024,1684,1024,14.9,-90,99,4.124,4.131,4.12,4.132,0,0,76.91,6,GPS_Atti,
0.318040824568726,36.8869305979644,5991.2977960522,153.215228,0,1.83327105604,18300,2017-11-11 05:39:38,15,16.464,5991.2977960522,153.215228,0.50107456,1.83327105604,14.6, -4.9, 1.9,0,1,1024,1024,1684,1024,14.9,-90,99,4.124,4.131,4.12,4.132,0,0,76.91,6,GPS_Atti,
0.318040763658407,36.88693052275,5992.9382160522,154.855648,0,1.8582513718,18400,2017-11-11 05:39:38,15,16.464,5992.9382160522,154.855648,0.50107456,1.8582513718,14.6, -5.2, 2,0,1,1024,1024,1684,1024,14.9,-90,99,4.124,4.131,4.12,4.132,0,0,76.91,6,GPS_Atti,
0.318040741192394,36.8869304561689,5994.5786360522,156.496068,0,1.86924874748,18500,2017-11-11 05:39:38,15,16.464,5994.5786360522,156.496068,0.50107456,1.86924874748,14.6, -5.1, 2.3,0,1,1024,1024,1684,1024,14.9,-90,99,4.124,4.131,4.12,4.132,0,0,76.91,6,GPS_Atti,
0.318040706813498,36.8869303637272,5996.5471400522,158.464572,0,1.88614507348,18600,2017-11-11 05:39:39,16,16.464,5996.5471400522,158.464572,0.50107456,1.88614507348,14.7, -4.7, 2.4,0,1,1024,1024,1684,1024,14.9,-89.9,99,4.124,4.131,4.12,4.132,0,0,76.91,6,GPS_Atti,
0.318040692548329,36.8869302768621,5998.1875600522,160.104992,0,1.89600399768,18700,2017-11-11 05:39:39,16,16.464,5998.1875600522,160.104992,0.50107456,1.89600399768,14.7, -4.5, 2.5,0,1,1024,1024,1684,1024,14.9,-90,99,4.124,4.131,4.12,4.132,0,0,76.91,6,GPS_Atti,
0.318040630388993,36.8869301594584,5999.8279800522,161.745412,0,1.92550203012,18800,2017-11-11 05:39:39,16,16.464,5999.8279800522,161.745412,0.50107456,1.92550203012,14.6, -4.7, 2.4,0,1,1024,1024,1684,1024,14.9,-90,99,4.124,4.131,4.12,4.132,0,0,76.91,6,GPS_Atti,
0.318040600840062,36.8869300678432,6001.4684000522,163.385832,0,1.94226056084,18900,2017-11-11 05:39:39,16,16.464,6001.4684000522,163.385832,0.50107456,1.94226056084,14.6, -4.8, 2.3,0,1,1024,1024,1684,1024,14.9,-90,99,4.124,4.131,4.12,4.132,0,0,76.91,6,GPS_Atti,
0.318040559235761,36.8869299726987,6003.1088200522,165.026252,0,1.964074866,19000,2017-11-11 05:39:39,16,16.409,6003.1088200522,165.026252,0.50107456,1.964074866,14.6, -4.9, 2.3,0,1,1024,1024,1684,1024,14.9,-90,99,4.122,4.129,4.116,4.128,0,0,76.91,6,GPS_Atti,
0.318040550698643,36.8869299001223,6004.7492400522,166.666672,0,1.9727854962,19100,2017-11-11 05:39:39,16,16.409,6004.7492400522,166.666672,0.50107456,1.9727854962,14.6, -4.9, 2.5,0,1,1024,1024,1684,1024,14.9,-90,99,4.122,4.129,4.116,4.128,0,0,76.91,6,GPS_Atti,
0.31804051297411,36.886929783574,6006.3896600522,168.307092,0,1.99594494576,19200,2017-11-11 05:39:39,16,16.409,6006.3896600522,168.307092,0.50107456,1.99594494576,14.7, -4.6, 2.6,0,1,1024,1024,1684,1024,14.9,-90,99,4.122,4.129,4.116,4.128,0,0,76.91,6,GPS_Atti,
0.318040491348373,36.8869296749909,6008.3581640522,170.275596,0,2.01340557624,19300,2017-11-11 05:39:39,16,16.409,6008.3581640522,170.275596,0.50107456,2.01340557624,14.7, -4.8, 2.5,0,1,1024,1024,1684,1024,14.9,-90,99,4.122,4.129,4.116,4.128,0,0,76.91,6,GPS_Atti,
0.318040432769172,36.8869295691759,6009.9985840522,171.916016,0,2.04421594468,19400,2017-11-11 05:39:39,16,16.409,6009.9985840522,171.916016,0.50107456,2.04421594468,14.7, -4.7, 2.7,0,1,1024,1024,1684,1024,14.9,-90,99,4.122,4.129,4.116,4.128,0,0,76.91,6,GPS_Atti,
0.318040396344136,36.8869295067685,6011.6390040522,173.556436,0,2.0632710634,19500,2017-11-11 05:39:39,16,16.409,6011.6390040522,173.556436,0.50107456,2.0632710634,14.6, -4.8, 2.4,0,1,1024,1024,1684,1024,14.9,-90,99,4.122,4.129,4.116,4.128,0,0,76.91,6,GPS_Atti,
0.318040323170005,36.8869294285366,6013.2794240522,175.196856,0,2.09699153692,19600,2017-11-11 05:39:40,16,16.409,6013.2794240522,175.196856,0.50107456,2.09699153692,14.6, -5.1, 2.4,0,1,1024,1024,1684,1024,14.9,-90,99,4.122,4.129,4.116,4.128,0,0,76.91,6,GPS_Atti,
0.318040284314517,36.8869293635919,6014.9198440522,176.837276,0,2.11749678692,19700,2017-11-11 05:39:40,16,16.409,6014.9198440522,176.837276,0.50107456,2.11749678692,14.6, -5.1, 2.1,0,1,1024,1024,1684,1024,14.9,-90,99,4.122,4.129,4.116,4.128,0,0,76.91,6,GPS_Atti,
0.318040221606396,36.8869292463194,6016.5602640522,178.477696,0,2.15234258856,19800,2017-11-11 05:39:40,16,16.409,6016.5602640522,178.477696,0.50107456,2.15234258856,14.6, -4.9, 2.1,0,1,1024,1024,1684,1024,14.9,-90,99,4.122,4.129,4.116,4.128,0,0,76.91,6,GPS_Atti,
0.318040197014449,36.8869291329417,6018.5287680522,180.4462,0,2.17410440028,19900,2017-11-11 05:39:40,16,16.409,6018.5287680522,180.4462,0.50107456,2.17410440028,14.6, -4.6, 2.4,0,1,1024,1024,1684,1024,14.9,-89.9,99,4.122,4.129,4.116,4.128,0,0,76.91,6,GPS_Atti,
0.318040136674899,36.8869289874249,6020.1691880522,182.08662,0,2.21275925716,20000,2017-11-11 05:39:40,16,16.409,6020.1691880522,182.08662,0.50107456,2.21275925716,14.7, -4.9, 2.8,0,1,1024,1024,1684,1024,14.9,-90,98,4.12,4.127,4.116,4.129,0,0,76.91,6,GPS_Atti,
0.318040102756853,36.8869288795816,6021.8096080522,183.72704,0,2.23824810312,20100,2017-11-11 05:39:40,16,16.409,6021.8096080522,183.72704,0.50107456,2.23824810312,14.7, -4.9, 2.9,0,1,1024,1024,1684,1024,14.9,-90,98,4.12,4.127,4.116,4.129,0,0,76.91,6,GPS_Atti,
0.318040058223795,36.8869287682112,6023.4500280522,185.36746,0,2.26827763164,20200,2017-11-11 05:39:40,16,16.409,6023.4500280522,185.36746,0.50107456,2.26827763164,14.7, -5, 2.8,0,1,1024,1024,1684,1024,14.9,-90,98,4.12,4.127,4.116,4.129,0,0,76.91,6,GPS_Atti,
0.318040045943699,36.8869286990414,6025.0904480522,187.00788,0,2.28196529612,20300,2017-11-11 05:39:40,16,16.409,6025.0904480522,187.00788,0.50107456,2.28196529612,14.7, -4.9, 2.5,0,1,1024,1024,1684,1024,14.9,-90,98,4.12,4.127,4.116,4.129,0,0,76.91,6,GPS_Atti,
0.318040006382281,36.8869286182835,6026.7308680522,188.6483,0,2.30667330216,20400,2017-11-11 05:39:40,16,16.409,6026.7308680522,188.6483,0.50107456,2.30667330216,14.6, -4.9, 2.2,0,1,1024,1024,1684,1024,14.9,-90,98,4.12,4.127,4.116,4.129,0,0,76.91,6,GPS_Atti,
0.318039991191341,36.886928563768,6028.6993720522,190.616804,0,2.31960965428,20500,2017-11-11 05:39:40,16,16.409,6028.6993720522,190.616804,0.50107456,2.31960965428,14.6, -4.7, 2.1,0,1,1024,1024,1684,1024,14.9,-90,98,4.12,4.127,4.116,4.129,0,0,76.91,6,GPS_Atti,
0.318039938591786,36.8869284721003,6030.3397920522,192.257224,0,2.3506234348,20600,2017-11-11 05:39:41,16,16.409,6030.3397920522,192.257224,0.50107456,2.3506234348,14.6, -4.7, 2.1,0,1,1024,1024,1684,1024,14.9,-90,98,4.12,4.127,4.116,4.129,0,0,76.91,6,GPS_Atti,
0.318039914048692,36.8869284052001,6031.9802120522,193.897644,0,2.36880256924,20700,2017-11-11 05:39:41,16,16.409,6031.9802120522,193.897644,0.50107456,2.36880256924,14.7, -4.7, 2.1,0,1,1024,1024,1684,1024,14.9,-90,98,4.12,4.127,4.116,4.129,0,0,76.91,6,GPS_Atti,
0.318039860003078,36.8869283241082,6033.6206320522,195.538064,0,2.3990650374,20800,2017-11-11 05:39:41,16,16.409,6033.6206320522,195.538064,0.50107456,2.3990650374,14.7, -4.6, 2.2,0,1,1024,1024,1684,1024,14.9,-90,98,4.12,4.127,4.116,4.129,0,0,76.91,6,GPS_Atti,
0.318039830445191,36.8869282755467,6035.2610520522,197.178484,0,2.41633209832,20900,2017-11-11 05:39:41,16,16.409,6035.2610520522,197.178484,0.50107456,2.41633209832,14.6, -4.9, 2,0,1,1024,1024,1684,1024,14.9,-89.9,98,4.12,4.127,4.116,4.129,0,0,76.91,6,GPS_Atti,
0.318039770315711,36.8869281881544,6036.9014720522,198.818904,0,2.4498196322,21000,2017-11-11 05:39:41,16,16.382,6036.9014720522,198.818904,0.50107456,2.4498196322,14.6, -4.5, 2,0,1,1024,1024,1684,1024,14.9,-89.9,98,4.12,4.126,4.114,4.126,0,0,76.91,6,GPS_Atti,
0.318039744280963,36.8869281168049,6038.5418920522,200.459324,0,2.46971464596,21100,2017-11-11 05:39:41,16,16.382,6038.5418920522,200.459324,0.50107456,2.46971464596,14.6, -4.4, 2.3,0,1,1024,1024,1684,1024,14.9,-90,98,4.12,4.126,4.114,4.126,0,0,76.91,6,GPS_Atti,
0.318039698304289,36.8869280330676,6040.1823120522,202.099744,0,2.49828748152,21200,2017-11-11 05:39:41,16,16.382,6040.1823120522,202.099744,0.50107456,2.49828748152,14.6, -4.9, 2,0,1,1024,1024,1684,1024,14.9,-90,98,4.12,4.126,4.114,4.126,0,0,76.91,6,GPS_Atti,
0.31803969442045,36.8869279844338,6041.8227320522,203.740164,0.223694,2.50752632696,21300,2017-11-11 05:39:41,16,16.382,6041.8227320522,203.740164,0.50107456,2.50752632696,14.6, -5.2, 1.4,0,1,1024,1024,1684,1024,14.9,-90,98,4.12,4.126,4.114,4.126,0,0,76.91,6,GPS_Atti,
0.318039670422071,36.886927875604,6043.4631520522,205.380584,0.223694,2.53347777136,21400,2017-11-11 05:39:41,16,16.382,6043.4631520522,205.380584,0.50107456,2.53347777136,14.6, -5.2, 1.6,0,1,1024,1024,1684,1024,14.9,-89.9,98,4.12,4.126,4.114,4.126,0,0,76.91,6,GPS_Atti,
0.318039701370649,36.8869277695063,6044.7754880522,206.69292,0.223694,2.54170283724,21500,2017-11-11 05:39:41,16,16.382,6044.7754880522,206.69292,0.50107456,2.54170283724,14.6, -4.3, 2.7,0,1,1024,1024,1684,1024,14.9,-90,98,4.12,4.126,4.114,4.126,0,0,76.91,6,GPS_Atti,
0.318039723091649,36.8869276522338,6046.7439920522,208.661424,0.223694,2.55546924188,21600,2017-11-11 05:39:42,16,16.382,6046.7439920522,208.661424,0.50107456,2.55546924188,14.6, -3.9, 3.1,0,1,1024,1024,1684,1024,14.9,-90,98,4.12,4.126,4.114,4.126,0,0,76.91,6,GPS_Atti,
0.318039760778729,36.886927573525,6048.3844120522,210.301844,0.223694,2.55778551492,21700,2017-11-11 05:39:42,16,16.382,6048.3844120522,210.301844,0.50107456,2.55778551492,14.6, -4, 3.2,0,1,1024,1024,1684,1024,14.9,-90,98,4.12,4.126,4.114,4.126,0,0,76.91,6,GPS_Atti,
0.318039782330371,36.8869275068861,6050.0248320522,211.942264,0.223694,2.5633038878,21800,2017-11-11 05:39:42,16,16.382,6050.0248320522,211.942264,0.50107456,2.5633038878,14.6, -4.2, 3.2,0,1,1024,1024,1684,1024,14.9,-90,98,4.12,4.126,4.114,4.126,0,0,76.91,6,GPS_Atti,
0.318039847825574,36.886927484272,6051.6652520522,213.582684,0.223694,2.54703420224,21900,2017-11-11 05:39:42,16,16.382,6051.6652520522,213.582684,0.50107456,2.5633038878,14.6, -3.6, 2.7,0,1,1024,1024,1684,1024,14.9,-89.9,98,4.12,4.126,4.114,4.126,0,0,76.91,6,GPS_Atti,
0.31803988652066,36.8869274596345,6052.9775880522,214.89502,0.223694,2.5396326272,22000,2017-11-11 05:39:42,16,16.437,6052.9775880522,214.89502,0.50107456,2.5633038878,14.6, -2.9, 2.7,0,1,1024,1024,1684,1024,14.9,-89.9,98,4.12,4.126,4.114,4.126,0,0,76.91,6,GPS_Atti,
0.318039922733184,36.8869274441195,6054.6180080522,216.53544,0.223694,2.53134194452,22100,2017-11-11 05:39:42,16,16.437,6054.6180080522,216.53544,0.50107456,2.5633038878,14.6, -2.9, 2.9,0,1,1024,1024,1684,1024,14.9,-90,98,4.12,4.126,4.114,4.126,0,0,76.91,6,GPS_Atti,
0.318039893178554,36.8869274113327,6056.2584280522,218.17586,0.223694,2.54680782428,22200,2017-11-11 05:39:42,16,16.437,6056.2584280522,218.17586,0.50107456,2.5633038878,14.6, -3.4, 2.9,0,1,1024,1024,1684,1024,14.9,-90,98,4.12,4.126,4.114,4.126,0,0,76.91,6,GPS_Atti,
0.318039876272048,36.8869273937139,6057.8988480522,219.81628,0.223694,2.55543971432,22300,2017-11-11 05:39:42,16,16.437,6057.8988480522,219.81628,0.50107456,2.5633038878,14.7, -3.6, 2.8,0,1,1024,1024,1684,1024,14.9,-90,98,4.12,4.126,4.114,4.126,0,0,76.91,6,GPS_Atti,
0.318039827687422,36.8869273869724,6059.5392680522,221.4567,0,2.5718012634,22400,2017-11-11 05:39:42,16,16.437,6059.5392680522,221.4567,0.50107456,2.5718012634,14.7, -3.7, 2.6,0,1,1024,1024,1684,1024,14.9,-90,98,4.12,4.126,4.114,4.126,0,0,76.91,6,GPS_Atti,
0.318039789319652,36.8869274017434,6061.5077720522,223.425204,0,2.58090887524,22500,2017-11-11 05:39:42,16,16.437,6061.5077720522,223.425204,0.50107456,2.58090887524,14.7, -3.9, 2.3,0,1,1024,1024,1684,1024,14.9,-89.9,98,4.12,4.126,4.114,4.126,0,0,76.91,6,GPS_Atti,
0.318039719938168,36.8869273874467,6062.8201080522,224.73754,0,2.60524286552,22600,2017-11-11 05:39:43,16,16.437,6062.8201080522,224.73754,0.50107456,2.60524286552,14.7, -3.9, 2.2,0,1,1024,1024,1684,1024,14.9,-89.9,98,4.12,4.126,4.114,4.126,0,0,76.91,6,GPS_Atti,
0.318039698905185,36.8869273790875,6064.4605280522,226.37796,0,2.6133859104,22700,2017-11-11 05:39:43,16,16.437,6064.4605280522,226.37796,0.50107456,2.6133859104,14.7, -4.3, 2,0,1,1024,1024,1684,1024,14.9,-90,98,4.12,4.126,4.114,4.126,0,0,76.91,6,GPS_Atti,
0.318039622310507,36.8869273550763,6066.1009480522,228.01838,0,2.64183407404,22800,2017-11-11 05:39:43,16,16.437,6066.1009480522,228.01838,0.50107456,2.64183407404,14.7, -4.3, 2,0,1,1024,1024,1684,1024,14.9,-90,98,4.12,4.126,4.114,4.126,0,0,76.91,6,GPS_Atti,
0.318039577412678,36.8869273475651,6067.7413680522,229.6588,0,2.65728683044,22900,2017-11-11 05:39:43,16,16.437,6067.7413680522,229.6588,0.50107456,2.65728683044,14.6, -4, 2.5,0,1,1024,1024,1684,1024,14.9,-89.9,98,4.12,4.126,4.114,4.126,0,0,76.91,6,GPS_Atti,
0.318039519782859,36.8869273095494,6069.3817880522,231.29922,0,2.68245415408,23000,2017-11-11 05:39:43,16,16.409,6069.3817880522,231.29922,0.50107456,2.68245415408,14.6, -3.7, 2.4,0,1,1024,1024,1684,1024,14.9,-90,98,4.11,4.116,4.103,4.114,0,0,76.91,6,GPS_Atti,
0.318039497700344,36.8869272808962,6071.3502920522,233.267724,0,2.69474418072,23100,2017-11-11 05:39:43,16,16.409,6071.3502920522,233.267724,0.50107456,2.69474418072,14.6, -3.7, 2.5,0,1,1024,1024,1684,1024,14.9,-90,98,4.11,4.116,4.103,4.114,0,0,76.91,6,GPS_Atti,
0.318039423308137,36.8869272363157,6072.9907120522,234.908144,0,2.72638460168,23200,2017-11-11 05:39:43,16,16.409,6072.9907120522,234.908144,0.50107456,2.72638460168,14.6, -4.3, 2.6,0,1,1024,1024,1684,1024,14.9,-90,98,4.11,4.116,4.103,4.114,0,0,76.91,6,GPS_Atti,
0.318039364836413,36.8869272246473,6074.6311320522,236.548564,0,2.7468668858,23300,2017-11-11 05:39:43,16,16.409,6074.6311320522,236.548564,0.50107456,2.7468668858,14.7, -4.8, 2.5,0,1,1024,1024,1684,1024,14.9,-90,98,4.11,4.116,4.103,4.114,0,0,76.91,6,GPS_Atti,
