latitude,longitude,altitude(feet),ascent(feet),speed(mph),distance(feet),time(millisecond),datetime(utc),satellites,gpslevel,voltage(v),max_altitude(feet),max_ascent(feet),max_speed(mph),max_distance(feet), xSpeed(mph), ySpeed(mph), zSpeed(mph), compass_heading(degrees), pitch(degrees), roll(degrees),isPhoto,isVideo,rc_elevator,rc_aileron,rc_throttle,rc_rudder,gimbal_heading(degrees),gimbal_pitch(degrees),battery_percent,voltageCell1,voltageCell2,voltageCell3,voltageCell4,voltageCell5,voltageCell6,current(A),battery_temperature(f),flycStateRaw,flycState,message
0.353883883722921,36.8971746120611,5805.6418206231,0,0,0,0,2018-04-15 06:35:20,17,0,17.142,5805.6418206231,0,0,0,0,0,0,260.6, 0.5, 1.9,0,0,364,364,364,1684,264.9,0,99,4.289,4.289,4.286,4.286,0,0,1.528,82.31,41,Motors_Started,Setting new Return-To-Home altitude to 45m (148 ft). Setting new Maximum Flight Altitude to 150m (492 ft)
0.353883870174115,36.8971746082861,5805.6418206231,0,0,0.005131561844,100,2018-04-15 06:35:20,17,0,17.142,5805.6418206231,0,0,0.005131561844,0,0,0,260.6, 0.5, 1.9,0,0,364,364,364,1684,264.8,0,99,4.289,4.289,4.286,4.286,0,0,1.528,82.31,41,Motors_Started,
0.353883859747086,36.8971746049138,5805.6418206231,0,0,0.009127953048,200,2018-04-15 06:35:20,17,0,17.142,5805.6418206231,0,0,0.009127953048,0,0,0,260.6, 0.5, 1.9,0,0,364,364,364,1684,264.9,0,99,4.289,4.289,4.286,4.286,0,0,1.528,82.31,41,Motors_Started,
0.353883855072078,36.8971746003883,5805.6418206231,0,0,0.0112874675528,300,2018-04-15 06:35:20,17,0,17.142,5805.6418206231,0,0,0.0112874675528,0,0,0,260.6, 0.5, 1.9,0,0,364,364,364,1684,264.8,0,99,4.289,4.289,4.286,4.286,0,0,1.528,82.31,41,Motors_Started,
0.353883850130005,36.8971745960974,5805.6418206231,0,0,0.0135698167072,400,2018-04-15 06:35:20,17,0,17.142,5805.6418206231,0,0,0.0135698167072,0,0,0,260.6, 0.6, 1.9,0,0,510,439,429,1661,264.8,0,99,4.289,4.289,4.286,4.286,0,0,1.528,82.31,41,Motors_Started,
0.353883821312856,36.8971745922903,5805.6418206231,0,0,0.0238854666436,500,2018-04-15 06:35:20,17,0,17.142,5805.6418206231,0,0,0.0238854666436,0,0,0,260.6, 0.5, 1.9,0,0,792,711,972,1209,264.8,0,99,4.289,4.289,4.286,4.286,0,0,1.528,82.31,41,Motors_Started,
0.353883791008226,36.8971745885722,5805.6418206231,0,0,0.034895670408,600,2018-04-15 06:35:20,17,0,17.142,5805.6418206231,0,0,0.034895670408,0,0,0,260.6, 0.6, 1.9,0,0,1024,1024,1024,1024,263.3,0,99,4.289,4.289,4.286,4.286,0,0,1.528,82.31,41,Motors_Started,
0.353883767723003,36.8971745863978,5805.6418206231,0,0,0.043345801912,700,2018-04-15 06:35:21,17,0,17.142,5805.6418206231,0,0,0.043345801912,0,0,0,260.6, 0.5, 1.9,0,0,1024,1024,1024,1024,262.4,0,99,4.289,4.289,4.286,4.286,0,0,1.528,82.31,41,Motors_Started,
0.353883750265066,36.8971745845146,5805.6418206231,0,0,0.049718505528,800,2018-04-15 06:35:21,17,0,17.142,5805.6418206231,0,0,0.049718505528,0,0,0,260.6, 0.6, 2,0,0,1024,1024,1024,1024,261.9,0,99,4.289,4.289,4.286,4.286,0,0,1.528,82.31,41,Motors_Started,
0.353883742201724,36.8971745844461,5805.6418206231,0,0,0.052607613232,900,2018-04-15 06:35:21,17,0,17.142,5805.6418206231,0,0,0.052607613232,0,0,0,260.6, 0.6, 2,0,0,1024,1024,1024,1024,261.9,0,99,4.289,4.289,4.286,4.286,0,0,1.528,82.31,41,Motors_Started,
0.353883735251779,36.8971745829397,5805.6418206231,0,0,0.05520177342,1000,2018-04-15 06:35:21,17,0,17.115,5805.6418206231,0,0,0.05520177342,0,0,0,260.6, 0.6, 2,0,0,1024,1024,1024,1024,261.7,0,99,4.283,4.285,4.282,4.283,0,0,1.524,82.31,41,Motors_Started,
0.353883736956302,36.8971745820222,5805.6418206231,0,0,0.054657810148,1100,2018-04-15 06:35:21,17,0,17.115,5805.6418206231,0,0,0.05520177342,0,0,0,260.6, 0.6, 2.1,0,0,1024,1024,1024,1024,261.5,0,99,4.283,4.285,4.282,4.283,0,0,1.524,82.31,41,Motors_Started,
0.35388373472111,36.8971745792162,5805.6418206231,0,0,0.055668308868,1200,2018-04-15 06:35:21,17,0,17.115,5805.6418206231,0,0,0.055668308868,0,0,0,260.6, 0.6, 2,0,0,1024,1024,1024,1024,261.4,0,99,4.283,4.285,4.282,4.283,0,0,1.524,82.31,41,Motors_Started,
0.353883741085273,36.8971745779208,5805.6418206231,0,0,0.053511156568,1300,2018-04-15 06:35:21,17,0,17.115,5805.6418206231,0,0,0.055668308868,0,0,0,260.6, 0.6, 2,0,0,1024,1024,1024,1024,261.3,0,99,4.283,4.285,4.282,4.283,0,0,1.524,82.31,41,Motors_Started,
0.353883743820397,36.8971745758652,5805.6418206231,0,0,0.052724083052,1400,2018-04-15 06:35:21,17,0,17.115,5805.6418206231,0,0,0.055668308868,0,0,0,260.6, 0.6, 2,0,0,1024,1024,1024,1024,261.2,0,99,4.283,4.285,4.282,4.283,0,0,1.524,82.31,41,Motors_Started,
0.353883752941973,36.8971745768823,5805.6418206231,0,0,0.049411418904,1500,2018-04-15 06:35:21,17,0,17.115,5805.6418206231,0,0,0.055668308868,0,0,0,260.6, 0.7, 2.1,0,0,1024,1024,1024,1024,261.2,0,99,4.283,4.285,4.282,4.283,0,0,1.524,82.31,10,Assisted_Takeoff,
0.353883757744865,36.8971745735817,5805.6418206231,0,0,0.04805938474,1600,2018-04-15 06:35:21,17,0,17.115,5805.6418206231,0,0,0.055668308868,0,0,0,260.6, 0.6, 2,0,0,1024,1024,1024,1024,261.1,0,99,4.283,4.285,4.282,4.283,0,0,1.524,82.31,10,Assisted_Takeoff,
0.353883765411122,36.8971745740227,5805.6418206231,0,0,0.045342193052,1700,2018-04-15 06:35:21,17,0,17.115,5805.6418206231,0,0,0.055668308868,0,0,0,260.6, 0.6, 2,0,0,1024,1024,1024,1024,261.1,0,99,4.283,4.285,4.282,4.283,0,0,1.524,82.31,10,Assisted_Takeoff,
0.353883770464794,36.8971745726117,5805.6418206231,0,0,0.043756891164,1800,2018-04-15 06:35:22,17,0,17.115,5805.6418206231,0,0,0.055668308868,0,0,0,260.6, 0.5, 2,0,0,1024,1024,1024,1024,261.1,0,99,4.283,4.285,4.282,4.283,0,0,1.524,82.31,10,Assisted_Takeoff,
0.3538837797398,36.8971745746812,5805.6418206231,0,0,0.04031496192,1900,2018-04-15 06:35:22,17,0,17.115,5805.6418206231,0,0,0.055668308868,0,0,0,260.6, 0.6, 2,0,0,1024,1024,1024,1024,261.1,0,99,4.283,4.285,4.282,4.283,0,0,1.524,82.31,10,Assisted_Takeoff,
0.353883785941628,36.8971745742679,5805.6418206231,0,0,0.038247376552,2000,2018-04-15 06:35:22,17,0,16.956,5805.6418206231,0,0,0.055668308868,0,0,0,260.6, 0.6, 2,0,0,1024,1024,1024,1024,261,0,99,4.283,4.285,4.282,4.283,0,0,3.954,82.31,10,Assisted_Takeoff,
0.353883794465616,36.8971745774915,5805.6418206231,0,0,0.034922573296,2100,2018-04-15 06:35:22,17,0,16.956,5805.6418206231,0,0,0.055668308868,0,0,0,260.6, 0.6, 2,0,0,1024,1024,1024,1024,261,0,99,4.283,4.285,4.282,4.283,0,0,3.954,82.31,10,Assisted_Takeoff,
0.353883800392948,36.8971745770964,5805.6418206231,0,0,0.03297080158,2200,2018-04-15 06:35:22,17,0,16.956,5805.6418206231,0,0,0.055668308868,0,0,0,260.6, 0.6, 2,0,0,1024,1024,1024,1024,261,0,99,4.283,4.285,4.282,4.283,0,0,3.954,82.31,10,Assisted_Takeoff,
0.353883806568721,36.897174579471,5805.6418206231,0,0,0.0305578421852,2300,2018-04-15 06:35:22,17,0,16.956,5805.6418206231,0,0,0.055668308868,0,0,0,260.6, 0.6, 2,0,0,1024,1024,1024,1024,261,0,99,4.283,4.285,4.282,4.283,0,0,3.954,82.31,10,Assisted_Takeoff,
0.353883811296602,36.8971745793682,5805.6418206231,0,0,0.0289919956784,2400,2018-04-15 06:35:22,17,0,16.956,5805.6418206231,0,0,0.055668308868,0,0,0,260.6, 0.6, 2,0,0,1024,1024,1024,1024,261,0,99,4.283,4.285,4.282,4.283,0,0,3.954,82.31,10,Assisted_Takeoff,
0.35388381480193,36.8971745811133,5805.6418206231,0,0,0.0275644365776,2500,2018-04-15 06:35:22,17,0,16.956,5805.6418206231,0,0,0.055668308868,0,0,0,260.6, 0.6, 2,0,0,1024,1024,1024,1024,261,0,99,4.283,4.285,4.282,4.283,0,0,3.954,82.31,10,Assisted_Takeoff,
0.353883819189721,36.8971745809249,5805.6418206231,0,0,0.026142061204,2600,2018-04-15 06:35:22,17,0,16.956,5805.6418206231,0,0,0.055668308868,0,0,0,260.6, 0.6, 2,0,0,1024,1024,1024,1024,261,0,99,4.283,4.285,4.282,4.283,0,0,3.954,82.31,10,Assisted_Takeoff,
0.353883821692334,36.8971745539501,5805.6418206231,0,0,0.0310112214648,2700,2018-04-15 06:35:23,17,0,16.956,5805.6418206231,0,0,0.055668308868,0,0,0,260.6, 0.6, 2,0,0,1024,1024,1024,1024,261,0,99,4.283,4.285,4.282,4.283,0,0,3.954,82.31,10,Assisted_Takeoff,
0.353883825415008,36.8971745240783,5805.6418206231,0,0,0.038509187584,2800,2018-04-15 06:35:23,17,0,16.956,5805.6418206231,0,0,0.055668308868,0,0,0,260.6, 0.6, 2,0,0,1024,1024,1024,1024,260.9,0,99,4.283,4.285,4.282,4.283,0,0,3.954,82.31,10,Assisted_Takeoff,
0.353883825905933,36.8971745265128,5805.6418206231,0,0,0.037671589132,2900,2018-04-15 06:35:23,17,0,16.956,5805.6418206231,0,0,0.055668308868,0,0,0,260.6, 0.6, 2,0,0,1024,1024,1024,1024,260.9,0,99,4.283,4.285,4.282,4.283,0,0,3.954,82.31,10,Assisted_Takeoff,
0.353883829485762,36.8971745369051,5805.6418206231,0,0,0.033814961712,3000,2018-04-15 06:35:23,17,0,17.115,5805.6418206231,0,0,0.055668308868,0,0,0,260.6, 0.6, 2,0,0,1024,1024,1043,1024,260.9,0,99,4.25,4.253,4.28,4.275,0,0,3.954,82.31,10,Assisted_Takeoff,
0.35388389341425,36.897174559302,5805.6418206231,0,0,0.0195708011512,3200,2018-04-15 06:35:23,17,0,17.115,5805.6418206231,0,0,0.055668308868,0,0,0,260.6, 0.6, 2,0,0,1024,1024,1063,1024,260.9,0,99,4.25,4.253,4.28,4.275,0,0,3.954,82.31,10,Assisted_Takeoff,
0.353883921562922,36.8971745694727,5805.6418206231,0,0,0.020785433736,3300,2018-04-15 06:35:23,17,0,17.115,5805.6418206231,0,0,0.055668308868,0,0,0,260.6, 0.6, 2,0,0,1024,1024,1082,1024,260.9,0,99,4.25,4.253,4.28,4.275,0,0,3.954,82.31,10,Assisted_Takeoff,
0.353883943830163,36.8971745751586,5805.6418206231,0,0,0.0257331701148,3400,2018-04-15 06:35:23,17,0,17.115,5805.6418206231,0,0,0.055668308868,0,0,0,260.6, 0.6, 2,0,0,1024,1024,1086,1024,260.9,0,99,4.25,4.253,4.28,4.275,0,0,3.954,82.31,10,Assisted_Takeoff,
0.353883957007583,36.8971746119668,5805.6418206231,0,0,0.0267378945564,3500,2018-04-15 06:35:23,17,0,17.115,5805.6418206231,0,0,0.055668308868,0,0,0,260.6, 0.6, 2,0,0,1024,1024,1090,1024,260.9,0,99,4.25,4.253,4.28,4.275,0,0,3.954,82.31,10,Assisted_Takeoff,
0.353883970466316,36.8971746454359,5805.6418206231,0,0,0.033909777988,3600,2018-04-15 06:35:23,17,0,17.115,5805.6418206231,0,0,0.055668308868,0,0,0,260.6, 0.6, 2,0,0,1024,1024,1092,1024,260.9,0,99,4.25,4.253,4.28,4.275,0,0,3.954,82.31,10,Assisted_Takeoff,
0.353884003373302,36.8971746765346,5805.6418206231,0,0,0.049588584264,3700,2018-04-15 06:35:23,17,0,17.115,5805.6418206231,0,0,0.055668308868,0,0,0,260.6, 0.6, 2,0,0,1024,1024,1099,1024,260.9,0,99,4.25,4.253,4.28,4.275,0,0,3.954,82.31,10,Assisted_Takeoff,
0.353884040514242,36.8971746969038,5805.6418206231,0,0,0.065042981084,3800,2018-04-15 06:35:24,17,0,17.115,5805.6418206231,0,0,0.065042981084,0,0,0,260.6, 0.6, 2,0,0,1024,1024,1107,1024,260.9,0,99,4.25,4.253,4.28,4.275,0,0,3.954,82.31,10,Assisted_Takeoff,
0.353884065874662,36.8971747125291,5805.6418206231,0,0,0.075896327888,3900,2018-04-15 06:35:24,17,0,17.115,5805.6418206231,0,0,0.075896327888,0,0,0,260.6, 0.6, 2,0,0,1024,1024,1111,1024,260.9,0,99,4.25,4.253,4.28,4.275,0,0,3.954,82.31,10,Assisted_Takeoff,
0.353884087702224,36.8971747232533,5805.6418206231,0,0,0.0847605014,4000,2018-04-15 06:35:24,17,0,17.115,5805.6418206231,0,0,0.0847605014,0,0,0,260.6, 0.6, 2.1,0,0,1024,1024,1123,1024,260.9,0,99,4.282,4.283,4.28,4.28,0,0,1.954,82.31,10,Assisted_Takeoff,
0.353884096283207,36.8971747283408,5805.6418206231,0,0,0.088397640624,4100,2018-04-15 06:35:24,17,0,17.115,5805.6418206231,0,0,0.088397640624,0,0,0,260.6, 0.7, 2.1,0,0,1024,1024,1123,1024,260.9,0,99,4.282,4.283,4.28,4.28,0,0,1.954,82.31,10,Assisted_Takeoff,
0.353884107900476,36.897174732544,5805.6418206231,0,0,0.092854661764,4200,2018-04-15 06:35:24,17,0,17.115,5805.6418206231,0,0,0.092854661764,0,0,0,260.7, 0.7, 2.1,0,0,1024,1024,1136,1024,260.9,0,99,4.282,4.283,4.28,4.28,0,0,1.954,82.31,10,Assisted_Takeoff,
0.353884134633471,36.897174760069,5805.6418206231,0,0,0.10628445222,4300,2018-04-15 06:35:24,17,0,17.115,5805.6418206231,0,0,0.10628445222,0,0,0,260.6, 0.7, 2.1,0,0,1024,1024,1177,1024,260.9,0,99,4.282,4.283,4.28,4.28,0,0,1.954,82.31,10,Assisted_Takeoff,
0.35388418893849,36.8971748119341,5805.6418206231,0,0,0.133109584312,4500,2018-04-15 06:35:24,17,0,17.115,5805.6418206231,0,0,0.133109584312,0,0,0,260.6, 0.8, 2.1,0,0,1024,1024,1177,1024,260.9,0,99,4.282,4.283,4.28,4.28,0,0,1.954,82.31,10,Assisted_Takeoff,
0.353884224229009,36.8971748334499,5805.6418206231,0,0,0.14818241944,4600,2018-04-15 06:35:24,17,0,17.115,5805.6418206231,0,0,0.14818241944,0,0,0,260.5, 1.1, 1.3,0,0,1024,1024,1220,1024,260.9,0,99,4.282,4.283,4.28,4.28,0,0,1.954,82.31,10,Assisted_Takeoff,
0.353884294919636,36.8971748885065,5805.6418206231,0,0,0.180776252504,4700,2018-04-15 06:35:25,17,0,17.115,5805.6418206231,0,0,0.180776252504,0,0,-0.223694,260.5, 1.5, 0.7,0,0,1024,1024,1239,1024,260.9,0,99,4.282,4.283,4.28,4.28,0,0,1.954,82.31,10,Assisted_Takeoff,
0.353884383243805,36.8971749603746,5805.6418206231,0,0,0.222180781388,4800,2018-04-15 06:35:25,17,0,17.115,5805.6418206231,0,0,0.222180781388,0,0,-0.671082,260.5, 1, 0.1,0,0,1024,1024,1247,1024,260.9,0,99,4.282,4.283,4.28,4.28,0,0,1.954,82.31,6,P-GPS,Obstacle Avoided. Revise Flight Route
0.353884477262489,36.8971750350338,5805.6418206231,0,0,0.265912082,4900,2018-04-15 06:35:25,17,0,17.115,5805.6418206231,0,0,0.265912082,0,0,-0.894776,260.5, 0.2, -0.2,0,0,1024,1024,1249,1024,260.9,0,99,4.282,4.283,4.28,4.28,0,0,1.954,82.31,6,P-GPS,
0.353884556530582,36.897175098987,5805.6418206231,0,0,0.30301346114,5000,2018-04-15 06:35:25,17,0,16.85,5805.6418206231,0,0,0.30301346114,0,0,-1.342164,260.5, -0.3, 0,0,0,1024,1024,1260,1024,260.9,0,99,4.241,4.245,4.238,4.232,0,0,6.116,82.31,6,P-GPS,
0.353884604417607,36.8971751527717,5805.9699046231,0.328084,0,0.32872048296,5100,2018-04-15 06:35:25,17,0,16.85,5805.9699046231,0.328084,0,0.32872048296,0,0,-1.565858,260.3, -0.4, -0.1,0,0,1024,1024,1283,1024,260.9,0,99,4.241,4.245,4.238,4.232,0,0,6.116,82.31,6,P-GPS,Home Point Recorded. RTH Altitude:  45m.
0.353884648753119,36.8971751978256,5806.2979886231,0.656168,0,0.351542006,5200,2018-04-15 06:35:25,17,0,16.85,5806.2979886231,0.656168,0,0.351542006,0,0,-2.013246,260.3, 0, -1.5,0,0,1024,1024,1277,1024,260.9,0,99,4.241,4.245,4.238,4.232,0,0,6.116,82.31,6,P-GPS,
0.35388464898724,36.8971752520535,5806.6260726231,0.984252,0,0.36397310876,5300,2018-04-15 06:35:25,17,0,16.85,5806.6260726231,0.984252,0,0.36397310876,0,0,-2.23694,260.3, -0.1, -1.2,0,0,1024,1024,1272,1024,260.9,0,99,4.241,4.245,4.238,4.232,0,0,6.116,82.31,6,P-GPS,
0.353884612962598,36.8971753342722,5806.9541566231,1.312336,0,0.37445539256,5400,2018-04-15 06:35:25,17,0,16.85,5806.9541566231,1.312336,0,0.37445539256,0,0,-2.23694,260.3, -0.6, -0.6,0,0,1024,1024,1300,1024,260.9,0,99,4.241,4.245,4.238,4.232,0,0,6.116,82.31,6,P-GPS,
0.353884551106181,36.8971754667694,5807.2822406231,1.64042,0.223694,0.39563977644,5500,2018-04-15 06:35:25,17,0,16.85,5807.2822406231,1.64042,0.223694,0.39563977644,0,0.223694,-2.23694,260.6, -1.3, 0.7,0,0,1024,1024,1336,1024,260.9,0,99,4.241,4.245,4.238,4.232,0,0,6.116,82.31,6,P-GPS,
0.353884484236339,36.8971756108868,5807.6103246231,1.968504,0.223694,0.42520670652,5600,2018-04-15 06:35:25,17,0,16.85,5807.6103246231,1.968504,0.223694,0.42520670652,0,0.223694,-2.23694,260.6, -1.9, 2.1,0,0,1024,1024,1363,1024,260.9,0,99,4.241,4.245,4.238,4.232,0,0,6.116,82.31,6,P-GPS,
0.353884459350229,36.897175744811,5807.9384086231,2.296588,0,0.46357613032,5700,2018-04-15 06:35:26,17,0,16.85,5807.9384086231,2.296588,0.223694,0.46357613032,0,0,-2.684328,260.5, -1.3, 2.1,0,0,1024,1024,1398,1024,260.9,0,99,4.241,4.245,4.238,4.232,0,0,6.116,82.31,6,P-GPS,
0.353884474697334,36.8971758605951,5808.2664926231,2.624672,0.223694,0.50397311324,5800,2018-04-15 06:35:26,17,0,16.85,5808.2664926231,2.624672,0.223694,0.50397311324,0,0.223694,-3.131716,260.4, -1.1, 1.2,0,0,1024,1024,1413,1024,260.8,0,99,4.241,4.245,4.238,4.232,0,0,6.116,82.31,6,P-GPS,
0.353884511881968,36.8971760049405,5808.9226606231,3.28084,0.223694,0.55747049028,5900,2018-04-15 06:35:26,16,0,16.85,5808.9226606231,3.28084,0.223694,0.55747049028,0,0.223694,-3.579104,260.5, -1.5, 0.5,0,0,1024,1024,1432,1024,260.8,0,99,4.241,4.245,4.238,4.232,0,0,6.116,82.31,6,P-GPS,
0.353884549039212,36.8971761533767,5809.5788286231,3.937008,0.223694,0.61249017708,6000,2018-04-15 06:35:26,16,0,16.611,5809.5788286231,3.937008,0.223694,0.61249017708,0,0.223694,-4.250186,260.5, -1.8, 0.6,0,0,1024,1024,1439,1024,260.8,0,99,4.241,4.245,4.238,4.232,0,0,6.116,82.31,6,P-GPS,
0.353884617583371,36.8971763313047,5810.2349966231,4.593176,0.223694,0.68200789584,6100,2018-04-15 06:35:26,16,0,16.611,5810.2349966231,4.593176,0.223694,0.68200789584,0,0.223694,-4.697574,260.5, -2.2, 0.9,0,0,1024,1024,1441,1024,260.8,0,99,4.241,4.245,4.238,4.232,0,0,6.116,82.31,6,P-GPS,
0.353884743046228,36.8971766487283,5811.5473326231,5.905512,0.223694,0.80649936964,6300,2018-04-15 06:35:26,17,0,16.611,5811.5473326231,5.905512,0.223694,0.80649936964,0,0.223694,-5.368656,260.6, -2.9, 0.3,0,0,1024,1024,1459,1024,260.8,0,99,4.241,4.245,4.238,4.232,0,0,6.116,82.31,6,P-GPS,
0.353884785549049,36.897176777458,5812.5315846231,6.889764,0,0.855807114,6400,2018-04-15 06:35:26,17,0,16.611,5812.5315846231,6.889764,0.223694,0.855807114,0,0,-5.59235,260.6, -3.2, 0.4,0,0,1024,1024,1482,1024,260.8,0,99,4.241,4.245,4.238,4.232,0,0,6.116,82.31,6,P-GPS,
0.353884861080531,36.897176926756,5813.5158366231,7.874016,0,0.91669622356,6500,2018-04-15 06:35:26,17,0,16.611,5813.5158366231,7.874016,0.223694,0.91669622356,0,0,-5.816044,260.6, -3.4, 0.1,0,0,1024,1024,1502,1024,260.9,0,99,4.241,4.245,4.238,4.232,0,0,6.116,82.31,6,P-GPS,
0.353884953487578,36.8971770540479,5814.1720046231,8.530184,0,0.97268375816,6600,2018-04-15 06:35:26,17,0,16.611,5814.1720046231,8.530184,0.223694,0.97268375816,0,0,-6.039738,260.6, -3.6, 0,0,0,1024,1024,1519,1024,260.9,0,99,4.241,4.245,4.238,4.232,0,0,6.116,82.31,6,P-GPS,
0.353885032717485,36.8971771875118,5815.1562566231,9.514436,0,1.02890751324,6700,2018-04-15 06:35:27,16,0,16.611,5815.1562566231,9.514436,0.223694,1.02890751324,0,0,-6.487126,260.6, -3.6, 0,0,0,1024,1024,1519,1024,260.9,0,99,4.241,4.245,4.238,4.232,0,0,6.116,82.31,6,P-GPS,
0.353885116133409,36.8971772629772,5816.1405086231,10.498688,0,1.06657811812,6800,2018-04-15 06:35:27,16,0,16.611,5816.1405086231,10.498688,0.223694,1.06657811812,0,0,-6.71082,260.6, -2.7, -0.6,0,0,1024,1024,1519,1024,260.9,0,99,4.241,4.245,4.238,4.232,0,0,6.116,82.31,6,P-GPS,
0.353885205570556,36.8971773087613,5817.1247606231,11.48294,0,1.09571525816,6900,2018-04-15 06:35:27,17,0,16.611,5817.1247606231,11.48294,0.223694,1.09571525816,0,0,-6.934514,260.7, -1.5, -1.2,0,0,1024,1024,1539,1024,260.8,0,99,4.241,4.245,4.238,4.232,0,0,6.116,82.31,6,P-GPS,
0.353885285585678,36.897177338935,5818.1090126231,12.467192,0,1.11865489144,7000,2018-04-15 06:35:27,17,0,16.425,5818.1090126231,12.467192,0.223694,1.11865489144,0,0,-7.158208,260.7, -1.4, -1.2,0,0,1024,1024,1539,1024,260.8,0,99,4.141,4.153,4.143,4.137,0,0,14.592,82.31,6,P-GPS,
0.353885383588034,36.8971773939915,5819.0932646231,13.451444,0,1.15308730724,7100,2018-04-15 06:35:27,17,0,16.425,5819.0932646231,13.451444,0.223694,1.15308730724,0,0,-7.158208,260.6, -1.6, -1,0,0,1024,1024,1540,1024,260.8,0,99,4.141,4.153,4.143,4.137,0,0,14.592,82.31,6,P-GPS,
0.353885465256637,36.8971774525286,5820.4056006231,14.76378,0,1.18613520856,7200,2018-04-15 06:35:27,17,0,16.425,5820.4056006231,14.76378,0.223694,1.18613520856,0,0,-7.381902,260.5, -1.9, -0.7,0,0,1024,1024,1542,1024,260.8,0,99,4.141,4.153,4.143,4.137,0,0,14.592,82.31,6,P-GPS,
0.353885493771506,36.8971774964552,5821.3898526231,15.748032,0,1.2052001698,7300,2018-04-15 06:35:27,17,0,16.425,5821.3898526231,15.748032,0.223694,1.2052001698,0,0,-7.381902,260.5, -2.8, -0.4,0,0,1024,1024,1549,1024,260.8,0,99,4.141,4.153,4.143,4.137,0,0,14.592,82.31,6,P-GPS,
0.353885500637942,36.8971775005481,5822.3741046231,16.732284,0,1.2077264166,7400,2018-04-15 06:35:27,17,0,16.425,5822.3741046231,16.732284,0.223694,1.2077264166,0,0,-7.605596,260.5, -3.1, -0.8,0,0,1024,1024,1560,1024,260.8,0,99,4.141,4.153,4.143,4.137,0,0,14.592,82.31,6,P-GPS,
0.353885490844378,36.8971774595646,5823.6864406231,18.04462,0.223694,1.19293967072,7500,2018-04-15 06:35:27,17,0,16.425,5823.6864406231,18.04462,0.223694,1.2077264166,0,-0.223694,-7.605596,260.5, -2, -1.2,0,0,1024,1024,1559,1024,260.8,0,99,4.141,4.153,4.143,4.137,0,0,14.592,82.31,6,P-GPS,
0.353885462416529,36.8971773837042,5824.6706926231,19.028872,0.223694,1.16375003724,7600,2018-04-15 06:35:28,17,0,16.425,5824.6706926231,19.028872,0.223694,1.2077264166,0,-0.223694,-7.82929,260.5, -0.8, -0.6,0,0,1024,1024,1574,1024,260.8,0,99,4.141,4.153,4.143,4.137,0,0,14.592,82.31,6,P-GPS,
0.353885409939107,36.8971771580918,5826.9672806231,21.32546,0,1.08301512652,7800,2018-04-15 06:35:28,17,0,16.425,5826.9672806231,21.32546,0.223694,1.2077264166,0,0,-7.82929,260.5, -0.4, -0.4,0,0,1024,1024,1578,1024,260.8,0,99,4.141,4.153,4.143,4.137,0,0,14.592,82.31,6,P-GPS,
0.353885337898882,36.8971770396409,5828.2796166231,22.637796,0.223694,1.03243769708,7900,2018-04-15 06:35:28,17,0,16.425,5828.2796166231,22.637796,0.223694,1.2077264166,0,-0.223694,-8.052984,260.5, -0.5, -0.5,0,0,1024,1024,1608,1024,260.8,0,99,4.141,4.153,4.143,4.137,0,0,14.592,82.31,6,P-GPS,
0.353885252534219,36.8971769133907,5829.2638686231,23.622048,0.223694,0.97692260344,8000,2018-04-15 06:35:28,17,0,16.505,5829.2638686231,23.622048,0.223694,1.2077264166,0,-0.223694,-8.052984,260.5, -0.1, -0.4,0,0,1024,1024,1613,1024,260.8,0,99,4.131,4.136,4.127,4.119,0,0,16.208,82.31,6,P-GPS,
0.353885176766842,36.8971767739143,5830.5762046231,24.934384,0.223694,0.91905842836,8100,2018-04-15 06:35:28,17,0,16.505,5830.5762046231,24.934384,0.223694,1.2077264166,0,-0.223694,-8.276678,260.5, 0.6, -0.2,0,0,1024,1024,1610,1024,260.8,0,99,4.131,4.136,4.127,4.119,0,0,16.208,82.31,6,P-GPS,
0.353885110583672,36.8971766493621,5831.8885406231,26.24672,0.223694,0.8676673506,8200,2018-04-15 06:35:28,17,0,16.505,5831.8885406231,26.24672,0.223694,1.2077264166,0,-0.223694,-8.724066,260.6, 1, 0.5,0,0,1024,1024,1607,1024,260.8,0,99,4.131,4.136,4.127,4.119,0,0,16.208,82.31,6,P-GPS,
0.353885065307331,36.8971765548979,5833.2008766231,27.559056,0,0.82962929164,8300,2018-04-15 06:35:28,17,0,16.505,5833.2008766231,27.559056,0.223694,1.2077264166,0,0,-8.724066,260.5, 0.6, 0.5,0,0,1024,1024,1607,1024,260.8,0,99,4.131,4.136,4.127,4.119,0,0,16.208,82.31,6,P-GPS,
0.353885046305883,36.8971764704866,5834.5132126231,28.871392,0.223694,0.79978020932,8400,2018-04-15 06:35:28,17,0,16.505,5834.5132126231,28.871392,0.223694,1.2077264166,0,-0.223694,-8.94776,260.6, 0.4, 0.3,0,0,1024,1024,1616,1024,260.8,0,99,4.131,4.136,4.127,4.119,0,0,16.208,82.31,6,P-GPS,
0.35388505720109,36.8971764174118,5835.8255486231,30.183728,0.223694,0.78559057632,8500,2018-04-15 06:35:28,17,0,16.505,5835.8255486231,30.183728,0.223694,1.2077264166,0,-0.223694,-8.94776,260.6, 0.7, -0.3,0,0,1024,1024,1653,1024,260.8,0,99,4.131,4.136,4.127,4.119,0,0,16.208,82.31,6,P-GPS,
0.353885085897886,36.897176376136,5837.1378846231,31.496064,0,0.7788550118,8600,2018-04-15 06:35:28,17,0,16.505,5837.1378846231,31.496064,0.223694,1.2077264166,0,0,-8.94776,260.5, 1, -0.7,0,0,1024,1024,1684,1024,260.8,0,99,4.131,4.136,4.127,4.119,0,0,16.208,82.31,6,P-GPS,
0.353885105690554,36.8971763458134,5838.4502206231,32.8084,0,0.77387469668,8700,2018-04-15 06:35:29,17,0,16.505,5838.4502206231,32.8084,0.223694,1.2077264166,0,0,-9.171454,260.5, 1.1, -1.3,0,0,1024,1024,1684,1024,260.8,0,99,4.131,4.136,4.127,4.119,0,0,16.208,82.31,6,P-GPS,
0.353885120513008,36.8971763315338,5839.7625566231,34.120736,0,0.7727690536,8800,2018-04-15 06:35:29,17,0,16.505,5839.7625566231,34.120736,0.223694,1.2077264166,0,0,-9.618842,260.5, 0.8, -1.4,0,0,1024,1024,1684,1024,260.8,0,99,4.131,4.136,4.127,4.119,0,0,16.208,82.31,6,P-GPS,
0.353885138321824,36.8971763861867,5841.4029766231,35.761156,0,0.79277561592,8900,2018-04-15 06:35:29,17,0,16.505,5841.4029766231,35.761156,0.223694,1.2077264166,0,0,-9.842536,260.5, -0.1, -1.1,0,0,1024,1024,1684,1024,260.8,0,99,4.131,4.136,4.127,4.119,0,0,16.208,82.31,6,P-GPS,
0.35388515733976,36.8971764477343,5842.7153126231,37.073492,0,0.81514766388,9000,2018-04-15 06:35:29,17,0,16.186,5842.7153126231,37.073492,0.223694,1.2077264166,0,0,-10.06623,260.6, -0.9, -0.9,0,0,1024,1024,1684,1024,260.8,0,99,4.105,4.113,4.1,4.092,0,0,17.932,82.31,6,P-GPS,
0.35388516035289,36.8971765292121,5844.3557326231,38.713912,0,0.84035107676,9100,2018-04-15 06:35:29,17,0,16.186,5844.3557326231,38.713912,0.223694,1.2077264166,0,0,-10.513618,260.6, -1.5, -1.1,0,0,1024,1024,1684,1024,260.8,0,99,4.105,4.113,4.1,4.092,0,0,17.932,82.31,6,P-GPS,
0.353885153560345,36.8971765628963,5845.9961526231,40.354332,0.223694,0.84925199568,9200,2018-04-15 06:35:29,17,0,16.186,5845.9961526231,40.354332,0.223694,1.2077264166,0,-0.223694,-10.513618,260.5, -0.8, -1.3,0,0,1024,1024,1684,1024,260.8,0,99,4.105,4.113,4.1,4.092,0,0,17.932,82.31,6,P-GPS,
0.35388513295147,36.8971765721934,5847.3084886231,41.666668,0.223694,0.8480315232,9300,2018-04-15 06:35:29,17,0,16.186,5847.3084886231,41.666668,0.223694,1.2077264166,0,-0.223694,-10.737312,260.5, 0.3, -1.8,0,0,1024,1024,1684,1024,260.8,0,99,4.105,4.113,4.1,4.092,0,0,17.932,82.31,6,P-GPS,
0.353885098051473,36.8971765579587,5848.9489086231,43.307088,0,0.83684713964,9400,2018-04-15 06:35:29,17,0,16.186,5848.9489086231,43.307088,0.223694,1.2077264166,0,0,-10.961006,260.4, 1.9, -1.8,0,0,1024,1024,1684,1024,260.8,0,99,4.105,4.113,4.1,4.092,0,0,17.932,82.31,6,P-GPS,
0.353885038605989,36.8971765535907,5850.9174126231,45.275592,0,0.82419950144,9500,2018-04-15 06:35:29,17,0,16.186,5850.9174126231,45.275592,0.223694,1.2077264166,0,0,-11.1847,260.5, 2.5, -0.2,0,0,1024,1024,1681,1024,260.8,0,99,4.105,4.113,4.1,4.092,0,0,17.932,82.31,6,P-GPS,
0.35388499991014,36.8971766073368,5852.5578326231,46.916012,0,0.83413060412,9600,2018-04-15 06:35:29,17,0,16.186,5852.5578326231,46.916012,0.223694,1.2077264166,0,0,-11.408394,260.4, 0.5, 0.5,0,0,1024,1024,1684,1024,260.8,0,99,4.105,4.113,4.1,4.092,0,0,17.932,82.31,6,P-GPS,
0.353884996134109,36.8971767101923,5854.1982526231,48.556432,0,0.86642719308,9700,2018-04-15 06:35:30,17,0,16.186,5854.1982526231,48.556432,0.223694,1.2077264166,0,0,-11.632088,260.5, -1.3, -0.2,0,0,1024,1024,1684,1024,260.8,0,99,4.105,4.113,4.1,4.092,0,0,17.932,82.31,6,P-GPS,
0.353885015649636,36.8971767995776,5856.1667566231,50.524936,0,0.89861879516,9800,2018-04-15 06:35:30,17,0,16.186,5856.1667566231,50.524936,0.223694,1.2077264166,0,0,-11.632088,260.5, -1.5, -1.1,0,0,1024,1024,1684,1024,260.8,0,99,4.105,4.113,4.1,4.092,0,0,17.932,82.31,6,P-GPS,
0.353885048945438,36.8971768936446,5857.8071766231,52.165356,0,0.9346949118,9900,2018-04-15 06:35:30,17,0,16.186,5857.8071766231,52.165356,0.223694,1.2077264166,0,0,-11.632088,260.5, -1.5, -1.2,0,0,1024,1024,1684,1024,260.8,0,99,4.105,4.113,4.1,4.092,0,0,17.932,82.31,6,P-GPS,
0.353885077443208,36.8971769702266,5859.7756806231,54.13386,0,0.96431433532,10000,2018-04-15 06:35:30,17,0,16.293,5859.7756806231,54.13386,0.223694,1.2077264166,0,0,-11.632088,260.5, -1.3, -1.1,0,0,1024,1024,1684,1024,260.8,-0.2,99,4.105,4.113,4.1,4.092,0,0,17.932,82.31,6,P-GPS,
0.353885087262878,36.8971770187685,5861.4161006231,55.77428,0,0.98174543824,10100,2018-04-15 06:35:30,17,0,16.293,5861.4161006231,55.77428,0.223694,1.2077264166,0,0,-11.855782,260.5, -1, -1.2,0,0,1024,1024,1684,1024,260.8,-1.2,99,4.105,4.113,4.1,4.092,0,0,17.932,82.31,6,P-GPS,
0.353885094633318,36.8971770502056,5863.3846046231,57.742784,0,0.9932086932,10200,2018-04-15 06:35:30,17,0,16.293,5863.3846046231,57.742784,0.223694,1.2077264166,0,0,-11.632088,260.5, -0.8, -1.3,0,0,1024,1024,1684,1024,260.8,-2.6,99,4.105,4.113,4.1,4.092,0,0,17.932,82.31,6,P-GPS,
0.353885085040205,36.8971770776236,5865.0250246231,59.383204,0,1.0006397958,10300,2018-04-15 06:35:30,17,0,16.293,5865.0250246231,59.383204,0.223694,1.2077264166,0,0,-11.632088,260.5, -0.7, -1.6,0,0,1024,1024,1684,1024,260.8,-4.3,99,4.105,4.113,4.1,4.092,0,0,17.932,82.31,6,P-GPS,
0.35388506140848,36.8971771057449,5866.6654446231,61.023624,0,1.00616144952,10400,2018-04-15 06:35:30,17,0,16.293,5866.6654446231,61.023624,0.223694,1.2077264166,0,0,-11.632088,260.5, -0.7, -1.4,0,0,1024,1024,1684,1024,260.8,-6.8,99,4.105,4.113,4.1,4.092,0,0,17.932,82.31,6,P-GPS,
0.353885014297544,36.8971771454138,5868.6339486231,62.992128,0,1.01214242084,10500,2018-04-15 06:35:30,17,0,16.293,5868.6339486231,62.992128,0.223694,1.2077264166,0,0,-11.632088,260.5, -0.7, -0.8,0,0,1024,1024,1682,1024,260.8,-9.3,99,4.105,4.113,4.1,4.092,0,0,17.932,82.31,6,P-GPS,
0.35388497173353,36.8971771810069,5870.2743686231,64.632548,0,1.01785764412,10600,2018-04-15 06:35:30,17,0,16.293,5870.2743686231,64.632548,0.223694,1.2077264166,0,0,-11.632088,260.5, -0.6, -0.5,0,0,1024,1024,1677,1024,260.8,-10.7,99,4.105,4.113,4.1,4.092,0,0,17.932,82.31,6,P-GPS,
0.353884911163937,36.897177195264,5871.9147886231,66.272968,0,1.01427496684,10700,2018-04-15 06:35:30,17,0,16.293,5871.9147886231,66.272968,0.223694,1.2077264166,0,0,-11.408394,260.5, -0.6, -0.6,0,0,1024,1024,1677,1024,260.8,-10.7,99,4.105,4.113,4.1,4.092,0,0,17.932,82.31,6,P-GPS,
0.353884860046393,36.8971772070748,5873.5552086231,67.913388,0,1.011564993,10800,2018-04-15 06:35:31,17,0,16.293,5873.5552086231,67.913388,0.223694,1.2077264166,0,0,-11.408394,260.5, -1, -0.6,0,0,1024,1024,1663,1024,260.8,-10.7,99,4.105,4.113,4.1,4.092,0,0,17.932,82.31,6,P-GPS,
0.353884800103954,36.8971772287791,5875.5237126231,69.881892,0,1.01154202712,10900,2018-04-15 06:35:31,17,0,16.293,5875.5237126231,69.881892,0.223694,1.2077264166,0,0,-11.1847,260.5, -0.9, -0.7,0,0,1024,1024,1658,1024,260.8,-10.7,99,4.105,4.113,4.1,4.092,0,0,17.932,82.31,6,P-GPS,
0.35388474437383,36.8971772487414,5877.1641326231,71.522312,0,1.0119258854,11000,2018-04-15 06:35:31,17,0,16.186,5877.1641326231,71.522312,0.223694,1.2077264166,0,0,-11.1847,260.5, -0.5, -0.4,0,0,1024,1024,1664,1024,260.8,-10.7,99,4.08,4.091,4.084,4.085,0,0,19.892,82.31,6,P-GPS,
0.353884676396744,36.8971772858002,5878.8045526231,73.162732,0,1.01746066248,11100,2018-04-15 06:35:31,17,0,16.186,5878.8045526231,73.162732,0.223694,1.2077264166,0,0,-10.961006,260.5, -0.4, 0,0,0,1024,1024,1664,1024,260.8,-10.7,99,4.08,4.091,4.084,4.085,0,0,19.892,82.31,6,P-GPS,
0.353884625952266,36.8971773183967,5880.4449726231,74.803152,0,1.02384845796,11200,2018-04-15 06:35:31,17,0,16.186,5880.4449726231,74.803152,0.223694,1.2077264166,0,0,-10.961006,260.5, -0.3, 0,0,0,1024,1024,1647,1024,260.8,-10.7,99,4.08,4.091,4.084,4.085,0,0,19.892,82.31,6,P-GPS,
0.35388457826698,36.8971773377102,5882.0853926231,76.443572,0,1.02621066276,11300,2018-04-15 06:35:31,17,0,16.186,5882.0853926231,76.443572,0.223694,1.2077264166,0,0,-10.737312,260.5, -0.2, -0.2,0,0,1024,1024,1645,1024,260.8,-10.7,99,4.08,4.091,4.084,4.085,0,0,19.892,82.31,6,P-GPS,
0.353884545555522,36.8971773476454,5883.7258126231,78.083992,0,1.0268537074,11400,2018-04-15 06:35:31,17,0,16.186,5883.7258126231,78.083992,0.223694,1.2077264166,0,0,-10.513618,260.5, -0.1, -0.3,0,0,1024,1024,1664,1024,260.8,-10.7,99,4.08,4.091,4.084,4.085,0,0,19.892,82.31,6,P-GPS,
0.35388450590208,36.8971773518871,5885.0381486231,79.396328,0,1.02505580708,11500,2018-04-15 06:35:31,17,0,16.186,5885.0381486231,79.396328,0.223694,1.2077264166,0,0,-10.289924,260.5, -0.2, -0.3,0,0,1024,1024,1681,1024,260.8,-10.7,99,4.08,4.091,4.084,4.085,0,0,19.892,82.31,6,P-GPS,
0.353884473697736,36.8971773536043,5886.6785686231,81.036748,0,1.023129954,11600,2018-04-15 06:35:31,17,0,16.186,5886.6785686231,81.036748,0.223694,1.2077264166,0,0,-10.513618,260.5, -0.1, 0,0,0,1024,1024,1684,1024,260.8,-10.7,99,4.08,4.091,4.084,4.085,0,0,19.892,82.31,6,P-GPS,
0.353884462193772,36.8971773703024,5888.3189886231,82.677168,0,1.02821853684,11700,2018-04-15 06:35:32,17,0,16.186,5888.3189886231,82.677168,0.223694,1.2077264166,0,0,-10.737312,260.5, 0.1, -0.1,0,0,1024,1024,1684,1024,260.8,-10.7,99,4.08,4.091,4.084,4.085,0,0,19.892,82.31,6,P-GPS,
0.353884469336127,36.897177389434,5889.9594086231,84.317588,0,1.03558402264,11800,2018-04-15 06:35:32,17,0,16.186,5889.9594086231,84.317588,0.223694,1.2077264166,0,0,-10.737312,260.5, 0.1, -0.4,0,0,1024,1024,1684,1024,260.8,-10.7,99,4.08,4.091,4.084,4.085,0,0,19.892,82.31,6,P-GPS,
0.35388448781772,36.897177431956,5891.5998286231,85.958008,0,1.05216210716,11900,2018-04-15 06:35:32,17,0,16.186,5891.5998286231,85.958008,0.223694,1.2077264166,0,0,-10.961006,260.5, 0, -0.5,0,0,1024,1024,1684,1024,260.8,-10.7,99,4.08,4.091,4.084,4.085,0,0,19.892,82.31,6,P-GPS,
0.353884508901165,36.8971774671348,5893.2402486231,87.598428,0,1.06633205512,12000,2018-04-15 06:35:32,17,0,16.213,5893.2402486231,87.598428,0.223694,1.2077264166,0,0,-11.1847,260.5, 0, -0.4,0,0,1024,1024,1684,1024,260.8,-10.7,99,4.097,4.112,4.105,4.101,0,0,16.972,82.31,6,P-GPS,
0.353884530652037,36.8971774971993,5894.8806686231,89.238848,0,1.07875987704,12100,2018-04-15 06:35:32,17,0,16.213,5894.8806686231,89.238848,0.223694,1.2077264166,0,0,-11.1847,260.5, 0.2, -0.4,0,0,1024,1024,1684,1024,260.8,-10.7,99,4.097,4.112,4.105,4.101,0,0,16.972,82.31,6,P-GPS,
0.353884557514204,36.8971775251761,5896.5210886231,90.879268,0,1.09088914252,12200,2018-04-15 06:35:32,17,0,16.213,5896.5210886231,90.879268,0.223694,1.2077264166,0,0,-11.1847,260.5, -0.2, -0.6,0,0,1024,1024,1684,1024,260.8,-10.7,99,4.097,4.112,4.105,4.101,0,0,16.972,82.31,6,P-GPS,
0.353884579865992,36.8971775766012,5898.4895926231,92.847772,0,1.11101053424,12300,2018-04-15 06:35:32,17,0,16.213,5898.4895926231,92.847772,0.223694,1.2077264166,0,0,-11.1847,260.5, -0.4, -0.7,0,0,1024,1024,1684,1024,260.8,-10.7,99,4.097,4.112,4.105,4.101,0,0,16.972,82.31,6,P-GPS,
0.353884601008189,36.8971776193148,5900.1300126231,94.488192,0,1.127952792,12400,2018-04-15 06:35:32,17,0,16.213,5900.1300126231,94.488192,0.223694,1.2077264166,0,0,-11.1847,260.5, -0.4, -0.8,0,0,1024,1024,1684,1024,260.8,-10.7,99,4.097,4.112,4.105,4.101,0,0,16.972,82.31,6,P-GPS,
0.353884659466563,36.8971776465348,5903.4108526231,97.769032,0,1.14271001032,12600,2018-04-15 06:35:32,17,0,16.213,5903.4108526231,97.769032,0.223694,1.2077264166,0,0,-11.1847,260.5, 0.4, -0.3,0,0,1024,1024,1684,1024,260.8,-10.7,99,4.097,4.112,4.105,4.101,0,0,16.972,82.31,6,P-GPS,
0.353884679355646,36.8971776798325,5905.0512726231,99.409452,0,1.1562828454,12700,2018-04-15 06:35:32,17,0,16.213,5905.0512726231,99.409452,0.223694,1.2077264166,0,0,-11.1847,260.5, 0.4, -0.1,0,0,1024,1024,1684,1024,260.8,-10.7,99,4.097,4.112,4.105,4.101,0,0,16.972,82.31,6,P-GPS,
0.353884707195589,36.8971777315445,5906.6916926231,101.049872,0,1.17710961772,12800,2018-04-15 06:35:33,17,0,16.213,5906.6916926231,101.049872,0.223694,1.2077264166,0,0,-11.1847,260.5, 0, -0.5,0,0,1024,1024,1684,1024,260.8,-10.7,99,4.097,4.112,4.105,4.101,0,0,16.972,82.31,6,P-GPS,
0.353884724238374,36.8971778153734,5908.3321126231,102.690292,0,1.2082677552,12900,2018-04-15 06:35:33,17,0,16.213,5908.3321126231,102.690292,0.223694,1.2082677552,0,0,-11.1847,260.5, -0.6, -0.7,0,0,1024,1024,1684,1024,260.8,-10.7,99,4.097,4.112,4.105,4.101,0,0,16.972,82.31,6,P-GPS,
0.353884736871856,36.8971778905903,5909.9725326231,104.330712,0,1.23598429152,13000,2018-04-15 06:35:33,17,0,16.24,5909.9725326231,104.330712,0.223694,1.23598429152,0,0,-10.961006,260.5, -0.5, -0.6,0,0,1024,1024,1684,1024,260.8,-10.7,99,4.083,4.095,4.085,4.084,0,0,17.73,82.31,6,P-GPS,
0.353884755743944,36.8971779677033,5911.6129526231,105.971132,0,1.2649442662,13100,2018-04-15 06:35:33,17,0,16.24,5911.6129526231,105.971132,0.223694,1.2649442662,0,0,-10.961006,260.5, -0.6, -0.5,0,0,1024,1024,1684,1024,260.8,-10.7,99,4.083,4.095,4.085,4.084,0,0,17.73,82.31,6,P-GPS,
0.353884780679531,36.8971780337078,5913.2533726231,107.611552,0,1.29054466072,13200,2018-04-15 06:35:33,17,0,16.24,5913.2533726231,107.611552,0.223694,1.29054466072,0,0,-10.961006,260.5, -0.8, -0.6,0,0,1024,1024,1684,1024,260.8,-10.7,99,4.083,4.095,4.085,4.084,0,0,17.73,82.31,6,P-GPS,
0.353884785362262,36.8971780939621,5915.2218766231,109.580056,0,1.31224741732,13300,2018-04-15 06:35:33,17,0,16.24,5915.2218766231,109.580056,0.223694,1.31224741732,0,0,-10.961006,260.5, -0.8, -0.4,0,0,1024,1024,1684,1024,260.8,-10.7,99,4.083,4.095,4.085,4.084,0,0,17.73,82.31,6,P-GPS,
0.353884784332195,36.8971781407033,5916.8622966231,111.220476,0,1.32867130236,13400,2018-04-15 06:35:33,17,0,16.24,5916.8622966231,111.220476,0.223694,1.32867130236,0,0,-11.1847,260.5, -0.6, -0.3,0,0,1024,1024,1684,1024,260.8,-10.7,99,4.083,4.095,4.085,4.084,0,0,17.73,82.31,6,P-GPS,
0.353884769663693,36.8971781823785,5918.5027166231,112.860896,0,1.342109623,13500,2018-04-15 06:35:33,17,0,16.24,5918.5027166231,112.860896,0.223694,1.342109623,0,0,-11.1847,260.5, -0.4, -0.2,0,0,1024,1024,1684,1024,260.8,-10.7,99,4.083,4.095,4.085,4.084,0,0,17.73,82.31,6,P-GPS,
0.353884758923939,36.8971782217604,5920.1431366231,114.501316,0,1.35513127696,13600,2018-04-15 06:35:33,17,0,16.24,5920.1431366231,114.501316,0.223694,1.35513127696,0,0,-11.1847,260.5, -0.3, -0.2,0,0,1024,1024,1684,1024,260.7,-10.7,99,4.083,4.095,4.085,4.084,0,0,17.73,82.31,6,P-GPS,
0.353884769976227,36.8971782721256,5921.7835566231,116.141736,0,1.37393705184,13700,2018-04-15 06:35:34,17,0,16.24,5921.7835566231,116.141736,0.223694,1.37393705184,0,0,-10.961006,260.5, -0.3, -0.1,0,0,1024,1024,1684,1024,260.7,-10.7,99,4.083,4.095,4.085,4.084,0,0,17.73,82.31,6,P-GPS,
0.35388479118774,36.8971783267293,5923.4239766231,117.782156,0,1.39512471656,13800,2018-04-15 06:35:34,17,0,16.24,5923.4239766231,117.782156,0.223694,1.39512471656,0,0,-11.1847,260.5, -0.7, -0.2,0,0,1024,1024,1684,1024,260.7,-10.7,99,4.083,4.095,4.085,4.084,0,0,17.73,82.31,6,P-GPS,
0.353884805427796,36.8971784145889,5925.0643966231,119.422576,0,1.42750004568,13900,2018-04-15 06:35:34,17,0,16.24,5925.0643966231,119.422576,0.223694,1.42750004568,0,0,-10.961006,260.5, -1, 0,0,0,1024,1024,1684,1024,260.7,-10.7,99,4.083,4.095,4.085,4.084,0,0,17.73,82.31,6,P-GPS,
0.353884811229815,36.8971784901977,5926.7048166231,121.062996,0,1.45481303868,14000,2018-04-15 06:35:34,17,0,16.24,5926.7048166231,121.062996,0.223694,1.45481303868,0,0,-10.961006,260.5, -0.9, 0.2,0,0,1024,1024,1684,1024,260.7,-10.7,99,4.083,4.095,4.085,4.084,0,0,17.73,82.31,6,P-GPS,
0.3538848211949,36.8971785507368,5928.3452366231,122.703416,0,1.47714243572,14100,2018-04-15 06:35:34,17,0,16.24,5928.3452366231,122.703416,0.223694,1.47714243572,0,0,-10.961006,260.5, -0.6, 0.1,0,0,1024,1024,1684,1024,260.7,-10.7,99,4.083,4.095,4.085,4.084,0,0,17.73,82.31,6,P-GPS,
0.353884841563426,36.897178592291,5930.3137406231,124.67192,0,1.49361553336,14200,2018-04-15 06:35:34,17,0,16.24,5930.3137406231,124.67192,0.223694,1.49361553336,0,0,-11.1847,260.5, -0.6, -0.2,0,0,1024,1024,1684,1024,260.7,-10.7,99,4.083,4.095,4.085,4.084,0,0,17.73,82.31,6,P-GPS,
0.353884860067283,36.8971786317843,5931.9541606231,126.31234,0,1.50920608504,14300,2018-04-15 06:35:34,17,0,16.24,5931.9541606231,126.31234,0.223694,1.50920608504,0,0,-11.1847,260.5, -0.4, -0.4,0,0,1024,1024,1684,1024,260.7,-10.7,99,4.083,4.095,4.085,4.084,0,0,17.73,82.31,6,P-GPS,
0.35388487357889,36.8971786620458,5933.5945806231,127.95276,0,1.52110241088,14400,2018-04-15 06:35:34,17,0,16.24,5933.5945806231,127.95276,0.223694,1.52110241088,0,0,-11.1847,260.5, -0.3, -0.3,0,0,1024,1024,1684,1024,260.7,-10.8,99,4.083,4.095,4.085,4.084,0,0,17.73,82.31,6,P-GPS,
0.353884873161626,36.8971786774688,5935.2350006231,129.59318,0,1.52653220108,14500,2018-04-15 06:35:34,17,0,16.24,5935.2350006231,129.59318,0.223694,1.52653220108,0,0,-11.1847,260.5, -0.3, -0.2,0,0,1024,1024,1684,1024,260.8,-10.9,99,4.083,4.095,4.085,4.084,0,0,17.73,82.31,6,P-GPS,
0.353884870263429,36.8971786908009,5936.8754206231,131.2336,0,1.53101054768,14600,2018-04-15 06:35:34,17,0,16.24,5936.8754206231,131.2336,0.223694,1.53101054768,0,0,-11.1847,260.5, -0.3, -0.1,0,0,1024,1024,1684,1024,260.8,-11,99,4.083,4.095,4.085,4.084,0,0,17.73,82.31,6,P-GPS,
0.353884881907287,36.89717869197,5938.5158406231,132.87402,0,1.53242787056,14700,2018-04-15 06:35:35,17,0,16.24,5938.5158406231,132.87402,0.223694,1.53242787056,0,0,-11.1847,260.5, -0.3, 0,0,0,1024,1024,1684,1024,260.7,-11.2,99,4.083,4.095,4.085,4.084,0,0,17.73,82.31,6,P-GPS,
0.35388490115725,36.8971786951005,5940.1562606231,134.51444,0,1.5352198654,14800,2018-04-15 06:35:35,17,0,16.24,5940.1562606231,134.51444,0.223694,1.5352198654,0,0,-11.1847,260.5, -0.5, 0.1,0,0,1024,1024,1684,1024,260.7,-11.4,99,4.083,4.095,4.085,4.084,0,0,17.73,82.31,6,P-GPS,
0.353884919321016,36.8971787077988,5941.7966806231,136.15486,0,1.54132878948,14900,2018-04-15 06:35:35,17,0,16.24,5941.7966806231,136.15486,0.223694,1.54132878948,0,0,-11.1847,260.5, -0.2, 0,0,0,1024,1024,1684,1024,260.7,-11.7,99,4.083,4.095,4.085,4.084,0,0,17.73,82.31,6,P-GPS,
0.353884935222212,36.8971787231019,5943.7651846231,138.123364,0,1.54816934088,15000,2018-04-15 06:35:35,17,0,16.24,5943.7651846231,138.123364,0.223694,1.54816934088,0,0,-11.1847,260.5, -0.2, -0.1,0,0,1024,1024,1684,1024,260.7,-12,99,4.083,4.095,4.085,4.084,0,0,17.73,82.31,6,P-GPS,
0.353884945947323,36.8971787308327,5945.4056046231,139.763784,0,1.55187340924,15100,2018-04-15 06:35:35,17,0,16.24,5945.4056046231,139.763784,0.223694,1.55187340924,0,0,-11.1847,260.5, -0.6, -0.3,0,0,1024,1024,1684,1024,260.7,-12,99,4.083,4.095,4.085,4.084,0,0,17.73,82.31,6,P-GPS,
0.353884949665467,36.8971787258705,5947.0460246231,141.404204,0,1.5504593672,15200,2018-04-15 06:35:35,17,0,16.24,5947.0460246231,141.404204,0.223694,1.55187340924,0,0,-11.1847,260.5, -0.3, 0,0,0,1024,1024,1684,1024,260.7,-12.8,99,4.083,4.095,4.085,4.084,0,0,17.73,82.31,6,P-GPS,
0.353884975464651,36.8971787421618,5948.6864446231,143.044624,0,1.55859256956,15300,2018-04-15 06:35:35,17,0,16.24,5948.6864446231,143.044624,0.223694,1.55859256956,0,0,-10.961006,260.5, -0.2, 0,0,0,1024,1024,1684,1024,260.7,-13.2,99,4.083,4.095,4.085,4.084,0,0,17.73,82.31,6,P-GPS,
0.353885011849255,36.8971787748653,5950.3268646231,144.685044,0,1.57355319996,15400,2018-04-15 06:35:35,17,0,16.24,5950.3268646231,144.685044,0.223694,1.57355319996,0,0,-10.961006,260.5, -0.9, 0.2,0,0,1024,1024,1684,1024,260.7,-13.7,99,4.083,4.095,4.085,4.084,0,0,17.73,82.31,6,P-GPS,
0.353885087772378,36.8971788268749,5951.9672846231,146.325464,0,1.5992618622,15500,2018-04-15 06:35:35,17,0,16.24,5951.9672846231,146.325464,0.223694,1.5992618622,0,0,-11.1847,260.5, -1, -0.5,0,0,1024,1024,1684,1024,260.7,-14.1,99,4.083,4.095,4.085,4.084,0,0,17.73,82.31,6,P-GPS,
0.353885160416399,36.8971788576536,5953.6077046231,147.965884,0,1.61749349008,15600,2018-04-15 06:35:35,17,0,16.24,5953.6077046231,147.965884,0.223694,1.61749349008,0,0,-11.1847,260.5, -0.9, -1,0,0,1024,1024,1678,1024,260.7,-14.1,99,4.083,4.095,4.085,4.084,0,0,17.73,82.31,6,P-GPS,
0.353885197924146,36.8971788697663,5955.2481246231,149.606304,0,1.62570871344,15700,2018-04-15 06:35:36,17,0,16.24,5955.2481246231,149.606304,0.223694,1.62570871344,0,0,-11.1847,260.5, -0.8, -0.5,0,0,1024,1024,1679,1024,260.7,-14.2,99,4.083,4.095,4.085,4.084,0,0,17.73,82.31,6,P-GPS,
0.353885214507202,36.8971788444884,5957.2166286231,151.574808,0,1.61870412004,15800,2018-04-15 06:35:36,17,0,16.24,5957.2166286231,151.574808,0.223694,1.62570871344,0,0,-11.1847,260.5, 0.3, -0.2,0,0,1024,1024,1684,1024,260.7,-14.2,99,4.083,4.095,4.085,4.084,0,0,17.73,82.31,6,P-GPS,
0.353885247339839,36.897178850594,5958.8570486231,153.215228,0,1.6244587134,15900,2018-04-15 06:35:36,17,0,16.24,5958.8570486231,153.215228,0.223694,1.62570871344,0,0,-10.961006,260.5, 1, -0.3,0,0,1024,1024,1684,1024,260.7,-14.2,99,4.083,4.095,4.085,4.084,0,0,17.73,82.31,6,P-GPS,
0.35388529352358,36.8971788735969,5960.4974686231,154.855648,0,1.6376640944,16000,2018-04-15 06:35:36,17,0,16.266,5960.4974686231,154.855648,0.223694,1.6376640944,0,0,-10.961006,260.5, 0.6, -0.5,0,0,1024,1024,1684,1024,260.7,-14.2,98,4.077,4.089,4.081,4.079,0,0,17.584,82.31,6,P-GPS,
0.353885363644582,36.8971788978224,5962.1378886231,156.496068,0,1.65422905556,16100,2018-04-15 06:35:36,17,0,16.266,5962.1378886231,156.496068,0.223694,1.65422905556,0,0,-10.961006,260.6, 0.1, -0.4,0,0,1024,1024,1684,1024,260.7,-14.2,98,4.077,4.089,4.081,4.079,0,0,17.584,82.31,6,P-GPS,
0.353885444346602,36.8971789156179,5963.7783086231,158.136488,0,1.67017393796,16200,2018-04-15 06:35:36,17,0,16.266,5963.7783086231,158.136488,0.223694,1.67017393796,0,0,-10.961006,260.6, -0.2, -0.7,0,0,1024,1024,1682,1024,260.7,-14.2,98,4.077,4.089,4.081,4.079,0,0,17.584,82.31,6,P-GPS,
0.353885534016362,36.8971789322988,5965.4187286231,159.776908,0,1.68729336108,16300,2018-04-15 06:35:36,17,0,16.266,5965.4187286231,159.776908,0.223694,1.68729336108,0,0,-11.1847,260.5, -0.4, -1.2,0,0,1024,1024,1684,1024,260.7,-14.2,98,4.077,4.089,4.081,4.079,0,0,17.584,82.31,6,P-GPS,
0.353885617652737,36.8971789493652,5967.0591486231,161.417328,0,1.70420281044,16400,2018-04-15 06:35:36,17,0,16.266,5967.0591486231,161.417328,0.223694,1.70420281044,0,0,-10.961006,260.5, -0.7, -1.6,0,0,1024,1024,1684,1024,260.7,-14.2,98,4.077,4.089,4.081,4.079,0,0,17.584,82.31,6,P-GPS,
0.353885677570723,36.8971789896133,5968.6995686231,163.057748,0,1.7260171156,16500,2018-04-15 06:35:36,17,0,16.266,5968.6995686231,163.057748,0.223694,1.7260171156,0,0,-10.961006,260.6, -0.8, -1.5,0,0,1024,1024,1684,1024,260.7,-14.2,98,4.077,4.089,4.081,4.079,0,0,17.584,82.31,6,P-GPS,
0.353885722590584,36.8971790299662,5970.3399886231,164.698168,0,1.74589244432,16600,2018-04-15 06:35:36,17,0,16.266,5970.3399886231,164.698168,0.223694,1.74589244432,0,0,-10.961006,260.6, -0.6, -1.1,0,0,1024,1024,1684,1024,260.7,-14.2,98,4.077,4.089,4.081,4.079,0,0,17.584,82.31,6,P-GPS,
0.353885750361152,36.8971790330603,5971.9804086231,166.338588,0,1.7508530744,16700,2018-04-15 06:35:37,17,0,16.266,5971.9804086231,166.338588,0.223694,1.7508530744,0,0,-10.961006,260.6, -0.7, -0.9,0,0,1024,1024,1684,1024,260.7,-14.3,98,4.077,4.089,4.081,4.079,0,0,17.584,82.31,6,P-GPS,
0.35388578712816,36.8971790289631,5973.6208286231,167.979008,0,1.7547408698,16800,2018-04-15 06:35:37,17,0,16.266,5973.6208286231,167.979008,0.223694,1.7547408698,0,0,-10.961006,260.5, -0.8, -1.2,0,0,1024,1024,1684,1024,260.7,-14.4,98,4.077,4.089,4.081,4.079,0,0,17.584,82.31,6,P-GPS,
0.353885828459901,36.8971790366778,5975.2612486231,169.619428,0,1.76333995144,16900,2018-04-15 06:35:37,17,0,16.266,5975.2612486231,169.619428,0.223694,1.76333995144,0,0,-10.961006,260.5, -1.2, -1.8,0,0,1024,1024,1684,1024,260.7,-14.6,98,4.077,4.089,4.081,4.079,0,0,17.584,82.31,6,P-GPS,
0.353885863190744,36.8971790531714,5977.2297526231,171.587932,0,1.77396987304,17000,2018-04-15 06:35:37,17,0,16.24,5977.2297526231,171.587932,0.223694,1.77396987304,0,0,-10.961006,260.5, -1.3, -1.4,0,0,1024,1024,1684,1024,260.7,-14.9,98,4.071,4.083,4.073,4.071,0,0,17.518,82.31,6,P-GPS,
0.353885889520444,36.8971790510324,5978.8701726231,173.228352,0,1.77719165792,17100,2018-04-15 06:35:37,17,0,16.24,5978.8701726231,173.228352,0.223694,1.77719165792,0,0,-10.961006,260.5, -0.9, -1.3,0,0,1024,1024,1684,1024,260.7,-14.9,98,4.071,4.083,4.073,4.071,0,0,17.518,82.31,6,P-GPS,
0.353885918520895,36.8971790433969,5980.5105926231,174.868772,0,1.77904205168,17200,2018-04-15 06:35:37,17,0,16.24,5980.5105926231,174.868772,0.223694,1.77904205168,0,0,-11.1847,260.6, -0.8, -1.7,0,0,1024,1024,1684,1024,260.7,-15.2,98,4.071,4.083,4.073,4.071,0,0,17.518,82.31,6,P-GPS,
0.35388597790353,36.8971790292436,5982.1510126231,176.509192,0,1.78352695996,17300,2018-04-15 06:35:37,17,0,16.24,5982.1510126231,176.509192,0.223694,1.78352695996,0,0,-10.961006,260.5, -1, -2.2,0,0,1024,1024,1684,1024,260.7,-15.5,98,4.071,4.083,4.073,4.071,0,0,17.518,82.31,6,P-GPS,
0.353886024115208,36.8971790082577,5983.7914326231,178.149612,0,1.78392722244,17400,2018-04-15 06:35:37,17,0,16.24,5983.7914326231,178.149612,0.223694,1.78392722244,0,0,-10.961006,260.5, -0.8, -1.8,0,0,1024,1024,1684,1024,260.7,-15.8,98,4.071,4.083,4.073,4.071,0,0,17.518,82.31,6,P-GPS,
0.353886039121116,36.8971789814778,5985.4318526231,179.790032,0,1.77756239284,17500,2018-04-15 06:35:37,17,0,16.24,5985.4318526231,179.790032,0.223694,1.78392722244,0,0,-10.961006,260.5, -0.5, -1.4,0,0,1024,1024,1684,1024,260.7,-16.1,98,4.071,4.083,4.073,4.071,0,0,17.518,82.31,6,P-GPS,
0.353886042492911,36.8971789605787,5987.0722726231,181.430452,0,1.77127302256,17600,2018-04-15 06:35:37,17,0,16.24,5987.0722726231,181.430452,0.223694,1.78392722244,0,0,-10.961006,260.4, 0, -1.3,0,0,1024,1024,1684,1024,260.7,-16.4,98,4.071,4.083,4.073,4.071,0,0,17.518,82.31,6,P-GPS,
0.353886070398538,36.8971789608046,5988.7126926231,183.070872,0,1.77589900696,17700,2018-04-15 06:35:38,17,0,16.24,5988.7126926231,183.070872,0.223694,1.78392722244,0,0,-10.961006,260.6, 0, -0.9,0,0,1024,1024,1684,1024,260.7,-16.7,98,4.071,4.083,4.073,4.071,0,0,17.518,82.31,6,P-GPS,
0.353886118617477,36.8971789807969,5990.3531126231,184.711292,0,1.79036094968,17800,2018-04-15 06:35:38,17,0,16.24,5990.3531126231,184.711292,0.223694,1.79036094968,0,0,-10.961006,260.6, -0.7, -1,0,0,1024,1024,1684,1024,260.7,-17,98,4.071,4.083,4.073,4.071,0,0,17.518,82.31,6,P-GPS,
0.353886213216334,36.897179005153,5992.3216166231,186.679796,0,1.8141896906,17900,2018-04-15 06:35:38,17,0,16.24,5992.3216166231,186.679796,0.223694,1.8141896906,0,0,-11.1847,260.6, -1.2, -1.1,0,0,1024,1024,1684,1024,260.7,-17.3,98,4.071,4.083,4.073,4.071,0,0,17.518,82.31,6,P-GPS,
0.353886336621143,36.8971790079794,5993.9620366231,188.320216,0.223694,1.83661095116,18000,2018-04-15 06:35:38,17,0,16.186,5993.9620366231,188.320216,0.223694,1.83661095116,0.223694,0,-11.1847,260.6, -1.5, -2,0,0,1024,1024,1684,1024,260.7,-17.7,98,4.071,4.083,4.073,4.071,0,0,18.002,84.11,6,P-GPS,
0.353886524612382,36.8971789817926,5995.6024566231,189.960636,0.223694,1.86280845856,18100,2018-04-15 06:35:38,17,0,16.186,5995.6024566231,189.960636,0.223694,1.86280845856,0.223694,0,-11.1847,260.6, -0.9, -3.2,0,0,1024,1024,1684,1024,260.7,-18,98,4.071,4.083,4.073,4.071,0,0,18.002,84.11,6,P-GPS,
0.353886711076751,36.8971789460988,5997.2428766231,191.601056,0.223694,1.88797250136,18200,2018-04-15 06:35:38,17,0,16.186,5997.2428766231,191.601056,0.223694,1.88797250136,0.223694,0,-11.1847,260.5, -0.6, -4,0,0,1024,1024,1684,1024,260.7,-18.4,98,4.071,4.083,4.073,4.071,0,0,18.002,84.11,6,P-GPS,
0.353886882319036,36.8971788955623,5998.8832966231,193.241476,0.223694,1.90768706892,18300,2018-04-15 06:35:38,17,0,16.186,5998.8832966231,193.241476,0.223694,1.90768706892,0.223694,0,-11.1847,260.6, -0.4, -4.3,0,0,1024,1024,1684,1024,260.7,-18.7,98,4.071,4.083,4.073,4.071,0,0,18.002,84.11,6,P-GPS,
0.353887022636152,36.8971788564427,6000.5237166231,194.881896,0.223694,1.92600727948,18400,2018-04-15 06:35:38,17,0,16.186,6000.5237166231,194.881896,0.223694,1.92600727948,0.223694,0,-11.1847,260.5, -0.5, -4.4,0,0,1024,1024,1684,1024,260.7,-19.1,98,4.071,4.083,4.073,4.071,0,0,18.002,84.11,6,P-GPS,
0.353887150158381,36.8971788194579,6002.4922206231,196.8504,0.223694,1.94335308056,18500,2018-04-15 06:35:38,17,0,16.186,6002.4922206231,196.8504,0.223694,1.94335308056,0.223694,0,-11.1847,260.5, -1.1, -4.5,0,0,1024,1024,1684,1024,260.7,-19.1,98,4.071,4.083,4.073,4.071,0,0,18.002,84.11,6,P-GPS,
0.353887255809588,36.8971787930237,6004.1326406231,198.49082,0,1.9597113488,18600,2018-04-15 06:35:38,17,0,16.186,6004.1326406231,198.49082,0.223694,1.9597113488,0,0,-11.1847,260.5, -1.2, -4.3,0,0,1024,1024,1684,1024,260.7,-19.5,98,4.071,4.083,4.073,4.071,0,0,18.002,84.11,6,P-GPS,
0.353887359818102,36.8971788066353,6005.7730606231,200.13124,0,1.98757552292,18700,2018-04-15 06:35:39,17,0,16.186,6005.7730606231,200.13124,0.223694,1.98757552292,0,0,-11.1847,260.5, -1.1, -4.2,0,0,1024,1024,1684,1024,260.7,-19.8,98,4.071,4.083,4.073,4.071,0,0,18.002,84.11,6,P-GPS,
0.353887447392767,36.8971788271051,6007.4134806231,201.77166,0,2.0138124004,18800,2018-04-15 06:35:39,17,0,16.186,6007.4134806231,201.77166,0.223694,2.0138124004,0,0,-10.961006,260.6, -0.8, -4,0,0,1024,1024,1681,1024,260.7,-19.9,98,4.071,4.083,4.073,4.071,0,0,18.002,84.11,6,P-GPS,
0.353887499028691,36.8971788279884,6009.0539006231,203.41208,0,2.02626974988,18900,2018-04-15 06:35:39,17,0,16.186,6009.0539006231,203.41208,0.223694,2.02626974988,0,0,-10.961006,260.5, -0.8, -4.1,0,0,1024,1024,1679,1024,260.7,-19.9,98,4.071,4.083,4.073,4.071,0,0,18.002,84.11,6,P-GPS,
0.353887534815987,36.8971788229908,6010.6943206231,205.0525,0,2.03341870024,19000,2018-04-15 06:35:39,17,0,16.213,6010.6943206231,205.0525,0.223694,2.03341870024,0,0,-10.961006,260.5, -1, -4.2,0,0,1024,1024,1678,1024,260.7,-19.9,98,4.059,4.073,4.066,4.068,0,0,18.002,84.11,6,P-GPS,
0.3538875712913,36.8971788290461,6012.3347406231,206.69292,0,2.04382224388,19100,2018-04-15 06:35:39,17,0,16.213,6012.3347406231,206.69292,0.223694,2.04382224388,0,0,-10.737312,260.6, -1.3, -4.1,0,0,1024,1024,1668,1024,260.7,-19.9,98,4.059,4.073,4.066,4.068,0,0,18.002,84.11,6,P-GPS,
0.353887596360789,36.8971788367812,6013.9751606231,208.33334,0,2.05197513128,19200,2018-04-15 06:35:39,17,0,16.213,6013.9751606231,208.33334,0.223694,2.05197513128,0,0,-10.961006,260.6, -1, -3.7,0,0,1024,1024,1671,1024,260.7,-19.9,98,4.059,4.073,4.066,4.068,0,0,18.002,84.11,6,P-GPS,
0.353887611934413,36.897178839933,6015.6155806231,209.97376,0,2.05659127316,19300,2018-04-15 06:35:39,17,0,16.213,6015.6155806231,209.97376,0.223694,2.05659127316,0,0,-10.737312,260.5, -1, -3.3,0,0,1024,1024,1655,1024,260.7,-19.9,98,4.059,4.073,4.066,4.068,0,0,18.002,84.11,6,P-GPS,
0.353887628340172,36.8971788418087,6017.2560006231,211.61418,0,2.06106633892,19400,2018-04-15 06:35:39,17,0,16.213,6017.2560006231,211.61418,0.223694,2.06106633892,0,0,-10.737312,260.4, -0.7, -3.8,0,0,1024,1024,1647,1024,260.7,-19.9,98,4.059,4.073,4.066,4.068,0,0,18.002,84.11,6,P-GPS,
0.353887657036408,36.8971788457078,6018.8964206231,213.2546,0,2.06908471188,19500,2018-04-15 06:35:39,17,0,16.213,6018.8964206231,213.2546,0.223694,2.06908471188,0,0,-10.737312,260.4, -0.4, -3.8,0,0,1024,1024,1648,1024,260.7,-19.9,98,4.059,4.073,4.066,4.068,0,0,18.002,84.11,6,P-GPS,
0.353887667725311,36.897178878512,6020.5368406231,214.89502,0,2.08062014532,19600,2018-04-15 06:35:39,17,0,16.213,6020.5368406231,214.89502,0.223694,2.08062014532,0,0,-10.513618,260.5, -0.9, -2.9,0,0,1024,1024,1649,1024,260.7,-19.9,98,4.059,4.073,4.066,4.068,0,0,18.002,84.11,6,P-GPS,
0.353887682236986,36.8971789507613,6022.1772606231,216.53544,0,2.10389770512,19700,2018-04-15 06:35:40,17,0,16.213,6022.1772606231,216.53544,0.223694,2.10389770512,0,0,-10.513618,260.5, -1, -3.8,0,0,1024,1024,1662,1024,260.7,-19.9,98,4.059,4.073,4.066,4.068,0,0,18.002,84.11,6,P-GPS,
0.353887677743295,36.8971790466579,6023.8176806231,218.17586,0,2.12927828336,19800,2018-04-15 06:35:40,17,0,16.213,6023.8176806231,218.17586,0.223694,2.12927828336,0,0,-10.289924,260.4, -1.6, -3.7,0,0,1024,1024,1684,1024,260.7,-19.9,98,4.059,4.073,4.066,4.068,0,0,18.002,84.11,6,P-GPS,
0.353887610199306,36.897179278787,6026.7704366231,221.128616,0.223694,2.17886161828,20000,2018-04-15 06:35:40,17,0,16.24,6026.7704366231,221.128616,0.223694,2.17886161828,0,0.223694,-10.513618,260.5, -2.1, -2.2,0,0,1024,1024,1684,1024,260.7,-19.9,98,4.068,4.079,4.071,4.07,0,0,17.38,84.11,6,P-GPS,
0.353887562548185,36.8971794194614,6028.4108566231,222.769036,0.223694,2.20858930952,20100,2018-04-15 06:35:40,17,0,16.24,6028.4108566231,222.769036,0.223694,2.20858930952,0,0.223694,-10.737312,260.6, -2.7, -1.8,0,0,1024,1024,1684,1024,260.7,-19.9,98,4.068,4.079,4.071,4.07,0,0,17.38,84.11,6,P-GPS,
0.353887536227237,36.8971795503087,6030.0512766231,224.409456,0,2.24096463864,20200,2018-04-15 06:35:40,17,0,16.24,6030.0512766231,224.409456,0.223694,2.24096463864,0,0,-10.737312,260.6, -3.3, -2.4,0,0,1024,1024,1684,1024,260.7,-19.9,98,4.068,4.079,4.071,4.07,0,0,17.38,84.11,6,P-GPS,
0.3538875433185,36.8971796827524,6031.6916966231,226.049876,0,2.28150597852,20300,2018-04-15 06:35:40,17,0,16.24,6031.6916966231,226.049876,0.223694,2.28150597852,0,0,-10.961006,260.6, -3.4, -3,0,0,1024,1024,1684,1024,260.7,-19.9,98,4.068,4.079,4.071,4.07,0,0,17.38,84.11,6,P-GPS,
0.353887556083669,36.8971797907457,6033.6602006231,228.01838,0,2.31626319748,20400,2018-04-15 06:35:40,17,0,16.24,6033.6602006231,228.01838,0.223694,2.31626319748,0,0,-10.961006,260.6, -3.2, -3.3,0,0,1024,1024,1684,1024,260.7,-19.9,98,4.068,4.079,4.071,4.07,0,0,17.38,84.11,6,P-GPS,
0.353887538002852,36.8971798526294,6035.3006206231,229.6588,0,2.33093511396,20500,2018-04-15 06:35:40,17,0,16.24,6035.3006206231,229.6588,0.223694,2.33093511396,0,0,-10.961006,260.6, -2.9, -3.2,0,0,1024,1024,1684,1024,260.7,-19.9,98,4.068,4.079,4.071,4.07,0,0,17.38,84.11,6,P-GPS,
0.353887509559635,36.897179897723,6036.9410406231,231.29922,0,2.33856306696,20600,2018-04-15 06:35:40,17,0,16.24,6036.9410406231,231.29922,0.223694,2.33856306696,0,0,-10.961006,260.6, -2.8, -2.9,0,0,1024,1024,1684,1024,260.7,-19.9,98,4.068,4.079,4.071,4.07,0,0,17.38,84.11,6,P-GPS,
0.353887488608278,36.8971799227824,6038.5814606231,232.93964,0,2.34180781772,20700,2018-04-15 06:35:41,17,0,16.24,6038.5814606231,232.93964,0.223694,2.34180781772,0,0,-10.961006,260.6, -3, -3.2,0,0,1024,1024,1684,1024,260.7,-19.9,98,4.068,4.079,4.071,4.07,0,0,17.38,84.11,6,P-GPS,
0.353887480179655,36.8971799474265,6040.2218806231,234.58006,0,2.34753288352,20800,2018-04-15 06:35:41,17,0,16.24,6040.2218806231,234.58006,0.223694,2.34753288352,0,0,-10.961006,260.5, -2.9, -4.1,0,0,1024,1024,1684,1024,260.7,-19.9,98,4.068,4.079,4.071,4.07,0,0,17.38,84.11,6,P-GPS,
0.353887425258142,36.89717998891,6041.8623006231,236.22048,0,2.3490158232,20900,2018-04-15 06:35:41,17,0,16.24,6041.8623006231,236.22048,0.223694,2.3490158232,0,0,-10.961006,260.5, -2.8, -4,0,0,1024,1024,1684,1024,260.7,-19.9,98,4.068,4.079,4.071,4.07,0,0,17.38,84.11,6,P-GPS,
0.353887330948029,36.8971800368835,6043.5027206231,237.8609,0,2.34501647924,21000,2018-04-15 06:35:41,17,0,16.266,6043.5027206231,237.8609,0.223694,2.3490158232,0,0,-10.961006,260.5, -2.2, -3,0,0,1024,1024,1684,1024,260.7,-19.9,98,4.096,4.104,4.086,4.078,0,0,15.764,84.11,6,P-GPS,
0.353887228532337,36.8971800948189,6045.1431406231,239.50132,0.223694,2.3432087364,21100,2018-04-15 06:35:41,17,0,16.266,6045.1431406231,239.50132,0.223694,2.3490158232,-0.223694,0,-10.961006,260.5, -2.1, -1.9,0,0,1024,1024,1684,1024,260.7,-19.9,98,4.096,4.104,4.086,4.078,0,0,15.764,84.11,6,P-GPS,
0.353887145197326,36.8971801672555,6046.7835606231,241.14174,0,2.35027238492,21200,2018-04-15 06:35:41,17,0,16.266,6046.7835606231,241.14174,0.223694,2.35027238492,0,0,-11.1847,260.5, -2.5, -1.4,0,0,1024,1024,1684,1024,260.7,-19.9,98,4.096,4.104,4.086,4.078,0,0,15.764,84.11,6,P-GPS,
0.353887075372701,36.8971802506535,6048.4239806231,242.78216,0,2.36390755596,21300,2018-04-15 06:35:41,17,0,16.266,6048.4239806231,242.78216,0.223694,2.36390755596,0,0,-10.961006,260.5, -3.3, -1.7,0,0,1024,1024,1684,1024,260.7,-19.9,98,4.096,4.104,4.086,4.078,0,0,15.764,84.11,6,P-GPS,
0.353887023013951,36.8971803290148,6050.0644006231,244.42258,0,2.37957356696,21400,2018-04-15 06:35:41,17,0,16.266,6050.0644006231,244.42258,0.223694,2.37957356696,0,0,-11.1847,260.6, -3.7, -2.2,0,0,1024,1024,1684,1024,260.7,-19.9,98,4.096,4.104,4.086,4.078,0,0,15.764,84.11,6,P-GPS,
0.353886985898049,36.8971803775867,6051.7048206231,246.063,0,2.38867789796,21500,2018-04-15 06:35:41,17,0,16.266,6051.7048206231,246.063,0.223694,2.38867789796,0,0,-10.961006,260.6, -4.1, -2.5,0,0,1024,1024,1684,1024,260.7,-19.9,98,4.096,4.104,4.086,4.078,0,0,15.764,84.11,6,P-GPS,
0.353886941883854,36.8971803903772,6053.6733246231,248.031504,0,2.38523301596,21600,2018-04-15 06:35:41,17,0,16.266,6053.6733246231,248.031504,0.223694,2.38867789796,0,0,-10.961006,260.6, -3.1, -2.3,0,0,1024,1024,1684,1024,260.7,-19.9,98,4.096,4.104,4.086,4.078,0,0,15.764,84.11,6,P-GPS,
0.353886881186046,36.8971804002866,6055.3137446231,249.671924,0,2.3781660866,21700,2018-04-15 06:35:42,17,0,16.266,6055.3137446231,249.671924,0.223694,2.38867789796,0,0,-10.961006,260.6, -2.2, -2,0,0,1024,1024,1684,1024,260.7,-19.9,98,4.096,4.104,4.086,4.078,0,0,15.764,84.11,6,P-GPS,
0.353886817312163,36.8971804125685,6056.6260806231,250.98426,0,2.37153550896,21800,2018-04-15 06:35:42,17,0,16.266,6056.6260806231,250.98426,0.223694,2.38867789796,0,0,-10.961006,260.5, -1.8, -2.3,0,0,1024,1024,1684,1024,260.7,-19.9,98,4.096,4.104,4.086,4.078,0,0,15.764,84.11,6,P-GPS,
0.353886720560402,36.8971803991759,6058.5945846231,252.952764,0,2.3514272406,21900,2018-04-15 06:35:42,17,0,16.266,6058.5945846231,252.952764,0.223694,2.38867789796,0,0,-10.961006,260.5, -2, -1.9,0,0,1024,1024,1684,1024,260.7,-19.9,98,4.096,4.104,4.086,4.078,0,0,15.764,84.11,6,P-GPS,
